{"last_updated":1707070101,"ttl":30,"version":"2.2","data":{"bikes":[{"bike_id":"1ba22ce2-f1a9-437f-a913-4468dd5b1da1","system_id":"levelo_inurba_marseille","lat":43.314811,"lon":5.373103,"is_reserved":false,"is_disabled":false,"rental_uris":{"android":"levelo://app?vid=1ba22ce2-f1a9-437f-a913-4468dd5b1da1","ios":"levelo://app?vid=1ba22ce2-f1a9-437f-a913-4468dd5b1da1"},"vehicle_type_id":"4","last_reported":1707070102,"current_range_meters":17200,"station_id":"ce4bgt12rcd13ifvqcd0","pricing_plan_id":"free"},{"bike_id":"ef755315-c283-4045-851b-bbf39cf7b7e8","system_id":"levelo_inurba_marseille","lat":43.309039,"lon":5.371797,"is_reserved":false,"is_disabled":false,"rental_uris":{"android":"levelo://app?vid=ef755315-c283-4045-851b-bbf39cf7b7e8","ios":"levelo://app?vid=ef755315-c283-4045-851b-bbf39cf7b7e8"},"vehicle_type_id":"4","last_reported":1707070102,"current_range_meters":14800,"station_id":"ce4bguh2rcd13ifvqckg","pricing_plan_id":"free"},{"bike_id":"61938224-cbba-49a2-bc00-ecfb658c497a","system_id":"levelo_inurba_marseille","lat":43.309039,"lon":5.371797,"is_reserved":false,"is_disabled":false,"rental_uris":{"android":"levelo://app?vid=61938224-cbba-49a2-bc00-ecfb658c497a","ios":"levelo://app?vid=61938224-cbba-49a2-bc00-ecfb658c497a"},"vehicle_type_id":"4","last_reported":1707070102,"current_range_meters":0,"station_id":"ce4bguh2rcd13ifvqckg","pricing_plan_id":"free"},{"bike_id":"3a2412bb-739b-4f4a-9e45-d3e584381306","system_id":"levelo_inurba_marseille","lat":43.306978,"lon":5.373008,"is_reserved":false,"is_disabled":false,"rental_uris":{"android":"levelo://app?vid=3a2412bb-739b-4f4a-9e45-d3e584381306","ios":"levelo://app?vid=3a2412bb-739b-4f4a-9e45-d3e584381306"},"vehicle_type_id":"4","last_reported":1707070102,"current_range_meters":0,"station_id":"","pricing_plan_id":"free"},{"bike_id":"bdc71b19-39f0-478e-a2dd-ab1a69aac2f1","system_id":"levelo_inurba_marseille","lat":43.305368,"lon":5.367343,"is_reserved":false,"is_disabled":false,"rental_uris":{"android":"levelo://app?vid=bdc71b19-39f0-478e-a2dd-ab1a69aac2f1","ios":"levelo://app?vid=bdc71b19-39f0-478e-a2dd-ab1a69aac2f1"},"vehicle_type_id":"4","last_reported":1707070102,"current_range_meters":21600,"station_id":"ce4bgrp2rcd13ifvqc9g","pricing_plan_id":"free"},{"bike_id":"a1c29381-509b-475c-936b-c002958e686d","system_id":"levelo_inurba_marseille","lat":43.305368,"lon":5.367343,"is_reserved":false,"is_disabled":false,"rental_uris":{"android":"levelo://app?vid=a1c29381-509b-475c-936b-c002958e686d","ios":"levelo://app?vid=a1c29381-509b-475c-936b-c002958e686d"},"vehicle_type_id":"4","last_reported":1707070102,"current_range_meters":20400,"station_id":"ce4bgrp2rcd13ifvqc9g","pricing_plan_id":"free"},{"bike_id":"13592f1c-e9f7-4085-8f9f-2204b93dbeb7","system_id":"levelo_inurba_marseille","lat":43.30604,"lon":5.37235,"is_reserved":false,"is_disabled":false,"rental_uris":{"android":"levelo://app?vid=13592f1c-e9f7-4085-8f9f-2204b93dbeb7","ios":"levelo://app?vid=13592f1c-e9f7-4085-8f9f-2204b93dbeb7"},"vehicle_type_id":"4","last_reported":1707070102,"current_range_meters":4800,"station_id":"ce4bgqh2rcd13ifvqc4g","pricing_plan_id":"free"},{"bike_id":"f06957f8-2379-46aa-8c50-1bb33815d89b","system_id":"levelo_inurba_marseille","lat":43.311131,"lon":5.377651,"is_reserved":false,"is_disabled":false,"rental_uris":{"android":"levelo://app?vid=f06957f8-2379-46aa-8c50-1bb33815d89b","ios":"levelo://app?vid=f06957f8-2379-46aa-8c50-1bb33815d89b"},"vehicle_type_id":"4","last_reported":1707070102,"current_range_meters":22400,"station_id":"ce4bgt92rcd13ifvqcg0","pricing_plan_id":"free"},{"bike_id":"c60e7252-bcc2-4201-a624-aec62d3d6b5d","system_id":"levelo_inurba_marseille","lat":43.316473,"lon":5.376847,"is_reserved":false,"is_disabled":false,"rental_uris":{"android":"levelo://app?vid=c60e7252-bcc2-4201-a624-aec62d3d6b5d","ios":"levelo://app?vid=c60e7252-bcc2-4201-a624-aec62d3d6b5d"},"vehicle_type_id":"4","last_reported":1707070102,"current_range_meters":1200,"station_id":"","pricing_plan_id":"free"},{"bike_id":"0ef47422-aed9-4612-bf70-7d4b2c3bc7f0","system_id":"levelo_inurba_marseille","lat":43.317075,"lon":5.377367,"is_reserved":false,"is_disabled":false,"rental_uris":{"android":"levelo://app?vid=0ef47422-aed9-4612-bf70-7d4b2c3bc7f0","ios":"levelo://app?vid=0ef47422-aed9-4612-bf70-7d4b2c3bc7f0"},"vehicle_type_id":"4","last_reported":1707070102,"current_range_meters":17600,"station_id":"ce4bgth2rcd13ifvqch0","pricing_plan_id":"free"},{"bike_id":"481e547a-96e3-403a-a376-e43994032a97","system_id":"levelo_inurba_marseille","lat":43.317075,"lon":5.377367,"is_reserved":false,"is_disabled":false,"rental_uris":{"android":"levelo://app?vid=481e547a-96e3-403a-a376-e43994032a97","ios":"levelo://app?vid=481e547a-96e3-403a-a376-e43994032a97"},"vehicle_type_id":"4","last_reported":1707070102,"current_range_meters":31200,"station_id":"ce4bgth2rcd13ifvqch0","pricing_plan_id":"free"},{"bike_id":"ab69c84e-37e5-4a27-8865-ee90f2ac2fe2","system_id":"levelo_inurba_marseille","lat":43.301939,"lon":5.366286,"is_reserved":false,"is_disabled":false,"rental_uris":{"android":"levelo://app?vid=ab69c84e-37e5-4a27-8865-ee90f2ac2fe2","ios":"levelo://app?vid=ab69c84e-37e5-4a27-8865-ee90f2ac2fe2"},"vehicle_type_id":"4","last_reported":1707070102,"current_range_meters":26400,"station_id":"ce4bgrh2rcd13ifvqc8g","pricing_plan_id":"free"},{"bike_id":"d857196a-a759-4aba-9437-ba57d1dceab9","system_id":"levelo_inurba_marseille","lat":43.324771,"lon":5.36557,"is_reserved":false,"is_disabled":false,"rental_uris":{"android":"levelo://app?vid=d857196a-a759-4aba-9437-ba57d1dceab9","ios":"levelo://app?vid=d857196a-a759-4aba-9437-ba57d1dceab9"},"vehicle_type_id":"4","last_reported":1707070102,"current_range_meters":400,"station_id":"ce4bhs12rcd13ifvqhvg","pricing_plan_id":"free"},{"bike_id":"bc974708-dcbd-4a8a-ac0d-164e8d7c65dc","system_id":"levelo_inurba_marseille","lat":43.32489,"lon":5.36572,"is_reserved":false,"is_disabled":false,"rental_uris":{"android":"levelo://app?vid=bc974708-dcbd-4a8a-ac0d-164e8d7c65dc","ios":"levelo://app?vid=bc974708-dcbd-4a8a-ac0d-164e8d7c65dc"},"vehicle_type_id":"4","last_reported":1707070102,"current_range_meters":21200,"station_id":"ce4bhs12rcd13ifvqhvg","pricing_plan_id":"free"},{"bike_id":"cc1f1f55-cfe9-4d66-88ed-570dd139ade7","system_id":"levelo_inurba_marseille","lat":43.32493,"lon":5.3657,"is_reserved":false,"is_disabled":false,"rental_uris":{"android":"levelo://app?vid=cc1f1f55-cfe9-4d66-88ed-570dd139ade7","ios":"levelo://app?vid=cc1f1f55-cfe9-4d66-88ed-570dd139ade7"},"vehicle_type_id":"4","last_reported":1707070102,"current_range_meters":4000,"station_id":"ce4bhs12rcd13ifvqhvg","pricing_plan_id":"free"},{"bike_id":"7ab3f1c0-5e1f-4d1c-9104-38b168e3a08c","system_id":"levelo_inurba_marseille","lat":43.31077,"lon":5.38368,"is_reserved":false,"is_disabled":false,"rental_uris":{"android":"levelo://app?vid=7ab3f1c0-5e1f-4d1c-9104-38b168e3a08c","ios":"levelo://app?vid=7ab3f1c0-5e1f-4d1c-9104-38b168e3a08c"},"vehicle_type_id":"4","last_reported":1707070102,"current_range_meters":2800,"station_id":"ce4bgv92rcd13ifvqcr0","pricing_plan_id":"free"},{"bike_id":"914e5205-02f2-4daf-ac48-212693f8854a","system_id":"levelo_inurba_marseille","lat":43.30135,"lon":5.37423,"is_reserved":false,"is_disabled":false,"rental_uris":{"android":"levelo://app?vid=914e5205-02f2-4daf-ac48-212693f8854a","ios":"levelo://app?vid=914e5205-02f2-4daf-ac48-212693f8854a"},"vehicle_type_id":"4","last_reported":1707070102,"current_range_meters":19600,"station_id":"ce4bgs92rcd13ifvqcc0","pricing_plan_id":"free"},{"bike_id":"f4722360-683c-4330-a41f-ae15de548a95","system_id":"levelo_inurba_marseille","lat":43.319935,"lon":5.381699,"is_reserved":false,"is_disabled":false,"rental_uris":{"android":"levelo://app?vid=f4722360-683c-4330-a41f-ae15de548a95","ios":"levelo://app?vid=f4722360-683c-4330-a41f-ae15de548a95"},"vehicle_type_id":"4","last_reported":1707070102,"current_range_meters":29200,"station_id":"ce4bhr12rcd13ifvqhpg","pricing_plan_id":"free"},{"bike_id":"b7c0f36a-baf5-460f-bbf4-55378820706b","system_id":"levelo_inurba_marseille","lat":43.299724,"lon":5.371829,"is_reserved":false,"is_disabled":false,"rental_uris":{"android":"levelo://app?vid=b7c0f36a-baf5-460f-bbf4-55378820706b","ios":"levelo://app?vid=b7c0f36a-baf5-460f-bbf4-55378820706b"},"vehicle_type_id":"4","last_reported":1707070102,"current_range_meters":0,"station_id":"ce4bgr92rcd13ifvqc7g","pricing_plan_id":"free"},{"bike_id":"80a3321a-2252-4e46-b6b5-1c873d7b8c8a","system_id":"levelo_inurba_marseille","lat":43.299724,"lon":5.371829,"is_reserved":false,"is_disabled":false,"rental_uris":{"android":"levelo://app?vid=80a3321a-2252-4e46-b6b5-1c873d7b8c8a","ios":"levelo://app?vid=80a3321a-2252-4e46-b6b5-1c873d7b8c8a"},"vehicle_type_id":"4","last_reported":1707070102,"current_range_meters":16400,"station_id":"ce4bgr92rcd13ifvqc7g","pricing_plan_id":"free"},{"bike_id":"b0b4bd12-714f-421c-8ec8-ae55075904e0","system_id":"levelo_inurba_marseille","lat":43.299209,"lon":5.365547,"is_reserved":false,"is_disabled":false,"rental_uris":{"android":"levelo://app?vid=b0b4bd12-714f-421c-8ec8-ae55075904e0","ios":"levelo://app?vid=b0b4bd12-714f-421c-8ec8-ae55075904e0"},"vehicle_type_id":"4","last_reported":1707070102,"current_range_meters":15600,"station_id":"ce4bgm92rcd13ifvqbr0","pricing_plan_id":"free"},{"bike_id":"d73908e2-2bfd-489b-804e-d4e95fac72d2","system_id":"levelo_inurba_marseille","lat":43.326525,"lon":5.36078,"is_reserved":false,"is_disabled":false,"rental_uris":{"android":"levelo://app?vid=d73908e2-2bfd-489b-804e-d4e95fac72d2","ios":"levelo://app?vid=d73908e2-2bfd-489b-804e-d4e95fac72d2"},"vehicle_type_id":"4","last_reported":1707070102,"current_range_meters":21200,"station_id":"","pricing_plan_id":"free"},{"bike_id":"e88448bd-f1bf-48e2-a5b8-47647accb95e","system_id":"levelo_inurba_marseille","lat":43.305364,"lon":5.384119,"is_reserved":false,"is_disabled":false,"rental_uris":{"android":"levelo://app?vid=e88448bd-f1bf-48e2-a5b8-47647accb95e","ios":"levelo://app?vid=e88448bd-f1bf-48e2-a5b8-47647accb95e"},"vehicle_type_id":"4","last_reported":1707070102,"current_range_meters":22800,"station_id":"ce4bgg92rcd13ifvqb30","pricing_plan_id":"free"},{"bike_id":"bdd7670c-11b8-4dd5-abd7-9484b90c5ec4","system_id":"levelo_inurba_marseille","lat":43.305364,"lon":5.384119,"is_reserved":false,"is_disabled":false,"rental_uris":{"android":"levelo://app?vid=bdd7670c-11b8-4dd5-abd7-9484b90c5ec4","ios":"levelo://app?vid=bdd7670c-11b8-4dd5-abd7-9484b90c5ec4"},"vehicle_type_id":"4","last_reported":1707070102,"current_range_meters":28400,"station_id":"ce4bgg92rcd13ifvqb30","pricing_plan_id":"free"},{"bike_id":"b47ccbb8-3ec3-4518-99a7-24746dd03ae7","system_id":"levelo_inurba_marseille","lat":43.299243,"lon":5.374807,"is_reserved":false,"is_disabled":false,"rental_uris":{"android":"levelo://app?vid=b47ccbb8-3ec3-4518-99a7-24746dd03ae7","ios":"levelo://app?vid=b47ccbb8-3ec3-4518-99a7-24746dd03ae7"},"vehicle_type_id":"4","last_reported":1707070102,"current_range_meters":4800,"station_id":"ce4bgjh2rcd13ifvqbg0","pricing_plan_id":"free"},{"bike_id":"d5a64280-c8bc-4a3c-817e-1ae2e9ed66ec","system_id":"levelo_inurba_marseille","lat":43.299243,"lon":5.37481,"is_reserved":false,"is_disabled":false,"rental_uris":{"android":"levelo://app?vid=d5a64280-c8bc-4a3c-817e-1ae2e9ed66ec","ios":"levelo://app?vid=d5a64280-c8bc-4a3c-817e-1ae2e9ed66ec"},"vehicle_type_id":"4","last_reported":1707070102,"current_range_meters":23200,"station_id":"ce4bgjh2rcd13ifvqbg0","pricing_plan_id":"free"},{"bike_id":"e442cf19-6928-4e63-99cc-de3ee424f330","system_id":"levelo_inurba_marseille","lat":43.305364,"lon":5.384119,"is_reserved":false,"is_disabled":false,"rental_uris":{"android":"levelo://app?vid=e442cf19-6928-4e63-99cc-de3ee424f330","ios":"levelo://app?vid=e442cf19-6928-4e63-99cc-de3ee424f330"},"vehicle_type_id":"4","last_reported":1707070102,"current_range_meters":20400,"station_id":"ce4bgg92rcd13ifvqb30","pricing_plan_id":"free"},{"bike_id":"0c9bc9fd-7a82-488e-a5ae-3cece9ad8d32","system_id":"levelo_inurba_marseille","lat":43.311722,"lon":5.387247,"is_reserved":false,"is_disabled":false,"rental_uris":{"android":"levelo://app?vid=0c9bc9fd-7a82-488e-a5ae-3cece9ad8d32","ios":"levelo://app?vid=0c9bc9fd-7a82-488e-a5ae-3cece9ad8d32"},"vehicle_type_id":"4","last_reported":1707070102,"current_range_meters":0,"station_id":"ce4bgv12rcd13ifvqcp0","pricing_plan_id":"free"},{"bike_id":"cbd3412d-c7c7-4804-852e-c3ffb59826a3","system_id":"levelo_inurba_marseille","lat":43.311722,"lon":5.387247,"is_reserved":false,"is_disabled":false,"rental_uris":{"android":"levelo://app?vid=cbd3412d-c7c7-4804-852e-c3ffb59826a3","ios":"levelo://app?vid=cbd3412d-c7c7-4804-852e-c3ffb59826a3"},"vehicle_type_id":"4","last_reported":1707070102,"current_range_meters":7600,"station_id":"ce4bgv12rcd13ifvqcp0","pricing_plan_id":"free"},{"bike_id":"d253abdd-3c81-4bb3-8bf8-ba89284f8d72","system_id":"levelo_inurba_marseille","lat":43.311722,"lon":5.387247,"is_reserved":false,"is_disabled":false,"rental_uris":{"android":"levelo://app?vid=d253abdd-3c81-4bb3-8bf8-ba89284f8d72","ios":"levelo://app?vid=d253abdd-3c81-4bb3-8bf8-ba89284f8d72"},"vehicle_type_id":"4","last_reported":1707070102,"current_range_meters":21600,"station_id":"ce4bgv12rcd13ifvqcp0","pricing_plan_id":"free"},{"bike_id":"8b023912-5267-4e1c-a403-4d70b425cebe","system_id":"levelo_inurba_marseille","lat":43.32287,"lon":5.38275,"is_reserved":false,"is_disabled":false,"rental_uris":{"android":"levelo://app?vid=8b023912-5267-4e1c-a403-4d70b425cebe","ios":"levelo://app?vid=8b023912-5267-4e1c-a403-4d70b425cebe"},"vehicle_type_id":"4","last_reported":1707070102,"current_range_meters":29200,"station_id":"ce4bhr12rcd13ifvqhqg","pricing_plan_id":"free"},{"bike_id":"1900e2ea-9239-49b1-933e-57903fa99707","system_id":"levelo_inurba_marseille","lat":43.32826,"lon":5.36695,"is_reserved":false,"is_disabled":false,"rental_uris":{"android":"levelo://app?vid=1900e2ea-9239-49b1-933e-57903fa99707","ios":"levelo://app?vid=1900e2ea-9239-49b1-933e-57903fa99707"},"vehicle_type_id":"4","last_reported":1707070102,"current_range_meters":10000,"station_id":"ce4bhs92rcd13ifvqi0g","pricing_plan_id":"free"},{"bike_id":"81d6c55c-5ab6-4964-9500-181a7b78889c","system_id":"levelo_inurba_marseille","lat":43.32839,"lon":5.36695,"is_reserved":false,"is_disabled":false,"rental_uris":{"android":"levelo://app?vid=81d6c55c-5ab6-4964-9500-181a7b78889c","ios":"levelo://app?vid=81d6c55c-5ab6-4964-9500-181a7b78889c"},"vehicle_type_id":"4","last_reported":1707070102,"current_range_meters":10800,"station_id":"ce4bhs92rcd13ifvqi0g","pricing_plan_id":"free"},{"bike_id":"3ce17abc-6e52-4fd4-a4a8-c47eb9e2533e","system_id":"levelo_inurba_marseille","lat":43.297163,"lon":5.365866,"is_reserved":false,"is_disabled":false,"rental_uris":{"android":"levelo://app?vid=3ce17abc-6e52-4fd4-a4a8-c47eb9e2533e","ios":"levelo://app?vid=3ce17abc-6e52-4fd4-a4a8-c47eb9e2533e"},"vehicle_type_id":"4","last_reported":1707070102,"current_range_meters":0,"station_id":"ce4bgn12rcd13ifvqbt0","pricing_plan_id":"free"},{"bike_id":"68118a04-b97e-4c39-b016-f58adc3b5880","system_id":"levelo_inurba_marseille","lat":43.29708,"lon":5.36606,"is_reserved":false,"is_disabled":false,"rental_uris":{"android":"levelo://app?vid=68118a04-b97e-4c39-b016-f58adc3b5880","ios":"levelo://app?vid=68118a04-b97e-4c39-b016-f58adc3b5880"},"vehicle_type_id":"4","last_reported":1707070102,"current_range_meters":2000,"station_id":"ce4bgn12rcd13ifvqbt0","pricing_plan_id":"free"},{"bike_id":"5fc183c9-3e33-4513-b9c6-46bed927a196","system_id":"levelo_inurba_marseille","lat":43.297163,"lon":5.365866,"is_reserved":false,"is_disabled":false,"rental_uris":{"android":"levelo://app?vid=5fc183c9-3e33-4513-b9c6-46bed927a196","ios":"levelo://app?vid=5fc183c9-3e33-4513-b9c6-46bed927a196"},"vehicle_type_id":"4","last_reported":1707070102,"current_range_meters":16400,"station_id":"ce4bgn12rcd13ifvqbt0","pricing_plan_id":"free"},{"bike_id":"8bea6ee2-bb12-4611-84ff-9527b54da0c8","system_id":"levelo_inurba_marseille","lat":43.29675,"lon":5.36793,"is_reserved":false,"is_disabled":false,"rental_uris":{"android":"levelo://app?vid=8bea6ee2-bb12-4611-84ff-9527b54da0c8","ios":"levelo://app?vid=8bea6ee2-bb12-4611-84ff-9527b54da0c8"},"vehicle_type_id":"4","last_reported":1707070102,"current_range_meters":28000,"station_id":"","pricing_plan_id":"free"},{"bike_id":"e9ac61bd-2f97-477b-916c-c21aa8bffe51","system_id":"levelo_inurba_marseille","lat":43.2968,"lon":5.37291,"is_reserved":false,"is_disabled":false,"rental_uris":{"android":"levelo://app?vid=e9ac61bd-2f97-477b-916c-c21aa8bffe51","ios":"levelo://app?vid=e9ac61bd-2f97-477b-916c-c21aa8bffe51"},"vehicle_type_id":"4","last_reported":1707070102,"current_range_meters":15200,"station_id":"ce4bgk12rcd13ifvqbj0","pricing_plan_id":"free"},{"bike_id":"e71dbeb2-bdcd-41a9-9e92-b0477debf34d","system_id":"levelo_inurba_marseille","lat":43.29646,"lon":5.37456,"is_reserved":false,"is_disabled":false,"rental_uris":{"android":"levelo://app?vid=e71dbeb2-bdcd-41a9-9e92-b0477debf34d","ios":"levelo://app?vid=e71dbeb2-bdcd-41a9-9e92-b0477debf34d"},"vehicle_type_id":"4","last_reported":1707070102,"current_range_meters":12000,"station_id":"","pricing_plan_id":"free"},{"bike_id":"f3598825-5737-4256-ab8e-a51118d1a75d","system_id":"levelo_inurba_marseille","lat":43.299028,"lon":5.381509,"is_reserved":false,"is_disabled":false,"rental_uris":{"android":"levelo://app?vid=f3598825-5737-4256-ab8e-a51118d1a75d","ios":"levelo://app?vid=f3598825-5737-4256-ab8e-a51118d1a75d"},"vehicle_type_id":"4","last_reported":1707070102,"current_range_meters":8800,"station_id":"ce4bgj12rcd13ifvqbc0","pricing_plan_id":"free"},{"bike_id":"11797203-6594-4d90-a7e8-818eb25439db","system_id":"levelo_inurba_marseille","lat":43.296921,"lon":5.376579,"is_reserved":false,"is_disabled":false,"rental_uris":{"android":"levelo://app?vid=11797203-6594-4d90-a7e8-818eb25439db","ios":"levelo://app?vid=11797203-6594-4d90-a7e8-818eb25439db"},"vehicle_type_id":"4","last_reported":1707070102,"current_range_meters":0,"station_id":"ce4bgkh2rcd13ifvqbl0","pricing_plan_id":"free"},{"bike_id":"101e4a3e-ff70-4e80-a73b-3ad92babfcdc","system_id":"levelo_inurba_marseille","lat":43.299028,"lon":5.381509,"is_reserved":false,"is_disabled":false,"rental_uris":{"android":"levelo://app?vid=101e4a3e-ff70-4e80-a73b-3ad92babfcdc","ios":"levelo://app?vid=101e4a3e-ff70-4e80-a73b-3ad92babfcdc"},"vehicle_type_id":"4","last_reported":1707070102,"current_range_meters":28000,"station_id":"ce4bgj12rcd13ifvqbc0","pricing_plan_id":"free"},{"bike_id":"2aa6843d-0858-45ec-b60a-f61f8b72ffe0","system_id":"levelo_inurba_marseille","lat":43.299028,"lon":5.381509,"is_reserved":false,"is_disabled":false,"rental_uris":{"android":"levelo://app?vid=2aa6843d-0858-45ec-b60a-f61f8b72ffe0","ios":"levelo://app?vid=2aa6843d-0858-45ec-b60a-f61f8b72ffe0"},"vehicle_type_id":"4","last_reported":1707070102,"current_range_meters":0,"station_id":"ce4bgj12rcd13ifvqbc0","pricing_plan_id":"free"},{"bike_id":"8b3233ae-1481-484d-83f6-61767410ce55","system_id":"levelo_inurba_marseille","lat":43.317557,"lon":5.390173,"is_reserved":false,"is_disabled":false,"rental_uris":{"android":"levelo://app?vid=8b3233ae-1481-484d-83f6-61767410ce55","ios":"levelo://app?vid=8b3233ae-1481-484d-83f6-61767410ce55"},"vehicle_type_id":"4","last_reported":1707070102,"current_range_meters":27200,"station_id":"ce4bhqp2rcd13ifvqhng","pricing_plan_id":"free"},{"bike_id":"2a286b63-3c4a-4893-8f11-dd6a58a41ee4","system_id":"levelo_inurba_marseille","lat":43.317573,"lon":5.390207,"is_reserved":false,"is_disabled":false,"rental_uris":{"android":"levelo://app?vid=2a286b63-3c4a-4893-8f11-dd6a58a41ee4","ios":"levelo://app?vid=2a286b63-3c4a-4893-8f11-dd6a58a41ee4"},"vehicle_type_id":"4","last_reported":1707070102,"current_range_meters":10000,"station_id":"ce4bhqp2rcd13ifvqhng","pricing_plan_id":"free"},{"bike_id":"1033b78d-f901-4cfa-8cae-54cb1e173be4","system_id":"levelo_inurba_marseille","lat":43.317557,"lon":5.390173,"is_reserved":false,"is_disabled":false,"rental_uris":{"android":"levelo://app?vid=1033b78d-f901-4cfa-8cae-54cb1e173be4","ios":"levelo://app?vid=1033b78d-f901-4cfa-8cae-54cb1e173be4"},"vehicle_type_id":"4","last_reported":1707070102,"current_range_meters":30000,"station_id":"ce4bhqp2rcd13ifvqhng","pricing_plan_id":"free"},{"bike_id":"40a85205-af79-43c2-bdc9-257280312aae","system_id":"levelo_inurba_marseille","lat":43.317551,"lon":5.39026,"is_reserved":false,"is_disabled":false,"rental_uris":{"android":"levelo://app?vid=40a85205-af79-43c2-bdc9-257280312aae","ios":"levelo://app?vid=40a85205-af79-43c2-bdc9-257280312aae"},"vehicle_type_id":"4","last_reported":1707070102,"current_range_meters":28800,"station_id":"ce4bhqp2rcd13ifvqhng","pricing_plan_id":"free"},{"bike_id":"86eba5ee-3f3e-465e-879d-a26eca611b6f","system_id":"levelo_inurba_marseille","lat":43.31829,"lon":5.390276,"is_reserved":false,"is_disabled":false,"rental_uris":{"android":"levelo://app?vid=86eba5ee-3f3e-465e-879d-a26eca611b6f","ios":"levelo://app?vid=86eba5ee-3f3e-465e-879d-a26eca611b6f"},"vehicle_type_id":"4","last_reported":1707070102,"current_range_meters":16400,"station_id":"","pricing_plan_id":"free"},{"bike_id":"0cd4f55c-cbd1-4fbb-be5c-368e5f433069","system_id":"levelo_inurba_marseille","lat":43.298037,"lon":5.381066,"is_reserved":false,"is_disabled":false,"rental_uris":{"android":"levelo://app?vid=0cd4f55c-cbd1-4fbb-be5c-368e5f433069","ios":"levelo://app?vid=0cd4f55c-cbd1-4fbb-be5c-368e5f433069"},"vehicle_type_id":"4","last_reported":1707070102,"current_range_meters":4800,"station_id":"ce4bgip2rcd13ifvqbb0","pricing_plan_id":"free"},{"bike_id":"8278ed49-1222-46e0-92ea-2d6e76cad78b","system_id":"levelo_inurba_marseille","lat":43.304274,"lon":5.388873,"is_reserved":false,"is_disabled":false,"rental_uris":{"android":"levelo://app?vid=8278ed49-1222-46e0-92ea-2d6e76cad78b","ios":"levelo://app?vid=8278ed49-1222-46e0-92ea-2d6e76cad78b"},"vehicle_type_id":"4","last_reported":1707070102,"current_range_meters":20800,"station_id":"ce4bgk12rcd13ifvqbi0","pricing_plan_id":"free"},{"bike_id":"b3ed903c-a53a-40c8-b69e-aa01b761aaae","system_id":"levelo_inurba_marseille","lat":43.298037,"lon":5.381066,"is_reserved":false,"is_disabled":false,"rental_uris":{"android":"levelo://app?vid=b3ed903c-a53a-40c8-b69e-aa01b761aaae","ios":"levelo://app?vid=b3ed903c-a53a-40c8-b69e-aa01b761aaae"},"vehicle_type_id":"4","last_reported":1707070102,"current_range_meters":17200,"station_id":"ce4bgip2rcd13ifvqbb0","pricing_plan_id":"free"},{"bike_id":"754e52f5-d1fb-453f-a7c0-3e0d3a03d465","system_id":"levelo_inurba_marseille","lat":43.298037,"lon":5.381066,"is_reserved":false,"is_disabled":false,"rental_uris":{"android":"levelo://app?vid=754e52f5-d1fb-453f-a7c0-3e0d3a03d465","ios":"levelo://app?vid=754e52f5-d1fb-453f-a7c0-3e0d3a03d465"},"vehicle_type_id":"4","last_reported":1707070102,"current_range_meters":27600,"station_id":"ce4bgip2rcd13ifvqbb0","pricing_plan_id":"free"},{"bike_id":"836a5003-c96f-486c-965c-facfa38b5845","system_id":"levelo_inurba_marseille","lat":43.298037,"lon":5.381066,"is_reserved":false,"is_disabled":false,"rental_uris":{"android":"levelo://app?vid=836a5003-c96f-486c-965c-facfa38b5845","ios":"levelo://app?vid=836a5003-c96f-486c-965c-facfa38b5845"},"vehicle_type_id":"4","last_reported":1707070102,"current_range_meters":3200,"station_id":"ce4bgip2rcd13ifvqbb0","pricing_plan_id":"free"},{"bike_id":"97c17f52-9fdb-4884-bd97-faa963d91093","system_id":"levelo_inurba_marseille","lat":43.297816,"lon":5.38098,"is_reserved":false,"is_disabled":false,"rental_uris":{"android":"levelo://app?vid=97c17f52-9fdb-4884-bd97-faa963d91093","ios":"levelo://app?vid=97c17f52-9fdb-4884-bd97-faa963d91093"},"vehicle_type_id":"4","last_reported":1707070102,"current_range_meters":15600,"station_id":"ce4bgip2rcd13ifvqbb0","pricing_plan_id":"free"},{"bike_id":"f0ec112a-cc36-434e-9d78-5412b461f4f8","system_id":"levelo_inurba_marseille","lat":43.29983,"lon":5.38488,"is_reserved":false,"is_disabled":false,"rental_uris":{"android":"levelo://app?vid=f0ec112a-cc36-434e-9d78-5412b461f4f8","ios":"levelo://app?vid=f0ec112a-cc36-434e-9d78-5412b461f4f8"},"vehicle_type_id":"4","last_reported":1707070102,"current_range_meters":1200,"station_id":"ce4bgj92rcd13ifvqbd0","pricing_plan_id":"free"},{"bike_id":"96573a76-9a48-4f03-826a-96e9832fbf3e","system_id":"levelo_inurba_marseille","lat":43.29976,"lon":5.38489,"is_reserved":false,"is_disabled":false,"rental_uris":{"android":"levelo://app?vid=96573a76-9a48-4f03-826a-96e9832fbf3e","ios":"levelo://app?vid=96573a76-9a48-4f03-826a-96e9832fbf3e"},"vehicle_type_id":"4","last_reported":1707070102,"current_range_meters":0,"station_id":"ce4bgj92rcd13ifvqbd0","pricing_plan_id":"free"},{"bike_id":"b07ba493-c72c-4e94-985f-e53c083d08c1","system_id":"levelo_inurba_marseille","lat":43.29974,"lon":5.38487,"is_reserved":false,"is_disabled":false,"rental_uris":{"android":"levelo://app?vid=b07ba493-c72c-4e94-985f-e53c083d08c1","ios":"levelo://app?vid=b07ba493-c72c-4e94-985f-e53c083d08c1"},"vehicle_type_id":"4","last_reported":1707070102,"current_range_meters":400,"station_id":"ce4bgj92rcd13ifvqbd0","pricing_plan_id":"free"},{"bike_id":"da1993a9-4290-4b4f-a5b7-0f25de0c3339","system_id":"levelo_inurba_marseille","lat":43.29972,"lon":5.38488,"is_reserved":false,"is_disabled":false,"rental_uris":{"android":"levelo://app?vid=da1993a9-4290-4b4f-a5b7-0f25de0c3339","ios":"levelo://app?vid=da1993a9-4290-4b4f-a5b7-0f25de0c3339"},"vehicle_type_id":"4","last_reported":1707070102,"current_range_meters":20400,"station_id":"ce4bgj92rcd13ifvqbd0","pricing_plan_id":"free"},{"bike_id":"c1d33328-f20e-4532-8b33-4f13070f46bb","system_id":"levelo_inurba_marseille","lat":43.29971,"lon":5.38489,"is_reserved":false,"is_disabled":false,"rental_uris":{"android":"levelo://app?vid=c1d33328-f20e-4532-8b33-4f13070f46bb","ios":"levelo://app?vid=c1d33328-f20e-4532-8b33-4f13070f46bb"},"vehicle_type_id":"4","last_reported":1707070102,"current_range_meters":5600,"station_id":"ce4bgj92rcd13ifvqbd0","pricing_plan_id":"free"},{"bike_id":"b6467ac4-2a34-43de-8309-e07a0385183b","system_id":"levelo_inurba_marseille","lat":43.29972,"lon":5.38502,"is_reserved":false,"is_disabled":false,"rental_uris":{"android":"levelo://app?vid=b6467ac4-2a34-43de-8309-e07a0385183b","ios":"levelo://app?vid=b6467ac4-2a34-43de-8309-e07a0385183b"},"vehicle_type_id":"4","last_reported":1707070102,"current_range_meters":2000,"station_id":"ce4bgj92rcd13ifvqbd0","pricing_plan_id":"free"},{"bike_id":"6227f01b-31b4-470c-8270-6dd8cdfbc297","system_id":"levelo_inurba_marseille","lat":43.299717,"lon":5.384845,"is_reserved":false,"is_disabled":false,"rental_uris":{"android":"levelo://app?vid=6227f01b-31b4-470c-8270-6dd8cdfbc297","ios":"levelo://app?vid=6227f01b-31b4-470c-8270-6dd8cdfbc297"},"vehicle_type_id":"4","last_reported":1707070102,"current_range_meters":28000,"station_id":"ce4bgj92rcd13ifvqbd0","pricing_plan_id":"free"},{"bike_id":"6824be81-4458-4658-a2f3-84ef3847f83c","system_id":"levelo_inurba_marseille","lat":43.299717,"lon":5.384845,"is_reserved":false,"is_disabled":false,"rental_uris":{"android":"levelo://app?vid=6824be81-4458-4658-a2f3-84ef3847f83c","ios":"levelo://app?vid=6824be81-4458-4658-a2f3-84ef3847f83c"},"vehicle_type_id":"4","last_reported":1707070102,"current_range_meters":29600,"station_id":"ce4bgj92rcd13ifvqbd0","pricing_plan_id":"free"},{"bike_id":"b4d8a117-764c-4b0d-8e90-ccf4f2d7d32e","system_id":"levelo_inurba_marseille","lat":43.299717,"lon":5.384845,"is_reserved":false,"is_disabled":false,"rental_uris":{"android":"levelo://app?vid=b4d8a117-764c-4b0d-8e90-ccf4f2d7d32e","ios":"levelo://app?vid=b4d8a117-764c-4b0d-8e90-ccf4f2d7d32e"},"vehicle_type_id":"4","last_reported":1707070102,"current_range_meters":30000,"station_id":"ce4bgj92rcd13ifvqbd0","pricing_plan_id":"free"},{"bike_id":"1581f2d7-ea69-4f8e-86ee-f6d37181e5e1","system_id":"levelo_inurba_marseille","lat":43.29961,"lon":5.38492,"is_reserved":false,"is_disabled":false,"rental_uris":{"android":"levelo://app?vid=1581f2d7-ea69-4f8e-86ee-f6d37181e5e1","ios":"levelo://app?vid=1581f2d7-ea69-4f8e-86ee-f6d37181e5e1"},"vehicle_type_id":"4","last_reported":1707070102,"current_range_meters":9200,"station_id":"ce4bgj92rcd13ifvqbd0","pricing_plan_id":"free"},{"bike_id":"390f38c6-4579-4ee6-bab1-d4dd66656c6d","system_id":"levelo_inurba_marseille","lat":43.299717,"lon":5.384845,"is_reserved":false,"is_disabled":false,"rental_uris":{"android":"levelo://app?vid=390f38c6-4579-4ee6-bab1-d4dd66656c6d","ios":"levelo://app?vid=390f38c6-4579-4ee6-bab1-d4dd66656c6d"},"vehicle_type_id":"4","last_reported":1707070102,"current_range_meters":30400,"station_id":"ce4bgj92rcd13ifvqbd0","pricing_plan_id":"free"},{"bike_id":"cf2f2173-ea51-4d1b-b8b9-fc9ca1eaca3c","system_id":"levelo_inurba_marseille","lat":43.29961,"lon":5.385,"is_reserved":false,"is_disabled":false,"rental_uris":{"android":"levelo://app?vid=cf2f2173-ea51-4d1b-b8b9-fc9ca1eaca3c","ios":"levelo://app?vid=cf2f2173-ea51-4d1b-b8b9-fc9ca1eaca3c"},"vehicle_type_id":"4","last_reported":1707070102,"current_range_meters":31200,"station_id":"ce4bgj92rcd13ifvqbd0","pricing_plan_id":"free"},{"bike_id":"73ccd575-1524-4076-8af4-db92a3db6a47","system_id":"levelo_inurba_marseille","lat":43.299313,"lon":5.384918,"is_reserved":false,"is_disabled":false,"rental_uris":{"android":"levelo://app?vid=73ccd575-1524-4076-8af4-db92a3db6a47","ios":"levelo://app?vid=73ccd575-1524-4076-8af4-db92a3db6a47"},"vehicle_type_id":"4","last_reported":1707070102,"current_range_meters":2000,"station_id":"ce4bgj92rcd13ifvqbd0","pricing_plan_id":"free"},{"bike_id":"391c1134-58af-48a5-8e05-202b311deaa9","system_id":"levelo_inurba_marseille","lat":43.299717,"lon":5.384845,"is_reserved":false,"is_disabled":false,"rental_uris":{"android":"levelo://app?vid=391c1134-58af-48a5-8e05-202b311deaa9","ios":"levelo://app?vid=391c1134-58af-48a5-8e05-202b311deaa9"},"vehicle_type_id":"4","last_reported":1707070102,"current_range_meters":18800,"station_id":"ce4bgj92rcd13ifvqbd0","pricing_plan_id":"free"},{"bike_id":"f459bcc8-96d9-431d-bb45-ce1f50e6d398","system_id":"levelo_inurba_marseille","lat":43.32359,"lon":5.388824,"is_reserved":false,"is_disabled":false,"rental_uris":{"android":"levelo://app?vid=f459bcc8-96d9-431d-bb45-ce1f50e6d398","ios":"levelo://app?vid=f459bcc8-96d9-431d-bb45-ce1f50e6d398"},"vehicle_type_id":"4","last_reported":1707070102,"current_range_meters":1600,"station_id":"ce4bhqp2rcd13ifvqhog","pricing_plan_id":"free"},{"bike_id":"e7a95a5a-7d13-48ff-a856-827ce0771044","system_id":"levelo_inurba_marseille","lat":43.32362,"lon":5.3888,"is_reserved":false,"is_disabled":false,"rental_uris":{"android":"levelo://app?vid=e7a95a5a-7d13-48ff-a856-827ce0771044","ios":"levelo://app?vid=e7a95a5a-7d13-48ff-a856-827ce0771044"},"vehicle_type_id":"4","last_reported":1707070102,"current_range_meters":25600,"station_id":"ce4bhqp2rcd13ifvqhog","pricing_plan_id":"free"},{"bike_id":"999af2fa-7743-40b1-ad5a-09d74cc1efed","system_id":"levelo_inurba_marseille","lat":43.32364,"lon":5.38881,"is_reserved":false,"is_disabled":false,"rental_uris":{"android":"levelo://app?vid=999af2fa-7743-40b1-ad5a-09d74cc1efed","ios":"levelo://app?vid=999af2fa-7743-40b1-ad5a-09d74cc1efed"},"vehicle_type_id":"4","last_reported":1707070102,"current_range_meters":22000,"station_id":"ce4bhqp2rcd13ifvqhog","pricing_plan_id":"free"},{"bike_id":"ee86eead-4fa9-4b86-9fac-62df5b1be0bb","system_id":"levelo_inurba_marseille","lat":43.29602,"lon":5.381084,"is_reserved":false,"is_disabled":false,"rental_uris":{"android":"levelo://app?vid=ee86eead-4fa9-4b86-9fac-62df5b1be0bb","ios":"levelo://app?vid=ee86eead-4fa9-4b86-9fac-62df5b1be0bb"},"vehicle_type_id":"4","last_reported":1707070102,"current_range_meters":9200,"station_id":"ce4bgl12rcd13ifvqbo0","pricing_plan_id":"free"},{"bike_id":"4c1330c0-4f8c-4a00-b610-459ce4383baa","system_id":"levelo_inurba_marseille","lat":43.292749,"lon":5.368402,"is_reserved":false,"is_disabled":false,"rental_uris":{"android":"levelo://app?vid=4c1330c0-4f8c-4a00-b610-459ce4383baa","ios":"levelo://app?vid=4c1330c0-4f8c-4a00-b610-459ce4383baa"},"vehicle_type_id":"4","last_reported":1707070102,"current_range_meters":22800,"station_id":"ce4bhbp2rcd13ifvqesg","pricing_plan_id":"free"},{"bike_id":"0f90d953-2b5d-4548-9aee-1fb6d84320c1","system_id":"levelo_inurba_marseille","lat":43.29272,"lon":5.3684,"is_reserved":false,"is_disabled":false,"rental_uris":{"android":"levelo://app?vid=0f90d953-2b5d-4548-9aee-1fb6d84320c1","ios":"levelo://app?vid=0f90d953-2b5d-4548-9aee-1fb6d84320c1"},"vehicle_type_id":"4","last_reported":1707070102,"current_range_meters":0,"station_id":"ce4bhbp2rcd13ifvqesg","pricing_plan_id":"free"},{"bike_id":"3cd9810d-7ae9-4007-9516-d4a16ea5f1f3","system_id":"levelo_inurba_marseille","lat":43.292749,"lon":5.368402,"is_reserved":false,"is_disabled":false,"rental_uris":{"android":"levelo://app?vid=3cd9810d-7ae9-4007-9516-d4a16ea5f1f3","ios":"levelo://app?vid=3cd9810d-7ae9-4007-9516-d4a16ea5f1f3"},"vehicle_type_id":"4","last_reported":1707070102,"current_range_meters":4800,"station_id":"ce4bhbp2rcd13ifvqesg","pricing_plan_id":"free"},{"bike_id":"9ae61289-e0b5-4282-a0bb-f8d7f2c694cb","system_id":"levelo_inurba_marseille","lat":43.293044,"lon":5.374494,"is_reserved":false,"is_disabled":false,"rental_uris":{"android":"levelo://app?vid=9ae61289-e0b5-4282-a0bb-f8d7f2c694cb","ios":"levelo://app?vid=9ae61289-e0b5-4282-a0bb-f8d7f2c694cb"},"vehicle_type_id":"4","last_reported":1707070102,"current_range_meters":0,"station_id":"ce4bgi12rcd13ifvqb70","pricing_plan_id":"free"},{"bike_id":"d3df372e-6b0e-482c-b10e-487dab3ab99e","system_id":"levelo_inurba_marseille","lat":43.30594,"lon":5.39356,"is_reserved":false,"is_disabled":false,"rental_uris":{"android":"levelo://app?vid=d3df372e-6b0e-482c-b10e-487dab3ab99e","ios":"levelo://app?vid=d3df372e-6b0e-482c-b10e-487dab3ab99e"},"vehicle_type_id":"4","last_reported":1707070102,"current_range_meters":1200,"station_id":"ce4bh0p2rcd13ifvqd80","pricing_plan_id":"free"},{"bike_id":"df1ef436-abfc-4e92-8c47-a14cc2955068","system_id":"levelo_inurba_marseille","lat":43.303002,"lon":5.392142,"is_reserved":false,"is_disabled":false,"rental_uris":{"android":"levelo://app?vid=df1ef436-abfc-4e92-8c47-a14cc2955068","ios":"levelo://app?vid=df1ef436-abfc-4e92-8c47-a14cc2955068"},"vehicle_type_id":"4","last_reported":1707070102,"current_range_meters":28800,"station_id":"ce4bgkh2rcd13ifvqbk0","pricing_plan_id":"free"},{"bike_id":"03d81310-e45b-48f4-8976-fc5659470a1a","system_id":"levelo_inurba_marseille","lat":43.2936,"lon":5.37835,"is_reserved":false,"is_disabled":false,"rental_uris":{"android":"levelo://app?vid=03d81310-e45b-48f4-8976-fc5659470a1a","ios":"levelo://app?vid=03d81310-e45b-48f4-8976-fc5659470a1a"},"vehicle_type_id":"4","last_reported":1707070102,"current_range_meters":22400,"station_id":"ce4bgjh2rcd13ifvqbf0","pricing_plan_id":"free"},{"bike_id":"3c7edcc7-ed00-48fa-8257-f6ccca95111e","system_id":"levelo_inurba_marseille","lat":43.2923,"lon":5.36065,"is_reserved":false,"is_disabled":false,"rental_uris":{"android":"levelo://app?vid=3c7edcc7-ed00-48fa-8257-f6ccca95111e","ios":"levelo://app?vid=3c7edcc7-ed00-48fa-8257-f6ccca95111e"},"vehicle_type_id":"4","last_reported":1707070102,"current_range_meters":0,"station_id":"ce4bhbh2rcd13ifvqeqg","pricing_plan_id":"free"},{"bike_id":"10765507-56bf-4013-8a80-290ec7525965","system_id":"levelo_inurba_marseille","lat":43.30085,"lon":5.390856,"is_reserved":false,"is_disabled":false,"rental_uris":{"android":"levelo://app?vid=10765507-56bf-4013-8a80-290ec7525965","ios":"levelo://app?vid=10765507-56bf-4013-8a80-290ec7525965"},"vehicle_type_id":"4","last_reported":1707070102,"current_range_meters":2000,"station_id":"ce4bh192rcd13ifvqdb0","pricing_plan_id":"free"},{"bike_id":"aa7f40d9-d1de-4971-846e-3787b4cb60d7","system_id":"levelo_inurba_marseille","lat":43.30085,"lon":5.390856,"is_reserved":false,"is_disabled":false,"rental_uris":{"android":"levelo://app?vid=aa7f40d9-d1de-4971-846e-3787b4cb60d7","ios":"levelo://app?vid=aa7f40d9-d1de-4971-846e-3787b4cb60d7"},"vehicle_type_id":"4","last_reported":1707070102,"current_range_meters":20000,"station_id":"ce4bh192rcd13ifvqdb0","pricing_plan_id":"free"},{"bike_id":"644c46c7-90e1-4280-ab6d-68e38567eeb4","system_id":"levelo_inurba_marseille","lat":43.293009,"lon":5.374584,"is_reserved":false,"is_disabled":false,"rental_uris":{"android":"levelo://app?vid=644c46c7-90e1-4280-ab6d-68e38567eeb4","ios":"levelo://app?vid=644c46c7-90e1-4280-ab6d-68e38567eeb4"},"vehicle_type_id":"4","last_reported":1707070102,"current_range_meters":26800,"station_id":"ce4bgi12rcd13ifvqb70","pricing_plan_id":"free"},{"bike_id":"6ef51a8f-1eea-46d3-b835-ac52293b7b21","system_id":"levelo_inurba_marseille","lat":43.298764,"lon":5.388973,"is_reserved":false,"is_disabled":false,"rental_uris":{"android":"levelo://app?vid=6ef51a8f-1eea-46d3-b835-ac52293b7b21","ios":"levelo://app?vid=6ef51a8f-1eea-46d3-b835-ac52293b7b21"},"vehicle_type_id":"4","last_reported":1707070102,"current_range_meters":22000,"station_id":"ce4bh392rcd13ifvqdl0","pricing_plan_id":"free"},{"bike_id":"0294ffc7-c6d6-4527-b763-c4f47d19bc15","system_id":"levelo_inurba_marseille","lat":43.298764,"lon":5.388973,"is_reserved":false,"is_disabled":false,"rental_uris":{"android":"levelo://app?vid=0294ffc7-c6d6-4527-b763-c4f47d19bc15","ios":"levelo://app?vid=0294ffc7-c6d6-4527-b763-c4f47d19bc15"},"vehicle_type_id":"4","last_reported":1707070102,"current_range_meters":2800,"station_id":"ce4bh392rcd13ifvqdl0","pricing_plan_id":"free"},{"bike_id":"2d45e3cd-6f45-4c74-b04f-0769da455530","system_id":"levelo_inurba_marseille","lat":43.298764,"lon":5.388973,"is_reserved":false,"is_disabled":false,"rental_uris":{"android":"levelo://app?vid=2d45e3cd-6f45-4c74-b04f-0769da455530","ios":"levelo://app?vid=2d45e3cd-6f45-4c74-b04f-0769da455530"},"vehicle_type_id":"4","last_reported":1707070102,"current_range_meters":0,"station_id":"ce4bh392rcd13ifvqdl0","pricing_plan_id":"free"},{"bike_id":"c47fe0d2-89c4-47a7-9f3d-0b7b4c72bca2","system_id":"levelo_inurba_marseille","lat":43.298764,"lon":5.388973,"is_reserved":false,"is_disabled":false,"rental_uris":{"android":"levelo://app?vid=c47fe0d2-89c4-47a7-9f3d-0b7b4c72bca2","ios":"levelo://app?vid=c47fe0d2-89c4-47a7-9f3d-0b7b4c72bca2"},"vehicle_type_id":"4","last_reported":1707070102,"current_range_meters":18400,"station_id":"ce4bh392rcd13ifvqdl0","pricing_plan_id":"free"},{"bike_id":"68b66ed8-d53a-4783-98b3-c2a2966d2153","system_id":"levelo_inurba_marseille","lat":43.300852,"lon":5.390859,"is_reserved":false,"is_disabled":false,"rental_uris":{"android":"levelo://app?vid=68b66ed8-d53a-4783-98b3-c2a2966d2153","ios":"levelo://app?vid=68b66ed8-d53a-4783-98b3-c2a2966d2153"},"vehicle_type_id":"4","last_reported":1707070102,"current_range_meters":1200,"station_id":"ce4bh192rcd13ifvqdb0","pricing_plan_id":"free"},{"bike_id":"66edd7ba-de69-441c-9323-0a4b6c020232","system_id":"levelo_inurba_marseille","lat":43.313291,"lon":5.396838,"is_reserved":false,"is_disabled":false,"rental_uris":{"android":"levelo://app?vid=66edd7ba-de69-441c-9323-0a4b6c020232","ios":"levelo://app?vid=66edd7ba-de69-441c-9323-0a4b6c020232"},"vehicle_type_id":"4","last_reported":1707070102,"current_range_meters":18000,"station_id":"ce4bgvp2rcd13ifvqcu0","pricing_plan_id":"free"},{"bike_id":"f01de221-560a-4283-a985-c193c29d281e","system_id":"levelo_inurba_marseille","lat":43.309038,"lon":5.396546,"is_reserved":false,"is_disabled":false,"rental_uris":{"android":"levelo://app?vid=f01de221-560a-4283-a985-c193c29d281e","ios":"levelo://app?vid=f01de221-560a-4283-a985-c193c29d281e"},"vehicle_type_id":"4","last_reported":1707070102,"current_range_meters":30400,"station_id":"ce4bh012rcd13ifvqcv0","pricing_plan_id":"free"},{"bike_id":"c898ef4a-617f-46e2-8929-feaad6092a07","system_id":"levelo_inurba_marseille","lat":43.309038,"lon":5.396546,"is_reserved":false,"is_disabled":false,"rental_uris":{"android":"levelo://app?vid=c898ef4a-617f-46e2-8929-feaad6092a07","ios":"levelo://app?vid=c898ef4a-617f-46e2-8929-feaad6092a07"},"vehicle_type_id":"4","last_reported":1707070102,"current_range_meters":22800,"station_id":"ce4bh012rcd13ifvqcv0","pricing_plan_id":"free"},{"bike_id":"76debd98-f9f4-4ead-b7ea-f1cd59031c65","system_id":"levelo_inurba_marseille","lat":43.309038,"lon":5.396546,"is_reserved":false,"is_disabled":false,"rental_uris":{"android":"levelo://app?vid=76debd98-f9f4-4ead-b7ea-f1cd59031c65","ios":"levelo://app?vid=76debd98-f9f4-4ead-b7ea-f1cd59031c65"},"vehicle_type_id":"4","last_reported":1707070102,"current_range_meters":9600,"station_id":"ce4bh012rcd13ifvqcv0","pricing_plan_id":"free"},{"bike_id":"6b9e30aa-bb59-400a-bb19-9a7017d73ce6","system_id":"levelo_inurba_marseille","lat":43.309038,"lon":5.396546,"is_reserved":false,"is_disabled":false,"rental_uris":{"android":"levelo://app?vid=6b9e30aa-bb59-400a-bb19-9a7017d73ce6","ios":"levelo://app?vid=6b9e30aa-bb59-400a-bb19-9a7017d73ce6"},"vehicle_type_id":"4","last_reported":1707070102,"current_range_meters":31600,"station_id":"ce4bh012rcd13ifvqcv0","pricing_plan_id":"free"},{"bike_id":"e7189582-81a4-4866-90b6-f1957663c419","system_id":"levelo_inurba_marseille","lat":43.30891,"lon":5.39665,"is_reserved":false,"is_disabled":false,"rental_uris":{"android":"levelo://app?vid=e7189582-81a4-4866-90b6-f1957663c419","ios":"levelo://app?vid=e7189582-81a4-4866-90b6-f1957663c419"},"vehicle_type_id":"4","last_reported":1707070102,"current_range_meters":0,"station_id":"ce4bh012rcd13ifvqcv0","pricing_plan_id":"free"},{"bike_id":"3fc052d2-f170-4523-995b-7885f0a4fda8","system_id":"levelo_inurba_marseille","lat":43.29529,"lon":5.385581,"is_reserved":false,"is_disabled":false,"rental_uris":{"android":"levelo://app?vid=3fc052d2-f170-4523-995b-7885f0a4fda8","ios":"levelo://app?vid=3fc052d2-f170-4523-995b-7885f0a4fda8"},"vehicle_type_id":"4","last_reported":1707070102,"current_range_meters":17600,"station_id":"ce4bgih2rcd13ifvqba0","pricing_plan_id":"free"},{"bike_id":"4419a724-5255-4916-9ab6-08c2c5ae2fc3","system_id":"levelo_inurba_marseille","lat":43.31638,"lon":5.39678,"is_reserved":false,"is_disabled":false,"rental_uris":{"android":"levelo://app?vid=4419a724-5255-4916-9ab6-08c2c5ae2fc3","ios":"levelo://app?vid=4419a724-5255-4916-9ab6-08c2c5ae2fc3"},"vehicle_type_id":"4","last_reported":1707070102,"current_range_meters":27600,"station_id":"","pricing_plan_id":"free"},{"bike_id":"1e801fb9-6d39-474b-bd22-9d00b797d780","system_id":"levelo_inurba_marseille","lat":43.29529,"lon":5.385581,"is_reserved":false,"is_disabled":false,"rental_uris":{"android":"levelo://app?vid=1e801fb9-6d39-474b-bd22-9d00b797d780","ios":"levelo://app?vid=1e801fb9-6d39-474b-bd22-9d00b797d780"},"vehicle_type_id":"4","last_reported":1707070102,"current_range_meters":14800,"station_id":"ce4bgih2rcd13ifvqba0","pricing_plan_id":"free"},{"bike_id":"b2b42238-a92c-4af5-9d9a-a3182aea3e7f","system_id":"levelo_inurba_marseille","lat":43.29529,"lon":5.385581,"is_reserved":false,"is_disabled":false,"rental_uris":{"android":"levelo://app?vid=b2b42238-a92c-4af5-9d9a-a3182aea3e7f","ios":"levelo://app?vid=b2b42238-a92c-4af5-9d9a-a3182aea3e7f"},"vehicle_type_id":"4","last_reported":1707070102,"current_range_meters":19200,"station_id":"ce4bgih2rcd13ifvqba0","pricing_plan_id":"free"},{"bike_id":"6d535f2f-ec33-41b2-8793-da938a92106c","system_id":"levelo_inurba_marseille","lat":43.29529,"lon":5.385581,"is_reserved":false,"is_disabled":false,"rental_uris":{"android":"levelo://app?vid=6d535f2f-ec33-41b2-8793-da938a92106c","ios":"levelo://app?vid=6d535f2f-ec33-41b2-8793-da938a92106c"},"vehicle_type_id":"4","last_reported":1707070102,"current_range_meters":25200,"station_id":"ce4bgih2rcd13ifvqba0","pricing_plan_id":"free"},{"bike_id":"b3062008-830f-43b5-8561-53a54a153128","system_id":"levelo_inurba_marseille","lat":43.29529,"lon":5.385581,"is_reserved":false,"is_disabled":false,"rental_uris":{"android":"levelo://app?vid=b3062008-830f-43b5-8561-53a54a153128","ios":"levelo://app?vid=b3062008-830f-43b5-8561-53a54a153128"},"vehicle_type_id":"4","last_reported":1707070102,"current_range_meters":2800,"station_id":"ce4bgih2rcd13ifvqba0","pricing_plan_id":"free"},{"bike_id":"8490be8c-c11f-470f-b708-04d6a49a8ffd","system_id":"levelo_inurba_marseille","lat":43.29529,"lon":5.385581,"is_reserved":false,"is_disabled":false,"rental_uris":{"android":"levelo://app?vid=8490be8c-c11f-470f-b708-04d6a49a8ffd","ios":"levelo://app?vid=8490be8c-c11f-470f-b708-04d6a49a8ffd"},"vehicle_type_id":"4","last_reported":1707070102,"current_range_meters":12000,"station_id":"ce4bgih2rcd13ifvqba0","pricing_plan_id":"free"},{"bike_id":"10a85491-a992-4e8e-9c6f-bc8cd6cba8c5","system_id":"levelo_inurba_marseille","lat":43.29529,"lon":5.385581,"is_reserved":false,"is_disabled":false,"rental_uris":{"android":"levelo://app?vid=10a85491-a992-4e8e-9c6f-bc8cd6cba8c5","ios":"levelo://app?vid=10a85491-a992-4e8e-9c6f-bc8cd6cba8c5"},"vehicle_type_id":"4","last_reported":1707070102,"current_range_meters":27200,"station_id":"ce4bgih2rcd13ifvqba0","pricing_plan_id":"free"},{"bike_id":"f014faf8-c66b-44c4-b7cd-721f89b4c2ba","system_id":"levelo_inurba_marseille","lat":43.29069,"lon":5.37162,"is_reserved":false,"is_disabled":false,"rental_uris":{"android":"levelo://app?vid=f014faf8-c66b-44c4-b7cd-721f89b4c2ba","ios":"levelo://app?vid=f014faf8-c66b-44c4-b7cd-721f89b4c2ba"},"vehicle_type_id":"4","last_reported":1707070102,"current_range_meters":0,"station_id":"ce4bh5p2rcd13ifvqe4g","pricing_plan_id":"free"},{"bike_id":"ba37b12a-de11-45a1-bc7f-93c5953190a1","system_id":"levelo_inurba_marseille","lat":43.290593,"lon":5.371532,"is_reserved":false,"is_disabled":false,"rental_uris":{"android":"levelo://app?vid=ba37b12a-de11-45a1-bc7f-93c5953190a1","ios":"levelo://app?vid=ba37b12a-de11-45a1-bc7f-93c5953190a1"},"vehicle_type_id":"4","last_reported":1707070102,"current_range_meters":10400,"station_id":"ce4bh5p2rcd13ifvqe4g","pricing_plan_id":"free"},{"bike_id":"a146b42b-4145-492d-8cbf-8580f3765555","system_id":"levelo_inurba_marseille","lat":43.302008,"lon":5.394694,"is_reserved":false,"is_disabled":false,"rental_uris":{"android":"levelo://app?vid=a146b42b-4145-492d-8cbf-8580f3765555","ios":"levelo://app?vid=a146b42b-4145-492d-8cbf-8580f3765555"},"vehicle_type_id":"4","last_reported":1707070102,"current_range_meters":17200,"station_id":"ce4bh0p2rcd13ifvqd70","pricing_plan_id":"free"},{"bike_id":"56f08451-7f9f-4a62-b8ce-bdb10d13cb43","system_id":"levelo_inurba_marseille","lat":43.302008,"lon":5.394694,"is_reserved":false,"is_disabled":false,"rental_uris":{"android":"levelo://app?vid=56f08451-7f9f-4a62-b8ce-bdb10d13cb43","ios":"levelo://app?vid=56f08451-7f9f-4a62-b8ce-bdb10d13cb43"},"vehicle_type_id":"4","last_reported":1707070102,"current_range_meters":4000,"station_id":"ce4bh0p2rcd13ifvqd70","pricing_plan_id":"free"},{"bike_id":"61217771-c159-4cc4-933e-c7c7e0bc2f73","system_id":"levelo_inurba_marseille","lat":43.30207,"lon":5.3947,"is_reserved":false,"is_disabled":false,"rental_uris":{"android":"levelo://app?vid=61217771-c159-4cc4-933e-c7c7e0bc2f73","ios":"levelo://app?vid=61217771-c159-4cc4-933e-c7c7e0bc2f73"},"vehicle_type_id":"4","last_reported":1707070102,"current_range_meters":28800,"station_id":"ce4bh0p2rcd13ifvqd70","pricing_plan_id":"free"},{"bike_id":"d9d149cc-decb-4686-95d1-5ac6183c29e4","system_id":"levelo_inurba_marseille","lat":43.294153,"lon":5.386305,"is_reserved":false,"is_disabled":false,"rental_uris":{"android":"levelo://app?vid=d9d149cc-decb-4686-95d1-5ac6183c29e4","ios":"levelo://app?vid=d9d149cc-decb-4686-95d1-5ac6183c29e4"},"vehicle_type_id":"4","last_reported":1707070102,"current_range_meters":0,"station_id":"ce4bh2h2rcd13ifvqdh0","pricing_plan_id":"free"},{"bike_id":"4a848189-bd42-4e10-8699-d4f4e027ca65","system_id":"levelo_inurba_marseille","lat":43.290631,"lon":5.359244,"is_reserved":false,"is_disabled":false,"rental_uris":{"android":"levelo://app?vid=4a848189-bd42-4e10-8699-d4f4e027ca65","ios":"levelo://app?vid=4a848189-bd42-4e10-8699-d4f4e027ca65"},"vehicle_type_id":"4","last_reported":1707070102,"current_range_meters":22400,"station_id":"ce4bha92rcd13ifvqeg0","pricing_plan_id":"free"},{"bike_id":"fc2a0728-719b-461a-8a6a-92ec177f2d2b","system_id":"levelo_inurba_marseille","lat":43.294153,"lon":5.386305,"is_reserved":false,"is_disabled":false,"rental_uris":{"android":"levelo://app?vid=fc2a0728-719b-461a-8a6a-92ec177f2d2b","ios":"levelo://app?vid=fc2a0728-719b-461a-8a6a-92ec177f2d2b"},"vehicle_type_id":"4","last_reported":1707070102,"current_range_meters":16400,"station_id":"ce4bh2h2rcd13ifvqdh0","pricing_plan_id":"free"},{"bike_id":"146d3f1a-7678-4317-b2c2-0b785ffd321c","system_id":"levelo_inurba_marseille","lat":43.294153,"lon":5.386305,"is_reserved":false,"is_disabled":false,"rental_uris":{"android":"levelo://app?vid=146d3f1a-7678-4317-b2c2-0b785ffd321c","ios":"levelo://app?vid=146d3f1a-7678-4317-b2c2-0b785ffd321c"},"vehicle_type_id":"4","last_reported":1707070102,"current_range_meters":15600,"station_id":"ce4bh2h2rcd13ifvqdh0","pricing_plan_id":"free"},{"bike_id":"fff9bd93-7736-4ee9-8f50-58863e67ba0b","system_id":"levelo_inurba_marseille","lat":43.294162,"lon":5.386292,"is_reserved":false,"is_disabled":false,"rental_uris":{"android":"levelo://app?vid=fff9bd93-7736-4ee9-8f50-58863e67ba0b","ios":"levelo://app?vid=fff9bd93-7736-4ee9-8f50-58863e67ba0b"},"vehicle_type_id":"4","last_reported":1707070102,"current_range_meters":16800,"station_id":"ce4bh2h2rcd13ifvqdh0","pricing_plan_id":"free"},{"bike_id":"f52928ff-13c7-4869-8a9b-3b2cc0310b78","system_id":"levelo_inurba_marseille","lat":43.294153,"lon":5.386305,"is_reserved":false,"is_disabled":false,"rental_uris":{"android":"levelo://app?vid=f52928ff-13c7-4869-8a9b-3b2cc0310b78","ios":"levelo://app?vid=f52928ff-13c7-4869-8a9b-3b2cc0310b78"},"vehicle_type_id":"4","last_reported":1707070102,"current_range_meters":20800,"station_id":"ce4bh2h2rcd13ifvqdh0","pricing_plan_id":"free"},{"bike_id":"2584d4c4-c7d4-46c3-bcf6-8c2bc723ffc1","system_id":"levelo_inurba_marseille","lat":43.294162,"lon":5.386292,"is_reserved":false,"is_disabled":false,"rental_uris":{"android":"levelo://app?vid=2584d4c4-c7d4-46c3-bcf6-8c2bc723ffc1","ios":"levelo://app?vid=2584d4c4-c7d4-46c3-bcf6-8c2bc723ffc1"},"vehicle_type_id":"4","last_reported":1707070102,"current_range_meters":21200,"station_id":"ce4bh2h2rcd13ifvqdh0","pricing_plan_id":"free"},{"bike_id":"54195cb8-bf95-4e90-a8fd-cd15ccb9c557","system_id":"levelo_inurba_marseille","lat":43.29417,"lon":5.38626,"is_reserved":false,"is_disabled":false,"rental_uris":{"android":"levelo://app?vid=54195cb8-bf95-4e90-a8fd-cd15ccb9c557","ios":"levelo://app?vid=54195cb8-bf95-4e90-a8fd-cd15ccb9c557"},"vehicle_type_id":"4","last_reported":1707070102,"current_range_meters":0,"station_id":"ce4bh2h2rcd13ifvqdh0","pricing_plan_id":"free"},{"bike_id":"800df3b4-0056-4430-9dce-21c6c32d97ab","system_id":"levelo_inurba_marseille","lat":43.294153,"lon":5.386305,"is_reserved":false,"is_disabled":false,"rental_uris":{"android":"levelo://app?vid=800df3b4-0056-4430-9dce-21c6c32d97ab","ios":"levelo://app?vid=800df3b4-0056-4430-9dce-21c6c32d97ab"},"vehicle_type_id":"4","last_reported":1707070102,"current_range_meters":23200,"station_id":"ce4bh2h2rcd13ifvqdh0","pricing_plan_id":"free"},{"bike_id":"8593d026-dd4b-4523-bf42-ad7027f13e36","system_id":"levelo_inurba_marseille","lat":43.294162,"lon":5.386292,"is_reserved":false,"is_disabled":false,"rental_uris":{"android":"levelo://app?vid=8593d026-dd4b-4523-bf42-ad7027f13e36","ios":"levelo://app?vid=8593d026-dd4b-4523-bf42-ad7027f13e36"},"vehicle_type_id":"4","last_reported":1707070102,"current_range_meters":29600,"station_id":"ce4bh2h2rcd13ifvqdh0","pricing_plan_id":"free"},{"bike_id":"08128a37-407c-493f-a86f-67a034111734","system_id":"levelo_inurba_marseille","lat":43.2927,"lon":5.3844,"is_reserved":false,"is_disabled":false,"rental_uris":{"android":"levelo://app?vid=08128a37-407c-493f-a86f-67a034111734","ios":"levelo://app?vid=08128a37-407c-493f-a86f-67a034111734"},"vehicle_type_id":"4","last_reported":1707070102,"current_range_meters":0,"station_id":"ce4bh692rcd13ifvqea0","pricing_plan_id":"free"},{"bike_id":"9b2beb97-7c7f-44f6-b093-c6628b9f3604","system_id":"levelo_inurba_marseille","lat":43.292642,"lon":5.384254,"is_reserved":false,"is_disabled":false,"rental_uris":{"android":"levelo://app?vid=9b2beb97-7c7f-44f6-b093-c6628b9f3604","ios":"levelo://app?vid=9b2beb97-7c7f-44f6-b093-c6628b9f3604"},"vehicle_type_id":"4","last_reported":1707070102,"current_range_meters":14400,"station_id":"ce4bh692rcd13ifvqea0","pricing_plan_id":"free"},{"bike_id":"3e71b44c-8231-4665-a928-823356d74262","system_id":"levelo_inurba_marseille","lat":43.30432,"lon":5.39749,"is_reserved":false,"is_disabled":false,"rental_uris":{"android":"levelo://app?vid=3e71b44c-8231-4665-a928-823356d74262","ios":"levelo://app?vid=3e71b44c-8231-4665-a928-823356d74262"},"vehicle_type_id":"4","last_reported":1707070102,"current_range_meters":0,"station_id":"ce4bh092rcd13ifvqd20","pricing_plan_id":"free"},{"bike_id":"2521a661-518c-4398-8afd-a6593deda371","system_id":"levelo_inurba_marseille","lat":43.29013,"lon":5.35625,"is_reserved":false,"is_disabled":false,"rental_uris":{"android":"levelo://app?vid=2521a661-518c-4398-8afd-a6593deda371","ios":"levelo://app?vid=2521a661-518c-4398-8afd-a6593deda371"},"vehicle_type_id":"4","last_reported":1707070102,"current_range_meters":31200,"station_id":"ce4bhb92rcd13ifvqen0","pricing_plan_id":"free"},{"bike_id":"18cfb605-28d7-4d66-9589-da31f77893c7","system_id":"levelo_inurba_marseille","lat":43.29013,"lon":5.35609,"is_reserved":false,"is_disabled":false,"rental_uris":{"android":"levelo://app?vid=18cfb605-28d7-4d66-9589-da31f77893c7","ios":"levelo://app?vid=18cfb605-28d7-4d66-9589-da31f77893c7"},"vehicle_type_id":"4","last_reported":1707070102,"current_range_meters":30800,"station_id":"ce4bhb92rcd13ifvqen0","pricing_plan_id":"free"},{"bike_id":"a7403569-3007-4d7d-83d1-7f70fe4895cd","system_id":"levelo_inurba_marseille","lat":43.29004,"lon":5.35613,"is_reserved":false,"is_disabled":false,"rental_uris":{"android":"levelo://app?vid=a7403569-3007-4d7d-83d1-7f70fe4895cd","ios":"levelo://app?vid=a7403569-3007-4d7d-83d1-7f70fe4895cd"},"vehicle_type_id":"4","last_reported":1707070102,"current_range_meters":0,"station_id":"ce4bhb92rcd13ifvqen0","pricing_plan_id":"free"},{"bike_id":"3a2ed5a0-5271-49b8-8bd3-ec11c1a2f4dc","system_id":"levelo_inurba_marseille","lat":43.29005,"lon":5.35604,"is_reserved":false,"is_disabled":false,"rental_uris":{"android":"levelo://app?vid=3a2ed5a0-5271-49b8-8bd3-ec11c1a2f4dc","ios":"levelo://app?vid=3a2ed5a0-5271-49b8-8bd3-ec11c1a2f4dc"},"vehicle_type_id":"4","last_reported":1707070102,"current_range_meters":24800,"station_id":"ce4bhb92rcd13ifvqen0","pricing_plan_id":"free"},{"bike_id":"6ce94950-a2d4-47eb-a411-28af73e3f790","system_id":"levelo_inurba_marseille","lat":43.29002,"lon":5.35613,"is_reserved":false,"is_disabled":false,"rental_uris":{"android":"levelo://app?vid=6ce94950-a2d4-47eb-a411-28af73e3f790","ios":"levelo://app?vid=6ce94950-a2d4-47eb-a411-28af73e3f790"},"vehicle_type_id":"4","last_reported":1707070102,"current_range_meters":31200,"station_id":"ce4bhb92rcd13ifvqen0","pricing_plan_id":"free"},{"bike_id":"a414ea05-2955-4f5c-ad76-d9d4a581a15a","system_id":"levelo_inurba_marseille","lat":43.290995,"lon":5.381361,"is_reserved":false,"is_disabled":false,"rental_uris":{"android":"levelo://app?vid=a414ea05-2955-4f5c-ad76-d9d4a581a15a","ios":"levelo://app?vid=a414ea05-2955-4f5c-ad76-d9d4a581a15a"},"vehicle_type_id":"4","last_reported":1707070102,"current_range_meters":22000,"station_id":"ce4bh512rcd13ifvqe2g","pricing_plan_id":"free"},{"bike_id":"9d399171-5266-4cf1-9c60-d892e0e7d479","system_id":"levelo_inurba_marseille","lat":43.29782,"lon":5.39332,"is_reserved":false,"is_disabled":false,"rental_uris":{"android":"levelo://app?vid=9d399171-5266-4cf1-9c60-d892e0e7d479","ios":"levelo://app?vid=9d399171-5266-4cf1-9c60-d892e0e7d479"},"vehicle_type_id":"4","last_reported":1707070102,"current_range_meters":27200,"station_id":"chh1huq6cuj3fo74tm60","pricing_plan_id":"free"},{"bike_id":"b2d64768-2663-4e45-af21-b425e1e93f02","system_id":"levelo_inurba_marseille","lat":43.29781,"lon":5.39333,"is_reserved":false,"is_disabled":false,"rental_uris":{"android":"levelo://app?vid=b2d64768-2663-4e45-af21-b425e1e93f02","ios":"levelo://app?vid=b2d64768-2663-4e45-af21-b425e1e93f02"},"vehicle_type_id":"4","last_reported":1707070102,"current_range_meters":12800,"station_id":"chh1huq6cuj3fo74tm60","pricing_plan_id":"free"},{"bike_id":"3f687772-b392-42da-a09b-80afdbfc1ead","system_id":"levelo_inurba_marseille","lat":43.29782,"lon":5.39336,"is_reserved":false,"is_disabled":false,"rental_uris":{"android":"levelo://app?vid=3f687772-b392-42da-a09b-80afdbfc1ead","ios":"levelo://app?vid=3f687772-b392-42da-a09b-80afdbfc1ead"},"vehicle_type_id":"4","last_reported":1707070102,"current_range_meters":21200,"station_id":"chh1huq6cuj3fo74tm60","pricing_plan_id":"free"},{"bike_id":"70264658-2e92-4dd1-81e1-255da50e5aa3","system_id":"levelo_inurba_marseille","lat":43.297815,"lon":5.393548,"is_reserved":false,"is_disabled":false,"rental_uris":{"android":"levelo://app?vid=70264658-2e92-4dd1-81e1-255da50e5aa3","ios":"levelo://app?vid=70264658-2e92-4dd1-81e1-255da50e5aa3"},"vehicle_type_id":"4","last_reported":1707070102,"current_range_meters":13200,"station_id":"chh1huq6cuj3fo74tm60","pricing_plan_id":"free"},{"bike_id":"f44f8312-683b-4fb7-bb4a-5e754920f8c3","system_id":"levelo_inurba_marseille","lat":43.295169,"lon":5.390426,"is_reserved":false,"is_disabled":false,"rental_uris":{"android":"levelo://app?vid=f44f8312-683b-4fb7-bb4a-5e754920f8c3","ios":"levelo://app?vid=f44f8312-683b-4fb7-bb4a-5e754920f8c3"},"vehicle_type_id":"4","last_reported":1707070102,"current_range_meters":400,"station_id":"ce4bh3p2rcd13ifvqdp0","pricing_plan_id":"free"},{"bike_id":"48bdcb4f-8d71-452e-99ff-6171ea5b9651","system_id":"levelo_inurba_marseille","lat":43.297815,"lon":5.393548,"is_reserved":false,"is_disabled":false,"rental_uris":{"android":"levelo://app?vid=48bdcb4f-8d71-452e-99ff-6171ea5b9651","ios":"levelo://app?vid=48bdcb4f-8d71-452e-99ff-6171ea5b9651"},"vehicle_type_id":"4","last_reported":1707070102,"current_range_meters":7200,"station_id":"chh1huq6cuj3fo74tm60","pricing_plan_id":"free"},{"bike_id":"36dcf795-21eb-42cc-a480-af859cb90eab","system_id":"levelo_inurba_marseille","lat":43.330442,"lon":5.389148,"is_reserved":false,"is_disabled":false,"rental_uris":{"android":"levelo://app?vid=36dcf795-21eb-42cc-a480-af859cb90eab","ios":"levelo://app?vid=36dcf795-21eb-42cc-a480-af859cb90eab"},"vehicle_type_id":"4","last_reported":1707070102,"current_range_meters":31200,"station_id":"ce4bhr92rcd13ifvqhrg","pricing_plan_id":"free"},{"bike_id":"84ac4dc3-c2f9-4ae0-bf58-9c14e10a514e","system_id":"levelo_inurba_marseille","lat":43.330442,"lon":5.389148,"is_reserved":false,"is_disabled":false,"rental_uris":{"android":"levelo://app?vid=84ac4dc3-c2f9-4ae0-bf58-9c14e10a514e","ios":"levelo://app?vid=84ac4dc3-c2f9-4ae0-bf58-9c14e10a514e"},"vehicle_type_id":"4","last_reported":1707070102,"current_range_meters":31200,"station_id":"ce4bhr92rcd13ifvqhrg","pricing_plan_id":"free"},{"bike_id":"4270893e-7646-43e8-9278-a14d6af412e0","system_id":"levelo_inurba_marseille","lat":43.330442,"lon":5.389148,"is_reserved":false,"is_disabled":false,"rental_uris":{"android":"levelo://app?vid=4270893e-7646-43e8-9278-a14d6af412e0","ios":"levelo://app?vid=4270893e-7646-43e8-9278-a14d6af412e0"},"vehicle_type_id":"4","last_reported":1707070102,"current_range_meters":28000,"station_id":"ce4bhr92rcd13ifvqhrg","pricing_plan_id":"free"},{"bike_id":"2e801082-3665-46e4-bcd5-a3541ee4bb3f","system_id":"levelo_inurba_marseille","lat":43.295169,"lon":5.390426,"is_reserved":false,"is_disabled":false,"rental_uris":{"android":"levelo://app?vid=2e801082-3665-46e4-bcd5-a3541ee4bb3f","ios":"levelo://app?vid=2e801082-3665-46e4-bcd5-a3541ee4bb3f"},"vehicle_type_id":"4","last_reported":1707070102,"current_range_meters":0,"station_id":"ce4bh3p2rcd13ifvqdp0","pricing_plan_id":"free"},{"bike_id":"291aaf63-a488-43b5-8680-f0c35b710160","system_id":"levelo_inurba_marseille","lat":43.33025,"lon":5.39045,"is_reserved":false,"is_disabled":false,"rental_uris":{"android":"levelo://app?vid=291aaf63-a488-43b5-8680-f0c35b710160","ios":"levelo://app?vid=291aaf63-a488-43b5-8680-f0c35b710160"},"vehicle_type_id":"4","last_reported":1707070102,"current_range_meters":24400,"station_id":"ce4bhr92rcd13ifvqhrg","pricing_plan_id":"free"},{"bike_id":"74d3d9d7-bedf-4a5c-86cc-5b3a88b4bc1a","system_id":"levelo_inurba_marseille","lat":43.290094,"lon":5.381264,"is_reserved":false,"is_disabled":false,"rental_uris":{"android":"levelo://app?vid=74d3d9d7-bedf-4a5c-86cc-5b3a88b4bc1a","ios":"levelo://app?vid=74d3d9d7-bedf-4a5c-86cc-5b3a88b4bc1a"},"vehicle_type_id":"4","last_reported":1707070102,"current_range_meters":13600,"station_id":"ce4bh4p2rcd13ifvqe1g","pricing_plan_id":"free"},{"bike_id":"83ba999c-e089-415f-b2d3-3e81da60599f","system_id":"levelo_inurba_marseille","lat":43.312609,"lon":5.401662,"is_reserved":false,"is_disabled":false,"rental_uris":{"android":"levelo://app?vid=83ba999c-e089-415f-b2d3-3e81da60599f","ios":"levelo://app?vid=83ba999c-e089-415f-b2d3-3e81da60599f"},"vehicle_type_id":"4","last_reported":1707070102,"current_range_meters":19200,"station_id":"ce4bh092rcd13ifvqd30","pricing_plan_id":"free"},{"bike_id":"f90cf7fd-a8aa-4eca-8fbc-0fb347352dbc","system_id":"levelo_inurba_marseille","lat":43.28856,"lon":5.358371,"is_reserved":false,"is_disabled":false,"rental_uris":{"android":"levelo://app?vid=f90cf7fd-a8aa-4eca-8fbc-0fb347352dbc","ios":"levelo://app?vid=f90cf7fd-a8aa-4eca-8fbc-0fb347352dbc"},"vehicle_type_id":"4","last_reported":1707070102,"current_range_meters":1600,"station_id":"ce4bhb12rcd13ifvqem0","pricing_plan_id":"free"},{"bike_id":"0af38d84-b449-4fe9-8d3a-bb549e971224","system_id":"levelo_inurba_marseille","lat":43.309371,"lon":5.401449,"is_reserved":false,"is_disabled":false,"rental_uris":{"android":"levelo://app?vid=0af38d84-b449-4fe9-8d3a-bb549e971224","ios":"levelo://app?vid=0af38d84-b449-4fe9-8d3a-bb549e971224"},"vehicle_type_id":"4","last_reported":1707070102,"current_range_meters":5200,"station_id":"ce4bgvp2rcd13ifvqct0","pricing_plan_id":"free"},{"bike_id":"5d9f240a-8f2f-4e67-8076-a52658524a9a","system_id":"levelo_inurba_marseille","lat":43.30642,"lon":5.401031,"is_reserved":false,"is_disabled":false,"rental_uris":{"android":"levelo://app?vid=5d9f240a-8f2f-4e67-8076-a52658524a9a","ios":"levelo://app?vid=5d9f240a-8f2f-4e67-8076-a52658524a9a"},"vehicle_type_id":"4","last_reported":1707070102,"current_range_meters":6800,"station_id":"ce4bh112rcd13ifvqda0","pricing_plan_id":"free"},{"bike_id":"7dd615bf-e1cd-43c9-8f67-95a512b52bf8","system_id":"levelo_inurba_marseille","lat":43.309371,"lon":5.401449,"is_reserved":false,"is_disabled":false,"rental_uris":{"android":"levelo://app?vid=7dd615bf-e1cd-43c9-8f67-95a512b52bf8","ios":"levelo://app?vid=7dd615bf-e1cd-43c9-8f67-95a512b52bf8"},"vehicle_type_id":"4","last_reported":1707070102,"current_range_meters":0,"station_id":"ce4bgvp2rcd13ifvqct0","pricing_plan_id":"free"},{"bike_id":"c88b544a-7d5f-44cd-9e90-26ffcf31651a","system_id":"levelo_inurba_marseille","lat":43.32686,"lon":5.39586,"is_reserved":false,"is_disabled":false,"rental_uris":{"android":"levelo://app?vid=c88b544a-7d5f-44cd-9e90-26ffcf31651a","ios":"levelo://app?vid=c88b544a-7d5f-44cd-9e90-26ffcf31651a"},"vehicle_type_id":"4","last_reported":1707070102,"current_range_meters":12800,"station_id":"","pricing_plan_id":"free"},{"bike_id":"e40f2dcd-3a10-488d-aca7-83ac660c3df4","system_id":"levelo_inurba_marseille","lat":43.30931,"lon":5.40145,"is_reserved":false,"is_disabled":false,"rental_uris":{"android":"levelo://app?vid=e40f2dcd-3a10-488d-aca7-83ac660c3df4","ios":"levelo://app?vid=e40f2dcd-3a10-488d-aca7-83ac660c3df4"},"vehicle_type_id":"4","last_reported":1707070102,"current_range_meters":0,"station_id":"ce4bgvp2rcd13ifvqct0","pricing_plan_id":"free"},{"bike_id":"32258fa7-13e8-4e66-875e-93e46fd28aed","system_id":"levelo_inurba_marseille","lat":43.30928,"lon":5.40145,"is_reserved":false,"is_disabled":false,"rental_uris":{"android":"levelo://app?vid=32258fa7-13e8-4e66-875e-93e46fd28aed","ios":"levelo://app?vid=32258fa7-13e8-4e66-875e-93e46fd28aed"},"vehicle_type_id":"4","last_reported":1707070102,"current_range_meters":30400,"station_id":"ce4bgvp2rcd13ifvqct0","pricing_plan_id":"free"},{"bike_id":"77808c9a-b998-4658-aedb-b25e3472d80a","system_id":"levelo_inurba_marseille","lat":43.309371,"lon":5.401449,"is_reserved":false,"is_disabled":false,"rental_uris":{"android":"levelo://app?vid=77808c9a-b998-4658-aedb-b25e3472d80a","ios":"levelo://app?vid=77808c9a-b998-4658-aedb-b25e3472d80a"},"vehicle_type_id":"4","last_reported":1707070102,"current_range_meters":29600,"station_id":"ce4bgvp2rcd13ifvqct0","pricing_plan_id":"free"},{"bike_id":"d5dcde49-b4e7-46c7-a9fc-d5e75d6f184a","system_id":"levelo_inurba_marseille","lat":43.309371,"lon":5.401449,"is_reserved":false,"is_disabled":false,"rental_uris":{"android":"levelo://app?vid=d5dcde49-b4e7-46c7-a9fc-d5e75d6f184a","ios":"levelo://app?vid=d5dcde49-b4e7-46c7-a9fc-d5e75d6f184a"},"vehicle_type_id":"4","last_reported":1707070102,"current_range_meters":1200,"station_id":"ce4bgvp2rcd13ifvqct0","pricing_plan_id":"free"},{"bike_id":"57c02de3-8b2c-4d19-b3a5-df1dfd72ca95","system_id":"levelo_inurba_marseille","lat":43.309285,"lon":5.401504,"is_reserved":false,"is_disabled":false,"rental_uris":{"android":"levelo://app?vid=57c02de3-8b2c-4d19-b3a5-df1dfd72ca95","ios":"levelo://app?vid=57c02de3-8b2c-4d19-b3a5-df1dfd72ca95"},"vehicle_type_id":"4","last_reported":1707070102,"current_range_meters":31600,"station_id":"ce4bgvp2rcd13ifvqct0","pricing_plan_id":"free"},{"bike_id":"63fb55b5-1897-41e1-b3c4-3273acbbb106","system_id":"levelo_inurba_marseille","lat":43.30648,"lon":5.40104,"is_reserved":false,"is_disabled":false,"rental_uris":{"android":"levelo://app?vid=63fb55b5-1897-41e1-b3c4-3273acbbb106","ios":"levelo://app?vid=63fb55b5-1897-41e1-b3c4-3273acbbb106"},"vehicle_type_id":"4","last_reported":1707070102,"current_range_meters":31200,"station_id":"ce4bh112rcd13ifvqda0","pricing_plan_id":"free"},{"bike_id":"b5c8cd35-34dd-45ee-b3e7-3050ef3cbe6a","system_id":"levelo_inurba_marseille","lat":43.337673,"lon":5.374918,"is_reserved":false,"is_disabled":false,"rental_uris":{"android":"levelo://app?vid=b5c8cd35-34dd-45ee-b3e7-3050ef3cbe6a","ios":"levelo://app?vid=b5c8cd35-34dd-45ee-b3e7-3050ef3cbe6a"},"vehicle_type_id":"4","last_reported":1707070102,"current_range_meters":11600,"station_id":"","pricing_plan_id":"free"},{"bike_id":"b817514d-6161-4355-996d-169e2dece9d3","system_id":"levelo_inurba_marseille","lat":43.301117,"lon":5.398795,"is_reserved":false,"is_disabled":false,"rental_uris":{"android":"levelo://app?vid=b817514d-6161-4355-996d-169e2dece9d3","ios":"levelo://app?vid=b817514d-6161-4355-996d-169e2dece9d3"},"vehicle_type_id":"4","last_reported":1707070102,"current_range_meters":2800,"station_id":"ce4bh0h2rcd13ifvqd40","pricing_plan_id":"free"},{"bike_id":"42269dc6-a9a9-4d43-85ba-037e066f2e01","system_id":"levelo_inurba_marseille","lat":43.28727,"lon":5.36078,"is_reserved":false,"is_disabled":false,"rental_uris":{"android":"levelo://app?vid=42269dc6-a9a9-4d43-85ba-037e066f2e01","ios":"levelo://app?vid=42269dc6-a9a9-4d43-85ba-037e066f2e01"},"vehicle_type_id":"4","last_reported":1707070102,"current_range_meters":30800,"station_id":"cki0cbj6b192h4jlfktg","pricing_plan_id":"free"},{"bike_id":"768b340f-26c3-4cfe-ab92-91d10b32e38f","system_id":"levelo_inurba_marseille","lat":43.28727,"lon":5.36078,"is_reserved":false,"is_disabled":false,"rental_uris":{"android":"levelo://app?vid=768b340f-26c3-4cfe-ab92-91d10b32e38f","ios":"levelo://app?vid=768b340f-26c3-4cfe-ab92-91d10b32e38f"},"vehicle_type_id":"4","last_reported":1707070102,"current_range_meters":14800,"station_id":"cki0cbj6b192h4jlfktg","pricing_plan_id":"free"},{"bike_id":"d305468d-3382-4123-b4a1-2a15b35d942c","system_id":"levelo_inurba_marseille","lat":43.28674,"lon":5.36358,"is_reserved":false,"is_disabled":false,"rental_uris":{"android":"levelo://app?vid=d305468d-3382-4123-b4a1-2a15b35d942c","ios":"levelo://app?vid=d305468d-3382-4123-b4a1-2a15b35d942c"},"vehicle_type_id":"4","last_reported":1707070102,"current_range_meters":8400,"station_id":"ce4bhah2rcd13ifvqej0","pricing_plan_id":"free"},{"bike_id":"96943b07-5e07-4be5-b216-4a6b2986f9cd","system_id":"levelo_inurba_marseille","lat":43.28665,"lon":5.36349,"is_reserved":false,"is_disabled":false,"rental_uris":{"android":"levelo://app?vid=96943b07-5e07-4be5-b216-4a6b2986f9cd","ios":"levelo://app?vid=96943b07-5e07-4be5-b216-4a6b2986f9cd"},"vehicle_type_id":"4","last_reported":1707070102,"current_range_meters":15200,"station_id":"ce4bhah2rcd13ifvqej0","pricing_plan_id":"free"},{"bike_id":"3934696f-6b71-4110-889e-5902105843d9","system_id":"levelo_inurba_marseille","lat":43.286591,"lon":5.363346,"is_reserved":false,"is_disabled":false,"rental_uris":{"android":"levelo://app?vid=3934696f-6b71-4110-889e-5902105843d9","ios":"levelo://app?vid=3934696f-6b71-4110-889e-5902105843d9"},"vehicle_type_id":"4","last_reported":1707070102,"current_range_meters":28800,"station_id":"ce4bhah2rcd13ifvqej0","pricing_plan_id":"free"},{"bike_id":"d31b4f00-b310-4a2a-ac4c-ec3f7ea37043","system_id":"levelo_inurba_marseille","lat":43.286961,"lon":5.373785,"is_reserved":false,"is_disabled":false,"rental_uris":{"android":"levelo://app?vid=d31b4f00-b310-4a2a-ac4c-ec3f7ea37043","ios":"levelo://app?vid=d31b4f00-b310-4a2a-ac4c-ec3f7ea37043"},"vehicle_type_id":"4","last_reported":1707070102,"current_range_meters":10400,"station_id":"ce4bh3p2rcd13ifvqdq0","pricing_plan_id":"free"},{"bike_id":"d3c77141-db99-4e33-9afb-da595021ea08","system_id":"levelo_inurba_marseille","lat":43.286961,"lon":5.373785,"is_reserved":false,"is_disabled":false,"rental_uris":{"android":"levelo://app?vid=d3c77141-db99-4e33-9afb-da595021ea08","ios":"levelo://app?vid=d3c77141-db99-4e33-9afb-da595021ea08"},"vehicle_type_id":"4","last_reported":1707070102,"current_range_meters":2400,"station_id":"ce4bh3p2rcd13ifvqdq0","pricing_plan_id":"free"},{"bike_id":"85f1bc44-1bf8-4a4f-9e7c-6753eedf53c3","system_id":"levelo_inurba_marseille","lat":43.28662,"lon":5.36357,"is_reserved":false,"is_disabled":false,"rental_uris":{"android":"levelo://app?vid=85f1bc44-1bf8-4a4f-9e7c-6753eedf53c3","ios":"levelo://app?vid=85f1bc44-1bf8-4a4f-9e7c-6753eedf53c3"},"vehicle_type_id":"4","last_reported":1707070102,"current_range_meters":4400,"station_id":"ce4bhah2rcd13ifvqej0","pricing_plan_id":"free"},{"bike_id":"a409a350-c4c6-49d8-af92-98f847538709","system_id":"levelo_inurba_marseille","lat":43.286961,"lon":5.373785,"is_reserved":false,"is_disabled":false,"rental_uris":{"android":"levelo://app?vid=a409a350-c4c6-49d8-af92-98f847538709","ios":"levelo://app?vid=a409a350-c4c6-49d8-af92-98f847538709"},"vehicle_type_id":"4","last_reported":1707070102,"current_range_meters":8000,"station_id":"ce4bh3p2rcd13ifvqdq0","pricing_plan_id":"free"},{"bike_id":"b7a02d81-2239-4129-8d87-f7109a3e6228","system_id":"levelo_inurba_marseille","lat":43.29526,"lon":5.39394,"is_reserved":false,"is_disabled":false,"rental_uris":{"android":"levelo://app?vid=b7a02d81-2239-4129-8d87-f7109a3e6228","ios":"levelo://app?vid=b7a02d81-2239-4129-8d87-f7109a3e6228"},"vehicle_type_id":"4","last_reported":1707070102,"current_range_meters":15600,"station_id":"ce4bh292rcd13ifvqdf0","pricing_plan_id":"free"},{"bike_id":"ae518fc5-fc83-4363-b5a3-7a6848f40732","system_id":"levelo_inurba_marseille","lat":43.289307,"lon":5.38406,"is_reserved":false,"is_disabled":false,"rental_uris":{"android":"levelo://app?vid=ae518fc5-fc83-4363-b5a3-7a6848f40732","ios":"levelo://app?vid=ae518fc5-fc83-4363-b5a3-7a6848f40732"},"vehicle_type_id":"4","last_reported":1707070102,"current_range_meters":31200,"station_id":"ce4bh612rcd13ifvqe6g","pricing_plan_id":"free"},{"bike_id":"fb63d027-8c1b-4690-81ca-b2b484626035","system_id":"levelo_inurba_marseille","lat":43.290345,"lon":5.38646,"is_reserved":false,"is_disabled":false,"rental_uris":{"android":"levelo://app?vid=fb63d027-8c1b-4690-81ca-b2b484626035","ios":"levelo://app?vid=fb63d027-8c1b-4690-81ca-b2b484626035"},"vehicle_type_id":"4","last_reported":1707070102,"current_range_meters":0,"station_id":"ce4bh4p2rcd13ifvqe0g","pricing_plan_id":"free"},{"bike_id":"ff06923d-5b80-410b-93c0-9c2c09e267f1","system_id":"levelo_inurba_marseille","lat":43.287185,"lon":5.379373,"is_reserved":false,"is_disabled":false,"rental_uris":{"android":"levelo://app?vid=ff06923d-5b80-410b-93c0-9c2c09e267f1","ios":"levelo://app?vid=ff06923d-5b80-410b-93c0-9c2c09e267f1"},"vehicle_type_id":"4","last_reported":1707070102,"current_range_meters":2400,"station_id":"ce4bh9p2rcd13ifvqec0","pricing_plan_id":"free"},{"bike_id":"0dbc7b4b-7ed7-496d-b8f6-c8ad33cb1b13","system_id":"levelo_inurba_marseille","lat":43.287185,"lon":5.379373,"is_reserved":false,"is_disabled":false,"rental_uris":{"android":"levelo://app?vid=0dbc7b4b-7ed7-496d-b8f6-c8ad33cb1b13","ios":"levelo://app?vid=0dbc7b4b-7ed7-496d-b8f6-c8ad33cb1b13"},"vehicle_type_id":"4","last_reported":1707070102,"current_range_meters":13200,"station_id":"ce4bh9p2rcd13ifvqec0","pricing_plan_id":"free"},{"bike_id":"333226f8-aaeb-48dd-b6bc-ee0a4d5be7b5","system_id":"levelo_inurba_marseille","lat":43.28734,"lon":5.352253,"is_reserved":false,"is_disabled":false,"rental_uris":{"android":"levelo://app?vid=333226f8-aaeb-48dd-b6bc-ee0a4d5be7b5","ios":"levelo://app?vid=333226f8-aaeb-48dd-b6bc-ee0a4d5be7b5"},"vehicle_type_id":"4","last_reported":1707070102,"current_range_meters":0,"station_id":"","pricing_plan_id":"free"},{"bike_id":"5aef156f-8458-4147-b6e3-a8a6387946f7","system_id":"levelo_inurba_marseille","lat":43.316828,"lon":5.404723,"is_reserved":false,"is_disabled":false,"rental_uris":{"android":"levelo://app?vid=5aef156f-8458-4147-b6e3-a8a6387946f7","ios":"levelo://app?vid=5aef156f-8458-4147-b6e3-a8a6387946f7"},"vehicle_type_id":"4","last_reported":1707070102,"current_range_meters":30400,"station_id":"ce4bh012rcd13ifvqd00","pricing_plan_id":"free"},{"bike_id":"b1252978-b2d4-410e-815f-b83cd02c402b","system_id":"levelo_inurba_marseille","lat":43.31709,"lon":5.40471,"is_reserved":false,"is_disabled":false,"rental_uris":{"android":"levelo://app?vid=b1252978-b2d4-410e-815f-b83cd02c402b","ios":"levelo://app?vid=b1252978-b2d4-410e-815f-b83cd02c402b"},"vehicle_type_id":"4","last_reported":1707070102,"current_range_meters":31200,"station_id":"ce4bh012rcd13ifvqd00","pricing_plan_id":"free"},{"bike_id":"799d91a4-4aa3-4677-9398-69c6644e1413","system_id":"levelo_inurba_marseille","lat":43.291994,"lon":5.392907,"is_reserved":false,"is_disabled":false,"rental_uris":{"android":"levelo://app?vid=799d91a4-4aa3-4677-9398-69c6644e1413","ios":"levelo://app?vid=799d91a4-4aa3-4677-9398-69c6644e1413"},"vehicle_type_id":"4","last_reported":1707070102,"current_range_meters":26400,"station_id":"ce4bh192rcd13ifvqdd0","pricing_plan_id":"free"},{"bike_id":"1cd45315-a4dc-452b-80e1-1cba5f2bc2f1","system_id":"levelo_inurba_marseille","lat":43.291994,"lon":5.392907,"is_reserved":false,"is_disabled":false,"rental_uris":{"android":"levelo://app?vid=1cd45315-a4dc-452b-80e1-1cba5f2bc2f1","ios":"levelo://app?vid=1cd45315-a4dc-452b-80e1-1cba5f2bc2f1"},"vehicle_type_id":"4","last_reported":1707070102,"current_range_meters":0,"station_id":"ce4bh192rcd13ifvqdd0","pricing_plan_id":"free"},{"bike_id":"bc95f16e-ddaf-494e-8c35-535baf2d01d4","system_id":"levelo_inurba_marseille","lat":43.291994,"lon":5.392907,"is_reserved":false,"is_disabled":false,"rental_uris":{"android":"levelo://app?vid=bc95f16e-ddaf-494e-8c35-535baf2d01d4","ios":"levelo://app?vid=bc95f16e-ddaf-494e-8c35-535baf2d01d4"},"vehicle_type_id":"4","last_reported":1707070102,"current_range_meters":5200,"station_id":"ce4bh192rcd13ifvqdd0","pricing_plan_id":"free"},{"bike_id":"fda0b6ae-3c71-4e21-90b3-71c1a3a19cdc","system_id":"levelo_inurba_marseille","lat":43.291994,"lon":5.392907,"is_reserved":false,"is_disabled":false,"rental_uris":{"android":"levelo://app?vid=fda0b6ae-3c71-4e21-90b3-71c1a3a19cdc","ios":"levelo://app?vid=fda0b6ae-3c71-4e21-90b3-71c1a3a19cdc"},"vehicle_type_id":"4","last_reported":1707070102,"current_range_meters":22400,"station_id":"ce4bh192rcd13ifvqdd0","pricing_plan_id":"free"},{"bike_id":"139abce9-2bf8-48ea-a8e4-3b7a4995be61","system_id":"levelo_inurba_marseille","lat":43.284534,"lon":5.358662,"is_reserved":false,"is_disabled":false,"rental_uris":{"android":"levelo://app?vid=139abce9-2bf8-48ea-a8e4-3b7a4995be61","ios":"levelo://app?vid=139abce9-2bf8-48ea-a8e4-3b7a4995be61"},"vehicle_type_id":"4","last_reported":1707070102,"current_range_meters":4000,"station_id":"ce4bhah2rcd13ifvqei0","pricing_plan_id":"free"},{"bike_id":"560a4fed-44dc-4de8-801f-9faece6a965b","system_id":"levelo_inurba_marseille","lat":43.284538,"lon":5.358657,"is_reserved":false,"is_disabled":false,"rental_uris":{"android":"levelo://app?vid=560a4fed-44dc-4de8-801f-9faece6a965b","ios":"levelo://app?vid=560a4fed-44dc-4de8-801f-9faece6a965b"},"vehicle_type_id":"4","last_reported":1707070102,"current_range_meters":0,"station_id":"ce4bhah2rcd13ifvqei0","pricing_plan_id":"free"},{"bike_id":"ad2bf478-db19-4e1f-8688-55b31208541c","system_id":"levelo_inurba_marseille","lat":43.284534,"lon":5.358662,"is_reserved":false,"is_disabled":false,"rental_uris":{"android":"levelo://app?vid=ad2bf478-db19-4e1f-8688-55b31208541c","ios":"levelo://app?vid=ad2bf478-db19-4e1f-8688-55b31208541c"},"vehicle_type_id":"4","last_reported":1707070102,"current_range_meters":22400,"station_id":"ce4bhah2rcd13ifvqei0","pricing_plan_id":"free"},{"bike_id":"c554e83e-9d87-4cfd-bb92-2fa3d7ff95cd","system_id":"levelo_inurba_marseille","lat":43.284538,"lon":5.358657,"is_reserved":false,"is_disabled":false,"rental_uris":{"android":"levelo://app?vid=c554e83e-9d87-4cfd-bb92-2fa3d7ff95cd","ios":"levelo://app?vid=c554e83e-9d87-4cfd-bb92-2fa3d7ff95cd"},"vehicle_type_id":"4","last_reported":1707070102,"current_range_meters":1600,"station_id":"ce4bhah2rcd13ifvqei0","pricing_plan_id":"free"},{"bike_id":"959ddf3a-b927-4500-9bac-6857bd30b5d5","system_id":"levelo_inurba_marseille","lat":43.286594,"lon":5.383336,"is_reserved":false,"is_disabled":false,"rental_uris":{"android":"levelo://app?vid=959ddf3a-b927-4500-9bac-6857bd30b5d5","ios":"levelo://app?vid=959ddf3a-b927-4500-9bac-6857bd30b5d5"},"vehicle_type_id":"4","last_reported":1707070102,"current_range_meters":10800,"station_id":"","pricing_plan_id":"free"},{"bike_id":"dedec121-7ead-47e2-a1e4-839d56304e5b","system_id":"levelo_inurba_marseille","lat":43.284534,"lon":5.358662,"is_reserved":false,"is_disabled":false,"rental_uris":{"android":"levelo://app?vid=dedec121-7ead-47e2-a1e4-839d56304e5b","ios":"levelo://app?vid=dedec121-7ead-47e2-a1e4-839d56304e5b"},"vehicle_type_id":"4","last_reported":1707070102,"current_range_meters":24400,"station_id":"ce4bhah2rcd13ifvqei0","pricing_plan_id":"free"},{"bike_id":"70eaf2cf-c621-4c78-8f24-46416ef5385d","system_id":"levelo_inurba_marseille","lat":43.294314,"lon":5.397498,"is_reserved":false,"is_disabled":false,"rental_uris":{"android":"levelo://app?vid=70eaf2cf-c621-4c78-8f24-46416ef5385d","ios":"levelo://app?vid=70eaf2cf-c621-4c78-8f24-46416ef5385d"},"vehicle_type_id":"4","last_reported":1707070102,"current_range_meters":5200,"station_id":"ce4bh3h2rcd13ifvqdo0","pricing_plan_id":"free"},{"bike_id":"3d2696aa-fabf-42ad-b941-00de2f9d2b41","system_id":"levelo_inurba_marseille","lat":43.294314,"lon":5.397498,"is_reserved":false,"is_disabled":false,"rental_uris":{"android":"levelo://app?vid=3d2696aa-fabf-42ad-b941-00de2f9d2b41","ios":"levelo://app?vid=3d2696aa-fabf-42ad-b941-00de2f9d2b41"},"vehicle_type_id":"4","last_reported":1707070102,"current_range_meters":2000,"station_id":"ce4bh3h2rcd13ifvqdo0","pricing_plan_id":"free"},{"bike_id":"fab5601e-bc5e-4072-a44e-3a2de9509a16","system_id":"levelo_inurba_marseille","lat":43.294314,"lon":5.397498,"is_reserved":false,"is_disabled":false,"rental_uris":{"android":"levelo://app?vid=fab5601e-bc5e-4072-a44e-3a2de9509a16","ios":"levelo://app?vid=fab5601e-bc5e-4072-a44e-3a2de9509a16"},"vehicle_type_id":"4","last_reported":1707070102,"current_range_meters":13200,"station_id":"ce4bh3h2rcd13ifvqdo0","pricing_plan_id":"free"},{"bike_id":"e461185f-74a2-4a0b-ba2d-e0c6a1ee9f37","system_id":"levelo_inurba_marseille","lat":43.294314,"lon":5.397498,"is_reserved":false,"is_disabled":false,"rental_uris":{"android":"levelo://app?vid=e461185f-74a2-4a0b-ba2d-e0c6a1ee9f37","ios":"levelo://app?vid=e461185f-74a2-4a0b-ba2d-e0c6a1ee9f37"},"vehicle_type_id":"4","last_reported":1707070102,"current_range_meters":6000,"station_id":"ce4bh3h2rcd13ifvqdo0","pricing_plan_id":"free"},{"bike_id":"7193e522-48c6-4ee6-8135-e3ec6d40035d","system_id":"levelo_inurba_marseille","lat":43.294314,"lon":5.397498,"is_reserved":false,"is_disabled":false,"rental_uris":{"android":"levelo://app?vid=7193e522-48c6-4ee6-8135-e3ec6d40035d","ios":"levelo://app?vid=7193e522-48c6-4ee6-8135-e3ec6d40035d"},"vehicle_type_id":"4","last_reported":1707070102,"current_range_meters":4400,"station_id":"ce4bh3h2rcd13ifvqdo0","pricing_plan_id":"free"},{"bike_id":"9b0ffc9b-abe9-4fbf-bfce-d2b583c7d33c","system_id":"levelo_inurba_marseille","lat":43.283998,"lon":5.375062,"is_reserved":false,"is_disabled":false,"rental_uris":{"android":"levelo://app?vid=9b0ffc9b-abe9-4fbf-bfce-d2b583c7d33c","ios":"levelo://app?vid=9b0ffc9b-abe9-4fbf-bfce-d2b583c7d33c"},"vehicle_type_id":"4","last_reported":1707070102,"current_range_meters":0,"station_id":"ce4bh412rcd13ifvqds0","pricing_plan_id":"free"},{"bike_id":"77056cf1-f06c-4785-a2b5-07e3a7b929da","system_id":"levelo_inurba_marseille","lat":43.295713,"lon":5.399639,"is_reserved":false,"is_disabled":false,"rental_uris":{"android":"levelo://app?vid=77056cf1-f06c-4785-a2b5-07e3a7b929da","ios":"levelo://app?vid=77056cf1-f06c-4785-a2b5-07e3a7b929da"},"vehicle_type_id":"4","last_reported":1707070102,"current_range_meters":18000,"station_id":"ce4bh312rcd13ifvqdj0","pricing_plan_id":"free"},{"bike_id":"3499370e-2f72-459e-9c38-3caa148a710e","system_id":"levelo_inurba_marseille","lat":43.295713,"lon":5.399639,"is_reserved":false,"is_disabled":false,"rental_uris":{"android":"levelo://app?vid=3499370e-2f72-459e-9c38-3caa148a710e","ios":"levelo://app?vid=3499370e-2f72-459e-9c38-3caa148a710e"},"vehicle_type_id":"4","last_reported":1707070102,"current_range_meters":800,"station_id":"ce4bh312rcd13ifvqdj0","pricing_plan_id":"free"},{"bike_id":"24c02979-a768-4918-b5e8-5d8e4c5026ac","system_id":"levelo_inurba_marseille","lat":43.295713,"lon":5.399639,"is_reserved":false,"is_disabled":false,"rental_uris":{"android":"levelo://app?vid=24c02979-a768-4918-b5e8-5d8e4c5026ac","ios":"levelo://app?vid=24c02979-a768-4918-b5e8-5d8e4c5026ac"},"vehicle_type_id":"4","last_reported":1707070102,"current_range_meters":21200,"station_id":"ce4bh312rcd13ifvqdj0","pricing_plan_id":"free"},{"bike_id":"2446de11-874e-419a-a177-961f18d77e06","system_id":"levelo_inurba_marseille","lat":43.295713,"lon":5.399639,"is_reserved":false,"is_disabled":false,"rental_uris":{"android":"levelo://app?vid=2446de11-874e-419a-a177-961f18d77e06","ios":"levelo://app?vid=2446de11-874e-419a-a177-961f18d77e06"},"vehicle_type_id":"4","last_reported":1707070102,"current_range_meters":400,"station_id":"ce4bh312rcd13ifvqdj0","pricing_plan_id":"free"},{"bike_id":"9761fcd6-48a2-4931-9547-db23416dc662","system_id":"levelo_inurba_marseille","lat":43.295713,"lon":5.399639,"is_reserved":false,"is_disabled":false,"rental_uris":{"android":"levelo://app?vid=9761fcd6-48a2-4931-9547-db23416dc662","ios":"levelo://app?vid=9761fcd6-48a2-4931-9547-db23416dc662"},"vehicle_type_id":"4","last_reported":1707070102,"current_range_meters":14000,"station_id":"ce4bh312rcd13ifvqdj0","pricing_plan_id":"free"},{"bike_id":"c1006297-9b98-4c2c-8539-d196f31905b0","system_id":"levelo_inurba_marseille","lat":43.286595,"lon":5.386795,"is_reserved":false,"is_disabled":false,"rental_uris":{"android":"levelo://app?vid=c1006297-9b98-4c2c-8539-d196f31905b0","ios":"levelo://app?vid=c1006297-9b98-4c2c-8539-d196f31905b0"},"vehicle_type_id":"4","last_reported":1707070102,"current_range_meters":4000,"station_id":"ce4bh492rcd13ifvqdug","pricing_plan_id":"free"},{"bike_id":"83fc519c-1aed-4fde-8152-86deae6986a6","system_id":"levelo_inurba_marseille","lat":43.286595,"lon":5.386795,"is_reserved":false,"is_disabled":false,"rental_uris":{"android":"levelo://app?vid=83fc519c-1aed-4fde-8152-86deae6986a6","ios":"levelo://app?vid=83fc519c-1aed-4fde-8152-86deae6986a6"},"vehicle_type_id":"4","last_reported":1707070102,"current_range_meters":7200,"station_id":"ce4bh492rcd13ifvqdug","pricing_plan_id":"free"},{"bike_id":"1a3bbe6d-a2bb-4f89-bec8-17aff7d9f933","system_id":"levelo_inurba_marseille","lat":43.286595,"lon":5.386795,"is_reserved":false,"is_disabled":false,"rental_uris":{"android":"levelo://app?vid=1a3bbe6d-a2bb-4f89-bec8-17aff7d9f933","ios":"levelo://app?vid=1a3bbe6d-a2bb-4f89-bec8-17aff7d9f933"},"vehicle_type_id":"4","last_reported":1707070102,"current_range_meters":17200,"station_id":"ce4bh492rcd13ifvqdug","pricing_plan_id":"free"},{"bike_id":"c47c421f-a474-4869-8aed-9f70397ce5ee","system_id":"levelo_inurba_marseille","lat":43.245581,"lon":5.395069,"is_reserved":false,"is_disabled":false,"rental_uris":{"android":"levelo://app?vid=c47c421f-a474-4869-8aed-9f70397ce5ee","ios":"levelo://app?vid=c47c421f-a474-4869-8aed-9f70397ce5ee"},"vehicle_type_id":"4","last_reported":1707070102,"current_range_meters":13200,"station_id":"ce4bhlp2rcd13ifvqgjg","pricing_plan_id":"free"},{"bike_id":"b935769b-4c17-406c-b721-5f48fabb8281","system_id":"levelo_inurba_marseille","lat":43.323464,"lon":5.406297,"is_reserved":false,"is_disabled":false,"rental_uris":{"android":"levelo://app?vid=b935769b-4c17-406c-b721-5f48fabb8281","ios":"levelo://app?vid=b935769b-4c17-406c-b721-5f48fabb8281"},"vehicle_type_id":"4","last_reported":1707070102,"current_range_meters":24800,"station_id":"ce4bhq92rcd13ifvqhjg","pricing_plan_id":"free"},{"bike_id":"38c6e349-2a8a-4c7a-80e9-0fc52631e5a3","system_id":"levelo_inurba_marseille","lat":43.284787,"lon":5.384116,"is_reserved":false,"is_disabled":false,"rental_uris":{"android":"levelo://app?vid=38c6e349-2a8a-4c7a-80e9-0fc52631e5a3","ios":"levelo://app?vid=38c6e349-2a8a-4c7a-80e9-0fc52631e5a3"},"vehicle_type_id":"4","last_reported":1707070102,"current_range_meters":2000,"station_id":"ce4bh512rcd13ifvqe3g","pricing_plan_id":"free"},{"bike_id":"ecf6d85f-3cc4-464c-8fef-f77ec785f6dc","system_id":"levelo_inurba_marseille","lat":43.288497,"lon":5.393089,"is_reserved":false,"is_disabled":false,"rental_uris":{"android":"levelo://app?vid=ecf6d85f-3cc4-464c-8fef-f77ec785f6dc","ios":"levelo://app?vid=ecf6d85f-3cc4-464c-8fef-f77ec785f6dc"},"vehicle_type_id":"4","last_reported":1707070102,"current_range_meters":7200,"station_id":"ce4bh2p2rcd13ifvqdi0","pricing_plan_id":"free"},{"bike_id":"3c7884dc-ae18-4c6e-b0d3-002c6217e94c","system_id":"levelo_inurba_marseille","lat":43.288497,"lon":5.393089,"is_reserved":false,"is_disabled":false,"rental_uris":{"android":"levelo://app?vid=3c7884dc-ae18-4c6e-b0d3-002c6217e94c","ios":"levelo://app?vid=3c7884dc-ae18-4c6e-b0d3-002c6217e94c"},"vehicle_type_id":"4","last_reported":1707070102,"current_range_meters":10400,"station_id":"ce4bh2p2rcd13ifvqdi0","pricing_plan_id":"free"},{"bike_id":"594e377a-acaf-491f-86a4-c2c4453788eb","system_id":"levelo_inurba_marseille","lat":43.283498,"lon":5.380948,"is_reserved":false,"is_disabled":false,"rental_uris":{"android":"levelo://app?vid=594e377a-acaf-491f-86a4-c2c4453788eb","ios":"levelo://app?vid=594e377a-acaf-491f-86a4-c2c4453788eb"},"vehicle_type_id":"4","last_reported":1707070102,"current_range_meters":31200,"station_id":"ce4bh412rcd13ifvqdr0","pricing_plan_id":"free"},{"bike_id":"c31a25b2-e545-45a6-97d8-71a8b50c85c8","system_id":"levelo_inurba_marseille","lat":43.283498,"lon":5.380948,"is_reserved":false,"is_disabled":false,"rental_uris":{"android":"levelo://app?vid=c31a25b2-e545-45a6-97d8-71a8b50c85c8","ios":"levelo://app?vid=c31a25b2-e545-45a6-97d8-71a8b50c85c8"},"vehicle_type_id":"4","last_reported":1707070102,"current_range_meters":22800,"station_id":"ce4bh412rcd13ifvqdr0","pricing_plan_id":"free"},{"bike_id":"bb724ac5-cb15-44e9-a07b-9551d5e6c646","system_id":"levelo_inurba_marseille","lat":43.283494,"lon":5.380945,"is_reserved":false,"is_disabled":false,"rental_uris":{"android":"levelo://app?vid=bb724ac5-cb15-44e9-a07b-9551d5e6c646","ios":"levelo://app?vid=bb724ac5-cb15-44e9-a07b-9551d5e6c646"},"vehicle_type_id":"4","last_reported":1707070102,"current_range_meters":8400,"station_id":"ce4bh412rcd13ifvqdr0","pricing_plan_id":"free"},{"bike_id":"7b6110a6-9c2a-4aa4-93f6-2eda5c05684a","system_id":"levelo_inurba_marseille","lat":43.283494,"lon":5.380945,"is_reserved":false,"is_disabled":false,"rental_uris":{"android":"levelo://app?vid=7b6110a6-9c2a-4aa4-93f6-2eda5c05684a","ios":"levelo://app?vid=7b6110a6-9c2a-4aa4-93f6-2eda5c05684a"},"vehicle_type_id":"4","last_reported":1707070102,"current_range_meters":14400,"station_id":"ce4bh412rcd13ifvqdr0","pricing_plan_id":"free"},{"bike_id":"c7c97daa-1eb6-4bba-a772-b49b37440311","system_id":"levelo_inurba_marseille","lat":43.283494,"lon":5.380945,"is_reserved":false,"is_disabled":false,"rental_uris":{"android":"levelo://app?vid=c7c97daa-1eb6-4bba-a772-b49b37440311","ios":"levelo://app?vid=c7c97daa-1eb6-4bba-a772-b49b37440311"},"vehicle_type_id":"4","last_reported":1707070102,"current_range_meters":3200,"station_id":"ce4bh412rcd13ifvqdr0","pricing_plan_id":"free"},{"bike_id":"7f8e7bd0-429a-4c44-b1cd-daffb13dfbc5","system_id":"levelo_inurba_marseille","lat":43.289363,"lon":5.396322,"is_reserved":false,"is_disabled":false,"rental_uris":{"android":"levelo://app?vid=7f8e7bd0-429a-4c44-b1cd-daffb13dfbc5","ios":"levelo://app?vid=7f8e7bd0-429a-4c44-b1cd-daffb13dfbc5"},"vehicle_type_id":"4","last_reported":1707070102,"current_range_meters":4800,"station_id":"ce4bh3h2rcd13ifvqdn0","pricing_plan_id":"free"},{"bike_id":"ec1bfdec-0115-4649-b073-1333ebb62849","system_id":"levelo_inurba_marseille","lat":43.292724,"lon":5.401131,"is_reserved":false,"is_disabled":false,"rental_uris":{"android":"levelo://app?vid=ec1bfdec-0115-4649-b073-1333ebb62849","ios":"levelo://app?vid=ec1bfdec-0115-4649-b073-1333ebb62849"},"vehicle_type_id":"4","last_reported":1707070102,"current_range_meters":0,"station_id":"ce4bh312rcd13ifvqdk0","pricing_plan_id":"free"},{"bike_id":"f34996b0-5247-4677-9185-0a4bd8b62b2a","system_id":"levelo_inurba_marseille","lat":43.292724,"lon":5.401131,"is_reserved":false,"is_disabled":false,"rental_uris":{"android":"levelo://app?vid=f34996b0-5247-4677-9185-0a4bd8b62b2a","ios":"levelo://app?vid=f34996b0-5247-4677-9185-0a4bd8b62b2a"},"vehicle_type_id":"4","last_reported":1707070102,"current_range_meters":24000,"station_id":"ce4bh312rcd13ifvqdk0","pricing_plan_id":"free"},{"bike_id":"b5d492a0-7257-4bff-b43b-6a8ed750b2af","system_id":"levelo_inurba_marseille","lat":43.292724,"lon":5.401131,"is_reserved":false,"is_disabled":false,"rental_uris":{"android":"levelo://app?vid=b5d492a0-7257-4bff-b43b-6a8ed750b2af","ios":"levelo://app?vid=b5d492a0-7257-4bff-b43b-6a8ed750b2af"},"vehicle_type_id":"4","last_reported":1707070102,"current_range_meters":17600,"station_id":"ce4bh312rcd13ifvqdk0","pricing_plan_id":"free"},{"bike_id":"a6e59704-e903-46a0-805f-18f0fa0e7c02","system_id":"levelo_inurba_marseille","lat":43.292724,"lon":5.401131,"is_reserved":false,"is_disabled":false,"rental_uris":{"android":"levelo://app?vid=a6e59704-e903-46a0-805f-18f0fa0e7c02","ios":"levelo://app?vid=a6e59704-e903-46a0-805f-18f0fa0e7c02"},"vehicle_type_id":"4","last_reported":1707070102,"current_range_meters":15200,"station_id":"ce4bh312rcd13ifvqdk0","pricing_plan_id":"free"},{"bike_id":"61c21886-1126-42b7-bf57-7f85e7c9da19","system_id":"levelo_inurba_marseille","lat":43.292724,"lon":5.401131,"is_reserved":false,"is_disabled":false,"rental_uris":{"android":"levelo://app?vid=61c21886-1126-42b7-bf57-7f85e7c9da19","ios":"levelo://app?vid=61c21886-1126-42b7-bf57-7f85e7c9da19"},"vehicle_type_id":"4","last_reported":1707070102,"current_range_meters":9600,"station_id":"ce4bh312rcd13ifvqdk0","pricing_plan_id":"free"},{"bike_id":"f0a959ba-3b27-4e11-b72c-8e381b1f975b","system_id":"levelo_inurba_marseille","lat":43.282754,"lon":5.350519,"is_reserved":false,"is_disabled":false,"rental_uris":{"android":"levelo://app?vid=f0a959ba-3b27-4e11-b72c-8e381b1f975b","ios":"levelo://app?vid=f0a959ba-3b27-4e11-b72c-8e381b1f975b"},"vehicle_type_id":"4","last_reported":1707070102,"current_range_meters":0,"station_id":"ce4bhbp2rcd13ifvqerg","pricing_plan_id":"free"},{"bike_id":"720efa77-e91d-44dc-bea1-5d9ea66faf76","system_id":"levelo_inurba_marseille","lat":43.28268,"lon":5.35076,"is_reserved":false,"is_disabled":false,"rental_uris":{"android":"levelo://app?vid=720efa77-e91d-44dc-bea1-5d9ea66faf76","ios":"levelo://app?vid=720efa77-e91d-44dc-bea1-5d9ea66faf76"},"vehicle_type_id":"4","last_reported":1707070102,"current_range_meters":0,"station_id":"ce4bhbp2rcd13ifvqerg","pricing_plan_id":"free"},{"bike_id":"f97e913a-8173-408b-b548-bfd41e4181fc","system_id":"levelo_inurba_marseille","lat":43.283502,"lon":5.386471,"is_reserved":false,"is_disabled":false,"rental_uris":{"android":"levelo://app?vid=f97e913a-8173-408b-b548-bfd41e4181fc","ios":"levelo://app?vid=f97e913a-8173-408b-b548-bfd41e4181fc"},"vehicle_type_id":"4","last_reported":1707070102,"current_range_meters":16000,"station_id":"ce4bh492rcd13ifvqdvg","pricing_plan_id":"free"},{"bike_id":"0d2021c9-81d5-424b-b308-bc6622142d7d","system_id":"levelo_inurba_marseille","lat":43.28039,"lon":5.369297,"is_reserved":false,"is_disabled":false,"rental_uris":{"android":"levelo://app?vid=0d2021c9-81d5-424b-b308-bc6622142d7d","ios":"levelo://app?vid=0d2021c9-81d5-424b-b308-bc6622142d7d"},"vehicle_type_id":"4","last_reported":1707070102,"current_range_meters":22000,"station_id":"ce4bha12rcd13ifvqef0","pricing_plan_id":"free"},{"bike_id":"71d58b92-edec-48ac-a338-0c7404e39a67","system_id":"levelo_inurba_marseille","lat":43.282526,"lon":5.350032,"is_reserved":false,"is_disabled":false,"rental_uris":{"android":"levelo://app?vid=71d58b92-edec-48ac-a338-0c7404e39a67","ios":"levelo://app?vid=71d58b92-edec-48ac-a338-0c7404e39a67"},"vehicle_type_id":"4","last_reported":1707070102,"current_range_meters":1200,"station_id":"ce4bhbp2rcd13ifvqerg","pricing_plan_id":"free"},{"bike_id":"5cc1964c-a554-4d04-b2f8-724a0c2c5378","system_id":"levelo_inurba_marseille","lat":43.281044,"lon":5.378308,"is_reserved":false,"is_disabled":false,"rental_uris":{"android":"levelo://app?vid=5cc1964c-a554-4d04-b2f8-724a0c2c5378","ios":"levelo://app?vid=5cc1964c-a554-4d04-b2f8-724a0c2c5378"},"vehicle_type_id":"4","last_reported":1707070102,"current_range_meters":8000,"station_id":"ce4bha12rcd13ifvqee0","pricing_plan_id":"free"},{"bike_id":"f9ea10b0-5c89-4803-87d2-d9d7ec9f4e1a","system_id":"levelo_inurba_marseille","lat":43.281044,"lon":5.378308,"is_reserved":false,"is_disabled":false,"rental_uris":{"android":"levelo://app?vid=f9ea10b0-5c89-4803-87d2-d9d7ec9f4e1a","ios":"levelo://app?vid=f9ea10b0-5c89-4803-87d2-d9d7ec9f4e1a"},"vehicle_type_id":"4","last_reported":1707070102,"current_range_meters":800,"station_id":"ce4bha12rcd13ifvqee0","pricing_plan_id":"free"},{"bike_id":"523c8b62-a394-427c-83ac-1e8f246890d3","system_id":"levelo_inurba_marseille","lat":43.281754,"lon":5.38301,"is_reserved":false,"is_disabled":false,"rental_uris":{"android":"levelo://app?vid=523c8b62-a394-427c-83ac-1e8f246890d3","ios":"levelo://app?vid=523c8b62-a394-427c-83ac-1e8f246890d3"},"vehicle_type_id":"4","last_reported":1707070102,"current_range_meters":1600,"station_id":"","pricing_plan_id":"free"},{"bike_id":"08956cde-0018-488b-b704-b2f264db3dc5","system_id":"levelo_inurba_marseille","lat":43.285742,"lon":5.395004,"is_reserved":false,"is_disabled":false,"rental_uris":{"android":"levelo://app?vid=08956cde-0018-488b-b704-b2f264db3dc5","ios":"levelo://app?vid=08956cde-0018-488b-b704-b2f264db3dc5"},"vehicle_type_id":"4","last_reported":1707070102,"current_range_meters":800,"station_id":"ce4bh292rcd13ifvqdg0","pricing_plan_id":"free"},{"bike_id":"fc117c50-f2da-4222-8df2-26420a1bdfa7","system_id":"levelo_inurba_marseille","lat":43.28573,"lon":5.394992,"is_reserved":false,"is_disabled":false,"rental_uris":{"android":"levelo://app?vid=fc117c50-f2da-4222-8df2-26420a1bdfa7","ios":"levelo://app?vid=fc117c50-f2da-4222-8df2-26420a1bdfa7"},"vehicle_type_id":"4","last_reported":1707070102,"current_range_meters":14000,"station_id":"ce4bh292rcd13ifvqdg0","pricing_plan_id":"free"},{"bike_id":"0e81b4be-448c-4ed3-8f50-7cd68d566c71","system_id":"levelo_inurba_marseille","lat":43.285742,"lon":5.395004,"is_reserved":false,"is_disabled":false,"rental_uris":{"android":"levelo://app?vid=0e81b4be-448c-4ed3-8f50-7cd68d566c71","ios":"levelo://app?vid=0e81b4be-448c-4ed3-8f50-7cd68d566c71"},"vehicle_type_id":"4","last_reported":1707070102,"current_range_meters":18400,"station_id":"ce4bh292rcd13ifvqdg0","pricing_plan_id":"free"},{"bike_id":"561ff3cc-6632-4a90-b47d-0c5ea8bb7609","system_id":"levelo_inurba_marseille","lat":43.285742,"lon":5.395004,"is_reserved":false,"is_disabled":false,"rental_uris":{"android":"levelo://app?vid=561ff3cc-6632-4a90-b47d-0c5ea8bb7609","ios":"levelo://app?vid=561ff3cc-6632-4a90-b47d-0c5ea8bb7609"},"vehicle_type_id":"4","last_reported":1707070102,"current_range_meters":28800,"station_id":"ce4bh292rcd13ifvqdg0","pricing_plan_id":"free"},{"bike_id":"a52e967f-be84-43b0-812c-dcbe01820dcd","system_id":"levelo_inurba_marseille","lat":43.28573,"lon":5.394992,"is_reserved":false,"is_disabled":false,"rental_uris":{"android":"levelo://app?vid=a52e967f-be84-43b0-812c-dcbe01820dcd","ios":"levelo://app?vid=a52e967f-be84-43b0-812c-dcbe01820dcd"},"vehicle_type_id":"4","last_reported":1707070102,"current_range_meters":17600,"station_id":"ce4bh292rcd13ifvqdg0","pricing_plan_id":"free"},{"bike_id":"e177cff4-d027-44be-89d1-14f06aac428c","system_id":"levelo_inurba_marseille","lat":43.28573,"lon":5.394992,"is_reserved":false,"is_disabled":false,"rental_uris":{"android":"levelo://app?vid=e177cff4-d027-44be-89d1-14f06aac428c","ios":"levelo://app?vid=e177cff4-d027-44be-89d1-14f06aac428c"},"vehicle_type_id":"4","last_reported":1707070102,"current_range_meters":4000,"station_id":"ce4bh292rcd13ifvqdg0","pricing_plan_id":"free"},{"bike_id":"5035c792-005e-48d3-a327-6f17bdce5cd3","system_id":"levelo_inurba_marseille","lat":43.326605,"lon":5.409903,"is_reserved":false,"is_disabled":false,"rental_uris":{"android":"levelo://app?vid=5035c792-005e-48d3-a327-6f17bdce5cd3","ios":"levelo://app?vid=5035c792-005e-48d3-a327-6f17bdce5cd3"},"vehicle_type_id":"4","last_reported":1707070102,"current_range_meters":26400,"station_id":"ce4bhpp2rcd13ifvqhgg","pricing_plan_id":"free"},{"bike_id":"bde9b0fd-1386-4c55-b02a-bed604238378","system_id":"levelo_inurba_marseille","lat":43.326605,"lon":5.409903,"is_reserved":false,"is_disabled":false,"rental_uris":{"android":"levelo://app?vid=bde9b0fd-1386-4c55-b02a-bed604238378","ios":"levelo://app?vid=bde9b0fd-1386-4c55-b02a-bed604238378"},"vehicle_type_id":"4","last_reported":1707070102,"current_range_meters":4000,"station_id":"ce4bhpp2rcd13ifvqhgg","pricing_plan_id":"free"},{"bike_id":"c510c81b-2709-4138-9fa6-9df94953f5e8","system_id":"levelo_inurba_marseille","lat":43.326605,"lon":5.409903,"is_reserved":false,"is_disabled":false,"rental_uris":{"android":"levelo://app?vid=c510c81b-2709-4138-9fa6-9df94953f5e8","ios":"levelo://app?vid=c510c81b-2709-4138-9fa6-9df94953f5e8"},"vehicle_type_id":"4","last_reported":1707070102,"current_range_meters":11600,"station_id":"ce4bhpp2rcd13ifvqhgg","pricing_plan_id":"free"},{"bike_id":"93c98190-a016-4db1-8f28-d04369a1039d","system_id":"levelo_inurba_marseille","lat":43.326605,"lon":5.409903,"is_reserved":false,"is_disabled":false,"rental_uris":{"android":"levelo://app?vid=93c98190-a016-4db1-8f28-d04369a1039d","ios":"levelo://app?vid=93c98190-a016-4db1-8f28-d04369a1039d"},