{"last_updated":1733984103,"ttl":60,"version":"2.2","data":{"bikes":[{"bike_id":"fb25f55d-a8d3-45ac-bd6b-859bedbb41ea","system_id":"levelo_inurba_marseille","lat":43.28459,"lon":5.359,"is_reserved":false,"is_disabled":false,"rental_uris":{"android":"levelo://app?vid=fb25f55d-a8d3-45ac-bd6b-859bedbb41ea","ios":"levelo://app?vid=fb25f55d-a8d3-45ac-bd6b-859bedbb41ea"},"vehicle_type_id":"4","last_reported":1733984103,"current_range_meters":38000,"station_id":"ce4bhah2rcd13ifvqei0","pricing_plan_id":"cebpf4jnsgd1na2vs0mg"},{"bike_id":"ca55b2a3-c5bb-4e4a-8b94-df2e708f26d3","system_id":"levelo_inurba_marseille","lat":43.29836,"lon":5.36295,"is_reserved":false,"is_disabled":false,"rental_uris":{"android":"levelo://app?vid=ca55b2a3-c5bb-4e4a-8b94-df2e708f26d3","ios":"levelo://app?vid=ca55b2a3-c5bb-4e4a-8b94-df2e708f26d3"},"vehicle_type_id":"4","last_reported":1733984103,"current_range_meters":37600,"station_id":"ce4bgpp2rcd13ifvqc3g","pricing_plan_id":"cebpf4jnsgd1na2vs0mg"},{"bike_id":"5a1d5db3-014a-4e87-97d8-818e2656f060","system_id":"levelo_inurba_marseille","lat":43.25579,"lon":5.38241,"is_reserved":false,"is_disabled":false,"rental_uris":{"android":"levelo://app?vid=5a1d5db3-014a-4e87-97d8-818e2656f060","ios":"levelo://app?vid=5a1d5db3-014a-4e87-97d8-818e2656f060"},"vehicle_type_id":"4","last_reported":1733984103,"current_range_meters":38400,"station_id":"ce4bhih2rcd13ifvqfs0","pricing_plan_id":"cebpf4jnsgd1na2vs0mg"},{"bike_id":"60e9ed68-c2d5-4fcc-b1fe-df98992a2ea5","system_id":"levelo_inurba_marseille","lat":43.30764,"lon":5.36837,"is_reserved":false,"is_disabled":true,"rental_uris":{"android":"levelo://app?vid=60e9ed68-c2d5-4fcc-b1fe-df98992a2ea5","ios":"levelo://app?vid=60e9ed68-c2d5-4fcc-b1fe-df98992a2ea5"},"vehicle_type_id":"4","last_reported":1733984103,"current_range_meters":0,"station_id":"","pricing_plan_id":"cebpf4jnsgd1na2vs0mg"},{"bike_id":"ff7e38a1-eb76-4564-9b7f-992ea7a552b4","system_id":"levelo_inurba_marseille","lat":43.302604,"lon":5.378415,"is_reserved":false,"is_disabled":false,"rental_uris":{"android":"levelo://app?vid=ff7e38a1-eb76-4564-9b7f-992ea7a552b4","ios":"levelo://app?vid=ff7e38a1-eb76-4564-9b7f-992ea7a552b4"},"vehicle_type_id":"4","last_reported":1733984103,"current_range_meters":35600,"station_id":"ce4bgs92rcd13ifvqcc0","pricing_plan_id":"cebpf4jnsgd1na2vs0mg"},{"bike_id":"b266efff-3a14-4d1a-a25a-c68ad062a1f4","system_id":"levelo_inurba_marseille","lat":43.24164,"lon":5.36402,"is_reserved":false,"is_disabled":false,"rental_uris":{"android":"levelo://app?vid=b266efff-3a14-4d1a-a25a-c68ad062a1f4","ios":"levelo://app?vid=b266efff-3a14-4d1a-a25a-c68ad062a1f4"},"vehicle_type_id":"4","last_reported":1733984103,"current_range_meters":6800,"station_id":"cpo36qri1sfpv3e86is0","pricing_plan_id":"cebpf4jnsgd1na2vs0mg"},{"bike_id":"bb9d7253-10c6-4121-a593-4387d3e5acad","system_id":"levelo_inurba_marseille","lat":43.31321,"lon":5.39707,"is_reserved":false,"is_disabled":false,"rental_uris":{"android":"levelo://app?vid=bb9d7253-10c6-4121-a593-4387d3e5acad","ios":"levelo://app?vid=bb9d7253-10c6-4121-a593-4387d3e5acad"},"vehicle_type_id":"4","last_reported":1733984103,"current_range_meters":38800,"station_id":"ce4bgvp2rcd13ifvqcu0","pricing_plan_id":"cebpf4jnsgd1na2vs0mg"},{"bike_id":"61de78b7-9c9e-4513-adff-0b20401ca1a6","system_id":"levelo_inurba_marseille","lat":43.30929,"lon":5.40142,"is_reserved":false,"is_disabled":false,"rental_uris":{"android":"levelo://app?vid=61de78b7-9c9e-4513-adff-0b20401ca1a6","ios":"levelo://app?vid=61de78b7-9c9e-4513-adff-0b20401ca1a6"},"vehicle_type_id":"4","last_reported":1733984103,"current_range_meters":30000,"station_id":"ce4bgvp2rcd13ifvqct0","pricing_plan_id":"cebpf4jnsgd1na2vs0mg"},{"bike_id":"8f431f81-4fbd-424e-9942-25f20eab3824","system_id":"levelo_inurba_marseille","lat":43.24673,"lon":5.3816,"is_reserved":false,"is_disabled":false,"rental_uris":{"android":"levelo://app?vid=8f431f81-4fbd-424e-9942-25f20eab3824","ios":"levelo://app?vid=8f431f81-4fbd-424e-9942-25f20eab3824"},"vehicle_type_id":"4","last_reported":1733984103,"current_range_meters":14800,"station_id":"ce4bhih2rcd13ifvqfr0","pricing_plan_id":"cebpf4jnsgd1na2vs0mg"},{"bike_id":"5a23a20e-a944-4a34-b00e-6e99f68129d2","system_id":"levelo_inurba_marseille","lat":43.2481,"lon":5.37458,"is_reserved":false,"is_disabled":false,"rental_uris":{"android":"levelo://app?vid=5a23a20e-a944-4a34-b00e-6e99f68129d2","ios":"levelo://app?vid=5a23a20e-a944-4a34-b00e-6e99f68129d2"},"vehicle_type_id":"4","last_reported":1733984103,"current_range_meters":33200,"station_id":"ce4bhgh2rcd13ifvqfb0","pricing_plan_id":"cebpf4jnsgd1na2vs0mg"},{"bike_id":"8896d466-9a4c-499f-b34b-21fc00fbac43","system_id":"levelo_inurba_marseille","lat":43.243947,"lon":5.370522,"is_reserved":false,"is_disabled":false,"rental_uris":{"android":"levelo://app?vid=8896d466-9a4c-499f-b34b-21fc00fbac43","ios":"levelo://app?vid=8896d466-9a4c-499f-b34b-21fc00fbac43"},"vehicle_type_id":"4","last_reported":1733984103,"current_range_meters":24800,"station_id":"ce4bhhh2rcd13ifvqfk0","pricing_plan_id":"cebpf4jnsgd1na2vs0mg"},{"bike_id":"3f5757ec-261c-4569-827f-4e10e7682bac","system_id":"levelo_inurba_marseille","lat":43.30324,"lon":5.40442,"is_reserved":false,"is_disabled":false,"rental_uris":{"android":"levelo://app?vid=3f5757ec-261c-4569-827f-4e10e7682bac","ios":"levelo://app?vid=3f5757ec-261c-4569-827f-4e10e7682bac"},"vehicle_type_id":"4","last_reported":1733984103,"current_range_meters":39200,"station_id":"ce4bh012rcd13ifvqd10","pricing_plan_id":"cebpf4jnsgd1na2vs0mg"},{"bike_id":"980f96eb-32c9-4906-98f6-c44dbf4c84a1","system_id":"levelo_inurba_marseille","lat":43.27455,"lon":5.40073,"is_reserved":false,"is_disabled":true,"rental_uris":{"android":"levelo://app?vid=980f96eb-32c9-4906-98f6-c44dbf4c84a1","ios":"levelo://app?vid=980f96eb-32c9-4906-98f6-c44dbf4c84a1"},"vehicle_type_id":"4","last_reported":1733984103,"current_range_meters":0,"station_id":"","pricing_plan_id":"cebpf4jnsgd1na2vs0mg"},{"bike_id":"2ba08c37-8c9a-4d56-8797-798e12f02f2f","system_id":"levelo_inurba_marseille","lat":43.28101,"lon":5.37829,"is_reserved":false,"is_disabled":false,"rental_uris":{"android":"levelo://app?vid=2ba08c37-8c9a-4d56-8797-798e12f02f2f","ios":"levelo://app?vid=2ba08c37-8c9a-4d56-8797-798e12f02f2f"},"vehicle_type_id":"4","last_reported":1733984103,"current_range_meters":28800,"station_id":"ce4bha12rcd13ifvqee0","pricing_plan_id":"cebpf4jnsgd1na2vs0mg"},{"bike_id":"d5cc55ae-ad80-4db1-a1cd-fc4e6214f527","system_id":"levelo_inurba_marseille","lat":43.28266,"lon":5.35089,"is_reserved":false,"is_disabled":false,"rental_uris":{"android":"levelo://app?vid=d5cc55ae-ad80-4db1-a1cd-fc4e6214f527","ios":"levelo://app?vid=d5cc55ae-ad80-4db1-a1cd-fc4e6214f527"},"vehicle_type_id":"4","last_reported":1733984103,"current_range_meters":34000,"station_id":"ce4bhbp2rcd13ifvqerg","pricing_plan_id":"cebpf4jnsgd1na2vs0mg"},{"bike_id":"aea59221-944d-4391-8bbb-9700d74ca504","system_id":"levelo_inurba_marseille","lat":43.30675,"lon":5.40075,"is_reserved":false,"is_disabled":false,"rental_uris":{"android":"levelo://app?vid=aea59221-944d-4391-8bbb-9700d74ca504","ios":"levelo://app?vid=aea59221-944d-4391-8bbb-9700d74ca504"},"vehicle_type_id":"4","last_reported":1733984103,"current_range_meters":38400,"station_id":"ce4bh112rcd13ifvqda0","pricing_plan_id":"cebpf4jnsgd1na2vs0mg"},{"bike_id":"97148cec-36b7-44a7-809a-ca7907bb5002","system_id":"levelo_inurba_marseille","lat":43.28101,"lon":5.37865,"is_reserved":false,"is_disabled":false,"rental_uris":{"android":"levelo://app?vid=97148cec-36b7-44a7-809a-ca7907bb5002","ios":"levelo://app?vid=97148cec-36b7-44a7-809a-ca7907bb5002"},"vehicle_type_id":"4","last_reported":1733984103,"current_range_meters":36400,"station_id":"ce4bha12rcd13ifvqee0","pricing_plan_id":"cebpf4jnsgd1na2vs0mg"},{"bike_id":"e77c41ec-01fc-4fd5-a63a-7ada717e028a","system_id":"levelo_inurba_marseille","lat":43.260561,"lon":5.393914,"is_reserved":false,"is_disabled":false,"rental_uris":{"android":"levelo://app?vid=e77c41ec-01fc-4fd5-a63a-7ada717e028a","ios":"levelo://app?vid=e77c41ec-01fc-4fd5-a63a-7ada717e028a"},"vehicle_type_id":"4","last_reported":1733984103,"current_range_meters":39200,"station_id":"ce4bhh92rcd13ifvqfj0","pricing_plan_id":"cebpf4jnsgd1na2vs0mg"},{"bike_id":"0db5aa65-4491-4fa7-b3cd-837cf2eebdd8","system_id":"levelo_inurba_marseille","lat":43.24661,"lon":5.38906,"is_reserved":false,"is_disabled":false,"rental_uris":{"android":"levelo://app?vid=0db5aa65-4491-4fa7-b3cd-837cf2eebdd8","ios":"levelo://app?vid=0db5aa65-4491-4fa7-b3cd-837cf2eebdd8"},"vehicle_type_id":"4","last_reported":1733984103,"current_range_meters":16400,"station_id":"ce4bhg12rcd13ifvqf60","pricing_plan_id":"cebpf4jnsgd1na2vs0mg"},{"bike_id":"9ded651f-e7f2-4dc5-9063-0bf164eb2d4a","system_id":"levelo_inurba_marseille","lat":43.30932,"lon":5.40145,"is_reserved":false,"is_disabled":false,"rental_uris":{"android":"levelo://app?vid=9ded651f-e7f2-4dc5-9063-0bf164eb2d4a","ios":"levelo://app?vid=9ded651f-e7f2-4dc5-9063-0bf164eb2d4a"},"vehicle_type_id":"4","last_reported":1733984103,"current_range_meters":7200,"station_id":"ce4bgvp2rcd13ifvqct0","pricing_plan_id":"cebpf4jnsgd1na2vs0mg"},{"bike_id":"e07a9d9b-b9bc-475a-ab32-b71a16c6f1be","system_id":"levelo_inurba_marseille","lat":43.27991,"lon":5.41663,"is_reserved":false,"is_disabled":false,"rental_uris":{"android":"levelo://app?vid=e07a9d9b-b9bc-475a-ab32-b71a16c6f1be","ios":"levelo://app?vid=e07a9d9b-b9bc-475a-ab32-b71a16c6f1be"},"vehicle_type_id":"4","last_reported":1733984103,"current_range_meters":37600,"station_id":"ce4bho12rcd13ifvqh1g","pricing_plan_id":"cebpf4jnsgd1na2vs0mg"},{"bike_id":"eb005499-3c0e-4f41-9831-c070b319130e","system_id":"levelo_inurba_marseille","lat":43.28613,"lon":5.37066,"is_reserved":false,"is_disabled":false,"rental_uris":{"android":"levelo://app?vid=eb005499-3c0e-4f41-9831-c070b319130e","ios":"levelo://app?vid=eb005499-3c0e-4f41-9831-c070b319130e"},"vehicle_type_id":"4","last_reported":1733984103,"current_range_meters":38800,"station_id":"ce4bht12rcd13ifvqi60","pricing_plan_id":"cebpf4jnsgd1na2vs0mg"},{"bike_id":"c30e2927-d1ce-4add-bd99-3834be65c25a","system_id":"levelo_inurba_marseille","lat":43.288501,"lon":5.358612,"is_reserved":false,"is_disabled":false,"rental_uris":{"android":"levelo://app?vid=c30e2927-d1ce-4add-bd99-3834be65c25a","ios":"levelo://app?vid=c30e2927-d1ce-4add-bd99-3834be65c25a"},"vehicle_type_id":"4","last_reported":1733984103,"current_range_meters":36400,"station_id":"ce4bhb12rcd13ifvqem0","pricing_plan_id":"cebpf4jnsgd1na2vs0mg"},{"bike_id":"7e6594c2-7f77-4598-9c71-55d4df2ca51a","system_id":"levelo_inurba_marseille","lat":43.27945,"lon":5.41047,"is_reserved":false,"is_disabled":false,"rental_uris":{"android":"levelo://app?vid=7e6594c2-7f77-4598-9c71-55d4df2ca51a","ios":"levelo://app?vid=7e6594c2-7f77-4598-9c71-55d4df2ca51a"},"vehicle_type_id":"4","last_reported":1733984103,"current_range_meters":22800,"station_id":"ce4bhnp2rcd13ifvqh0g","pricing_plan_id":"cebpf4jnsgd1na2vs0mg"},{"bike_id":"1301c2fd-c7ff-4e18-9e0a-494e4e9bcdd5","system_id":"levelo_inurba_marseille","lat":43.30532,"lon":5.36556,"is_reserved":false,"is_disabled":false,"rental_uris":{"android":"levelo://app?vid=1301c2fd-c7ff-4e18-9e0a-494e4e9bcdd5","ios":"levelo://app?vid=1301c2fd-c7ff-4e18-9e0a-494e4e9bcdd5"},"vehicle_type_id":"4","last_reported":1733984103,"current_range_meters":38000,"station_id":"ce4bgs12rcd13ifvqcag","pricing_plan_id":"cebpf4jnsgd1na2vs0mg"},{"bike_id":"7517f889-aac4-4b2d-a304-7a897deaedc3","system_id":"levelo_inurba_marseille","lat":43.27207,"lon":5.39176,"is_reserved":false,"is_disabled":false,"rental_uris":{"android":"levelo://app?vid=7517f889-aac4-4b2d-a304-7a897deaedc3","ios":"levelo://app?vid=7517f889-aac4-4b2d-a304-7a897deaedc3"},"vehicle_type_id":"4","last_reported":1733984103,"current_range_meters":38000,"station_id":"ce4bhhp2rcd13ifvqfm0","pricing_plan_id":"cebpf4jnsgd1na2vs0mg"},{"bike_id":"b43b613e-b4aa-4607-a082-29ff966c42f1","system_id":"levelo_inurba_marseille","lat":43.27899,"lon":5.38006,"is_reserved":false,"is_disabled":false,"rental_uris":{"android":"levelo://app?vid=b43b613e-b4aa-4607-a082-29ff966c42f1","ios":"levelo://app?vid=b43b613e-b4aa-4607-a082-29ff966c42f1"},"vehicle_type_id":"4","last_reported":1733984103,"current_range_meters":34000,"station_id":"ce4bhf92rcd13ifvqf50","pricing_plan_id":"cebpf4jnsgd1na2vs0mg"},{"bike_id":"ea7efa02-e04c-456d-bb9f-f7af6f405ec5","system_id":"levelo_inurba_marseille","lat":43.33771,"lon":5.37429,"is_reserved":false,"is_disabled":false,"rental_uris":{"android":"levelo://app?vid=ea7efa02-e04c-456d-bb9f-f7af6f405ec5","ios":"levelo://app?vid=ea7efa02-e04c-456d-bb9f-f7af6f405ec5"},"vehicle_type_id":"4","last_reported":1733984103,"current_range_meters":19200,"station_id":"","pricing_plan_id":"cebpf4jnsgd1na2vs0mg"},{"bike_id":"95c915fb-ef8e-49eb-8873-2f04c1046c28","system_id":"levelo_inurba_marseille","lat":43.31373,"lon":5.38513,"is_reserved":false,"is_disabled":false,"rental_uris":{"android":"levelo://app?vid=95c915fb-ef8e-49eb-8873-2f04c1046c28","ios":"levelo://app?vid=95c915fb-ef8e-49eb-8873-2f04c1046c28"},"vehicle_type_id":"4","last_reported":1733984103,"current_range_meters":7200,"station_id":"ce4bgt92rcd13ifvqcf0","pricing_plan_id":"cebpf4jnsgd1na2vs0mg"},{"bike_id":"a7afacb6-d403-424e-9514-2512ada0c43a","system_id":"levelo_inurba_marseille","lat":43.31703,"lon":5.40453,"is_reserved":false,"is_disabled":false,"rental_uris":{"android":"levelo://app?vid=a7afacb6-d403-424e-9514-2512ada0c43a","ios":"levelo://app?vid=a7afacb6-d403-424e-9514-2512ada0c43a"},"vehicle_type_id":"4","last_reported":1733984103,"current_range_meters":38000,"station_id":"ce4bh012rcd13ifvqd00","pricing_plan_id":"cebpf4jnsgd1na2vs0mg"},{"bike_id":"c67601b6-bcad-4149-a980-a07b049bc54c","system_id":"levelo_inurba_marseille","lat":43.258611,"lon":5.399053,"is_reserved":false,"is_disabled":false,"rental_uris":{"android":"levelo://app?vid=c67601b6-bcad-4149-a980-a07b049bc54c","ios":"levelo://app?vid=c67601b6-bcad-4149-a980-a07b049bc54c"},"vehicle_type_id":"4","last_reported":1733984103,"current_range_meters":8400,"station_id":"ce4bhl92rcd13ifvqghg","pricing_plan_id":"cebpf4jnsgd1na2vs0mg"},{"bike_id":"36272bbc-2413-4d65-9f8d-f8eaf63041c0","system_id":"levelo_inurba_marseille","lat":43.27064,"lon":5.4027,"is_reserved":false,"is_disabled":true,"rental_uris":{"android":"levelo://app?vid=36272bbc-2413-4d65-9f8d-f8eaf63041c0","ios":"levelo://app?vid=36272bbc-2413-4d65-9f8d-f8eaf63041c0"},"vehicle_type_id":"4","last_reported":1733984103,"current_range_meters":24800,"station_id":"ce4bhk92rcd13ifvqgc0","pricing_plan_id":"cebpf4jnsgd1na2vs0mg"},{"bike_id":"fe4cab58-ba30-4c78-b62f-d4434eea7628","system_id":"levelo_inurba_marseille","lat":43.294382,"lon":5.397669,"is_reserved":false,"is_disabled":true,"rental_uris":{"android":"levelo://app?vid=fe4cab58-ba30-4c78-b62f-d4434eea7628","ios":"levelo://app?vid=fe4cab58-ba30-4c78-b62f-d4434eea7628"},"vehicle_type_id":"4","last_reported":1733984103,"current_range_meters":32800,"station_id":"ce4bh3h2rcd13ifvqdo0","pricing_plan_id":"cebpf4jnsgd1na2vs0mg"},{"bike_id":"ecc110ce-c5e8-44d9-971f-5baa0bdacd3e","system_id":"levelo_inurba_marseille","lat":43.24806,"lon":5.37452,"is_reserved":false,"is_disabled":false,"rental_uris":{"android":"levelo://app?vid=ecc110ce-c5e8-44d9-971f-5baa0bdacd3e","ios":"levelo://app?vid=ecc110ce-c5e8-44d9-971f-5baa0bdacd3e"},"vehicle_type_id":"4","last_reported":1733984103,"current_range_meters":18800,"station_id":"ce4bhgh2rcd13ifvqfb0","pricing_plan_id":"cebpf4jnsgd1na2vs0mg"},{"bike_id":"7f19c8f3-a504-4751-a436-9a59f1eb0ba0","system_id":"levelo_inurba_marseille","lat":43.30164,"lon":5.38078,"is_reserved":false,"is_disabled":false,"rental_uris":{"android":"levelo://app?vid=7f19c8f3-a504-4751-a436-9a59f1eb0ba0","ios":"levelo://app?vid=7f19c8f3-a504-4751-a436-9a59f1eb0ba0"},"vehicle_type_id":"4","last_reported":1733984103,"current_range_meters":31200,"station_id":"ce4bgjp2rcd13ifvqbh0","pricing_plan_id":"cebpf4jnsgd1na2vs0mg"},{"bike_id":"ca25d926-6e78-492c-bdb6-ff918dcd7fea","system_id":"levelo_inurba_marseille","lat":43.25116,"lon":5.40356,"is_reserved":false,"is_disabled":false,"rental_uris":{"android":"levelo://app?vid=ca25d926-6e78-492c-bdb6-ff918dcd7fea","ios":"levelo://app?vid=ca25d926-6e78-492c-bdb6-ff918dcd7fea"},"vehicle_type_id":"4","last_reported":1733984103,"current_range_meters":38400,"station_id":"ce4bhlh2rcd13ifvqgig","pricing_plan_id":"cebpf4jnsgd1na2vs0mg"},{"bike_id":"2e4e8faf-2a3d-4d9b-a16c-aa3df0b9d623","system_id":"levelo_inurba_marseille","lat":43.32042,"lon":5.41546,"is_reserved":false,"is_disabled":false,"rental_uris":{"android":"levelo://app?vid=2e4e8faf-2a3d-4d9b-a16c-aa3df0b9d623","ios":"levelo://app?vid=2e4e8faf-2a3d-4d9b-a16c-aa3df0b9d623"},"vehicle_type_id":"4","last_reported":1733984103,"current_range_meters":5600,"station_id":"ce4bhq92rcd13ifvqhkg","pricing_plan_id":"cebpf4jnsgd1na2vs0mg"},{"bike_id":"8979b88b-e0c9-465c-b920-54c929607786","system_id":"levelo_inurba_marseille","lat":43.30426,"lon":5.3678,"is_reserved":false,"is_disabled":false,"rental_uris":{"android":"levelo://app?vid=8979b88b-e0c9-465c-b920-54c929607786","ios":"levelo://app?vid=8979b88b-e0c9-465c-b920-54c929607786"},"vehicle_type_id":"4","last_reported":1733984103,"current_range_meters":16400,"station_id":"","pricing_plan_id":"cebpf4jnsgd1na2vs0mg"},{"bike_id":"3a56946e-b571-4f0a-89c3-228266a44430","system_id":"levelo_inurba_marseille","lat":43.26597,"lon":5.38971,"is_reserved":false,"is_disabled":false,"rental_uris":{"android":"levelo://app?vid=3a56946e-b571-4f0a-89c3-228266a44430","ios":"levelo://app?vid=3a56946e-b571-4f0a-89c3-228266a44430"},"vehicle_type_id":"4","last_reported":1733984103,"current_range_meters":4400,"station_id":"","pricing_plan_id":"cebpf4jnsgd1na2vs0mg"},{"bike_id":"5a3e6a74-cac8-4592-b68b-bffd14a77a38","system_id":"levelo_inurba_marseille","lat":43.286939,"lon":5.399781,"is_reserved":false,"is_disabled":false,"rental_uris":{"android":"levelo://app?vid=5a3e6a74-cac8-4592-b68b-bffd14a77a38","ios":"levelo://app?vid=5a3e6a74-cac8-4592-b68b-bffd14a77a38"},"vehicle_type_id":"4","last_reported":1733984103,"current_range_meters":38000,"station_id":"ce4bho92rcd13ifvqh3g","pricing_plan_id":"cebpf4jnsgd1na2vs0mg"},{"bike_id":"1a57a953-7738-448c-9bad-8fe31e4d9112","system_id":"levelo_inurba_marseille","lat":43.31316,"lon":5.40211,"is_reserved":false,"is_disabled":false,"rental_uris":{"android":"levelo://app?vid=1a57a953-7738-448c-9bad-8fe31e4d9112","ios":"levelo://app?vid=1a57a953-7738-448c-9bad-8fe31e4d9112"},"vehicle_type_id":"4","last_reported":1733984103,"current_range_meters":7200,"station_id":"","pricing_plan_id":"cebpf4jnsgd1na2vs0mg"},{"bike_id":"83d86471-0b95-4477-9349-a015d55c6b4b","system_id":"levelo_inurba_marseille","lat":43.319984,"lon":5.381435,"is_reserved":false,"is_disabled":true,"rental_uris":{"android":"levelo://app?vid=83d86471-0b95-4477-9349-a015d55c6b4b","ios":"levelo://app?vid=83d86471-0b95-4477-9349-a015d55c6b4b"},"vehicle_type_id":"4","last_reported":1733984103,"current_range_meters":0,"station_id":"ce4bhr12rcd13ifvqhpg","pricing_plan_id":"cebpf4jnsgd1na2vs0mg"},{"bike_id":"538c5820-1da6-405b-97ad-542e7b6c44b3","system_id":"levelo_inurba_marseille","lat":43.23182,"lon":5.39998,"is_reserved":false,"is_disabled":false,"rental_uris":{"android":"levelo://app?vid=538c5820-1da6-405b-97ad-542e7b6c44b3","ios":"levelo://app?vid=538c5820-1da6-405b-97ad-542e7b6c44b3"},"vehicle_type_id":"4","last_reported":1733984103,"current_range_meters":19600,"station_id":"ce4bhn12rcd13ifvqgqg","pricing_plan_id":"cebpf4jnsgd1na2vs0mg"},{"bike_id":"912b9652-d6db-47d7-b69a-ee743e156f59","system_id":"levelo_inurba_marseille","lat":43.28456,"lon":5.35888,"is_reserved":false,"is_disabled":false,"rental_uris":{"android":"levelo://app?vid=912b9652-d6db-47d7-b69a-ee743e156f59","ios":"levelo://app?vid=912b9652-d6db-47d7-b69a-ee743e156f59"},"vehicle_type_id":"4","last_reported":1733984103,"current_range_meters":38800,"station_id":"ce4bhah2rcd13ifvqei0","pricing_plan_id":"cebpf4jnsgd1na2vs0mg"},{"bike_id":"37186836-0d76-4060-92a1-f05ac758b4ae","system_id":"levelo_inurba_marseille","lat":43.28936,"lon":5.39634,"is_reserved":false,"is_disabled":false,"rental_uris":{"android":"levelo://app?vid=37186836-0d76-4060-92a1-f05ac758b4ae","ios":"levelo://app?vid=37186836-0d76-4060-92a1-f05ac758b4ae"},"vehicle_type_id":"4","last_reported":1733984103,"current_range_meters":38000,"station_id":"ce4bh3h2rcd13ifvqdn0","pricing_plan_id":"cebpf4jnsgd1na2vs0mg"},{"bike_id":"dc3e0ee7-ac7d-4751-9445-b495e8f2198d","system_id":"levelo_inurba_marseille","lat":43.30932,"lon":5.40147,"is_reserved":false,"is_disabled":false,"rental_uris":{"android":"levelo://app?vid=dc3e0ee7-ac7d-4751-9445-b495e8f2198d","ios":"levelo://app?vid=dc3e0ee7-ac7d-4751-9445-b495e8f2198d"},"vehicle_type_id":"4","last_reported":1733984103,"current_range_meters":32800,"station_id":"ce4bgvp2rcd13ifvqct0","pricing_plan_id":"cebpf4jnsgd1na2vs0mg"},{"bike_id":"cf504aa2-7a5b-44a8-9e13-efcb53c1bdd9","system_id":"levelo_inurba_marseille","lat":43.28696,"lon":5.37394,"is_reserved":false,"is_disabled":false,"rental_uris":{"android":"levelo://app?vid=cf504aa2-7a5b-44a8-9e13-efcb53c1bdd9","ios":"levelo://app?vid=cf504aa2-7a5b-44a8-9e13-efcb53c1bdd9"},"vehicle_type_id":"4","last_reported":1733984103,"current_range_meters":38800,"station_id":"ce4bh3p2rcd13ifvqdq0","pricing_plan_id":"cebpf4jnsgd1na2vs0mg"},{"bike_id":"62013812-7da7-45a9-9307-4b51b55ecd64","system_id":"levelo_inurba_marseille","lat":43.29918,"lon":5.37466,"is_reserved":false,"is_disabled":false,"rental_uris":{"android":"levelo://app?vid=62013812-7da7-45a9-9307-4b51b55ecd64","ios":"levelo://app?vid=62013812-7da7-45a9-9307-4b51b55ecd64"},"vehicle_type_id":"4","last_reported":1733984103,"current_range_meters":30400,"station_id":"ce4bgjh2rcd13ifvqbg0","pricing_plan_id":"cebpf4jnsgd1na2vs0mg"},{"bike_id":"90324b92-2d52-4f43-bd59-91b2038c3497","system_id":"levelo_inurba_marseille","lat":43.28953,"lon":5.36626,"is_reserved":false,"is_disabled":true,"rental_uris":{"android":"levelo://app?vid=90324b92-2d52-4f43-bd59-91b2038c3497","ios":"levelo://app?vid=90324b92-2d52-4f43-bd59-91b2038c3497"},"vehicle_type_id":"4","last_reported":1733984103,"current_range_meters":27200,"station_id":"ce4bhap2rcd13ifvqek0","pricing_plan_id":"cebpf4jnsgd1na2vs0mg"},{"bike_id":"2ca40f08-66f3-4e48-aade-6ecd6e476aad","system_id":"levelo_inurba_marseille","lat":43.30476,"lon":5.38872,"is_reserved":false,"is_disabled":false,"rental_uris":{"android":"levelo://app?vid=2ca40f08-66f3-4e48-aade-6ecd6e476aad","ios":"levelo://app?vid=2ca40f08-66f3-4e48-aade-6ecd6e476aad"},"vehicle_type_id":"4","last_reported":1733984103,"current_range_meters":38000,"station_id":"","pricing_plan_id":"cebpf4jnsgd1na2vs0mg"},{"bike_id":"1686641e-fa25-460d-b830-148d1253ba92","system_id":"levelo_inurba_marseille","lat":43.30878,"lon":5.39638,"is_reserved":false,"is_disabled":false,"rental_uris":{"android":"levelo://app?vid=1686641e-fa25-460d-b830-148d1253ba92","ios":"levelo://app?vid=1686641e-fa25-460d-b830-148d1253ba92"},"vehicle_type_id":"4","last_reported":1733984103,"current_range_meters":39200,"station_id":"ce4bh012rcd13ifvqcv0","pricing_plan_id":"cebpf4jnsgd1na2vs0mg"},{"bike_id":"11933e04-d81a-4d25-aa83-cc295172b3a1","system_id":"levelo_inurba_marseille","lat":43.25424,"lon":5.38257,"is_reserved":false,"is_disabled":true,"rental_uris":{"android":"levelo://app?vid=11933e04-d81a-4d25-aa83-cc295172b3a1","ios":"levelo://app?vid=11933e04-d81a-4d25-aa83-cc295172b3a1"},"vehicle_type_id":"4","last_reported":1733984103,"current_range_meters":31200,"station_id":"","pricing_plan_id":"cebpf4jnsgd1na2vs0mg"},{"bike_id":"c54c8965-7c23-4ef3-9e71-75e946489602","system_id":"levelo_inurba_marseille","lat":43.27808,"lon":5.40702,"is_reserved":false,"is_disabled":false,"rental_uris":{"android":"levelo://app?vid=c54c8965-7c23-4ef3-9e71-75e946489602","ios":"levelo://app?vid=c54c8965-7c23-4ef3-9e71-75e946489602"},"vehicle_type_id":"4","last_reported":1733984103,"current_range_meters":37600,"station_id":"ce4bhnh2rcd13ifvqgtg","pricing_plan_id":"cebpf4jnsgd1na2vs0mg"},{"bike_id":"6faa6ee7-a588-4286-8e0c-a7deeaae5bab","system_id":"levelo_inurba_marseille","lat":43.27401,"lon":5.36293,"is_reserved":false,"is_disabled":false,"rental_uris":{"android":"levelo://app?vid=6faa6ee7-a588-4286-8e0c-a7deeaae5bab","ios":"levelo://app?vid=6faa6ee7-a588-4286-8e0c-a7deeaae5bab"},"vehicle_type_id":"4","last_reported":1733984103,"current_range_meters":38800,"station_id":"ce4bhbh2rcd13ifvqeo0","pricing_plan_id":"cebpf4jnsgd1na2vs0mg"},{"bike_id":"5ff9bfad-28dd-4797-bd2b-38c152eae848","system_id":"levelo_inurba_marseille","lat":43.25732,"lon":5.41111,"is_reserved":false,"is_disabled":false,"rental_uris":{"android":"levelo://app?vid=5ff9bfad-28dd-4797-bd2b-38c152eae848","ios":"levelo://app?vid=5ff9bfad-28dd-4797-bd2b-38c152eae848"},"vehicle_type_id":"4","last_reported":1733984103,"current_range_meters":34000,"station_id":"ce4bhkp2rcd13ifvqgd0","pricing_plan_id":"cebpf4jnsgd1na2vs0mg"},{"bike_id":"716e3651-726d-4797-92a9-2212a7dacea5","system_id":"levelo_inurba_marseille","lat":43.29901,"lon":5.43663,"is_reserved":false,"is_disabled":false,"rental_uris":{"android":"levelo://app?vid=716e3651-726d-4797-92a9-2212a7dacea5","ios":"levelo://app?vid=716e3651-726d-4797-92a9-2212a7dacea5"},"vehicle_type_id":"4","last_reported":1733984103,"current_range_meters":38800,"station_id":"ce4bhpp2rcd13ifvqhfg","pricing_plan_id":"cebpf4jnsgd1na2vs0mg"},{"bike_id":"30b7f7b0-cffb-44e8-9e23-86428fe1183d","system_id":"levelo_inurba_marseille","lat":43.23073,"lon":5.35496,"is_reserved":false,"is_disabled":false,"rental_uris":{"android":"levelo://app?vid=30b7f7b0-cffb-44e8-9e23-86428fe1183d","ios":"levelo://app?vid=30b7f7b0-cffb-44e8-9e23-86428fe1183d"},"vehicle_type_id":"4","last_reported":1733984103,"current_range_meters":9200,"station_id":"cpo3342slgdg3j2ifvpg","pricing_plan_id":"cebpf4jnsgd1na2vs0mg"},{"bike_id":"551f4ede-9e92-4f06-a5b3-6819bc555477","system_id":"levelo_inurba_marseille","lat":43.28467,"lon":5.35878,"is_reserved":false,"is_disabled":false,"rental_uris":{"android":"levelo://app?vid=551f4ede-9e92-4f06-a5b3-6819bc555477","ios":"levelo://app?vid=551f4ede-9e92-4f06-a5b3-6819bc555477"},"vehicle_type_id":"4","last_reported":1733984103,"current_range_meters":12000,"station_id":"ce4bhah2rcd13ifvqei0","pricing_plan_id":"cebpf4jnsgd1na2vs0mg"},{"bike_id":"33f06ed4-c8ad-43f5-b7ff-27c41657a24c","system_id":"levelo_inurba_marseille","lat":43.26234,"lon":5.37932,"is_reserved":false,"is_disabled":false,"rental_uris":{"android":"levelo://app?vid=33f06ed4-c8ad-43f5-b7ff-27c41657a24c","ios":"levelo://app?vid=33f06ed4-c8ad-43f5-b7ff-27c41657a24c"},"vehicle_type_id":"4","last_reported":1733984103,"current_range_meters":38800,"station_id":"ce4bhjp2rcd13ifvqg90","pricing_plan_id":"cebpf4jnsgd1na2vs0mg"},{"bike_id":"2acee701-f2d8-4c07-8786-a12053357075","system_id":"levelo_inurba_marseille","lat":43.28044,"lon":5.36934,"is_reserved":false,"is_disabled":false,"rental_uris":{"android":"levelo://app?vid=2acee701-f2d8-4c07-8786-a12053357075","ios":"levelo://app?vid=2acee701-f2d8-4c07-8786-a12053357075"},"vehicle_type_id":"4","last_reported":1733984103,"current_range_meters":8400,"station_id":"ce4bha12rcd13ifvqef0","pricing_plan_id":"cebpf4jnsgd1na2vs0mg"},{"bike_id":"f8b49a8b-76af-4c34-a445-4719a4b98693","system_id":"levelo_inurba_marseille","lat":43.3234,"lon":5.38324,"is_reserved":false,"is_disabled":false,"rental_uris":{"android":"levelo://app?vid=f8b49a8b-76af-4c34-a445-4719a4b98693","ios":"levelo://app?vid=f8b49a8b-76af-4c34-a445-4719a4b98693"},"vehicle_type_id":"4","last_reported":1733984103,"current_range_meters":38400,"station_id":"","pricing_plan_id":"cebpf4jnsgd1na2vs0mg"},{"bike_id":"895a55aa-9568-4ecb-a74e-550fa21a2cb4","system_id":"levelo_inurba_marseille","lat":43.29911,"lon":5.38652,"is_reserved":false,"is_disabled":false,"rental_uris":{"android":"levelo://app?vid=895a55aa-9568-4ecb-a74e-550fa21a2cb4","ios":"levelo://app?vid=895a55aa-9568-4ecb-a74e-550fa21a2cb4"},"vehicle_type_id":"4","last_reported":1733984103,"current_range_meters":33200,"station_id":"","pricing_plan_id":"cebpf4jnsgd1na2vs0mg"},{"bike_id":"af7f5eec-d3f7-423f-b6f4-a512879dedfa","system_id":"levelo_inurba_marseille","lat":43.29174,"lon":5.37154,"is_reserved":false,"is_disabled":false,"rental_uris":{"android":"levelo://app?vid=af7f5eec-d3f7-423f-b6f4-a512879dedfa","ios":"levelo://app?vid=af7f5eec-d3f7-423f-b6f4-a512879dedfa"},"vehicle_type_id":"4","last_reported":1733984103,"current_range_meters":31200,"station_id":"ce4bha92rcd13ifvqeh0","pricing_plan_id":"cebpf4jnsgd1na2vs0mg"},{"bike_id":"d619b683-1a9a-4049-9696-4d1d6e0182e1","system_id":"levelo_inurba_marseille","lat":43.28663,"lon":5.36358,"is_reserved":false,"is_disabled":false,"rental_uris":{"android":"levelo://app?vid=d619b683-1a9a-4049-9696-4d1d6e0182e1","ios":"levelo://app?vid=d619b683-1a9a-4049-9696-4d1d6e0182e1"},"vehicle_type_id":"4","last_reported":1733984103,"current_range_meters":17200,"station_id":"ce4bhah2rcd13ifvqej0","pricing_plan_id":"cebpf4jnsgd1na2vs0mg"},{"bike_id":"52868657-4bf0-4431-99c4-a89714a5ccf1","system_id":"levelo_inurba_marseille","lat":43.27669,"lon":5.38877,"is_reserved":false,"is_disabled":false,"rental_uris":{"android":"levelo://app?vid=52868657-4bf0-4431-99c4-a89714a5ccf1","ios":"levelo://app?vid=52868657-4bf0-4431-99c4-a89714a5ccf1"},"vehicle_type_id":"4","last_reported":1733984103,"current_range_meters":6400,"station_id":"ce4bhi12rcd13ifvqfo0","pricing_plan_id":"cebpf4jnsgd1na2vs0mg"},{"bike_id":"8c25e51b-d73f-4746-8296-50d822456d52","system_id":"levelo_inurba_marseille","lat":43.26568,"lon":5.37314,"is_reserved":false,"is_disabled":false,"rental_uris":{"android":"levelo://app?vid=8c25e51b-d73f-4746-8296-50d822456d52","ios":"levelo://app?vid=8c25e51b-d73f-4746-8296-50d822456d52"},"vehicle_type_id":"4","last_reported":1733984103,"current_range_meters":24000,"station_id":"ce4bhg12rcd13ifvqf70","pricing_plan_id":"cebpf4jnsgd1na2vs0mg"},{"bike_id":"af23b3f0-74a1-475b-9631-ea0a6afc9ddf","system_id":"levelo_inurba_marseille","lat":43.29519,"lon":5.39047,"is_reserved":false,"is_disabled":false,"rental_uris":{"android":"levelo://app?vid=af23b3f0-74a1-475b-9631-ea0a6afc9ddf","ios":"levelo://app?vid=af23b3f0-74a1-475b-9631-ea0a6afc9ddf"},"vehicle_type_id":"4","last_reported":1733984103,"current_range_meters":38400,"station_id":"ce4bh3p2rcd13ifvqdp0","pricing_plan_id":"cebpf4jnsgd1na2vs0mg"},{"bike_id":"0f17d2c4-bf96-42e6-978b-f52d4d5288cd","system_id":"levelo_inurba_marseille","lat":43.303187,"lon":5.404393,"is_reserved":false,"is_disabled":true,"rental_uris":{"android":"levelo://app?vid=0f17d2c4-bf96-42e6-978b-f52d4d5288cd","ios":"levelo://app?vid=0f17d2c4-bf96-42e6-978b-f52d4d5288cd"},"vehicle_type_id":"4","last_reported":1733984103,"current_range_meters":8000,"station_id":"ce4bh012rcd13ifvqd10","pricing_plan_id":"cebpf4jnsgd1na2vs0mg"},{"bike_id":"6b727eee-2263-4eaa-9a3a-c925e23e9f78","system_id":"levelo_inurba_marseille","lat":43.27989,"lon":5.41664,"is_reserved":false,"is_disabled":false,"rental_uris":{"android":"levelo://app?vid=6b727eee-2263-4eaa-9a3a-c925e23e9f78","ios":"levelo://app?vid=6b727eee-2263-4eaa-9a3a-c925e23e9f78"},"vehicle_type_id":"4","last_reported":1733984103,"current_range_meters":38400,"station_id":"ce4bho12rcd13ifvqh1g","pricing_plan_id":"cebpf4jnsgd1na2vs0mg"},{"bike_id":"79263867-ab0b-431e-89dc-246e72ff457f","system_id":"levelo_inurba_marseille","lat":43.28657,"lon":5.38662,"is_reserved":false,"is_disabled":true,"rental_uris":{"android":"levelo://app?vid=79263867-ab0b-431e-89dc-246e72ff457f","ios":"levelo://app?vid=79263867-ab0b-431e-89dc-246e72ff457f"},"vehicle_type_id":"4","last_reported":1733984103,"current_range_meters":38000,"station_id":"ce4bh492rcd13ifvqdug","pricing_plan_id":"cebpf4jnsgd1na2vs0mg"},{"bike_id":"4da8f61d-0f2a-4234-a08c-151dfadd6b43","system_id":"levelo_inurba_marseille","lat":43.300373,"lon":5.36408,"is_reserved":false,"is_disabled":true,"rental_uris":{"android":"levelo://app?vid=4da8f61d-0f2a-4234-a08c-151dfadd6b43","ios":"levelo://app?vid=4da8f61d-0f2a-4234-a08c-151dfadd6b43"},"vehicle_type_id":"4","last_reported":1733984103,"current_range_meters":0,"station_id":"","pricing_plan_id":"cebpf4jnsgd1na2vs0mg"},{"bike_id":"47ef26d5-25f5-43cd-9a35-bd5b3b5bc590","system_id":"levelo_inurba_marseille","lat":43.30927,"lon":5.40151,"is_reserved":false,"is_disabled":false,"rental_uris":{"android":"levelo://app?vid=47ef26d5-25f5-43cd-9a35-bd5b3b5bc590","ios":"levelo://app?vid=47ef26d5-25f5-43cd-9a35-bd5b3b5bc590"},"vehicle_type_id":"4","last_reported":1733984103,"current_range_meters":9600,"station_id":"ce4bgvp2rcd13ifvqct0","pricing_plan_id":"cebpf4jnsgd1na2vs0mg"},{"bike_id":"e5a6cc4b-832e-4ca6-87fd-bab4322900f3","system_id":"levelo_inurba_marseille","lat":43.31175,"lon":5.38709,"is_reserved":false,"is_disabled":false,"rental_uris":{"android":"levelo://app?vid=e5a6cc4b-832e-4ca6-87fd-bab4322900f3","ios":"levelo://app?vid=e5a6cc4b-832e-4ca6-87fd-bab4322900f3"},"vehicle_type_id":"4","last_reported":1733984103,"current_range_meters":27600,"station_id":"ce4bgv12rcd13ifvqcp0","pricing_plan_id":"cebpf4jnsgd1na2vs0mg"},{"bike_id":"6b7da9da-7ed8-4376-8377-8274a75ba481","system_id":"levelo_inurba_marseille","lat":43.26627,"lon":5.40326,"is_reserved":false,"is_disabled":false,"rental_uris":{"android":"levelo://app?vid=6b7da9da-7ed8-4376-8377-8274a75ba481","ios":"levelo://app?vid=6b7da9da-7ed8-4376-8377-8274a75ba481"},"vehicle_type_id":"4","last_reported":1733984103,"current_range_meters":38000,"station_id":"","pricing_plan_id":"cebpf4jnsgd1na2vs0mg"},{"bike_id":"e0cdb3b5-4448-4cfe-b12d-06d7ed4960ca","system_id":"levelo_inurba_marseille","lat":43.3066,"lon":5.4007,"is_reserved":false,"is_disabled":false,"rental_uris":{"android":"levelo://app?vid=e0cdb3b5-4448-4cfe-b12d-06d7ed4960ca","ios":"levelo://app?vid=e0cdb3b5-4448-4cfe-b12d-06d7ed4960ca"},"vehicle_type_id":"4","last_reported":1733984103,"current_range_meters":38800,"station_id":"ce4bh112rcd13ifvqda0","pricing_plan_id":"cebpf4jnsgd1na2vs0mg"},{"bike_id":"4f0c1ef8-f41d-45b8-b048-56d2ab124e5f","system_id":"levelo_inurba_marseille","lat":43.276094,"lon":5.361226,"is_reserved":false,"is_disabled":false,"rental_uris":{"android":"levelo://app?vid=4f0c1ef8-f41d-45b8-b048-56d2ab124e5f","ios":"levelo://app?vid=4f0c1ef8-f41d-45b8-b048-56d2ab124e5f"},"vehicle_type_id":"4","last_reported":1733984103,"current_range_meters":38800,"station_id":"ce4bgj92rcd13ifvqbe0","pricing_plan_id":"cebpf4jnsgd1na2vs0mg"},{"bike_id":"af67ac53-ba21-4ff0-8334-95679e9ff2cc","system_id":"levelo_inurba_marseille","lat":43.278805,"lon":5.388003,"is_reserved":false,"is_disabled":true,"rental_uris":{"android":"levelo://app?vid=af67ac53-ba21-4ff0-8334-95679e9ff2cc","ios":"levelo://app?vid=af67ac53-ba21-4ff0-8334-95679e9ff2cc"},"vehicle_type_id":"4","last_reported":1733984103,"current_range_meters":0,"station_id":"","pricing_plan_id":"cebpf4jnsgd1na2vs0mg"},{"bike_id":"ab6bb814-6be0-4a23-8be0-7c219c550454","system_id":"levelo_inurba_marseille","lat":43.2944,"lon":5.39763,"is_reserved":false,"is_disabled":true,"rental_uris":{"android":"levelo://app?vid=ab6bb814-6be0-4a23-8be0-7c219c550454","ios":"levelo://app?vid=ab6bb814-6be0-4a23-8be0-7c219c550454"},"vehicle_type_id":"4","last_reported":1733984103,"current_range_meters":0,"station_id":"ce4bh3h2rcd13ifvqdo0","pricing_plan_id":"cebpf4jnsgd1na2vs0mg"},{"bike_id":"4615db22-8e24-4c0e-bb14-71b2648a6ecf","system_id":"levelo_inurba_marseille","lat":43.24801,"lon":5.37463,"is_reserved":false,"is_disabled":false,"rental_uris":{"android":"levelo://app?vid=4615db22-8e24-4c0e-bb14-71b2648a6ecf","ios":"levelo://app?vid=4615db22-8e24-4c0e-bb14-71b2648a6ecf"},"vehicle_type_id":"4","last_reported":1733984103,"current_range_meters":38800,"station_id":"ce4bhgh2rcd13ifvqfb0","pricing_plan_id":"cebpf4jnsgd1na2vs0mg"},{"bike_id":"f8d16ca8-f75d-4f50-aec4-42bc8a77916e","system_id":"levelo_inurba_marseille","lat":43.2873,"lon":5.36086,"is_reserved":false,"is_disabled":false,"rental_uris":{"android":"levelo://app?vid=f8d16ca8-f75d-4f50-aec4-42bc8a77916e","ios":"levelo://app?vid=f8d16ca8-f75d-4f50-aec4-42bc8a77916e"},"vehicle_type_id":"4","last_reported":1733984103,"current_range_meters":37600,"station_id":"cki0cbj6b192h4jlfktg","pricing_plan_id":"cebpf4jnsgd1na2vs0mg"},{"bike_id":"82c9545d-9d79-429e-b2af-bff9e5a6d0d9","system_id":"levelo_inurba_marseille","lat":43.25876,"lon":5.39927,"is_reserved":false,"is_disabled":false,"rental_uris":{"android":"levelo://app?vid=82c9545d-9d79-429e-b2af-bff9e5a6d0d9","ios":"levelo://app?vid=82c9545d-9d79-429e-b2af-bff9e5a6d0d9"},"vehicle_type_id":"4","last_reported":1733984103,"current_range_meters":34800,"station_id":"ce4bhl92rcd13ifvqghg","pricing_plan_id":"cebpf4jnsgd1na2vs0mg"},{"bike_id":"c3f87c2d-f647-4d71-89d3-fc010d8ba668","system_id":"levelo_inurba_marseille","lat":43.28487,"lon":5.38427,"is_reserved":false,"is_disabled":true,"rental_uris":{"android":"levelo://app?vid=c3f87c2d-f647-4d71-89d3-fc010d8ba668","ios":"levelo://app?vid=c3f87c2d-f647-4d71-89d3-fc010d8ba668"},"vehicle_type_id":"4","last_reported":1733984103,"current_range_meters":0,"station_id":"ce4bh512rcd13ifvqe3g","pricing_plan_id":"cebpf4jnsgd1na2vs0mg"},{"bike_id":"0fa2039c-5ee9-4ac8-bd2f-e5ab82259f0e","system_id":"levelo_inurba_marseille","lat":43.312,"lon":5.36772,"is_reserved":false,"is_disabled":true,"rental_uris":{"android":"levelo://app?vid=0fa2039c-5ee9-4ac8-bd2f-e5ab82259f0e","ios":"levelo://app?vid=0fa2039c-5ee9-4ac8-bd2f-e5ab82259f0e"},"vehicle_type_id":"4","last_reported":1733984103,"current_range_meters":0,"station_id":"","pricing_plan_id":"cebpf4jnsgd1na2vs0mg"},{"bike_id":"a8b08dda-ea61-47f1-9c9e-08e25bc9cc96","system_id":"levelo_inurba_marseille","lat":43.30472,"lon":5.37891,"is_reserved":false,"is_disabled":false,"rental_uris":{"android":"levelo://app?vid=a8b08dda-ea61-47f1-9c9e-08e25bc9cc96","ios":"levelo://app?vid=a8b08dda-ea61-47f1-9c9e-08e25bc9cc96"},"vehicle_type_id":"4","last_reported":1733984103,"current_range_meters":36400,"station_id":"ce4bgup2rcd13ifvqcn0","pricing_plan_id":"cebpf4jnsgd1na2vs0mg"},{"bike_id":"1d546492-5c45-4898-b426-a5d4d1493470","system_id":"levelo_inurba_marseille","lat":43.28565,"lon":5.39497,"is_reserved":false,"is_disabled":false,"rental_uris":{"android":"levelo://app?vid=1d546492-5c45-4898-b426-a5d4d1493470","ios":"levelo://app?vid=1d546492-5c45-4898-b426-a5d4d1493470"},"vehicle_type_id":"4","last_reported":1733984103,"current_range_meters":24400,"station_id":"ce4bh292rcd13ifvqdg0","pricing_plan_id":"cebpf4jnsgd1na2vs0mg"},{"bike_id":"d6c6c36b-0cad-45f6-b711-edb7c85a4435","system_id":"levelo_inurba_marseille","lat":43.28103,"lon":5.3785,"is_reserved":false,"is_disabled":false,"rental_uris":{"android":"levelo://app?vid=d6c6c36b-0cad-45f6-b711-edb7c85a4435","ios":"levelo://app?vid=d6c6c36b-0cad-45f6-b711-edb7c85a4435"},"vehicle_type_id":"4","last_reported":1733984103,"current_range_meters":23200,"station_id":"ce4bha12rcd13ifvqee0","pricing_plan_id":"cebpf4jnsgd1na2vs0mg"},{"bike_id":"be0b8c3f-0afb-42d7-82d2-88e533cc17ea","system_id":"levelo_inurba_marseille","lat":43.29102,"lon":5.37224,"is_reserved":false,"is_disabled":true,"rental_uris":{"android":"levelo://app?vid=be0b8c3f-0afb-42d7-82d2-88e533cc17ea","ios":"levelo://app?vid=be0b8c3f-0afb-42d7-82d2-88e533cc17ea"},"vehicle_type_id":"4","last_reported":1733984103,"current_range_meters":24000,"station_id":"","pricing_plan_id":"cebpf4jnsgd1na2vs0mg"},{"bike_id":"f6cd67c9-9d47-4a6f-a19a-661b419f05e0","system_id":"levelo_inurba_marseille","lat":43.31269,"lon":5.40175,"is_reserved":false,"is_disabled":false,"rental_uris":{"android":"levelo://app?vid=f6cd67c9-9d47-4a6f-a19a-661b419f05e0","ios":"levelo://app?vid=f6cd67c9-9d47-4a6f-a19a-661b419f05e0"},"vehicle_type_id":"4","last_reported":1733984103,"current_range_meters":38800,"station_id":"ce4bh092rcd13ifvqd30","pricing_plan_id":"cebpf4jnsgd1na2vs0mg"},{"bike_id":"b5fcaa86-c09e-4c69-8628-53e487fd6934","system_id":"levelo_inurba_marseille","lat":43.29366,"lon":5.37866,"is_reserved":false,"is_disabled":true,"rental_uris":{"android":"levelo://app?vid=b5fcaa86-c09e-4c69-8628-53e487fd6934","ios":"levelo://app?vid=b5fcaa86-c09e-4c69-8628-53e487fd6934"},"vehicle_type_id":"4","last_reported":1733984103,"current_range_meters":36800,"station_id":"ce4bgjh2rcd13ifvqbf0","pricing_plan_id":"cebpf4jnsgd1na2vs0mg"},{"bike_id":"b5700852-c1ad-4697-b4ef-5c491971f5fb","system_id":"levelo_inurba_marseille","lat":43.26922,"lon":5.40256,"is_reserved":false,"is_disabled":false,"rental_uris":{"android":"levelo://app?vid=b5700852-c1ad-4697-b4ef-5c491971f5fb","ios":"levelo://app?vid=b5700852-c1ad-4697-b4ef-5c491971f5fb"},"vehicle_type_id":"4","last_reported":1733984103,"current_range_meters":38000,"station_id":"cjm6bp8fraef2m0cb0m0","pricing_plan_id":"cebpf4jnsgd1na2vs0mg"},{"bike_id":"2299250e-6385-4388-854c-ef26c90377b9","system_id":"levelo_inurba_marseille","lat":43.29898,"lon":5.43653,"is_reserved":false,"is_disabled":false,"rental_uris":{"android":"levelo://app?vid=2299250e-6385-4388-854c-ef26c90377b9","ios":"levelo://app?vid=2299250e-6385-4388-854c-ef26c90377b9"},"vehicle_type_id":"4","last_reported":1733984103,"current_range_meters":14400,"station_id":"ce4bhpp2rcd13ifvqhfg","pricing_plan_id":"cebpf4jnsgd1na2vs0mg"},{"bike_id":"cebd5362-7b70-47b1-bc49-530ef80e1944","system_id":"levelo_inurba_marseille","lat":43.31806,"lon":5.38143,"is_reserved":false,"is_disabled":true,"rental_uris":{"android":"levelo://app?vid=cebd5362-7b70-47b1-bc49-530ef80e1944","ios":"levelo://app?vid=cebd5362-7b70-47b1-bc49-530ef80e1944"},"vehicle_type_id":"4","last_reported":1733984103,"current_range_meters":0,"station_id":"","pricing_plan_id":"cebpf4jnsgd1na2vs0mg"},{"bike_id":"2a6d0539-b439-4436-a9dc-712f280b5e24","system_id":"levelo_inurba_marseille","lat":43.30532,"lon":5.38425,"is_reserved":false,"is_disabled":false,"rental_uris":{"android":"levelo://app?vid=2a6d0539-b439-4436-a9dc-712f280b5e24","ios":"levelo://app?vid=2a6d0539-b439-4436-a9dc-712f280b5e24"},"vehicle_type_id":"4","last_reported":1733984103,"current_range_meters":38400,"station_id":"ce4bgg92rcd13ifvqb30","pricing_plan_id":"cebpf4jnsgd1na2vs0mg"},{"bike_id":"0aaf9b22-f7e1-4e4f-a1a5-7a779d72a1d4","system_id":"levelo_inurba_marseille","lat":43.298173,"lon":5.377584,"is_reserved":false,"is_disabled":true,"rental_uris":{"android":"levelo://app?vid=0aaf9b22-f7e1-4e4f-a1a5-7a779d72a1d4","ios":"levelo://app?vid=0aaf9b22-f7e1-4e4f-a1a5-7a779d72a1d4"},"vehicle_type_id":"4","last_reported":1733984103,"current_range_meters":0,"station_id":"","pricing_plan_id":"cebpf4jnsgd1na2vs0mg"},{"bike_id":"ef3b6362-7aa5-45c6-8ea7-d10ba64fef03","system_id":"levelo_inurba_marseille","lat":43.29821,"lon":5.38786,"is_reserved":false,"is_disabled":false,"rental_uris":{"android":"levelo://app?vid=ef3b6362-7aa5-45c6-8ea7-d10ba64fef03","ios":"levelo://app?vid=ef3b6362-7aa5-45c6-8ea7-d10ba64fef03"},"vehicle_type_id":"4","last_reported":1733984103,"current_range_meters":14000,"station_id":"","pricing_plan_id":"cebpf4jnsgd1na2vs0mg"},{"bike_id":"91c3f92e-5d61-470b-b958-c89d04138b23","system_id":"levelo_inurba_marseille","lat":43.29586,"lon":5.37512,"is_reserved":false,"is_disabled":true,"rental_uris":{"android":"levelo://app?vid=91c3f92e-5d61-470b-b958-c89d04138b23","ios":"levelo://app?vid=91c3f92e-5d61-470b-b958-c89d04138b23"},"vehicle_type_id":"4","last_reported":1733984103,"current_range_meters":2800,"station_id":"ce4bgh92rcd13ifvqb50","pricing_plan_id":"cebpf4jnsgd1na2vs0mg"},{"bike_id":"0c077105-d637-4568-bc4c-f0339898e3bf","system_id":"levelo_inurba_marseille","lat":43.31763,"lon":5.39019,"is_reserved":false,"is_disabled":false,"rental_uris":{"android":"levelo://app?vid=0c077105-d637-4568-bc4c-f0339898e3bf","ios":"levelo://app?vid=0c077105-d637-4568-bc4c-f0339898e3bf"},"vehicle_type_id":"4","last_reported":1733984103,"current_range_meters":38800,"station_id":"ce4bhqp2rcd13ifvqhng","pricing_plan_id":"cebpf4jnsgd1na2vs0mg"},{"bike_id":"a85501a2-1a09-455f-954b-c790a9d4e292","system_id":"levelo_inurba_marseille","lat":43.31094,"lon":5.42424,"is_reserved":false,"is_disabled":false,"rental_uris":{"android":"levelo://app?vid=a85501a2-1a09-455f-954b-c790a9d4e292","ios":"levelo://app?vid=a85501a2-1a09-455f-954b-c790a9d4e292"},"vehicle_type_id":"4","last_reported":1733984103,"current_range_meters":17600,"station_id":"ce4bhp92rcd13ifvqhag","pricing_plan_id":"cebpf4jnsgd1na2vs0mg"},{"bike_id":"b8e3a311-f02b-4399-af7b-1bfb5506fa2a","system_id":"levelo_inurba_marseille","lat":43.24647,"lon":5.38891,"is_reserved":false,"is_disabled":false,"rental_uris":{"android":"levelo://app?vid=b8e3a311-f02b-4399-af7b-1bfb5506fa2a","ios":"levelo://app?vid=b8e3a311-f02b-4399-af7b-1bfb5506fa2a"},"vehicle_type_id":"4","last_reported":1733984103,"current_range_meters":25200,"station_id":"ce4bhg12rcd13ifvqf60","pricing_plan_id":"cebpf4jnsgd1na2vs0mg"},{"bike_id":"eb2a26dc-d895-4b2d-8eec-536a09e2de62","system_id":"levelo_inurba_marseille","lat":43.30943,"lon":5.40148,"is_reserved":false,"is_disabled":false,"rental_uris":{"android":"levelo://app?vid=eb2a26dc-d895-4b2d-8eec-536a09e2de62","ios":"levelo://app?vid=eb2a26dc-d895-4b2d-8eec-536a09e2de62"},"vehicle_type_id":"4","last_reported":1733984103,"current_range_meters":25600,"station_id":"ce4bgvp2rcd13ifvqct0","pricing_plan_id":"cebpf4jnsgd1na2vs0mg"},{"bike_id":"e845a170-8a5e-4e5c-9f4e-c26431866b15","system_id":"levelo_inurba_marseille","lat":43.27173,"lon":5.40984,"is_reserved":false,"is_disabled":false,"rental_uris":{"android":"levelo://app?vid=e845a170-8a5e-4e5c-9f4e-c26431866b15","ios":"levelo://app?vid=e845a170-8a5e-4e5c-9f4e-c26431866b15"},"vehicle_type_id":"4","last_reported":1733984103,"current_range_meters":14000,"station_id":"ce4bhl12rcd13ifvqgf0","pricing_plan_id":"cebpf4jnsgd1na2vs0mg"},{"bike_id":"f329caa1-2afa-4eb4-929e-10ebb05d24cf","system_id":"levelo_inurba_marseille","lat":43.31529,"lon":5.38043,"is_reserved":false,"is_disabled":false,"rental_uris":{"android":"levelo://app?vid=f329caa1-2afa-4eb4-929e-10ebb05d24cf","ios":"levelo://app?vid=f329caa1-2afa-4eb4-929e-10ebb05d24cf"},"vehicle_type_id":"4","last_reported":1733984103,"current_range_meters":38800,"station_id":"ce4bhsp2rcd13ifvqi50","pricing_plan_id":"cebpf4jnsgd1na2vs0mg"},{"bike_id":"1fce8014-29d7-44e2-9d2c-8d29b03c9734","system_id":"levelo_inurba_marseille","lat":43.28712,"lon":5.39969,"is_reserved":false,"is_disabled":false,"rental_uris":{"android":"levelo://app?vid=1fce8014-29d7-44e2-9d2c-8d29b03c9734","ios":"levelo://app?vid=1fce8014-29d7-44e2-9d2c-8d29b03c9734"},"vehicle_type_id":"4","last_reported":1733984103,"current_range_meters":38400,"station_id":"ce4bho92rcd13ifvqh3g","pricing_plan_id":"cebpf4jnsgd1na2vs0mg"},{"bike_id":"5746a913-59cb-4881-b851-217de753d5a3","system_id":"levelo_inurba_marseille","lat":43.25092,"lon":5.39529,"is_reserved":false,"is_disabled":false,"rental_uris":{"android":"levelo://app?vid=5746a913-59cb-4881-b851-217de753d5a3","ios":"levelo://app?vid=5746a913-59cb-4881-b851-217de753d5a3"},"vehicle_type_id":"4","last_reported":1733984103,"current_range_meters":26800,"station_id":"ce4bhm12rcd13ifvqgkg","pricing_plan_id":"cebpf4jnsgd1na2vs0mg"},{"bike_id":"fc6bce5c-fc82-4c38-916f-35df49872efb","system_id":"levelo_inurba_marseille","lat":43.31987,"lon":5.38163,"is_reserved":false,"is_disabled":false,"rental_uris":{"android":"levelo://app?vid=fc6bce5c-fc82-4c38-916f-35df49872efb","ios":"levelo://app?vid=fc6bce5c-fc82-4c38-916f-35df49872efb"},"vehicle_type_id":"4","last_reported":1733984103,"current_range_meters":38400,"station_id":"ce4bhr12rcd13ifvqhpg","pricing_plan_id":"cebpf4jnsgd1na2vs0mg"},{"bike_id":"fa78bd84-cc9c-420b-aac1-bebf868e59df","system_id":"levelo_inurba_marseille","lat":43.31758,"lon":5.39021,"is_reserved":false,"is_disabled":false,"rental_uris":{"android":"levelo://app?vid=fa78bd84-cc9c-420b-aac1-bebf868e59df","ios":"levelo://app?vid=fa78bd84-cc9c-420b-aac1-bebf868e59df"},"vehicle_type_id":"4","last_reported":1733984103,"current_range_meters":38800,"station_id":"ce4bhqp2rcd13ifvqhng","pricing_plan_id":"cebpf4jnsgd1na2vs0mg"},{"bike_id":"6ff81125-71bf-40cc-a5d6-cc392c4e7a61","system_id":"levelo_inurba_marseille","lat":43.31758,"lon":5.39019,"is_reserved":false,"is_disabled":false,"rental_uris":{"android":"levelo://app?vid=6ff81125-71bf-40cc-a5d6-cc392c4e7a61","ios":"levelo://app?vid=6ff81125-71bf-40cc-a5d6-cc392c4e7a61"},"vehicle_type_id":"4","last_reported":1733984103,"current_range_meters":11600,"station_id":"ce4bhqp2rcd13ifvqhng","pricing_plan_id":"cebpf4jnsgd1na2vs0mg"},{"bike_id":"9f59f892-069b-4e04-9fca-167860a220e8","system_id":"levelo_inurba_marseille","lat":43.31528,"lon":5.38933,"is_reserved":false,"is_disabled":false,"rental_uris":{"android":"levelo://app?vid=9f59f892-069b-4e04-9fca-167860a220e8","ios":"levelo://app?vid=9f59f892-069b-4e04-9fca-167860a220e8"},"vehicle_type_id":"4","last_reported":1733984103,"current_range_meters":18800,"station_id":"","pricing_plan_id":"cebpf4jnsgd1na2vs0mg"},{"bike_id":"a5fca068-4999-4c02-8ca7-03c2a14173d9","system_id":"levelo_inurba_marseille","lat":43.2857,"lon":5.39496,"is_reserved":false,"is_disabled":false,"rental_uris":{"android":"levelo://app?vid=a5fca068-4999-4c02-8ca7-03c2a14173d9","ios":"levelo://app?vid=a5fca068-4999-4c02-8ca7-03c2a14173d9"},"vehicle_type_id":"4","last_reported":1733984103,"current_range_meters":38800,"station_id":"ce4bh292rcd13ifvqdg0","pricing_plan_id":"cebpf4jnsgd1na2vs0mg"},{"bike_id":"76f3328f-e574-457e-a081-a550f776ec21","system_id":"levelo_inurba_marseille","lat":43.24066,"lon":5.37765,"is_reserved":false,"is_disabled":false,"rental_uris":{"android":"levelo://app?vid=76f3328f-e574-457e-a081-a550f776ec21","ios":"levelo://app?vid=76f3328f-e574-457e-a081-a550f776ec21"},"vehicle_type_id":"4","last_reported":1733984103,"current_range_meters":27600,"station_id":"ce4bhnp2rcd13ifvqgvg","pricing_plan_id":"cebpf4jnsgd1na2vs0mg"},{"bike_id":"52fe41bd-3215-4f1d-8eb8-941b0d7396b8","system_id":"levelo_inurba_marseille","lat":43.31173,"lon":5.38713,"is_reserved":false,"is_disabled":false,"rental_uris":{"android":"levelo://app?vid=52fe41bd-3215-4f1d-8eb8-941b0d7396b8","ios":"levelo://app?vid=52fe41bd-3215-4f1d-8eb8-941b0d7396b8"},"vehicle_type_id":"4","last_reported":1733984103,"current_range_meters":31200,"station_id":"ce4bgv12rcd13ifvqcp0","pricing_plan_id":"cebpf4jnsgd1na2vs0mg"},{"bike_id":"ef1675a4-1a15-40b4-af8d-26ca4e4efdd1","system_id":"levelo_inurba_marseille","lat":43.287048,"lon":5.374041,"is_reserved":false,"is_disabled":false,"rental_uris":{"android":"levelo://app?vid=ef1675a4-1a15-40b4-af8d-26ca4e4efdd1","ios":"levelo://app?vid=ef1675a4-1a15-40b4-af8d-26ca4e4efdd1"},"vehicle_type_id":"4","last_reported":1733984103,"current_range_meters":38800,"station_id":"ce4bh3p2rcd13ifvqdq0","pricing_plan_id":"cebpf4jnsgd1na2vs0mg"},{"bike_id":"96092791-8138-4990-a442-bce3dc035acc","system_id":"levelo_inurba_marseille","lat":43.30924,"lon":5.40152,"is_reserved":false,"is_disabled":false,"rental_uris":{"android":"levelo://app?vid=96092791-8138-4990-a442-bce3dc035acc","ios":"levelo://app?vid=96092791-8138-4990-a442-bce3dc035acc"},"vehicle_type_id":"4","last_reported":1733984103,"current_range_meters":20800,"station_id":"ce4bgvp2rcd13ifvqct0","pricing_plan_id":"cebpf4jnsgd1na2vs0mg"},{"bike_id":"440c0882-719b-4b38-aba1-872c74c75218","system_id":"levelo_inurba_marseille","lat":43.322895,"lon":5.382746,"is_reserved":false,"is_disabled":false,"rental_uris":{"android":"levelo://app?vid=440c0882-719b-4b38-aba1-872c74c75218","ios":"levelo://app?vid=440c0882-719b-4b38-aba1-872c74c75218"},"vehicle_type_id":"4","last_reported":1733984103,"current_range_meters":37600,"station_id":"ce4bhr12rcd13ifvqhqg","pricing_plan_id":"cebpf4jnsgd1na2vs0mg"},{"bike_id":"9f4ff309-16c5-4f67-9aac-83afe40d118a","system_id":"levelo_inurba_marseille","lat":43.23941,"lon":5.3665,"is_reserved":false,"is_disabled":false,"rental_uris":{"android":"levelo://app?vid=9f4ff309-16c5-4f67-9aac-83afe40d118a","ios":"levelo://app?vid=9f4ff309-16c5-4f67-9aac-83afe40d118a"},"vehicle_type_id":"4","last_reported":1733984103,"current_range_meters":38800,"station_id":"ce4bhi12rcd13ifvqfp0","pricing_plan_id":"cebpf4jnsgd1na2vs0mg"},{"bike_id":"ac9259c7-5b76-4714-8295-8c5ed3303148","system_id":"levelo_inurba_marseille","lat":43.2655,"lon":5.3729,"is_reserved":false,"is_disabled":false,"rental_uris":{"android":"levelo://app?vid=ac9259c7-5b76-4714-8295-8c5ed3303148","ios":"levelo://app?vid=ac9259c7-5b76-4714-8295-8c5ed3303148"},"vehicle_type_id":"4","last_reported":1733984103,"current_range_meters":36400,"station_id":"ce4bhg12rcd13ifvqf70","pricing_plan_id":"cebpf4jnsgd1na2vs0mg"},{"bike_id":"accc15c2-75c8-4823-a61f-1d4d7e399167","system_id":"levelo_inurba_marseille","lat":43.29423,"lon":5.38608,"is_reserved":false,"is_disabled":true,"rental_uris":{"android":"levelo://app?vid=accc15c2-75c8-4823-a61f-1d4d7e399167","ios":"levelo://app?vid=accc15c2-75c8-4823-a61f-1d4d7e399167"},"vehicle_type_id":"4","last_reported":1733984103,"current_range_meters":8800,"station_id":"ce4bh2h2rcd13ifvqdh0","pricing_plan_id":"cebpf4jnsgd1na2vs0mg"},{"bike_id":"348a5c80-3b1e-4fa4-a2c8-d0287c9ea325","system_id":"levelo_inurba_marseille","lat":43.27967,"lon":5.41685,"is_reserved":false,"is_disabled":false,"rental_uris":{"android":"levelo://app?vid=348a5c80-3b1e-4fa4-a2c8-d0287c9ea325","ios":"levelo://app?vid=348a5c80-3b1e-4fa4-a2c8-d0287c9ea325"},"vehicle_type_id":"4","last_reported":1733984103,"current_range_meters":28800,"station_id":"ce4bho12rcd13ifvqh1g","pricing_plan_id":"cebpf4jnsgd1na2vs0mg"},{"bike_id":"20dec2c9-ca70-4520-b174-a81f4e369962","system_id":"levelo_inurba_marseille","lat":43.29553,"lon":5.42284,"is_reserved":false,"is_disabled":false,"rental_uris":{"android":"levelo://app?vid=20dec2c9-ca70-4520-b174-a81f4e369962","ios":"levelo://app?vid=20dec2c9-ca70-4520-b174-a81f4e369962"},"vehicle_type_id":"4","last_reported":1733984103,"current_range_meters":33200,"station_id":"ce4bhph2rcd13ifvqhdg","pricing_plan_id":"cebpf4jnsgd1na2vs0mg"},{"bike_id":"582f7d7e-d41d-4085-8809-4c51570abd78","system_id":"levelo_inurba_marseille","lat":43.30465,"lon":5.37906,"is_reserved":false,"is_disabled":false,"rental_uris":{"android":"levelo://app?vid=582f7d7e-d41d-4085-8809-4c51570abd78","ios":"levelo://app?vid=582f7d7e-d41d-4085-8809-4c51570abd78"},"vehicle_type_id":"4","last_reported":1733984103,"current_range_meters":28800,"station_id":"ce4bgup2rcd13ifvqcn0","pricing_plan_id":"cebpf4jnsgd1na2vs0mg"},{"bike_id":"2c014ae4-7d58-406f-a0f3-e7beffdd9a3b","system_id":"levelo_inurba_marseille","lat":43.30103,"lon":5.39096,"is_reserved":false,"is_disabled":true,"rental_uris":{"android":"levelo://app?vid=2c014ae4-7d58-406f-a0f3-e7beffdd9a3b","ios":"levelo://app?vid=2c014ae4-7d58-406f-a0f3-e7beffdd9a3b"},"vehicle_type_id":"4","last_reported":1733984103,"current_range_meters":28400,"station_id":"ce4bh192rcd13ifvqdb0","pricing_plan_id":"cebpf4jnsgd1na2vs0mg"},{"bike_id":"e966d2c7-c9e1-4cb1-9a39-6325607b0be4","system_id":"levelo_inurba_marseille","lat":43.337444,"lon":5.374475,"is_reserved":false,"is_disabled":true,"rental_uris":{"android":"levelo://app?vid=e966d2c7-c9e1-4cb1-9a39-6325607b0be4","ios":"levelo://app?vid=e966d2c7-c9e1-4cb1-9a39-6325607b0be4"},"vehicle_type_id":"4","last_reported":1733984103,"current_range_meters":0,"station_id":"","pricing_plan_id":"cebpf4jnsgd1na2vs0mg"},{"bike_id":"a79bef39-27fa-418d-a847-05fb61636beb","system_id":"levelo_inurba_marseille","lat":43.30156,"lon":5.38066,"is_reserved":false,"is_disabled":false,"rental_uris":{"android":"levelo://app?vid=a79bef39-27fa-418d-a847-05fb61636beb","ios":"levelo://app?vid=a79bef39-27fa-418d-a847-05fb61636beb"},"vehicle_type_id":"4","last_reported":1733984103,"current_range_meters":24800,"station_id":"ce4bgjp2rcd13ifvqbh0","pricing_plan_id":"cebpf4jnsgd1na2vs0mg"},{"bike_id":"24618971-1702-4e3c-877c-bbdab7c408ae","system_id":"levelo_inurba_marseille","lat":43.25012,"lon":5.38935,"is_reserved":false,"is_disabled":false,"rental_uris":{"android":"levelo://app?vid=24618971-1702-4e3c-877c-bbdab7c408ae","ios":"levelo://app?vid=24618971-1702-4e3c-877c-bbdab7c408ae"},"vehicle_type_id":"4","last_reported":1733984103,"current_range_meters":28000,"station_id":"ce4bhgp2rcd13ifvqfd0","pricing_plan_id":"cebpf4jnsgd1na2vs0mg"},{"bike_id":"312bb54d-7981-48b2-bad1-cc0be49295b2","system_id":"levelo_inurba_marseille","lat":43.28847,"lon":5.35873,"is_reserved":false,"is_disabled":false,"rental_uris":{"android":"levelo://app?vid=312bb54d-7981-48b2-bad1-cc0be49295b2","ios":"levelo://app?vid=312bb54d-7981-48b2-bad1-cc0be49295b2"},"vehicle_type_id":"4","last_reported":1733984103,"current_range_meters":32800,"station_id":"ce4bhb12rcd13ifvqem0","pricing_plan_id":"cebpf4jnsgd1na2vs0mg"},{"bike_id":"f0a4f587-2333-4a7a-8819-09121e495e1b","system_id":"levelo_inurba_marseille","lat":43.22941,"lon":5.35382,"is_reserved":false,"is_disabled":false,"rental_uris":{"android":"levelo://app?vid=f0a4f587-2333-4a7a-8819-09121e495e1b","ios":"levelo://app?vid=f0a4f587-2333-4a7a-8819-09121e495e1b"},"vehicle_type_id":"4","last_reported":1733984103,"current_range_meters":10000,"station_id":"cpo3532slgdg3j2ikp40","pricing_plan_id":"cebpf4jnsgd1na2vs0mg"},{"bike_id":"81480221-5bd6-4736-a9d5-695a06b94e56","system_id":"levelo_inurba_marseille","lat":43.25087,"lon":5.39524,"is_reserved":false,"is_disabled":false,"rental_uris":{"android":"levelo://app?vid=81480221-5bd6-4736-a9d5-695a06b94e56","ios":"levelo://app?vid=81480221-5bd6-4736-a9d5-695a06b94e56"},"vehicle_type_id":"4","last_reported":1733984103,"current_range_meters":36400,"station_id":"ce4bhm12rcd13ifvqgkg","pricing_plan_id":"cebpf4jnsgd1na2vs0mg"},{"bike_id":"17f59de1-b3ce-4e3a-95ec-402199b35e46","system_id":"levelo_inurba_marseille","lat":43.246441,"lon":5.388975,"is_reserved":false,"is_disabled":false,"rental_uris":{"android":"levelo://app?vid=17f59de1-b3ce-4e3a-95ec-402199b35e46","ios":"levelo://app?vid=17f59de1-b3ce-4e3a-95ec-402199b35e46"},"vehicle_type_id":"4","last_reported":1733984103,"current_range_meters":28000,"station_id":"ce4bhg12rcd13ifvqf60","pricing_plan_id":"cebpf4jnsgd1na2vs0mg"},{"bike_id":"e2b090ff-7c7f-4d4a-8f5b-c317e750043e","system_id":"levelo_inurba_marseille","lat":43.270681,"lon":5.4228,"is_reserved":false,"is_disabled":true,"rental_uris":{"android":"levelo://app?vid=e2b090ff-7c7f-4d4a-8f5b-c317e750043e","ios":"levelo://app?vid=e2b090ff-7c7f-4d4a-8f5b-c317e750043e"},"vehicle_type_id":"4","last_reported":1733984103,"current_range_meters":0,"station_id":"ce4bhk92rcd13ifvqgb0","pricing_plan_id":"cebpf4jnsgd1na2vs0mg"},{"bike_id":"1802c294-deb8-4890-b7ca-3e995fd26543","system_id":"levelo_inurba_marseille","lat":43.27071,"lon":5.422804,"is_reserved":false,"is_disabled":false,"rental_uris":{"android":"levelo://app?vid=1802c294-deb8-4890-b7ca-3e995fd26543","ios":"levelo://app?vid=1802c294-deb8-4890-b7ca-3e995fd26543"},"vehicle_type_id":"4","last_reported":1733984103,"current_range_meters":34800,"station_id":"ce4bhk92rcd13ifvqgb0","pricing_plan_id":"cebpf4jnsgd1na2vs0mg"},{"bike_id":"c07bed49-7bd1-4167-905d-ca3f4558f43f","system_id":"levelo_inurba_marseille","lat":43.27828,"lon":5.39204,"is_reserved":false,"is_disabled":false,"rental_uris":{"android":"levelo://app?vid=c07bed49-7bd1-4167-905d-ca3f4558f43f","ios":"levelo://app?vid=c07bed49-7bd1-4167-905d-ca3f4558f43f"},"vehicle_type_id":"4","last_reported":1733984103,"current_range_meters":28000,"station_id":"ce4bhjp2rcd13ifvqga0","pricing_plan_id":"cebpf4jnsgd1na2vs0mg"},{"bike_id":"58cf3891-dd94-4bdf-8a77-a287a3f2609a","system_id":"levelo_inurba_marseille","lat":43.24386,"lon":5.37078,"is_reserved":false,"is_disabled":false,"rental_uris":{"android":"levelo://app?vid=58cf3891-dd94-4bdf-8a77-a287a3f2609a","ios":"levelo://app?vid=58cf3891-dd94-4bdf-8a77-a287a3f2609a"},"vehicle_type_id":"4","last_reported":1733984103,"current_range_meters":38800,"station_id":"ce4bhhh2rcd13ifvqfk0","pricing_plan_id":"cebpf4jnsgd1na2vs0mg"},{"bike_id":"fe4d47c1-dfb5-4e68-bfe4-126efd20c0c3","system_id":"levelo_inurba_marseille","lat":43.30798,"lon":5.37338,"is_reserved":false,"is_disabled":false,"rental_uris":{"android":"levelo://app?vid=fe4d47c1-dfb5-4e68-bfe4-126efd20c0c3","ios":"levelo://app?vid=fe4d47c1-dfb5-4e68-bfe4-126efd20c0c3"},"vehicle_type_id":"4","last_reported":1733984103,"current_range_meters":23200,"station_id":"","pricing_plan_id":"cebpf4jnsgd1na2vs0mg"},{"bike_id":"47ca1389-a4a0-4b65-a481-87698db823a2","system_id":"levelo_inurba_marseille","lat":43.28075,"lon":5.3966,"is_reserved":false,"is_disabled":false,"rental_uris":{"android":"levelo://app?vid=47ca1389-a4a0-4b65-a481-87698db823a2","ios":"levelo://app?vid=47ca1389-a4a0-4b65-a481-87698db823a2"},"vehicle_type_id":"4","last_reported":1733984103,"current_range_meters":38800,"station_id":"ce4bho12rcd13ifvqh2g","pricing_plan_id":"cebpf4jnsgd1na2vs0mg"},{"bike_id":"0e82dade-8dc2-491d-9db4-3976e18d4a8b","system_id":"levelo_inurba_marseille","lat":43.311843,"lon":5.387212,"is_reserved":false,"is_disabled":false,"rental_uris":{"android":"levelo://app?vid=0e82dade-8dc2-491d-9db4-3976e18d4a8b","ios":"levelo://app?vid=0e82dade-8dc2-491d-9db4-3976e18d4a8b"},"vehicle_type_id":"4","last_reported":1733984103,"current_range_meters":16000,"station_id":"ce4bgv12rcd13ifvqcp0","pricing_plan_id":"cebpf4jnsgd1na2vs0mg"},{"bike_id":"c346be12-582d-42dc-8dce-5e128ded35bf","system_id":"levelo_inurba_marseille","lat":43.319947,"lon":5.381476,"is_reserved":false,"is_disabled":false,"rental_uris":{"android":"levelo://app?vid=c346be12-582d-42dc-8dce-5e128ded35bf","ios":"levelo://app?vid=c346be12-582d-42dc-8dce-5e128ded35bf"},"vehicle_type_id":"4","last_reported":1733984103,"current_range_meters":22400,"station_id":"ce4bhr12rcd13ifvqhpg","pricing_plan_id":"cebpf4jnsgd1na2vs0mg"},{"bike_id":"82f09025-3cfb-4790-b608-4b1833086855","system_id":"levelo_inurba_marseille","lat":43.2442,"lon":5.37088,"is_reserved":false,"is_disabled":false,"rental_uris":{"android":"levelo://app?vid=82f09025-3cfb-4790-b608-4b1833086855","ios":"levelo://app?vid=82f09025-3cfb-4790-b608-4b1833086855"},"vehicle_type_id":"4","last_reported":1733984103,"current_range_meters":8000,"station_id":"ce4bhhh2rcd13ifvqfk0","pricing_plan_id":"cebpf4jnsgd1na2vs0mg"},{"bike_id":"ea655d78-9f27-4bbd-b8af-755dcc25abb1","system_id":"levelo_inurba_marseille","lat":43.31192,"lon":5.387,"is_reserved":false,"is_disabled":false,"rental_uris":{"android":"levelo://app?vid=ea655d78-9f27-4bbd-b8af-755dcc25abb1","ios":"levelo://app?vid=ea655d78-9f27-4bbd-b8af-755dcc25abb1"},"vehicle_type_id":"4","last_reported":1733984103,"current_range_meters":38800,"station_id":"ce4bgv12rcd13ifvqcp0","pricing_plan_id":"cebpf4jnsgd1na2vs0mg"},{"bike_id":"097a41bf-6635-41a6-b7a7-1173cae29ada","system_id":"levelo_inurba_marseille","lat":43.22927,"lon":5.35382,"is_reserved":false,"is_disabled":false,"rental_uris":{"android":"levelo://app?vid=097a41bf-6635-41a6-b7a7-1173cae29ada","ios":"levelo://app?vid=097a41bf-6635-41a6-b7a7-1173cae29ada"},"vehicle_type_id":"4","last_reported":1733984103,"current_range_meters":38800,"station_id":"cpo3532slgdg3j2ikp40","pricing_plan_id":"cebpf4jnsgd1na2vs0mg"},{"bike_id":"a90ab59e-9775-4bc6-a3e9-285e464122de","system_id":"levelo_inurba_marseille","lat":43.24642,"lon":5.38897,"is_reserved":false,"is_disabled":false,"rental_uris":{"android":"levelo://app?vid=a90ab59e-9775-4bc6-a3e9-285e464122de","ios":"levelo://app?vid=a90ab59e-9775-4bc6-a3e9-285e464122de"},"vehicle_type_id":"4","last_reported":1733984103,"current_range_meters":36400,"station_id":"ce4bhg12rcd13ifvqf60","pricing_plan_id":"cebpf4jnsgd1na2vs0mg"},{"bike_id":"a5b9952e-4be2-4396-90f5-bd968bacb94f","system_id":"levelo_inurba_marseille","lat":43.31363,"lon":5.38491,"is_reserved":false,"is_disabled":false,"rental_uris":{"android":"levelo://app?vid=a5b9952e-4be2-4396-90f5-bd968bacb94f","ios":"levelo://app?vid=a5b9952e-4be2-4396-90f5-bd968bacb94f"},"vehicle_type_id":"4","last_reported":1733984103,"current_range_meters":33600,"station_id":"ce4bgt92rcd13ifvqcf0","pricing_plan_id":"cebpf4jnsgd1na2vs0mg"},{"bike_id":"e08a3c45-9a07-474f-9717-a27fa81c4ce9","system_id":"levelo_inurba_marseille","lat":43.30869,"lon":5.38691,"is_reserved":false,"is_disabled":true,"rental_uris":{"android":"levelo://app?vid=e08a3c45-9a07-474f-9717-a27fa81c4ce9","ios":"levelo://app?vid=e08a3c45-9a07-474f-9717-a27fa81c4ce9"},"vehicle_type_id":"4","last_reported":1733984103,"current_range_meters":0,"station_id":"","pricing_plan_id":"cebpf4jnsgd1na2vs0mg"},{"bike_id":"0d974de1-1c7e-426d-9571-822e6fb4cb35","system_id":"levelo_inurba_marseille","lat":43.33741,"lon":5.39188,"is_reserved":false,"is_disabled":false,"rental_uris":{"android":"levelo://app?vid=0d974de1-1c7e-426d-9571-822e6fb4cb35","ios":"levelo://app?vid=0d974de1-1c7e-426d-9571-822e6fb4cb35"},"vehicle_type_id":"4","last_reported":1733984103,"current_range_meters":28400,"station_id":"ce4bhr92rcd13ifvqhsg","pricing_plan_id":"cebpf4jnsgd1na2vs0mg"},{"bike_id":"1b2f5b59-3ca6-4e06-85a3-b5c304a15960","system_id":"levelo_inurba_marseille","lat":43.31719,"lon":5.42394,"is_reserved":false,"is_disabled":false,"rental_uris":{"android":"levelo://app?vid=1b2f5b59-3ca6-4e06-85a3-b5c304a15960","ios":"levelo://app?vid=1b2f5b59-3ca6-4e06-85a3-b5c304a15960"},"vehicle_type_id":"4","last_reported":1733984103,"current_range_meters":38800,"station_id":"ce4bhp92rcd13ifvqhbg","pricing_plan_id":"cebpf4jnsgd1na2vs0mg"},{"bike_id":"da28e2f0-7add-4e98-94c8-64ba50e22469","system_id":"levelo_inurba_marseille","lat":43.28115,"lon":5.37837,"is_reserved":false,"is_disabled":false,"rental_uris":{"android":"levelo://app?vid=da28e2f0-7add-4e98-94c8-64ba50e22469","ios":"levelo://app?vid=da28e2f0-7add-4e98-94c8-64ba50e22469"},"vehicle_type_id":"4","last_reported":1733984103,"current_range_meters":37600,"station_id":"ce4bha12rcd13ifvqee0","pricing_plan_id":"cebpf4jnsgd1na2vs0mg"},{"bike_id":"d8b953f2-f14c-4c14-b2ea-95ebb57b2730","system_id":"levelo_inurba_marseille","lat":43.28718,"lon":5.40003,"is_reserved":false,"is_disabled":false,"rental_uris":{"android":"levelo://app?vid=d8b953f2-f14c-4c14-b2ea-95ebb57b2730","ios":"levelo://app?vid=d8b953f2-f14c-4c14-b2ea-95ebb57b2730"},"vehicle_type_id":"4","last_reported":1733984103,"current_range_meters":23200,"station_id":"ce4bho92rcd13ifvqh3g","pricing_plan_id":"cebpf4jnsgd1na2vs0mg"},{"bike_id":"96bf4cb0-2c8e-4663-a88b-30b55c3084dc","system_id":"levelo_inurba_marseille","lat":43.255774,"lon":5.382447,"is_reserved":false,"is_disabled":false,"rental_uris":{"android":"levelo://app?vid=96bf4cb0-2c8e-4663-a88b-30b55c3084dc","ios":"levelo://app?vid=96bf4cb0-2c8e-4663-a88b-30b55c3084dc"},"vehicle_type_id":"4","last_reported":1733984103,"current_range_meters":35600,"station_id":"ce4bhih2rcd13ifvqfs0","pricing_plan_id":"cebpf4jnsgd1na2vs0mg"},{"bike_id":"89f24dc5-38fd-4c74-af12-df0de405d696","system_id":"levelo_inurba_marseille","lat":43.29583,"lon":5.37504,"is_reserved":false,"is_disabled":true,"rental_uris":{"android":"levelo://app?vid=89f24dc5-38fd-4c74-af12-df0de405d696","ios":"levelo://app?vid=89f24dc5-38fd-4c74-af12-df0de405d696"},"vehicle_type_id":"4","last_reported":1733984103,"current_range_meters":36400,"station_id":"ce4bgh92rcd13ifvqb50","pricing_plan_id":"cebpf4jnsgd1na2vs0mg"},{"bike_id":"fb5fbe2a-8677-41b7-82a4-a25b969343e9","system_id":"levelo_inurba_marseille","lat":43.30593,"lon":5.3721,"is_reserved":false,"is_disabled":false,"rental_uris":{"android":"levelo://app?vid=fb5fbe2a-8677-41b7-82a4-a25b969343e9","ios":"levelo://app?vid=fb5fbe2a-8677-41b7-82a4-a25b969343e9"},"vehicle_type_id":"4","last_reported":1733984103,"current_range_meters":37600,"station_id":"ce4bgqh2rcd13ifvqc4g","pricing_plan_id":"cebpf4jnsgd1na2vs0mg"},{"bike_id":"af77a2c4-4f01-4eac-8bd5-698508bacd7c","system_id":"levelo_inurba_marseille","lat":43.2719,"lon":5.40993,"is_reserved":false,"is_disabled":false,"rental_uris":{"android":"levelo://app?vid=af77a2c4-4f01-4eac-8bd5-698508bacd7c","ios":"levelo://app?vid=af77a2c4-4f01-4eac-8bd5-698508bacd7c"},"vehicle_type_id":"4","last_reported":1733984103,"current_range_meters":20000,"station_id":"ce4bhl12rcd13ifvqgf0","pricing_plan_id":"cebpf4jnsgd1na2vs0mg"},{"bike_id":"e2a77f5d-1d63-4243-bf72-8b9ec30686b1","system_id":"levelo_inurba_marseille","lat":43.2871,"lon":5.37943,"is_reserved":false,"is_disabled":true,"rental_uris":{"android":"levelo://app?vid=e2a77f5d-1d63-4243-bf72-8b9ec30686b1","ios":"levelo://app?vid=e2a77f5d-1d63-4243-bf72-8b9ec30686b1"},"vehicle_type_id":"4","last_reported":1733984103,"current_range_meters":30800,"station_id":"ce4bh9p2rcd13ifvqec0","pricing_plan_id":"cebpf4jnsgd1na2vs0mg"},{"bike_id":"20abf19b-fa18-4d3d-a838-c819b9493d23","system_id":"levelo_inurba_marseille","lat":43.26687,"lon":5.38263,"is_reserved":false,"is_disabled":false,"rental_uris":{"android":"levelo://app?vid=20abf19b-fa18-4d3d-a838-c819b9493d23","ios":"levelo://app?vid=20abf19b-fa18-4d3d-a838-c819b9493d23"},"vehicle_type_id":"4","last_reported":1733984103,"current_range_meters":36800,"station_id":"ce4bhg92rcd13ifvqf90","pricing_plan_id":"cebpf4jnsgd1na2vs0mg"},{"bike_id":"a57d4740-3421-4fe8-a560-aacf170b24e6","system_id":"levelo_inurba_marseille","lat":43.23145,"lon":5.43728,"is_reserved":false,"is_disabled":false,"rental_uris":{"android":"levelo://app?vid=a57d4740-3421-4fe8-a560-aacf170b24e6","ios":"levelo://app?vid=a57d4740-3421-4fe8-a560-aacf170b24e6"},"vehicle_type_id":"4","last_reported":1733984103,"current_range_meters":20400,"station_id":"ce4bhmp2rcd13ifvqgog","pricing_plan_id":"cebpf4jnsgd1na2vs0mg"},{"bike_id":"2afd3946-b98a-4b20-9f1d-ef9c12fe71c7","system_id":"levelo_inurba_marseille","lat":43.30304,"lon":5.36889,"is_reserved":false,"is_disabled":false,"rental_uris":{"android":"levelo://app?vid=2afd3946-b98a-4b20-9f1d-ef9c12fe71c7","ios":"levelo://app?vid=2afd3946-b98a-4b20-9f1d-ef9c12fe71c7"},"vehicle_type_id":"4","last_reported":1733984103,"current_range_meters":38800,"station_id":"ce4bgqh2rcd13ifvqc5g","pricing_plan_id":"cebpf4jnsgd1na2vs0mg"},{"bike_id":"998fb05a-2a3b-4974-807b-b61a778b4ca7","system_id":"levelo_inurba_marseille","lat":43.30471,"lon":5.37906,"is_reserved":false,"is_disabled":false,"rental_uris":{"android":"levelo://app?vid=998fb05a-2a3b-4974-807b-b61a778b4ca7","ios":"levelo://app?vid=998fb05a-2a3b-4974-807b-b61a778b4ca7"},"vehicle_type_id":"4","last_reported":1733984103,"current_range_meters":19200,"station_id":"ce4bgup2rcd13ifvqcn0","pricing_plan_id":"cebpf4jnsgd1na2vs0mg"},{"bike_id":"719781ef-4cbd-4631-965b-6343c9720e99","system_id":"levelo_inurba_marseille","lat":43.32368,"lon":5.38892,"is_reserved":false,"is_disabled":false,"rental_uris":{"android":"levelo://app?vid=719781ef-4cbd-4631-965b-6343c9720e99","ios":"levelo://app?vid=719781ef-4cbd-4631-965b-6343c9720e99"},"vehicle_type_id":"4","last_reported":1733984103,"current_range_meters":38400,"station_id":"ce4bhqp2rcd13ifvqhog","pricing_plan_id":"cebpf4jnsgd1na2vs0mg"},{"bike_id":"04567353-7fc9-47e4-a057-77a19d370ae4","system_id":"levelo_inurba_marseille","lat":43.25931,"lon":5.40907,"is_reserved":false,"is_disabled":false,"rental_uris":{"android":"levelo://app?vid=04567353-7fc9-47e4-a057-77a19d370ae4","ios":"levelo://app?vid=04567353-7fc9-47e4-a057-77a19d370ae4"},"vehicle_type_id":"4","last_reported":1733984103,"current_range_meters":32400,"station_id":"ce4bhm92rcd13ifvqglg","pricing_plan_id":"cebpf4jnsgd1na2vs0mg"},{"bike_id":"431a752f-4a31-43f6-ab6c-e0d9facde812","system_id":"levelo_inurba_marseille","lat":43.316826,"lon":5.404777,"is_reserved":false,"is_disabled":false,"rental_uris":{"android":"levelo://app?vid=431a752f-4a31-43f6-ab6c-e0d9facde812","ios":"levelo://app?vid=431a752f-4a31-43f6-ab6c-e0d9facde812"},"vehicle_type_id":"4","last_reported":1733984103,"current_range_meters":17600,"station_id":"ce4bh012rcd13ifvqd00","pricing_plan_id":"cebpf4jnsgd1na2vs0mg"},{"bike_id":"774e3e4e-9dca-4553-b7c2-8757073b0d7d","system_id":"levelo_inurba_marseille","lat":43.28103,"lon":5.37843,"is_reserved":false,"is_disabled":false,"rental_uris":{"android":"levelo://app?vid=774e3e4e-9dca-4553-b7c2-8757073b0d7d","ios":"levelo://app?vid=774e3e4e-9dca-4553-b7c2-8757073b0d7d"},"vehicle_type_id":"4","last_reported":1733984103,"current_range_meters":28400,"station_id":"ce4bha12rcd13ifvqee0","pricing_plan_id":"cebpf4jnsgd1na2vs0mg"},{"bike_id":"a66c4b95-337e-4b9a-950c-e8c8d8e7a3a1","system_id":"levelo_inurba_marseille","lat":43.324799,"lon":5.365716,"is_reserved":false,"is_disabled":true,"rental_uris":{"android":"levelo://app?vid=a66c4b95-337e-4b9a-950c-e8c8d8e7a3a1","ios":"levelo://app?vid=a66c4b95-337e-4b9a-950c-e8c8d8e7a3a1"},"vehicle_type_id":"4","last_reported":1733984103,"current_range_meters":0,"station_id":"","pricing_plan_id":"cebpf4jnsgd1na2vs0mg"},{"bike_id":"3e8bc289-f7e7-4a8a-a3f2-64a9bcfa1cf2","system_id":"levelo_inurba_marseille","lat":43.3361,"lon":5.41049,"is_reserved":false,"is_disabled":false,"rental_uris":{"android":"levelo://app?vid=3e8bc289-f7e7-4a8a-a3f2-64a9bcfa1cf2","ios":"levelo://app?vid=3e8bc289-f7e7-4a8a-a3f2-64a9bcfa1cf2"},"vehicle_type_id":"4","last_reported":1733984103,"current_range_meters":27600,"station_id":"ce4bhqh2rcd13ifvqhmg","pricing_plan_id":"cebpf4jnsgd1na2vs0mg"},{"bike_id":"fd68a44b-d7e7-4ac9-9f93-63b59e3318d2","system_id":"levelo_inurba_marseille","lat":43.33721,"lon":5.3918,"is_reserved":false,"is_disabled":false,"rental_uris":{"android":"levelo://app?vid=fd68a44b-d7e7-4ac9-9f93-63b59e3318d2","ios":"levelo://app?vid=fd68a44b-d7e7-4ac9-9f93-63b59e3318d2"},"vehicle_type_id":"4","last_reported":1733984103,"current_range_meters":38800,"station_id":"ce4bhr92rcd13ifvqhsg","pricing_plan_id":"cebpf4jnsgd1na2vs0mg"},{"bike_id":"321fd520-305a-4bff-ae40-2c4ccb7ccf74","system_id":"levelo_inurba_marseille","lat":43.2905,"lon":5.38185,"is_reserved":false,"is_disabled":true,"rental_uris":{"android":"levelo://app?vid=321fd520-305a-4bff-ae40-2c4ccb7ccf74","ios":"levelo://app?vid=321fd520-305a-4bff-ae40-2c4ccb7ccf74"},"vehicle_type_id":"4","last_reported":1733984103,"current_range_meters":38000,"station_id":"ce4bh4p2rcd13ifvqe1g","pricing_plan_id":"cebpf4jnsgd1na2vs0mg"},{"bike_id":"75bc53cd-099d-4532-9fce-83fc33d36897","system_id":"levelo_inurba_marseille","lat":43.24078,"lon":5.37751,"is_reserved":false,"is_disabled":false,"rental_uris":{"android":"levelo://app?vid=75bc53cd-099d-4532-9fce-83fc33d36897","ios":"levelo://app?vid=75bc53cd-099d-4532-9fce-83fc33d36897"},"vehicle_type_id":"4","last_reported":1733984103,"current_range_meters":14000,"station_id":"ce4bhnp2rcd13ifvqgvg","pricing_plan_id":"cebpf4jnsgd1na2vs0mg"},{"bike_id":"36c22a16-66d2-4f78-a6c0-ae41b756b49e","system_id":"levelo_inurba_marseille","lat":43.30976,"lon":5.39043,"is_reserved":false,"is_disabled":true,"rental_uris":{"android":"levelo://app?vid=36c22a16-66d2-4f78-a6c0-ae41b756b49e","ios":"levelo://app?vid=36c22a16-66d2-4f78-a6c0-ae41b756b49e"},"vehicle_type_id":"4","last_reported":1733984103,"current_range_meters":38800,"station_id":"ce4bgup2rcd13ifvqco0","pricing_plan_id":"cebpf4jnsgd1na2vs0mg"},{"bike_id":"a607fd84-3ef6-4d33-a3f4-7e19d6449a9a","system_id":"levelo_inurba_marseille","lat":43.30523,"lon":5.36727,"is_reserved":false,"is_disabled":false,"rental_uris":{"android":"levelo://app?vid=a607fd84-3ef6-4d33-a3f4-7e19d6449a9a","ios":"levelo://app?vid=a607fd84-3ef6-4d33-a3f4-7e19d6449a9a"},"vehicle_type_id":"4","last_reported":1733984103,"current_range_meters":19600,"station_id":"ce4bgrp2rcd13ifvqc9g","pricing_plan_id":"cebpf4jnsgd1na2vs0mg"},{"bike_id":"2175ae3c-739a-49a6-8b88-c695a996a497","system_id":"levelo_inurba_marseille","lat":43.24078,"lon":5.37737,"is_reserved":false,"is_disabled":true,"rental_uris":{"android":"levelo://app?vid=2175ae3c-739a-49a6-8b88-c695a996a497","ios":"levelo://app?vid=2175ae3c-739a-49a6-8b88-c695a996a497"},"vehicle_type_id":"4","last_reported":1733984103,"current_range_meters":32800,"station_id":"ce4bhnp2rcd13ifvqgvg","pricing_plan_id":"cebpf4jnsgd1na2vs0mg"},{"bike_id":"30b10b05-0727-4744-bd9d-dfe00d58e615","system_id":"levelo_inurba_marseille","lat":43.28719,"lon":5.39981,"is_reserved":false,"is_disabled":false,"rental_uris":{"android":"levelo://app?vid=30b10b05-0727-4744-bd9d-dfe00d58e615","ios":"levelo://app?vid=30b10b05-0727-4744-bd9d-dfe00d58e615"},"vehicle_type_id":"4","last_reported":1733984103,"current_range_meters":8000,"station_id":"ce4bho92rcd13ifvqh3g","pricing_plan_id":"cebpf4jnsgd1na2vs0mg"},{"bike_id":"8934cfd7-7a30-4578-9b27-97502688e616","system_id":"levelo_inurba_marseille","lat":43.32657,"lon":5.4099,"is_reserved":false,"is_disabled":false,"rental_uris":{"android":"levelo://app?vid=8934cfd7-7a30-4578-9b27-97502688e616","ios":"levelo://app?vid=8934cfd7-7a30-4578-9b27-97502688e616"},"vehicle_type_id":"4","last_reported":1733984103,"current_range_meters":37600,"station_id":"ce4bhpp2rcd13ifvqhgg","pricing_plan_id":"cebpf4jnsgd1na2vs0mg"},{"bike_id":"bbcff5ca-4212-4f97-ad4e-cc9f02df715c","system_id":"levelo_inurba_marseille","lat":43.231898,"lon":5.399915,"is_reserved":false,"is_disabled":false,"rental_uris":{"android":"levelo://app?vid=bbcff5ca-4212-4f97-ad4e-cc9f02df715c","ios":"levelo://app?vid=bbcff5ca-4212-4f97-ad4e-cc9f02df715c"},"vehicle_type_id":"4","last_reported":1733984103,"current_range_meters":38000,"station_id":"ce4bhn12rcd13ifvqgqg","pricing_plan_id":"cebpf4jnsgd1na2vs0mg"},{"bike_id":"024cb6ed-8905-461f-90e9-7b3f966b01d2","system_id":"levelo_inurba_marseille","lat":43.31278,"lon":5.40159,"is_reserved":false,"is_disabled":false,"rental_uris":{"android":"levelo://app?vid=024cb6ed-8905-461f-90e9-7b3f966b01d2","ios":"levelo://app?vid=024cb6ed-8905-461f-90e9-7b3f966b01d2"},"vehicle_type_id":"4","last_reported":1733984103,"current_range_meters":38800,"station_id":"ce4bh092rcd13ifvqd30","pricing_plan_id":"cebpf4jnsgd1na2vs0mg"},{"bike_id":"4da1084a-1985-4c35-a89f-61c7c892e3ad","system_id":"levelo_inurba_marseille","lat":43.28106,"lon":5.37837,"is_reserved":false,"is_disabled":false,"rental_uris":{"android":"levelo://app?vid=4da1084a-1985-4c35-a89f-61c7c892e3ad","ios":"levelo://app?vid=4da1084a-1985-4c35-a89f-61c7c892e3ad"},"vehicle_type_id":"4","last_reported":1733984103,"current_range_meters":22400,"station_id":"ce4bha12rcd13ifvqee0","pricing_plan_id":"cebpf4jnsgd1na2vs0mg"},{"bike_id":"94d24d12-981d-4c28-b9a7-c4bd686eb9f2","system_id":"levelo_inurba_marseille","lat":43.257,"lon":5.41066,"is_reserved":false,"is_disabled":false,"rental_uris":{"android":"levelo://app?vid=94d24d12-981d-4c28-b9a7-c4bd686eb9f2","ios":"levelo://app?vid=94d24d12-981d-4c28-b9a7-c4bd686eb9f2"},"vehicle_type_id":"4","last_reported":1733984103,"current_range_meters":39200,"station_id":"ce4bhkp2rcd13ifvqgd0","pricing_plan_id":"cebpf4jnsgd1na2vs0mg"},{"bike_id":"d036b19e-8df6-4187-a6d9-9a0849ac833c","system_id":"levelo_inurba_marseille","lat":43.28004,"lon":5.41677,"is_reserved":false,"is_disabled":false,"rental_uris":{"android":"levelo://app?vid=d036b19e-8df6-4187-a6d9-9a0849ac833c","ios":"levelo://app?vid=d036b19e-8df6-4187-a6d9-9a0849ac833c"},"vehicle_type_id":"4","last_reported":1733984103,"current_range_meters":27200,"station_id":"ce4bho12rcd13ifvqh1g","pricing_plan_id":"cebpf4jnsgd1na2vs0mg"},{"bike_id":"62dc3d6f-14e9-4572-8025-9eaf9b53e0fb","system_id":"levelo_inurba_marseille","lat":43.2861,"lon":5.3707,"is_reserved":false,"is_disabled":false,"rental_uris":{"android":"levelo://app?vid=62dc3d6f-14e9-4572-8025-9eaf9b53e0fb","ios":"levelo://app?vid=62dc3d6f-14e9-4572-8025-9eaf9b53e0fb"},"vehicle_type_id":"4","last_reported":1733984103,"current_range_meters":38800,"station_id":"ce4bht12rcd13ifvqi60","pricing_plan_id":"cebpf4jnsgd1na2vs0mg"},{"bike_id":"73a40bc8-7873-4e9c-8a0f-7db4996bc28c","system_id":"levelo_inurba_marseille","lat":43.27962,"lon":5.38721,"is_reserved":false,"is_disabled":false,"rental_uris":{"android":"levelo://app?vid=73a40bc8-7873-4e9c-8a0f-7db4996bc28c","ios":"levelo://app?vid=73a40bc8-7873-4e9c-8a0f-7db4996bc28c"},"vehicle_type_id":"4","last_reported":1733984103,"current_range_meters":26000,"station_id":"ce4bhg12rcd13ifvqf80","pricing_plan_id":"cebpf4jnsgd1na2vs0mg"},{"bike_id":"6ce0bc6a-f090-41e7-a895-4b31e4cde588","system_id":"levelo_inurba_marseille","lat":43.3127,"lon":5.40175,"is_reserved":false,"is_disabled":false,"rental_uris":{"android":"levelo://app?vid=6ce0bc6a-f090-41e7-a895-4b31e4cde588","ios":"levelo://app?vid=6ce0bc6a-f090-41e7-a895-4b31e4cde588"},"vehicle_type_id":"4","last_reported":1733984103,"current_range_meters":32000,"station_id":"ce4bh092rcd13ifvqd30","pricing_plan_id":"cebpf4jnsgd1na2vs0mg"},{"bike_id":"01a9ccc3-a625-4eee-b6cd-9dc053cb5ca0","system_id":"levelo_inurba_marseille","lat":43.28758,"lon":5.40014,"is_reserved":false,"is_disabled":false,"rental_uris":{"android":"levelo://app?vid=01a9ccc3-a625-4eee-b6cd-9dc053cb5ca0","ios":"levelo://app?vid=01a9ccc3-a625-4eee-b6cd-9dc053cb5ca0"},"vehicle_type_id":"4","last_reported":1733984103,"current_range_meters":28400,"station_id":"ce4bho92rcd13ifvqh3g","pricing_plan_id":"cebpf4jnsgd1na2vs0mg"},{"bike_id":"ab1c6a12-19ac-4afb-af5f-776c48efacd2","system_id":"levelo_inurba_marseille","lat":43.23211,"lon":5.35558,"is_reserved":false,"is_disabled":false,"rental_uris":{"android":"levelo://app?vid=ab1c6a12-19ac-4afb-af5f-776c48efacd2","ios":"levelo://app?vid=ab1c6a12-19ac-4afb-af5f-776c48efacd2"},"vehicle_type_id":"4","last_reported":1733984103,"current_range_meters":15200,"station_id":"ce4bhu92rcd13ifvqi70","pricing_plan_id":"cebpf4jnsgd1na2vs0mg"},{"bike_id":"ac09602b-8f45-470a-ac00-2f9a5e15457c","system_id":"levelo_inurba_marseille","lat":43.34138,"lon":5.40904,"is_reserved":false,"is_disabled":false,"rental_uris":{"android":"levelo://app?vid=ac09602b-8f45-470a-ac00-2f9a5e15457c","ios":"levelo://app?vid=ac09602b-8f45-470a-ac00-2f9a5e15457c"},"vehicle_type_id":"4","last_reported":1733984103,"current_range_meters":38800,"station_id":"ce4bhqh2rcd13ifvqhlg","pricing_plan_id":"cebpf4jnsgd1na2vs0mg"},{"bike_id":"d04735ce-ff35-4de8-964b-9e0752c67a51","system_id":"levelo_inurba_marseille","lat":43.2573,"lon":5.411,"is_reserved":false,"is_disabled":false,"rental_uris":{"android":"levelo://app?vid=d04735ce-ff35-4de8-964b-9e0752c67a51","ios":"levelo://app?vid=d04735ce-ff35-4de8-964b-9e0752c67a51"},"vehicle_type_id":"4","last_reported":1733984103,"current_range_meters":24400,"station_id":"ce4bhkp2rcd13ifvqgd0","pricing_plan_id":"cebpf4jnsgd1na2vs0mg"},{"bike_id":"034afd89-7884-46aa-947a-c5f301e52728","system_id":"levelo_inurba_marseille","lat":43.30892,"lon":5.396355,"is_reserved":false,"is_disabled":true,"rental_uris":{"android":"levelo://app?vid=034afd89-7884-46aa-947a-c5f301e52728","ios":"levelo://app?vid=034afd89-7884-46aa-947a-c5f301e52728"},"vehicle_type_id":"4","last_reported":1733984103,"current_range_meters":19200,"station_id":"ce4bh012rcd13ifvqcv0","pricing_plan_id":"cebpf4jnsgd1na2vs0mg"},{"bike_id":"2834884c-f0f4-4ce3-a7e8-0cc515ed9af5","system_id":"levelo_inurba_marseille","lat":43.25506,"lon":5.37653,"is_reserved":false,"is_disabled":false,"rental_uris":{"android":"levelo://app?vid=2834884c-f0f4-4ce3-a7e8-0cc515ed9af5","ios":"levelo://app?vid=2834884c-f0f4-4ce3-a7e8-0cc515ed9af5"},"vehicle_type_id":"4","last_reported":1733984103,"current_range_meters":37600,"station_id":"ce4bhh12rcd13ifvqff0","pricing_plan_id":"cebpf4jnsgd1na2vs0mg"},{"bike_id":"0136c087-0f02-4c4a-a4fb-4669232be547","system_id":"levelo_inurba_marseille","lat":43.29028,"lon":5.39973,"is_reserved":false,"is_disabled":false,"rental_uris":{"android":"levelo://app?vid=0136c087-0f02-4c4a-a4fb-4669232be547","ios":"levelo://app?vid=0136c087-0f02-4c4a-a4fb-4669232be547"},"vehicle_type_id":"4","last_reported":1733984103,"current_range_meters":38800,"station_id":"ce4bh392rcd13ifvqdm0","pricing_plan_id":"cebpf4jnsgd1na2vs0mg"},{"bike_id":"63128977-3866-4d15-8716-1acea914ac16","system_id":"levelo_inurba_marseille","lat":43.334747,"lon":5.410324,"is_reserved":false,"is_disabled":false,"rental_uris":{"android":"levelo://app?vid=63128977-3866-4d15-8716-1acea914ac16","ios":"levelo://app?vid=63128977-3866-4d15-8716-1acea914ac16"},"vehicle_type_id":"4","last_reported":1733984103,"current_range_meters":7200,"station_id":"","pricing_plan_id":"cebpf4jnsgd1na2vs0mg"},{"bike_id":"ef9c5f0a-5bc9-4c23-bd0f-ba27102c93b5","system_id":"levelo_inurba_marseille","lat":43.30438,"lon":5.38898,"is_reserved":false,"is_disabled":false,"rental_uris":{"android":"levelo://app?vid=ef9c5f0a-5bc9-4c23-bd0f-ba27102c93b5","ios":"levelo://app?vid=ef9c5f0a-5bc9-4c23-bd0f-ba27102c93b5"},"vehicle_type_id":"4","last_reported":1733984103,"current_range_meters":38800,"station_id":"ce4bgk12rcd13ifvqbi0","pricing_plan_id":"cebpf4jnsgd1na2vs0mg"},{"bike_id":"3125d0ae-884f-4a3e-823a-ed0e3cad176b","system_id":"levelo_inurba_marseille","lat":43.24389,"lon":5.37067,"is_reserved":false,"is_disabled":false,"rental_uris":{"android":"levelo://app?vid=3125d0ae-884f-4a3e-823a-ed0e3cad176b","ios":"levelo://app?vid=3125d0ae-884f-4a3e-823a-ed0e3cad176b"},"vehicle_type_id":"4","last_reported":1733984103,"current_range_meters":38400,"station_id":"ce4bhhh2rcd13ifvqfk0","pricing_plan_id":"cebpf4jnsgd1na2vs0mg"},{"bike_id":"ba5ab117-891f-4313-9f5f-feac44e18e28","system_id":"levelo_inurba_marseille","lat":43.30424,"lon":5.38881,"is_reserved":false,"is_disabled":false,"rental_uris":{"android":"levelo://app?vid=ba5ab117-891f-4313-9f5f-feac44e18e28","ios":"levelo://app?vid=ba5ab117-891f-4313-9f5f-feac44e18e28"},"vehicle_type_id":"4","last_reported":1733984103,"current_range_meters":36800,"station_id":"ce4bgk12rcd13ifvqbi0","pricing_plan_id":"cebpf4jnsgd1na2vs0mg"},{"bike_id":"1b9459f5-dcc2-4e43-84c1-999b14f8e0bb","system_id":"levelo_inurba_marseille","lat":43.25598,"lon":5.38241,"is_reserved":false,"is_disabled":false,"rental_uris":{"android":"levelo://app?vid=1b9459f5-dcc2-4e43-84c1-999b14f8e0bb","ios":"levelo://app?vid=1b9459f5-dcc2-4e43-84c1-999b14f8e0bb"},"vehicle_type_id":"4","last_reported":1733984103,"current_range_meters":15200,"station_id":"ce4bhih2rcd13ifvqfs0","pricing_plan_id":"cebpf4jnsgd1na2vs0mg"},{"bike_id":"83a5e861-8381-4dcd-8908-0469d605e9e7","system_id":"levelo_inurba_marseille","lat":43.28663,"lon":5.36353,"is_reserved":false,"is_disabled":false,"rental_uris":{"android":"levelo://app?vid=83a5e861-8381-4dcd-8908-0469d605e9e7","ios":"levelo://app?vid=83a5e861-8381-4dcd-8908-0469d605e9e7"},"vehicle_type_id":"4","last_reported":1733984103,"current_range_meters":38800,"station_id":"ce4bhah2rcd13ifvqej0","pricing_plan_id":"cebpf4jnsgd1na2vs0mg"},{"bike_id":"df063bd4-f815-47f5-aa4b-21b60e1c746b","system_id":"levelo_inurba_marseille","lat":43.29289,"lon":5.40083,"is_reserved":false,"is_disabled":false,"rental_uris":{"android":"levelo://app?vid=df063bd4-f815-47f5-aa4b-21b60e1c746b","ios":"levelo://app?vid=df063bd4-f815-47f5-aa4b-21b60e1c746b"},"vehicle_type_id":"4","last_reported":1733984103,"current_range_meters":14800,"station_id":"ce4bh312rcd13ifvqdk0","pricing_plan_id":"cebpf4jnsgd1na2vs0mg"},{"bike_id":"2adc54f0-fe74-49f4-933f-cc1749edd34b","system_id":"levelo_inurba_marseille","lat":43.2731,"lon":5.39105,"is_reserved":false,"is_disabled":false,"rental_uris":{"android":"levelo://app?vid=2adc54f0-fe74-49f4-933f-cc1749edd34b","ios":"levelo://app?vid=2adc54f0-fe74-49f4-933f-cc1749edd34b"},"vehicle_type_id":"4","last_reported":1733984103,"current_range_meters":36400,"station_id":"ce4bhgp2rcd13ifvqfe0","pricing_plan_id":"cebpf4jnsgd1na2vs0mg"},{"bike_id":"2f7bf449-ad8b-4cdd-a6eb-fe88029c18ba","system_id":"levelo_inurba_marseille","lat":43.28938,"lon":5.39628,"is_reserved":false,"is_disabled":false,"rental_uris":{"android":"levelo://app?vid=2f7bf449-ad8b-4cdd-a6eb-fe88029c18ba","ios":"levelo://app?vid=2f7bf449-ad8b-4cdd-a6eb-fe88029c18ba"},"vehicle_type_id":"4","last_reported":1733984103,"current_range_meters":38000,"station_id":"ce4bh3h2rcd13ifvqdn0","pricing_plan_id":"cebpf4jnsgd1na2vs0mg"},{"bike_id":"e8fb8f0f-fc51-4928-929a-76364f1920ab","system_id":"levelo_inurba_marseille","lat":43.28712,"lon":5.40003,"is_reserved":false,"is_disabled":false,"rental_uris":{"android":"levelo://app?vid=e8fb8f0f-fc51-4928-929a-76364f1920ab","ios":"levelo://app?vid=e8fb8f0f-fc51-4928-929a-76364f1920ab"},"vehicle_type_id":"4","last_reported":1733984103,"current_range_meters":38800,"station_id":"ce4bho92rcd13ifvqh3g","pricing_plan_id":"cebpf4jnsgd1na2vs0mg"},{"bike_id":"1ac9278a-3e01-4769-b034-ba34b3377894","system_id":"levelo_inurba_marseille","lat":43.30931,"lon":5.40156,"is_reserved":false,"is_disabled":false,"rental_uris":{"android":"levelo://app?vid=1ac9278a-3e01-4769-b034-ba34b3377894","ios":"levelo://app?vid=1ac9278a-3e01-4769-b034-ba34b3377894"},"vehicle_type_id":"4","last_reported":1733984103,"current_range_meters":17600,"station_id":"ce4bgvp2rcd13ifvqct0","pricing_plan_id":"cebpf4jnsgd1na2vs0mg"},{"bike_id":"d5e07fae-4b02-4e86-af7a-89af47e535c5","system_id":"levelo_inurba_marseille","lat":43.29606,"lon":5.37721,"is_reserved":false,"is_disabled":true,"rental_uris":{"android":"levelo://app?vid=d5e07fae-4b02-4e86-af7a-89af47e535c5","ios":"levelo://app?vid=d5e07fae-4b02-4e86-af7a-89af47e535c5"},"vehicle_type_id":"4","last_reported":1733984103,"current_range_meters":7200,"station_id":"ce4bgi92rcd13ifvqb90","pricing_plan_id":"cebpf4jnsgd1na2vs0mg"},{"bike_id":"3d3cc1fc-0629-437a-a117-76049fee6dbb","system_id":"levelo_inurba_marseille","lat":43.32321,"lon":5.40624,"is_reserved":false,"is_disabled":false,"rental_uris":{"android":"levelo://app?vid=3d3cc1fc-0629-437a-a117-76049fee6dbb","ios":"levelo://app?vid=3d3cc1fc-0629-437a-a117-76049fee6dbb"},"vehicle_type_id":"4","last_reported":1733984103,"current_range_meters":38800,"station_id":"ce4bhq92rcd13ifvqhjg","pricing_plan_id":"cebpf4jnsgd1na2vs0mg"},{"bike_id":"6bdee74d-e5c2-42e5-a6fd-8f401afd7419","system_id":"levelo_inurba_marseille","lat":43.2439,"lon":5.37066,"is_reserved":false,"is_disabled":false,"rental_uris":{"android":"levelo://app?vid=6bdee74d-e5c2-42e5-a6fd-8f401afd7419","ios":"levelo://app?vid=6bdee74d-e5c2-42e5-a6fd-8f401afd7419"},"vehicle_type_id":"4","last_reported":1733984103,"current_range_meters":12400,"station_id":"ce4bhhh2rcd13ifvqfk0","pricing_plan_id":"cebpf4jnsgd1na2vs0mg"},{"bike_id":"38c1f477-54b0-487d-9e9c-970db0f0bad4","system_id":"levelo_inurba_marseille","lat":43.25496,"lon":5.37654,"is_reserved":false,"is_disabled":true,"rental_uris":{"android":"levelo://app?vid=38c1f477-54b0-487d-9e9c-970db0f0bad4","ios":"levelo://app?vid=38c1f477-54b0-487d-9e9c-970db0f0bad4"},"vehicle_type_id":"4","last_reported":1733984103,"current_range_meters":0,"station_id":"ce4bhh12rcd13ifvqff0","pricing_plan_id":"cebpf4jnsgd1na2vs0mg"},{"bike_id":"6bdf579b-7880-46cb-8b72-768423e19e56","system_id":"levelo_inurba_marseille","lat":43.30888,"lon":5.39634,"is_reserved":false,"is_disabled":false,"rental_uris":{"android":"levelo://app?vid=6bdf579b-7880-46cb-8b72-768423e19e56","ios":"levelo://app?vid=6bdf579b-7880-46cb-8b72-768423e19e56"},"vehicle_type_id":"4","last_reported":1733984103,"current_range_meters":11200,"station_id":"ce4bh012rcd13ifvqcv0","pricing_plan_id":"cebpf4jnsgd1na2vs0mg"},{"bike_id":"aeee7448-02e6-45b0-b0ac-d55c99806503","system_id":"levelo_inurba_marseille","lat":43.25577,"lon":5.38245,"is_reserved":false,"is_disabled":true,"rental_uris":{"android":"levelo://app?vid=aeee7448-02e6-45b0-b0ac-d55c99806503","ios":"levelo://app?vid=aeee7448-02e6-45b0-b0ac-d55c99806503"},"vehicle_type_id":"4","last_reported":1733984103,"current_range_meters":4000,"station_id":"ce4bhih2rcd13ifvqfs0","pricing_plan_id":"cebpf4jnsgd1na2vs0mg"},{"bike_id":"aed8761d-d1b1-48ba-92b0-e6e4d35ad49f","system_id":"levelo_inurba_marseille","lat":43.24165,"lon":5.39746,"is_reserved":false,"is_disabled":false,"rental_uris":{"android":"levelo://app?vid=aed8761d-d1b1-48ba-92b0-e6e4d35ad49f","ios":"levelo://app?vid=aed8761d-d1b1-48ba-92b0-e6e4d35ad49f"},"vehicle_type_id":"4","last_reported":1733984103,"current_range_meters":39200,"station_id":"ce4bhn12rcd13ifvqgpg","pricing_plan_id":"cebpf4jnsgd1na2vs0mg"},{"bike_id":"fc434179-c2b4-4ef3-8bd2-18bf25c73820","system_id":"levelo_inurba_marseille","lat":43.31184,"lon":5.3872,"is_reserved":false,"is_disabled":false,"rental_uris":{"android":"levelo://app?vid=fc434179-c2b4-4ef3-8bd2-18bf25c73820","ios":"levelo://app?vid=fc434179-c2b4-4ef3-8bd2-18bf25c73820"},"vehicle_type_id":"4","last_reported":1733984103,"current_range_meters":36400,"station_id":"ce4bgv12rcd13ifvqcp0","pricing_plan_id":"cebpf4jnsgd1na2vs0mg"},{"bike_id":"73e52565-14ba-4d22-9fb3-e7b0582aeb4c","system_id":"levelo_inurba_marseille","lat":43.30519,"lon":5.38444,"is_reserved":false,"is_disabled":false,"rental_uris":{"android":"levelo://app?vid=73e52565-14ba-4d22-9fb3-e7b0582aeb4c","ios":"levelo://app?vid=73e52565-14ba-4d22-9fb3-e7b0582aeb4c"},"vehicle_type_id":"4","last_reported":1733984103,"current_range_meters":37600,"station_id":"ce4bgg92rcd13ifvqb30","pricing_plan_id":"cebpf4jnsgd1na2vs0mg"},{"bike_id":"4db7e0d6-6514-428b-ac33-5c4fac5050f0","system_id":"levelo_inurba_marseille","lat":43.30545,"lon":5.36742,"is_reserved":false,"is_disabled":false,"rental_uris":{"android":"levelo://app?vid=4db7e0d6-6514-428b-ac33-5c4fac5050f0","ios":"levelo://app?vid=4db7e0d6-6514-428b-ac33-5c4fac5050f0"},"vehicle_type_id":"4","last_reported":1733984103,"current_range_meters":24400,"station_id":"ce4bgrp2rcd13ifvqc9g","pricing_plan_id":"cebpf4jnsgd1na2vs0mg"},{"bike_id":"b6fc7948-3572-4bbd-9bef-5e4be43c8661","system_id":"levelo_inurba_marseille","lat":43.285675,"lon":5.394994,"is_reserved":false,"is_disabled":false,"rental_uris":{"android":"levelo://app?vid=b6fc7948-3572-4bbd-9bef-5e4be43c8661","ios":"levelo://app?vid=b6fc7948-3572-4bbd-9bef-5e4be43c8661"},"vehicle_type_id":"4","last_reported":1733984103,"current_range_meters":34000,"station_id":"ce4bh292rcd13ifvqdg0","pricing_plan_id":"cebpf4jnsgd1na2vs0mg"},{"bike_id":"23c74843-ac34-4d55-ae3d-bd90fa93fff4","system_id":"levelo_inurba_marseille","lat":43.28252,"lon":5.35082,"is_reserved":false,"is_disabled":false,"rental_uris":{"android":"levelo://app?vid=23c74843-ac34-4d55-ae3d-bd90fa93fff4","ios":"levelo://app?vid=23c74843-ac34-4d55-ae3d-bd90fa93fff4"},"vehicle_type_id":"4","last_reported":1733984103,"current_range_meters":9200,"station_id":"ce4bhbp2rcd13ifvqerg","pricing_plan_id":"cebpf4jnsgd1na2vs0mg"},{"bike_id":"3b58220a-25f8-48eb-b647-f6f0ede5a9e3","system_id":"levelo_inurba_marseille","lat":43.27981,"lon":5.41674,"is_reserved":false,"is_disabled":false,"rental_uris":{"android":"levelo://app?vid=3b58220a-25f8-48eb-b647-f6f0ede5a9e3","ios":"levelo://app?vid=3b58220a-25f8-48eb-b647-f6f0ede5a9e3"},"vehicle_type_id":"4","last_reported":1733984103,"current_range_meters":22800,"station_id":"ce4bho12rcd13ifvqh1g","pricing_plan_id":"cebpf4jnsgd1na2vs0mg"},{"bike_id":"64a6efea-3d8d-4a39-8e3f-d4afdd90970d","system_id":"levelo_inurba_marseille","lat":43.24802,"lon":5.37452,"is_reserved":false,"is_disabled":false,"rental_uris":{"android":"levelo://app?vid=64a6efea-3d8d-4a39-8e3f-d4afdd90970d","ios":"levelo://app?vid=64a6efea-3d8d-4a39-8e3f-d4afdd90970d"},"vehicle_type_id":"4","last_reported":1733984103,"current_range_meters":38400,"station_id":"ce4bhgh2rcd13ifvqfb0","pricing_plan_id":"cebpf4jnsgd1na2vs0mg"},{"bike_id":"467a8ed9-8f9d-4f9c-a7a2-b2a4bc21bd4a","system_id":"levelo_inurba_marseille","lat":43.24663,"lon":5.38897,"is_reserved":false,"is_disabled":false,"rental_uris":{"android":"levelo://app?vid=467a8ed9-8f9d-4f9c-a7a2-b2a4bc21bd4a","ios":"levelo://app?vid=467a8ed9-8f9d-4f9c-a7a2-b2a4bc21bd4a"},"vehicle_type_id":"4","last_reported":1733984103,"current_range_meters":36800,"station_id":"ce4bhg12rcd13ifvqf60","pricing_plan_id":"cebpf4jnsgd1na2vs0mg"},{"bike_id":"16492b5b-37d8-452f-8923-009b71c8397d","system_id":"levelo_inurba_marseille","lat":43.25577,"lon":5.38243,"is_reserved":false,"is_disabled":false,"rental_uris":{"android":"levelo://app?vid=16492b5b-37d8-452f-8923-009b71c8397d","ios":"levelo://app?vid=16492b5b-37d8-452f-8923-009b71c8397d"},"vehicle_type_id":"4","last_reported":1733984103,"current_range_meters":27600,"station_id":"ce4bhih2rcd13ifvqfs0","pricing_plan_id":"cebpf4jnsgd1na2vs0mg"},{"bike_id":"33099d93-ce10-45ff-bd7c-95104a3498a9","system_id":"levelo_inurba_marseille","lat":43.27994,"lon":5.41667,"is_reserved":false,"is_disabled":false,"rental_uris":{"android":"levelo://app?vid=33099d93-ce10-45ff-bd7c-95104a3498a9","ios":"levelo://app?vid=33099d93-ce10-45ff-bd7c-95104a3498a9"},"vehicle_type_id":"4","last_reported":1733984103,"current_range_meters":36800,"station_id":"ce4bho12rcd13ifvqh1g","pricing_plan_id":"cebpf4jnsgd1na2vs0mg"},{"bike_id":"4d9975b2-8caf-4dfe-9202-9f11fbd0b727","system_id":"levelo_inurba_marseille","lat":43.29522,"lon":5.37501,"is_reserved":false,"is_disabled":true,"rental_uris":{"android":"levelo://app?vid=4d9975b2-8caf-4dfe-9202-9f11fbd0b727","ios":"levelo://app?vid=4d9975b2-8caf-4dfe-9202-9f11fbd0b727"},"vehicle_type_id":"4","last_reported":1733984103,"current_range_meters":18000,"station_id":"ce4bgkp2rcd13ifvqbmg","pricing_plan_id":"cebpf4jnsgd1na2vs0mg"},{"bike_id":"a5589391-a7e4-412b-9a87-f917b2322580","system_id":"levelo_inurba_marseille","lat":43.23074,"lon":5.35501,"is_reserved":false,"is_disabled":false,"rental_uris":{"android":"levelo://app?vid=a5589391-a7e4-412b-9a87-f917b2322580","ios":"levelo://app?vid=a5589391-a7e4-412b-9a87-f917b2322580"},"vehicle_type_id":"4","last_reported":1733984103,"current_range_meters":16000,"station_id":"cpo3342slgdg3j2ifvpg","pricing_plan_id":"cebpf4jnsgd1na2vs0mg"},{"bike_id":"3e8e43ef-e426-4eb0-a4d7-3859a0f0b46a","system_id":"levelo_inurba_marseille","lat":43.27606,"lon":5.36117,"is_reserved":false,"is_disabled":false,"rental_uris":{"android":"levelo://app?vid=3e8e43ef-e426-4eb0-a4d7-3859a0f0b46a","ios":"levelo://app?vid=3e8e43ef-e426-4eb0-a4d7-3859a0f0b46a"},"vehicle_type_id":"4","last_reported":1733984103,"current_range_meters":6000,"station_id":"ce4bgj92rcd13ifvqbe0","pricing_plan_id":"cebpf4jnsgd1na2vs0mg"},{"bike_id":"9ec434bf-ed24-40e8-a1ba-464c29049ca6","system_id":"levelo_inurba_marseille","lat":43.31373,"lon":5.38512,"is_reserved":false,"is_disabled":false,"rental_uris":{"android":"levelo://app?vid=9ec434bf-ed24-40e8-a1ba-464c29049ca6","ios":"levelo://app?vid=9ec434bf-ed24-40e8-a1ba-464c29049ca6"},"vehicle_type_id":"4","last_reported":1733984103,"current_range_meters":30000,"station_id":"ce4bgt92rcd13ifvqcf0","pricing_plan_id":"cebpf4jnsgd1na2vs0mg"},{"bike_id":"5d45934d-d05c-4f24-8f37-3eea3f951ebe","system_id":"levelo_inurba_marseille","lat":43.30541,"lon":5.40509,"is_reserved":false,"is_disabled":false,"rental_uris":{"android":"levelo://app?vid=5d45934d-d05c-4f24-8f37-3eea3f951ebe","ios":"levelo://app?vid=5d45934d-d05c-4f24-8f37-3eea3f951ebe"},"vehicle_type_id":"4","last_reported":1733984103,"current_range_meters":28400,"station_id":"","pricing_plan_id":"cebpf4jnsgd1na2vs0mg"},{"bike_id":"146c18c0-2d54-4c53-8578-b97326fbb246","system_id":"levelo_inurba_marseille","lat":43.32489,"lon":5.36583,"is_reserved":false,"is_disabled":false,"rental_uris":{"android":"levelo://app?vid=146c18c0-2d54-4c53-8578-b97326fbb246","ios":"levelo://app?vid=146c18c0-2d54-4c53-8578-b97326fbb246"},"vehicle_type_id":"4","last_reported":1733984103,"current_range_meters":39200,"station_id":"ce4bhs12rcd13ifvqhvg","pricing_plan_id":"cebpf4jnsgd1na2vs0mg"},{"bike_id":"eb73ff74-a0a2-4501-b2f9-ea363ee16409","system_id":"levelo_inurba_marseille","lat":43.29188,"lon":5.35815,"is_reserved":false,"is_disabled":false,"rental_uris":{"android":"levelo://app?vid=eb73ff74-a0a2-4501-b2f9-ea363ee16409","ios":"levelo://app?vid=eb73ff74-a0a2-4501-b2f9-ea363ee16409"},"vehicle_type_id":"4","last_reported":1733984103,"current_range_meters":38800,"station_id":"ce4bhb12rcd13ifvqel0","pricing_plan_id":"cebpf4jnsgd1na2vs0mg"},{"bike_id":"837ea001-3dca-43b1-bf44-3c63cdc8ec4f","system_id":"levelo_inurba_marseille","lat":43.24081,"lon":5.3776,"is_reserved":false,"is_disabled":false,"rental_uris":{"android":"levelo://app?vid=837ea001-3dca-43b1-bf44-3c63cdc8ec4f","ios":"levelo://app?vid=837ea001-3dca-43b1-bf44-3c63cdc8ec4f"},