{"last_updated":1745155081,"ttl":60,"version":"2.2","data":{"bikes":[{"bike_id":"942be465-b5e8-4eba-9ebc-062be7e1a0c4","system_id":"levelo_inurba_marseille","lat":43.286177,"lon":5.35105,"is_reserved":false,"is_disabled":true,"rental_uris":{"android":"levelo://app?vid=942be465-b5e8-4eba-9ebc-062be7e1a0c4","ios":"levelo://app?vid=942be465-b5e8-4eba-9ebc-062be7e1a0c4"},"vehicle_type_id":"4","last_reported":1745155081,"current_range_meters":2800,"station_id":"ce4bhch2rcd13ifvqeug","pricing_plan_id":"cebpf4jnsgd1na2vs0mg"},{"bike_id":"f009b47e-0755-4248-b466-f85fa5eb4e68","system_id":"levelo_inurba_marseille","lat":43.33028,"lon":5.39029,"is_reserved":false,"is_disabled":false,"rental_uris":{"android":"levelo://app?vid=f009b47e-0755-4248-b466-f85fa5eb4e68","ios":"levelo://app?vid=f009b47e-0755-4248-b466-f85fa5eb4e68"},"vehicle_type_id":"4","last_reported":1745155081,"current_range_meters":2800,"station_id":"ce4bhr92rcd13ifvqhrg","pricing_plan_id":"cebpf4jnsgd1na2vs0mg"},{"bike_id":"276d94a9-b91a-47b5-b4e8-19ed1fdcca68","system_id":"levelo_inurba_marseille","lat":43.29548,"lon":5.42271,"is_reserved":false,"is_disabled":true,"rental_uris":{"android":"levelo://app?vid=276d94a9-b91a-47b5-b4e8-19ed1fdcca68","ios":"levelo://app?vid=276d94a9-b91a-47b5-b4e8-19ed1fdcca68"},"vehicle_type_id":"4","last_reported":1745155081,"current_range_meters":2800,"station_id":"ce4bhph2rcd13ifvqhdg","pricing_plan_id":"cebpf4jnsgd1na2vs0mg"},{"bike_id":"c6eca431-fa89-4886-8be9-4e926e2ebca2","system_id":"levelo_inurba_marseille","lat":43.21749,"lon":5.34598,"is_reserved":false,"is_disabled":false,"rental_uris":{"android":"levelo://app?vid=c6eca431-fa89-4886-8be9-4e926e2ebca2","ios":"levelo://app?vid=c6eca431-fa89-4886-8be9-4e926e2ebca2"},"vehicle_type_id":"4","last_reported":1745155081,"current_range_meters":2800,"station_id":"st_cvj6r9ubvosntc0bgbag","pricing_plan_id":"cebpf4jnsgd1na2vs0mg"},{"bike_id":"a6a59253-9318-4945-93ec-91c6177478ea","system_id":"levelo_inurba_marseille","lat":43.211895,"lon":5.350725,"is_reserved":false,"is_disabled":false,"rental_uris":{"android":"levelo://app?vid=a6a59253-9318-4945-93ec-91c6177478ea","ios":"levelo://app?vid=a6a59253-9318-4945-93ec-91c6177478ea"},"vehicle_type_id":"4","last_reported":1745155081,"current_range_meters":2800,"station_id":"st_cvj6sg6p6f1abm77japg","pricing_plan_id":"cebpf4jnsgd1na2vs0mg"},{"bike_id":"a6166cf7-b1a3-4a61-a1d1-3552b005e308","system_id":"levelo_inurba_marseille","lat":43.23148,"lon":5.43711,"is_reserved":false,"is_disabled":false,"rental_uris":{"android":"levelo://app?vid=a6166cf7-b1a3-4a61-a1d1-3552b005e308","ios":"levelo://app?vid=a6166cf7-b1a3-4a61-a1d1-3552b005e308"},"vehicle_type_id":"4","last_reported":1745155081,"current_range_meters":2800,"station_id":"ce4bhmp2rcd13ifvqgog","pricing_plan_id":"cebpf4jnsgd1na2vs0mg"},{"bike_id":"c42c97dc-851b-476d-ba23-67d0582febc0","system_id":"levelo_inurba_marseille","lat":43.3032,"lon":5.40437,"is_reserved":false,"is_disabled":true,"rental_uris":{"android":"levelo://app?vid=c42c97dc-851b-476d-ba23-67d0582febc0","ios":"levelo://app?vid=c42c97dc-851b-476d-ba23-67d0582febc0"},"vehicle_type_id":"4","last_reported":1745155081,"current_range_meters":3200,"station_id":"ce4bh012rcd13ifvqd10","pricing_plan_id":"cebpf4jnsgd1na2vs0mg"},{"bike_id":"19ada103-4cbd-4062-a809-34f5987a7a6d","system_id":"levelo_inurba_marseille","lat":43.26806,"lon":5.38901,"is_reserved":false,"is_disabled":false,"rental_uris":{"android":"levelo://app?vid=19ada103-4cbd-4062-a809-34f5987a7a6d","ios":"levelo://app?vid=19ada103-4cbd-4062-a809-34f5987a7a6d"},"vehicle_type_id":"4","last_reported":1745155081,"current_range_meters":3200,"station_id":"","pricing_plan_id":"cebpf4jnsgd1na2vs0mg"},{"bike_id":"4a86d0f8-ff65-4446-9521-1002867a3da0","system_id":"levelo_inurba_marseille","lat":43.245346,"lon":5.395166,"is_reserved":false,"is_disabled":true,"rental_uris":{"android":"levelo://app?vid=4a86d0f8-ff65-4446-9521-1002867a3da0","ios":"levelo://app?vid=4a86d0f8-ff65-4446-9521-1002867a3da0"},"vehicle_type_id":"4","last_reported":1745155081,"current_range_meters":3200,"station_id":"ce4bhlp2rcd13ifvqgjg","pricing_plan_id":"cebpf4jnsgd1na2vs0mg"},{"bike_id":"448ee928-9c64-409d-a14f-a917d05204a9","system_id":"levelo_inurba_marseille","lat":43.33603,"lon":5.4103,"is_reserved":false,"is_disabled":false,"rental_uris":{"android":"levelo://app?vid=448ee928-9c64-409d-a14f-a917d05204a9","ios":"levelo://app?vid=448ee928-9c64-409d-a14f-a917d05204a9"},"vehicle_type_id":"4","last_reported":1745155081,"current_range_meters":3200,"station_id":"ce4bhqh2rcd13ifvqhmg","pricing_plan_id":"cebpf4jnsgd1na2vs0mg"},{"bike_id":"e171a640-ead7-4a7f-8899-eda6877bb6d8","system_id":"levelo_inurba_marseille","lat":43.27996,"lon":5.40015,"is_reserved":false,"is_disabled":false,"rental_uris":{"android":"levelo://app?vid=e171a640-ead7-4a7f-8899-eda6877bb6d8","ios":"levelo://app?vid=e171a640-ead7-4a7f-8899-eda6877bb6d8"},"vehicle_type_id":"4","last_reported":1745155081,"current_range_meters":3200,"station_id":"ce4bho92rcd13ifvqh4g","pricing_plan_id":"cebpf4jnsgd1na2vs0mg"},{"bike_id":"cfdac0e2-4252-40a2-853c-7a66d0aa939c","system_id":"levelo_inurba_marseille","lat":43.29025,"lon":5.38643,"is_reserved":false,"is_disabled":false,"rental_uris":{"android":"levelo://app?vid=cfdac0e2-4252-40a2-853c-7a66d0aa939c","ios":"levelo://app?vid=cfdac0e2-4252-40a2-853c-7a66d0aa939c"},"vehicle_type_id":"4","last_reported":1745155081,"current_range_meters":3200,"station_id":"ce4bh4p2rcd13ifvqe0g","pricing_plan_id":"cebpf4jnsgd1na2vs0mg"},{"bike_id":"45bf5733-342f-4ac4-80a4-ad2640aded4c","system_id":"levelo_inurba_marseille","lat":43.2175,"lon":5.346,"is_reserved":false,"is_disabled":false,"rental_uris":{"android":"levelo://app?vid=45bf5733-342f-4ac4-80a4-ad2640aded4c","ios":"levelo://app?vid=45bf5733-342f-4ac4-80a4-ad2640aded4c"},"vehicle_type_id":"4","last_reported":1745155081,"current_range_meters":3600,"station_id":"st_cvj6r9ubvosntc0bgbag","pricing_plan_id":"cebpf4jnsgd1na2vs0mg"},{"bike_id":"4cdb0a0f-6366-43af-85c7-3c43d75a4386","system_id":"levelo_inurba_marseille","lat":43.31787,"lon":5.36787,"is_reserved":false,"is_disabled":false,"rental_uris":{"android":"levelo://app?vid=4cdb0a0f-6366-43af-85c7-3c43d75a4386","ios":"levelo://app?vid=4cdb0a0f-6366-43af-85c7-3c43d75a4386"},"vehicle_type_id":"4","last_reported":1745155081,"current_range_meters":3600,"station_id":"","pricing_plan_id":"cebpf4jnsgd1na2vs0mg"},{"bike_id":"8d015a2b-4362-4be4-a9f6-efc44718a61d","system_id":"levelo_inurba_marseille","lat":43.27367,"lon":5.36261,"is_reserved":false,"is_disabled":false,"rental_uris":{"android":"levelo://app?vid=8d015a2b-4362-4be4-a9f6-efc44718a61d","ios":"levelo://app?vid=8d015a2b-4362-4be4-a9f6-efc44718a61d"},"vehicle_type_id":"4","last_reported":1745155081,"current_range_meters":4000,"station_id":"ce4bhbh2rcd13ifvqeo0","pricing_plan_id":"cebpf4jnsgd1na2vs0mg"},{"bike_id":"89db4bec-fc3b-49dd-bb10-3f07fa11cc00","system_id":"levelo_inurba_marseille","lat":43.25729,"lon":5.41103,"is_reserved":false,"is_disabled":false,"rental_uris":{"android":"levelo://app?vid=89db4bec-fc3b-49dd-bb10-3f07fa11cc00","ios":"levelo://app?vid=89db4bec-fc3b-49dd-bb10-3f07fa11cc00"},"vehicle_type_id":"4","last_reported":1745155081,"current_range_meters":4000,"station_id":"ce4bhkp2rcd13ifvqgd0","pricing_plan_id":"cebpf4jnsgd1na2vs0mg"},{"bike_id":"066f1a3f-2f55-42ac-aa57-b561bb82f13e","system_id":"levelo_inurba_marseille","lat":43.30844,"lon":5.37335,"is_reserved":false,"is_disabled":false,"rental_uris":{"android":"levelo://app?vid=066f1a3f-2f55-42ac-aa57-b561bb82f13e","ios":"levelo://app?vid=066f1a3f-2f55-42ac-aa57-b561bb82f13e"},"vehicle_type_id":"4","last_reported":1745155081,"current_range_meters":4000,"station_id":"","pricing_plan_id":"cebpf4jnsgd1na2vs0mg"},{"bike_id":"e3224750-ec92-4cd9-8d8b-c70fc45f9081","system_id":"levelo_inurba_marseille","lat":43.25583,"lon":5.38228,"is_reserved":false,"is_disabled":false,"rental_uris":{"android":"levelo://app?vid=e3224750-ec92-4cd9-8d8b-c70fc45f9081","ios":"levelo://app?vid=e3224750-ec92-4cd9-8d8b-c70fc45f9081"},"vehicle_type_id":"4","last_reported":1745155081,"current_range_meters":4000,"station_id":"ce4bhih2rcd13ifvqfs0","pricing_plan_id":"cebpf4jnsgd1na2vs0mg"},{"bike_id":"243d6584-022c-4625-87c4-c47eadd76ff8","system_id":"levelo_inurba_marseille","lat":43.292891,"lon":5.379964,"is_reserved":false,"is_disabled":false,"rental_uris":{"android":"levelo://app?vid=243d6584-022c-4625-87c4-c47eadd76ff8","ios":"levelo://app?vid=243d6584-022c-4625-87c4-c47eadd76ff8"},"vehicle_type_id":"4","last_reported":1745155081,"current_range_meters":3600,"station_id":"ce4bgpp2rcd13ifvqc3g","pricing_plan_id":"cebpf4jnsgd1na2vs0mg"},{"bike_id":"adb9b1d3-c52f-41fe-aeaf-42a351a9d531","system_id":"levelo_inurba_marseille","lat":43.286654,"lon":5.386818,"is_reserved":false,"is_disabled":false,"rental_uris":{"android":"levelo://app?vid=adb9b1d3-c52f-41fe-aeaf-42a351a9d531","ios":"levelo://app?vid=adb9b1d3-c52f-41fe-aeaf-42a351a9d531"},"vehicle_type_id":"4","last_reported":1745155081,"current_range_meters":4000,"station_id":"ce4bh492rcd13ifvqdug","pricing_plan_id":"cebpf4jnsgd1na2vs0mg"},{"bike_id":"a0ddb0a5-f7f0-4281-aa27-9e82747cc573","system_id":"levelo_inurba_marseille","lat":43.33754,"lon":5.37491,"is_reserved":false,"is_disabled":false,"rental_uris":{"android":"levelo://app?vid=a0ddb0a5-f7f0-4281-aa27-9e82747cc573","ios":"levelo://app?vid=a0ddb0a5-f7f0-4281-aa27-9e82747cc573"},"vehicle_type_id":"4","last_reported":1745155081,"current_range_meters":4000,"station_id":"","pricing_plan_id":"cebpf4jnsgd1na2vs0mg"},{"bike_id":"9fe8c14c-2d24-41b2-9662-956cdf9f075c","system_id":"levelo_inurba_marseille","lat":43.2447,"lon":5.36925,"is_reserved":false,"is_disabled":false,"rental_uris":{"android":"levelo://app?vid=9fe8c14c-2d24-41b2-9662-956cdf9f075c","ios":"levelo://app?vid=9fe8c14c-2d24-41b2-9662-956cdf9f075c"},"vehicle_type_id":"4","last_reported":1745155081,"current_range_meters":4400,"station_id":"","pricing_plan_id":"cebpf4jnsgd1na2vs0mg"},{"bike_id":"d34dfdc8-bed0-4933-941f-a98db5f026c4","system_id":"levelo_inurba_marseille","lat":43.217477,"lon":5.346021,"is_reserved":false,"is_disabled":false,"rental_uris":{"android":"levelo://app?vid=d34dfdc8-bed0-4933-941f-a98db5f026c4","ios":"levelo://app?vid=d34dfdc8-bed0-4933-941f-a98db5f026c4"},"vehicle_type_id":"4","last_reported":1745155081,"current_range_meters":4400,"station_id":"st_cvj6r9ubvosntc0bgbag","pricing_plan_id":"cebpf4jnsgd1na2vs0mg"},{"bike_id":"6accaa12-1d48-4656-b35c-9fb753810fff","system_id":"levelo_inurba_marseille","lat":43.23196,"lon":5.35538,"is_reserved":false,"is_disabled":true,"rental_uris":{"android":"levelo://app?vid=6accaa12-1d48-4656-b35c-9fb753810fff","ios":"levelo://app?vid=6accaa12-1d48-4656-b35c-9fb753810fff"},"vehicle_type_id":"4","last_reported":1745155081,"current_range_meters":4400,"station_id":"ce4bhu92rcd13ifvqi70","pricing_plan_id":"cebpf4jnsgd1na2vs0mg"},{"bike_id":"91facda1-77b2-464f-8140-9cfce3b09c70","system_id":"levelo_inurba_marseille","lat":43.296726,"lon":5.37847,"is_reserved":false,"is_disabled":false,"rental_uris":{"android":"levelo://app?vid=91facda1-77b2-464f-8140-9cfce3b09c70","ios":"levelo://app?vid=91facda1-77b2-464f-8140-9cfce3b09c70"},"vehicle_type_id":"4","last_reported":1745155081,"current_range_meters":4800,"station_id":"","pricing_plan_id":"cebpf4jnsgd1na2vs0mg"},{"bike_id":"35f0a6e1-f9a9-47ee-bab6-2641cdd8ae57","system_id":"levelo_inurba_marseille","lat":43.27323,"lon":5.39112,"is_reserved":false,"is_disabled":true,"rental_uris":{"android":"levelo://app?vid=35f0a6e1-f9a9-47ee-bab6-2641cdd8ae57","ios":"levelo://app?vid=35f0a6e1-f9a9-47ee-bab6-2641cdd8ae57"},"vehicle_type_id":"4","last_reported":1745155081,"current_range_meters":4800,"station_id":"ce4bhgp2rcd13ifvqfe0","pricing_plan_id":"cebpf4jnsgd1na2vs0mg"},{"bike_id":"cdb40323-1597-4ce8-bbe9-9bae544f3769","system_id":"levelo_inurba_marseille","lat":43.21743,"lon":5.34593,"is_reserved":false,"is_disabled":false,"rental_uris":{"android":"levelo://app?vid=cdb40323-1597-4ce8-bbe9-9bae544f3769","ios":"levelo://app?vid=cdb40323-1597-4ce8-bbe9-9bae544f3769"},"vehicle_type_id":"4","last_reported":1745155081,"current_range_meters":4800,"station_id":"st_cvj6r9ubvosntc0bgbag","pricing_plan_id":"cebpf4jnsgd1na2vs0mg"},{"bike_id":"31974393-887c-4a97-b5fe-ce53a6ac0bd5","system_id":"levelo_inurba_marseille","lat":43.29868,"lon":5.39732,"is_reserved":false,"is_disabled":false,"rental_uris":{"android":"levelo://app?vid=31974393-887c-4a97-b5fe-ce53a6ac0bd5","ios":"levelo://app?vid=31974393-887c-4a97-b5fe-ce53a6ac0bd5"},"vehicle_type_id":"4","last_reported":1745155081,"current_range_meters":5600,"station_id":"ce4bh0h2rcd13ifvqd50","pricing_plan_id":"cebpf4jnsgd1na2vs0mg"},{"bike_id":"656ac081-c121-4824-81a4-fa92b7720ed4","system_id":"levelo_inurba_marseille","lat":43.23191,"lon":5.35561,"is_reserved":false,"is_disabled":false,"rental_uris":{"android":"levelo://app?vid=656ac081-c121-4824-81a4-fa92b7720ed4","ios":"levelo://app?vid=656ac081-c121-4824-81a4-fa92b7720ed4"},"vehicle_type_id":"4","last_reported":1745155081,"current_range_meters":5600,"station_id":"ce4bhu92rcd13ifvqi70","pricing_plan_id":"cebpf4jnsgd1na2vs0mg"},{"bike_id":"2bb99097-c26f-4681-bb95-3fe5a7ff6560","system_id":"levelo_inurba_marseille","lat":43.25496,"lon":5.37647,"is_reserved":false,"is_disabled":false,"rental_uris":{"android":"levelo://app?vid=2bb99097-c26f-4681-bb95-3fe5a7ff6560","ios":"levelo://app?vid=2bb99097-c26f-4681-bb95-3fe5a7ff6560"},"vehicle_type_id":"4","last_reported":1745155081,"current_range_meters":5600,"station_id":"ce4bhh12rcd13ifvqff0","pricing_plan_id":"cebpf4jnsgd1na2vs0mg"},{"bike_id":"728b8bc4-278e-4503-80a4-43cd2f67d86d","system_id":"levelo_inurba_marseille","lat":43.241794,"lon":5.397194,"is_reserved":false,"is_disabled":false,"rental_uris":{"android":"levelo://app?vid=728b8bc4-278e-4503-80a4-43cd2f67d86d","ios":"levelo://app?vid=728b8bc4-278e-4503-80a4-43cd2f67d86d"},"vehicle_type_id":"4","last_reported":1745155081,"current_range_meters":5600,"station_id":"ce4bhn12rcd13ifvqgpg","pricing_plan_id":"cebpf4jnsgd1na2vs0mg"},{"bike_id":"6dde4469-8357-4cbd-ad5c-1252b4834bfa","system_id":"levelo_inurba_marseille","lat":43.25579,"lon":5.38227,"is_reserved":false,"is_disabled":false,"rental_uris":{"android":"levelo://app?vid=6dde4469-8357-4cbd-ad5c-1252b4834bfa","ios":"levelo://app?vid=6dde4469-8357-4cbd-ad5c-1252b4834bfa"},"vehicle_type_id":"4","last_reported":1745155081,"current_range_meters":5600,"station_id":"ce4bhih2rcd13ifvqfs0","pricing_plan_id":"cebpf4jnsgd1na2vs0mg"},{"bike_id":"1e3eef59-d224-437c-9c57-5259e2d85ec3","system_id":"levelo_inurba_marseille","lat":43.24807,"lon":5.37457,"is_reserved":false,"is_disabled":false,"rental_uris":{"android":"levelo://app?vid=1e3eef59-d224-437c-9c57-5259e2d85ec3","ios":"levelo://app?vid=1e3eef59-d224-437c-9c57-5259e2d85ec3"},"vehicle_type_id":"4","last_reported":1745155081,"current_range_meters":5600,"station_id":"ce4bhgh2rcd13ifvqfb0","pricing_plan_id":"cebpf4jnsgd1na2vs0mg"},{"bike_id":"e29e39c4-98fe-4555-a456-9ff3175abfbf","system_id":"levelo_inurba_marseille","lat":43.21193,"lon":5.35067,"is_reserved":false,"is_disabled":false,"rental_uris":{"android":"levelo://app?vid=e29e39c4-98fe-4555-a456-9ff3175abfbf","ios":"levelo://app?vid=e29e39c4-98fe-4555-a456-9ff3175abfbf"},"vehicle_type_id":"4","last_reported":1745155081,"current_range_meters":5600,"station_id":"st_cvj6sg6p6f1abm77japg","pricing_plan_id":"cebpf4jnsgd1na2vs0mg"},{"bike_id":"22583896-a653-48d4-8b37-6cfca0e7be93","system_id":"levelo_inurba_marseille","lat":43.21193,"lon":5.3507,"is_reserved":false,"is_disabled":false,"rental_uris":{"android":"levelo://app?vid=22583896-a653-48d4-8b37-6cfca0e7be93","ios":"levelo://app?vid=22583896-a653-48d4-8b37-6cfca0e7be93"},"vehicle_type_id":"4","last_reported":1745155081,"current_range_meters":5600,"station_id":"st_cvj6sg6p6f1abm77japg","pricing_plan_id":"cebpf4jnsgd1na2vs0mg"},{"bike_id":"e36eee3f-e899-4919-a402-21704daa28c5","system_id":"levelo_inurba_marseille","lat":43.21188,"lon":5.35076,"is_reserved":false,"is_disabled":false,"rental_uris":{"android":"levelo://app?vid=e36eee3f-e899-4919-a402-21704daa28c5","ios":"levelo://app?vid=e36eee3f-e899-4919-a402-21704daa28c5"},"vehicle_type_id":"4","last_reported":1745155081,"current_range_meters":6000,"station_id":"st_cvj6sg6p6f1abm77japg","pricing_plan_id":"cebpf4jnsgd1na2vs0mg"},{"bike_id":"4b27d3da-313f-4ffd-a9ff-49eb857273c3","system_id":"levelo_inurba_marseille","lat":43.31715,"lon":5.40456,"is_reserved":false,"is_disabled":false,"rental_uris":{"android":"levelo://app?vid=4b27d3da-313f-4ffd-a9ff-49eb857273c3","ios":"levelo://app?vid=4b27d3da-313f-4ffd-a9ff-49eb857273c3"},"vehicle_type_id":"4","last_reported":1745155081,"current_range_meters":5600,"station_id":"ce4bh012rcd13ifvqd00","pricing_plan_id":"cebpf4jnsgd1na2vs0mg"},{"bike_id":"c8442090-93ff-4c7e-9516-3e5746267385","system_id":"levelo_inurba_marseille","lat":43.25829,"lon":5.39434,"is_reserved":false,"is_disabled":false,"rental_uris":{"android":"levelo://app?vid=c8442090-93ff-4c7e-9516-3e5746267385","ios":"levelo://app?vid=c8442090-93ff-4c7e-9516-3e5746267385"},"vehicle_type_id":"4","last_reported":1745155081,"current_range_meters":5600,"station_id":"ce4bhip2rcd13ifvqft0","pricing_plan_id":"cebpf4jnsgd1na2vs0mg"},{"bike_id":"b52a1751-28c1-4412-9819-bb1cff38059d","system_id":"levelo_inurba_marseille","lat":43.25547,"lon":5.40631,"is_reserved":false,"is_disabled":false,"rental_uris":{"android":"levelo://app?vid=b52a1751-28c1-4412-9819-bb1cff38059d","ios":"levelo://app?vid=b52a1751-28c1-4412-9819-bb1cff38059d"},"vehicle_type_id":"4","last_reported":1745155081,"current_range_meters":6000,"station_id":"","pricing_plan_id":"cebpf4jnsgd1na2vs0mg"},{"bike_id":"a4b2f251-0055-473d-bd5a-576322559380","system_id":"levelo_inurba_marseille","lat":43.265589,"lon":5.372847,"is_reserved":false,"is_disabled":false,"rental_uris":{"android":"levelo://app?vid=a4b2f251-0055-473d-bd5a-576322559380","ios":"levelo://app?vid=a4b2f251-0055-473d-bd5a-576322559380"},"vehicle_type_id":"4","last_reported":1745155081,"current_range_meters":6000,"station_id":"ce4bhg12rcd13ifvqf70","pricing_plan_id":"cebpf4jnsgd1na2vs0mg"},{"bike_id":"10901109-dd8b-4da9-9837-2ccd5b1c4427","system_id":"levelo_inurba_marseille","lat":43.23182,"lon":5.39991,"is_reserved":false,"is_disabled":false,"rental_uris":{"android":"levelo://app?vid=10901109-dd8b-4da9-9837-2ccd5b1c4427","ios":"levelo://app?vid=10901109-dd8b-4da9-9837-2ccd5b1c4427"},"vehicle_type_id":"4","last_reported":1745155081,"current_range_meters":6000,"station_id":"ce4bhn12rcd13ifvqgqg","pricing_plan_id":"cebpf4jnsgd1na2vs0mg"},{"bike_id":"23ce463e-fd11-4348-af9f-a3846d298a6f","system_id":"levelo_inurba_marseille","lat":43.21744,"lon":5.34606,"is_reserved":false,"is_disabled":false,"rental_uris":{"android":"levelo://app?vid=23ce463e-fd11-4348-af9f-a3846d298a6f","ios":"levelo://app?vid=23ce463e-fd11-4348-af9f-a3846d298a6f"},"vehicle_type_id":"4","last_reported":1745155081,"current_range_meters":6400,"station_id":"st_cvj6r9ubvosntc0bgbag","pricing_plan_id":"cebpf4jnsgd1na2vs0mg"},{"bike_id":"cdf28283-7887-43c2-8fa8-20b32cc01248","system_id":"levelo_inurba_marseille","lat":43.31083,"lon":5.42427,"is_reserved":false,"is_disabled":false,"rental_uris":{"android":"levelo://app?vid=cdf28283-7887-43c2-8fa8-20b32cc01248","ios":"levelo://app?vid=cdf28283-7887-43c2-8fa8-20b32cc01248"},"vehicle_type_id":"4","last_reported":1745155081,"current_range_meters":3600,"station_id":"ce4bhp92rcd13ifvqhag","pricing_plan_id":"cebpf4jnsgd1na2vs0mg"},{"bike_id":"f2cc086f-d439-400d-8ed8-205a66728107","system_id":"levelo_inurba_marseille","lat":43.24386,"lon":5.37064,"is_reserved":false,"is_disabled":false,"rental_uris":{"android":"levelo://app?vid=f2cc086f-d439-400d-8ed8-205a66728107","ios":"levelo://app?vid=f2cc086f-d439-400d-8ed8-205a66728107"},"vehicle_type_id":"4","last_reported":1745155081,"current_range_meters":6400,"station_id":"ce4bhhh2rcd13ifvqfk0","pricing_plan_id":"cebpf4jnsgd1na2vs0mg"},{"bike_id":"3b03b009-295e-422e-8993-dee6c33a459c","system_id":"levelo_inurba_marseille","lat":43.21742,"lon":5.34606,"is_reserved":false,"is_disabled":false,"rental_uris":{"android":"levelo://app?vid=3b03b009-295e-422e-8993-dee6c33a459c","ios":"levelo://app?vid=3b03b009-295e-422e-8993-dee6c33a459c"},"vehicle_type_id":"4","last_reported":1745155081,"current_range_meters":6400,"station_id":"st_cvj6r9ubvosntc0bgbag","pricing_plan_id":"cebpf4jnsgd1na2vs0mg"},{"bike_id":"57300574-a18f-4ead-b5de-a0f68854579e","system_id":"levelo_inurba_marseille","lat":43.28718,"lon":5.37936,"is_reserved":false,"is_disabled":false,"rental_uris":{"android":"levelo://app?vid=57300574-a18f-4ead-b5de-a0f68854579e","ios":"levelo://app?vid=57300574-a18f-4ead-b5de-a0f68854579e"},"vehicle_type_id":"4","last_reported":1745155081,"current_range_meters":6400,"station_id":"ce4bh9p2rcd13ifvqec0","pricing_plan_id":"cebpf4jnsgd1na2vs0mg"},{"bike_id":"d670f322-c36b-42e2-af90-5389682beb17","system_id":"levelo_inurba_marseille","lat":43.21183,"lon":5.35083,"is_reserved":false,"is_disabled":false,"rental_uris":{"android":"levelo://app?vid=d670f322-c36b-42e2-af90-5389682beb17","ios":"levelo://app?vid=d670f322-c36b-42e2-af90-5389682beb17"},"vehicle_type_id":"4","last_reported":1745155081,"current_range_meters":6400,"station_id":"st_cvj6sg6p6f1abm77japg","pricing_plan_id":"cebpf4jnsgd1na2vs0mg"},{"bike_id":"8add90be-7694-4829-ba13-0c5919aef581","system_id":"levelo_inurba_marseille","lat":43.29526,"lon":5.37441,"is_reserved":false,"is_disabled":false,"rental_uris":{"android":"levelo://app?vid=8add90be-7694-4829-ba13-0c5919aef581","ios":"levelo://app?vid=8add90be-7694-4829-ba13-0c5919aef581"},"vehicle_type_id":"4","last_reported":1745155081,"current_range_meters":6800,"station_id":"","pricing_plan_id":"cebpf4jnsgd1na2vs0mg"},{"bike_id":"6f1daaf6-f4c7-4460-bf86-f3f89002b0bf","system_id":"levelo_inurba_marseille","lat":43.21738,"lon":5.34608,"is_reserved":false,"is_disabled":false,"rental_uris":{"android":"levelo://app?vid=6f1daaf6-f4c7-4460-bf86-f3f89002b0bf","ios":"levelo://app?vid=6f1daaf6-f4c7-4460-bf86-f3f89002b0bf"},"vehicle_type_id":"4","last_reported":1745155081,"current_range_meters":6800,"station_id":"st_cvj6r9ubvosntc0bgbag","pricing_plan_id":"cebpf4jnsgd1na2vs0mg"},{"bike_id":"225e3526-8097-487c-8166-39f04b762f21","system_id":"levelo_inurba_marseille","lat":43.23967,"lon":5.36605,"is_reserved":false,"is_disabled":false,"rental_uris":{"android":"levelo://app?vid=225e3526-8097-487c-8166-39f04b762f21","ios":"levelo://app?vid=225e3526-8097-487c-8166-39f04b762f21"},"vehicle_type_id":"4","last_reported":1745155081,"current_range_meters":6800,"station_id":"ce4bhi12rcd13ifvqfp0","pricing_plan_id":"cebpf4jnsgd1na2vs0mg"},{"bike_id":"5a4cebf5-9304-4785-977f-eeac8e29d5d8","system_id":"levelo_inurba_marseille","lat":43.23156,"lon":5.43696,"is_reserved":false,"is_disabled":false,"rental_uris":{"android":"levelo://app?vid=5a4cebf5-9304-4785-977f-eeac8e29d5d8","ios":"levelo://app?vid=5a4cebf5-9304-4785-977f-eeac8e29d5d8"},"vehicle_type_id":"4","last_reported":1745155081,"current_range_meters":6800,"station_id":"ce4bhmp2rcd13ifvqgog","pricing_plan_id":"cebpf4jnsgd1na2vs0mg"},{"bike_id":"186380b9-3dab-457b-b648-71d123fa0368","system_id":"levelo_inurba_marseille","lat":43.251118,"lon":5.403403,"is_reserved":false,"is_disabled":true,"rental_uris":{"android":"levelo://app?vid=186380b9-3dab-457b-b648-71d123fa0368","ios":"levelo://app?vid=186380b9-3dab-457b-b648-71d123fa0368"},"vehicle_type_id":"4","last_reported":1745155081,"current_range_meters":6800,"station_id":"ce4bhlh2rcd13ifvqgig","pricing_plan_id":"cebpf4jnsgd1na2vs0mg"},{"bike_id":"d2ba4413-c35f-41b1-8baf-f83e6001a359","system_id":"levelo_inurba_marseille","lat":43.29022,"lon":5.38643,"is_reserved":false,"is_disabled":true,"rental_uris":{"android":"levelo://app?vid=d2ba4413-c35f-41b1-8baf-f83e6001a359","ios":"levelo://app?vid=d2ba4413-c35f-41b1-8baf-f83e6001a359"},"vehicle_type_id":"4","last_reported":1745155081,"current_range_meters":6800,"station_id":"ce4bh4p2rcd13ifvqe0g","pricing_plan_id":"cebpf4jnsgd1na2vs0mg"},{"bike_id":"4f7d7a48-9ed4-49ae-98c3-6d5ae3d0a41a","system_id":"levelo_inurba_marseille","lat":43.22923,"lon":5.35397,"is_reserved":false,"is_disabled":false,"rental_uris":{"android":"levelo://app?vid=4f7d7a48-9ed4-49ae-98c3-6d5ae3d0a41a","ios":"levelo://app?vid=4f7d7a48-9ed4-49ae-98c3-6d5ae3d0a41a"},"vehicle_type_id":"4","last_reported":1745155081,"current_range_meters":6800,"station_id":"cpo3532slgdg3j2ikp40","pricing_plan_id":"cebpf4jnsgd1na2vs0mg"},{"bike_id":"f7cdf9af-022c-4819-b999-a475b32ad8b0","system_id":"levelo_inurba_marseille","lat":43.21756,"lon":5.34599,"is_reserved":false,"is_disabled":false,"rental_uris":{"android":"levelo://app?vid=f7cdf9af-022c-4819-b999-a475b32ad8b0","ios":"levelo://app?vid=f7cdf9af-022c-4819-b999-a475b32ad8b0"},"vehicle_type_id":"4","last_reported":1745155081,"current_range_meters":6800,"station_id":"st_cvj6r9ubvosntc0bgbag","pricing_plan_id":"cebpf4jnsgd1na2vs0mg"},{"bike_id":"210d3669-e710-4cfb-bac4-2059f4fa7eea","system_id":"levelo_inurba_marseille","lat":43.27997,"lon":5.40005,"is_reserved":false,"is_disabled":true,"rental_uris":{"android":"levelo://app?vid=210d3669-e710-4cfb-bac4-2059f4fa7eea","ios":"levelo://app?vid=210d3669-e710-4cfb-bac4-2059f4fa7eea"},"vehicle_type_id":"4","last_reported":1745155081,"current_range_meters":6800,"station_id":"ce4bh2h2rcd13ifvqdh0","pricing_plan_id":"cebpf4jnsgd1na2vs0mg"},{"bike_id":"6c30e091-3528-44fd-8a69-703e2e6ecfc4","system_id":"levelo_inurba_marseille","lat":43.23962,"lon":5.36634,"is_reserved":false,"is_disabled":false,"rental_uris":{"android":"levelo://app?vid=6c30e091-3528-44fd-8a69-703e2e6ecfc4","ios":"levelo://app?vid=6c30e091-3528-44fd-8a69-703e2e6ecfc4"},"vehicle_type_id":"4","last_reported":1745155081,"current_range_meters":7200,"station_id":"ce4bhi12rcd13ifvqfp0","pricing_plan_id":"cebpf4jnsgd1na2vs0mg"},{"bike_id":"31eda270-0c06-4cc8-af38-a0614af7e724","system_id":"levelo_inurba_marseille","lat":43.21754,"lon":5.3461,"is_reserved":false,"is_disabled":false,"rental_uris":{"android":"levelo://app?vid=31eda270-0c06-4cc8-af38-a0614af7e724","ios":"levelo://app?vid=31eda270-0c06-4cc8-af38-a0614af7e724"},"vehicle_type_id":"4","last_reported":1745155081,"current_range_meters":7200,"station_id":"st_cvj6r9ubvosntc0bgbag","pricing_plan_id":"cebpf4jnsgd1na2vs0mg"},{"bike_id":"6de72d97-5e83-4221-aca1-0289322a6720","system_id":"levelo_inurba_marseille","lat":43.21755,"lon":5.34604,"is_reserved":false,"is_disabled":false,"rental_uris":{"android":"levelo://app?vid=6de72d97-5e83-4221-aca1-0289322a6720","ios":"levelo://app?vid=6de72d97-5e83-4221-aca1-0289322a6720"},"vehicle_type_id":"4","last_reported":1745155081,"current_range_meters":7200,"station_id":"st_cvj6r9ubvosntc0bgbag","pricing_plan_id":"cebpf4jnsgd1na2vs0mg"},{"bike_id":"c2a21db5-b35d-40ef-a02b-13af3ff8141d","system_id":"levelo_inurba_marseille","lat":43.25488,"lon":5.37652,"is_reserved":false,"is_disabled":false,"rental_uris":{"android":"levelo://app?vid=c2a21db5-b35d-40ef-a02b-13af3ff8141d","ios":"levelo://app?vid=c2a21db5-b35d-40ef-a02b-13af3ff8141d"},"vehicle_type_id":"4","last_reported":1745155081,"current_range_meters":7200,"station_id":"ce4bhh12rcd13ifvqff0","pricing_plan_id":"cebpf4jnsgd1na2vs0mg"},{"bike_id":"1eaca8f5-0017-418a-9bfc-52185bf67513","system_id":"levelo_inurba_marseille","lat":43.33734,"lon":5.39165,"is_reserved":false,"is_disabled":false,"rental_uris":{"android":"levelo://app?vid=1eaca8f5-0017-418a-9bfc-52185bf67513","ios":"levelo://app?vid=1eaca8f5-0017-418a-9bfc-52185bf67513"},"vehicle_type_id":"4","last_reported":1745155081,"current_range_meters":7200,"station_id":"ce4bhr92rcd13ifvqhsg","pricing_plan_id":"cebpf4jnsgd1na2vs0mg"},{"bike_id":"d315683d-51ce-4aa5-a719-6623959b2cb4","system_id":"levelo_inurba_marseille","lat":43.21746,"lon":5.34593,"is_reserved":false,"is_disabled":false,"rental_uris":{"android":"levelo://app?vid=d315683d-51ce-4aa5-a719-6623959b2cb4","ios":"levelo://app?vid=d315683d-51ce-4aa5-a719-6623959b2cb4"},"vehicle_type_id":"4","last_reported":1745155081,"current_range_meters":7200,"station_id":"st_cvj6r9ubvosntc0bgbag","pricing_plan_id":"cebpf4jnsgd1na2vs0mg"},{"bike_id":"7a780f65-e454-4675-960f-92f7ccd08057","system_id":"levelo_inurba_marseille","lat":43.21192,"lon":5.35074,"is_reserved":false,"is_disabled":false,"rental_uris":{"android":"levelo://app?vid=7a780f65-e454-4675-960f-92f7ccd08057","ios":"levelo://app?vid=7a780f65-e454-4675-960f-92f7ccd08057"},"vehicle_type_id":"4","last_reported":1745155081,"current_range_meters":7200,"station_id":"st_cvj6sg6p6f1abm77japg","pricing_plan_id":"cebpf4jnsgd1na2vs0mg"},{"bike_id":"1e851d99-3d5e-4dc4-8a3e-2facf57b94ae","system_id":"levelo_inurba_marseille","lat":43.23175,"lon":5.39988,"is_reserved":false,"is_disabled":false,"rental_uris":{"android":"levelo://app?vid=1e851d99-3d5e-4dc4-8a3e-2facf57b94ae","ios":"levelo://app?vid=1e851d99-3d5e-4dc4-8a3e-2facf57b94ae"},"vehicle_type_id":"4","last_reported":1745155081,"current_range_meters":7200,"station_id":"ce4bhn12rcd13ifvqgqg","pricing_plan_id":"cebpf4jnsgd1na2vs0mg"},{"bike_id":"f8266a8e-1bd9-4182-b247-939bdafbb72c","system_id":"levelo_inurba_marseille","lat":43.3048,"lon":5.37881,"is_reserved":false,"is_disabled":true,"rental_uris":{"android":"levelo://app?vid=f8266a8e-1bd9-4182-b247-939bdafbb72c","ios":"levelo://app?vid=f8266a8e-1bd9-4182-b247-939bdafbb72c"},"vehicle_type_id":"4","last_reported":1745155081,"current_range_meters":7200,"station_id":"ce4bgup2rcd13ifvqcn0","pricing_plan_id":"cebpf4jnsgd1na2vs0mg"},{"bike_id":"1965f819-3778-4654-96e5-aaaf9c36cc08","system_id":"levelo_inurba_marseille","lat":43.30381,"lon":5.4247,"is_reserved":false,"is_disabled":false,"rental_uris":{"android":"levelo://app?vid=1965f819-3778-4654-96e5-aaaf9c36cc08","ios":"levelo://app?vid=1965f819-3778-4654-96e5-aaaf9c36cc08"},"vehicle_type_id":"4","last_reported":1745155081,"current_range_meters":7200,"station_id":"ce4bhoh2rcd13ifvqh6g","pricing_plan_id":"cebpf4jnsgd1na2vs0mg"},{"bike_id":"8a45211d-408b-43cb-ae76-f907d90fcf58","system_id":"levelo_inurba_marseille","lat":43.33726,"lon":5.39185,"is_reserved":false,"is_disabled":false,"rental_uris":{"android":"levelo://app?vid=8a45211d-408b-43cb-ae76-f907d90fcf58","ios":"levelo://app?vid=8a45211d-408b-43cb-ae76-f907d90fcf58"},"vehicle_type_id":"4","last_reported":1745155081,"current_range_meters":7200,"station_id":"ce4bhr92rcd13ifvqhsg","pricing_plan_id":"cebpf4jnsgd1na2vs0mg"},{"bike_id":"a969d1ed-77d3-4189-b5a7-0bf8cf90d349","system_id":"levelo_inurba_marseille","lat":43.23184,"lon":5.35557,"is_reserved":false,"is_disabled":false,"rental_uris":{"android":"levelo://app?vid=a969d1ed-77d3-4189-b5a7-0bf8cf90d349","ios":"levelo://app?vid=a969d1ed-77d3-4189-b5a7-0bf8cf90d349"},"vehicle_type_id":"4","last_reported":1745155081,"current_range_meters":7200,"station_id":"ce4bhu92rcd13ifvqi70","pricing_plan_id":"cebpf4jnsgd1na2vs0mg"},{"bike_id":"23e55ced-fea4-402e-8ba6-53855e4303c3","system_id":"levelo_inurba_marseille","lat":43.29976,"lon":5.37186,"is_reserved":false,"is_disabled":false,"rental_uris":{"android":"levelo://app?vid=23e55ced-fea4-402e-8ba6-53855e4303c3","ios":"levelo://app?vid=23e55ced-fea4-402e-8ba6-53855e4303c3"},"vehicle_type_id":"4","last_reported":1745155081,"current_range_meters":7200,"station_id":"ce4bgr92rcd13ifvqc7g","pricing_plan_id":"cebpf4jnsgd1na2vs0mg"},{"bike_id":"e268f7ff-200b-46df-9be4-951497bdd562","system_id":"levelo_inurba_marseille","lat":43.29895,"lon":5.38917,"is_reserved":false,"is_disabled":false,"rental_uris":{"android":"levelo://app?vid=e268f7ff-200b-46df-9be4-951497bdd562","ios":"levelo://app?vid=e268f7ff-200b-46df-9be4-951497bdd562"},"vehicle_type_id":"4","last_reported":1745155081,"current_range_meters":8000,"station_id":"ce4bh392rcd13ifvqdl0","pricing_plan_id":"cebpf4jnsgd1na2vs0mg"},{"bike_id":"bb67c96f-4e51-4829-af34-07fdb4a73af6","system_id":"levelo_inurba_marseille","lat":43.22935,"lon":5.35372,"is_reserved":false,"is_disabled":false,"rental_uris":{"android":"levelo://app?vid=bb67c96f-4e51-4829-af34-07fdb4a73af6","ios":"levelo://app?vid=bb67c96f-4e51-4829-af34-07fdb4a73af6"},"vehicle_type_id":"4","last_reported":1745155081,"current_range_meters":8000,"station_id":"cpo3532slgdg3j2ikp40","pricing_plan_id":"cebpf4jnsgd1na2vs0mg"},{"bike_id":"801eb3ad-032d-4d72-8719-91cdfd0d7dc5","system_id":"levelo_inurba_marseille","lat":43.21736,"lon":5.34613,"is_reserved":false,"is_disabled":false,"rental_uris":{"android":"levelo://app?vid=801eb3ad-032d-4d72-8719-91cdfd0d7dc5","ios":"levelo://app?vid=801eb3ad-032d-4d72-8719-91cdfd0d7dc5"},"vehicle_type_id":"4","last_reported":1745155081,"current_range_meters":8000,"station_id":"st_cvj6r9ubvosntc0bgbag","pricing_plan_id":"cebpf4jnsgd1na2vs0mg"},{"bike_id":"967fc5c2-2d8c-40dc-b0d8-39b0debd9469","system_id":"levelo_inurba_marseille","lat":43.23067,"lon":5.35491,"is_reserved":false,"is_disabled":false,"rental_uris":{"android":"levelo://app?vid=967fc5c2-2d8c-40dc-b0d8-39b0debd9469","ios":"levelo://app?vid=967fc5c2-2d8c-40dc-b0d8-39b0debd9469"},"vehicle_type_id":"4","last_reported":1745155081,"current_range_meters":8000,"station_id":"cpo3342slgdg3j2ifvpg","pricing_plan_id":"cebpf4jnsgd1na2vs0mg"},{"bike_id":"b2a595fc-5379-4d89-87b7-218a08b1c100","system_id":"levelo_inurba_marseille","lat":43.21202,"lon":5.35056,"is_reserved":false,"is_disabled":false,"rental_uris":{"android":"levelo://app?vid=b2a595fc-5379-4d89-87b7-218a08b1c100","ios":"levelo://app?vid=b2a595fc-5379-4d89-87b7-218a08b1c100"},"vehicle_type_id":"4","last_reported":1745155081,"current_range_meters":8000,"station_id":"st_cvj6sg6p6f1abm77japg","pricing_plan_id":"cebpf4jnsgd1na2vs0mg"},{"bike_id":"149cf001-69a5-42d7-a978-9dd113329b0a","system_id":"levelo_inurba_marseille","lat":43.29699,"lon":5.36587,"is_reserved":false,"is_disabled":false,"rental_uris":{"android":"levelo://app?vid=149cf001-69a5-42d7-a978-9dd113329b0a","ios":"levelo://app?vid=149cf001-69a5-42d7-a978-9dd113329b0a"},"vehicle_type_id":"4","last_reported":1745155081,"current_range_meters":7200,"station_id":"ce4bgn12rcd13ifvqbt0","pricing_plan_id":"cebpf4jnsgd1na2vs0mg"},{"bike_id":"931800f0-f5ae-42dc-9401-5ef75e1edc12","system_id":"levelo_inurba_marseille","lat":43.27379,"lon":5.41404,"is_reserved":false,"is_disabled":false,"rental_uris":{"android":"levelo://app?vid=931800f0-f5ae-42dc-9401-5ef75e1edc12","ios":"levelo://app?vid=931800f0-f5ae-42dc-9401-5ef75e1edc12"},"vehicle_type_id":"4","last_reported":1745155081,"current_range_meters":8000,"station_id":"","pricing_plan_id":"cebpf4jnsgd1na2vs0mg"},{"bike_id":"e970a77c-97b4-4b75-8155-7044bacc8b02","system_id":"levelo_inurba_marseille","lat":43.25097,"lon":5.40323,"is_reserved":false,"is_disabled":false,"rental_uris":{"android":"levelo://app?vid=e970a77c-97b4-4b75-8155-7044bacc8b02","ios":"levelo://app?vid=e970a77c-97b4-4b75-8155-7044bacc8b02"},"vehicle_type_id":"4","last_reported":1745155081,"current_range_meters":8400,"station_id":"ce4bhlh2rcd13ifvqgig","pricing_plan_id":"cebpf4jnsgd1na2vs0mg"},{"bike_id":"468b3e1a-21b4-403b-9992-7868a54d05f8","system_id":"levelo_inurba_marseille","lat":43.21188,"lon":5.35079,"is_reserved":false,"is_disabled":false,"rental_uris":{"android":"levelo://app?vid=468b3e1a-21b4-403b-9992-7868a54d05f8","ios":"levelo://app?vid=468b3e1a-21b4-403b-9992-7868a54d05f8"},"vehicle_type_id":"4","last_reported":1745155081,"current_range_meters":8400,"station_id":"st_cvj6sg6p6f1abm77japg","pricing_plan_id":"cebpf4jnsgd1na2vs0mg"},{"bike_id":"ab9be9a2-b412-4e12-b774-0ac14e1c75f2","system_id":"levelo_inurba_marseille","lat":43.23207,"lon":5.35538,"is_reserved":false,"is_disabled":false,"rental_uris":{"android":"levelo://app?vid=ab9be9a2-b412-4e12-b774-0ac14e1c75f2","ios":"levelo://app?vid=ab9be9a2-b412-4e12-b774-0ac14e1c75f2"},"vehicle_type_id":"4","last_reported":1745155081,"current_range_meters":8400,"station_id":"ce4bhu92rcd13ifvqi70","pricing_plan_id":"cebpf4jnsgd1na2vs0mg"},{"bike_id":"6df1d7ed-a891-4ac4-8c00-6a253ba703c7","system_id":"levelo_inurba_marseille","lat":43.21192,"lon":5.35076,"is_reserved":false,"is_disabled":false,"rental_uris":{"android":"levelo://app?vid=6df1d7ed-a891-4ac4-8c00-6a253ba703c7","ios":"levelo://app?vid=6df1d7ed-a891-4ac4-8c00-6a253ba703c7"},"vehicle_type_id":"4","last_reported":1745155081,"current_range_meters":8400,"station_id":"st_cvj6sg6p6f1abm77japg","pricing_plan_id":"cebpf4jnsgd1na2vs0mg"},{"bike_id":"48e0a631-7a25-4cb4-a472-cf5ef1ebccf4","system_id":"levelo_inurba_marseille","lat":43.29627,"lon":5.40593,"is_reserved":false,"is_disabled":false,"rental_uris":{"android":"levelo://app?vid=48e0a631-7a25-4cb4-a472-cf5ef1ebccf4","ios":"levelo://app?vid=48e0a631-7a25-4cb4-a472-cf5ef1ebccf4"},"vehicle_type_id":"4","last_reported":1745155081,"current_range_meters":8400,"station_id":"ce4bh0h2rcd13ifvqd60","pricing_plan_id":"cebpf4jnsgd1na2vs0mg"},{"bike_id":"6b2a2f68-fd74-4a24-a495-23dd8d3467f4","system_id":"levelo_inurba_marseille","lat":43.2119,"lon":5.35068,"is_reserved":false,"is_disabled":false,"rental_uris":{"android":"levelo://app?vid=6b2a2f68-fd74-4a24-a495-23dd8d3467f4","ios":"levelo://app?vid=6b2a2f68-fd74-4a24-a495-23dd8d3467f4"},"vehicle_type_id":"4","last_reported":1745155081,"current_range_meters":8400,"station_id":"st_cvj6sg6p6f1abm77japg","pricing_plan_id":"cebpf4jnsgd1na2vs0mg"},{"bike_id":"5f1cb1b8-d579-4b71-aaf0-19475622202c","system_id":"levelo_inurba_marseille","lat":43.28598,"lon":5.350946,"is_reserved":false,"is_disabled":false,"rental_uris":{"android":"levelo://app?vid=5f1cb1b8-d579-4b71-aaf0-19475622202c","ios":"levelo://app?vid=5f1cb1b8-d579-4b71-aaf0-19475622202c"},"vehicle_type_id":"4","last_reported":1745155081,"current_range_meters":8400,"station_id":"ce4bhch2rcd13ifvqeug","pricing_plan_id":"cebpf4jnsgd1na2vs0mg"},{"bike_id":"2a48136c-317d-463b-a9f6-d33a2a52282f","system_id":"levelo_inurba_marseille","lat":43.21186,"lon":5.35074,"is_reserved":false,"is_disabled":false,"rental_uris":{"android":"levelo://app?vid=2a48136c-317d-463b-a9f6-d33a2a52282f","ios":"levelo://app?vid=2a48136c-317d-463b-a9f6-d33a2a52282f"},"vehicle_type_id":"4","last_reported":1745155081,"current_range_meters":8400,"station_id":"st_cvj6sg6p6f1abm77japg","pricing_plan_id":"cebpf4jnsgd1na2vs0mg"},{"bike_id":"c823268d-aab7-45c6-970d-6b2a26cbc8a9","system_id":"levelo_inurba_marseille","lat":43.28422,"lon":5.35,"is_reserved":false,"is_disabled":false,"rental_uris":{"android":"levelo://app?vid=c823268d-aab7-45c6-970d-6b2a26cbc8a9","ios":"levelo://app?vid=c823268d-aab7-45c6-970d-6b2a26cbc8a9"},"vehicle_type_id":"4","last_reported":1745155081,"current_range_meters":8400,"station_id":"ce4bhbh2rcd13ifvqepg","pricing_plan_id":"cebpf4jnsgd1na2vs0mg"},{"bike_id":"954c0ac0-1f5a-4f75-9237-6b98acc0aa2a","system_id":"levelo_inurba_marseille","lat":43.229471,"lon":5.353925,"is_reserved":false,"is_disabled":false,"rental_uris":{"android":"levelo://app?vid=954c0ac0-1f5a-4f75-9237-6b98acc0aa2a","ios":"levelo://app?vid=954c0ac0-1f5a-4f75-9237-6b98acc0aa2a"},"vehicle_type_id":"4","last_reported":1745155081,"current_range_meters":8400,"station_id":"cpo3532slgdg3j2ikp40","pricing_plan_id":"cebpf4jnsgd1na2vs0mg"},{"bike_id":"97e50bb0-9a70-481b-b370-e509345e710a","system_id":"levelo_inurba_marseille","lat":43.28031,"lon":5.36933,"is_reserved":false,"is_disabled":true,"rental_uris":{"android":"levelo://app?vid=97e50bb0-9a70-481b-b370-e509345e710a","ios":"levelo://app?vid=97e50bb0-9a70-481b-b370-e509345e710a"},"vehicle_type_id":"4","last_reported":1745155081,"current_range_meters":8800,"station_id":"ce4bha12rcd13ifvqef0","pricing_plan_id":"cebpf4jnsgd1na2vs0mg"},{"bike_id":"14f7c9dd-360c-464c-bfe9-1d10d8db4be6","system_id":"levelo_inurba_marseille","lat":43.28672,"lon":5.3867,"is_reserved":false,"is_disabled":false,"rental_uris":{"android":"levelo://app?vid=14f7c9dd-360c-464c-bfe9-1d10d8db4be6","ios":"levelo://app?vid=14f7c9dd-360c-464c-bfe9-1d10d8db4be6"},"vehicle_type_id":"4","last_reported":1745155081,"current_range_meters":8800,"station_id":"ce4bh492rcd13ifvqdug","pricing_plan_id":"cebpf4jnsgd1na2vs0mg"},{"bike_id":"7f545bbc-a0a7-4368-8a07-6a6863048111","system_id":"levelo_inurba_marseille","lat":43.229371,"lon":5.353733,"is_reserved":false,"is_disabled":false,"rental_uris":{"android":"levelo://app?vid=7f545bbc-a0a7-4368-8a07-6a6863048111","ios":"levelo://app?vid=7f545bbc-a0a7-4368-8a07-6a6863048111"},"vehicle_type_id":"4","last_reported":1745155081,"current_range_meters":8800,"station_id":"cpo3532slgdg3j2ikp40","pricing_plan_id":"cebpf4jnsgd1na2vs0mg"},{"bike_id":"3c939ddb-8cbc-4849-9c02-c27a74e01dee","system_id":"levelo_inurba_marseille","lat":43.21749,"lon":5.34596,"is_reserved":false,"is_disabled":false,"rental_uris":{"android":"levelo://app?vid=3c939ddb-8cbc-4849-9c02-c27a74e01dee","ios":"levelo://app?vid=3c939ddb-8cbc-4849-9c02-c27a74e01dee"},"vehicle_type_id":"4","last_reported":1745155081,"current_range_meters":8800,"station_id":"","pricing_plan_id":"cebpf4jnsgd1na2vs0mg"},{"bike_id":"f0b6af0d-1cbf-47a3-af07-dab09fabbbf0","system_id":"levelo_inurba_marseille","lat":43.23195,"lon":5.35554,"is_reserved":false,"is_disabled":false,"rental_uris":{"android":"levelo://app?vid=f0b6af0d-1cbf-47a3-af07-dab09fabbbf0","ios":"levelo://app?vid=f0b6af0d-1cbf-47a3-af07-dab09fabbbf0"},"vehicle_type_id":"4","last_reported":1745155081,"current_range_meters":8800,"station_id":"ce4bhu92rcd13ifvqi70","pricing_plan_id":"cebpf4jnsgd1na2vs0mg"},{"bike_id":"8a3401e6-5f82-46ee-bdf2-d36c21e1ff2f","system_id":"levelo_inurba_marseille","lat":43.21204,"lon":5.35042,"is_reserved":false,"is_disabled":false,"rental_uris":{"android":"levelo://app?vid=8a3401e6-5f82-46ee-bdf2-d36c21e1ff2f","ios":"levelo://app?vid=8a3401e6-5f82-46ee-bdf2-d36c21e1ff2f"},"vehicle_type_id":"4","last_reported":1745155081,"current_range_meters":8800,"station_id":"st_cvj6sg6p6f1abm77japg","pricing_plan_id":"cebpf4jnsgd1na2vs0mg"},{"bike_id":"708cf964-8861-4855-8697-8f1c0494e651","system_id":"levelo_inurba_marseille","lat":43.29004,"lon":5.35611,"is_reserved":false,"is_disabled":false,"rental_uris":{"android":"levelo://app?vid=708cf964-8861-4855-8697-8f1c0494e651","ios":"levelo://app?vid=708cf964-8861-4855-8697-8f1c0494e651"},"vehicle_type_id":"4","last_reported":1745155081,"current_range_meters":8800,"station_id":"ce4bhb92rcd13ifvqen0","pricing_plan_id":"cebpf4jnsgd1na2vs0mg"},{"bike_id":"00879c1d-a962-4133-ba5d-8de0f524e6f5","system_id":"levelo_inurba_marseille","lat":43.27495,"lon":5.42451,"is_reserved":false,"is_disabled":false,"rental_uris":{"android":"levelo://app?vid=00879c1d-a962-4133-ba5d-8de0f524e6f5","ios":"levelo://app?vid=00879c1d-a962-4133-ba5d-8de0f524e6f5"},"vehicle_type_id":"4","last_reported":1745155081,"current_range_meters":8800,"station_id":"ce4bhn92rcd13ifvqgrg","pricing_plan_id":"cebpf4jnsgd1na2vs0mg"},{"bike_id":"6565ca44-2e63-4f42-a847-09fa2bdb37f3","system_id":"levelo_inurba_marseille","lat":43.319958,"lon":5.381452,"is_reserved":false,"is_disabled":true,"rental_uris":{"android":"levelo://app?vid=6565ca44-2e63-4f42-a847-09fa2bdb37f3","ios":"levelo://app?vid=6565ca44-2e63-4f42-a847-09fa2bdb37f3"},"vehicle_type_id":"4","last_reported":1745155081,"current_range_meters":8800,"station_id":"ce4bhr12rcd13ifvqhpg","pricing_plan_id":"cebpf4jnsgd1na2vs0mg"},{"bike_id":"44fed244-f31b-45be-84ce-748891659821","system_id":"levelo_inurba_marseille","lat":43.21182,"lon":5.35065,"is_reserved":false,"is_disabled":false,"rental_uris":{"android":"levelo://app?vid=44fed244-f31b-45be-84ce-748891659821","ios":"levelo://app?vid=44fed244-f31b-45be-84ce-748891659821"},"vehicle_type_id":"4","last_reported":1745155081,"current_range_meters":8800,"station_id":"st_cvj6sg6p6f1abm77japg","pricing_plan_id":"cebpf4jnsgd1na2vs0mg"},{"bike_id":"138d6608-886e-4863-a664-7df6e5cc9a47","system_id":"levelo_inurba_marseille","lat":43.32638,"lon":5.42195,"is_reserved":false,"is_disabled":false,"rental_uris":{"android":"levelo://app?vid=138d6608-886e-4863-a664-7df6e5cc9a47","ios":"levelo://app?vid=138d6608-886e-4863-a664-7df6e5cc9a47"},"vehicle_type_id":"4","last_reported":1745155081,"current_range_meters":8800,"station_id":"","pricing_plan_id":"cebpf4jnsgd1na2vs0mg"},{"bike_id":"6a8dc99e-780f-4106-b993-386725e7a349","system_id":"levelo_inurba_marseille","lat":43.30586,"lon":5.37221,"is_reserved":false,"is_disabled":false,"rental_uris":{"android":"levelo://app?vid=6a8dc99e-780f-4106-b993-386725e7a349","ios":"levelo://app?vid=6a8dc99e-780f-4106-b993-386725e7a349"},"vehicle_type_id":"4","last_reported":1745155081,"current_range_meters":9200,"station_id":"ce4bgqh2rcd13ifvqc4g","pricing_plan_id":"cebpf4jnsgd1na2vs0mg"},{"bike_id":"a22bb51d-efdb-45db-b265-a23e7975af7d","system_id":"levelo_inurba_marseille","lat":43.24667,"lon":5.38161,"is_reserved":false,"is_disabled":false,"rental_uris":{"android":"levelo://app?vid=a22bb51d-efdb-45db-b265-a23e7975af7d","ios":"levelo://app?vid=a22bb51d-efdb-45db-b265-a23e7975af7d"},"vehicle_type_id":"4","last_reported":1745155081,"current_range_meters":9200,"station_id":"ce4bhih2rcd13ifvqfr0","pricing_plan_id":"cebpf4jnsgd1na2vs0mg"},{"bike_id":"3f805ee7-6607-4fd2-b05d-f06f8bbb5997","system_id":"levelo_inurba_marseille","lat":43.24649,"lon":5.38903,"is_reserved":false,"is_disabled":false,"rental_uris":{"android":"levelo://app?vid=3f805ee7-6607-4fd2-b05d-f06f8bbb5997","ios":"levelo://app?vid=3f805ee7-6607-4fd2-b05d-f06f8bbb5997"},"vehicle_type_id":"4","last_reported":1745155081,"current_range_meters":9200,"station_id":"ce4bhg12rcd13ifvqf60","pricing_plan_id":"cebpf4jnsgd1na2vs0mg"},{"bike_id":"36ac02ba-2835-48d7-9d54-047188b88f77","system_id":"levelo_inurba_marseille","lat":43.2417,"lon":5.39706,"is_reserved":false,"is_disabled":false,"rental_uris":{"android":"levelo://app?vid=36ac02ba-2835-48d7-9d54-047188b88f77","ios":"levelo://app?vid=36ac02ba-2835-48d7-9d54-047188b88f77"},"vehicle_type_id":"4","last_reported":1745155081,"current_range_meters":9200,"station_id":"ce4bhn12rcd13ifvqgpg","pricing_plan_id":"cebpf4jnsgd1na2vs0mg"},{"bike_id":"ee77508c-6f9d-400c-9442-6494c8451c48","system_id":"levelo_inurba_marseille","lat":43.25111,"lon":5.40311,"is_reserved":false,"is_disabled":false,"rental_uris":{"android":"levelo://app?vid=ee77508c-6f9d-400c-9442-6494c8451c48","ios":"levelo://app?vid=ee77508c-6f9d-400c-9442-6494c8451c48"},"vehicle_type_id":"4","last_reported":1745155081,"current_range_meters":9200,"station_id":"ce4bhlh2rcd13ifvqgig","pricing_plan_id":"cebpf4jnsgd1na2vs0mg"},{"bike_id":"8de88ebe-197d-4d7e-b00e-817916f526d5","system_id":"levelo_inurba_marseille","lat":43.27991,"lon":5.41659,"is_reserved":false,"is_disabled":false,"rental_uris":{"android":"levelo://app?vid=8de88ebe-197d-4d7e-b00e-817916f526d5","ios":"levelo://app?vid=8de88ebe-197d-4d7e-b00e-817916f526d5"},"vehicle_type_id":"4","last_reported":1745155081,"current_range_meters":9200,"station_id":"ce4bho12rcd13ifvqh1g","pricing_plan_id":"cebpf4jnsgd1na2vs0mg"},{"bike_id":"70b6b29a-6d83-460b-bd27-e86a3209e93e","system_id":"levelo_inurba_marseille","lat":43.26559,"lon":5.37289,"is_reserved":false,"is_disabled":false,"rental_uris":{"android":"levelo://app?vid=70b6b29a-6d83-460b-bd27-e86a3209e93e","ios":"levelo://app?vid=70b6b29a-6d83-460b-bd27-e86a3209e93e"},"vehicle_type_id":"4","last_reported":1745155081,"current_range_meters":9200,"station_id":"ce4bhg12rcd13ifvqf70","pricing_plan_id":"cebpf4jnsgd1na2vs0mg"},{"bike_id":"126553b9-40d1-4883-a41d-140aec70f9f3","system_id":"levelo_inurba_marseille","lat":43.21208,"lon":5.35054,"is_reserved":false,"is_disabled":false,"rental_uris":{"android":"levelo://app?vid=126553b9-40d1-4883-a41d-140aec70f9f3","ios":"levelo://app?vid=126553b9-40d1-4883-a41d-140aec70f9f3"},"vehicle_type_id":"4","last_reported":1745155081,"current_range_meters":9200,"station_id":"st_cvj6sg6p6f1abm77japg","pricing_plan_id":"cebpf4jnsgd1na2vs0mg"},{"bike_id":"d0395819-ea40-46d3-acfe-3a01d6c396c0","system_id":"levelo_inurba_marseille","lat":43.23191,"lon":5.39987,"is_reserved":false,"is_disabled":true,"rental_uris":{"android":"levelo://app?vid=d0395819-ea40-46d3-acfe-3a01d6c396c0","ios":"levelo://app?vid=d0395819-ea40-46d3-acfe-3a01d6c396c0"},"vehicle_type_id":"4","last_reported":1745155081,"current_range_meters":9200,"station_id":"ce4bhn12rcd13ifvqgqg","pricing_plan_id":"cebpf4jnsgd1na2vs0mg"},{"bike_id":"71d57a93-cc90-451e-9c9b-0f35720496c9","system_id":"levelo_inurba_marseille","lat":43.30307,"lon":5.369,"is_reserved":false,"is_disabled":false,"rental_uris":{"android":"levelo://app?vid=71d57a93-cc90-451e-9c9b-0f35720496c9","ios":"levelo://app?vid=71d57a93-cc90-451e-9c9b-0f35720496c9"},"vehicle_type_id":"4","last_reported":1745155081,"current_range_meters":9600,"station_id":"ce4bho92rcd13ifvqh3g","pricing_plan_id":"cebpf4jnsgd1na2vs0mg"},{"bike_id":"faf52f21-3662-4497-a70b-09e8ebac78f9","system_id":"levelo_inurba_marseille","lat":43.24651,"lon":5.38898,"is_reserved":false,"is_disabled":false,"rental_uris":{"android":"levelo://app?vid=faf52f21-3662-4497-a70b-09e8ebac78f9","ios":"levelo://app?vid=faf52f21-3662-4497-a70b-09e8ebac78f9"},"vehicle_type_id":"4","last_reported":1745155081,"current_range_meters":9600,"station_id":"ce4bhg12rcd13ifvqf60","pricing_plan_id":"cebpf4jnsgd1na2vs0mg"},{"bike_id":"5d99bab2-bdbc-4cd6-b873-f41fbc3e338a","system_id":"levelo_inurba_marseille","lat":43.26211,"lon":5.37441,"is_reserved":false,"is_disabled":false,"rental_uris":{"android":"levelo://app?vid=5d99bab2-bdbc-4cd6-b873-f41fbc3e338a","ios":"levelo://app?vid=5d99bab2-bdbc-4cd6-b873-f41fbc3e338a"},"vehicle_type_id":"4","last_reported":1745155081,"current_range_meters":9600,"station_id":"ce4bhgp2rcd13ifvqfc0","pricing_plan_id":"cebpf4jnsgd1na2vs0mg"},{"bike_id":"527fac75-0783-4b2c-bd4e-07f2f2fee902","system_id":"levelo_inurba_marseille","lat":43.31121,"lon":5.378,"is_reserved":false,"is_disabled":true,"rental_uris":{"android":"levelo://app?vid=527fac75-0783-4b2c-bd4e-07f2f2fee902","ios":"levelo://app?vid=527fac75-0783-4b2c-bd4e-07f2f2fee902"},"vehicle_type_id":"4","last_reported":1745155081,"current_range_meters":9600,"station_id":"ce4bgt92rcd13ifvqcg0","pricing_plan_id":"cebpf4jnsgd1na2vs0mg"},{"bike_id":"24213b37-b766-4d9c-a174-f6bf34920497","system_id":"levelo_inurba_marseille","lat":43.28469,"lon":5.384178,"is_reserved":false,"is_disabled":false,"rental_uris":{"android":"levelo://app?vid=24213b37-b766-4d9c-a174-f6bf34920497","ios":"levelo://app?vid=24213b37-b766-4d9c-a174-f6bf34920497"},"vehicle_type_id":"4","last_reported":1745155081,"current_range_meters":9600,"station_id":"ce4bh512rcd13ifvqe3g","pricing_plan_id":"cebpf4jnsgd1na2vs0mg"},{"bike_id":"1b64a06c-8c3f-4044-b435-0c5447524fd5","system_id":"levelo_inurba_marseille","lat":43.28688,"lon":5.37398,"is_reserved":false,"is_disabled":true,"rental_uris":{"android":"levelo://app?vid=1b64a06c-8c3f-4044-b435-0c5447524fd5","ios":"levelo://app?vid=1b64a06c-8c3f-4044-b435-0c5447524fd5"},"vehicle_type_id":"4","last_reported":1745155081,"current_range_meters":9600,"station_id":"ce4bh3p2rcd13ifvqdq0","pricing_plan_id":"cebpf4jnsgd1na2vs0mg"},{"bike_id":"2750d2eb-1b6f-4446-90f7-6e8bc5d9af81","system_id":"levelo_inurba_marseille","lat":43.290009,"lon":5.355956,"is_reserved":false,"is_disabled":false,"rental_uris":{"android":"levelo://app?vid=2750d2eb-1b6f-4446-90f7-6e8bc5d9af81","ios":"levelo://app?vid=2750d2eb-1b6f-4446-90f7-6e8bc5d9af81"},"vehicle_type_id":"4","last_reported":1745155081,"current_range_meters":9200,"station_id":"ce4bhg12rcd13ifvqf60","pricing_plan_id":"cebpf4jnsgd1na2vs0mg"},{"bike_id":"05b3d330-0c2d-464f-925c-8f172d906042","system_id":"levelo_inurba_marseille","lat":43.26211,"lon":5.37444,"is_reserved":false,"is_disabled":false,"rental_uris":{"android":"levelo://app?vid=05b3d330-0c2d-464f-925c-8f172d906042","ios":"levelo://app?vid=05b3d330-0c2d-464f-925c-8f172d906042"},"vehicle_type_id":"4","last_reported":1745155081,"current_range_meters":9600,"station_id":"ce4bhgp2rcd13ifvqfc0","pricing_plan_id":"cebpf4jnsgd1na2vs0mg"},{"bike_id":"dd2d78fc-82c0-4e3f-aabd-8f1e0ed834fd","system_id":"levelo_inurba_marseille","lat":43.21185,"lon":5.35073,"is_reserved":false,"is_disabled":false,"rental_uris":{"android":"levelo://app?vid=dd2d78fc-82c0-4e3f-aabd-8f1e0ed834fd","ios":"levelo://app?vid=dd2d78fc-82c0-4e3f-aabd-8f1e0ed834fd"},"vehicle_type_id":"4","last_reported":1745155081,"current_range_meters":9600,"station_id":"st_cvj6sg6p6f1abm77japg","pricing_plan_id":"cebpf4jnsgd1na2vs0mg"},{"bike_id":"218ce41c-db9e-4f7f-9929-d11fe5bdb425","system_id":"levelo_inurba_marseille","lat":43.28714,"lon":5.37942,"is_reserved":false,"is_disabled":false,"rental_uris":{"android":"levelo://app?vid=218ce41c-db9e-4f7f-9929-d11fe5bdb425","ios":"levelo://app?vid=218ce41c-db9e-4f7f-9929-d11fe5bdb425"},"vehicle_type_id":"4","last_reported":1745155081,"current_range_meters":9600,"station_id":"ce4bh9p2rcd13ifvqec0","pricing_plan_id":"cebpf4jnsgd1na2vs0mg"},{"bike_id":"8c583444-f665-424c-9de0-fbd2a76b9a07","system_id":"levelo_inurba_marseille","lat":43.27209,"lon":5.3918,"is_reserved":false,"is_disabled":false,"rental_uris":{"android":"levelo://app?vid=8c583444-f665-424c-9de0-fbd2a76b9a07","ios":"levelo://app?vid=8c583444-f665-424c-9de0-fbd2a76b9a07"},"vehicle_type_id":"4","last_reported":1745155081,"current_range_meters":9600,"station_id":"ce4bhhp2rcd13ifvqfm0","pricing_plan_id":"cebpf4jnsgd1na2vs0mg"},{"bike_id":"63ba8a6e-e947-47bd-960d-8e95a600c26e","system_id":"levelo_inurba_marseille","lat":43.21187,"lon":5.35073,"is_reserved":false,"is_disabled":false,"rental_uris":{"android":"levelo://app?vid=63ba8a6e-e947-47bd-960d-8e95a600c26e","ios":"levelo://app?vid=63ba8a6e-e947-47bd-960d-8e95a600c26e"},"vehicle_type_id":"4","last_reported":1745155081,"current_range_meters":9600,"station_id":"st_cvj6sg6p6f1abm77japg","pricing_plan_id":"cebpf4jnsgd1na2vs0mg"},{"bike_id":"28dc7f47-8ab8-4419-ad97-a9a42cee2b96","system_id":"levelo_inurba_marseille","lat":43.23065,"lon":5.35489,"is_reserved":false,"is_disabled":false,"rental_uris":{"android":"levelo://app?vid=28dc7f47-8ab8-4419-ad97-a9a42cee2b96","ios":"levelo://app?vid=28dc7f47-8ab8-4419-ad97-a9a42cee2b96"},"vehicle_type_id":"4","last_reported":1745155081,"current_range_meters":10000,"station_id":"cpo3342slgdg3j2ifvpg","pricing_plan_id":"cebpf4jnsgd1na2vs0mg"},{"bike_id":"bd3afca0-6bff-4714-94e2-33133b2ddb99","system_id":"levelo_inurba_marseille","lat":43.24644,"lon":5.38893,"is_reserved":false,"is_disabled":false,"rental_uris":{"android":"levelo://app?vid=bd3afca0-6bff-4714-94e2-33133b2ddb99","ios":"levelo://app?vid=bd3afca0-6bff-4714-94e2-33133b2ddb99"},"vehicle_type_id":"4","last_reported":1745155081,"current_range_meters":10000,"station_id":"ce4bhg12rcd13ifvqf60","pricing_plan_id":"cebpf4jnsgd1na2vs0mg"},{"bike_id":"4e6892ef-dbe3-43e4-bc69-b2da5d802c90","system_id":"levelo_inurba_marseille","lat":43.27381,"lon":5.36242,"is_reserved":false,"is_disabled":true,"rental_uris":{"android":"levelo://app?vid=4e6892ef-dbe3-43e4-bc69-b2da5d802c90","ios":"levelo://app?vid=4e6892ef-dbe3-43e4-bc69-b2da5d802c90"},"vehicle_type_id":"4","last_reported":1745155081,"current_range_meters":10000,"station_id":"ce4bhbh2rcd13ifvqeo0","pricing_plan_id":"cebpf4jnsgd1na2vs0mg"},{"bike_id":"24faed42-179b-4a3b-9e0a-7cb750512a5b","system_id":"levelo_inurba_marseille","lat":43.21754,"lon":5.34607,"is_reserved":false,"is_disabled":false,"rental_uris":{"android":"levelo://app?vid=24faed42-179b-4a3b-9e0a-7cb750512a5b","ios":"levelo://app?vid=24faed42-179b-4a3b-9e0a-7cb750512a5b"},"vehicle_type_id":"4","last_reported":1745155081,"current_range_meters":10000,"station_id":"st_cvj6r9ubvosntc0bgbag","pricing_plan_id":"cebpf4jnsgd1na2vs0mg"},{"bike_id":"c09bd3c7-aff0-488d-8187-633174c2bfd6","system_id":"levelo_inurba_marseille","lat":43.24399,"lon":5.37044,"is_reserved":false,"is_disabled":false,"rental_uris":{"android":"levelo://app?vid=c09bd3c7-aff0-488d-8187-633174c2bfd6","ios":"levelo://app?vid=c09bd3c7-aff0-488d-8187-633174c2bfd6"},"vehicle_type_id":"4","last_reported":1745155081,"current_range_meters":10000,"station_id":"ce4bhhh2rcd13ifvqfk0","pricing_plan_id":"cebpf4jnsgd1na2vs0mg"},{"bike_id":"c6eb518d-f8e2-4c5c-8098-b5d751548fcd","system_id":"levelo_inurba_marseille","lat":43.25908,"lon":5.40917,"is_reserved":false,"is_disabled":false,"rental_uris":{"android":"levelo://app?vid=c6eb518d-f8e2-4c5c-8098-b5d751548fcd","ios":"levelo://app?vid=c6eb518d-f8e2-4c5c-8098-b5d751548fcd"},"vehicle_type_id":"4","last_reported":1745155081,"current_range_meters":10000,"station_id":"ce4bhm92rcd13ifvqglg","pricing_plan_id":"cebpf4jnsgd1na2vs0mg"},{"bike_id":"14410c7c-237a-4034-a17d-8ebb573aee05","system_id":"levelo_inurba_marseille","lat":43.21194,"lon":5.35053,"is_reserved":false,"is_disabled":false,"rental_uris":{"android":"levelo://app?vid=14410c7c-237a-4034-a17d-8ebb573aee05","ios":"levelo://app?vid=14410c7c-237a-4034-a17d-8ebb573aee05"},"vehicle_type_id":"4","last_reported":1745155081,"current_range_meters":10000,"station_id":"st_cvj6sg6p6f1abm77japg","pricing_plan_id":"cebpf4jnsgd1na2vs0mg"},{"bike_id":"bfe8f3c7-32be-4d0c-a87c-8251b95cb4b9","system_id":"levelo_inurba_marseille","lat":43.21741,"lon":5.34603,"is_reserved":false,"is_disabled":false,"rental_uris":{"android":"levelo://app?vid=bfe8f3c7-32be-4d0c-a87c-8251b95cb4b9","ios":"levelo://app?vid=bfe8f3c7-32be-4d0c-a87c-8251b95cb4b9"},"vehicle_type_id":"4","last_reported":1745155081,"current_range_meters":10000,"station_id":"st_cvj6r9ubvosntc0bgbag","pricing_plan_id":"cebpf4jnsgd1na2vs0mg"},{"bike_id":"cdd56f0d-7537-4fb1-8f53-e86df882d47d","system_id":"levelo_inurba_marseille","lat":43.30907,"lon":5.36841,"is_reserved":false,"is_disabled":false,"rental_uris":{"android":"levelo://app?vid=cdd56f0d-7537-4fb1-8f53-e86df882d47d","ios":"levelo://app?vid=cdd56f0d-7537-4fb1-8f53-e86df882d47d"},"vehicle_type_id":"4","last_reported":1745155081,"current_range_meters":10000,"station_id":"ce4bgn92rcd13ifvqbvg","pricing_plan_id":"cebpf4jnsgd1na2vs0mg"},{"bike_id":"c2ed0848-8612-4fc0-999f-ed47d71ad2d9","system_id":"levelo_inurba_marseille","lat":43.21723,"lon":5.3459,"is_reserved":false,"is_disabled":false,"rental_uris":{"android":"levelo://app?vid=c2ed0848-8612-4fc0-999f-ed47d71ad2d9","ios":"levelo://app?vid=c2ed0848-8612-4fc0-999f-ed47d71ad2d9"},"vehicle_type_id":"4","last_reported":1745155081,"current_range_meters":10000,"station_id":"st_cvj6r9ubvosntc0bgbag","pricing_plan_id":"cebpf4jnsgd1na2vs0mg"},{"bike_id":"c12cc741-5285-4474-a1d3-9034e4c770bc","system_id":"levelo_inurba_marseille","lat":43.255,"lon":5.37652,"is_reserved":false,"is_disabled":false,"rental_uris":{"android":"levelo://app?vid=c12cc741-5285-4474-a1d3-9034e4c770bc","ios":"levelo://app?vid=c12cc741-5285-4474-a1d3-9034e4c770bc"},"vehicle_type_id":"4","last_reported":1745155081,"current_range_meters":10000,"station_id":"ce4bhh12rcd13ifvqff0","pricing_plan_id":"cebpf4jnsgd1na2vs0mg"},{"bike_id":"a506e4a0-23bf-4496-9bff-b5b400cbdb1a","system_id":"levelo_inurba_marseille","lat":43.22931,"lon":5.35374,"is_reserved":false,"is_disabled":false,"rental_uris":{"android":"levelo://app?vid=a506e4a0-23bf-4496-9bff-b5b400cbdb1a","ios":"levelo://app?vid=a506e4a0-23bf-4496-9bff-b5b400cbdb1a"},"vehicle_type_id":"4","last_reported":1745155081,"current_range_meters":10800,"station_id":"cpo3532slgdg3j2ikp40","pricing_plan_id":"cebpf4jnsgd1na2vs0mg"},{"bike_id":"c883ee63-ede1-41b0-a94e-2ff8b3c859ff","system_id":"levelo_inurba_marseille","lat":43.23189,"lon":5.39962,"is_reserved":false,"is_disabled":false,"rental_uris":{"android":"levelo://app?vid=c883ee63-ede1-41b0-a94e-2ff8b3c859ff","ios":"levelo://app?vid=c883ee63-ede1-41b0-a94e-2ff8b3c859ff"},"vehicle_type_id":"4","last_reported":1745155081,"current_range_meters":10800,"station_id":"ce4bhn12rcd13ifvqgqg","pricing_plan_id":"cebpf4jnsgd1na2vs0mg"},{"bike_id":"d8754dce-3ce6-4f68-ba47-f64cfc8b26ab","system_id":"levelo_inurba_marseille","lat":43.23189,"lon":5.35552,"is_reserved":false,"is_disabled":false,"rental_uris":{"android":"levelo://app?vid=d8754dce-3ce6-4f68-ba47-f64cfc8b26ab","ios":"levelo://app?vid=d8754dce-3ce6-4f68-ba47-f64cfc8b26ab"},"vehicle_type_id":"4","last_reported":1745155081,"current_range_meters":10800,"station_id":"ce4bhu92rcd13ifvqi70","pricing_plan_id":"cebpf4jnsgd1na2vs0mg"},{"bike_id":"f46d59ed-78df-47f2-82b1-9daf990beefb","system_id":"levelo_inurba_marseille","lat":43.21748,"lon":5.34603,"is_reserved":false,"is_disabled":false,"rental_uris":{"android":"levelo://app?vid=f46d59ed-78df-47f2-82b1-9daf990beefb","ios":"levelo://app?vid=f46d59ed-78df-47f2-82b1-9daf990beefb"},"vehicle_type_id":"4","last_reported":1745155081,"current_range_meters":10800,"station_id":"st_cvj6r9ubvosntc0bgbag","pricing_plan_id":"cebpf4jnsgd1na2vs0mg"},{"bike_id":"d227ea9c-7792-4463-9253-d38241da3c72","system_id":"levelo_inurba_marseille","lat":43.21752,"lon":5.34598,"is_reserved":false,"is_disabled":false,"rental_uris":{"android":"levelo://app?vid=d227ea9c-7792-4463-9253-d38241da3c72","ios":"levelo://app?vid=d227ea9c-7792-4463-9253-d38241da3c72"},"vehicle_type_id":"4","last_reported":1745155081,"current_range_meters":10800,"station_id":"st_cvj6r9ubvosntc0bgbag","pricing_plan_id":"cebpf4jnsgd1na2vs0mg"},{"bike_id":"9119f5e8-5717-4ae5-905f-121f81a193a4","system_id":"levelo_inurba_marseille","lat":43.21767,"lon":5.34564,"is_reserved":false,"is_disabled":false,"rental_uris":{"android":"levelo://app?vid=9119f5e8-5717-4ae5-905f-121f81a193a4","ios":"levelo://app?vid=9119f5e8-5717-4ae5-905f-121f81a193a4"},"vehicle_type_id":"4","last_reported":1745155081,"current_range_meters":10800,"station_id":"st_cvj6r9ubvosntc0bgbag","pricing_plan_id":"cebpf4jnsgd1na2vs0mg"},{"bike_id":"6019b3a9-be6c-4063-92bb-dfdce576086f","system_id":"levelo_inurba_marseille","lat":43.23061,"lon":5.35495,"is_reserved":false,"is_disabled":false,"rental_uris":{"android":"levelo://app?vid=6019b3a9-be6c-4063-92bb-dfdce576086f","ios":"levelo://app?vid=6019b3a9-be6c-4063-92bb-dfdce576086f"},"vehicle_type_id":"4","last_reported":1745155081,"current_range_meters":10800,"station_id":"cpo3342slgdg3j2ifvpg","pricing_plan_id":"cebpf4jnsgd1na2vs0mg"},{"bike_id":"1886fb80-2895-40f7-844d-7933f5d904dc","system_id":"levelo_inurba_marseille","lat":43.278818,"lon":5.393017,"is_reserved":false,"is_disabled":false,"rental_uris":{"android":"levelo://app?vid=1886fb80-2895-40f7-844d-7933f5d904dc","ios":"levelo://app?vid=1886fb80-2895-40f7-844d-7933f5d904dc"},"vehicle_type_id":"4","last_reported":1745155081,"current_range_meters":10800,"station_id":"","pricing_plan_id":"cebpf4jnsgd1na2vs0mg"},{"bike_id":"b97ce828-3921-4096-9ec4-e15abd2f92c0","system_id":"levelo_inurba_marseille","lat":43.25584,"lon":5.38237,"is_reserved":false,"is_disabled":false,"rental_uris":{"android":"levelo://app?vid=b97ce828-3921-4096-9ec4-e15abd2f92c0","ios":"levelo://app?vid=b97ce828-3921-4096-9ec4-e15abd2f92c0"},"vehicle_type_id":"4","last_reported":1745155081,"current_range_meters":10800,"station_id":"ce4bhih2rcd13ifvqfs0","pricing_plan_id":"cebpf4jnsgd1na2vs0mg"},{"bike_id":"e39761e3-1f5f-4c84-86fd-28c8ba3dde49","system_id":"levelo_inurba_marseille","lat":43.28487,"lon":5.38416,"is_reserved":false,"is_disabled":false,"rental_uris":{"android":"levelo://app?vid=e39761e3-1f5f-4c84-86fd-28c8ba3dde49","ios":"levelo://app?vid=e39761e3-1f5f-4c84-86fd-28c8ba3dde49"},"vehicle_type_id":"4","last_reported":1745155081,"current_range_meters":11200,"station_id":"ce4bh512rcd13ifvqe3g","pricing_plan_id":"cebpf4jnsgd1na2vs0mg"},{"bike_id":"d177bdcb-ba4d-4c2e-8899-f6b0f9af395c","system_id":"levelo_inurba_marseille","lat":43.25929,"lon":5.40929,"is_reserved":false,"is_disabled":false,"rental_uris":{"android":"levelo://app?vid=d177bdcb-ba4d-4c2e-8899-f6b0f9af395c","ios":"levelo://app?vid=d177bdcb-ba4d-4c2e-8899-f6b0f9af395c"},"vehicle_type_id":"4","last_reported":1745155081,"current_range_meters":11200,"station_id":"ce4bhm92rcd13ifvqglg","pricing_plan_id":"cebpf4jnsgd1na2vs0mg"},{"bike_id":"33399c5a-7b71-4ae2-a964-55b2f2e618d0","system_id":"levelo_inurba_marseille","lat":43.30216,"lon":5.36539,"is_reserved":false,"is_disabled":true,"rental_uris":{"android":"levelo://app?vid=33399c5a-7b71-4ae2-a964-55b2f2e618d0","ios":"levelo://app?vid=33399c5a-7b71-4ae2-a964-55b2f2e618d0"},"vehicle_type_id":"4","last_reported":1745155081,"current_range_meters":11200,"station_id":"","pricing_plan_id":"cebpf4jnsgd1na2vs0mg"},{"bike_id":"fec7fb48-4a5a-4fb5-bc99-fbea0cbb3376","system_id":"levelo_inurba_marseille","lat":43.23134,"lon":5.43739,"is_reserved":false,"is_disabled":false,"rental_uris":{"android":"levelo://app?vid=fec7fb48-4a5a-4fb5-bc99-fbea0cbb3376","ios":"levelo://app?vid=fec7fb48-4a5a-4fb5-bc99-fbea0cbb3376"},"vehicle_type_id":"4","last_reported":1745155081,"current_range_meters":10800,"station_id":"ce4bhmp2rcd13ifvqgog","pricing_plan_id":"cebpf4jnsgd1na2vs0mg"},{"bike_id":"94df762c-96d4-44eb-b837-209930b36b6f","system_id":"levelo_inurba_marseille","lat":43.2175,"lon":5.34597,"is_reserved":false,"is_disabled":false,"rental_uris":{"android":"levelo://app?vid=94df762c-96d4-44eb-b837-209930b36b6f","ios":"levelo://app?vid=94df762c-96d4-44eb-b837-209930b36b6f"},"vehicle_type_id":"4","last_reported":1745155081,"current_range_meters":11200,"station_id":"st_cvj6r9ubvosntc0bgbag","pricing_plan_id":"cebpf4jnsgd1na2vs0mg"},{"bike_id":"88a92206-c89a-4964-ae50-0575a7af6e32","system_id":"levelo_inurba_marseille","lat":43.28476,"lon":5.38424,"is_reserved":false,"is_disabled":false,"rental_uris":{"android":"levelo://app?vid=88a92206-c89a-4964-ae50-0575a7af6e32","ios":"levelo://app?vid=88a92206-c89a-4964-ae50-0575a7af6e32"},"vehicle_type_id":"4","last_reported":1745155081,"current_range_meters":11200,"station_id":"ce4bh512rcd13ifvqe3g","pricing_plan_id":"cebpf4jnsgd1na2vs0mg"},{"bike_id":"57f1072c-1c62-4906-b889-8349b286e932","system_id":"levelo_inurba_marseille","lat":43.29845,"lon":5.36278,"is_reserved":false,"is_disabled":false,"rental_uris":{"android":"levelo://app?vid=57f1072c-1c62-4906-b889-8349b286e932","ios":"levelo://app?vid=57f1072c-1c62-4906-b889-8349b286e932"},"vehicle_type_id":"4","last_reported":1745155081,"current_range_meters":11600,"station_id":"ce4bgpp2rcd13ifvqc3g","pricing_plan_id":"cebpf4jnsgd1na2vs0mg"},{"bike_id":"14726bda-85cc-425d-a557-d79450b59b17","system_id":"levelo_inurba_marseille","lat":43.27368,"lon":5.36241,"is_reserved":false,"is_disabled":false,"rental_uris":{"android":"levelo://app?vid=14726bda-85cc-425d-a557-d79450b59b17","ios":"levelo://app?vid=14726bda-85cc-425d-a557-d79450b59b17"},"vehicle_type_id":"4","last_reported":1745155081,"current_range_meters":11600,"station_id":"ce4bhbh2rcd13ifvqeo0","pricing_plan_id":"cebpf4jnsgd1na2vs0mg"},{"bike_id":"d64c3fc5-3b20-424d-a9df-83c170571095","system_id":"levelo_inurba_marseille","lat":43.2306,"lon":5.35496,"is_reserved":false,"is_disabled":false,"rental_uris":{"android":"levelo://app?vid=d64c3fc5-3b20-424d-a9df-83c170571095","ios":"levelo://app?vid=d64c3fc5-3b20-424d-a9df-83c170571095"},"vehicle_type_id":"4","last_reported":1745155081,"current_range_meters":11600,"station_id":"cpo3342slgdg3j2ifvpg","pricing_plan_id":"cebpf4jnsgd1na2vs0mg"},{"bike_id":"2b843171-b4df-4c49-9232-768ff583915c","system_id":"levelo_inurba_marseille","lat":43.26211,"lon":5.37447,"is_reserved":false,"is_disabled":false,"rental_uris":{"android":"levelo://app?vid=2b843171-b4df-4c49-9232-768ff583915c","ios":"levelo://app?vid=2b843171-b4df-4c49-9232-768ff583915c"},"vehicle_type_id":"4","last_reported":1745155081,"current_range_meters":11600,"station_id":"ce4bhgp2rcd13ifvqfc0","pricing_plan_id":"cebpf4jnsgd1na2vs0mg"},{"bike_id":"cc4e8daf-8846-4035-942b-a36b9137d061","system_id":"levelo_inurba_marseille","lat":43.255,"lon":5.37631,"is_reserved":false,"is_disabled":true,"rental_uris":{"android":"levelo://app?vid=cc4e8daf-8846-4035-942b-a36b9137d061","ios":"levelo://app?vid=cc4e8daf-8846-4035-942b-a36b9137d061"},"vehicle_type_id":"4","last_reported":1745155081,"current_range_meters":11600,"station_id":"ce4bhh12rcd13ifvqff0","pricing_plan_id":"cebpf4jnsgd1na2vs0mg"},{"bike_id":"d5ef647d-00ca-43ce-8de2-a9826ded3f15","system_id":"levelo_inurba_marseille","lat":43.21191,"lon":5.35084,"is_reserved":false,"is_disabled":false,"rental_uris":{"android":"levelo://app?vid=d5ef647d-00ca-43ce-8de2-a9826ded3f15","ios":"levelo://app?vid=d5ef647d-00ca-43ce-8de2-a9826ded3f15"},"vehicle_type_id":"4","last_reported":1745155081,"current_range_meters":11600,"station_id":"st_cvj6sg6p6f1abm77japg","pricing_plan_id":"cebpf4jnsgd1na2vs0mg"},{"bike_id":"a481323b-9e82-4e11-8c4c-4e133dc8390a","system_id":"levelo_inurba_marseille","lat":43.31193,"lon":5.36847,"is_reserved":false,"is_disabled":false,"rental_uris":{"android":"levelo://app?vid=a481323b-9e82-4e11-8c4c-4e133dc8390a","ios":"levelo://app?vid=a481323b-9e82-4e11-8c4c-4e133dc8390a"},"vehicle_type_id":"4","last_reported":1745155081,"current_range_meters":12000,"station_id":"ce4bgl92rcd13ifvqbq0","pricing_plan_id":"cebpf4jnsgd1na2vs0mg"},{"bike_id":"19127d2f-b41a-4717-b6aa-87544acdafaa","system_id":"levelo_inurba_marseille","lat":43.21745,"lon":5.34599,"is_reserved":false,"is_disabled":false,"rental_uris":{"android":"levelo://app?vid=19127d2f-b41a-4717-b6aa-87544acdafaa","ios":"levelo://app?vid=19127d2f-b41a-4717-b6aa-87544acdafaa"},"vehicle_type_id":"4","last_reported":1745155081,"current_range_meters":12400,"station_id":"st_cvj6r9ubvosntc0bgbag","pricing_plan_id":"cebpf4jnsgd1na2vs0mg"},{"bike_id":"3c68d4af-f244-4d5b-a673-170645748e37","system_id":"levelo_inurba_marseille","lat":43.276815,"lon":5.397954,"is_reserved":false,"is_disabled":false,"rental_uris":{"android":"levelo://app?vid=3c68d4af-f244-4d5b-a673-170645748e37","ios":"levelo://app?vid=3c68d4af-f244-4d5b-a673-170645748e37"},"vehicle_type_id":"4","last_reported":1745155081,"current_range_meters":12400,"station_id":"","pricing_plan_id":"cebpf4jnsgd1na2vs0mg"},{"bike_id":"f6b06603-46d7-458b-9dc9-fbc0bce785af","system_id":"levelo_inurba_marseille","lat":43.25117,"lon":5.40322,"is_reserved":false,"is_disabled":false,"rental_uris":{"android":"levelo://app?vid=f6b06603-46d7-458b-9dc9-fbc0bce785af","ios":"levelo://app?vid=f6b06603-46d7-458b-9dc9-fbc0bce785af"},"vehicle_type_id":"4","last_reported":1745155081,"current_range_meters":12400,"station_id":"ce4bhlh2rcd13ifvqgig","pricing_plan_id":"cebpf4jnsgd1na2vs0mg"},{"bike_id":"01adb88c-1636-4c4a-b7a3-c5860c58a7d8","system_id":"levelo_inurba_marseille","lat":43.26024,"lon":5.37558,"is_reserved":false,"is_disabled":false,"rental_uris":{"android":"levelo://app?vid=01adb88c-1636-4c4a-b7a3-c5860c58a7d8","ios":"levelo://app?vid=01adb88c-1636-4c4a-b7a3-c5860c58a7d8"},"vehicle_type_id":"4","last_reported":1745155081,"current_range_meters":12400,"station_id":"ce4bhgh2rcd13ifvqfa0","pricing_plan_id":"cebpf4jnsgd1na2vs0mg"},{"bike_id":"76678597-c23c-47ef-be2d-dc8ee6c4aa59","system_id":"levelo_inurba_marseille","lat":43.274946,"lon":5.424495,"is_reserved":false,"is_disabled":false,"rental_uris":{"android":"levelo://app?vid=76678597-c23c-47ef-be2d-dc8ee6c4aa59","ios":"levelo://app?vid=76678597-c23c-47ef-be2d-dc8ee6c4aa59"},"vehicle_type_id":"4","last_reported":1745155081,"current_range_meters":12800,"station_id":"ce4bhn92rcd13ifvqgrg","pricing_plan_id":"cebpf4jnsgd1na2vs0mg"},{"bike_id":"df17b4f8-0c12-4935-bba9-6dbb813d1b61","system_id":"levelo_inurba_marseille","lat":43.24397,"lon":5.37064,"is_reserved":false,"is_disabled":false,"rental_uris":{"android":"levelo://app?vid=df17b4f8-0c12-4935-bba9-6dbb813d1b61","ios":"levelo://app?vid=df17b4f8-0c12-4935-bba9-6dbb813d1b61"},"vehicle_type_id":"4","last_reported":1745155081,"current_range_meters":12800,"station_id":"ce4bhhh2rcd13ifvqfk0","pricing_plan_id":"cebpf4jnsgd1na2vs0mg"},{"bike_id":"d37fc096-e222-469d-93e0-58215aea2b05","system_id":"levelo_inurba_marseille","lat":43.29973,"lon":5.37179,"is_reserved":false,"is_disabled":false,"rental_uris":{"android":"levelo://app?vid=d37fc096-e222-469d-93e0-58215aea2b05","ios":"levelo://app?vid=d37fc096-e222-469d-93e0-58215aea2b05"},"vehicle_type_id":"4","last_reported":1745155081,"current_range_meters":12800,"station_id":"ce4bgr92rcd13ifvqc7g","pricing_plan_id":"cebpf4jnsgd1na2vs0mg"},{"bike_id":"5801a3ca-80c0-4f04-85da-122046aa79e1","system_id":"levelo_inurba_marseille","lat":43.29003,"lon":5.4383,"is_reserved":false,"is_disabled":false,"rental_uris":{"android":"levelo://app?vid=5801a3ca-80c0-4f04-85da-122046aa79e1","ios":"levelo://app?vid=5801a3ca-80c0-4f04-85da-122046aa79e1"},"vehicle_type_id":"4","last_reported":1745155081,"current_range_meters":13600,"station_id":"","pricing_plan_id":"cebpf4jnsgd1na2vs0mg"},{"bike_id":"9f1246a7-6121-4dfb-b19d-be14127ddd08","system_id":"levelo_inurba_marseille","lat":43.23063,"lon":5.35496,"is_reserved":false,"is_disabled":false,"rental_uris":{"android":"levelo://app?vid=9f1246a7-6121-4dfb-b19d-be14127ddd08","ios":"levelo://app?vid=9f1246a7-6121-4dfb-b19d-be14127ddd08"},"vehicle_type_id":"4","last_reported":1745155081,"current_range_meters":13600,"station_id":"cpo3342slgdg3j2ifvpg","pricing_plan_id":"cebpf4jnsgd1na2vs0mg"},{"bike_id":"d5bf3e51-83b4-419b-b784-58ab0f4a9ad2","system_id":"levelo_inurba_marseille","lat":43.21188,"lon":5.35074,"is_reserved":false,"is_disabled":false,"rental_uris":{"android":"levelo://app?vid=d5bf3e51-83b4-419b-b784-58ab0f4a9ad2","ios":"levelo://app?vid=d5bf3e51-83b4-419b-b784-58ab0f4a9ad2"},"vehicle_type_id":"4","last_reported":1745155081,"current_range_meters":13600,"station_id":"st_cvj6sg6p6f1abm77japg","pricing_plan_id":"cebpf4jnsgd1na2vs0mg"},{"bike_id":"dde31839-150d-4387-a084-7015aae7aa90","system_id":"levelo_inurba_marseille","lat":43.25503,"lon":5.37649,"is_reserved":false,"is_disabled":false,"rental_uris":{"android":"levelo://app?vid=dde31839-150d-4387-a084-7015aae7aa90","ios":"levelo://app?vid=dde31839-150d-4387-a084-7015aae7aa90"},"vehicle_type_id":"4","last_reported":1745155081,"current_range_meters":13600,"station_id":"ce4bhh12rcd13ifvqff0","pricing_plan_id":"cebpf4jnsgd1na2vs0mg"},{"bike_id":"ee97d08d-2454-4a22-843d-371617a3ae7e","system_id":"levelo_inurba_marseille","lat":43.25118,"lon":5.4033,"is_reserved":false,"is_disabled":false,"rental_uris":{"android":"levelo://app?vid=ee97d08d-2454-4a22-843d-371617a3ae7e","ios":"levelo://app?vid=ee97d08d-2454-4a22-843d-371617a3ae7e"},"vehicle_type_id":"4","last_reported":1745155081,"current_range_meters":13600,"station_id":"ce4bhlh2rcd13ifvqgig","pricing_plan_id":"cebpf4jnsgd1na2vs0mg"},{"bike_id":"a3dd9a0b-1e95-49bd-9b52-a761b312f104","system_id":"levelo_inurba_marseille","lat":43.25594,"lon":5.38226,"is_reserved":false,"is_disabled":false,"rental_uris":{"android":"levelo://app?vid=a3dd9a0b-1e95-49bd-9b52-a761b312f104","ios":"levelo://app?vid=a3dd9a0b-1e95-49bd-9b52-a761b312f104"},"vehicle_type_id":"4","last_reported":1745155081,"current_range_meters":14000,"station_id":"ce4bhih2rcd13ifvqfs0","pricing_plan_id":"cebpf4jnsgd1na2vs0mg"},{"bike_id":"6019390b-7088-4c04-b80b-2acf1cb29041","system_id":"levelo_inurba_marseille","lat":43.294,"lon":5.4123,"is_reserved":false,"is_disabled":false,"rental_uris":{"android":"levelo://app?vid=6019390b-7088-4c04-b80b-2acf1cb29041","ios":"levelo://app?vid=6019390b-7088-4c04-b80b-2acf1cb29041"},"vehicle_type_id":"4","last_reported":1745155081,"current_range_meters":14000,"station_id":"","pricing_plan_id":"cebpf4jnsgd1na2vs0mg"},{"bike_id":"de9c76e9-5b34-44dc-89d9-de6e318e6be4","system_id":"levelo_inurba_marseille","lat":43.282195,"lon":5.385847,"is_reserved":false,"is_disabled":false,"rental_uris":{"android":"levelo://app?vid=de9c76e9-5b34-44dc-89d9-de6e318e6be4","ios":"levelo://app?vid=de9c76e9-5b34-44dc-89d9-de6e318e6be4"},"vehicle_type_id":"4","last_reported":1745155081,"current_range_meters":14000,"station_id":"ce4bhi12rcd13ifvqfp0","pricing_plan_id":"cebpf4jnsgd1na2vs0mg"},{"bike_id":"4fd87317-4923-494a-a05e-56c3cadf7c8e","system_id":"levelo_inurba_marseille","lat":43.22495,"lon":5.34786,"is_reserved":false,"is_disabled":false,"rental_uris":{"android":"levelo://app?vid=4fd87317-4923-494a-a05e-56c3cadf7c8e","ios":"levelo://app?vid=4fd87317-4923-494a-a05e-56c3cadf7c8e"},"vehicle_type_id":"4","last_reported":1745155081,"current_range_meters":14000,"station_id":"","pricing_plan_id":"cebpf4jnsgd1na2vs0mg"},{"bike_id":"cab64969-2640-47ee-abb9-f11afb1f3a59","system_id":"levelo_inurba_marseille","lat":43.28623,"lon":5.35087,"is_reserved":false,"is_disabled":true,"rental_uris":{"android":"levelo://app?vid=cab64969-2640-47ee-abb9-f11afb1f3a59","ios":"levelo://app?vid=cab64969-2640-47ee-abb9-f11afb1f3a59"},"vehicle_type_id":"4","last_reported":1745155081,"current_range_meters":14000,"station_id":"ce4bhch2rcd13ifvqeug","pricing_plan_id":"cebpf4jnsgd1na2vs0mg"},{"bike_id":"635327bc-d280-4676-9818-c1af3e76102c","system_id":"levelo_inurba_marseille","lat":43.21182,"lon":5.3508,"is_reserved":false,"is_disabled":false,"rental_uris":{"android":"levelo://app?vid=635327bc-d280-4676-9818-c1af3e76102c","ios":"levelo://app?vid=635327bc-d280-4676-9818-c1af3e76102c"},"vehicle_type_id":"4","last_reported":1745155081,"current_range_meters":14000,"station_id":"st_cvj6sg6p6f1abm77japg","pricing_plan_id":"cebpf4jnsgd1na2vs0mg"},{"bike_id":"ce034b4a-bb67-4c72-856c-a0c7ed4c8b8f","system_id":"levelo_inurba_marseille","lat":43.23439,"lon":5.3593,"is_reserved":false,"is_disabled":false,"rental_uris":{"android":"levelo://app?vid=ce034b4a-bb67-4c72-856c-a0c7ed4c8b8f","ios":"levelo://app?vid=ce034b4a-bb67-4c72-856c-a0c7ed4c8b8f"},"vehicle_type_id":"4","last_reported":1745155081,"current_range_meters":14000,"station_id":"","pricing_plan_id":"cebpf4jnsgd1na2vs0mg"},{"bike_id":"8791819b-3cea-4f57-bb6a-cf9e074dfed7","system_id":"levelo_inurba_marseille","lat":43.23057,"lon":5.3549,"is_reserved":false,"is_disabled":false,"rental_uris":{"android":"levelo://app?vid=8791819b-3cea-4f57-bb6a-cf9e074dfed7","ios":"levelo://app?vid=8791819b-3cea-4f57-bb6a-cf9e074dfed7"},"vehicle_type_id":"4","last_reported":1745155081,"current_range_meters":14000,"station_id":"cpo3342slgdg3j2ifvpg","pricing_plan_id":"cebpf4jnsgd1na2vs0mg"},{"bike_id":"f01fc261-033f-49c7-b09e-b9967362bd76","system_id":"levelo_inurba_marseille","lat":43.28821,"lon":5.35857,"is_reserved":false,"is_disabled":true,"rental_uris":{"android":"levelo://app?vid=f01fc261-033f-49c7-b09e-b9967362bd76","ios":"levelo://app?vid=f01fc261-033f-49c7-b09e-b9967362bd76"},"vehicle_type_id":"4","last_reported":1745155081,"current_range_meters":14000,"station_id":"ce4bhb12rcd13ifvqem0","pricing_plan_id":"cebpf4jnsgd1na2vs0mg"},{"bike_id":"50720bbe-5512-41d7-86e0-3df313b565c6","system_id":"levelo_inurba_marseille","lat":43.32354,"lon":5.38958,"is_reserved":false,"is_disabled":true,"rental_uris":{"android":"levelo://app?vid=50720bbe-5512-41d7-86e0-3df313b565c6","ios":"levelo://app?vid=50720bbe-5512-41d7-86e0-3df313b565c6"},"vehicle_type_id":"4","last_reported":1745155081,"current_range_meters":14400,"station_id":"ce4bhqp2rcd13ifvqhog","pricing_plan_id":"cebpf4jnsgd1na2vs0mg"},{"bike_id":"79cbdd94-4f32-4fa2-bb3a-4b1a841e7488","system_id":"levelo_inurba_marseille","lat":43.23181,"lon":5.39978,"is_reserved":false,"is_disabled":false,"rental_uris":{"android":"levelo://app?vid=79cbdd94-4f32-4fa2-bb3a-4b1a841e7488","ios":"levelo://app?vid=79cbdd94-4f32-4fa2-bb3a-4b1a841e7488"},"vehicle_type_id":"4","last_reported":1745155081,"current_range_meters":14400,"station_id":"ce4bhn12rcd13ifvqgqg","pricing_plan_id":"cebpf4jnsgd1na2vs0mg"},{"bike_id":"80b55b8f-4b91-4662-b23c-f0419d420337","system_id":"levelo_inurba_marseille","lat":43.23065,"lon":5.35499,"is_reserved":false,"is_disabled":false,"rental_uris":{"android":"levelo://app?vid=80b55b8f-4b91-4662-b23c-f0419d420337","ios":"levelo://app?vid=80b55b8f-4b91-4662-b23c-f0419d420337"},"vehicle_type_id":"4","last_reported":1745155081,"current_range_meters":14400,"station_id":"cpo3342slgdg3j2ifvpg","pricing_plan_id":"cebpf4jnsgd1na2vs0mg"},{"bike_id":"4e0feb4b-9af5-4c5c-a215-eabded87c4f9","system_id":"levelo_inurba_marseille","lat":43.23191,"lon":5.35567,"is_reserved":false,"is_disabled":false,"rental_uris":{"android":"levelo://app?vid=4e0feb4b-9af5-4c5c-a215-eabded87c4f9","ios":"levelo://app?vid=4e0feb4b-9af5-4c5c-a215-eabded87c4f9"},"vehicle_type_id":"4","last_reported":1745155081,"current_range_meters":14400,"station_id":"ce4bhu92rcd13ifvqi70","pricing_plan_id":"cebpf4jnsgd1na2vs0mg"},{"bike_id":"d53e964c-f934-484c-a259-3e8f23cdd819","system_id":"levelo_inurba_marseille","lat":43.33732,"lon":5.39192,"is_reserved":false,"is_disabled":false,"rental_uris":{"android":"levelo://app?vid=d53e964c-f934-484c-a259-3e8f23cdd819","ios":"levelo://app?vid=d53e964c-f934-484c-a259-3e8f23cdd819"},"vehicle_type_id":"4","last_reported":1745155081,"current_range_meters":14800,"station_id":"ce4bhr92rcd13ifvqhsg","pricing_plan_id":"cebpf4jnsgd1na2vs0mg"},{"bike_id":"0b8eb6fb-c971-4fcd-803a-af5f1e6f0e3f","system_id":"levelo_inurba_marseille","lat":43.28719,"lon":5.37942,"is_reserved":false,"is_disabled":false,"rental_uris":{"android":"levelo://app?vid=0b8eb6fb-c971-4fcd-803a-af5f1e6f0e3f","ios":"levelo://app?vid=0b8eb6fb-c971-4fcd-803a-af5f1e6f0e3f"},"vehicle_type_id":"4","last_reported":1745155081,"current_range_meters":14400,"station_id":"ce4bh9p2rcd13ifvqec0","pricing_plan_id":"cebpf4jnsgd1na2vs0mg"},{"bike_id":"f7027e6a-48d2-4cae-b50c-97b01f670552","system_id":"levelo_inurba_marseille","lat":43.2396,"lon":5.36628,"is_reserved":false,"is_disabled":false,"rental_uris":{"android":"levelo://app?vid=f7027e6a-48d2-4cae-b50c-97b01f670552","ios":"levelo://app?vid=f7027e6a-48d2-4cae-b50c-97b01f670552"},"vehicle_type_id":"4","last_reported":1745155081,"current_range_meters":14800,"station_id":"ce4bhi12rcd13ifvqfp0","pricing_plan_id":"cebpf4jnsgd1na2vs0mg"},{"bike_id":"3f2fccb2-46ab-4328-aef6-4dfa413c0518","system_id":"levelo_inurba_marseille","lat":43.26215,"lon":5.37439,"is_reserved":false,"is_disabled":false,"rental_uris":{"android":"levelo://app?vid=3f2fccb2-46ab-4328-aef6-4dfa413c0518","ios":"levelo://app?vid=3f2fccb2-46ab-4328-aef6-4dfa413c0518"},"vehicle_type_id":"4","last_reported":1745155081,"current_range_meters":15200,"station_id":"ce4bhgp2rcd13ifvqfc0","pricing_plan_id":"cebpf4jnsgd1na2vs0mg"},{"bike_id":"7305da7e-4f0d-4487-9075-850d385c8ba1","system_id":"levelo_inurba_marseille","lat":43.21751,"lon":5.34608,"is_reserved":false,"is_disabled":false,"rental_uris":{"android":"levelo://app?vid=7305da7e-4f0d-4487-9075-850d385c8ba1","ios":"levelo://app?vid=7305da7e-4f0d-4487-9075-850d385c8ba1"},"vehicle_type_id":"4","last_reported":1745155081,"current_range_meters":15200,"station_id":"st_cvj6r9ubvosntc0bgbag","pricing_plan_id":"cebpf4jnsgd1na2vs0mg"},{"bike_id":"aa4956c6-6845-4783-8776-ee4b88f920ec","system_id":"levelo_inurba_marseille","lat":43.28606,"lon":5.3707,"is_reserved":false,"is_disabled":true,"rental_uris":{"android":"levelo://app?vid=aa4956c6-6845-4783-8776-ee4b88f920ec","ios":"levelo://app?vid=aa4956c6-6845-4783-8776-ee4b88f920ec"},"vehicle_type_id":"4","last_reported":1745155081,"current_range_meters":15200,"station_id":"ce4bht12rcd13ifvqi60","pricing_plan_id":"cebpf4jnsgd1na2vs0mg"},{"bike_id":"ad821001-43db-421b-b35d-80aeb01549ea","system_id":"levelo_inurba_marseille","lat":43.24547,"lon":5.39519,"is_reserved":false,"is_disabled":false,"rental_uris":{"android":"levelo://app?vid=ad821001-43db-421b-b35d-80aeb01549ea","ios":"levelo://app?vid=ad821001-43db-421b-b35d-80aeb01549ea"},"vehicle_type_id":"4","last_reported":1745155081,"current_range_meters":15200,"station_id":"ce4bhlp2rcd13ifvqgjg","pricing_plan_id":"cebpf4jnsgd1na2vs0mg"},{"bike_id":"9c5b2c41-4a73-4d0b-a583-50ed2d2b11ef","system_id":"levelo_inurba_marseille","lat":43.2573,"lon":5.41102,"is_reserved":false,"is_disabled":false,"rental_uris":{"android":"levelo://app?vid=9c5b2c41-4a73-4d0b-a583-50ed2d2b11ef","ios":"levelo://app?vid=9c5b2c41-4a73-4d0b-a583-50ed2d2b11ef"},"vehicle_type_id":"4","last_reported":1745155081,"current_range_meters":15200,"station_id":"ce4bhkp2rcd13ifvqgd0","pricing_plan_id":"cebpf4jnsgd1na2vs0mg"},{"bike_id":"c299dc9e-5a14-4947-ae3f-28b3be5e4f74","system_id":"levelo_inurba_marseille","lat":43.21746,"lon":5.34611,"is_reserved":false,"is_disabled":false,"rental_uris":{"android":"levelo://app?vid=c299dc9e-5a14-4947-ae3f-28b3be5e4f74","ios":"levelo://app?vid=c299dc9e-5a14-4947-ae3f-28b3be5e4f74"},"vehicle_type_id":"4","last_reported":1745155081,"current_range_meters":15200,"station_id":"st_cvj6r9ubvosntc0bgbag","pricing_plan_id":"cebpf4jnsgd1na2vs0mg"},{"bike_id":"77da0dc0-2b16-4f94-b05f-2ab3232d5524","system_id":"levelo_inurba_marseille","lat":43.22505,"lon":5.34781,"is_reserved":false,"is_disabled":false,"rental_uris":{"android":"levelo://app?vid=77da0dc0-2b16-4f94-b05f-2ab3232d5524","ios":"levelo://app?vid=77da0dc0-2b16-4f94-b05f-2ab3232d5524"},"vehicle_type_id":"4","last_reported":1745155081,"current_range_meters":15200,"station_id":"st_cvj5dfep6f1abm77gieg","pricing_plan_id":"cebpf4jnsgd1na2vs0mg"},{"bike_id":"e653e066-2807-4514-8a61-d3a7d53ac289","system_id":"levelo_inurba_marseille","lat":43.225028,"lon":5.347872,"is_reserved":false,"is_disabled":false,"rental_uris":{"android":"levelo://app?vid=e653e066-2807-4514-8a61-d3a7d53ac289","ios":"levelo://app?vid=e653e066-2807-4514-8a61-d3a7d53ac289"},"vehicle_type_id":"4","last_reported":1745155081,"current_range_meters":15200,"station_id":"","pricing_plan_id":"cebpf4jnsgd1na2vs0mg"},{"bike_id":"65edeca9-c760-4e7e-aade-7755efce5533","system_id":"levelo_inurba_marseille","lat":43.28271,"lon":5.35064,"is_reserved":false,"is_disabled":false,"rental_uris":{"android":"levelo://app?vid=65edeca9-c760-4e7e-aade-7755efce5533","ios":"levelo://app?vid=65edeca9-c760-4e7e-aade-7755efce5533"},"vehicle_type_id":"4","last_reported":1745155081,"current_range_meters":14800,"station_id":"ce4bhbp2rcd13ifvqerg","pricing_plan_id":"cebpf4jnsgd1na2vs0mg"},{"bike_id":"c08d6f9c-afb7-41bd-b1b5-5431441aaad8","system_id":"levelo_inurba_marseille","lat":43.298505,"lon":5.36283,"is_reserved":false,"is_disabled":false,"rental_uris":{"android":"levelo://app?vid=c08d6f9c-afb7-41bd-b1b5-5431441aaad8","ios":"levelo://app?vid=c08d6f9c-afb7-41bd-b1b5-5431441aaad8"},"vehicle_type_id":"4","last_reported":1745155081,"current_range_meters":15200,"station_id":"ce4bgpp2rcd13ifvqc3g","pricing_plan_id":"cebpf4jnsgd1na2vs0mg"},{"bike_id":"386c0466-92a0-4b14-84ad-ceae0ada9e40","system_id":"levelo_inurba_marseille","lat":43.30901,"lon":5.36841,"is_reserved":false,"is_disabled":true,"rental_uris":{"android":"levelo://app?vid=386c0466-92a0-4b14-84ad-ceae0ada9e40","ios":"levelo://app?vid=386c0466-92a0-4b14-84ad-ceae0ada9e40"},"vehicle_type_id":"4","last_reported":1745155081,"current_range_meters":16000,"station_id":"ce4bgn92rcd13ifvqbvg","pricing_plan_id":"cebpf4jnsgd1na2vs0mg"},{"bike_id":"7885b441-5e28-4565-ac18-7e945de7b4bd","system_id":"levelo_inurba_marseille","lat":43.28419,"lon":5.34991,"is_reserved":false,"is_disabled":false,"rental_uris":{"android":"levelo://app?vid=7885b441-5e28-4565-ac18-7e945de7b4bd","ios":"levelo://app?vid=7885b441-5e28-4565-ac18-7e945de7b4bd"},"vehicle_type_id":"4","last_reported":1745155081,"current_range_meters":16000,"station_id":"ce4bhbh2rcd13ifvqepg","pricing_plan_id":"cebpf4jnsgd1na2vs0mg"},{"bike_id":"2147583a-6aeb-4422-bcfc-70512bd60fea","system_id":"levelo_inurba_marseille","lat":43.21741,"lon":5.34606,"is_reserved":false,"is_disabled":false,"rental_uris":{"android":"levelo://app?vid=2147583a-6aeb-4422-bcfc-70512bd60fea","ios":"levelo://app?vid=2147583a-6aeb-4422-bcfc-70512bd60fea"},"vehicle_type_id":"4","last_reported":1745155081,"current_range_meters":16000,"station_id":"st_cvj6r9ubvosntc0bgbag","pricing_plan_id":"cebpf4jnsgd1na2vs0mg"},{"bike_id":"54333f71-3852-4e7b-b374-b14e492e4962","system_id":"levelo_inurba_marseille","lat":43.3041,"lon":5.41285,"is_reserved":false,"is_disabled":true,"rental_uris":{"android":"levelo://app?vid=54333f71-3852-4e7b-b374-b14e492e4962","ios":"levelo://app?vid=54333f71-3852-4e7b-b374-b14e492e4962"},"vehicle_type_id":"4","last_reported":1745155081,"current_range_meters":16000,"station_id":"ce4bhop2rcd13ifvqh8g","pricing_plan_id":"cebpf4jnsgd1na2vs0mg"},{"bike_id":"cb04d036-524e-497d-b1e8-d53251979b05","system_id":"levelo_inurba_marseille","lat":43.29892,"lon":5.39726,"is_reserved":false,"is_disabled":true,"rental_uris":{"android":"levelo://app?vid=cb04d036-524e-497d-b1e8-d53251979b05","ios":"levelo://app?vid=cb04d036-524e-497d-b1e8-d53251979b05"},"vehicle_type_id":"4","last_reported":1745155081,"current_range_meters":16000,"station_id":"ce4bh0h2rcd13ifvqd50","pricing_plan_id":"cebpf4jnsgd1na2vs0mg"},{"bike_id":"6db2ec77-9208-4d7c-85f1-a44f570ede6a","system_id":"levelo_inurba_marseille","lat":43.2419,"lon":5.39706,"is_reserved":false,"is_disabled":false,"rental_uris":{"android":"levelo://app?vid=6db2ec77-9208-4d7c-85f1-a44f570ede6a","ios":"levelo://app?vid=6db2ec77-9208-4d7c-85f1-a44f570ede6a"},"vehicle_type_id":"4","last_reported":1745155081,"current_range_meters":16000,"station_id":"ce4bhn12rcd13ifvqgpg","pricing_plan_id":"cebpf4jnsgd1na2vs0mg"},{"bike_id":"4f3459a0-6c98-40ac-9364-5741ee6332a5","system_id":"levelo_inurba_marseille","lat":43.21748,"lon":5.34596,"is_reserved":false,"is_disabled":false,"rental_uris":{"android":"levelo://app?vid=4f3459a0-6c98-40ac-9364-5741ee6332a5","ios":"levelo://app?vid=4f3459a0-6c98-40ac-9364-5741ee6332a5"},"vehicle_type_id":"4","last_reported":1745155081,"current_range_meters":16400,"station_id":"st_cvj6r9ubvosntc0bgbag","pricing_plan_id":"cebpf4jnsgd1na2vs0mg"},{"bike_id":"4bf1bb25-f4c8-4e16-9b02-6aad382f643d","system_id":"levelo_inurba_marseille","lat":43.26214,"lon":5.37437,"is_reserved":false,"is_disabled":false,"rental_uris":{"android":"levelo://app?vid=4bf1bb25-f4c8-4e16-9b02-6aad382f643d","ios":"levelo://app?vid=4bf1bb25-f4c8-4e16-9b02-6aad382f643d"},"vehicle_type_id":"4","last_reported":1745155081,"current_range_meters":16000,"station_id":"ce4bhgp2rcd13ifvqfc0","pricing_plan_id":"cebpf4jnsgd1na2vs0mg"},{"bike_id":"d66f2fbf-84c1-4006-a003-d92ef3aa9479","system_id":"levelo_inurba_marseille","lat":43.2319,"lon":5.35541,"is_reserved":false,"is_disabled":false,"rental_uris":{"android":"levelo://app?vid=d66f2fbf-84c1-4006-a003-d92ef3aa9479","ios":"levelo://app?vid=d66f2fbf-84c1-4006-a003-d92ef3aa9479"},"vehicle_type_id":"4","last_reported":1745155081,"current_range_meters":16000,"station_id":"ce4bhu92rcd13ifvqi70","pricing_plan_id":"cebpf4jnsgd1na2vs0mg"},{"bike_id":"10b36d42-d2ef-43b8-8e3f-a4736f614fa6","system_id":"levelo_inurba_marseille","lat":43.30783,"lon":5.37653,"is_reserved":false,"is_disabled":false,"rental_uris":{"android":"levelo://app?vid=10b36d42-d2ef-43b8-8e3f-a4736f614fa6","ios":"levelo://app?vid=10b36d42-d2ef-43b8-8e3f-a4736f614fa6"},"vehicle_type_id":"4","last_reported":1745155081,"current_range_meters":16000,"station_id":"ce4bgv92rcd13ifvqcq0","pricing_plan_id":"cebpf4jnsgd1na2vs0mg"},{"bike_id":"4fdece0c-8162-4423-8463-2693c9e272b7","system_id":"levelo_inurba_marseille","lat":43.231514,"lon":5.437047,"is_reserved":false,"is_disabled":false,"rental_uris":{"android":"levelo://app?vid=4fdece0c-8162-4423-8463-2693c9e272b7","ios":"levelo://app?vid=4fdece0c-8162-4423-8463-2693c9e272b7"},"vehicle_type_id":"4","last_reported":1745155081,"current_range_meters":16000,"station_id":"ce4bhmp2rcd13ifvqgog","pricing_plan_id":"cebpf4jnsgd1na2vs0mg"},{"bike_id":"5afd360f-5ee9-4db3-9efb-efaf7aa37d10","system_id":"levelo_inurba_marseille","lat":43.287109,"lon":5.360635,"is_reserved":false,"is_disabled":false,"rental_uris":{"android":"levelo://app?vid=5afd360f-5ee9-4db3-9efb-efaf7aa37d10","ios":"levelo://app?vid=5afd360f-5ee9-4db3-9efb-efaf7aa37d10"},"vehicle_type_id":"4","last_reported":1745155081,"current_range_meters":16400,"station_id":"cki0cbj6b192h4jlfktg","pricing_plan_id":"cebpf4jnsgd1na2vs0mg"},{"bike_id":"d6aeb923-d30a-4a42-bf5a-2bc2aa47af51","system_id":"levelo_inurba_marseille","lat":43.21748,"lon":5.34594,"is_reserved":false,"is_disabled":false,"rental_uris":{"android":"levelo://app?vid=d6aeb923-d30a-4a42-bf5a-2bc2aa47af51","ios":"levelo://app?vid=d6aeb923-d30a-4a42-bf5a-2bc2aa47af51"},"vehicle_type_id":"4","last_reported":1745155081,"current_range_meters":16400,"station_id":"st_cvj6r9ubvosntc0bgbag","pricing_plan_id":"cebpf4jnsgd1na2vs0mg"},{"bike_id":"7d29063e-cc47-43de-9fe3-33b900004d65","system_id":"levelo_inurba_marseille","lat":43.21184,"lon":5.35068,"is_reserved":false,"is_disabled":false,"rental_uris":{"android":"levelo://app?vid=7d29063e-cc47-43de-9fe3-33b900004d65","ios":"levelo://app?vid=7d29063e-cc47-43de-9fe3-33b900004d65"},"vehicle_type_id":"4","last_reported":1745155081,"current_range_meters":16400,"station_id":"st_cvj6sg6p6f1abm77japg","pricing_plan_id":"cebpf4jnsgd1na2vs0mg"},{"bike_id":"57332b25-e487-4c64-b4bc-c9ac655171cf","system_id":"levelo_inurba_marseille","lat":43.273743,"lon":5.362513,"is_reserved":false,"is_disabled":false,"rental_uris":{"android":"levelo://app?vid=57332b25-e487-4c64-b4bc-c9ac655171cf","ios":"levelo://app?vid=57332b25-e487-4c64-b4bc-c9ac655171cf"},"vehicle_type_id":"4","last_reported":1745155081,"current_range_meters":16400,"station_id":"ce4bhbh2rcd13ifvqeo0","pricing_plan_id":"cebpf4jnsgd1na2vs0mg"},{"bike_id":"8605282b-b417-44ef-b921-2c93f06b4d14","system_id":"levelo_inurba_marseille","lat":43.25094,"lon":5.40371,"is_reserved":false,"is_disabled":false,"rental_uris":{"android":"levelo://app?vid=8605282b-b417-44ef-b921-2c93f06b4d14","ios":"levelo://app?vid=8605282b-b417-44ef-b921-2c93f06b4d14"},"vehicle_type_id":"4","last_reported":1745155081,"current_range_meters":16400,"station_id":"ce4bhlh2rcd13ifvqgig","pricing_plan_id":"cebpf4jnsgd1na2vs0mg"},{"bike_id":"9cd66f20-0974-44a3-a00c-3af08e74ebf2","system_id":"levelo_inurba_marseille","lat":43.26019,"lon":5.41743,"is_reserved":false,"is_disabled":false,"rental_uris":{"android":"levelo://app?vid=9cd66f20-0974-44a3-a00c-3af08e74ebf2","ios":"levelo://app?vid=9cd66f20-0974-44a3-a00c-3af08e74ebf2"},"vehicle_type_id":"4","last_reported":1745155081,"current_range_meters":16400,"station_id":"","pricing_plan_id":"cebpf4jnsgd1na2vs0mg"},{"bike_id":"cbcf2b63-1e60-4b5d-b61b-8baaf7f6ab2f","system_id":"levelo_inurba_marseille","lat":43.26211,"lon":5.37439,"is_reserved":false,"is_disabled":false,"rental_uris":{"android":"levelo://app?vid=cbcf2b63-1e60-4b5d-b61b-8baaf7f6ab2f","ios":"levelo://app?vid=cbcf2b63-1e60-4b5d-b61b-8baaf7f6ab2f"},"vehicle_type_id":"4","last_reported":1745155081,"current_range_meters":16800,"station_id":"ce4bhgp2rcd13ifvqfc0","pricing_plan_id":"cebpf4jnsgd1na2vs0mg"},{"bike_id":"6cb32928-af13-438c-897b-314f762f58e9","system_id":"levelo_inurba_marseille","lat":43.24654,"lon":5.38894,"is_reserved":false,"is_disabled":false,"rental_uris":{"android":"levelo://app?vid=6cb32928-af13-438c-897b-314f762f58e9","ios":"levelo://app?vid=6cb32928-af13-438c-897b-314f762f58e9"},"vehicle_type_id":"4","last_reported":1745155081,"current_range_meters":16800,"station_id":"ce4bhg12rcd13ifvqf60","pricing_plan_id":"cebpf4jnsgd1na2vs0mg"},{"bike_id":"6849084f-c018-412d-8453-48b9ef5c6ac3","system_id":"levelo_inurba_marseille","lat":43.265556,"lon":5.372799,"is_reserved":false,"is_disabled":false,"rental_uris":{"android":"levelo://app?vid=6849084f-c018-412d-8453-48b9ef5c6ac3","ios":"levelo://app?vid=6849084f-c018-412d-8453-48b9ef5c6ac3"},"vehicle_type_id":"4","last_reported":1745155081,"current_range_meters":16800,"station_id":"ce4bhg12rcd13ifvqf70","pricing_plan_id":"cebpf4jnsgd1na2vs0mg"},{"bike_id":"721f595d-f057-44ac-ac8d-4aec1bc01567","system_id":"levelo_inurba_marseille","lat":43.25102,"lon":5.40329,"is_reserved":false,"is_disabled":false,"rental_uris":{"android":"levelo://app?vid=721f595d-f057-44ac-ac8d-4aec1bc01567","ios":"levelo://app?vid=721f595d-f057-44ac-ac8d-4aec1bc01567"},"vehicle_type_id":"4","last_reported":1745155081,"current_range_meters":16800,"station_id":"ce4bhlh2rcd13ifvqgig","pricing_plan_id":"cebpf4jnsgd1na2vs0mg"},{"bike_id":"1a5f2cec-6354-428d-a667-d2081b30c7f2","system_id":"levelo_inurba_marseille","lat":43.27669,"lon":5.39836,"is_reserved":false,"is_disabled":false,"rental_uris":{"android":"levelo://app?vid=1a5f2cec-6354-428d-a667-d2081b30c7f2","ios":"levelo://app?vid=1a5f2cec-6354-428d-a667-d2081b30c7f2"},"vehicle_type_id":"4","last_reported":1745155081,"current_range_meters":16800,"station_id":"","pricing_plan_id":"cebpf4jnsgd1na2vs0mg"},{"bike_id":"84b2c243-9d28-47d9-b325-5d96bc920220","system_id":"levelo_inurba_marseille","lat":43.21746,"lon":5.346,"is_reserved":false,"is_disabled":false,"rental_uris":{"android":"levelo://app?vid=84b2c243-9d28-47d9-b325-5d96bc920220","ios":"levelo://app?vid=84b2c243-9d28-47d9-b325-5d96bc920220"},"vehicle_type_id":"4","last_reported":1745155081,"current_range_meters":16800,"station_id":"st_cvj6r9ubvosntc0bgbag","pricing_plan_id":"cebpf4jnsgd1na2vs0mg"},{"bike_id":"7ec0fce2-6c90-4831-b2d2-fadbbebc0278","system_id":"levelo_inurba_marseille","lat":43.26206,"lon":5.37445,"is_reserved":false,"is_disabled":false,"rental_uris":{"android":"levelo://app?vid=7ec0fce2-6c90-4831-b2d2-fadbbebc0278","ios":"levelo://app?vid=7ec0fce2-6c90-4831-b2d2-fadbbebc0278"},"vehicle_type_id":"4","last_reported":1745155081,"current_range_meters":16800,"station_id":"ce4bhgp2rcd13ifvqfc0","pricing_plan_id":"cebpf4jnsgd1na2vs0mg"},{"bike_id":"edb71a78-41ac-4579-896f-04f8e38c359b","system_id":"levelo_inurba_marseille","lat":43.23188,"lon":5.35575,"is_reserved":false,"is_disabled":false,"rental_uris":{"android":"levelo://app?vid=edb71a78-41ac-4579-896f-04f8e38c359b","ios":"levelo://app?vid=edb71a78-41ac-4579-896f-04f8e38c359b"},"vehicle_type_id":"4","last_reported":1745155081,"current_range_meters":17200,"station_id":"ce4bhu92rcd13ifvqi70","pricing_plan_id":"cebpf4jnsgd1na2vs0mg"},{"bike_id":"4953891c-b25b-4e73-a96e-7cadafc69ba0","system_id":"levelo_inurba_marseille","lat":43.29006,"lon":5.35608,"is_reserved":false,"is_disabled":false,"rental_uris":{"android":"levelo://app?vid=4953891c-b25b-4e73-a96e-7cadafc69ba0","ios":"levelo://app?vid=4953891c-b25b-4e73-a96e-7cadafc69ba0"},"vehicle_type_id":"4","last_reported":1745155081,"current_range_meters":16800,"station_id":"ce4bhb92rcd13ifvqen0","pricing_plan_id":"cebpf4jnsgd1na2vs0mg"},{"bike_id":"f36c50e9-99a2-48ac-ba24-bbee1a1c2a9b","system_id":"levelo_inurba_marseille","lat":43.23192,"lon":5.39977,"is_reserved":false,"is_disabled":false,"rental_uris":{"android":"levelo://app?vid=f36c50e9-99a2-48ac-ba24-bbee1a1c2a9b","ios":"levelo://app?vid=f36c50e9-99a2-48ac-ba24-bbee1a1c2a9b"},"vehicle_type_id":"4","last_reported":1745155081,"current_range_meters":17200,"station_id":"ce4bhn12rcd13ifvqgqg","pricing_plan_id":"cebpf4jnsgd1na2vs0mg"},{"bike_id":"14aa5634-cccd-46db-a638-6f36ff4f4d85","system_id":"levelo_inurba_marseille","lat":43.22932,"lon":5.35372,"is_reserved":false,"is_disabled":false,"rental_uris":{"android":"levelo://app?vid=14aa5634-cccd-46db-a638-6f36ff4f4d85","ios":"levelo://app?vid=14aa5634-cccd-46db-a638-6f36ff4f4d85"},"vehicle_type_id":"4","last_reported":1745155081,"current_range_meters":17200,"station_id":"cpo3532slgdg3j2ikp40","pricing_plan_id":"cebpf4jnsgd1na2vs0mg"},{"bike_id":"c7a23d3c-f434-4f7d-8104-d338bb4548f6","system_id":"levelo_inurba_marseille","lat":43.231582,"lon":5.437056,"is_reserved":false,"is_disabled":false,"rental_uris":{"android":"levelo://app?vid=c7a23d3c-f434-4f7d-8104-d338bb4548f6","ios":"levelo://app?vid=c7a23d3c-f434-4f7d-8104-d338bb4548f6"},"vehicle_type_id":"4","last_reported":1745155081,"current_range_meters":17200,"station_id":"ce4bhmp2rcd13ifvqgog","pricing_plan_id":"cebpf4jnsgd1na2vs0mg"},{"bike_id":"a4ce18e3-328c-41ae-b171-7548f21599db","system_id":"levelo_inurba_marseille","lat":43.26558,"lon":5.37286,"is_reserved":false,"is_disabled":false,"rental_uris":{"android":"levelo://app?vid=a4ce18e3-328c-41ae-b171-7548f21599db","ios":"levelo://app?vid=a4ce18e3-328c-41ae-b171-7548f21599db"},"vehicle_type_id":"4","last_reported":1745155081,"current_range_meters":17200,"station_id":"ce4bhg12rcd13ifvqf70","pricing_plan_id":"cebpf4jnsgd1na2vs0mg"},