{"last_updated":1746097751,"ttl":60,"version":"2.2","data":{"bikes":[{"bike_id":"f1cb23bc-1834-4089-a420-ddfb793eb286","system_id":"levelo_inurba_marseille","lat":43.32637,"lon":5.35671,"is_reserved":false,"is_disabled":true,"rental_uris":{"android":"levelo://app?vid=f1cb23bc-1834-4089-a420-ddfb793eb286","ios":"levelo://app?vid=f1cb23bc-1834-4089-a420-ddfb793eb286"},"vehicle_type_id":"4","last_reported":1746097751,"current_range_meters":0,"station_id":"","pricing_plan_id":"cebpf4jnsgd1na2vs0mg"},{"bike_id":"3f06fb43-12f7-4ccb-b229-ae326cbe6dad","system_id":"levelo_inurba_marseille","lat":43.268827,"lon":5.36905,"is_reserved":false,"is_disabled":true,"rental_uris":{"android":"levelo://app?vid=3f06fb43-12f7-4ccb-b229-ae326cbe6dad","ios":"levelo://app?vid=3f06fb43-12f7-4ccb-b229-ae326cbe6dad"},"vehicle_type_id":"4","last_reported":1746097751,"current_range_meters":0,"station_id":"","pricing_plan_id":"cebpf4jnsgd1na2vs0mg"},{"bike_id":"b7b6d4d7-6701-4b7b-9ab6-cdb04a7a83b7","system_id":"levelo_inurba_marseille","lat":43.32313,"lon":5.41355,"is_reserved":false,"is_disabled":true,"rental_uris":{"android":"levelo://app?vid=b7b6d4d7-6701-4b7b-9ab6-cdb04a7a83b7","ios":"levelo://app?vid=b7b6d4d7-6701-4b7b-9ab6-cdb04a7a83b7"},"vehicle_type_id":"4","last_reported":1746097751,"current_range_meters":0,"station_id":"","pricing_plan_id":"cebpf4jnsgd1na2vs0mg"},{"bike_id":"26deac1f-c435-40bc-9469-9ae0b266bb77","system_id":"levelo_inurba_marseille","lat":43.30215,"lon":5.38435,"is_reserved":false,"is_disabled":true,"rental_uris":{"android":"levelo://app?vid=26deac1f-c435-40bc-9469-9ae0b266bb77","ios":"levelo://app?vid=26deac1f-c435-40bc-9469-9ae0b266bb77"},"vehicle_type_id":"4","last_reported":1746097751,"current_range_meters":0,"station_id":"","pricing_plan_id":"cebpf4jnsgd1na2vs0mg"},{"bike_id":"8e55d48e-7012-4fef-8d0c-97558eaa8974","system_id":"levelo_inurba_marseille","lat":43.27504,"lon":5.38964,"is_reserved":false,"is_disabled":true,"rental_uris":{"android":"levelo://app?vid=8e55d48e-7012-4fef-8d0c-97558eaa8974","ios":"levelo://app?vid=8e55d48e-7012-4fef-8d0c-97558eaa8974"},"vehicle_type_id":"4","last_reported":1746097751,"current_range_meters":0,"station_id":"","pricing_plan_id":"cebpf4jnsgd1na2vs0mg"},{"bike_id":"705db5aa-feb0-4862-923d-cfb22bced0d3","system_id":"levelo_inurba_marseille","lat":43.21483,"lon":5.34822,"is_reserved":false,"is_disabled":true,"rental_uris":{"android":"levelo://app?vid=705db5aa-feb0-4862-923d-cfb22bced0d3","ios":"levelo://app?vid=705db5aa-feb0-4862-923d-cfb22bced0d3"},"vehicle_type_id":"4","last_reported":1746097751,"current_range_meters":0,"station_id":"","pricing_plan_id":"cebpf4jnsgd1na2vs0mg"},{"bike_id":"3d010e6b-84ff-49fa-95d7-08a7e3add9ff","system_id":"levelo_inurba_marseille","lat":43.27624,"lon":5.36102,"is_reserved":false,"is_disabled":true,"rental_uris":{"android":"levelo://app?vid=3d010e6b-84ff-49fa-95d7-08a7e3add9ff","ios":"levelo://app?vid=3d010e6b-84ff-49fa-95d7-08a7e3add9ff"},"vehicle_type_id":"4","last_reported":1746097751,"current_range_meters":0,"station_id":"ce4bgj92rcd13ifvqbe0","pricing_plan_id":"cebpf4jnsgd1na2vs0mg"},{"bike_id":"3a90c7e6-7292-46bf-9841-b93d1681705c","system_id":"levelo_inurba_marseille","lat":43.276195,"lon":5.36098,"is_reserved":false,"is_disabled":true,"rental_uris":{"android":"levelo://app?vid=3a90c7e6-7292-46bf-9841-b93d1681705c","ios":"levelo://app?vid=3a90c7e6-7292-46bf-9841-b93d1681705c"},"vehicle_type_id":"4","last_reported":1746097751,"current_range_meters":0,"station_id":"ce4bgj92rcd13ifvqbe0","pricing_plan_id":"cebpf4jnsgd1na2vs0mg"},{"bike_id":"151f9653-7b97-48df-a370-387ebaba64cd","system_id":"levelo_inurba_marseille","lat":43.30646,"lon":5.40084,"is_reserved":false,"is_disabled":true,"rental_uris":{"android":"levelo://app?vid=151f9653-7b97-48df-a370-387ebaba64cd","ios":"levelo://app?vid=151f9653-7b97-48df-a370-387ebaba64cd"},"vehicle_type_id":"4","last_reported":1746097751,"current_range_meters":0,"station_id":"ce4bh112rcd13ifvqda0","pricing_plan_id":"cebpf4jnsgd1na2vs0mg"},{"bike_id":"3d998281-1255-4a3d-a4e8-b488d0eab829","system_id":"levelo_inurba_marseille","lat":43.28263,"lon":5.35067,"is_reserved":false,"is_disabled":true,"rental_uris":{"android":"levelo://app?vid=3d998281-1255-4a3d-a4e8-b488d0eab829","ios":"levelo://app?vid=3d998281-1255-4a3d-a4e8-b488d0eab829"},"vehicle_type_id":"4","last_reported":1746097751,"current_range_meters":0,"station_id":"ce4bhbp2rcd13ifvqerg","pricing_plan_id":"cebpf4jnsgd1na2vs0mg"},{"bike_id":"ce94356e-9643-48d6-85ec-71a8c2f131a9","system_id":"levelo_inurba_marseille","lat":43.28266,"lon":5.35063,"is_reserved":false,"is_disabled":true,"rental_uris":{"android":"levelo://app?vid=ce94356e-9643-48d6-85ec-71a8c2f131a9","ios":"levelo://app?vid=ce94356e-9643-48d6-85ec-71a8c2f131a9"},"vehicle_type_id":"4","last_reported":1746097751,"current_range_meters":0,"station_id":"ce4bhbp2rcd13ifvqerg","pricing_plan_id":"cebpf4jnsgd1na2vs0mg"},{"bike_id":"a8e60b46-49af-4227-9f93-cfcec1f21a01","system_id":"levelo_inurba_marseille","lat":43.29269,"lon":5.36854,"is_reserved":false,"is_disabled":true,"rental_uris":{"android":"levelo://app?vid=a8e60b46-49af-4227-9f93-cfcec1f21a01","ios":"levelo://app?vid=a8e60b46-49af-4227-9f93-cfcec1f21a01"},"vehicle_type_id":"4","last_reported":1746097751,"current_range_meters":0,"station_id":"ce4bhbp2rcd13ifvqesg","pricing_plan_id":"cebpf4jnsgd1na2vs0mg"},{"bike_id":"c9f74fdb-857b-4ef4-8ad0-3167c5cfdfaa","system_id":"levelo_inurba_marseille","lat":43.25491,"lon":5.37654,"is_reserved":false,"is_disabled":true,"rental_uris":{"android":"levelo://app?vid=c9f74fdb-857b-4ef4-8ad0-3167c5cfdfaa","ios":"levelo://app?vid=c9f74fdb-857b-4ef4-8ad0-3167c5cfdfaa"},"vehicle_type_id":"4","last_reported":1746097751,"current_range_meters":0,"station_id":"ce4bhh12rcd13ifvqff0","pricing_plan_id":"cebpf4jnsgd1na2vs0mg"},{"bike_id":"18015bc1-b446-4a72-bcfa-d59229548502","system_id":"levelo_inurba_marseille","lat":43.2315,"lon":5.4371,"is_reserved":false,"is_disabled":true,"rental_uris":{"android":"levelo://app?vid=18015bc1-b446-4a72-bcfa-d59229548502","ios":"levelo://app?vid=18015bc1-b446-4a72-bcfa-d59229548502"},"vehicle_type_id":"4","last_reported":1746097751,"current_range_meters":0,"station_id":"ce4bhmp2rcd13ifvqgog","pricing_plan_id":"cebpf4jnsgd1na2vs0mg"},{"bike_id":"8279eb1e-2f2c-4e73-bf6c-ad45a79c352c","system_id":"levelo_inurba_marseille","lat":43.23161,"lon":5.43681,"is_reserved":false,"is_disabled":true,"rental_uris":{"android":"levelo://app?vid=8279eb1e-2f2c-4e73-bf6c-ad45a79c352c","ios":"levelo://app?vid=8279eb1e-2f2c-4e73-bf6c-ad45a79c352c"},"vehicle_type_id":"4","last_reported":1746097751,"current_range_meters":0,"station_id":"ce4bhmp2rcd13ifvqgog","pricing_plan_id":"cebpf4jnsgd1na2vs0mg"},{"bike_id":"044339f4-bd27-4e22-9a47-0ef0694561a0","system_id":"levelo_inurba_marseille","lat":43.23152,"lon":5.43698,"is_reserved":false,"is_disabled":true,"rental_uris":{"android":"levelo://app?vid=044339f4-bd27-4e22-9a47-0ef0694561a0","ios":"levelo://app?vid=044339f4-bd27-4e22-9a47-0ef0694561a0"},"vehicle_type_id":"4","last_reported":1746097751,"current_range_meters":0,"station_id":"ce4bhmp2rcd13ifvqgog","pricing_plan_id":"cebpf4jnsgd1na2vs0mg"},{"bike_id":"0f800a98-a08a-45f2-867c-a4e0bf8bea75","system_id":"levelo_inurba_marseille","lat":43.23057,"lon":5.35497,"is_reserved":false,"is_disabled":true,"rental_uris":{"android":"levelo://app?vid=0f800a98-a08a-45f2-867c-a4e0bf8bea75","ios":"levelo://app?vid=0f800a98-a08a-45f2-867c-a4e0bf8bea75"},"vehicle_type_id":"4","last_reported":1746097751,"current_range_meters":0,"station_id":"cpo3342slgdg3j2ifvpg","pricing_plan_id":"cebpf4jnsgd1na2vs0mg"},{"bike_id":"672540c8-432b-4a09-a61b-207a5212387c","system_id":"levelo_inurba_marseille","lat":43.28474,"lon":5.38426,"is_reserved":false,"is_disabled":true,"rental_uris":{"android":"levelo://app?vid=672540c8-432b-4a09-a61b-207a5212387c","ios":"levelo://app?vid=672540c8-432b-4a09-a61b-207a5212387c"},"vehicle_type_id":"4","last_reported":1746097751,"current_range_meters":400,"station_id":"ce4bh512rcd13ifvqe3g","pricing_plan_id":"cebpf4jnsgd1na2vs0mg"},{"bike_id":"8a0c390b-33ca-4c4e-abe3-4845c413fbf3","system_id":"levelo_inurba_marseille","lat":43.26685,"lon":5.38274,"is_reserved":false,"is_disabled":true,"rental_uris":{"android":"levelo://app?vid=8a0c390b-33ca-4c4e-abe3-4845c413fbf3","ios":"levelo://app?vid=8a0c390b-33ca-4c4e-abe3-4845c413fbf3"},"vehicle_type_id":"4","last_reported":1746097751,"current_range_meters":400,"station_id":"ce4bhg92rcd13ifvqf90","pricing_plan_id":"cebpf4jnsgd1na2vs0mg"},{"bike_id":"d460f272-473a-41f6-abdc-1faecc077d69","system_id":"levelo_inurba_marseille","lat":43.25105,"lon":5.40342,"is_reserved":false,"is_disabled":true,"rental_uris":{"android":"levelo://app?vid=d460f272-473a-41f6-abdc-1faecc077d69","ios":"levelo://app?vid=d460f272-473a-41f6-abdc-1faecc077d69"},"vehicle_type_id":"4","last_reported":1746097751,"current_range_meters":400,"station_id":"ce4bhlh2rcd13ifvqgig","pricing_plan_id":"cebpf4jnsgd1na2vs0mg"},{"bike_id":"5ae4b472-fe5f-4980-810c-e6e449693a09","system_id":"levelo_inurba_marseille","lat":43.31095,"lon":5.42421,"is_reserved":false,"is_disabled":true,"rental_uris":{"android":"levelo://app?vid=5ae4b472-fe5f-4980-810c-e6e449693a09","ios":"levelo://app?vid=5ae4b472-fe5f-4980-810c-e6e449693a09"},"vehicle_type_id":"4","last_reported":1746097751,"current_range_meters":400,"station_id":"ce4bhp92rcd13ifvqhag","pricing_plan_id":"cebpf4jnsgd1na2vs0mg"},{"bike_id":"240f2821-672f-4bfd-9985-bed5f0edccdf","system_id":"levelo_inurba_marseille","lat":43.27945,"lon":5.38683,"is_reserved":false,"is_disabled":true,"rental_uris":{"android":"levelo://app?vid=240f2821-672f-4bfd-9985-bed5f0edccdf","ios":"levelo://app?vid=240f2821-672f-4bfd-9985-bed5f0edccdf"},"vehicle_type_id":"4","last_reported":1746097751,"current_range_meters":800,"station_id":"","pricing_plan_id":"cebpf4jnsgd1na2vs0mg"},{"bike_id":"50986dce-28d4-4174-8bea-fb7c4b0eae16","system_id":"levelo_inurba_marseille","lat":43.29961,"lon":5.38501,"is_reserved":false,"is_disabled":true,"rental_uris":{"android":"levelo://app?vid=50986dce-28d4-4174-8bea-fb7c4b0eae16","ios":"levelo://app?vid=50986dce-28d4-4174-8bea-fb7c4b0eae16"},"vehicle_type_id":"4","last_reported":1746097751,"current_range_meters":800,"station_id":"ce4bgj92rcd13ifvqbd0","pricing_plan_id":"cebpf4jnsgd1na2vs0mg"},{"bike_id":"9d3dfa99-9d9f-433c-afbb-fab56771efbf","system_id":"levelo_inurba_marseille","lat":43.29719,"lon":5.3769,"is_reserved":false,"is_disabled":true,"rental_uris":{"android":"levelo://app?vid=9d3dfa99-9d9f-433c-afbb-fab56771efbf","ios":"levelo://app?vid=9d3dfa99-9d9f-433c-afbb-fab56771efbf"},"vehicle_type_id":"4","last_reported":1746097751,"current_range_meters":800,"station_id":"ce4bgkh2rcd13ifvqbl0","pricing_plan_id":"cebpf4jnsgd1na2vs0mg"},{"bike_id":"067accc8-aad3-4e55-a1ee-6fafab6b82d9","system_id":"levelo_inurba_marseille","lat":43.26577,"lon":5.37266,"is_reserved":false,"is_disabled":true,"rental_uris":{"android":"levelo://app?vid=067accc8-aad3-4e55-a1ee-6fafab6b82d9","ios":"levelo://app?vid=067accc8-aad3-4e55-a1ee-6fafab6b82d9"},"vehicle_type_id":"4","last_reported":1746097751,"current_range_meters":800,"station_id":"ce4bhg12rcd13ifvqf70","pricing_plan_id":"cebpf4jnsgd1na2vs0mg"},{"bike_id":"8df9dbbe-1c18-4236-a85f-b6d0f42b6e22","system_id":"levelo_inurba_marseille","lat":43.26563,"lon":5.37293,"is_reserved":false,"is_disabled":true,"rental_uris":{"android":"levelo://app?vid=8df9dbbe-1c18-4236-a85f-b6d0f42b6e22","ios":"levelo://app?vid=8df9dbbe-1c18-4236-a85f-b6d0f42b6e22"},"vehicle_type_id":"4","last_reported":1746097751,"current_range_meters":1200,"station_id":"ce4bhg12rcd13ifvqf70","pricing_plan_id":"cebpf4jnsgd1na2vs0mg"},{"bike_id":"0d8baaab-f7f8-48df-b6bc-1790f1a8ed26","system_id":"levelo_inurba_marseille","lat":43.26938,"lon":5.38914,"is_reserved":false,"is_disabled":true,"rental_uris":{"android":"levelo://app?vid=0d8baaab-f7f8-48df-b6bc-1790f1a8ed26","ios":"levelo://app?vid=0d8baaab-f7f8-48df-b6bc-1790f1a8ed26"},"vehicle_type_id":"4","last_reported":1746097751,"current_range_meters":1200,"station_id":"ce4bhhh2rcd13ifvqfl0","pricing_plan_id":"cebpf4jnsgd1na2vs0mg"},{"bike_id":"5b09f8e2-7658-45a3-ac36-471429390865","system_id":"levelo_inurba_marseille","lat":43.23151,"lon":5.43706,"is_reserved":false,"is_disabled":true,"rental_uris":{"android":"levelo://app?vid=5b09f8e2-7658-45a3-ac36-471429390865","ios":"levelo://app?vid=5b09f8e2-7658-45a3-ac36-471429390865"},"vehicle_type_id":"4","last_reported":1746097751,"current_range_meters":1200,"station_id":"ce4bhmp2rcd13ifvqgog","pricing_plan_id":"cebpf4jnsgd1na2vs0mg"},{"bike_id":"14d2451a-edff-4bc1-a0e6-95af81a7f31e","system_id":"levelo_inurba_marseille","lat":43.28412,"lon":5.34978,"is_reserved":false,"is_disabled":true,"rental_uris":{"android":"levelo://app?vid=14d2451a-edff-4bc1-a0e6-95af81a7f31e","ios":"levelo://app?vid=14d2451a-edff-4bc1-a0e6-95af81a7f31e"},"vehicle_type_id":"4","last_reported":1746097751,"current_range_meters":1600,"station_id":"ce4bhbh2rcd13ifvqepg","pricing_plan_id":"cebpf4jnsgd1na2vs0mg"},{"bike_id":"bf99b14d-a52a-4ae1-aa83-8f0eb97de4c9","system_id":"levelo_inurba_marseille","lat":43.23148,"lon":5.43704,"is_reserved":false,"is_disabled":true,"rental_uris":{"android":"levelo://app?vid=bf99b14d-a52a-4ae1-aa83-8f0eb97de4c9","ios":"levelo://app?vid=bf99b14d-a52a-4ae1-aa83-8f0eb97de4c9"},"vehicle_type_id":"4","last_reported":1746097751,"current_range_meters":1600,"station_id":"ce4bhmp2rcd13ifvqgog","pricing_plan_id":"cebpf4jnsgd1na2vs0mg"},{"bike_id":"fec5c4af-fd36-4e23-91b4-9e21439e0d3a","system_id":"levelo_inurba_marseille","lat":43.23149,"lon":5.43706,"is_reserved":false,"is_disabled":true,"rental_uris":{"android":"levelo://app?vid=fec5c4af-fd36-4e23-91b4-9e21439e0d3a","ios":"levelo://app?vid=fec5c4af-fd36-4e23-91b4-9e21439e0d3a"},"vehicle_type_id":"4","last_reported":1746097751,"current_range_meters":1600,"station_id":"ce4bhmp2rcd13ifvqgog","pricing_plan_id":"cebpf4jnsgd1na2vs0mg"},{"bike_id":"c2d69759-da71-43a2-aeb2-4a061831da2f","system_id":"levelo_inurba_marseille","lat":43.24081,"lon":5.37755,"is_reserved":false,"is_disabled":true,"rental_uris":{"android":"levelo://app?vid=c2d69759-da71-43a2-aeb2-4a061831da2f","ios":"levelo://app?vid=c2d69759-da71-43a2-aeb2-4a061831da2f"},"vehicle_type_id":"4","last_reported":1746097751,"current_range_meters":1600,"station_id":"ce4bhnp2rcd13ifvqgvg","pricing_plan_id":"cebpf4jnsgd1na2vs0mg"},{"bike_id":"f8fdd3bb-7263-4f94-9d3e-b91b416a258b","system_id":"levelo_inurba_marseille","lat":43.3248,"lon":5.36574,"is_reserved":false,"is_disabled":true,"rental_uris":{"android":"levelo://app?vid=f8fdd3bb-7263-4f94-9d3e-b91b416a258b","ios":"levelo://app?vid=f8fdd3bb-7263-4f94-9d3e-b91b416a258b"},"vehicle_type_id":"4","last_reported":1746097751,"current_range_meters":1600,"station_id":"ce4bhs12rcd13ifvqhvg","pricing_plan_id":"cebpf4jnsgd1na2vs0mg"},{"bike_id":"e3b70dfe-e868-4ac3-a33f-4ba88a6bbdc2","system_id":"levelo_inurba_marseille","lat":43.2293,"lon":5.35378,"is_reserved":false,"is_disabled":true,"rental_uris":{"android":"levelo://app?vid=e3b70dfe-e868-4ac3-a33f-4ba88a6bbdc2","ios":"levelo://app?vid=e3b70dfe-e868-4ac3-a33f-4ba88a6bbdc2"},"vehicle_type_id":"4","last_reported":1746097751,"current_range_meters":1600,"station_id":"cpo3532slgdg3j2ikp40","pricing_plan_id":"cebpf4jnsgd1na2vs0mg"},{"bike_id":"0a6ff546-116b-46d6-b6f1-bc902d25af1e","system_id":"levelo_inurba_marseille","lat":43.2997,"lon":5.37199,"is_reserved":false,"is_disabled":false,"rental_uris":{"android":"levelo://app?vid=0a6ff546-116b-46d6-b6f1-bc902d25af1e","ios":"levelo://app?vid=0a6ff546-116b-46d6-b6f1-bc902d25af1e"},"vehicle_type_id":"4","last_reported":1746097751,"current_range_meters":2000,"station_id":"ce4bgr92rcd13ifvqc7g","pricing_plan_id":"cebpf4jnsgd1na2vs0mg"},{"bike_id":"ce32b4b2-4e77-40ba-90ec-99f5f195ebe0","system_id":"levelo_inurba_marseille","lat":43.24806,"lon":5.37452,"is_reserved":false,"is_disabled":true,"rental_uris":{"android":"levelo://app?vid=ce32b4b2-4e77-40ba-90ec-99f5f195ebe0","ios":"levelo://app?vid=ce32b4b2-4e77-40ba-90ec-99f5f195ebe0"},"vehicle_type_id":"4","last_reported":1746097751,"current_range_meters":2000,"station_id":"ce4bhgh2rcd13ifvqfb0","pricing_plan_id":"cebpf4jnsgd1na2vs0mg"},{"bike_id":"96b08a4f-b0d2-472f-821b-d88064ed5297","system_id":"levelo_inurba_marseille","lat":43.25492,"lon":5.37645,"is_reserved":false,"is_disabled":true,"rental_uris":{"android":"levelo://app?vid=96b08a4f-b0d2-472f-821b-d88064ed5297","ios":"levelo://app?vid=96b08a4f-b0d2-472f-821b-d88064ed5297"},"vehicle_type_id":"4","last_reported":1746097751,"current_range_meters":2000,"station_id":"ce4bhh12rcd13ifvqff0","pricing_plan_id":"cebpf4jnsgd1na2vs0mg"},{"bike_id":"94996e8c-8488-477f-ba49-9ce8c90d6555","system_id":"levelo_inurba_marseille","lat":43.26796,"lon":5.39414,"is_reserved":false,"is_disabled":false,"rental_uris":{"android":"levelo://app?vid=94996e8c-8488-477f-ba49-9ce8c90d6555","ios":"levelo://app?vid=94996e8c-8488-477f-ba49-9ce8c90d6555"},"vehicle_type_id":"4","last_reported":1746097751,"current_range_meters":2000,"station_id":"ce4bhh12rcd13ifvqfg0","pricing_plan_id":"cebpf4jnsgd1na2vs0mg"},{"bike_id":"7bba6da2-4756-48ec-904c-6d58e224934c","system_id":"levelo_inurba_marseille","lat":43.24546,"lon":5.395393,"is_reserved":false,"is_disabled":true,"rental_uris":{"android":"levelo://app?vid=7bba6da2-4756-48ec-904c-6d58e224934c","ios":"levelo://app?vid=7bba6da2-4756-48ec-904c-6d58e224934c"},"vehicle_type_id":"4","last_reported":1746097751,"current_range_meters":2000,"station_id":"ce4bhlp2rcd13ifvqgjg","pricing_plan_id":"cebpf4jnsgd1na2vs0mg"},{"bike_id":"440b862b-ae5f-4141-9da4-63847d10e8ac","system_id":"levelo_inurba_marseille","lat":43.2315,"lon":5.43695,"is_reserved":false,"is_disabled":true,"rental_uris":{"android":"levelo://app?vid=440b862b-ae5f-4141-9da4-63847d10e8ac","ios":"levelo://app?vid=440b862b-ae5f-4141-9da4-63847d10e8ac"},"vehicle_type_id":"4","last_reported":1746097751,"current_range_meters":2000,"station_id":"ce4bhmp2rcd13ifvqgog","pricing_plan_id":"cebpf4jnsgd1na2vs0mg"},{"bike_id":"a732cf5e-3804-48dc-983a-eb44d2ff3f61","system_id":"levelo_inurba_marseille","lat":43.2315,"lon":5.43702,"is_reserved":false,"is_disabled":true,"rental_uris":{"android":"levelo://app?vid=a732cf5e-3804-48dc-983a-eb44d2ff3f61","ios":"levelo://app?vid=a732cf5e-3804-48dc-983a-eb44d2ff3f61"},"vehicle_type_id":"4","last_reported":1746097751,"current_range_meters":2000,"station_id":"ce4bhmp2rcd13ifvqgog","pricing_plan_id":"cebpf4jnsgd1na2vs0mg"},{"bike_id":"e4c0bcf3-c30b-4d7c-827b-14bc8a1c335b","system_id":"levelo_inurba_marseille","lat":43.27945,"lon":5.41042,"is_reserved":false,"is_disabled":true,"rental_uris":{"android":"levelo://app?vid=e4c0bcf3-c30b-4d7c-827b-14bc8a1c335b","ios":"levelo://app?vid=e4c0bcf3-c30b-4d7c-827b-14bc8a1c335b"},"vehicle_type_id":"4","last_reported":1746097751,"current_range_meters":2000,"station_id":"ce4bhnp2rcd13ifvqh0g","pricing_plan_id":"cebpf4jnsgd1na2vs0mg"},{"bike_id":"ae64895e-0aba-42d8-8110-d18fdbc4d6e2","system_id":"levelo_inurba_marseille","lat":43.217453,"lon":5.346002,"is_reserved":false,"is_disabled":true,"rental_uris":{"android":"levelo://app?vid=ae64895e-0aba-42d8-8110-d18fdbc4d6e2","ios":"levelo://app?vid=ae64895e-0aba-42d8-8110-d18fdbc4d6e2"},"vehicle_type_id":"4","last_reported":1746097751,"current_range_meters":2000,"station_id":"st_cvj6r9ubvosntc0bgbag","pricing_plan_id":"cebpf4jnsgd1na2vs0mg"},{"bike_id":"eb6749a6-a0f1-4907-8a0c-2168bddd4017","system_id":"levelo_inurba_marseille","lat":43.2922,"lon":5.3633,"is_reserved":false,"is_disabled":false,"rental_uris":{"android":"levelo://app?vid=eb6749a6-a0f1-4907-8a0c-2168bddd4017","ios":"levelo://app?vid=eb6749a6-a0f1-4907-8a0c-2168bddd4017"},"vehicle_type_id":"4","last_reported":1746097751,"current_range_meters":2800,"station_id":"ce4bguh2rcd13ifvqcj0","pricing_plan_id":"cebpf4jnsgd1na2vs0mg"},{"bike_id":"6bfc0e03-fd1e-4af1-8b66-5038dd2530cd","system_id":"levelo_inurba_marseille","lat":43.28416,"lon":5.34987,"is_reserved":false,"is_disabled":false,"rental_uris":{"android":"levelo://app?vid=6bfc0e03-fd1e-4af1-8b66-5038dd2530cd","ios":"levelo://app?vid=6bfc0e03-fd1e-4af1-8b66-5038dd2530cd"},"vehicle_type_id":"4","last_reported":1746097751,"current_range_meters":2800,"station_id":"ce4bhbh2rcd13ifvqepg","pricing_plan_id":"cebpf4jnsgd1na2vs0mg"},{"bike_id":"f46dd9ef-d1b6-4cd4-8156-5a00bde38fb9","system_id":"levelo_inurba_marseille","lat":43.27074,"lon":5.42276,"is_reserved":false,"is_disabled":false,"rental_uris":{"android":"levelo://app?vid=f46dd9ef-d1b6-4cd4-8156-5a00bde38fb9","ios":"levelo://app?vid=f46dd9ef-d1b6-4cd4-8156-5a00bde38fb9"},"vehicle_type_id":"4","last_reported":1746097751,"current_range_meters":2800,"station_id":"ce4bhk92rcd13ifvqgb0","pricing_plan_id":"cebpf4jnsgd1na2vs0mg"},{"bike_id":"e0987c40-d447-4354-a204-3bf50af19ad8","system_id":"levelo_inurba_marseille","lat":43.22931,"lon":5.35377,"is_reserved":false,"is_disabled":false,"rental_uris":{"android":"levelo://app?vid=e0987c40-d447-4354-a204-3bf50af19ad8","ios":"levelo://app?vid=e0987c40-d447-4354-a204-3bf50af19ad8"},"vehicle_type_id":"4","last_reported":1746097751,"current_range_meters":2800,"station_id":"cpo3532slgdg3j2ikp40","pricing_plan_id":"cebpf4jnsgd1na2vs0mg"},{"bike_id":"b1a3e500-4684-44ba-beb2-5062f1af99bb","system_id":"levelo_inurba_marseille","lat":43.23155,"lon":5.43706,"is_reserved":false,"is_disabled":false,"rental_uris":{"android":"levelo://app?vid=b1a3e500-4684-44ba-beb2-5062f1af99bb","ios":"levelo://app?vid=b1a3e500-4684-44ba-beb2-5062f1af99bb"},"vehicle_type_id":"4","last_reported":1746097751,"current_range_meters":3200,"station_id":"ce4bhmp2rcd13ifvqgog","pricing_plan_id":"cebpf4jnsgd1na2vs0mg"},{"bike_id":"20bac88c-2144-49f5-b2ee-8db8f97b6cd9","system_id":"levelo_inurba_marseille","lat":43.23153,"lon":5.43695,"is_reserved":false,"is_disabled":false,"rental_uris":{"android":"levelo://app?vid=20bac88c-2144-49f5-b2ee-8db8f97b6cd9","ios":"levelo://app?vid=20bac88c-2144-49f5-b2ee-8db8f97b6cd9"},"vehicle_type_id":"4","last_reported":1746097751,"current_range_meters":3200,"station_id":"ce4bhmp2rcd13ifvqgog","pricing_plan_id":"cebpf4jnsgd1na2vs0mg"},{"bike_id":"ad700a0b-14cd-4fc8-a23e-7883739b7e73","system_id":"levelo_inurba_marseille","lat":43.3019,"lon":5.36606,"is_reserved":false,"is_disabled":false,"rental_uris":{"android":"levelo://app?vid=ad700a0b-14cd-4fc8-a23e-7883739b7e73","ios":"levelo://app?vid=ad700a0b-14cd-4fc8-a23e-7883739b7e73"},"vehicle_type_id":"4","last_reported":1746097751,"current_range_meters":3600,"station_id":"ce4bgrh2rcd13ifvqc8g","pricing_plan_id":"cebpf4jnsgd1na2vs0mg"},{"bike_id":"04289598-61e8-4756-9253-82a9fc3c11ae","system_id":"levelo_inurba_marseille","lat":43.30267,"lon":5.3771,"is_reserved":false,"is_disabled":false,"rental_uris":{"android":"levelo://app?vid=04289598-61e8-4756-9253-82a9fc3c11ae","ios":"levelo://app?vid=04289598-61e8-4756-9253-82a9fc3c11ae"},"vehicle_type_id":"4","last_reported":1746097751,"current_range_meters":3600,"station_id":"ce4bguh2rcd13ifvqcj0","pricing_plan_id":"cebpf4jnsgd1na2vs0mg"},{"bike_id":"2d0270d5-15c3-44d2-b4ed-44e234a4a5b0","system_id":"levelo_inurba_marseille","lat":43.27376,"lon":5.36246,"is_reserved":false,"is_disabled":false,"rental_uris":{"android":"levelo://app?vid=2d0270d5-15c3-44d2-b4ed-44e234a4a5b0","ios":"levelo://app?vid=2d0270d5-15c3-44d2-b4ed-44e234a4a5b0"},"vehicle_type_id":"4","last_reported":1746097751,"current_range_meters":3600,"station_id":"ce4bhbh2rcd13ifvqeo0","pricing_plan_id":"cebpf4jnsgd1na2vs0mg"},{"bike_id":"57008ee2-ce81-4be9-a701-9d3e988392f9","system_id":"levelo_inurba_marseille","lat":43.22932,"lon":5.3537,"is_reserved":false,"is_disabled":false,"rental_uris":{"android":"levelo://app?vid=57008ee2-ce81-4be9-a701-9d3e988392f9","ios":"levelo://app?vid=57008ee2-ce81-4be9-a701-9d3e988392f9"},"vehicle_type_id":"4","last_reported":1746097751,"current_range_meters":3600,"station_id":"cpo3532slgdg3j2ikp40","pricing_plan_id":"cebpf4jnsgd1na2vs0mg"},{"bike_id":"ae2e1d39-e0d6-4aa0-9d6c-8e94d915e424","system_id":"levelo_inurba_marseille","lat":43.29887,"lon":5.38892,"is_reserved":false,"is_disabled":false,"rental_uris":{"android":"levelo://app?vid=ae2e1d39-e0d6-4aa0-9d6c-8e94d915e424","ios":"levelo://app?vid=ae2e1d39-e0d6-4aa0-9d6c-8e94d915e424"},"vehicle_type_id":"4","last_reported":1746097751,"current_range_meters":4000,"station_id":"ce4bh392rcd13ifvqdl0","pricing_plan_id":"cebpf4jnsgd1na2vs0mg"},{"bike_id":"f9947f94-5de1-4478-83f7-b02fb3ec3ff7","system_id":"levelo_inurba_marseille","lat":43.28263,"lon":5.35066,"is_reserved":false,"is_disabled":false,"rental_uris":{"android":"levelo://app?vid=f9947f94-5de1-4478-83f7-b02fb3ec3ff7","ios":"levelo://app?vid=f9947f94-5de1-4478-83f7-b02fb3ec3ff7"},"vehicle_type_id":"4","last_reported":1746097751,"current_range_meters":4000,"station_id":"ce4bhbp2rcd13ifvqerg","pricing_plan_id":"cebpf4jnsgd1na2vs0mg"},{"bike_id":"d56d9456-47da-4984-a5e1-734ab51563af","system_id":"levelo_inurba_marseille","lat":43.26209,"lon":5.37441,"is_reserved":false,"is_disabled":false,"rental_uris":{"android":"levelo://app?vid=d56d9456-47da-4984-a5e1-734ab51563af","ios":"levelo://app?vid=d56d9456-47da-4984-a5e1-734ab51563af"},"vehicle_type_id":"4","last_reported":1746097751,"current_range_meters":4000,"station_id":"ce4bhgp2rcd13ifvqfc0","pricing_plan_id":"cebpf4jnsgd1na2vs0mg"},{"bike_id":"4ab6bd5c-095e-493b-9fbf-db07f118f4bd","system_id":"levelo_inurba_marseille","lat":43.23972,"lon":5.36615,"is_reserved":false,"is_disabled":false,"rental_uris":{"android":"levelo://app?vid=4ab6bd5c-095e-493b-9fbf-db07f118f4bd","ios":"levelo://app?vid=4ab6bd5c-095e-493b-9fbf-db07f118f4bd"},"vehicle_type_id":"4","last_reported":1746097751,"current_range_meters":4000,"station_id":"ce4bhi12rcd13ifvqfp0","pricing_plan_id":"cebpf4jnsgd1na2vs0mg"},{"bike_id":"94a8fcc1-e1a4-4f8e-a9f5-5464b7650446","system_id":"levelo_inurba_marseille","lat":43.23149,"lon":5.43711,"is_reserved":false,"is_disabled":false,"rental_uris":{"android":"levelo://app?vid=94a8fcc1-e1a4-4f8e-a9f5-5464b7650446","ios":"levelo://app?vid=94a8fcc1-e1a4-4f8e-a9f5-5464b7650446"},"vehicle_type_id":"4","last_reported":1746097751,"current_range_meters":4000,"station_id":"ce4bhmp2rcd13ifvqgog","pricing_plan_id":"cebpf4jnsgd1na2vs0mg"},{"bike_id":"07168d1c-2325-48e2-98c4-0c34ed8357d2","system_id":"levelo_inurba_marseille","lat":43.21189,"lon":5.3508,"is_reserved":false,"is_disabled":false,"rental_uris":{"android":"levelo://app?vid=07168d1c-2325-48e2-98c4-0c34ed8357d2","ios":"levelo://app?vid=07168d1c-2325-48e2-98c4-0c34ed8357d2"},"vehicle_type_id":"4","last_reported":1746097751,"current_range_meters":4000,"station_id":"st_cvj6sg6p6f1abm77japg","pricing_plan_id":"cebpf4jnsgd1na2vs0mg"},{"bike_id":"7fb5329f-880e-4187-8388-b626f31c5319","system_id":"levelo_inurba_marseille","lat":43.23961,"lon":5.36625,"is_reserved":false,"is_disabled":false,"rental_uris":{"android":"levelo://app?vid=7fb5329f-880e-4187-8388-b626f31c5319","ios":"levelo://app?vid=7fb5329f-880e-4187-8388-b626f31c5319"},"vehicle_type_id":"4","last_reported":1746097751,"current_range_meters":4400,"station_id":"ce4bhi12rcd13ifvqfp0","pricing_plan_id":"cebpf4jnsgd1na2vs0mg"},{"bike_id":"927e1e9f-39f5-45de-a265-2e740eb39544","system_id":"levelo_inurba_marseille","lat":43.23189,"lon":5.39981,"is_reserved":false,"is_disabled":false,"rental_uris":{"android":"levelo://app?vid=927e1e9f-39f5-45de-a265-2e740eb39544","ios":"levelo://app?vid=927e1e9f-39f5-45de-a265-2e740eb39544"},"vehicle_type_id":"4","last_reported":1746097751,"current_range_meters":4400,"station_id":"ce4bhn12rcd13ifvqgqg","pricing_plan_id":"cebpf4jnsgd1na2vs0mg"},{"bike_id":"40b550bc-ac80-49aa-9e11-7d3ed989410e","system_id":"levelo_inurba_marseille","lat":43.24171,"lon":5.36399,"is_reserved":false,"is_disabled":false,"rental_uris":{"android":"levelo://app?vid=40b550bc-ac80-49aa-9e11-7d3ed989410e","ios":"levelo://app?vid=40b550bc-ac80-49aa-9e11-7d3ed989410e"},"vehicle_type_id":"4","last_reported":1746097751,"current_range_meters":4400,"station_id":"cpo36qri1sfpv3e86is0","pricing_plan_id":"cebpf4jnsgd1na2vs0mg"},{"bike_id":"81a34b36-bc09-4993-9729-6b42f0419f6a","system_id":"levelo_inurba_marseille","lat":43.29257,"lon":5.40904,"is_reserved":false,"is_disabled":false,"rental_uris":{"android":"levelo://app?vid=81a34b36-bc09-4993-9729-6b42f0419f6a","ios":"levelo://app?vid=81a34b36-bc09-4993-9729-6b42f0419f6a"},"vehicle_type_id":"4","last_reported":1746097751,"current_range_meters":4800,"station_id":"ce4bh192rcd13ifvqdc0","pricing_plan_id":"cebpf4jnsgd1na2vs0mg"},{"bike_id":"3c51200c-0f23-499c-aef9-9d47e698a558","system_id":"levelo_inurba_marseille","lat":43.276805,"lon":5.357353,"is_reserved":false,"is_disabled":false,"rental_uris":{"android":"levelo://app?vid=3c51200c-0f23-499c-aef9-9d47e698a558","ios":"levelo://app?vid=3c51200c-0f23-499c-aef9-9d47e698a558"},"vehicle_type_id":"4","last_reported":1746097751,"current_range_meters":5600,"station_id":"","pricing_plan_id":"cebpf4jnsgd1na2vs0mg"},{"bike_id":"c667fc8c-b81f-44c5-83bd-9e35179d6751","system_id":"levelo_inurba_marseille","lat":43.23194,"lon":5.35555,"is_reserved":false,"is_disabled":false,"rental_uris":{"android":"levelo://app?vid=c667fc8c-b81f-44c5-83bd-9e35179d6751","ios":"levelo://app?vid=c667fc8c-b81f-44c5-83bd-9e35179d6751"},"vehicle_type_id":"4","last_reported":1746097751,"current_range_meters":5600,"station_id":"ce4bhu92rcd13ifvqi70","pricing_plan_id":"cebpf4jnsgd1na2vs0mg"},{"bike_id":"32fb6d4b-3d0c-40ae-8d54-331679ceeaad","system_id":"levelo_inurba_marseille","lat":43.22931,"lon":5.35377,"is_reserved":false,"is_disabled":false,"rental_uris":{"android":"levelo://app?vid=32fb6d4b-3d0c-40ae-8d54-331679ceeaad","ios":"levelo://app?vid=32fb6d4b-3d0c-40ae-8d54-331679ceeaad"},"vehicle_type_id":"4","last_reported":1746097751,"current_range_meters":5600,"station_id":"cpo3532slgdg3j2ikp40","pricing_plan_id":"cebpf4jnsgd1na2vs0mg"},{"bike_id":"36126849-2942-4a66-9a1d-1358887e6649","system_id":"levelo_inurba_marseille","lat":43.30314,"lon":5.40442,"is_reserved":false,"is_disabled":false,"rental_uris":{"android":"levelo://app?vid=36126849-2942-4a66-9a1d-1358887e6649","ios":"levelo://app?vid=36126849-2942-4a66-9a1d-1358887e6649"},"vehicle_type_id":"4","last_reported":1746097751,"current_range_meters":6000,"station_id":"","pricing_plan_id":"cebpf4jnsgd1na2vs0mg"},{"bike_id":"845af68b-0079-42b6-aab5-76ee2375f51a","system_id":"levelo_inurba_marseille","lat":43.26055,"lon":5.394,"is_reserved":false,"is_disabled":false,"rental_uris":{"android":"levelo://app?vid=845af68b-0079-42b6-aab5-76ee2375f51a","ios":"levelo://app?vid=845af68b-0079-42b6-aab5-76ee2375f51a"},"vehicle_type_id":"4","last_reported":1746097751,"current_range_meters":6000,"station_id":"ce4bhh92rcd13ifvqfj0","pricing_plan_id":"cebpf4jnsgd1na2vs0mg"},{"bike_id":"07edfd45-c3fa-4b57-b865-cf1bf9963264","system_id":"levelo_inurba_marseille","lat":43.233876,"lon":5.364162,"is_reserved":false,"is_disabled":false,"rental_uris":{"android":"levelo://app?vid=07edfd45-c3fa-4b57-b865-cf1bf9963264","ios":"levelo://app?vid=07edfd45-c3fa-4b57-b865-cf1bf9963264"},"vehicle_type_id":"4","last_reported":1746097751,"current_range_meters":6400,"station_id":"","pricing_plan_id":"cebpf4jnsgd1na2vs0mg"},{"bike_id":"e5e09373-edb1-48c7-bc15-2cecba8a49bd","system_id":"levelo_inurba_marseille","lat":43.262082,"lon":5.374418,"is_reserved":false,"is_disabled":false,"rental_uris":{"android":"levelo://app?vid=e5e09373-edb1-48c7-bc15-2cecba8a49bd","ios":"levelo://app?vid=e5e09373-edb1-48c7-bc15-2cecba8a49bd"},"vehicle_type_id":"4","last_reported":1746097751,"current_range_meters":6400,"station_id":"","pricing_plan_id":"cebpf4jnsgd1na2vs0mg"},{"bike_id":"76b5fdf3-bc91-41c8-afe5-130797f67bf9","system_id":"levelo_inurba_marseille","lat":43.25504,"lon":5.37649,"is_reserved":false,"is_disabled":false,"rental_uris":{"android":"levelo://app?vid=76b5fdf3-bc91-41c8-afe5-130797f67bf9","ios":"levelo://app?vid=76b5fdf3-bc91-41c8-afe5-130797f67bf9"},"vehicle_type_id":"4","last_reported":1746097751,"current_range_meters":6400,"station_id":"ce4bhh12rcd13ifvqff0","pricing_plan_id":"cebpf4jnsgd1na2vs0mg"},{"bike_id":"c11fa232-d7c9-4bd2-a73d-e6aa42607093","system_id":"levelo_inurba_marseille","lat":43.26038,"lon":5.37533,"is_reserved":false,"is_disabled":false,"rental_uris":{"android":"levelo://app?vid=c11fa232-d7c9-4bd2-a73d-e6aa42607093","ios":"levelo://app?vid=c11fa232-d7c9-4bd2-a73d-e6aa42607093"},"vehicle_type_id":"4","last_reported":1746097751,"current_range_meters":6800,"station_id":"ce4bhgh2rcd13ifvqfa0","pricing_plan_id":"cebpf4jnsgd1na2vs0mg"},{"bike_id":"56bed95f-1ac9-4fa3-b906-043a59606cd4","system_id":"levelo_inurba_marseille","lat":43.26042,"lon":5.37541,"is_reserved":false,"is_disabled":false,"rental_uris":{"android":"levelo://app?vid=56bed95f-1ac9-4fa3-b906-043a59606cd4","ios":"levelo://app?vid=56bed95f-1ac9-4fa3-b906-043a59606cd4"},"vehicle_type_id":"4","last_reported":1746097751,"current_range_meters":6800,"station_id":"ce4bhgh2rcd13ifvqfa0","pricing_plan_id":"cebpf4jnsgd1na2vs0mg"},{"bike_id":"c736978a-5eae-4508-ab8d-5f69e6ae2eda","system_id":"levelo_inurba_marseille","lat":43.23152,"lon":5.43711,"is_reserved":false,"is_disabled":false,"rental_uris":{"android":"levelo://app?vid=c736978a-5eae-4508-ab8d-5f69e6ae2eda","ios":"levelo://app?vid=c736978a-5eae-4508-ab8d-5f69e6ae2eda"},"vehicle_type_id":"4","last_reported":1746097751,"current_range_meters":6800,"station_id":"ce4bhmp2rcd13ifvqgog","pricing_plan_id":"cebpf4jnsgd1na2vs0mg"},{"bike_id":"72789489-b509-461e-800a-dcff1f7c19c5","system_id":"levelo_inurba_marseille","lat":43.23158,"lon":5.43693,"is_reserved":false,"is_disabled":false,"rental_uris":{"android":"levelo://app?vid=72789489-b509-461e-800a-dcff1f7c19c5","ios":"levelo://app?vid=72789489-b509-461e-800a-dcff1f7c19c5"},"vehicle_type_id":"4","last_reported":1746097751,"current_range_meters":6800,"station_id":"ce4bhmp2rcd13ifvqgog","pricing_plan_id":"cebpf4jnsgd1na2vs0mg"},{"bike_id":"ab6cc9c9-69c8-48cc-bcbd-c9541d1c7966","system_id":"levelo_inurba_marseille","lat":43.29739,"lon":5.40139,"is_reserved":false,"is_disabled":false,"rental_uris":{"android":"levelo://app?vid=ab6cc9c9-69c8-48cc-bcbd-c9541d1c7966","ios":"levelo://app?vid=ab6cc9c9-69c8-48cc-bcbd-c9541d1c7966"},"vehicle_type_id":"4","last_reported":1746097751,"current_range_meters":7200,"station_id":"","pricing_plan_id":"cebpf4jnsgd1na2vs0mg"},{"bike_id":"fe0bb4cb-0dc2-4001-a540-057448db5b82","system_id":"levelo_inurba_marseille","lat":43.28268,"lon":5.35058,"is_reserved":false,"is_disabled":false,"rental_uris":{"android":"levelo://app?vid=fe0bb4cb-0dc2-4001-a540-057448db5b82","ios":"levelo://app?vid=fe0bb4cb-0dc2-4001-a540-057448db5b82"},"vehicle_type_id":"4","last_reported":1746097751,"current_range_meters":7200,"station_id":"ce4bhbp2rcd13ifvqerg","pricing_plan_id":"cebpf4jnsgd1na2vs0mg"},{"bike_id":"066a29f0-4e67-4977-ad38-33ca6a311375","system_id":"levelo_inurba_marseille","lat":43.23149,"lon":5.43712,"is_reserved":false,"is_disabled":false,"rental_uris":{"android":"levelo://app?vid=066a29f0-4e67-4977-ad38-33ca6a311375","ios":"levelo://app?vid=066a29f0-4e67-4977-ad38-33ca6a311375"},"vehicle_type_id":"4","last_reported":1746097751,"current_range_meters":7200,"station_id":"ce4bhmp2rcd13ifvqgog","pricing_plan_id":"cebpf4jnsgd1na2vs0mg"},{"bike_id":"080fbbc5-648d-4f90-b227-1a3943e469b9","system_id":"levelo_inurba_marseille","lat":43.21191,"lon":5.35082,"is_reserved":false,"is_disabled":false,"rental_uris":{"android":"levelo://app?vid=080fbbc5-648d-4f90-b227-1a3943e469b9","ios":"levelo://app?vid=080fbbc5-648d-4f90-b227-1a3943e469b9"},"vehicle_type_id":"4","last_reported":1746097751,"current_range_meters":8000,"station_id":"","pricing_plan_id":"cebpf4jnsgd1na2vs0mg"},{"bike_id":"65af32e3-5b11-4551-8dc5-d25e120f998b","system_id":"levelo_inurba_marseille","lat":43.27365,"lon":5.36248,"is_reserved":false,"is_disabled":false,"rental_uris":{"android":"levelo://app?vid=65af32e3-5b11-4551-8dc5-d25e120f998b","ios":"levelo://app?vid=65af32e3-5b11-4551-8dc5-d25e120f998b"},"vehicle_type_id":"4","last_reported":1746097751,"current_range_meters":8000,"station_id":"ce4bhbh2rcd13ifvqeo0","pricing_plan_id":"cebpf4jnsgd1na2vs0mg"},{"bike_id":"ed89d67a-a922-469b-bbdc-d437af27a591","system_id":"levelo_inurba_marseille","lat":43.25944,"lon":5.40869,"is_reserved":false,"is_disabled":false,"rental_uris":{"android":"levelo://app?vid=ed89d67a-a922-469b-bbdc-d437af27a591","ios":"levelo://app?vid=ed89d67a-a922-469b-bbdc-d437af27a591"},"vehicle_type_id":"4","last_reported":1746097751,"current_range_meters":8000,"station_id":"ce4bhm92rcd13ifvqglg","pricing_plan_id":"cebpf4jnsgd1na2vs0mg"},{"bike_id":"59bbe346-57c3-49ec-9206-4cc719f28741","system_id":"levelo_inurba_marseille","lat":43.2319,"lon":5.35559,"is_reserved":false,"is_disabled":false,"rental_uris":{"android":"levelo://app?vid=59bbe346-57c3-49ec-9206-4cc719f28741","ios":"levelo://app?vid=59bbe346-57c3-49ec-9206-4cc719f28741"},"vehicle_type_id":"4","last_reported":1746097751,"current_range_meters":8000,"station_id":"ce4bhu92rcd13ifvqi70","pricing_plan_id":"cebpf4jnsgd1na2vs0mg"},{"bike_id":"b843346b-ea63-41d5-a881-36cbf5ad64fe","system_id":"levelo_inurba_marseille","lat":43.27375,"lon":5.36241,"is_reserved":false,"is_disabled":false,"rental_uris":{"android":"levelo://app?vid=b843346b-ea63-41d5-a881-36cbf5ad64fe","ios":"levelo://app?vid=b843346b-ea63-41d5-a881-36cbf5ad64fe"},"vehicle_type_id":"4","last_reported":1746097751,"current_range_meters":8400,"station_id":"ce4bhbh2rcd13ifvqeo0","pricing_plan_id":"cebpf4jnsgd1na2vs0mg"},{"bike_id":"323095e6-8798-42da-9c92-f032214ad049","system_id":"levelo_inurba_marseille","lat":43.23192,"lon":5.39994,"is_reserved":false,"is_disabled":false,"rental_uris":{"android":"levelo://app?vid=323095e6-8798-42da-9c92-f032214ad049","ios":"levelo://app?vid=323095e6-8798-42da-9c92-f032214ad049"},"vehicle_type_id":"4","last_reported":1746097751,"current_range_meters":8400,"station_id":"ce4bhn12rcd13ifvqgqg","pricing_plan_id":"cebpf4jnsgd1na2vs0mg"},{"bike_id":"0458560d-c954-4ac9-bcec-241d0a54d60f","system_id":"levelo_inurba_marseille","lat":43.32345,"lon":5.38902,"is_reserved":false,"is_disabled":false,"rental_uris":{"android":"levelo://app?vid=0458560d-c954-4ac9-bcec-241d0a54d60f","ios":"levelo://app?vid=0458560d-c954-4ac9-bcec-241d0a54d60f"},"vehicle_type_id":"4","last_reported":1746097751,"current_range_meters":8400,"station_id":"ce4bhqp2rcd13ifvqhog","pricing_plan_id":"cebpf4jnsgd1na2vs0mg"},{"bike_id":"88108ce5-6cc3-4e69-aa28-6ef0ad82f3cf","system_id":"levelo_inurba_marseille","lat":43.22505,"lon":5.34791,"is_reserved":false,"is_disabled":false,"rental_uris":{"android":"levelo://app?vid=88108ce5-6cc3-4e69-aa28-6ef0ad82f3cf","ios":"levelo://app?vid=88108ce5-6cc3-4e69-aa28-6ef0ad82f3cf"},"vehicle_type_id":"4","last_reported":1746097751,"current_range_meters":8400,"station_id":"st_cvj5dfep6f1abm77gieg","pricing_plan_id":"cebpf4jnsgd1na2vs0mg"},{"bike_id":"6ad5d783-6a0c-423b-a3a8-46c3a9c31f90","system_id":"levelo_inurba_marseille","lat":43.2842,"lon":5.34976,"is_reserved":false,"is_disabled":false,"rental_uris":{"android":"levelo://app?vid=6ad5d783-6a0c-423b-a3a8-46c3a9c31f90","ios":"levelo://app?vid=6ad5d783-6a0c-423b-a3a8-46c3a9c31f90"},"vehicle_type_id":"4","last_reported":1746097751,"current_range_meters":8800,"station_id":"","pricing_plan_id":"cebpf4jnsgd1na2vs0mg"},{"bike_id":"e5e92a64-e709-4b1a-a9b1-cbffe85789ca","system_id":"levelo_inurba_marseille","lat":43.25523,"lon":5.38191,"is_reserved":false,"is_disabled":false,"rental_uris":{"android":"levelo://app?vid=e5e92a64-e709-4b1a-a9b1-cbffe85789ca","ios":"levelo://app?vid=e5e92a64-e709-4b1a-a9b1-cbffe85789ca"},"vehicle_type_id":"4","last_reported":1746097751,"current_range_meters":8800,"station_id":"","pricing_plan_id":"cebpf4jnsgd1na2vs0mg"},{"bike_id":"f7d6b441-9255-43f4-80d9-2ffc8ce4a29d","system_id":"levelo_inurba_marseille","lat":43.27373,"lon":5.36257,"is_reserved":false,"is_disabled":false,"rental_uris":{"android":"levelo://app?vid=f7d6b441-9255-43f4-80d9-2ffc8ce4a29d","ios":"levelo://app?vid=f7d6b441-9255-43f4-80d9-2ffc8ce4a29d"},"vehicle_type_id":"4","last_reported":1746097751,"current_range_meters":8800,"station_id":"ce4bhbh2rcd13ifvqeo0","pricing_plan_id":"cebpf4jnsgd1na2vs0mg"},{"bike_id":"051b6aea-a90a-4b12-bcf1-e809a249bc3f","system_id":"levelo_inurba_marseille","lat":43.2737,"lon":5.36261,"is_reserved":false,"is_disabled":false,"rental_uris":{"android":"levelo://app?vid=051b6aea-a90a-4b12-bcf1-e809a249bc3f","ios":"levelo://app?vid=051b6aea-a90a-4b12-bcf1-e809a249bc3f"},"vehicle_type_id":"4","last_reported":1746097751,"current_range_meters":8800,"station_id":"ce4bhbh2rcd13ifvqeo0","pricing_plan_id":"cebpf4jnsgd1na2vs0mg"},{"bike_id":"5045f7a2-b1d5-4505-8c53-c99cd9906894","system_id":"levelo_inurba_marseille","lat":43.28413,"lon":5.34971,"is_reserved":false,"is_disabled":false,"rental_uris":{"android":"levelo://app?vid=5045f7a2-b1d5-4505-8c53-c99cd9906894","ios":"levelo://app?vid=5045f7a2-b1d5-4505-8c53-c99cd9906894"},"vehicle_type_id":"4","last_reported":1746097751,"current_range_meters":8800,"station_id":"ce4bhbh2rcd13ifvqepg","pricing_plan_id":"cebpf4jnsgd1na2vs0mg"},{"bike_id":"01c6ebdd-3655-4706-baba-7772c68e1eac","system_id":"levelo_inurba_marseille","lat":43.26559,"lon":5.372792,"is_reserved":false,"is_disabled":false,"rental_uris":{"android":"levelo://app?vid=01c6ebdd-3655-4706-baba-7772c68e1eac","ios":"levelo://app?vid=01c6ebdd-3655-4706-baba-7772c68e1eac"},"vehicle_type_id":"4","last_reported":1746097751,"current_range_meters":8800,"station_id":"ce4bhg12rcd13ifvqf70","pricing_plan_id":"cebpf4jnsgd1na2vs0mg"},{"bike_id":"be848fbe-8723-4998-bb8d-709b16481e3b","system_id":"levelo_inurba_marseille","lat":43.26556,"lon":5.37284,"is_reserved":false,"is_disabled":false,"rental_uris":{"android":"levelo://app?vid=be848fbe-8723-4998-bb8d-709b16481e3b","ios":"levelo://app?vid=be848fbe-8723-4998-bb8d-709b16481e3b"},"vehicle_type_id":"4","last_reported":1746097751,"current_range_meters":8800,"station_id":"ce4bhg12rcd13ifvqf70","pricing_plan_id":"cebpf4jnsgd1na2vs0mg"},{"bike_id":"534d1c43-2999-437c-858e-5f3a1d1beb02","system_id":"levelo_inurba_marseille","lat":43.2119,"lon":5.35075,"is_reserved":false,"is_disabled":false,"rental_uris":{"android":"levelo://app?vid=534d1c43-2999-437c-858e-5f3a1d1beb02","ios":"levelo://app?vid=534d1c43-2999-437c-858e-5f3a1d1beb02"},"vehicle_type_id":"4","last_reported":1746097751,"current_range_meters":8800,"station_id":"st_cvj6sg6p6f1abm77japg","pricing_plan_id":"cebpf4jnsgd1na2vs0mg"},{"bike_id":"d90db308-d7a2-440c-a666-ab5826e37ba8","system_id":"levelo_inurba_marseille","lat":43.21187,"lon":5.35071,"is_reserved":false,"is_disabled":false,"rental_uris":{"android":"levelo://app?vid=d90db308-d7a2-440c-a666-ab5826e37ba8","ios":"levelo://app?vid=d90db308-d7a2-440c-a666-ab5826e37ba8"},"vehicle_type_id":"4","last_reported":1746097751,"current_range_meters":8800,"station_id":"st_cvj6sg6p6f1abm77japg","pricing_plan_id":"cebpf4jnsgd1na2vs0mg"},{"bike_id":"fca9dc8b-9c20-4eab-83ff-17d0ce9a6922","system_id":"levelo_inurba_marseille","lat":43.26025,"lon":5.41742,"is_reserved":false,"is_disabled":false,"rental_uris":{"android":"levelo://app?vid=fca9dc8b-9c20-4eab-83ff-17d0ce9a6922","ios":"levelo://app?vid=fca9dc8b-9c20-4eab-83ff-17d0ce9a6922"},"vehicle_type_id":"4","last_reported":1746097751,"current_range_meters":9200,"station_id":"","pricing_plan_id":"cebpf4jnsgd1na2vs0mg"},{"bike_id":"ffa57f16-bb92-41f9-905b-a4811c604031","system_id":"levelo_inurba_marseille","lat":43.273844,"lon":5.362522,"is_reserved":false,"is_disabled":false,"rental_uris":{"android":"levelo://app?vid=ffa57f16-bb92-41f9-905b-a4811c604031","ios":"levelo://app?vid=ffa57f16-bb92-41f9-905b-a4811c604031"},"vehicle_type_id":"4","last_reported":1746097751,"current_range_meters":9200,"station_id":"","pricing_plan_id":"cebpf4jnsgd1na2vs0mg"},{"bike_id":"405fa080-f811-46f3-8582-d87d58738f3b","system_id":"levelo_inurba_marseille","lat":43.257147,"lon":5.418111,"is_reserved":false,"is_disabled":false,"rental_uris":{"android":"levelo://app?vid=405fa080-f811-46f3-8582-d87d58738f3b","ios":"levelo://app?vid=405fa080-f811-46f3-8582-d87d58738f3b"},"vehicle_type_id":"4","last_reported":1746097751,"current_range_meters":9200,"station_id":"","pricing_plan_id":"cebpf4jnsgd1na2vs0mg"},{"bike_id":"520cb91c-29a5-4193-9878-235e42cc430e","system_id":"levelo_inurba_marseille","lat":43.2737,"lon":5.36257,"is_reserved":false,"is_disabled":false,"rental_uris":{"android":"levelo://app?vid=520cb91c-29a5-4193-9878-235e42cc430e","ios":"levelo://app?vid=520cb91c-29a5-4193-9878-235e42cc430e"},"vehicle_type_id":"4","last_reported":1746097751,"current_range_meters":9200,"station_id":"ce4bhbh2rcd13ifvqeo0","pricing_plan_id":"cebpf4jnsgd1na2vs0mg"},{"bike_id":"29379396-1a8c-48f6-8903-7468e58967bb","system_id":"levelo_inurba_marseille","lat":43.26027,"lon":5.37559,"is_reserved":false,"is_disabled":false,"rental_uris":{"android":"levelo://app?vid=29379396-1a8c-48f6-8903-7468e58967bb","ios":"levelo://app?vid=29379396-1a8c-48f6-8903-7468e58967bb"},"vehicle_type_id":"4","last_reported":1746097751,"current_range_meters":9200,"station_id":"ce4bhgh2rcd13ifvqfa0","pricing_plan_id":"cebpf4jnsgd1na2vs0mg"},{"bike_id":"fa0013e1-384c-4a43-9dc8-c63fff3d2b7e","system_id":"levelo_inurba_marseille","lat":43.23201,"lon":5.39993,"is_reserved":false,"is_disabled":false,"rental_uris":{"android":"levelo://app?vid=fa0013e1-384c-4a43-9dc8-c63fff3d2b7e","ios":"levelo://app?vid=fa0013e1-384c-4a43-9dc8-c63fff3d2b7e"},"vehicle_type_id":"4","last_reported":1746097751,"current_range_meters":9200,"station_id":"ce4bhn12rcd13ifvqgqg","pricing_plan_id":"cebpf4jnsgd1na2vs0mg"},{"bike_id":"2b61497a-a801-4575-83bd-f87826c5dbf6","system_id":"levelo_inurba_marseille","lat":43.2119,"lon":5.35073,"is_reserved":false,"is_disabled":false,"rental_uris":{"android":"levelo://app?vid=2b61497a-a801-4575-83bd-f87826c5dbf6","ios":"levelo://app?vid=2b61497a-a801-4575-83bd-f87826c5dbf6"},"vehicle_type_id":"4","last_reported":1746097751,"current_range_meters":9200,"station_id":"st_cvj6sg6p6f1abm77japg","pricing_plan_id":"cebpf4jnsgd1na2vs0mg"},{"bike_id":"403aa7ec-3cde-479b-8f42-a10e89d62cec","system_id":"levelo_inurba_marseille","lat":43.2862,"lon":5.3511,"is_reserved":false,"is_disabled":false,"rental_uris":{"android":"levelo://app?vid=403aa7ec-3cde-479b-8f42-a10e89d62cec","ios":"levelo://app?vid=403aa7ec-3cde-479b-8f42-a10e89d62cec"},"vehicle_type_id":"4","last_reported":1746097751,"current_range_meters":9600,"station_id":"ce4bhch2rcd13ifvqeug","pricing_plan_id":"cebpf4jnsgd1na2vs0mg"},{"bike_id":"80b1bf8f-d67a-4f96-8392-6502ffc6afd0","system_id":"levelo_inurba_marseille","lat":43.25493,"lon":5.37647,"is_reserved":false,"is_disabled":false,"rental_uris":{"android":"levelo://app?vid=80b1bf8f-d67a-4f96-8392-6502ffc6afd0","ios":"levelo://app?vid=80b1bf8f-d67a-4f96-8392-6502ffc6afd0"},"vehicle_type_id":"4","last_reported":1746097751,"current_range_meters":9600,"station_id":"ce4bhh12rcd13ifvqff0","pricing_plan_id":"cebpf4jnsgd1na2vs0mg"},{"bike_id":"947b11d4-0762-49ce-98cd-ad10b173fbcb","system_id":"levelo_inurba_marseille","lat":43.23964,"lon":5.36628,"is_reserved":false,"is_disabled":false,"rental_uris":{"android":"levelo://app?vid=947b11d4-0762-49ce-98cd-ad10b173fbcb","ios":"levelo://app?vid=947b11d4-0762-49ce-98cd-ad10b173fbcb"},"vehicle_type_id":"4","last_reported":1746097751,"current_range_meters":9600,"station_id":"ce4bhi12rcd13ifvqfp0","pricing_plan_id":"cebpf4jnsgd1na2vs0mg"},{"bike_id":"964d5cba-c592-41c0-9dcc-3fe22502149b","system_id":"levelo_inurba_marseille","lat":43.23962,"lon":5.36636,"is_reserved":false,"is_disabled":false,"rental_uris":{"android":"levelo://app?vid=964d5cba-c592-41c0-9dcc-3fe22502149b","ios":"levelo://app?vid=964d5cba-c592-41c0-9dcc-3fe22502149b"},"vehicle_type_id":"4","last_reported":1746097751,"current_range_meters":9600,"station_id":"ce4bhi12rcd13ifvqfp0","pricing_plan_id":"cebpf4jnsgd1na2vs0mg"},{"bike_id":"defb834a-ab2a-4540-b75e-cca341a78955","system_id":"levelo_inurba_marseille","lat":43.23151,"lon":5.43709,"is_reserved":false,"is_disabled":false,"rental_uris":{"android":"levelo://app?vid=defb834a-ab2a-4540-b75e-cca341a78955","ios":"levelo://app?vid=defb834a-ab2a-4540-b75e-cca341a78955"},"vehicle_type_id":"4","last_reported":1746097751,"current_range_meters":9600,"station_id":"ce4bhmp2rcd13ifvqgog","pricing_plan_id":"cebpf4jnsgd1na2vs0mg"},{"bike_id":"a10b0b96-645d-4a9c-87d8-7f682bbae00b","system_id":"levelo_inurba_marseille","lat":43.2315,"lon":5.43712,"is_reserved":false,"is_disabled":false,"rental_uris":{"android":"levelo://app?vid=a10b0b96-645d-4a9c-87d8-7f682bbae00b","ios":"levelo://app?vid=a10b0b96-645d-4a9c-87d8-7f682bbae00b"},"vehicle_type_id":"4","last_reported":1746097751,"current_range_meters":9600,"station_id":"ce4bhmp2rcd13ifvqgog","pricing_plan_id":"cebpf4jnsgd1na2vs0mg"},{"bike_id":"706821b1-8636-4087-86c6-d11a0de39c8c","system_id":"levelo_inurba_marseille","lat":43.32368,"lon":5.38882,"is_reserved":false,"is_disabled":false,"rental_uris":{"android":"levelo://app?vid=706821b1-8636-4087-86c6-d11a0de39c8c","ios":"levelo://app?vid=706821b1-8636-4087-86c6-d11a0de39c8c"},"vehicle_type_id":"4","last_reported":1746097751,"current_range_meters":9600,"station_id":"ce4bhqp2rcd13ifvqhog","pricing_plan_id":"cebpf4jnsgd1na2vs0mg"},{"bike_id":"5247e975-f8f6-4b41-ba9f-efa8aa432eaa","system_id":"levelo_inurba_marseille","lat":43.21758,"lon":5.34595,"is_reserved":false,"is_disabled":false,"rental_uris":{"android":"levelo://app?vid=5247e975-f8f6-4b41-ba9f-efa8aa432eaa","ios":"levelo://app?vid=5247e975-f8f6-4b41-ba9f-efa8aa432eaa"},"vehicle_type_id":"4","last_reported":1746097751,"current_range_meters":9600,"station_id":"st_cvj6r9ubvosntc0bgbag","pricing_plan_id":"cebpf4jnsgd1na2vs0mg"},{"bike_id":"27d3c357-6a86-4eb5-b2e2-da5441bf6e3f","system_id":"levelo_inurba_marseille","lat":43.2175,"lon":5.346,"is_reserved":false,"is_disabled":false,"rental_uris":{"android":"levelo://app?vid=27d3c357-6a86-4eb5-b2e2-da5441bf6e3f","ios":"levelo://app?vid=27d3c357-6a86-4eb5-b2e2-da5441bf6e3f"},"vehicle_type_id":"4","last_reported":1746097751,"current_range_meters":9600,"station_id":"st_cvj6r9ubvosntc0bgbag","pricing_plan_id":"cebpf4jnsgd1na2vs0mg"},{"bike_id":"51ef9827-05d4-4f72-abc3-c6fec8c5a095","system_id":"levelo_inurba_marseille","lat":43.23151,"lon":5.43707,"is_reserved":false,"is_disabled":false,"rental_uris":{"android":"levelo://app?vid=51ef9827-05d4-4f72-abc3-c6fec8c5a095","ios":"levelo://app?vid=51ef9827-05d4-4f72-abc3-c6fec8c5a095"},"vehicle_type_id":"4","last_reported":1746097751,"current_range_meters":10000,"station_id":"ce4bhmp2rcd13ifvqgog","pricing_plan_id":"cebpf4jnsgd1na2vs0mg"},{"bike_id":"ff5f9ba0-94d0-426e-b3b9-206f898069a1","system_id":"levelo_inurba_marseille","lat":43.23182,"lon":5.39984,"is_reserved":false,"is_disabled":false,"rental_uris":{"android":"levelo://app?vid=ff5f9ba0-94d0-426e-b3b9-206f898069a1","ios":"levelo://app?vid=ff5f9ba0-94d0-426e-b3b9-206f898069a1"},"vehicle_type_id":"4","last_reported":1746097751,"current_range_meters":10000,"station_id":"ce4bhn12rcd13ifvqgqg","pricing_plan_id":"cebpf4jnsgd1na2vs0mg"},{"bike_id":"e1793f1e-a94b-46e8-96d1-06b7e46648a8","system_id":"levelo_inurba_marseille","lat":43.32365,"lon":5.38887,"is_reserved":false,"is_disabled":false,"rental_uris":{"android":"levelo://app?vid=e1793f1e-a94b-46e8-96d1-06b7e46648a8","ios":"levelo://app?vid=e1793f1e-a94b-46e8-96d1-06b7e46648a8"},"vehicle_type_id":"4","last_reported":1746097751,"current_range_meters":10000,"station_id":"ce4bhqp2rcd13ifvqhog","pricing_plan_id":"cebpf4jnsgd1na2vs0mg"},{"bike_id":"3fce1bf2-bda2-4738-850d-0d9d1677d00f","system_id":"levelo_inurba_marseille","lat":43.27379,"lon":5.36257,"is_reserved":false,"is_disabled":false,"rental_uris":{"android":"levelo://app?vid=3fce1bf2-bda2-4738-850d-0d9d1677d00f","ios":"levelo://app?vid=3fce1bf2-bda2-4738-850d-0d9d1677d00f"},"vehicle_type_id":"4","last_reported":1746097751,"current_range_meters":10800,"station_id":"ce4bhbh2rcd13ifvqeo0","pricing_plan_id":"cebpf4jnsgd1na2vs0mg"},{"bike_id":"1609e330-1667-4c72-9d1d-7416a8bd16ce","system_id":"levelo_inurba_marseille","lat":43.2622,"lon":5.37436,"is_reserved":false,"is_disabled":false,"rental_uris":{"android":"levelo://app?vid=1609e330-1667-4c72-9d1d-7416a8bd16ce","ios":"levelo://app?vid=1609e330-1667-4c72-9d1d-7416a8bd16ce"},"vehicle_type_id":"4","last_reported":1746097751,"current_range_meters":10800,"station_id":"ce4bhgp2rcd13ifvqfc0","pricing_plan_id":"cebpf4jnsgd1na2vs0mg"},{"bike_id":"ebccb26d-3ec0-4d43-ad0f-ffba41789756","system_id":"levelo_inurba_marseille","lat":43.255,"lon":5.37632,"is_reserved":false,"is_disabled":false,"rental_uris":{"android":"levelo://app?vid=ebccb26d-3ec0-4d43-ad0f-ffba41789756","ios":"levelo://app?vid=ebccb26d-3ec0-4d43-ad0f-ffba41789756"},"vehicle_type_id":"4","last_reported":1746097751,"current_range_meters":10800,"station_id":"ce4bhh12rcd13ifvqff0","pricing_plan_id":"cebpf4jnsgd1na2vs0mg"},{"bike_id":"42979274-76ae-42a2-b009-8dde9f74aa65","system_id":"levelo_inurba_marseille","lat":43.33028,"lon":5.39026,"is_reserved":false,"is_disabled":false,"rental_uris":{"android":"levelo://app?vid=42979274-76ae-42a2-b009-8dde9f74aa65","ios":"levelo://app?vid=42979274-76ae-42a2-b009-8dde9f74aa65"},"vehicle_type_id":"4","last_reported":1746097751,"current_range_meters":10800,"station_id":"ce4bhr92rcd13ifvqhrg","pricing_plan_id":"cebpf4jnsgd1na2vs0mg"},{"bike_id":"34c711a9-06e7-4353-8b99-de9d8445cafc","system_id":"levelo_inurba_marseille","lat":43.31528,"lon":5.38039,"is_reserved":false,"is_disabled":false,"rental_uris":{"android":"levelo://app?vid=34c711a9-06e7-4353-8b99-de9d8445cafc","ios":"levelo://app?vid=34c711a9-06e7-4353-8b99-de9d8445cafc"},"vehicle_type_id":"4","last_reported":1746097751,"current_range_meters":10800,"station_id":"ce4bhsp2rcd13ifvqi50","pricing_plan_id":"cebpf4jnsgd1na2vs0mg"},{"bike_id":"792acaca-4671-4fe4-868e-07df654d917d","system_id":"levelo_inurba_marseille","lat":43.23206,"lon":5.35549,"is_reserved":false,"is_disabled":false,"rental_uris":{"android":"levelo://app?vid=792acaca-4671-4fe4-868e-07df654d917d","ios":"levelo://app?vid=792acaca-4671-4fe4-868e-07df654d917d"},"vehicle_type_id":"4","last_reported":1746097751,"current_range_meters":10800,"station_id":"ce4bhu92rcd13ifvqi70","pricing_plan_id":"cebpf4jnsgd1na2vs0mg"},{"bike_id":"042c4c71-e1ce-4750-b447-ddf1317c5423","system_id":"levelo_inurba_marseille","lat":43.24177,"lon":5.36371,"is_reserved":false,"is_disabled":false,"rental_uris":{"android":"levelo://app?vid=042c4c71-e1ce-4750-b447-ddf1317c5423","ios":"levelo://app?vid=042c4c71-e1ce-4750-b447-ddf1317c5423"},"vehicle_type_id":"4","last_reported":1746097751,"current_range_meters":10800,"station_id":"cpo36qri1sfpv3e86is0","pricing_plan_id":"cebpf4jnsgd1na2vs0mg"},{"bike_id":"1da5abf1-4c92-447b-b7a3-574843186344","system_id":"levelo_inurba_marseille","lat":43.21191,"lon":5.3507,"is_reserved":false,"is_disabled":false,"rental_uris":{"android":"levelo://app?vid=1da5abf1-4c92-447b-b7a3-574843186344","ios":"levelo://app?vid=1da5abf1-4c92-447b-b7a3-574843186344"},"vehicle_type_id":"4","last_reported":1746097751,"current_range_meters":10800,"station_id":"st_cvj6sg6p6f1abm77japg","pricing_plan_id":"cebpf4jnsgd1na2vs0mg"},{"bike_id":"4f7e9dcf-3dba-488a-b1cb-b1619451b9bf","system_id":"levelo_inurba_marseille","lat":43.24391,"lon":5.37061,"is_reserved":false,"is_disabled":false,"rental_uris":{"android":"levelo://app?vid=4f7e9dcf-3dba-488a-b1cb-b1619451b9bf","ios":"levelo://app?vid=4f7e9dcf-3dba-488a-b1cb-b1619451b9bf"},"vehicle_type_id":"4","last_reported":1746097751,"current_range_meters":11200,"station_id":"ce4bhhh2rcd13ifvqfk0","pricing_plan_id":"cebpf4jnsgd1na2vs0mg"},{"bike_id":"e879418e-612f-48f7-be63-57b72e924982","system_id":"levelo_inurba_marseille","lat":43.23965,"lon":5.36629,"is_reserved":false,"is_disabled":false,"rental_uris":{"android":"levelo://app?vid=e879418e-612f-48f7-be63-57b72e924982","ios":"levelo://app?vid=e879418e-612f-48f7-be63-57b72e924982"},"vehicle_type_id":"4","last_reported":1746097751,"current_range_meters":11600,"station_id":"ce4bhi12rcd13ifvqfp0","pricing_plan_id":"cebpf4jnsgd1na2vs0mg"},{"bike_id":"93a64701-acf5-4066-8fed-9eed30da5ecb","system_id":"levelo_inurba_marseille","lat":43.25495,"lon":5.37647,"is_reserved":false,"is_disabled":false,"rental_uris":{"android":"levelo://app?vid=93a64701-acf5-4066-8fed-9eed30da5ecb","ios":"levelo://app?vid=93a64701-acf5-4066-8fed-9eed30da5ecb"},"vehicle_type_id":"4","last_reported":1746097751,"current_range_meters":12000,"station_id":"ce4bhh12rcd13ifvqff0","pricing_plan_id":"cebpf4jnsgd1na2vs0mg"},{"bike_id":"d967f54c-b8c4-4d9f-87ef-b9d2e0cd1075","system_id":"levelo_inurba_marseille","lat":43.23192,"lon":5.35553,"is_reserved":false,"is_disabled":false,"rental_uris":{"android":"levelo://app?vid=d967f54c-b8c4-4d9f-87ef-b9d2e0cd1075","ios":"levelo://app?vid=d967f54c-b8c4-4d9f-87ef-b9d2e0cd1075"},"vehicle_type_id":"4","last_reported":1746097751,"current_range_meters":12000,"station_id":"ce4bhu92rcd13ifvqi70","pricing_plan_id":"cebpf4jnsgd1na2vs0mg"},{"bike_id":"34b484ab-c0f1-4e55-b51a-e2bafdafb63e","system_id":"levelo_inurba_marseille","lat":43.230595,"lon":5.35488,"is_reserved":false,"is_disabled":false,"rental_uris":{"android":"levelo://app?vid=34b484ab-c0f1-4e55-b51a-e2bafdafb63e","ios":"levelo://app?vid=34b484ab-c0f1-4e55-b51a-e2bafdafb63e"},"vehicle_type_id":"4","last_reported":1746097751,"current_range_meters":12000,"station_id":"cpo3342slgdg3j2ifvpg","pricing_plan_id":"cebpf4jnsgd1na2vs0mg"},{"bike_id":"7940bc1b-eaa7-4f49-a435-46dc9391f6a1","system_id":"levelo_inurba_marseille","lat":43.21191,"lon":5.35074,"is_reserved":false,"is_disabled":false,"rental_uris":{"android":"levelo://app?vid=7940bc1b-eaa7-4f49-a435-46dc9391f6a1","ios":"levelo://app?vid=7940bc1b-eaa7-4f49-a435-46dc9391f6a1"},"vehicle_type_id":"4","last_reported":1746097751,"current_range_meters":12000,"station_id":"st_cvj6sg6p6f1abm77japg","pricing_plan_id":"cebpf4jnsgd1na2vs0mg"},{"bike_id":"2c27a7a2-3425-4bc8-8800-38779687dcb9","system_id":"levelo_inurba_marseille","lat":43.23098,"lon":5.35486,"is_reserved":false,"is_disabled":false,"rental_uris":{"android":"levelo://app?vid=2c27a7a2-3425-4bc8-8800-38779687dcb9","ios":"levelo://app?vid=2c27a7a2-3425-4bc8-8800-38779687dcb9"},"vehicle_type_id":"4","last_reported":1746097751,"current_range_meters":12400,"station_id":"","pricing_plan_id":"cebpf4jnsgd1na2vs0mg"},{"bike_id":"e8fa9120-40eb-4703-871e-013e250566a3","system_id":"levelo_inurba_marseille","lat":43.284226,"lon":5.349826,"is_reserved":false,"is_disabled":false,"rental_uris":{"android":"levelo://app?vid=e8fa9120-40eb-4703-871e-013e250566a3","ios":"levelo://app?vid=e8fa9120-40eb-4703-871e-013e250566a3"},"vehicle_type_id":"4","last_reported":1746097751,"current_range_meters":12400,"station_id":"ce4bhbh2rcd13ifvqepg","pricing_plan_id":"cebpf4jnsgd1na2vs0mg"},{"bike_id":"1afd5452-4a57-46ff-a3d1-33f6beb2af26","system_id":"levelo_inurba_marseille","lat":43.2551,"lon":5.37649,"is_reserved":false,"is_disabled":false,"rental_uris":{"android":"levelo://app?vid=1afd5452-4a57-46ff-a3d1-33f6beb2af26","ios":"levelo://app?vid=1afd5452-4a57-46ff-a3d1-33f6beb2af26"},"vehicle_type_id":"4","last_reported":1746097751,"current_range_meters":12400,"station_id":"ce4bhh12rcd13ifvqff0","pricing_plan_id":"cebpf4jnsgd1na2vs0mg"},{"bike_id":"2fab73d2-cef0-485f-94c0-49d3e5fcaea5","system_id":"levelo_inurba_marseille","lat":43.23201,"lon":5.40018,"is_reserved":false,"is_disabled":false,"rental_uris":{"android":"levelo://app?vid=2fab73d2-cef0-485f-94c0-49d3e5fcaea5","ios":"levelo://app?vid=2fab73d2-cef0-485f-94c0-49d3e5fcaea5"},"vehicle_type_id":"4","last_reported":1746097751,"current_range_meters":12400,"station_id":"ce4bhn12rcd13ifvqgqg","pricing_plan_id":"cebpf4jnsgd1na2vs0mg"},{"bike_id":"b5ca6c28-779d-4f21-855b-4b69c4765d74","system_id":"levelo_inurba_marseille","lat":43.27377,"lon":5.36249,"is_reserved":false,"is_disabled":false,"rental_uris":{"android":"levelo://app?vid=b5ca6c28-779d-4f21-855b-4b69c4765d74","ios":"levelo://app?vid=b5ca6c28-779d-4f21-855b-4b69c4765d74"},"vehicle_type_id":"4","last_reported":1746097751,"current_range_meters":12800,"station_id":"ce4bhbh2rcd13ifvqeo0","pricing_plan_id":"cebpf4jnsgd1na2vs0mg"},{"bike_id":"0602cf4b-4db4-48c2-a5d3-0aa7c3a32d80","system_id":"levelo_inurba_marseille","lat":43.27374,"lon":5.36238,"is_reserved":false,"is_disabled":false,"rental_uris":{"android":"levelo://app?vid=0602cf4b-4db4-48c2-a5d3-0aa7c3a32d80","ios":"levelo://app?vid=0602cf4b-4db4-48c2-a5d3-0aa7c3a32d80"},"vehicle_type_id":"4","last_reported":1746097751,"current_range_meters":12800,"station_id":"ce4bhbh2rcd13ifvqeo0","pricing_plan_id":"cebpf4jnsgd1na2vs0mg"},{"bike_id":"6d7ac254-4842-42d8-8542-f16f6d073d0f","system_id":"levelo_inurba_marseille","lat":43.24389,"lon":5.37065,"is_reserved":false,"is_disabled":false,"rental_uris":{"android":"levelo://app?vid=6d7ac254-4842-42d8-8542-f16f6d073d0f","ios":"levelo://app?vid=6d7ac254-4842-42d8-8542-f16f6d073d0f"},"vehicle_type_id":"4","last_reported":1746097751,"current_range_meters":12800,"station_id":"ce4bhhh2rcd13ifvqfk0","pricing_plan_id":"cebpf4jnsgd1na2vs0mg"},{"bike_id":"641ff1dc-31d8-4919-9229-d2737245cf00","system_id":"levelo_inurba_marseille","lat":43.23154,"lon":5.43701,"is_reserved":false,"is_disabled":false,"rental_uris":{"android":"levelo://app?vid=641ff1dc-31d8-4919-9229-d2737245cf00","ios":"levelo://app?vid=641ff1dc-31d8-4919-9229-d2737245cf00"},"vehicle_type_id":"4","last_reported":1746097751,"current_range_meters":12800,"station_id":"ce4bhmp2rcd13ifvqgog","pricing_plan_id":"cebpf4jnsgd1na2vs0mg"},{"bike_id":"c1962ba5-8a91-4a1c-91ee-96111ce7c7be","system_id":"levelo_inurba_marseille","lat":43.23063,"lon":5.35504,"is_reserved":false,"is_disabled":false,"rental_uris":{"android":"levelo://app?vid=c1962ba5-8a91-4a1c-91ee-96111ce7c7be","ios":"levelo://app?vid=c1962ba5-8a91-4a1c-91ee-96111ce7c7be"},"vehicle_type_id":"4","last_reported":1746097751,"current_range_meters":12800,"station_id":"cpo3342slgdg3j2ifvpg","pricing_plan_id":"cebpf4jnsgd1na2vs0mg"},{"bike_id":"2bfb0f9e-3194-41eb-be7f-d93d6441d855","system_id":"levelo_inurba_marseille","lat":43.21752,"lon":5.34598,"is_reserved":false,"is_disabled":false,"rental_uris":{"android":"levelo://app?vid=2bfb0f9e-3194-41eb-be7f-d93d6441d855","ios":"levelo://app?vid=2bfb0f9e-3194-41eb-be7f-d93d6441d855"},"vehicle_type_id":"4","last_reported":1746097751,"current_range_meters":12800,"station_id":"st_cvj6r9ubvosntc0bgbag","pricing_plan_id":"cebpf4jnsgd1na2vs0mg"},{"bike_id":"0caa0201-a1af-4b52-a37d-a48e53a383d3","system_id":"levelo_inurba_marseille","lat":43.27376,"lon":5.36251,"is_reserved":false,"is_disabled":false,"rental_uris":{"android":"levelo://app?vid=0caa0201-a1af-4b52-a37d-a48e53a383d3","ios":"levelo://app?vid=0caa0201-a1af-4b52-a37d-a48e53a383d3"},"vehicle_type_id":"4","last_reported":1746097751,"current_range_meters":13600,"station_id":"ce4bhbh2rcd13ifvqeo0","pricing_plan_id":"cebpf4jnsgd1na2vs0mg"},{"bike_id":"1d8a3520-d456-4674-a853-da90035100f3","system_id":"levelo_inurba_marseille","lat":43.25471,"lon":5.37651,"is_reserved":false,"is_disabled":false,"rental_uris":{"android":"levelo://app?vid=1d8a3520-d456-4674-a853-da90035100f3","ios":"levelo://app?vid=1d8a3520-d456-4674-a853-da90035100f3"},"vehicle_type_id":"4","last_reported":1746097751,"current_range_meters":13600,"station_id":"ce4bhh12rcd13ifvqff0","pricing_plan_id":"cebpf4jnsgd1na2vs0mg"},{"bike_id":"ab81b1ab-dbdc-44b6-b55c-15867448a2c2","system_id":"levelo_inurba_marseille","lat":43.2119,"lon":5.35081,"is_reserved":false,"is_disabled":false,"rental_uris":{"android":"levelo://app?vid=ab81b1ab-dbdc-44b6-b55c-15867448a2c2","ios":"levelo://app?vid=ab81b1ab-dbdc-44b6-b55c-15867448a2c2"},"vehicle_type_id":"4","last_reported":1746097751,"current_range_meters":13600,"station_id":"st_cvj6sg6p6f1abm77japg","pricing_plan_id":"cebpf4jnsgd1na2vs0mg"},{"bike_id":"f649bbcf-f1ec-41ae-9810-4157e3752ba7","system_id":"levelo_inurba_marseille","lat":43.31437,"lon":5.37431,"is_reserved":false,"is_disabled":false,"rental_uris":{"android":"levelo://app?vid=f649bbcf-f1ec-41ae-9810-4157e3752ba7","ios":"levelo://app?vid=f649bbcf-f1ec-41ae-9810-4157e3752ba7"},"vehicle_type_id":"4","last_reported":1746097751,"current_range_meters":14000,"station_id":"","pricing_plan_id":"cebpf4jnsgd1na2vs0mg"},{"bike_id":"f39ddcf7-424a-4277-a106-49f10761818e","system_id":"levelo_inurba_marseille","lat":43.28431,"lon":5.34977,"is_reserved":false,"is_disabled":false,"rental_uris":{"android":"levelo://app?vid=f39ddcf7-424a-4277-a106-49f10761818e","ios":"levelo://app?vid=f39ddcf7-424a-4277-a106-49f10761818e"},"vehicle_type_id":"4","last_reported":1746097751,"current_range_meters":14000,"station_id":"ce4bhbh2rcd13ifvqepg","pricing_plan_id":"cebpf4jnsgd1na2vs0mg"},{"bike_id":"879a7270-da56-4b1b-9f35-e00e1f01e951","system_id":"levelo_inurba_marseille","lat":43.284111,"lon":5.349745,"is_reserved":false,"is_disabled":false,"rental_uris":{"android":"levelo://app?vid=879a7270-da56-4b1b-9f35-e00e1f01e951","ios":"levelo://app?vid=879a7270-da56-4b1b-9f35-e00e1f01e951"},"vehicle_type_id":"4","last_reported":1746097751,"current_range_meters":14000,"station_id":"ce4bhbh2rcd13ifvqepg","pricing_plan_id":"cebpf4jnsgd1na2vs0mg"},{"bike_id":"4f88a12c-2e86-491c-b40a-bc7f848cf85d","system_id":"levelo_inurba_marseille","lat":43.23191,"lon":5.35552,"is_reserved":false,"is_disabled":false,"rental_uris":{"android":"levelo://app?vid=4f88a12c-2e86-491c-b40a-bc7f848cf85d","ios":"levelo://app?vid=4f88a12c-2e86-491c-b40a-bc7f848cf85d"},"vehicle_type_id":"4","last_reported":1746097751,"current_range_meters":14000,"station_id":"ce4bhu92rcd13ifvqi70","pricing_plan_id":"cebpf4jnsgd1na2vs0mg"},{"bike_id":"369cfdbc-3e68-43a6-8fe7-1d79033952b8","system_id":"levelo_inurba_marseille","lat":43.29966,"lon":5.38496,"is_reserved":false,"is_disabled":false,"rental_uris":{"android":"levelo://app?vid=369cfdbc-3e68-43a6-8fe7-1d79033952b8","ios":"levelo://app?vid=369cfdbc-3e68-43a6-8fe7-1d79033952b8"},"vehicle_type_id":"4","last_reported":1746097751,"current_range_meters":14400,"station_id":"ce4bgj92rcd13ifvqbd0","pricing_plan_id":"cebpf4jnsgd1na2vs0mg"},{"bike_id":"8684773b-7cd0-43d2-b482-b8d955efbdd2","system_id":"levelo_inurba_marseille","lat":43.26763,"lon":5.4023,"is_reserved":false,"is_disabled":false,"rental_uris":{"android":"levelo://app?vid=8684773b-7cd0-43d2-b482-b8d955efbdd2","ios":"levelo://app?vid=8684773b-7cd0-43d2-b482-b8d955efbdd2"},"vehicle_type_id":"4","last_reported":1746097751,"current_range_meters":14400,"station_id":"ce501612rcd8frsf0b60","pricing_plan_id":"cebpf4jnsgd1na2vs0mg"},{"bike_id":"b58385b2-d1b2-4ecc-af75-eb7cf4772905","system_id":"levelo_inurba_marseille","lat":43.2306,"lon":5.354911,"is_reserved":false,"is_disabled":false,"rental_uris":{"android":"levelo://app?vid=b58385b2-d1b2-4ecc-af75-eb7cf4772905","ios":"levelo://app?vid=b58385b2-d1b2-4ecc-af75-eb7cf4772905"},"vehicle_type_id":"4","last_reported":1746097751,"current_range_meters":14400,"station_id":"cpo3342slgdg3j2ifvpg","pricing_plan_id":"cebpf4jnsgd1na2vs0mg"},{"bike_id":"a45056ac-2e4d-4e4d-a7ef-996447ed3ecb","system_id":"levelo_inurba_marseille","lat":43.211907,"lon":5.350768,"is_reserved":false,"is_disabled":false,"rental_uris":{"android":"levelo://app?vid=a45056ac-2e4d-4e4d-a7ef-996447ed3ecb","ios":"levelo://app?vid=a45056ac-2e4d-4e4d-a7ef-996447ed3ecb"},"vehicle_type_id":"4","last_reported":1746097751,"current_range_meters":14400,"station_id":"st_cvj6sg6p6f1abm77japg","pricing_plan_id":"cebpf4jnsgd1na2vs0mg"},{"bike_id":"617e4391-c2b2-41b6-81fa-a4207b7b52d3","system_id":"levelo_inurba_marseille","lat":43.27371,"lon":5.36257,"is_reserved":false,"is_disabled":false,"rental_uris":{"android":"levelo://app?vid=617e4391-c2b2-41b6-81fa-a4207b7b52d3","ios":"levelo://app?vid=617e4391-c2b2-41b6-81fa-a4207b7b52d3"},"vehicle_type_id":"4","last_reported":1746097751,"current_range_meters":14800,"station_id":"ce4bhbh2rcd13ifvqeo0","pricing_plan_id":"cebpf4jnsgd1na2vs0mg"},{"bike_id":"b66c763c-a03d-48f5-8182-38928baf9525","system_id":"levelo_inurba_marseille","lat":43.27901,"lon":5.38006,"is_reserved":false,"is_disabled":false,"rental_uris":{"android":"levelo://app?vid=b66c763c-a03d-48f5-8182-38928baf9525","ios":"levelo://app?vid=b66c763c-a03d-48f5-8182-38928baf9525"},"vehicle_type_id":"4","last_reported":1746097751,"current_range_meters":14800,"station_id":"ce4bhf92rcd13ifvqf50","pricing_plan_id":"cebpf4jnsgd1na2vs0mg"},{"bike_id":"15ed00fc-3b01-4b9b-8e6c-32067a90b2b0","system_id":"levelo_inurba_marseille","lat":43.23966,"lon":5.36639,"is_reserved":false,"is_disabled":false,"rental_uris":{"android":"levelo://app?vid=15ed00fc-3b01-4b9b-8e6c-32067a90b2b0","ios":"levelo://app?vid=15ed00fc-3b01-4b9b-8e6c-32067a90b2b0"},"vehicle_type_id":"4","last_reported":1746097751,"current_range_meters":14800,"station_id":"ce4bhi12rcd13ifvqfp0","pricing_plan_id":"cebpf4jnsgd1na2vs0mg"},{"bike_id":"686755ed-e7a5-4d32-88e6-63da00eb21de","system_id":"levelo_inurba_marseille","lat":43.23157,"lon":5.43718,"is_reserved":false,"is_disabled":false,"rental_uris":{"android":"levelo://app?vid=686755ed-e7a5-4d32-88e6-63da00eb21de","ios":"levelo://app?vid=686755ed-e7a5-4d32-88e6-63da00eb21de"},"vehicle_type_id":"4","last_reported":1746097751,"current_range_meters":14800,"station_id":"ce4bhmp2rcd13ifvqgog","pricing_plan_id":"cebpf4jnsgd1na2vs0mg"},{"bike_id":"bba31c47-23e6-47b3-9cdc-9e3a80be600e","system_id":"levelo_inurba_marseille","lat":43.241681,"lon":5.363899,"is_reserved":false,"is_disabled":false,"rental_uris":{"android":"levelo://app?vid=bba31c47-23e6-47b3-9cdc-9e3a80be600e","ios":"levelo://app?vid=bba31c47-23e6-47b3-9cdc-9e3a80be600e"},"vehicle_type_id":"4","last_reported":1746097751,"current_range_meters":14800,"station_id":"cpo36qri1sfpv3e86is0","pricing_plan_id":"cebpf4jnsgd1na2vs0mg"},{"bike_id":"5fb636c7-4154-459c-b55f-384c8ecb6a94","system_id":"levelo_inurba_marseille","lat":43.28422,"lon":5.34986,"is_reserved":false,"is_disabled":false,"rental_uris":{"android":"levelo://app?vid=5fb636c7-4154-459c-b55f-384c8ecb6a94","ios":"levelo://app?vid=5fb636c7-4154-459c-b55f-384c8ecb6a94"},"vehicle_type_id":"4","last_reported":1746097751,"current_range_meters":15200,"station_id":"ce4bhbh2rcd13ifvqepg","pricing_plan_id":"cebpf4jnsgd1na2vs0mg"},{"bike_id":"2c29fed6-449b-4a2c-8146-5a48dbc29614","system_id":"levelo_inurba_marseille","lat":43.23147,"lon":5.43701,"is_reserved":false,"is_disabled":false,"rental_uris":{"android":"levelo://app?vid=2c29fed6-449b-4a2c-8146-5a48dbc29614","ios":"levelo://app?vid=2c29fed6-449b-4a2c-8146-5a48dbc29614"},"vehicle_type_id":"4","last_reported":1746097751,"current_range_meters":15200,"station_id":"ce4bhmp2rcd13ifvqgog","pricing_plan_id":"cebpf4jnsgd1na2vs0mg"},{"bike_id":"0b9ac188-19a7-4ad4-8279-34f1318ce56d","system_id":"levelo_inurba_marseille","lat":43.31278,"lon":5.37753,"is_reserved":false,"is_disabled":false,"rental_uris":{"android":"levelo://app?vid=0b9ac188-19a7-4ad4-8279-34f1318ce56d","ios":"levelo://app?vid=0b9ac188-19a7-4ad4-8279-34f1318ce56d"},"vehicle_type_id":"4","last_reported":1746097751,"current_range_meters":16000,"station_id":"","pricing_plan_id":"cebpf4jnsgd1na2vs0mg"},{"bike_id":"c8540d80-9163-4856-b53a-0b5c01728d33","system_id":"levelo_inurba_marseille","lat":43.27382,"lon":5.36247,"is_reserved":false,"is_disabled":false,"rental_uris":{"android":"levelo://app?vid=c8540d80-9163-4856-b53a-0b5c01728d33","ios":"levelo://app?vid=c8540d80-9163-4856-b53a-0b5c01728d33"},"vehicle_type_id":"4","last_reported":1746097751,"current_range_meters":16000,"station_id":"ce4bhbh2rcd13ifvqeo0","pricing_plan_id":"cebpf4jnsgd1na2vs0mg"},{"bike_id":"81a7e121-ddc0-44ab-a124-f2f18e0e019a","system_id":"levelo_inurba_marseille","lat":43.28417,"lon":5.34979,"is_reserved":false,"is_disabled":false,"rental_uris":{"android":"levelo://app?vid=81a7e121-ddc0-44ab-a124-f2f18e0e019a","ios":"levelo://app?vid=81a7e121-ddc0-44ab-a124-f2f18e0e019a"},"vehicle_type_id":"4","last_reported":1746097751,"current_range_meters":16000,"station_id":"ce4bhbh2rcd13ifvqepg","pricing_plan_id":"cebpf4jnsgd1na2vs0mg"},{"bike_id":"08bd7218-eea6-47c8-8d55-54c77d2710a0","system_id":"levelo_inurba_marseille","lat":43.2439,"lon":5.37055,"is_reserved":false,"is_disabled":false,"rental_uris":{"android":"levelo://app?vid=08bd7218-eea6-47c8-8d55-54c77d2710a0","ios":"levelo://app?vid=08bd7218-eea6-47c8-8d55-54c77d2710a0"},"vehicle_type_id":"4","last_reported":1746097751,"current_range_meters":16000,"station_id":"ce4bhhh2rcd13ifvqfk0","pricing_plan_id":"cebpf4jnsgd1na2vs0mg"},{"bike_id":"174bac0a-d6c3-44ff-be45-511ea78f0386","system_id":"levelo_inurba_marseille","lat":43.2318,"lon":5.39991,"is_reserved":false,"is_disabled":false,"rental_uris":{"android":"levelo://app?vid=174bac0a-d6c3-44ff-be45-511ea78f0386","ios":"levelo://app?vid=174bac0a-d6c3-44ff-be45-511ea78f0386"},"vehicle_type_id":"4","last_reported":1746097751,"current_range_meters":16000,"station_id":"ce4bhn12rcd13ifvqgqg","pricing_plan_id":"cebpf4jnsgd1na2vs0mg"},{"bike_id":"2e1ce04f-74c7-4d68-a96b-b9dc1d6897ee","system_id":"levelo_inurba_marseille","lat":43.32302,"lon":5.38293,"is_reserved":false,"is_disabled":false,"rental_uris":{"android":"levelo://app?vid=2e1ce04f-74c7-4d68-a96b-b9dc1d6897ee","ios":"levelo://app?vid=2e1ce04f-74c7-4d68-a96b-b9dc1d6897ee"},"vehicle_type_id":"4","last_reported":1746097751,"current_range_meters":16000,"station_id":"ce4bhr12rcd13ifvqhqg","pricing_plan_id":"cebpf4jnsgd1na2vs0mg"},{"bike_id":"49a967da-ed5c-42a2-9b49-9fee741db503","system_id":"levelo_inurba_marseille","lat":43.29797,"lon":5.38111,"is_reserved":false,"is_disabled":false,"rental_uris":{"android":"levelo://app?vid=49a967da-ed5c-42a2-9b49-9fee741db503","ios":"levelo://app?vid=49a967da-ed5c-42a2-9b49-9fee741db503"},"vehicle_type_id":"4","last_reported":1746097751,"current_range_meters":16400,"station_id":"ce4bgip2rcd13ifvqbb0","pricing_plan_id":"cebpf4jnsgd1na2vs0mg"},{"bike_id":"9fcadb24-88c0-486c-b6e8-5dce927e138f","system_id":"levelo_inurba_marseille","lat":43.27358,"lon":5.36241,"is_reserved":false,"is_disabled":false,"rental_uris":{"android":"levelo://app?vid=9fcadb24-88c0-486c-b6e8-5dce927e138f","ios":"levelo://app?vid=9fcadb24-88c0-486c-b6e8-5dce927e138f"},"vehicle_type_id":"4","last_reported":1746097751,"current_range_meters":16400,"station_id":"ce4bhbh2rcd13ifvqeo0","pricing_plan_id":"cebpf4jnsgd1na2vs0mg"},{"bike_id":"e3bb0f98-08b5-4dd7-9b8f-bbf72b6e2b19","system_id":"levelo_inurba_marseille","lat":43.23964,"lon":5.36644,"is_reserved":false,"is_disabled":false,"rental_uris":{"android":"levelo://app?vid=e3bb0f98-08b5-4dd7-9b8f-bbf72b6e2b19","ios":"levelo://app?vid=e3bb0f98-08b5-4dd7-9b8f-bbf72b6e2b19"},"vehicle_type_id":"4","last_reported":1746097751,"current_range_meters":16400,"station_id":"ce4bhi12rcd13ifvqfp0","pricing_plan_id":"cebpf4jnsgd1na2vs0mg"},{"bike_id":"33fac4a5-e169-4241-a55a-64a5c337bdfe","system_id":"levelo_inurba_marseille","lat":43.23148,"lon":5.43638,"is_reserved":false,"is_disabled":false,"rental_uris":{"android":"levelo://app?vid=33fac4a5-e169-4241-a55a-64a5c337bdfe","ios":"levelo://app?vid=33fac4a5-e169-4241-a55a-64a5c337bdfe"},"vehicle_type_id":"4","last_reported":1746097751,"current_range_meters":16400,"station_id":"ce4bhmp2rcd13ifvqgog","pricing_plan_id":"cebpf4jnsgd1na2vs0mg"},{"bike_id":"16abf086-9b8c-433e-949a-7601ccf5d234","system_id":"levelo_inurba_marseille","lat":43.21772,"lon":5.34601,"is_reserved":false,"is_disabled":false,"rental_uris":{"android":"levelo://app?vid=16abf086-9b8c-433e-949a-7601ccf5d234","ios":"levelo://app?vid=16abf086-9b8c-433e-949a-7601ccf5d234"},"vehicle_type_id":"4","last_reported":1746097751,"current_range_meters":16400,"station_id":"st_cvj6r9ubvosntc0bgbag","pricing_plan_id":"cebpf4jnsgd1na2vs0mg"},{"bike_id":"4ab1b21f-feff-446b-ba10-cdbbcea27504","system_id":"levelo_inurba_marseille","lat":43.231701,"lon":5.43652,"is_reserved":false,"is_disabled":false,"rental_uris":{"android":"levelo://app?vid=4ab1b21f-feff-446b-ba10-cdbbcea27504","ios":"levelo://app?vid=4ab1b21f-feff-446b-ba10-cdbbcea27504"},"vehicle_type_id":"4","last_reported":1746097751,"current_range_meters":16800,"station_id":"","pricing_plan_id":"cebpf4jnsgd1na2vs0mg"},{"bike_id":"85e57abd-e6f6-4ebf-9793-7041c6dd5651","system_id":"levelo_inurba_marseille","lat":43.28424,"lon":5.34968,"is_reserved":false,"is_disabled":false,"rental_uris":{"android":"levelo://app?vid=85e57abd-e6f6-4ebf-9793-7041c6dd5651","ios":"levelo://app?vid=85e57abd-e6f6-4ebf-9793-7041c6dd5651"},"vehicle_type_id":"4","last_reported":1746097751,"current_range_meters":16800,"station_id":"ce4bhbh2rcd13ifvqepg","pricing_plan_id":"cebpf4jnsgd1na2vs0mg"},{"bike_id":"2f804007-93c6-45e2-b56b-b99c0d861b75","system_id":"levelo_inurba_marseille","lat":43.26954,"lon":5.38636,"is_reserved":false,"is_disabled":false,"rental_uris":{"android":"levelo://app?vid=2f804007-93c6-45e2-b56b-b99c0d861b75","ios":"levelo://app?vid=2f804007-93c6-45e2-b56b-b99c0d861b75"},"vehicle_type_id":"4","last_reported":1746097751,"current_range_meters":16800,"station_id":"ce4bhh92rcd13ifvqfh0","pricing_plan_id":"cebpf4jnsgd1na2vs0mg"},{"bike_id":"435c0907-725d-482c-afd8-f8cd54f570fe","system_id":"levelo_inurba_marseille","lat":43.23154,"lon":5.43697,"is_reserved":false,"is_disabled":false,"rental_uris":{"android":"levelo://app?vid=435c0907-725d-482c-afd8-f8cd54f570fe","ios":"levelo://app?vid=435c0907-725d-482c-afd8-f8cd54f570fe"},"vehicle_type_id":"4","last_reported":1746097751,"current_range_meters":16800,"station_id":"ce4bhmp2rcd13ifvqgog","pricing_plan_id":"cebpf4jnsgd1na2vs0mg"},{"bike_id":"78d80310-09c6-4147-bd35-a38cba4a1dd1","system_id":"levelo_inurba_marseille","lat":43.273773,"lon":5.36249,"is_reserved":false,"is_disabled":false,"rental_uris":{"android":"levelo://app?vid=78d80310-09c6-4147-bd35-a38cba4a1dd1","ios":"levelo://app?vid=78d80310-09c6-4147-bd35-a38cba4a1dd1"},"vehicle_type_id":"4","last_reported":1746097751,"current_range_meters":17200,"station_id":"ce4bhbh2rcd13ifvqeo0","pricing_plan_id":"cebpf4jnsgd1na2vs0mg"},{"bike_id":"85526acc-28a7-4352-a4e7-3abd6a310fed","system_id":"levelo_inurba_marseille","lat":43.28281,"lon":5.35065,"is_reserved":false,"is_disabled":false,"rental_uris":{"android":"levelo://app?vid=85526acc-28a7-4352-a4e7-3abd6a310fed","ios":"levelo://app?vid=85526acc-28a7-4352-a4e7-3abd6a310fed"},"vehicle_type_id":"4","last_reported":1746097751,"current_range_meters":17200,"station_id":"ce4bhbp2rcd13ifvqerg","pricing_plan_id":"cebpf4jnsgd1na2vs0mg"},{"bike_id":"31852382-fbee-4d38-a6a0-08f5f239f336","system_id":"levelo_inurba_marseille","lat":43.26213,"lon":5.37437,"is_reserved":false,"is_disabled":false,"rental_uris":{"android":"levelo://app?vid=31852382-fbee-4d38-a6a0-08f5f239f336","ios":"levelo://app?vid=31852382-fbee-4d38-a6a0-08f5f239f336"},"vehicle_type_id":"4","last_reported":1746097751,"current_range_meters":17200,"station_id":"ce4bhgp2rcd13ifvqfc0","pricing_plan_id":"cebpf4jnsgd1na2vs0mg"},{"bike_id":"1556515c-a632-436a-9dfa-0ef09d1673fe","system_id":"levelo_inurba_marseille","lat":43.21749,"lon":5.3461,"is_reserved":false,"is_disabled":false,"rental_uris":{"android":"levelo://app?vid=1556515c-a632-436a-9dfa-0ef09d1673fe","ios":"levelo://app?vid=1556515c-a632-436a-9dfa-0ef09d1673fe"},"vehicle_type_id":"4","last_reported":1746097751,"current_range_meters":17200,"station_id":"st_cvj6r9ubvosntc0bgbag","pricing_plan_id":"cebpf4jnsgd1na2vs0mg"},{"bike_id":"d6a01f4e-ec52-481a-8651-0c772dcedaa5","system_id":"levelo_inurba_marseille","lat":43.21191,"lon":5.3507,"is_reserved":false,"is_disabled":false,"rental_uris":{"android":"levelo://app?vid=d6a01f4e-ec52-481a-8651-0c772dcedaa5","ios":"levelo://app?vid=d6a01f4e-ec52-481a-8651-0c772dcedaa5"},"vehicle_type_id":"4","last_reported":1746097751,"current_range_meters":17200,"station_id":"st_cvj6sg6p6f1abm77japg","pricing_plan_id":"cebpf4jnsgd1na2vs0mg"},{"bike_id":"0fcba6aa-b627-4381-b0d8-fabafda987ba","system_id":"levelo_inurba_marseille","lat":43.21198,"lon":5.35073,"is_reserved":false,"is_disabled":false,"rental_uris":{"android":"levelo://app?vid=0fcba6aa-b627-4381-b0d8-fabafda987ba","ios":"levelo://app?vid=0fcba6aa-b627-4381-b0d8-fabafda987ba"},"vehicle_type_id":"4","last_reported":1746097751,"current_range_meters":17200,"station_id":"st_cvj6sg6p6f1abm77japg","pricing_plan_id":"cebpf4jnsgd1na2vs0mg"},{"bike_id":"8daef51c-0276-4dc3-9dae-ee17d20684be","system_id":"levelo_inurba_marseille","lat":43.21205,"lon":5.35078,"is_reserved":false,"is_disabled":false,"rental_uris":{"android":"levelo://app?vid=8daef51c-0276-4dc3-9dae-ee17d20684be","ios":"levelo://app?vid=8daef51c-0276-4dc3-9dae-ee17d20684be"},"vehicle_type_id":"4","last_reported":1746097751,"current_range_meters":17200,"station_id":"st_cvj6sg6p6f1abm77japg","pricing_plan_id":"cebpf4jnsgd1na2vs0mg"},{"bike_id":"6545ef7c-1f73-4b71-816f-80cb46f8e007","system_id":"levelo_inurba_marseille","lat":43.28276,"lon":5.35065,"is_reserved":false,"is_disabled":false,"rental_uris":{"android":"levelo://app?vid=6545ef7c-1f73-4b71-816f-80cb46f8e007","ios":"levelo://app?vid=6545ef7c-1f73-4b71-816f-80cb46f8e007"},"vehicle_type_id":"4","last_reported":1746097751,"current_range_meters":17600,"station_id":"ce4bhbp2rcd13ifvqerg","pricing_plan_id":"cebpf4jnsgd1na2vs0mg"},{"bike_id":"4b438d4b-9110-49cc-bce8-481653ea9c83","system_id":"levelo_inurba_marseille","lat":43.21763,"lon":5.34593,"is_reserved":false,"is_disabled":false,"rental_uris":{"android":"levelo://app?vid=4b438d4b-9110-49cc-bce8-481653ea9c83","ios":"levelo://app?vid=4b438d4b-9110-49cc-bce8-481653ea9c83"},"vehicle_type_id":"4","last_reported":1746097751,"current_range_meters":17600,"station_id":"st_cvj6r9ubvosntc0bgbag","pricing_plan_id":"cebpf4jnsgd1na2vs0mg"},{"bike_id":"34c6541a-451e-4a25-9f41-23b329707f46","system_id":"levelo_inurba_marseille","lat":43.21748,"lon":5.34603,"is_reserved":false,"is_disabled":false,"rental_uris":{"android":"levelo://app?vid=34c6541a-451e-4a25-9f41-23b329707f46","ios":"levelo://app?vid=34c6541a-451e-4a25-9f41-23b329707f46"},"vehicle_type_id":"4","last_reported":1746097751,"current_range_meters":17600,"station_id":"st_cvj6r9ubvosntc0bgbag","pricing_plan_id":"cebpf4jnsgd1na2vs0mg"},{"bike_id":"6bc4d50d-a2ed-4c22-bdac-bf6a33760771","system_id":"levelo_inurba_marseille","lat":43.2842,"lon":5.34976,"is_reserved":false,"is_disabled":false,"rental_uris":{"android":"levelo://app?vid=6bc4d50d-a2ed-4c22-bdac-bf6a33760771","ios":"levelo://app?vid=6bc4d50d-a2ed-4c22-bdac-bf6a33760771"},"vehicle_type_id":"4","last_reported":1746097751,"current_range_meters":18000,"station_id":"ce4bhbh2rcd13ifvqepg","pricing_plan_id":"cebpf4jnsgd1na2vs0mg"},{"bike_id":"3397465d-589d-4450-9613-9485c13502a8","system_id":"levelo_inurba_marseille","lat":43.25112,"lon":5.4032,"is_reserved":false,"is_disabled":false,"rental_uris":{"android":"levelo://app?vid=3397465d-589d-4450-9613-9485c13502a8","ios":"levelo://app?vid=3397465d-589d-4450-9613-9485c13502a8"},"vehicle_type_id":"4","last_reported":1746097751,"current_range_meters":18000,"station_id":"ce4bhlh2rcd13ifvqgig","pricing_plan_id":"cebpf4jnsgd1na2vs0mg"},{"bike_id":"cd1f00f1-de1f-4b99-b793-b6d2d379752c","system_id":"levelo_inurba_marseille","lat":43.25926,"lon":5.40907,"is_reserved":false,"is_disabled":false,"rental_uris":{"android":"levelo://app?vid=cd1f00f1-de1f-4b99-b793-b6d2d379752c","ios":"levelo://app?vid=cd1f00f1-de1f-4b99-b793-b6d2d379752c"},"vehicle_type_id":"4","last_reported":1746097751,"current_range_meters":18000,"station_id":"ce4bhm92rcd13ifvqglg","pricing_plan_id":"cebpf4jnsgd1na2vs0mg"},{"bike_id":"5d9a324d-7f86-4511-8bfc-a9217590aa0e","system_id":"levelo_inurba_marseille","lat":43.24169,"lon":5.36397,"is_reserved":false,"is_disabled":false,"rental_uris":{"android":"levelo://app?vid=5d9a324d-7f86-4511-8bfc-a9217590aa0e","ios":"levelo://app?vid=5d9a324d-7f86-4511-8bfc-a9217590aa0e"},"vehicle_type_id":"4","last_reported":1746097751,"current_range_meters":18000,"station_id":"cpo36qri1sfpv3e86is0","pricing_plan_id":"cebpf4jnsgd1na2vs0mg"},{"bike_id":"adcb7295-2a1c-460a-8713-ca9d4e7abd78","system_id":"levelo_inurba_marseille","lat":43.21189,"lon":5.35074,"is_reserved":false,"is_disabled":false,"rental_uris":{"android":"levelo://app?vid=adcb7295-2a1c-460a-8713-ca9d4e7abd78","ios":"levelo://app?vid=adcb7295-2a1c-460a-8713-ca9d4e7abd78"},"vehicle_type_id":"4","last_reported":1746097751,"current_range_meters":18000,"station_id":"st_cvj6sg6p6f1abm77japg","pricing_plan_id":"cebpf4jnsgd1na2vs0mg"},{"bike_id":"6050ed74-1a45-4e2a-8267-9e52708ead9e","system_id":"levelo_inurba_marseille","lat":43.27371,"lon":5.36243,"is_reserved":false,"is_disabled":false,"rental_uris":{"android":"levelo://app?vid=6050ed74-1a45-4e2a-8267-9e52708ead9e","ios":"levelo://app?vid=6050ed74-1a45-4e2a-8267-9e52708ead9e"},"vehicle_type_id":"4","last_reported":1746097751,"current_range_meters":18800,"station_id":"ce4bhbh2rcd13ifvqeo0","pricing_plan_id":"cebpf4jnsgd1na2vs0mg"},{"bike_id":"2e8fd03b-7835-40e2-88b3-f16f15f8e783","system_id":"levelo_inurba_marseille","lat":43.2319,"lon":5.39985,"is_reserved":false,"is_disabled":false,"rental_uris":{"android":"levelo://app?vid=2e8fd03b-7835-40e2-88b3-f16f15f8e783","ios":"levelo://app?vid=2e8fd03b-7835-40e2-88b3-f16f15f8e783"},"vehicle_type_id":"4","last_reported":1746097751,"current_range_meters":18800,"station_id":"ce4bhn12rcd13ifvqgqg","pricing_plan_id":"cebpf4jnsgd1na2vs0mg"},{"bike_id":"3aeb961f-88b6-47fd-986a-c7b2a855fefd","system_id":"levelo_inurba_marseille","lat":43.23067,"lon":5.35493,"is_reserved":false,"is_disabled":false,"rental_uris":{"android":"levelo://app?vid=3aeb961f-88b6-47fd-986a-c7b2a855fefd","ios":"levelo://app?vid=3aeb961f-88b6-47fd-986a-c7b2a855fefd"},"vehicle_type_id":"4","last_reported":1746097751,"current_range_meters":18800,"station_id":"cpo3342slgdg3j2ifvpg","pricing_plan_id":"cebpf4jnsgd1na2vs0mg"},{"bike_id":"365b1d6d-411e-458b-937a-b2df0c17a3f6","system_id":"levelo_inurba_marseille","lat":43.211887,"lon":5.350747,"is_reserved":false,"is_disabled":false,"rental_uris":{"android":"levelo://app?vid=365b1d6d-411e-458b-937a-b2df0c17a3f6","ios":"levelo://app?vid=365b1d6d-411e-458b-937a-b2df0c17a3f6"},"vehicle_type_id":"4","last_reported":1746097751,"current_range_meters":18800,"station_id":"st_cvj6sg6p6f1abm77japg","pricing_plan_id":"cebpf4jnsgd1na2vs0mg"},{"bike_id":"8c3e1d83-bce5-41ec-90d7-20ff20f9ef61","system_id":"levelo_inurba_marseille","lat":43.27619,"lon":5.36114,"is_reserved":false,"is_disabled":false,"rental_uris":{"android":"levelo://app?vid=8c3e1d83-bce5-41ec-90d7-20ff20f9ef61","ios":"levelo://app?vid=8c3e1d83-bce5-41ec-90d7-20ff20f9ef61"},"vehicle_type_id":"4","last_reported":1746097751,"current_range_meters":19200,"station_id":"ce4bgj92rcd13ifvqbe0","pricing_plan_id":"cebpf4jnsgd1na2vs0mg"},{"bike_id":"0e97a791-c216-423c-a049-2a4a0aa50931","system_id":"levelo_inurba_marseille","lat":43.284,"lon":5.35027,"is_reserved":false,"is_disabled":false,"rental_uris":{"android":"levelo://app?vid=0e97a791-c216-423c-a049-2a4a0aa50931","ios":"levelo://app?vid=0e97a791-c216-423c-a049-2a4a0aa50931"},"vehicle_type_id":"4","last_reported":1746097751,"current_range_meters":19200,"station_id":"ce4bhbh2rcd13ifvqepg","pricing_plan_id":"cebpf4jnsgd1na2vs0mg"},{"bike_id":"f15a9f75-b5f7-4632-a09f-490c7963c856","system_id":"levelo_inurba_marseille","lat":43.23198,"lon":5.35553,"is_reserved":false,"is_disabled":false,"rental_uris":{"android":"levelo://app?vid=f15a9f75-b5f7-4632-a09f-490c7963c856","ios":"levelo://app?vid=f15a9f75-b5f7-4632-a09f-490c7963c856"},"vehicle_type_id":"4","last_reported":1746097751,"current_range_meters":19200,"station_id":"ce4bhu92rcd13ifvqi70","pricing_plan_id":"cebpf4jnsgd1na2vs0mg"},{"bike_id":"12c5aaeb-65a0-44f7-8d26-5a600f96adfa","system_id":"levelo_inurba_marseille","lat":43.24171,"lon":5.36395,"is_reserved":false,"is_disabled":false,"rental_uris":{"android":"levelo://app?vid=12c5aaeb-65a0-44f7-8d26-5a600f96adfa","ios":"levelo://app?vid=12c5aaeb-65a0-44f7-8d26-5a600f96adfa"},"vehicle_type_id":"4","last_reported":1746097751,"current_range_meters":19200,"station_id":"cpo36qri1sfpv3e86is0","pricing_plan_id":"cebpf4jnsgd1na2vs0mg"},{"bike_id":"065765f8-8f15-4262-89f7-93e8317cbc42","system_id":"levelo_inurba_marseille","lat":43.21749,"lon":5.34604,"is_reserved":false,"is_disabled":false,"rental_uris":{"android":"levelo://app?vid=065765f8-8f15-4262-89f7-93e8317cbc42","ios":"levelo://app?vid=065765f8-8f15-4262-89f7-93e8317cbc42"},"vehicle_type_id":"4","last_reported":1746097751,"current_range_meters":19200,"station_id":"st_cvj6r9ubvosntc0bgbag","pricing_plan_id":"cebpf4jnsgd1na2vs0mg"},{"bike_id":"bb06211c-3045-4345-aab0-b20bbecf5420","system_id":"levelo_inurba_marseille","lat":43.21193,"lon":5.35065,"is_reserved":false,"is_disabled":false,"rental_uris":{"android":"levelo://app?vid=bb06211c-3045-4345-aab0-b20bbecf5420","ios":"levelo://app?vid=bb06211c-3045-4345-aab0-b20bbecf5420"},"vehicle_type_id":"4","last_reported":1746097751,"current_range_meters":19200,"station_id":"st_cvj6sg6p6f1abm77japg","pricing_plan_id":"cebpf4jnsgd1na2vs0mg"},{"bike_id":"042ab00b-d873-40b1-a008-32c312479667","system_id":"levelo_inurba_marseille","lat":43.21185,"lon":5.35084,"is_reserved":false,"is_disabled":false,"rental_uris":{"android":"levelo://app?vid=042ab00b-d873-40b1-a008-32c312479667","ios":"levelo://app?vid=042ab00b-d873-40b1-a008-32c312479667"},"vehicle_type_id":"4","last_reported":1746097751,"current_range_meters":19200,"station_id":"st_cvj6sg6p6f1abm77japg","pricing_plan_id":"cebpf4jnsgd1na2vs0mg"},{"bike_id":"797c8302-be0d-414b-ab1e-a0b36a449d32","system_id":"levelo_inurba_marseille","lat":43.28273,"lon":5.35065,"is_reserved":false,"is_disabled":false,"rental_uris":{"android":"levelo://app?vid=797c8302-be0d-414b-ab1e-a0b36a449d32","ios":"levelo://app?vid=797c8302-be0d-414b-ab1e-a0b36a449d32"},"vehicle_type_id":"4","last_reported":1746097751,"current_range_meters":19600,"station_id":"ce4bhbp2rcd13ifvqerg","pricing_plan_id":"cebpf4jnsgd1na2vs0mg"},{"bike_id":"2c4e9a38-45ce-47ed-9e92-df5ce99e8715","system_id":"levelo_inurba_marseille","lat":43.23154,"lon":5.43702,"is_reserved":false,"is_disabled":false,"rental_uris":{"android":"levelo://app?vid=2c4e9a38-45ce-47ed-9e92-df5ce99e8715","ios":"levelo://app?vid=2c4e9a38-45ce-47ed-9e92-df5ce99e8715"},"vehicle_type_id":"4","last_reported":1746097751,"current_range_meters":19600,"station_id":"ce4bhmp2rcd13ifvqgog","pricing_plan_id":"cebpf4jnsgd1na2vs0mg"},{"bike_id":"df47a7ec-8fc4-4442-a6e9-7421bddaed04","system_id":"levelo_inurba_marseille","lat":43.23145,"lon":5.43711,"is_reserved":false,"is_disabled":false,"rental_uris":{"android":"levelo://app?vid=df47a7ec-8fc4-4442-a6e9-7421bddaed04","ios":"levelo://app?vid=df47a7ec-8fc4-4442-a6e9-7421bddaed04"},"vehicle_type_id":"4","last_reported":1746097751,"current_range_meters":19600,"station_id":"ce4bhmp2rcd13ifvqgog","pricing_plan_id":"cebpf4jnsgd1na2vs0mg"},{"bike_id":"5b35de44-5cb4-40c3-940c-8da2d2015e49","system_id":"levelo_inurba_marseille","lat":43.23209,"lon":5.35545,"is_reserved":false,"is_disabled":false,"rental_uris":{"android":"levelo://app?vid=5b35de44-5cb4-40c3-940c-8da2d2015e49","ios":"levelo://app?vid=5b35de44-5cb4-40c3-940c-8da2d2015e49"},"vehicle_type_id":"4","last_reported":1746097751,"current_range_meters":19600,"station_id":"ce4bhu92rcd13ifvqi70","pricing_plan_id":"cebpf4jnsgd1na2vs0mg"},{"bike_id":"9948b8c0-52d2-4eb8-8da4-a50a93afeb9b","system_id":"levelo_inurba_marseille","lat":43.22927,"lon":5.35381,"is_reserved":false,"is_disabled":false,"rental_uris":{"android":"levelo://app?vid=9948b8c0-52d2-4eb8-8da4-a50a93afeb9b","ios":"levelo://app?vid=9948b8c0-52d2-4eb8-8da4-a50a93afeb9b"},"vehicle_type_id":"4","last_reported":1746097751,"current_range_meters":19600,"station_id":"cpo3532slgdg3j2ikp40","pricing_plan_id":"cebpf4jnsgd1na2vs0mg"},{"bike_id":"494e0aba-ee5d-4cb4-9e88-c9b948362a7a","system_id":"levelo_inurba_marseille","lat":43.22936,"lon":5.35377,"is_reserved":false,"is_disabled":false,"rental_uris":{"android":"levelo://app?vid=494e0aba-ee5d-4cb4-9e88-c9b948362a7a","ios":"levelo://app?vid=494e0aba-ee5d-4cb4-9e88-c9b948362a7a"},"vehicle_type_id":"4","last_reported":1746097751,"current_range_meters":19600,"station_id":"cpo3532slgdg3j2ikp40","pricing_plan_id":"cebpf4jnsgd1na2vs0mg"},{"bike_id":"a8a9a90c-6e26-4cb4-81c0-c09afa3591ab","system_id":"levelo_inurba_marseille","lat":43.21201,"lon":5.35082,"is_reserved":false,"is_disabled":false,"rental_uris":{"android":"levelo://app?vid=a8a9a90c-6e26-4cb4-81c0-c09afa3591ab","ios":"levelo://app?vid=a8a9a90c-6e26-4cb4-81c0-c09afa3591ab"},"vehicle_type_id":"4","last_reported":1746097751,"current_range_meters":19600,"station_id":"st_cvj6sg6p6f1abm77japg","pricing_plan_id":"cebpf4jnsgd1na2vs0mg"},{"bike_id":"abd4b06d-dd2b-4400-be85-36bcfeacb667","system_id":"levelo_inurba_marseille","lat":43.28416,"lon":5.34972,"is_reserved":false,"is_disabled":false,"rental_uris":{"android":"levelo://app?vid=abd4b06d-dd2b-4400-be85-36bcfeacb667","ios":"levelo://app?vid=abd4b06d-dd2b-4400-be85-36bcfeacb667"},"vehicle_type_id":"4","last_reported":1746097751,"current_range_meters":20000,"station_id":"ce4bhbh2rcd13ifvqepg","pricing_plan_id":"cebpf4jnsgd1na2vs0mg"},{"bike_id":"bd8e7724-e7f2-4c74-807b-b140fe991abf","system_id":"levelo_inurba_marseille","lat":43.25582,"lon":5.38231,"is_reserved":false,"is_disabled":false,"rental_uris":{"android":"levelo://app?vid=bd8e7724-e7f2-4c74-807b-b140fe991abf","ios":"levelo://app?vid=bd8e7724-e7f2-4c74-807b-b140fe991abf"},"vehicle_type_id":"4","last_reported":1746097751,"current_range_meters":20000,"station_id":"ce4bhih2rcd13ifvqfs0","pricing_plan_id":"cebpf4jnsgd1na2vs0mg"},{"bike_id":"47ac4905-aa32-47ce-b199-7c1305022bdb","system_id":"levelo_inurba_marseille","lat":43.23202,"lon":5.39983,"is_reserved":false,"is_disabled":false,"rental_uris":{"android":"levelo://app?vid=47ac4905-aa32-47ce-b199-7c1305022bdb","ios":"levelo://app?vid=47ac4905-aa32-47ce-b199-7c1305022bdb"},"vehicle_type_id":"4","last_reported":1746097751,"current_range_meters":20000,"station_id":"ce4bhn12rcd13ifvqgqg","pricing_plan_id":"cebpf4jnsgd1na2vs0mg"},{"bike_id":"700ab93f-3b4c-4361-a013-144be38c7bae","system_id":"levelo_inurba_marseille","lat":43.23179,"lon":5.39998,"is_reserved":false,"is_disabled":false,"rental_uris":{"android":"levelo://app?vid=700ab93f-3b4c-4361-a013-144be38c7bae","ios":"levelo://app?vid=700ab93f-3b4c-4361-a013-144be38c7bae"},"vehicle_type_id":"4","last_reported":1746097751,"current_range_meters":20000,"station_id":"ce4bhn12rcd13ifvqgqg","pricing_plan_id":"cebpf4jnsgd1na2vs0mg"},{"bike_id":"3944c7ca-1ba1-49bc-839e-8897fa3e4774","system_id":"levelo_inurba_marseille","lat":43.33024,"lon":5.39045,"is_reserved":false,"is_disabled":false,"rental_uris":{"android":"levelo://app?vid=3944c7ca-1ba1-49bc-839e-8897fa3e4774","ios":"levelo://app?vid=3944c7ca-1ba1-49bc-839e-8897fa3e4774"},"vehicle_type_id":"4","last_reported":1746097751,"current_range_meters":20000,"station_id":"ce4bhr92rcd13ifvqhrg","pricing_plan_id":"cebpf4jnsgd1na2vs0mg"},{"bike_id":"145b0132-a312-4cea-bd37-ea06c560a916","system_id":"levelo_inurba_marseille","lat":43.21191,"lon":5.35075,"is_reserved":false,"is_disabled":false,"rental_uris":{"android":"levelo://app?vid=145b0132-a312-4cea-bd37-ea06c560a916","ios":"levelo://app?vid=145b0132-a312-4cea-bd37-ea06c560a916"},"vehicle_type_id":"4","last_reported":1746097751,"current_range_meters":20000,"station_id":"st_cvj6sg6p6f1abm77japg","pricing_plan_id":"cebpf4jnsgd1na2vs0mg"},{"bike_id":"55d122d1-eb10-4eca-8c01-b96508e4e80e","system_id":"levelo_inurba_marseille","lat":43.211835,"lon":5.350789,"is_reserved":false,"is_disabled":false,"rental_uris":{"android":"levelo://app?vid=55d122d1-eb10-4eca-8c01-b96508e4e80e","ios":"levelo://app?vid=55d122d1-eb10-4eca-8c01-b96508e4e80e"},"vehicle_type_id":"4","last_reported":1746097751,"current_range_meters":20000,"station_id":"st_cvj6sg6p6f1abm77japg","pricing_plan_id":"cebpf4jnsgd1na2vs0mg"},{"bike_id":"5854b493-3cc1-4406-90b9-4c3d0d4f00bd","system_id":"levelo_inurba_marseille","lat":43.27376,"lon":5.36253,"is_reserved":false,"is_disabled":false,"rental_uris":{"android":"levelo://app?vid=5854b493-3cc1-4406-90b9-4c3d0d4f00bd","ios":"levelo://app?vid=5854b493-3cc1-4406-90b9-4c3d0d4f00bd"},"vehicle_type_id":"4","last_reported":1746097751,"current_range_meters":20400,"station_id":"ce4bhbh2rcd13ifvqeo0","pricing_plan_id":"cebpf4jnsgd1na2vs0mg"},{"bike_id":"735d5b0a-b07a-42b6-9ca1-ad68b1dd40df","system_id":"levelo_inurba_marseille","lat":43.26044,"lon":5.37555,"is_reserved":false,"is_disabled":false,"rental_uris":{"android":"levelo://app?vid=735d5b0a-b07a-42b6-9ca1-ad68b1dd40df","ios":"levelo://app?vid=735d5b0a-b07a-42b6-9ca1-ad68b1dd40df"},"vehicle_type_id":"4","last_reported":1746097751,"current_range_meters":20400,"station_id":"ce4bhgh2rcd13ifvqfa0","pricing_plan_id":"cebpf4jnsgd1na2vs0mg"},{"bike_id":"75199fed-4965-4dc3-9f43-6daa87122b48","system_id":"levelo_inurba_marseille","lat":43.25933,"lon":5.40864,"is_reserved":false,"is_disabled":false,"rental_uris":{"android":"levelo://app?vid=75199fed-4965-4dc3-9f43-6daa87122b48","ios":"levelo://app?vid=75199fed-4965-4dc3-9f43-6daa87122b48"},"vehicle_type_id":"4","last_reported":1746097751,"current_range_meters":20400,"station_id":"ce4bhm92rcd13ifvqglg","pricing_plan_id":"cebpf4jnsgd1na2vs0mg"},{"bike_id":"1877320e-14c4-4c2e-953a-26af85d421fe","system_id":"levelo_inurba_marseille","lat":43.2316,"lon":5.4368,"is_reserved":false,"is_disabled":false,"rental_uris":{"android":"levelo://app?vid=1877320e-14c4-4c2e-953a-26af85d421fe","ios":"levelo://app?vid=1877320e-14c4-4c2e-953a-26af85d421fe"},"vehicle_type_id":"4","last_reported":1746097751,"current_range_meters":20400,"station_id":"ce4bhmp2rcd13ifvqgog","pricing_plan_id":"cebpf4jnsgd1na2vs0mg"},{"bike_id":"4e70eb18-5bf5-4398-baf9-27d88efbfe75","system_id":"levelo_inurba_marseille","lat":43.23152,"lon":5.43719,"is_reserved":false,"is_disabled":false,"rental_uris":{"android":"levelo://app?vid=4e70eb18-5bf5-4398-baf9-27d88efbfe75","ios":"levelo://app?vid=4e70eb18-5bf5-4398-baf9-27d88efbfe75"},"vehicle_type_id":"4","last_reported":1746097751,"current_range_meters":20400,"station_id":"ce4bhmp2rcd13ifvqgog","pricing_plan_id":"cebpf4jnsgd1na2vs0mg"},{"bike_id":"e03b5f3a-3d3e-4aac-b2a4-59ee7ec19217","system_id":"levelo_inurba_marseille","lat":43.23201,"lon":5.35546,"is_reserved":false,"is_disabled":false,"rental_uris":{"android":"levelo://app?vid=e03b5f3a-3d3e-4aac-b2a4-59ee7ec19217","ios":"levelo://app?vid=e03b5f3a-3d3e-4aac-b2a4-59ee7ec19217"},"vehicle_type_id":"4","last_reported":1746097751,"current_range_meters":20400,"station_id":"ce4bhu92rcd13ifvqi70","pricing_plan_id":"cebpf4jnsgd1na2vs0mg"},{"bike_id":"6918a532-95e5-43da-979b-2ce9ec12ea61","system_id":"levelo_inurba_marseille","lat":43.241699,"lon":5.363929,"is_reserved":false,"is_disabled":false,"rental_uris":{"android":"levelo://app?vid=6918a532-95e5-43da-979b-2ce9ec12ea61","ios":"levelo://app?vid=6918a532-95e5-43da-979b-2ce9ec12ea61"},"vehicle_type_id":"4","last_reported":1746097751,"current_range_meters":20400,"station_id":"cpo36qri1sfpv3e86is0","pricing_plan_id":"cebpf4jnsgd1na2vs0mg"},{"bike_id":"4728baa0-496d-421e-9a4f-83c8d0b31fa7","system_id":"levelo_inurba_marseille","lat":43.27373,"lon":5.36257,"is_reserved":false,"is_disabled":false,"rental_uris":{"android":"levelo://app?vid=4728baa0-496d-421e-9a4f-83c8d0b31fa7","ios":"levelo://app?vid=4728baa0-496d-421e-9a4f-83c8d0b31fa7"},"vehicle_type_id":"4","last_reported":1746097751,"current_range_meters":20800,"station_id":"ce4bhbh2rcd13ifvqeo0","pricing_plan_id":"cebpf4jnsgd1na2vs0mg"},{"bike_id":"9aa33079-0760-4d4c-9acb-154d0e0de6b5","system_id":"levelo_inurba_marseille","lat":43.24397,"lon":5.3705,"is_reserved":false,"is_disabled":false,"rental_uris":{"android":"levelo://app?vid=9aa33079-0760-4d4c-9acb-154d0e0de6b5","ios":"levelo://app?vid=9aa33079-0760-4d4c-9acb-154d0e0de6b5"},