{"last_updated":1756328965,"ttl":60,"version":"2.2","data":{"bikes":[{"bike_id":"321bbcbf-6256-46bf-aec8-0d0cd13ba9d6","system_id":"levelo_inurba_marseille","lat":43.28848,"lon":5.39306,"is_reserved":false,"is_disabled":true,"rental_uris":{"android":"levelo://app?vid=321bbcbf-6256-46bf-aec8-0d0cd13ba9d6","ios":"levelo://app?vid=321bbcbf-6256-46bf-aec8-0d0cd13ba9d6"},"vehicle_type_id":"4","last_reported":1756328965,"current_range_meters":2800,"station_id":"ce4bh2p2rcd13ifvqdi0","pricing_plan_id":"cebpf4jnsgd1na2vs0mg"},{"bike_id":"eaeb0eea-a819-4280-86a6-0b0cb2e7701a","system_id":"levelo_inurba_marseille","lat":43.229165,"lon":5.353852,"is_reserved":false,"is_disabled":false,"rental_uris":{"android":"levelo://app?vid=eaeb0eea-a819-4280-86a6-0b0cb2e7701a","ios":"levelo://app?vid=eaeb0eea-a819-4280-86a6-0b0cb2e7701a"},"vehicle_type_id":"4","last_reported":1756328965,"current_range_meters":2800,"station_id":"cpo3532slgdg3j2ikp40","pricing_plan_id":"cebpf4jnsgd1na2vs0mg"},{"bike_id":"fc4d6a25-e1e4-43c4-ab3b-59358bbefb29","system_id":"levelo_inurba_marseille","lat":43.29615,"lon":5.38124,"is_reserved":false,"is_disabled":false,"rental_uris":{"android":"levelo://app?vid=fc4d6a25-e1e4-43c4-ab3b-59358bbefb29","ios":"levelo://app?vid=fc4d6a25-e1e4-43c4-ab3b-59358bbefb29"},"vehicle_type_id":"4","last_reported":1756328965,"current_range_meters":3600,"station_id":"ce4bgl12rcd13ifvqbo0","pricing_plan_id":"cebpf4jnsgd1na2vs0mg"},{"bike_id":"c5f1f956-ee87-425c-ab07-5e8a55a6a6d9","system_id":"levelo_inurba_marseille","lat":43.28483,"lon":5.38419,"is_reserved":false,"is_disabled":false,"rental_uris":{"android":"levelo://app?vid=c5f1f956-ee87-425c-ab07-5e8a55a6a6d9","ios":"levelo://app?vid=c5f1f956-ee87-425c-ab07-5e8a55a6a6d9"},"vehicle_type_id":"4","last_reported":1756328965,"current_range_meters":3600,"station_id":"ce4bh512rcd13ifvqe3g","pricing_plan_id":"cebpf4jnsgd1na2vs0mg"},{"bike_id":"2b1e3244-7690-4e53-8e62-ca5fa71b3353","system_id":"levelo_inurba_marseille","lat":43.29262,"lon":5.38438,"is_reserved":false,"is_disabled":false,"rental_uris":{"android":"levelo://app?vid=2b1e3244-7690-4e53-8e62-ca5fa71b3353","ios":"levelo://app?vid=2b1e3244-7690-4e53-8e62-ca5fa71b3353"},"vehicle_type_id":"4","last_reported":1756328965,"current_range_meters":3600,"station_id":"ce4bh692rcd13ifvqea0","pricing_plan_id":"cebpf4jnsgd1na2vs0mg"},{"bike_id":"7c494aa6-5cbe-490f-b90f-6193ab62c745","system_id":"levelo_inurba_marseille","lat":43.21199,"lon":5.35104,"is_reserved":false,"is_disabled":false,"rental_uris":{"android":"levelo://app?vid=7c494aa6-5cbe-490f-b90f-6193ab62c745","ios":"levelo://app?vid=7c494aa6-5cbe-490f-b90f-6193ab62c745"},"vehicle_type_id":"4","last_reported":1756328965,"current_range_meters":3600,"station_id":"st_cvj6sg6p6f1abm77japg","pricing_plan_id":"cebpf4jnsgd1na2vs0mg"},{"bike_id":"30c70dcd-7df1-4ccc-8605-2571fe8e85b6","system_id":"levelo_inurba_marseille","lat":43.31759,"lon":5.39015,"is_reserved":false,"is_disabled":false,"rental_uris":{"android":"levelo://app?vid=30c70dcd-7df1-4ccc-8605-2571fe8e85b6","ios":"levelo://app?vid=30c70dcd-7df1-4ccc-8605-2571fe8e85b6"},"vehicle_type_id":"4","last_reported":1756328965,"current_range_meters":4000,"station_id":"ce4bhqp2rcd13ifvqhng","pricing_plan_id":"cebpf4jnsgd1na2vs0mg"},{"bike_id":"9cd7e123-2733-4d57-935d-44d50eb78545","system_id":"levelo_inurba_marseille","lat":43.25497,"lon":5.37653,"is_reserved":false,"is_disabled":false,"rental_uris":{"android":"levelo://app?vid=9cd7e123-2733-4d57-935d-44d50eb78545","ios":"levelo://app?vid=9cd7e123-2733-4d57-935d-44d50eb78545"},"vehicle_type_id":"4","last_reported":1756328965,"current_range_meters":4000,"station_id":"ce4bhh12rcd13ifvqff0","pricing_plan_id":"cebpf4jnsgd1na2vs0mg"},{"bike_id":"636349c9-1724-4ea1-85e5-7efcc4b7af51","system_id":"levelo_inurba_marseille","lat":43.25493,"lon":5.37652,"is_reserved":false,"is_disabled":false,"rental_uris":{"android":"levelo://app?vid=636349c9-1724-4ea1-85e5-7efcc4b7af51","ios":"levelo://app?vid=636349c9-1724-4ea1-85e5-7efcc4b7af51"},"vehicle_type_id":"4","last_reported":1756328965,"current_range_meters":4000,"station_id":"ce4bhh12rcd13ifvqff0","pricing_plan_id":"cebpf4jnsgd1na2vs0mg"},{"bike_id":"96186cc8-0561-4ae2-81ab-d0abdc6ef2d0","system_id":"levelo_inurba_marseille","lat":43.2707,"lon":5.37951,"is_reserved":false,"is_disabled":false,"rental_uris":{"android":"levelo://app?vid=96186cc8-0561-4ae2-81ab-d0abdc6ef2d0","ios":"levelo://app?vid=96186cc8-0561-4ae2-81ab-d0abdc6ef2d0"},"vehicle_type_id":"4","last_reported":1756328965,"current_range_meters":4000,"station_id":"","pricing_plan_id":"cebpf4jnsgd1na2vs0mg"},{"bike_id":"64590a90-1219-4d25-b6be-687261965b56","system_id":"levelo_inurba_marseille","lat":43.30923,"lon":5.40161,"is_reserved":false,"is_disabled":false,"rental_uris":{"android":"levelo://app?vid=64590a90-1219-4d25-b6be-687261965b56","ios":"levelo://app?vid=64590a90-1219-4d25-b6be-687261965b56"},"vehicle_type_id":"4","last_reported":1756328965,"current_range_meters":3600,"station_id":"ce4bgvp2rcd13ifvqct0","pricing_plan_id":"cebpf4jnsgd1na2vs0mg"},{"bike_id":"919403d1-9d41-4322-8f42-253c1dba9d3b","system_id":"levelo_inurba_marseille","lat":43.21749,"lon":5.34612,"is_reserved":false,"is_disabled":false,"rental_uris":{"android":"levelo://app?vid=919403d1-9d41-4322-8f42-253c1dba9d3b","ios":"levelo://app?vid=919403d1-9d41-4322-8f42-253c1dba9d3b"},"vehicle_type_id":"4","last_reported":1756328965,"current_range_meters":4800,"station_id":"st_cvj6r9ubvosntc0bgbag","pricing_plan_id":"cebpf4jnsgd1na2vs0mg"},{"bike_id":"90a5b318-96d7-4050-a86a-74d1edb8c2ad","system_id":"levelo_inurba_marseille","lat":43.31992,"lon":5.38157,"is_reserved":false,"is_disabled":false,"rental_uris":{"android":"levelo://app?vid=90a5b318-96d7-4050-a86a-74d1edb8c2ad","ios":"levelo://app?vid=90a5b318-96d7-4050-a86a-74d1edb8c2ad"},"vehicle_type_id":"4","last_reported":1756328965,"current_range_meters":4800,"station_id":"ce4bhr12rcd13ifvqhpg","pricing_plan_id":"cebpf4jnsgd1na2vs0mg"},{"bike_id":"70698924-f07a-4421-af4c-f1094e75e7d4","system_id":"levelo_inurba_marseille","lat":43.21195,"lon":5.35077,"is_reserved":false,"is_disabled":false,"rental_uris":{"android":"levelo://app?vid=70698924-f07a-4421-af4c-f1094e75e7d4","ios":"levelo://app?vid=70698924-f07a-4421-af4c-f1094e75e7d4"},"vehicle_type_id":"4","last_reported":1756328965,"current_range_meters":4800,"station_id":"st_cvj6sg6p6f1abm77japg","pricing_plan_id":"cebpf4jnsgd1na2vs0mg"},{"bike_id":"899ef22f-86b1-41e7-8c70-f9240174a6d4","system_id":"levelo_inurba_marseille","lat":43.2868,"lon":5.38658,"is_reserved":false,"is_disabled":false,"rental_uris":{"android":"levelo://app?vid=899ef22f-86b1-41e7-8c70-f9240174a6d4","ios":"levelo://app?vid=899ef22f-86b1-41e7-8c70-f9240174a6d4"},"vehicle_type_id":"4","last_reported":1756328965,"current_range_meters":5600,"station_id":"ce4bh492rcd13ifvqdug","pricing_plan_id":"cebpf4jnsgd1na2vs0mg"},{"bike_id":"eeb42e78-373a-42a8-ad92-d1dc5831d4c3","system_id":"levelo_inurba_marseille","lat":43.24787,"lon":5.37419,"is_reserved":false,"is_disabled":true,"rental_uris":{"android":"levelo://app?vid=eeb42e78-373a-42a8-ad92-d1dc5831d4c3","ios":"levelo://app?vid=eeb42e78-373a-42a8-ad92-d1dc5831d4c3"},"vehicle_type_id":"4","last_reported":1756328965,"current_range_meters":6000,"station_id":"ce4bhgh2rcd13ifvqfb0","pricing_plan_id":"cebpf4jnsgd1na2vs0mg"},{"bike_id":"3a8b134a-3743-4c3a-a67a-59bcb3f19a1e","system_id":"levelo_inurba_marseille","lat":43.28504,"lon":5.39181,"is_reserved":false,"is_disabled":false,"rental_uris":{"android":"levelo://app?vid=3a8b134a-3743-4c3a-a67a-59bcb3f19a1e","ios":"levelo://app?vid=3a8b134a-3743-4c3a-a67a-59bcb3f19a1e"},"vehicle_type_id":"4","last_reported":1756328965,"current_range_meters":6000,"station_id":"","pricing_plan_id":"cebpf4jnsgd1na2vs0mg"},{"bike_id":"4ecd415b-a9da-4bbe-a69e-f6401b37a3d4","system_id":"levelo_inurba_marseille","lat":43.30142,"lon":5.39864,"is_reserved":false,"is_disabled":false,"rental_uris":{"android":"levelo://app?vid=4ecd415b-a9da-4bbe-a69e-f6401b37a3d4","ios":"levelo://app?vid=4ecd415b-a9da-4bbe-a69e-f6401b37a3d4"},"vehicle_type_id":"4","last_reported":1756328965,"current_range_meters":6000,"station_id":"ce4bh0h2rcd13ifvqd40","pricing_plan_id":"cebpf4jnsgd1na2vs0mg"},{"bike_id":"2e9b4286-5b85-4353-899e-9e3ddd67eaf7","system_id":"levelo_inurba_marseille","lat":43.24076,"lon":5.37752,"is_reserved":false,"is_disabled":true,"rental_uris":{"android":"levelo://app?vid=2e9b4286-5b85-4353-899e-9e3ddd67eaf7","ios":"levelo://app?vid=2e9b4286-5b85-4353-899e-9e3ddd67eaf7"},"vehicle_type_id":"4","last_reported":1756328965,"current_range_meters":6000,"station_id":"ce4bhnp2rcd13ifvqgvg","pricing_plan_id":"cebpf4jnsgd1na2vs0mg"},{"bike_id":"b4355a8b-6620-41c5-aaa4-2b969fb59e8f","system_id":"levelo_inurba_marseille","lat":43.26679,"lon":5.38269,"is_reserved":false,"is_disabled":true,"rental_uris":{"android":"levelo://app?vid=b4355a8b-6620-41c5-aaa4-2b969fb59e8f","ios":"levelo://app?vid=b4355a8b-6620-41c5-aaa4-2b969fb59e8f"},"vehicle_type_id":"4","last_reported":1756328965,"current_range_meters":6000,"station_id":"ce4bhg92rcd13ifvqf90","pricing_plan_id":"cebpf4jnsgd1na2vs0mg"},{"bike_id":"52c4db1a-6368-4740-8176-ceabee38e5f4","system_id":"levelo_inurba_marseille","lat":43.27498,"lon":5.42453,"is_reserved":false,"is_disabled":false,"rental_uris":{"android":"levelo://app?vid=52c4db1a-6368-4740-8176-ceabee38e5f4","ios":"levelo://app?vid=52c4db1a-6368-4740-8176-ceabee38e5f4"},"vehicle_type_id":"4","last_reported":1756328965,"current_range_meters":6000,"station_id":"ce4bhn92rcd13ifvqgrg","pricing_plan_id":"cebpf4jnsgd1na2vs0mg"},{"bike_id":"2732b203-8d34-41ae-80bd-b4f151d77aad","system_id":"levelo_inurba_marseille","lat":43.30251,"lon":5.40556,"is_reserved":false,"is_disabled":false,"rental_uris":{"android":"levelo://app?vid=2732b203-8d34-41ae-80bd-b4f151d77aad","ios":"levelo://app?vid=2732b203-8d34-41ae-80bd-b4f151d77aad"},"vehicle_type_id":"4","last_reported":1756328965,"current_range_meters":6400,"station_id":"","pricing_plan_id":"cebpf4jnsgd1na2vs0mg"},{"bike_id":"0d502687-08ef-4491-8893-8a03d8688be8","system_id":"levelo_inurba_marseille","lat":43.29602,"lon":5.36164,"is_reserved":false,"is_disabled":false,"rental_uris":{"android":"levelo://app?vid=0d502687-08ef-4491-8893-8a03d8688be8","ios":"levelo://app?vid=0d502687-08ef-4491-8893-8a03d8688be8"},"vehicle_type_id":"4","last_reported":1756328965,"current_range_meters":6400,"station_id":"","pricing_plan_id":"cebpf4jnsgd1na2vs0mg"},{"bike_id":"f48b07a0-2086-45ef-8f8f-271983f6373d","system_id":"levelo_inurba_marseille","lat":43.30175,"lon":5.36594,"is_reserved":false,"is_disabled":false,"rental_uris":{"android":"levelo://app?vid=f48b07a0-2086-45ef-8f8f-271983f6373d","ios":"levelo://app?vid=f48b07a0-2086-45ef-8f8f-271983f6373d"},"vehicle_type_id":"4","last_reported":1756328965,"current_range_meters":6800,"station_id":"ce4bgrh2rcd13ifvqc8g","pricing_plan_id":"cebpf4jnsgd1na2vs0mg"},{"bike_id":"c361e3e0-44af-4eaf-aa8a-86e2cae37080","system_id":"levelo_inurba_marseille","lat":43.31364,"lon":5.38505,"is_reserved":false,"is_disabled":false,"rental_uris":{"android":"levelo://app?vid=c361e3e0-44af-4eaf-aa8a-86e2cae37080","ios":"levelo://app?vid=c361e3e0-44af-4eaf-aa8a-86e2cae37080"},"vehicle_type_id":"4","last_reported":1756328965,"current_range_meters":6800,"station_id":"ce4bgt92rcd13ifvqcf0","pricing_plan_id":"cebpf4jnsgd1na2vs0mg"},{"bike_id":"17b27f12-09ef-4fd2-8663-7f6c875f4ba0","system_id":"levelo_inurba_marseille","lat":43.31226,"lon":5.36854,"is_reserved":false,"is_disabled":false,"rental_uris":{"android":"levelo://app?vid=17b27f12-09ef-4fd2-8663-7f6c875f4ba0","ios":"levelo://app?vid=17b27f12-09ef-4fd2-8663-7f6c875f4ba0"},"vehicle_type_id":"4","last_reported":1756328965,"current_range_meters":6800,"station_id":"ce4bgl92rcd13ifvqbq0","pricing_plan_id":"cebpf4jnsgd1na2vs0mg"},{"bike_id":"2b2ebf1d-a923-4959-8b1a-e5f303b7fe84","system_id":"levelo_inurba_marseille","lat":43.2928,"lon":5.40119,"is_reserved":false,"is_disabled":false,"rental_uris":{"android":"levelo://app?vid=2b2ebf1d-a923-4959-8b1a-e5f303b7fe84","ios":"levelo://app?vid=2b2ebf1d-a923-4959-8b1a-e5f303b7fe84"},"vehicle_type_id":"4","last_reported":1756328965,"current_range_meters":6800,"station_id":"ce4bh312rcd13ifvqdk0","pricing_plan_id":"cebpf4jnsgd1na2vs0mg"},{"bike_id":"c94ede5e-4682-49d8-b638-7781926f0025","system_id":"levelo_inurba_marseille","lat":43.29231,"lon":5.3607,"is_reserved":false,"is_disabled":false,"rental_uris":{"android":"levelo://app?vid=c94ede5e-4682-49d8-b638-7781926f0025","ios":"levelo://app?vid=c94ede5e-4682-49d8-b638-7781926f0025"},"vehicle_type_id":"4","last_reported":1756328965,"current_range_meters":7200,"station_id":"ce4bhbh2rcd13ifvqeqg","pricing_plan_id":"cebpf4jnsgd1na2vs0mg"},{"bike_id":"d0929797-eccc-45d1-a5f1-aea03c095a59","system_id":"levelo_inurba_marseille","lat":43.27994,"lon":5.41673,"is_reserved":false,"is_disabled":true,"rental_uris":{"android":"levelo://app?vid=d0929797-eccc-45d1-a5f1-aea03c095a59","ios":"levelo://app?vid=d0929797-eccc-45d1-a5f1-aea03c095a59"},"vehicle_type_id":"4","last_reported":1756328965,"current_range_meters":7200,"station_id":"ce4bho12rcd13ifvqh1g","pricing_plan_id":"cebpf4jnsgd1na2vs0mg"},{"bike_id":"e1cc485f-c6f0-41fe-b8d8-b5e94a231de5","system_id":"levelo_inurba_marseille","lat":43.30739,"lon":5.3771,"is_reserved":false,"is_disabled":false,"rental_uris":{"android":"levelo://app?vid=e1cc485f-c6f0-41fe-b8d8-b5e94a231de5","ios":"levelo://app?vid=e1cc485f-c6f0-41fe-b8d8-b5e94a231de5"},"vehicle_type_id":"4","last_reported":1756328965,"current_range_meters":8000,"station_id":"","pricing_plan_id":"cebpf4jnsgd1na2vs0mg"},{"bike_id":"51842e17-ef10-4624-a23e-c8a182427991","system_id":"levelo_inurba_marseille","lat":43.31628,"lon":5.38198,"is_reserved":false,"is_disabled":false,"rental_uris":{"android":"levelo://app?vid=51842e17-ef10-4624-a23e-c8a182427991","ios":"levelo://app?vid=51842e17-ef10-4624-a23e-c8a182427991"},"vehicle_type_id":"4","last_reported":1756328965,"current_range_meters":8000,"station_id":"","pricing_plan_id":"cebpf4jnsgd1na2vs0mg"},{"bike_id":"69a01144-4cb0-4f43-b8a7-d8bba1210d75","system_id":"levelo_inurba_marseille","lat":43.31596,"lon":5.37468,"is_reserved":false,"is_disabled":false,"rental_uris":{"android":"levelo://app?vid=69a01144-4cb0-4f43-b8a7-d8bba1210d75","ios":"levelo://app?vid=69a01144-4cb0-4f43-b8a7-d8bba1210d75"},"vehicle_type_id":"4","last_reported":1756328965,"current_range_meters":8000,"station_id":"","pricing_plan_id":"cebpf4jnsgd1na2vs0mg"},{"bike_id":"24df2c59-c2ae-4cf6-8d73-b821e9ca9612","system_id":"levelo_inurba_marseille","lat":43.27967,"lon":5.399,"is_reserved":false,"is_disabled":true,"rental_uris":{"android":"levelo://app?vid=24df2c59-c2ae-4cf6-8d73-b821e9ca9612","ios":"levelo://app?vid=24df2c59-c2ae-4cf6-8d73-b821e9ca9612"},"vehicle_type_id":"4","last_reported":1756328965,"current_range_meters":8000,"station_id":"","pricing_plan_id":"cebpf4jnsgd1na2vs0mg"},{"bike_id":"4b1445d7-c11d-4bd3-82ae-6663f4361ca8","system_id":"levelo_inurba_marseille","lat":43.29041,"lon":5.39957,"is_reserved":false,"is_disabled":false,"rental_uris":{"android":"levelo://app?vid=4b1445d7-c11d-4bd3-82ae-6663f4361ca8","ios":"levelo://app?vid=4b1445d7-c11d-4bd3-82ae-6663f4361ca8"},"vehicle_type_id":"4","last_reported":1756328965,"current_range_meters":8000,"station_id":"ce4bh392rcd13ifvqdm0","pricing_plan_id":"cebpf4jnsgd1na2vs0mg"},{"bike_id":"3f6c52ba-036e-4175-8d22-d901790e2f3c","system_id":"levelo_inurba_marseille","lat":43.24802,"lon":5.37456,"is_reserved":false,"is_disabled":false,"rental_uris":{"android":"levelo://app?vid=3f6c52ba-036e-4175-8d22-d901790e2f3c","ios":"levelo://app?vid=3f6c52ba-036e-4175-8d22-d901790e2f3c"},"vehicle_type_id":"4","last_reported":1756328965,"current_range_meters":8000,"station_id":"ce4bhgh2rcd13ifvqfb0","pricing_plan_id":"cebpf4jnsgd1na2vs0mg"},{"bike_id":"6a47e043-33d9-47fc-9159-a8c4582eaa9c","system_id":"levelo_inurba_marseille","lat":43.32105,"lon":5.36781,"is_reserved":false,"is_disabled":false,"rental_uris":{"android":"levelo://app?vid=6a47e043-33d9-47fc-9159-a8c4582eaa9c","ios":"levelo://app?vid=6a47e043-33d9-47fc-9159-a8c4582eaa9c"},"vehicle_type_id":"4","last_reported":1756328965,"current_range_meters":8400,"station_id":"ce4bhrh2rcd13ifvqhug","pricing_plan_id":"cebpf4jnsgd1na2vs0mg"},{"bike_id":"8ff3ebc3-b8cc-483f-9232-7e0c6220b0be","system_id":"levelo_inurba_marseille","lat":43.29948,"lon":5.41323,"is_reserved":false,"is_disabled":true,"rental_uris":{"android":"levelo://app?vid=8ff3ebc3-b8cc-483f-9232-7e0c6220b0be","ios":"levelo://app?vid=8ff3ebc3-b8cc-483f-9232-7e0c6220b0be"},"vehicle_type_id":"4","last_reported":1756328965,"current_range_meters":8400,"station_id":"ce4bhp12rcd13ifvqh9g","pricing_plan_id":"cebpf4jnsgd1na2vs0mg"},{"bike_id":"1503ae73-ca23-45ec-8a68-02e967b0ead8","system_id":"levelo_inurba_marseille","lat":43.232,"lon":5.3555,"is_reserved":false,"is_disabled":false,"rental_uris":{"android":"levelo://app?vid=1503ae73-ca23-45ec-8a68-02e967b0ead8","ios":"levelo://app?vid=1503ae73-ca23-45ec-8a68-02e967b0ead8"},"vehicle_type_id":"4","last_reported":1756328965,"current_range_meters":8400,"station_id":"ce4bhu92rcd13ifvqi70","pricing_plan_id":"cebpf4jnsgd1na2vs0mg"},{"bike_id":"0f2017f4-e5c1-46a2-a7d8-e957ce265a72","system_id":"levelo_inurba_marseille","lat":43.33769,"lon":5.37472,"is_reserved":false,"is_disabled":false,"rental_uris":{"android":"levelo://app?vid=0f2017f4-e5c1-46a2-a7d8-e957ce265a72","ios":"levelo://app?vid=0f2017f4-e5c1-46a2-a7d8-e957ce265a72"},"vehicle_type_id":"4","last_reported":1756328965,"current_range_meters":8400,"station_id":"","pricing_plan_id":"cebpf4jnsgd1na2vs0mg"},{"bike_id":"d6f6730b-8ea9-42a3-a1eb-3405a2d763f0","system_id":"levelo_inurba_marseille","lat":43.31496,"lon":5.37326,"is_reserved":false,"is_disabled":false,"rental_uris":{"android":"levelo://app?vid=d6f6730b-8ea9-42a3-a1eb-3405a2d763f0","ios":"levelo://app?vid=d6f6730b-8ea9-42a3-a1eb-3405a2d763f0"},"vehicle_type_id":"4","last_reported":1756328965,"current_range_meters":8400,"station_id":"ce4bgt12rcd13ifvqcd0","pricing_plan_id":"cebpf4jnsgd1na2vs0mg"},{"bike_id":"a79b6166-93d1-40ff-986d-a995e819e2c5","system_id":"levelo_inurba_marseille","lat":43.32361,"lon":5.38877,"is_reserved":false,"is_disabled":false,"rental_uris":{"android":"levelo://app?vid=a79b6166-93d1-40ff-986d-a995e819e2c5","ios":"levelo://app?vid=a79b6166-93d1-40ff-986d-a995e819e2c5"},"vehicle_type_id":"4","last_reported":1756328965,"current_range_meters":8800,"station_id":"ce4bhqp2rcd13ifvqhog","pricing_plan_id":"cebpf4jnsgd1na2vs0mg"},{"bike_id":"e9099ed8-f39c-4735-a545-38ff6ccc85d8","system_id":"levelo_inurba_marseille","lat":43.32248,"lon":5.38547,"is_reserved":false,"is_disabled":false,"rental_uris":{"android":"levelo://app?vid=e9099ed8-f39c-4735-a545-38ff6ccc85d8","ios":"levelo://app?vid=e9099ed8-f39c-4735-a545-38ff6ccc85d8"},"vehicle_type_id":"4","last_reported":1756328965,"current_range_meters":8800,"station_id":"","pricing_plan_id":"cebpf4jnsgd1na2vs0mg"},{"bike_id":"4904d687-ac78-4421-bfa2-d97fe0a806b5","system_id":"levelo_inurba_marseille","lat":43.25493,"lon":5.37651,"is_reserved":false,"is_disabled":false,"rental_uris":{"android":"levelo://app?vid=4904d687-ac78-4421-bfa2-d97fe0a806b5","ios":"levelo://app?vid=4904d687-ac78-4421-bfa2-d97fe0a806b5"},"vehicle_type_id":"4","last_reported":1756328965,"current_range_meters":8800,"station_id":"ce4bhh12rcd13ifvqff0","pricing_plan_id":"cebpf4jnsgd1na2vs0mg"},{"bike_id":"a6ef8657-5b8a-423b-993f-c3df43dec0a0","system_id":"levelo_inurba_marseille","lat":43.326998,"lon":5.392208,"is_reserved":false,"is_disabled":false,"rental_uris":{"android":"levelo://app?vid=a6ef8657-5b8a-423b-993f-c3df43dec0a0","ios":"levelo://app?vid=a6ef8657-5b8a-423b-993f-c3df43dec0a0"},"vehicle_type_id":"4","last_reported":1756328965,"current_range_meters":8800,"station_id":"","pricing_plan_id":"cebpf4jnsgd1na2vs0mg"},{"bike_id":"18765f5d-37f1-47cd-972e-50b3005a4849","system_id":"levelo_inurba_marseille","lat":43.28691,"lon":5.39983,"is_reserved":false,"is_disabled":false,"rental_uris":{"android":"levelo://app?vid=18765f5d-37f1-47cd-972e-50b3005a4849","ios":"levelo://app?vid=18765f5d-37f1-47cd-972e-50b3005a4849"},"vehicle_type_id":"4","last_reported":1756328965,"current_range_meters":8800,"station_id":"ce4bho92rcd13ifvqh3g","pricing_plan_id":"cebpf4jnsgd1na2vs0mg"},{"bike_id":"d0dc509f-9180-4819-9d2d-54dd08644812","system_id":"levelo_inurba_marseille","lat":43.27989,"lon":5.40012,"is_reserved":false,"is_disabled":false,"rental_uris":{"android":"levelo://app?vid=d0dc509f-9180-4819-9d2d-54dd08644812","ios":"levelo://app?vid=d0dc509f-9180-4819-9d2d-54dd08644812"},"vehicle_type_id":"4","last_reported":1756328965,"current_range_meters":8800,"station_id":"ce4bho92rcd13ifvqh4g","pricing_plan_id":"cebpf4jnsgd1na2vs0mg"},{"bike_id":"932e974f-e39a-4778-9117-00b6757a05e7","system_id":"levelo_inurba_marseille","lat":43.28477,"lon":5.38422,"is_reserved":false,"is_disabled":false,"rental_uris":{"android":"levelo://app?vid=932e974f-e39a-4778-9117-00b6757a05e7","ios":"levelo://app?vid=932e974f-e39a-4778-9117-00b6757a05e7"},"vehicle_type_id":"4","last_reported":1756328965,"current_range_meters":8800,"station_id":"ce4bh512rcd13ifvqe3g","pricing_plan_id":"cebpf4jnsgd1na2vs0mg"},{"bike_id":"1d7023ef-959e-48df-b075-0a4bd90cc9ae","system_id":"levelo_inurba_marseille","lat":43.27365,"lon":5.36253,"is_reserved":false,"is_disabled":true,"rental_uris":{"android":"levelo://app?vid=1d7023ef-959e-48df-b075-0a4bd90cc9ae","ios":"levelo://app?vid=1d7023ef-959e-48df-b075-0a4bd90cc9ae"},"vehicle_type_id":"4","last_reported":1756328965,"current_range_meters":9200,"station_id":"ce4bhbh2rcd13ifvqeo0","pricing_plan_id":"cebpf4jnsgd1na2vs0mg"},{"bike_id":"a792a4e3-e059-41c9-ad68-b53fc4fdbc0c","system_id":"levelo_inurba_marseille","lat":43.30909,"lon":5.36849,"is_reserved":false,"is_disabled":false,"rental_uris":{"android":"levelo://app?vid=a792a4e3-e059-41c9-ad68-b53fc4fdbc0c","ios":"levelo://app?vid=a792a4e3-e059-41c9-ad68-b53fc4fdbc0c"},"vehicle_type_id":"4","last_reported":1756328965,"current_range_meters":8800,"station_id":"ce4bgn92rcd13ifvqbvg","pricing_plan_id":"cebpf4jnsgd1na2vs0mg"},{"bike_id":"7366b74d-19e3-47b2-a2ff-7c28359b2801","system_id":"levelo_inurba_marseille","lat":43.284593,"lon":5.358751,"is_reserved":false,"is_disabled":false,"rental_uris":{"android":"levelo://app?vid=7366b74d-19e3-47b2-a2ff-7c28359b2801","ios":"levelo://app?vid=7366b74d-19e3-47b2-a2ff-7c28359b2801"},"vehicle_type_id":"4","last_reported":1756328965,"current_range_meters":9200,"station_id":"ce4bhah2rcd13ifvqei0","pricing_plan_id":"cebpf4jnsgd1na2vs0mg"},{"bike_id":"2d0e77b8-c9d8-4e57-b6d3-0a222f73256a","system_id":"levelo_inurba_marseille","lat":43.26186,"lon":5.37455,"is_reserved":false,"is_disabled":true,"rental_uris":{"android":"levelo://app?vid=2d0e77b8-c9d8-4e57-b6d3-0a222f73256a","ios":"levelo://app?vid=2d0e77b8-c9d8-4e57-b6d3-0a222f73256a"},"vehicle_type_id":"4","last_reported":1756328965,"current_range_meters":9200,"station_id":"ce4bhgp2rcd13ifvqfc0","pricing_plan_id":"cebpf4jnsgd1na2vs0mg"},{"bike_id":"80c429de-b658-435c-966d-63bdcf8f8c09","system_id":"levelo_inurba_marseille","lat":43.29267,"lon":5.38429,"is_reserved":false,"is_disabled":false,"rental_uris":{"android":"levelo://app?vid=80c429de-b658-435c-966d-63bdcf8f8c09","ios":"levelo://app?vid=80c429de-b658-435c-966d-63bdcf8f8c09"},"vehicle_type_id":"4","last_reported":1756328965,"current_range_meters":9200,"station_id":"ce4bh692rcd13ifvqea0","pricing_plan_id":"cebpf4jnsgd1na2vs0mg"},{"bike_id":"1546df9e-d1cb-482b-8d1f-d121540fd829","system_id":"levelo_inurba_marseille","lat":43.21189,"lon":5.35089,"is_reserved":false,"is_disabled":false,"rental_uris":{"android":"levelo://app?vid=1546df9e-d1cb-482b-8d1f-d121540fd829","ios":"levelo://app?vid=1546df9e-d1cb-482b-8d1f-d121540fd829"},"vehicle_type_id":"4","last_reported":1756328965,"current_range_meters":9200,"station_id":"st_cvj6sg6p6f1abm77japg","pricing_plan_id":"cebpf4jnsgd1na2vs0mg"},{"bike_id":"38d8ef3e-e8d7-4990-bcc0-c58cc350dc96","system_id":"levelo_inurba_marseille","lat":43.26031,"lon":5.37575,"is_reserved":false,"is_disabled":true,"rental_uris":{"android":"levelo://app?vid=38d8ef3e-e8d7-4990-bcc0-c58cc350dc96","ios":"levelo://app?vid=38d8ef3e-e8d7-4990-bcc0-c58cc350dc96"},"vehicle_type_id":"4","last_reported":1756328965,"current_range_meters":9200,"station_id":"ce4bhgh2rcd13ifvqfa0","pricing_plan_id":"cebpf4jnsgd1na2vs0mg"},{"bike_id":"efa4cc8a-6991-462e-8ab7-b72260bc29a3","system_id":"levelo_inurba_marseille","lat":43.27908,"lon":5.39594,"is_reserved":false,"is_disabled":false,"rental_uris":{"android":"levelo://app?vid=efa4cc8a-6991-462e-8ab7-b72260bc29a3","ios":"levelo://app?vid=efa4cc8a-6991-462e-8ab7-b72260bc29a3"},"vehicle_type_id":"4","last_reported":1756328965,"current_range_meters":9600,"station_id":"ce4bhf92rcd13ifvqf40","pricing_plan_id":"cebpf4jnsgd1na2vs0mg"},{"bike_id":"e380e534-fa5f-4940-b16b-64ce4f3ad0c7","system_id":"levelo_inurba_marseille","lat":43.28709,"lon":5.37399,"is_reserved":false,"is_disabled":false,"rental_uris":{"android":"levelo://app?vid=e380e534-fa5f-4940-b16b-64ce4f3ad0c7","ios":"levelo://app?vid=e380e534-fa5f-4940-b16b-64ce4f3ad0c7"},"vehicle_type_id":"4","last_reported":1756328965,"current_range_meters":9600,"station_id":"ce4bh3p2rcd13ifvqdq0","pricing_plan_id":"cebpf4jnsgd1na2vs0mg"},{"bike_id":"a7fac8fe-114e-434c-b98e-af85fa34b735","system_id":"levelo_inurba_marseille","lat":43.24663,"lon":5.3817,"is_reserved":false,"is_disabled":false,"rental_uris":{"android":"levelo://app?vid=a7fac8fe-114e-434c-b98e-af85fa34b735","ios":"levelo://app?vid=a7fac8fe-114e-434c-b98e-af85fa34b735"},"vehicle_type_id":"4","last_reported":1756328965,"current_range_meters":9600,"station_id":"ce4bhih2rcd13ifvqfr0","pricing_plan_id":"cebpf4jnsgd1na2vs0mg"},{"bike_id":"cb4de460-332e-4f6f-8bef-1646a9e60374","system_id":"levelo_inurba_marseille","lat":43.30789,"lon":5.37655,"is_reserved":false,"is_disabled":false,"rental_uris":{"android":"levelo://app?vid=cb4de460-332e-4f6f-8bef-1646a9e60374","ios":"levelo://app?vid=cb4de460-332e-4f6f-8bef-1646a9e60374"},"vehicle_type_id":"4","last_reported":1756328965,"current_range_meters":9600,"station_id":"ce4bgv92rcd13ifvqcq0","pricing_plan_id":"cebpf4jnsgd1na2vs0mg"},{"bike_id":"e337d582-364a-4312-af91-67d0c81052aa","system_id":"levelo_inurba_marseille","lat":43.32544,"lon":5.3644,"is_reserved":false,"is_disabled":false,"rental_uris":{"android":"levelo://app?vid=e337d582-364a-4312-af91-67d0c81052aa","ios":"levelo://app?vid=e337d582-364a-4312-af91-67d0c81052aa"},"vehicle_type_id":"4","last_reported":1756328965,"current_range_meters":9600,"station_id":"","pricing_plan_id":"cebpf4jnsgd1na2vs0mg"},{"bike_id":"a7c879e6-fbdc-41cc-b936-a235aa17adb5","system_id":"levelo_inurba_marseille","lat":43.33114,"lon":5.38187,"is_reserved":false,"is_disabled":false,"rental_uris":{"android":"levelo://app?vid=a7c879e6-fbdc-41cc-b936-a235aa17adb5","ios":"levelo://app?vid=a7c879e6-fbdc-41cc-b936-a235aa17adb5"},"vehicle_type_id":"4","last_reported":1756328965,"current_range_meters":10000,"station_id":"","pricing_plan_id":"cebpf4jnsgd1na2vs0mg"},{"bike_id":"5bce688b-fc81-4596-8277-b66f54be87c1","system_id":"levelo_inurba_marseille","lat":43.33768,"lon":5.37438,"is_reserved":false,"is_disabled":false,"rental_uris":{"android":"levelo://app?vid=5bce688b-fc81-4596-8277-b66f54be87c1","ios":"levelo://app?vid=5bce688b-fc81-4596-8277-b66f54be87c1"},"vehicle_type_id":"4","last_reported":1756328965,"current_range_meters":10000,"station_id":"","pricing_plan_id":"cebpf4jnsgd1na2vs0mg"},{"bike_id":"ab550e0b-8553-4ba6-8042-a9d5a6175675","system_id":"levelo_inurba_marseille","lat":43.25492,"lon":5.37653,"is_reserved":false,"is_disabled":false,"rental_uris":{"android":"levelo://app?vid=ab550e0b-8553-4ba6-8042-a9d5a6175675","ios":"levelo://app?vid=ab550e0b-8553-4ba6-8042-a9d5a6175675"},"vehicle_type_id":"4","last_reported":1756328965,"current_range_meters":10000,"station_id":"ce4bhh12rcd13ifvqff0","pricing_plan_id":"cebpf4jnsgd1na2vs0mg"},{"bike_id":"f7ba1005-7569-4cac-a0fe-7bb5f3794957","system_id":"levelo_inurba_marseille","lat":43.31328,"lon":5.39688,"is_reserved":false,"is_disabled":false,"rental_uris":{"android":"levelo://app?vid=f7ba1005-7569-4cac-a0fe-7bb5f3794957","ios":"levelo://app?vid=f7ba1005-7569-4cac-a0fe-7bb5f3794957"},"vehicle_type_id":"4","last_reported":1756328965,"current_range_meters":10000,"station_id":"ce4bgvp2rcd13ifvqcu0","pricing_plan_id":"cebpf4jnsgd1na2vs0mg"},{"bike_id":"d079813e-45f5-4da5-8ab5-d6827a2fe890","system_id":"levelo_inurba_marseille","lat":43.30926,"lon":5.40148,"is_reserved":false,"is_disabled":false,"rental_uris":{"android":"levelo://app?vid=d079813e-45f5-4da5-8ab5-d6827a2fe890","ios":"levelo://app?vid=d079813e-45f5-4da5-8ab5-d6827a2fe890"},"vehicle_type_id":"4","last_reported":1756328965,"current_range_meters":10000,"station_id":"ce4bgvp2rcd13ifvqct0","pricing_plan_id":"cebpf4jnsgd1na2vs0mg"},{"bike_id":"98b5d953-937e-48a2-a5e5-1c6a780d56ce","system_id":"levelo_inurba_marseille","lat":43.2811,"lon":5.37852,"is_reserved":false,"is_disabled":false,"rental_uris":{"android":"levelo://app?vid=98b5d953-937e-48a2-a5e5-1c6a780d56ce","ios":"levelo://app?vid=98b5d953-937e-48a2-a5e5-1c6a780d56ce"},"vehicle_type_id":"4","last_reported":1756328965,"current_range_meters":10800,"station_id":"ce4bha12rcd13ifvqee0","pricing_plan_id":"cebpf4jnsgd1na2vs0mg"},{"bike_id":"cc2255f1-28dc-422f-91a4-6cdaf5c9e2d5","system_id":"levelo_inurba_marseille","lat":43.2786,"lon":5.39205,"is_reserved":false,"is_disabled":false,"rental_uris":{"android":"levelo://app?vid=cc2255f1-28dc-422f-91a4-6cdaf5c9e2d5","ios":"levelo://app?vid=cc2255f1-28dc-422f-91a4-6cdaf5c9e2d5"},"vehicle_type_id":"4","last_reported":1756328965,"current_range_meters":10800,"station_id":"ce4bhjp2rcd13ifvqga0","pricing_plan_id":"cebpf4jnsgd1na2vs0mg"},{"bike_id":"384c8e2f-c5ad-4129-a017-831f55efdffd","system_id":"levelo_inurba_marseille","lat":43.30644,"lon":5.40103,"is_reserved":false,"is_disabled":false,"rental_uris":{"android":"levelo://app?vid=384c8e2f-c5ad-4129-a017-831f55efdffd","ios":"levelo://app?vid=384c8e2f-c5ad-4129-a017-831f55efdffd"},"vehicle_type_id":"4","last_reported":1756328965,"current_range_meters":10800,"station_id":"ce4bh112rcd13ifvqda0","pricing_plan_id":"cebpf4jnsgd1na2vs0mg"},{"bike_id":"a9303bca-efe2-4445-a6ce-d44146205eba","system_id":"levelo_inurba_marseille","lat":43.29843,"lon":5.36275,"is_reserved":false,"is_disabled":false,"rental_uris":{"android":"levelo://app?vid=a9303bca-efe2-4445-a6ce-d44146205eba","ios":"levelo://app?vid=a9303bca-efe2-4445-a6ce-d44146205eba"},"vehicle_type_id":"4","last_reported":1756328965,"current_range_meters":10800,"station_id":"ce4bgpp2rcd13ifvqc3g","pricing_plan_id":"cebpf4jnsgd1na2vs0mg"},{"bike_id":"2eb43c10-df30-425a-a62f-88b0cf177a8c","system_id":"levelo_inurba_marseille","lat":43.291979,"lon":5.39307,"is_reserved":false,"is_disabled":false,"rental_uris":{"android":"levelo://app?vid=2eb43c10-df30-425a-a62f-88b0cf177a8c","ios":"levelo://app?vid=2eb43c10-df30-425a-a62f-88b0cf177a8c"},"vehicle_type_id":"4","last_reported":1756328965,"current_range_meters":10800,"station_id":"ce4bh192rcd13ifvqdd0","pricing_plan_id":"cebpf4jnsgd1na2vs0mg"},{"bike_id":"f1b15d75-65b4-45b8-9885-6a2cb81836e9","system_id":"levelo_inurba_marseille","lat":43.29259,"lon":5.40917,"is_reserved":false,"is_disabled":false,"rental_uris":{"android":"levelo://app?vid=f1b15d75-65b4-45b8-9885-6a2cb81836e9","ios":"levelo://app?vid=f1b15d75-65b4-45b8-9885-6a2cb81836e9"},"vehicle_type_id":"4","last_reported":1756328965,"current_range_meters":10000,"station_id":"ce4bh192rcd13ifvqdc0","pricing_plan_id":"cebpf4jnsgd1na2vs0mg"},{"bike_id":"6edb1530-71b8-45ee-838f-f07e5a0e8ab9","system_id":"levelo_inurba_marseille","lat":43.26209,"lon":5.37465,"is_reserved":false,"is_disabled":true,"rental_uris":{"android":"levelo://app?vid=6edb1530-71b8-45ee-838f-f07e5a0e8ab9","ios":"levelo://app?vid=6edb1530-71b8-45ee-838f-f07e5a0e8ab9"},"vehicle_type_id":"4","last_reported":1756328965,"current_range_meters":10800,"station_id":"ce4bhgp2rcd13ifvqfc0","pricing_plan_id":"cebpf4jnsgd1na2vs0mg"},{"bike_id":"e5eabf25-4e1c-476e-b130-9f83cdcfc80c","system_id":"levelo_inurba_marseille","lat":43.298,"lon":5.41719,"is_reserved":false,"is_disabled":false,"rental_uris":{"android":"levelo://app?vid=e5eabf25-4e1c-476e-b130-9f83cdcfc80c","ios":"levelo://app?vid=e5eabf25-4e1c-476e-b130-9f83cdcfc80c"},"vehicle_type_id":"4","last_reported":1756328965,"current_range_meters":11200,"station_id":"","pricing_plan_id":"cebpf4jnsgd1na2vs0mg"},{"bike_id":"3a52ea9e-aed7-457e-bcbf-7576e5b828db","system_id":"levelo_inurba_marseille","lat":43.26027,"lon":5.37552,"is_reserved":false,"is_disabled":false,"rental_uris":{"android":"levelo://app?vid=3a52ea9e-aed7-457e-bcbf-7576e5b828db","ios":"levelo://app?vid=3a52ea9e-aed7-457e-bcbf-7576e5b828db"},"vehicle_type_id":"4","last_reported":1756328965,"current_range_meters":11200,"station_id":"ce4bhgh2rcd13ifvqfa0","pricing_plan_id":"cebpf4jnsgd1na2vs0mg"},{"bike_id":"452c64c1-c18e-429f-ac02-5f3cc7af3941","system_id":"levelo_inurba_marseille","lat":43.21739,"lon":5.34605,"is_reserved":false,"is_disabled":false,"rental_uris":{"android":"levelo://app?vid=452c64c1-c18e-429f-ac02-5f3cc7af3941","ios":"levelo://app?vid=452c64c1-c18e-429f-ac02-5f3cc7af3941"},"vehicle_type_id":"4","last_reported":1756328965,"current_range_meters":11200,"station_id":"st_cvj6r9ubvosntc0bgbag","pricing_plan_id":"cebpf4jnsgd1na2vs0mg"},{"bike_id":"39267272-9896-4196-92c8-37bb51168310","system_id":"levelo_inurba_marseille","lat":43.25334,"lon":5.42178,"is_reserved":false,"is_disabled":false,"rental_uris":{"android":"levelo://app?vid=39267272-9896-4196-92c8-37bb51168310","ios":"levelo://app?vid=39267272-9896-4196-92c8-37bb51168310"},"vehicle_type_id":"4","last_reported":1756328965,"current_range_meters":11600,"station_id":"st_d2m65c5bi1j21697t3ng","pricing_plan_id":"cebpf4jnsgd1na2vs0mg"},{"bike_id":"3448e159-471f-45cf-b0bc-dcb672574311","system_id":"levelo_inurba_marseille","lat":43.26183,"lon":5.37448,"is_reserved":false,"is_disabled":true,"rental_uris":{"android":"levelo://app?vid=3448e159-471f-45cf-b0bc-dcb672574311","ios":"levelo://app?vid=3448e159-471f-45cf-b0bc-dcb672574311"},"vehicle_type_id":"4","last_reported":1756328965,"current_range_meters":11600,"station_id":"ce4bhgp2rcd13ifvqfc0","pricing_plan_id":"cebpf4jnsgd1na2vs0mg"},{"bike_id":"da56be69-d1d8-4e58-9211-9f80a01d3f01","system_id":"levelo_inurba_marseille","lat":43.26544,"lon":5.37287,"is_reserved":false,"is_disabled":false,"rental_uris":{"android":"levelo://app?vid=da56be69-d1d8-4e58-9211-9f80a01d3f01","ios":"levelo://app?vid=da56be69-d1d8-4e58-9211-9f80a01d3f01"},"vehicle_type_id":"4","last_reported":1756328965,"current_range_meters":11600,"station_id":"ce4bhg12rcd13ifvqf70","pricing_plan_id":"cebpf4jnsgd1na2vs0mg"},{"bike_id":"9308f021-ec84-4fe8-8c25-145b6405b7e0","system_id":"levelo_inurba_marseille","lat":43.305,"lon":5.36743,"is_reserved":false,"is_disabled":true,"rental_uris":{"android":"levelo://app?vid=9308f021-ec84-4fe8-8c25-145b6405b7e0","ios":"levelo://app?vid=9308f021-ec84-4fe8-8c25-145b6405b7e0"},"vehicle_type_id":"4","last_reported":1756328965,"current_range_meters":11600,"station_id":"ce4bgrp2rcd13ifvqc9g","pricing_plan_id":"cebpf4jnsgd1na2vs0mg"},{"bike_id":"c585dd86-e6af-4090-bba4-a9ee7f425450","system_id":"levelo_inurba_marseille","lat":43.2838,"lon":5.38642,"is_reserved":false,"is_disabled":false,"rental_uris":{"android":"levelo://app?vid=c585dd86-e6af-4090-bba4-a9ee7f425450","ios":"levelo://app?vid=c585dd86-e6af-4090-bba4-a9ee7f425450"},"vehicle_type_id":"4","last_reported":1756328965,"current_range_meters":12000,"station_id":"ce4bh492rcd13ifvqdvg","pricing_plan_id":"cebpf4jnsgd1na2vs0mg"},{"bike_id":"f9bee4e7-3272-4bb4-b05c-cd5fb342938a","system_id":"levelo_inurba_marseille","lat":43.32109,"lon":5.36794,"is_reserved":false,"is_disabled":false,"rental_uris":{"android":"levelo://app?vid=f9bee4e7-3272-4bb4-b05c-cd5fb342938a","ios":"levelo://app?vid=f9bee4e7-3272-4bb4-b05c-cd5fb342938a"},"vehicle_type_id":"4","last_reported":1756328965,"current_range_meters":12000,"station_id":"ce4bhrh2rcd13ifvqhug","pricing_plan_id":"cebpf4jnsgd1na2vs0mg"},{"bike_id":"91531fd8-370b-4889-9add-f1485909ea30","system_id":"levelo_inurba_marseille","lat":43.28946,"lon":5.36403,"is_reserved":false,"is_disabled":false,"rental_uris":{"android":"levelo://app?vid=91531fd8-370b-4889-9add-f1485909ea30","ios":"levelo://app?vid=91531fd8-370b-4889-9add-f1485909ea30"},"vehicle_type_id":"4","last_reported":1756328965,"current_range_meters":12000,"station_id":"ce4bhc92rcd13ifvqetg","pricing_plan_id":"cebpf4jnsgd1na2vs0mg"},{"bike_id":"4e14b512-96f3-461e-a9eb-f626a4679301","system_id":"levelo_inurba_marseille","lat":43.26197,"lon":5.37929,"is_reserved":false,"is_disabled":false,"rental_uris":{"android":"levelo://app?vid=4e14b512-96f3-461e-a9eb-f626a4679301","ios":"levelo://app?vid=4e14b512-96f3-461e-a9eb-f626a4679301"},"vehicle_type_id":"4","last_reported":1756328965,"current_range_meters":12000,"station_id":"ce4bhjp2rcd13ifvqg90","pricing_plan_id":"cebpf4jnsgd1na2vs0mg"},{"bike_id":"23038a23-8213-4d5b-a784-616373105311","system_id":"levelo_inurba_marseille","lat":43.29897,"lon":5.43675,"is_reserved":false,"is_disabled":false,"rental_uris":{"android":"levelo://app?vid=23038a23-8213-4d5b-a784-616373105311","ios":"levelo://app?vid=23038a23-8213-4d5b-a784-616373105311"},"vehicle_type_id":"4","last_reported":1756328965,"current_range_meters":12000,"station_id":"ce4bhpp2rcd13ifvqhfg","pricing_plan_id":"cebpf4jnsgd1na2vs0mg"},{"bike_id":"a5d02f05-519a-467d-ab65-c53547e80c26","system_id":"levelo_inurba_marseille","lat":43.254935,"lon":5.376477,"is_reserved":false,"is_disabled":false,"rental_uris":{"android":"levelo://app?vid=a5d02f05-519a-467d-ab65-c53547e80c26","ios":"levelo://app?vid=a5d02f05-519a-467d-ab65-c53547e80c26"},"vehicle_type_id":"4","last_reported":1756328965,"current_range_meters":12000,"station_id":"ce4bhh12rcd13ifvqff0","pricing_plan_id":"cebpf4jnsgd1na2vs0mg"},{"bike_id":"851053e8-d3be-4f09-af43-d2598eb82f5e","system_id":"levelo_inurba_marseille","lat":43.26559,"lon":5.37323,"is_reserved":false,"is_disabled":false,"rental_uris":{"android":"levelo://app?vid=851053e8-d3be-4f09-af43-d2598eb82f5e","ios":"levelo://app?vid=851053e8-d3be-4f09-af43-d2598eb82f5e"},"vehicle_type_id":"4","last_reported":1756328965,"current_range_meters":12000,"station_id":"ce4bhg12rcd13ifvqf70","pricing_plan_id":"cebpf4jnsgd1na2vs0mg"},{"bike_id":"04b7a9f3-b443-44fd-b605-c1e0083e2b14","system_id":"levelo_inurba_marseille","lat":43.280789,"lon":5.396622,"is_reserved":false,"is_disabled":false,"rental_uris":{"android":"levelo://app?vid=04b7a9f3-b443-44fd-b605-c1e0083e2b14","ios":"levelo://app?vid=04b7a9f3-b443-44fd-b605-c1e0083e2b14"},"vehicle_type_id":"4","last_reported":1756328965,"current_range_meters":12400,"station_id":"ce4bho12rcd13ifvqh2g","pricing_plan_id":"cebpf4jnsgd1na2vs0mg"},{"bike_id":"a9f6fbd9-a342-4892-a79f-6f16e3f65bfa","system_id":"levelo_inurba_marseille","lat":43.28495,"lon":5.38416,"is_reserved":false,"is_disabled":false,"rental_uris":{"android":"levelo://app?vid=a9f6fbd9-a342-4892-a79f-6f16e3f65bfa","ios":"levelo://app?vid=a9f6fbd9-a342-4892-a79f-6f16e3f65bfa"},"vehicle_type_id":"4","last_reported":1756328965,"current_range_meters":12400,"station_id":"ce4bh512rcd13ifvqe3g","pricing_plan_id":"cebpf4jnsgd1na2vs0mg"},{"bike_id":"67d547a2-37a6-4f92-8287-11cc991a06c7","system_id":"levelo_inurba_marseille","lat":43.31361,"lon":5.38505,"is_reserved":false,"is_disabled":false,"rental_uris":{"android":"levelo://app?vid=67d547a2-37a6-4f92-8287-11cc991a06c7","ios":"levelo://app?vid=67d547a2-37a6-4f92-8287-11cc991a06c7"},"vehicle_type_id":"4","last_reported":1756328965,"current_range_meters":12400,"station_id":"ce4bgt92rcd13ifvqcf0","pricing_plan_id":"cebpf4jnsgd1na2vs0mg"},{"bike_id":"e48e14b0-14a0-4d43-8d43-cb9767505027","system_id":"levelo_inurba_marseille","lat":43.31127,"lon":5.37782,"is_reserved":false,"is_disabled":false,"rental_uris":{"android":"levelo://app?vid=e48e14b0-14a0-4d43-8d43-cb9767505027","ios":"levelo://app?vid=e48e14b0-14a0-4d43-8d43-cb9767505027"},"vehicle_type_id":"4","last_reported":1756328965,"current_range_meters":12000,"station_id":"ce4bgt92rcd13ifvqcg0","pricing_plan_id":"cebpf4jnsgd1na2vs0mg"},{"bike_id":"2d35c570-724e-42d6-9b57-babd6cb61039","system_id":"levelo_inurba_marseille","lat":43.26024,"lon":5.37562,"is_reserved":false,"is_disabled":false,"rental_uris":{"android":"levelo://app?vid=2d35c570-724e-42d6-9b57-babd6cb61039","ios":"levelo://app?vid=2d35c570-724e-42d6-9b57-babd6cb61039"},"vehicle_type_id":"4","last_reported":1756328965,"current_range_meters":12400,"station_id":"ce4bhgh2rcd13ifvqfa0","pricing_plan_id":"cebpf4jnsgd1na2vs0mg"},{"bike_id":"0f969274-ed3a-4d5e-b4e6-7a3984afd615","system_id":"levelo_inurba_marseille","lat":43.26019,"lon":5.37561,"is_reserved":false,"is_disabled":false,"rental_uris":{"android":"levelo://app?vid=0f969274-ed3a-4d5e-b4e6-7a3984afd615","ios":"levelo://app?vid=0f969274-ed3a-4d5e-b4e6-7a3984afd615"},"vehicle_type_id":"4","last_reported":1756328965,"current_range_meters":12400,"station_id":"ce4bhgh2rcd13ifvqfa0","pricing_plan_id":"cebpf4jnsgd1na2vs0mg"},{"bike_id":"6bfbf7b1-a4a1-4287-abfb-a1fa867bee3a","system_id":"levelo_inurba_marseille","lat":43.23057,"lon":5.35493,"is_reserved":false,"is_disabled":false,"rental_uris":{"android":"levelo://app?vid=6bfbf7b1-a4a1-4287-abfb-a1fa867bee3a","ios":"levelo://app?vid=6bfbf7b1-a4a1-4287-abfb-a1fa867bee3a"},"vehicle_type_id":"4","last_reported":1756328965,"current_range_meters":12400,"station_id":"cpo3342slgdg3j2ifvpg","pricing_plan_id":"cebpf4jnsgd1na2vs0mg"},{"bike_id":"3ce18fbc-ec38-4f9e-9dd9-9a3dee5c503d","system_id":"levelo_inurba_marseille","lat":43.26019,"lon":5.37602,"is_reserved":false,"is_disabled":true,"rental_uris":{"android":"levelo://app?vid=3ce18fbc-ec38-4f9e-9dd9-9a3dee5c503d","ios":"levelo://app?vid=3ce18fbc-ec38-4f9e-9dd9-9a3dee5c503d"},"vehicle_type_id":"4","last_reported":1756328965,"current_range_meters":12400,"station_id":"ce4bhgh2rcd13ifvqfa0","pricing_plan_id":"cebpf4jnsgd1na2vs0mg"},{"bike_id":"73ac3b2e-1fe9-478e-a0f3-77f9939d007e","system_id":"levelo_inurba_marseille","lat":43.319931,"lon":5.381656,"is_reserved":false,"is_disabled":false,"rental_uris":{"android":"levelo://app?vid=73ac3b2e-1fe9-478e-a0f3-77f9939d007e","ios":"levelo://app?vid=73ac3b2e-1fe9-478e-a0f3-77f9939d007e"},"vehicle_type_id":"4","last_reported":1756328965,"current_range_meters":12000,"station_id":"ce4bhr12rcd13ifvqhpg","pricing_plan_id":"cebpf4jnsgd1na2vs0mg"},{"bike_id":"1c9135de-2425-4740-81eb-e43bc9a1f968","system_id":"levelo_inurba_marseille","lat":43.26559,"lon":5.39005,"is_reserved":false,"is_disabled":false,"rental_uris":{"android":"levelo://app?vid=1c9135de-2425-4740-81eb-e43bc9a1f968","ios":"levelo://app?vid=1c9135de-2425-4740-81eb-e43bc9a1f968"},"vehicle_type_id":"4","last_reported":1756328965,"current_range_meters":12400,"station_id":"ce4bhe12rcd13ifvqf30","pricing_plan_id":"cebpf4jnsgd1na2vs0mg"},{"bike_id":"cddd7129-2972-4408-becb-877207b06e82","system_id":"levelo_inurba_marseille","lat":43.28465,"lon":5.35892,"is_reserved":false,"is_disabled":false,"rental_uris":{"android":"levelo://app?vid=cddd7129-2972-4408-becb-877207b06e82","ios":"levelo://app?vid=cddd7129-2972-4408-becb-877207b06e82"},"vehicle_type_id":"4","last_reported":1756328965,"current_range_meters":12400,"station_id":"ce4bhah2rcd13ifvqei0","pricing_plan_id":"cebpf4jnsgd1na2vs0mg"},{"bike_id":"07f3c348-251f-475b-bdcc-b91dd94163be","system_id":"levelo_inurba_marseille","lat":43.21742,"lon":5.34603,"is_reserved":false,"is_disabled":true,"rental_uris":{"android":"levelo://app?vid=07f3c348-251f-475b-bdcc-b91dd94163be","ios":"levelo://app?vid=07f3c348-251f-475b-bdcc-b91dd94163be"},"vehicle_type_id":"4","last_reported":1756328965,"current_range_meters":12400,"station_id":"st_cvj6r9ubvosntc0bgbag","pricing_plan_id":"cebpf4jnsgd1na2vs0mg"},{"bike_id":"8ccb6739-3e25-411e-9e6c-026096e364d4","system_id":"levelo_inurba_marseille","lat":43.29519,"lon":5.39408,"is_reserved":false,"is_disabled":false,"rental_uris":{"android":"levelo://app?vid=8ccb6739-3e25-411e-9e6c-026096e364d4","ios":"levelo://app?vid=8ccb6739-3e25-411e-9e6c-026096e364d4"},"vehicle_type_id":"4","last_reported":1756328965,"current_range_meters":12800,"station_id":"ce4bh292rcd13ifvqdf0","pricing_plan_id":"cebpf4jnsgd1na2vs0mg"},{"bike_id":"40359052-9f3d-44f8-a43b-f486217c4075","system_id":"levelo_inurba_marseille","lat":43.28097,"lon":5.37834,"is_reserved":false,"is_disabled":false,"rental_uris":{"android":"levelo://app?vid=40359052-9f3d-44f8-a43b-f486217c4075","ios":"levelo://app?vid=40359052-9f3d-44f8-a43b-f486217c4075"},"vehicle_type_id":"4","last_reported":1756328965,"current_range_meters":12800,"station_id":"ce4bha12rcd13ifvqee0","pricing_plan_id":"cebpf4jnsgd1na2vs0mg"},{"bike_id":"48040a8d-d996-4d08-a034-e685f9f796fc","system_id":"levelo_inurba_marseille","lat":43.32478,"lon":5.36575,"is_reserved":false,"is_disabled":false,"rental_uris":{"android":"levelo://app?vid=48040a8d-d996-4d08-a034-e685f9f796fc","ios":"levelo://app?vid=48040a8d-d996-4d08-a034-e685f9f796fc"},"vehicle_type_id":"4","last_reported":1756328965,"current_range_meters":12800,"station_id":"ce4bhs12rcd13ifvqhvg","pricing_plan_id":"cebpf4jnsgd1na2vs0mg"},{"bike_id":"364c3da8-4071-4ab5-a449-30d92e231dc6","system_id":"levelo_inurba_marseille","lat":43.31075,"lon":5.38353,"is_reserved":false,"is_disabled":false,"rental_uris":{"android":"levelo://app?vid=364c3da8-4071-4ab5-a449-30d92e231dc6","ios":"levelo://app?vid=364c3da8-4071-4ab5-a449-30d92e231dc6"},"vehicle_type_id":"4","last_reported":1756328965,"current_range_meters":12800,"station_id":"ce4bgv92rcd13ifvqcr0","pricing_plan_id":"cebpf4jnsgd1na2vs0mg"},{"bike_id":"3dff11d5-3872-4ffe-8cce-b5631d6c6058","system_id":"levelo_inurba_marseille","lat":43.32224,"lon":5.38653,"is_reserved":false,"is_disabled":false,"rental_uris":{"android":"levelo://app?vid=3dff11d5-3872-4ffe-8cce-b5631d6c6058","ios":"levelo://app?vid=3dff11d5-3872-4ffe-8cce-b5631d6c6058"},"vehicle_type_id":"4","last_reported":1756328965,"current_range_meters":12800,"station_id":"","pricing_plan_id":"cebpf4jnsgd1na2vs0mg"},{"bike_id":"bd765446-7319-49f2-8312-14a9d949dd65","system_id":"levelo_inurba_marseille","lat":43.30539,"lon":5.36557,"is_reserved":false,"is_disabled":false,"rental_uris":{"android":"levelo://app?vid=bd765446-7319-49f2-8312-14a9d949dd65","ios":"levelo://app?vid=bd765446-7319-49f2-8312-14a9d949dd65"},"vehicle_type_id":"4","last_reported":1756328965,"current_range_meters":12800,"station_id":"ce4bgs12rcd13ifvqcag","pricing_plan_id":"cebpf4jnsgd1na2vs0mg"},{"bike_id":"f54e30a6-3d9d-4381-bc7c-1f5019ebfd2a","system_id":"levelo_inurba_marseille","lat":43.29264,"lon":5.40904,"is_reserved":false,"is_disabled":false,"rental_uris":{"android":"levelo://app?vid=f54e30a6-3d9d-4381-bc7c-1f5019ebfd2a","ios":"levelo://app?vid=f54e30a6-3d9d-4381-bc7c-1f5019ebfd2a"},"vehicle_type_id":"4","last_reported":1756328965,"current_range_meters":12800,"station_id":"ce4bh192rcd13ifvqdc0","pricing_plan_id":"cebpf4jnsgd1na2vs0mg"},{"bike_id":"685105d1-bcda-4899-9d64-d94adf158a64","system_id":"levelo_inurba_marseille","lat":43.314676,"lon":5.373608,"is_reserved":false,"is_disabled":true,"rental_uris":{"android":"levelo://app?vid=685105d1-bcda-4899-9d64-d94adf158a64","ios":"levelo://app?vid=685105d1-bcda-4899-9d64-d94adf158a64"},"vehicle_type_id":"4","last_reported":1756328965,"current_range_meters":13600,"station_id":"","pricing_plan_id":"cebpf4jnsgd1na2vs0mg"},{"bike_id":"064887b2-9e63-44f9-8778-ad23a8de1c69","system_id":"levelo_inurba_marseille","lat":43.26026,"lon":5.37557,"is_reserved":false,"is_disabled":false,"rental_uris":{"android":"levelo://app?vid=064887b2-9e63-44f9-8778-ad23a8de1c69","ios":"levelo://app?vid=064887b2-9e63-44f9-8778-ad23a8de1c69"},"vehicle_type_id":"4","last_reported":1756328965,"current_range_meters":13600,"station_id":"ce4bhgh2rcd13ifvqfa0","pricing_plan_id":"cebpf4jnsgd1na2vs0mg"},{"bike_id":"d1e0c5c0-2021-47c7-80fe-e78f82330db3","system_id":"levelo_inurba_marseille","lat":43.21189,"lon":5.3507,"is_reserved":false,"is_disabled":false,"rental_uris":{"android":"levelo://app?vid=d1e0c5c0-2021-47c7-80fe-e78f82330db3","ios":"levelo://app?vid=d1e0c5c0-2021-47c7-80fe-e78f82330db3"},"vehicle_type_id":"4","last_reported":1756328965,"current_range_meters":13600,"station_id":"st_cvj6sg6p6f1abm77japg","pricing_plan_id":"cebpf4jnsgd1na2vs0mg"},{"bike_id":"8179721e-b9a4-401e-a8af-cbcc4bd1bdb5","system_id":"levelo_inurba_marseille","lat":43.27915,"lon":5.39578,"is_reserved":false,"is_disabled":false,"rental_uris":{"android":"levelo://app?vid=8179721e-b9a4-401e-a8af-cbcc4bd1bdb5","ios":"levelo://app?vid=8179721e-b9a4-401e-a8af-cbcc4bd1bdb5"},"vehicle_type_id":"4","last_reported":1756328965,"current_range_meters":13600,"station_id":"ce4bhf92rcd13ifvqf40","pricing_plan_id":"cebpf4jnsgd1na2vs0mg"},{"bike_id":"901693be-e0fd-48c6-abfc-fe8f5561b51a","system_id":"levelo_inurba_marseille","lat":43.26008,"lon":5.37563,"is_reserved":false,"is_disabled":false,"rental_uris":{"android":"levelo://app?vid=901693be-e0fd-48c6-abfc-fe8f5561b51a","ios":"levelo://app?vid=901693be-e0fd-48c6-abfc-fe8f5561b51a"},"vehicle_type_id":"4","last_reported":1756328965,"current_range_meters":13600,"station_id":"ce4bhgh2rcd13ifvqfa0","pricing_plan_id":"cebpf4jnsgd1na2vs0mg"},{"bike_id":"4c4a37ed-1e84-4a03-8dcc-474b33959333","system_id":"levelo_inurba_marseille","lat":43.27833,"lon":5.39219,"is_reserved":false,"is_disabled":false,"rental_uris":{"android":"levelo://app?vid=4c4a37ed-1e84-4a03-8dcc-474b33959333","ios":"levelo://app?vid=4c4a37ed-1e84-4a03-8dcc-474b33959333"},"vehicle_type_id":"4","last_reported":1756328965,"current_range_meters":12800,"station_id":"ce4bhjp2rcd13ifvqga0","pricing_plan_id":"cebpf4jnsgd1na2vs0mg"},{"bike_id":"5c26a54e-1e97-4ad3-a16d-614ad930b130","system_id":"levelo_inurba_marseille","lat":43.32099,"lon":5.36772,"is_reserved":false,"is_disabled":false,"rental_uris":{"android":"levelo://app?vid=5c26a54e-1e97-4ad3-a16d-614ad930b130","ios":"levelo://app?vid=5c26a54e-1e97-4ad3-a16d-614ad930b130"},"vehicle_type_id":"4","last_reported":1756328965,"current_range_meters":14000,"station_id":"ce4bhrh2rcd13ifvqhug","pricing_plan_id":"cebpf4jnsgd1na2vs0mg"},{"bike_id":"db526668-1205-422f-99f2-dc09210cda94","system_id":"levelo_inurba_marseille","lat":43.29281,"lon":5.36832,"is_reserved":false,"is_disabled":false,"rental_uris":{"android":"levelo://app?vid=db526668-1205-422f-99f2-dc09210cda94","ios":"levelo://app?vid=db526668-1205-422f-99f2-dc09210cda94"},"vehicle_type_id":"4","last_reported":1756328965,"current_range_meters":14000,"station_id":"ce4bhbp2rcd13ifvqesg","pricing_plan_id":"cebpf4jnsgd1na2vs0mg"},{"bike_id":"b16ad52c-f13c-4cbb-b55b-6d98d6ea16a7","system_id":"levelo_inurba_marseille","lat":43.29564,"lon":5.39972,"is_reserved":false,"is_disabled":false,"rental_uris":{"android":"levelo://app?vid=b16ad52c-f13c-4cbb-b55b-6d98d6ea16a7","ios":"levelo://app?vid=b16ad52c-f13c-4cbb-b55b-6d98d6ea16a7"},"vehicle_type_id":"4","last_reported":1756328965,"current_range_meters":14000,"station_id":"ce4bh312rcd13ifvqdj0","pricing_plan_id":"cebpf4jnsgd1na2vs0mg"},{"bike_id":"f67c8e5e-7af8-4847-a4ce-1e12088b4291","system_id":"levelo_inurba_marseille","lat":43.33026,"lon":5.39247,"is_reserved":false,"is_disabled":false,"rental_uris":{"android":"levelo://app?vid=f67c8e5e-7af8-4847-a4ce-1e12088b4291","ios":"levelo://app?vid=f67c8e5e-7af8-4847-a4ce-1e12088b4291"},"vehicle_type_id":"4","last_reported":1756328965,"current_range_meters":14000,"station_id":"","pricing_plan_id":"cebpf4jnsgd1na2vs0mg"},{"bike_id":"98c96329-3edb-4eec-a3f6-606d0522135f","system_id":"levelo_inurba_marseille","lat":43.21196,"lon":5.35079,"is_reserved":false,"is_disabled":false,"rental_uris":{"android":"levelo://app?vid=98c96329-3edb-4eec-a3f6-606d0522135f","ios":"levelo://app?vid=98c96329-3edb-4eec-a3f6-606d0522135f"},"vehicle_type_id":"4","last_reported":1756328965,"current_range_meters":14000,"station_id":"st_cvj6sg6p6f1abm77japg","pricing_plan_id":"cebpf4jnsgd1na2vs0mg"},{"bike_id":"c58c221b-a6ac-40bc-a169-25cdd37b3652","system_id":"levelo_inurba_marseille","lat":43.279796,"lon":5.38696,"is_reserved":false,"is_disabled":false,"rental_uris":{"android":"levelo://app?vid=c58c221b-a6ac-40bc-a169-25cdd37b3652","ios":"levelo://app?vid=c58c221b-a6ac-40bc-a169-25cdd37b3652"},"vehicle_type_id":"4","last_reported":1756328965,"current_range_meters":14000,"station_id":"ce4bhg12rcd13ifvqf80","pricing_plan_id":"cebpf4jnsgd1na2vs0mg"},{"bike_id":"3d399bfe-7fbc-42b7-a070-a73b13325d3f","system_id":"levelo_inurba_marseille","lat":43.23103,"lon":5.35498,"is_reserved":false,"is_disabled":false,"rental_uris":{"android":"levelo://app?vid=3d399bfe-7fbc-42b7-a070-a73b13325d3f","ios":"levelo://app?vid=3d399bfe-7fbc-42b7-a070-a73b13325d3f"},"vehicle_type_id":"4","last_reported":1756328965,"current_range_meters":14000,"station_id":"","pricing_plan_id":"cebpf4jnsgd1na2vs0mg"},{"bike_id":"814645c9-7af5-4408-879c-1836489b0342","system_id":"levelo_inurba_marseille","lat":43.26558,"lon":5.37284,"is_reserved":false,"is_disabled":false,"rental_uris":{"android":"levelo://app?vid=814645c9-7af5-4408-879c-1836489b0342","ios":"levelo://app?vid=814645c9-7af5-4408-879c-1836489b0342"},"vehicle_type_id":"4","last_reported":1756328965,"current_range_meters":14000,"station_id":"ce4bhg12rcd13ifvqf70","pricing_plan_id":"cebpf4jnsgd1na2vs0mg"},{"bike_id":"11a38367-deb6-4141-b3c1-0cba6ea43c8d","system_id":"levelo_inurba_marseille","lat":43.29001,"lon":5.35596,"is_reserved":false,"is_disabled":true,"rental_uris":{"android":"levelo://app?vid=11a38367-deb6-4141-b3c1-0cba6ea43c8d","ios":"levelo://app?vid=11a38367-deb6-4141-b3c1-0cba6ea43c8d"},"vehicle_type_id":"4","last_reported":1756328965,"current_range_meters":14400,"station_id":"ce4bhb92rcd13ifvqen0","pricing_plan_id":"cebpf4jnsgd1na2vs0mg"},{"bike_id":"d56bd230-40d1-42ea-b515-3b37a4c47b8c","system_id":"levelo_inurba_marseille","lat":43.31243,"lon":5.36873,"is_reserved":false,"is_disabled":false,"rental_uris":{"android":"levelo://app?vid=d56bd230-40d1-42ea-b515-3b37a4c47b8c","ios":"levelo://app?vid=d56bd230-40d1-42ea-b515-3b37a4c47b8c"},"vehicle_type_id":"4","last_reported":1756328965,"current_range_meters":14400,"station_id":"ce4bgl92rcd13ifvqbq0","pricing_plan_id":"cebpf4jnsgd1na2vs0mg"},{"bike_id":"c5b80a49-d71e-4dfc-a10c-0cfd3fb07450","system_id":"levelo_inurba_marseille","lat":43.30924,"lon":5.40139,"is_reserved":false,"is_disabled":false,"rental_uris":{"android":"levelo://app?vid=c5b80a49-d71e-4dfc-a10c-0cfd3fb07450","ios":"levelo://app?vid=c5b80a49-d71e-4dfc-a10c-0cfd3fb07450"},"vehicle_type_id":"4","last_reported":1756328965,"current_range_meters":14400,"station_id":"ce4bgvp2rcd13ifvqct0","pricing_plan_id":"cebpf4jnsgd1na2vs0mg"},{"bike_id":"beb8c6dd-3b40-436e-8841-b415ffd4615b","system_id":"levelo_inurba_marseille","lat":43.27194,"lon":5.40982,"is_reserved":false,"is_disabled":false,"rental_uris":{"android":"levelo://app?vid=beb8c6dd-3b40-436e-8841-b415ffd4615b","ios":"levelo://app?vid=beb8c6dd-3b40-436e-8841-b415ffd4615b"},"vehicle_type_id":"4","last_reported":1756328965,"current_range_meters":14400,"station_id":"ce4bhl12rcd13ifvqgf0","pricing_plan_id":"cebpf4jnsgd1na2vs0mg"},{"bike_id":"77e96fd5-8857-43d1-b79e-f050f29ec889","system_id":"levelo_inurba_marseille","lat":43.30434,"lon":5.389,"is_reserved":false,"is_disabled":false,"rental_uris":{"android":"levelo://app?vid=77e96fd5-8857-43d1-b79e-f050f29ec889","ios":"levelo://app?vid=77e96fd5-8857-43d1-b79e-f050f29ec889"},"vehicle_type_id":"4","last_reported":1756328965,"current_range_meters":14400,"station_id":"ce4bgk12rcd13ifvqbi0","pricing_plan_id":"cebpf4jnsgd1na2vs0mg"},{"bike_id":"20d89541-02cc-4c33-8a0d-8355b2504a47","system_id":"levelo_inurba_marseille","lat":43.27957,"lon":5.38709,"is_reserved":false,"is_disabled":false,"rental_uris":{"android":"levelo://app?vid=20d89541-02cc-4c33-8a0d-8355b2504a47","ios":"levelo://app?vid=20d89541-02cc-4c33-8a0d-8355b2504a47"},"vehicle_type_id":"4","last_reported":1756328965,"current_range_meters":14400,"station_id":"ce4bhg12rcd13ifvqf80","pricing_plan_id":"cebpf4jnsgd1na2vs0mg"},{"bike_id":"f743f84d-2762-4dc9-a151-20635b4d5542","system_id":"levelo_inurba_marseille","lat":43.26553,"lon":5.37286,"is_reserved":false,"is_disabled":false,"rental_uris":{"android":"levelo://app?vid=f743f84d-2762-4dc9-a151-20635b4d5542","ios":"levelo://app?vid=f743f84d-2762-4dc9-a151-20635b4d5542"},"vehicle_type_id":"4","last_reported":1756328965,"current_range_meters":14400,"station_id":"ce4bhg12rcd13ifvqf70","pricing_plan_id":"cebpf4jnsgd1na2vs0mg"},{"bike_id":"743e7956-cdec-4287-9bfe-7ec2ab35ffd3","system_id":"levelo_inurba_marseille","lat":43.31488,"lon":5.3729,"is_reserved":false,"is_disabled":false,"rental_uris":{"android":"levelo://app?vid=743e7956-cdec-4287-9bfe-7ec2ab35ffd3","ios":"levelo://app?vid=743e7956-cdec-4287-9bfe-7ec2ab35ffd3"},"vehicle_type_id":"4","last_reported":1756328965,"current_range_meters":14400,"station_id":"ce4bgt12rcd13ifvqcd0","pricing_plan_id":"cebpf4jnsgd1na2vs0mg"},{"bike_id":"87a609e1-d59c-4124-be64-0e6ad13873d2","system_id":"levelo_inurba_marseille","lat":43.28861,"lon":5.39323,"is_reserved":false,"is_disabled":false,"rental_uris":{"android":"levelo://app?vid=87a609e1-d59c-4124-be64-0e6ad13873d2","ios":"levelo://app?vid=87a609e1-d59c-4124-be64-0e6ad13873d2"},"vehicle_type_id":"4","last_reported":1756328965,"current_range_meters":14800,"station_id":"ce4bh2p2rcd13ifvqdi0","pricing_plan_id":"cebpf4jnsgd1na2vs0mg"},{"bike_id":"841b2c9f-67ba-4c6e-988b-62fa6ec3ffd8","system_id":"levelo_inurba_marseille","lat":43.313783,"lon":5.383976,"is_reserved":false,"is_disabled":false,"rental_uris":{"android":"levelo://app?vid=841b2c9f-67ba-4c6e-988b-62fa6ec3ffd8","ios":"levelo://app?vid=841b2c9f-67ba-4c6e-988b-62fa6ec3ffd8"},"vehicle_type_id":"4","last_reported":1756328965,"current_range_meters":14400,"station_id":"ce4bgt92rcd13ifvqcf0","pricing_plan_id":"cebpf4jnsgd1na2vs0mg"},{"bike_id":"44d9d2d8-1bb9-431f-bdd1-622d8e0ea90c","system_id":"levelo_inurba_marseille","lat":43.26255,"lon":5.39666,"is_reserved":false,"is_disabled":false,"rental_uris":{"android":"levelo://app?vid=44d9d2d8-1bb9-431f-bdd1-622d8e0ea90c","ios":"levelo://app?vid=44d9d2d8-1bb9-431f-bdd1-622d8e0ea90c"},"vehicle_type_id":"4","last_reported":1756328965,"current_range_meters":14800,"station_id":"","pricing_plan_id":"cebpf4jnsgd1na2vs0mg"},{"bike_id":"603f4225-f8fa-4681-8f73-67bf44b8d0e2","system_id":"levelo_inurba_marseille","lat":43.29623,"lon":5.37161,"is_reserved":false,"is_disabled":false,"rental_uris":{"android":"levelo://app?vid=603f4225-f8fa-4681-8f73-67bf44b8d0e2","ios":"levelo://app?vid=603f4225-f8fa-4681-8f73-67bf44b8d0e2"},"vehicle_type_id":"4","last_reported":1756328965,"current_range_meters":14800,"station_id":"ce4bgnh2rcd13ifvqc0g","pricing_plan_id":"cebpf4jnsgd1na2vs0mg"},{"bike_id":"19eabc24-80d3-4327-b947-9ec7f85cd494","system_id":"levelo_inurba_marseille","lat":43.27315,"lon":5.39114,"is_reserved":false,"is_disabled":true,"rental_uris":{"android":"levelo://app?vid=19eabc24-80d3-4327-b947-9ec7f85cd494","ios":"levelo://app?vid=19eabc24-80d3-4327-b947-9ec7f85cd494"},"vehicle_type_id":"4","last_reported":1756328965,"current_range_meters":14800,"station_id":"ce4bhgp2rcd13ifvqfe0","pricing_plan_id":"cebpf4jnsgd1na2vs0mg"},{"bike_id":"17bb141a-109c-4749-b407-4b8b2f11e861","system_id":"levelo_inurba_marseille","lat":43.29557,"lon":5.39973,"is_reserved":false,"is_disabled":false,"rental_uris":{"android":"levelo://app?vid=17bb141a-109c-4749-b407-4b8b2f11e861","ios":"levelo://app?vid=17bb141a-109c-4749-b407-4b8b2f11e861"},"vehicle_type_id":"4","last_reported":1756328965,"current_range_meters":14800,"station_id":"ce4bh312rcd13ifvqdj0","pricing_plan_id":"cebpf4jnsgd1na2vs0mg"},{"bike_id":"4390fec5-e5b7-4b30-b7e4-8bd8c36aab99","system_id":"levelo_inurba_marseille","lat":43.26041,"lon":5.37586,"is_reserved":false,"is_disabled":false,"rental_uris":{"android":"levelo://app?vid=4390fec5-e5b7-4b30-b7e4-8bd8c36aab99","ios":"levelo://app?vid=4390fec5-e5b7-4b30-b7e4-8bd8c36aab99"},"vehicle_type_id":"4","last_reported":1756328965,"current_range_meters":14800,"station_id":"ce4bhgh2rcd13ifvqfa0","pricing_plan_id":"cebpf4jnsgd1na2vs0mg"},{"bike_id":"f5ee2120-b8b8-472b-9bcc-efc824cd719b","system_id":"levelo_inurba_marseille","lat":43.29546,"lon":5.42284,"is_reserved":false,"is_disabled":false,"rental_uris":{"android":"levelo://app?vid=f5ee2120-b8b8-472b-9bcc-efc824cd719b","ios":"levelo://app?vid=f5ee2120-b8b8-472b-9bcc-efc824cd719b"},"vehicle_type_id":"4","last_reported":1756328965,"current_range_meters":14800,"station_id":"ce4bhph2rcd13ifvqhdg","pricing_plan_id":"cebpf4jnsgd1na2vs0mg"},{"bike_id":"3c140e45-c667-4e4b-9059-fb58e762551a","system_id":"levelo_inurba_marseille","lat":43.27973,"lon":5.38742,"is_reserved":false,"is_disabled":false,"rental_uris":{"android":"levelo://app?vid=3c140e45-c667-4e4b-9059-fb58e762551a","ios":"levelo://app?vid=3c140e45-c667-4e4b-9059-fb58e762551a"},"vehicle_type_id":"4","last_reported":1756328965,"current_range_meters":14800,"station_id":"ce4bhg12rcd13ifvqf80","pricing_plan_id":"cebpf4jnsgd1na2vs0mg"},{"bike_id":"29a67476-3309-4e55-8433-955cdf6c55c5","system_id":"levelo_inurba_marseille","lat":43.26019,"lon":5.37554,"is_reserved":false,"is_disabled":false,"rental_uris":{"android":"levelo://app?vid=29a67476-3309-4e55-8433-955cdf6c55c5","ios":"levelo://app?vid=29a67476-3309-4e55-8433-955cdf6c55c5"},"vehicle_type_id":"4","last_reported":1756328965,"current_range_meters":15200,"station_id":"ce4bhgh2rcd13ifvqfa0","pricing_plan_id":"cebpf4jnsgd1na2vs0mg"},{"bike_id":"d810acf0-5bd2-4bf1-848d-31cd30d105e6","system_id":"levelo_inurba_marseille","lat":43.269831,"lon":5.392782,"is_reserved":false,"is_disabled":false,"rental_uris":{"android":"levelo://app?vid=d810acf0-5bd2-4bf1-848d-31cd30d105e6","ios":"levelo://app?vid=d810acf0-5bd2-4bf1-848d-31cd30d105e6"},"vehicle_type_id":"4","last_reported":1756328965,"current_range_meters":15200,"station_id":"","pricing_plan_id":"cebpf4jnsgd1na2vs0mg"},{"bike_id":"ffd21136-ae47-45ee-8fc5-e7f85ea84802","system_id":"levelo_inurba_marseille","lat":43.298254,"lon":5.382986,"is_reserved":false,"is_disabled":false,"rental_uris":{"android":"levelo://app?vid=ffd21136-ae47-45ee-8fc5-e7f85ea84802","ios":"levelo://app?vid=ffd21136-ae47-45ee-8fc5-e7f85ea84802"},"vehicle_type_id":"4","last_reported":1756328965,"current_range_meters":15200,"station_id":"","pricing_plan_id":"cebpf4jnsgd1na2vs0mg"},{"bike_id":"94c44f36-d45b-48d8-9eb0-02cde482dcfd","system_id":"levelo_inurba_marseille","lat":43.26025,"lon":5.37543,"is_reserved":false,"is_disabled":false,"rental_uris":{"android":"levelo://app?vid=94c44f36-d45b-48d8-9eb0-02cde482dcfd","ios":"levelo://app?vid=94c44f36-d45b-48d8-9eb0-02cde482dcfd"},"vehicle_type_id":"4","last_reported":1756328965,"current_range_meters":15200,"station_id":"ce4bhgh2rcd13ifvqfa0","pricing_plan_id":"cebpf4jnsgd1na2vs0mg"},{"bike_id":"38c4fbad-a82b-4ff7-abc0-07c0fd3c43aa","system_id":"levelo_inurba_marseille","lat":43.292741,"lon":5.368449,"is_reserved":false,"is_disabled":false,"rental_uris":{"android":"levelo://app?vid=38c4fbad-a82b-4ff7-abc0-07c0fd3c43aa","ios":"levelo://app?vid=38c4fbad-a82b-4ff7-abc0-07c0fd3c43aa"},"vehicle_type_id":"4","last_reported":1756328965,"current_range_meters":16000,"station_id":"ce4bhbp2rcd13ifvqesg","pricing_plan_id":"cebpf4jnsgd1na2vs0mg"},{"bike_id":"1ead3eee-c052-4307-9f25-b0a932f0b7f7","system_id":"levelo_inurba_marseille","lat":43.2501,"lon":5.38931,"is_reserved":false,"is_disabled":false,"rental_uris":{"android":"levelo://app?vid=1ead3eee-c052-4307-9f25-b0a932f0b7f7","ios":"levelo://app?vid=1ead3eee-c052-4307-9f25-b0a932f0b7f7"},"vehicle_type_id":"4","last_reported":1756328965,"current_range_meters":16000,"station_id":"ce4bhgp2rcd13ifvqfd0","pricing_plan_id":"cebpf4jnsgd1na2vs0mg"},{"bike_id":"c67682e4-ad86-4b65-b4ef-e774963b7e60","system_id":"levelo_inurba_marseille","lat":43.2319,"lon":5.35564,"is_reserved":false,"is_disabled":false,"rental_uris":{"android":"levelo://app?vid=c67682e4-ad86-4b65-b4ef-e774963b7e60","ios":"levelo://app?vid=c67682e4-ad86-4b65-b4ef-e774963b7e60"},"vehicle_type_id":"4","last_reported":1756328965,"current_range_meters":16000,"station_id":"ce4bhu92rcd13ifvqi70","pricing_plan_id":"cebpf4jnsgd1na2vs0mg"},{"bike_id":"9fe0c008-4c21-480c-82eb-ccabb02ab573","system_id":"levelo_inurba_marseille","lat":43.26568,"lon":5.39016,"is_reserved":false,"is_disabled":false,"rental_uris":{"android":"levelo://app?vid=9fe0c008-4c21-480c-82eb-ccabb02ab573","ios":"levelo://app?vid=9fe0c008-4c21-480c-82eb-ccabb02ab573"},"vehicle_type_id":"4","last_reported":1756328965,"current_range_meters":16000,"station_id":"ce4bhe12rcd13ifvqf30","pricing_plan_id":"cebpf4jnsgd1na2vs0mg"},{"bike_id":"976f6eba-e633-40d6-860f-edccf454d8f5","system_id":"levelo_inurba_marseille","lat":43.28341,"lon":5.38111,"is_reserved":false,"is_disabled":false,"rental_uris":{"android":"levelo://app?vid=976f6eba-e633-40d6-860f-edccf454d8f5","ios":"levelo://app?vid=976f6eba-e633-40d6-860f-edccf454d8f5"},"vehicle_type_id":"4","last_reported":1756328965,"current_range_meters":16000,"station_id":"ce4bh412rcd13ifvqdr0","pricing_plan_id":"cebpf4jnsgd1na2vs0mg"},{"bike_id":"3cb1136c-a9d5-487f-9a54-2cd07783e631","system_id":"levelo_inurba_marseille","lat":43.255,"lon":5.37645,"is_reserved":false,"is_disabled":false,"rental_uris":{"android":"levelo://app?vid=3cb1136c-a9d5-487f-9a54-2cd07783e631","ios":"levelo://app?vid=3cb1136c-a9d5-487f-9a54-2cd07783e631"},"vehicle_type_id":"4","last_reported":1756328965,"current_range_meters":16000,"station_id":"ce4bhh12rcd13ifvqff0","pricing_plan_id":"cebpf4jnsgd1na2vs0mg"},{"bike_id":"ddb358c1-62d4-45c6-afcf-b1c4ff0c210b","system_id":"levelo_inurba_marseille","lat":43.28661,"lon":5.39958,"is_reserved":false,"is_disabled":false,"rental_uris":{"android":"levelo://app?vid=ddb358c1-62d4-45c6-afcf-b1c4ff0c210b","ios":"levelo://app?vid=ddb358c1-62d4-45c6-afcf-b1c4ff0c210b"},"vehicle_type_id":"4","last_reported":1756328965,"current_range_meters":16000,"station_id":"","pricing_plan_id":"cebpf4jnsgd1na2vs0mg"},{"bike_id":"651c04c7-c2f3-4258-98c4-2abdeb471500","system_id":"levelo_inurba_marseille","lat":43.26551,"lon":5.37297,"is_reserved":false,"is_disabled":false,"rental_uris":{"android":"levelo://app?vid=651c04c7-c2f3-4258-98c4-2abdeb471500","ios":"levelo://app?vid=651c04c7-c2f3-4258-98c4-2abdeb471500"},"vehicle_type_id":"4","last_reported":1756328965,"current_range_meters":16000,"station_id":"ce4bhg12rcd13ifvqf70","pricing_plan_id":"cebpf4jnsgd1na2vs0mg"},{"bike_id":"7de71cf8-4671-43de-b8d1-f81ac5444912","system_id":"levelo_inurba_marseille","lat":43.29569,"lon":5.39985,"is_reserved":false,"is_disabled":false,"rental_uris":{"android":"levelo://app?vid=7de71cf8-4671-43de-b8d1-f81ac5444912","ios":"levelo://app?vid=7de71cf8-4671-43de-b8d1-f81ac5444912"},"vehicle_type_id":"4","last_reported":1756328965,"current_range_meters":16000,"station_id":"ce4bh312rcd13ifvqdj0","pricing_plan_id":"cebpf4jnsgd1na2vs0mg"},{"bike_id":"1d68eabd-6f99-4ed9-a0fb-dac800d52a6c","system_id":"levelo_inurba_marseille","lat":43.30772,"lon":5.37648,"is_reserved":false,"is_disabled":false,"rental_uris":{"android":"levelo://app?vid=1d68eabd-6f99-4ed9-a0fb-dac800d52a6c","ios":"levelo://app?vid=1d68eabd-6f99-4ed9-a0fb-dac800d52a6c"},"vehicle_type_id":"4","last_reported":1756328965,"current_range_meters":16400,"station_id":"ce4bgv92rcd13ifvqcq0","pricing_plan_id":"cebpf4jnsgd1na2vs0mg"},{"bike_id":"6dc5312e-2527-406a-a1ff-6edde987fab8","system_id":"levelo_inurba_marseille","lat":43.29955,"lon":5.41317,"is_reserved":false,"is_disabled":false,"rental_uris":{"android":"levelo://app?vid=6dc5312e-2527-406a-a1ff-6edde987fab8","ios":"levelo://app?vid=6dc5312e-2527-406a-a1ff-6edde987fab8"},"vehicle_type_id":"4","last_reported":1756328965,"current_range_meters":16000,"station_id":"ce4bhp12rcd13ifvqh9g","pricing_plan_id":"cebpf4jnsgd1na2vs0mg"},{"bike_id":"ffe6df59-3fc1-4d81-9326-f6f6418e7718","system_id":"levelo_inurba_marseille","lat":43.29802,"lon":5.37356,"is_reserved":false,"is_disabled":false,"rental_uris":{"android":"levelo://app?vid=ffe6df59-3fc1-4d81-9326-f6f6418e7718","ios":"levelo://app?vid=ffe6df59-3fc1-4d81-9326-f6f6418e7718"},"vehicle_type_id":"4","last_reported":1756328965,"current_range_meters":16400,"station_id":"","pricing_plan_id":"cebpf4jnsgd1na2vs0mg"},{"bike_id":"23ae6fed-deff-411b-8b6e-f95e32ccd4d0","system_id":"levelo_inurba_marseille","lat":43.32136,"lon":5.36784,"is_reserved":false,"is_disabled":false,"rental_uris":{"android":"levelo://app?vid=23ae6fed-deff-411b-8b6e-f95e32ccd4d0","ios":"levelo://app?vid=23ae6fed-deff-411b-8b6e-f95e32ccd4d0"},"vehicle_type_id":"4","last_reported":1756328965,"current_range_meters":16400,"station_id":"","pricing_plan_id":"cebpf4jnsgd1na2vs0mg"},{"bike_id":"c14fb5da-d39f-4de6-b9da-18278cd4e5a0","system_id":"levelo_inurba_marseille","lat":43.292763,"lon":5.368495,"is_reserved":false,"is_disabled":false,"rental_uris":{"android":"levelo://app?vid=c14fb5da-d39f-4de6-b9da-18278cd4e5a0","ios":"levelo://app?vid=c14fb5da-d39f-4de6-b9da-18278cd4e5a0"},"vehicle_type_id":"4","last_reported":1756328965,"current_range_meters":16400,"station_id":"ce4bhbp2rcd13ifvqesg","pricing_plan_id":"cebpf4jnsgd1na2vs0mg"},{"bike_id":"c4756bce-80c9-4f92-b20a-074359fdde01","system_id":"levelo_inurba_marseille","lat":43.29283,"lon":5.40131,"is_reserved":false,"is_disabled":false,"rental_uris":{"android":"levelo://app?vid=c4756bce-80c9-4f92-b20a-074359fdde01","ios":"levelo://app?vid=c4756bce-80c9-4f92-b20a-074359fdde01"},"vehicle_type_id":"4","last_reported":1756328965,"current_range_meters":16400,"station_id":"ce4bh312rcd13ifvqdk0","pricing_plan_id":"cebpf4jnsgd1na2vs0mg"},{"bike_id":"0793473c-7c91-4d1f-8ffb-c00486129b1d","system_id":"levelo_inurba_marseille","lat":43.30122,"lon":5.39089,"is_reserved":false,"is_disabled":true,"rental_uris":{"android":"levelo://app?vid=0793473c-7c91-4d1f-8ffb-c00486129b1d","ios":"levelo://app?vid=0793473c-7c91-4d1f-8ffb-c00486129b1d"},"vehicle_type_id":"4","last_reported":1756328965,"current_range_meters":16400,"station_id":"ce4bh192rcd13ifvqdb0","pricing_plan_id":"cebpf4jnsgd1na2vs0mg"},{"bike_id":"4fb56a22-f195-4095-890c-fc1b20656e5f","system_id":"levelo_inurba_marseille","lat":43.28726,"lon":5.3608,"is_reserved":false,"is_disabled":false,"rental_uris":{"android":"levelo://app?vid=4fb56a22-f195-4095-890c-fc1b20656e5f","ios":"levelo://app?vid=4fb56a22-f195-4095-890c-fc1b20656e5f"},"vehicle_type_id":"4","last_reported":1756328965,"current_range_meters":16800,"station_id":"cki0cbj6b192h4jlfktg","pricing_plan_id":"cebpf4jnsgd1na2vs0mg"},{"bike_id":"8df4d72a-2534-4225-b0d0-5b48bd4c7385","system_id":"levelo_inurba_marseille","lat":43.29456,"lon":5.39765,"is_reserved":false,"is_disabled":false,"rental_uris":{"android":"levelo://app?vid=8df4d72a-2534-4225-b0d0-5b48bd4c7385","ios":"levelo://app?vid=8df4d72a-2534-4225-b0d0-5b48bd4c7385"},"vehicle_type_id":"4","last_reported":1756328965,"current_range_meters":16800,"station_id":"ce4bh3h2rcd13ifvqdo0","pricing_plan_id":"cebpf4jnsgd1na2vs0mg"},{"bike_id":"9e491dab-9cb4-4b06-a794-7917114b8be5","system_id":"levelo_inurba_marseille","lat":43.292596,"lon":5.384435,"is_reserved":false,"is_disabled":false,"rental_uris":{"android":"levelo://app?vid=9e491dab-9cb4-4b06-a794-7917114b8be5","ios":"levelo://app?vid=9e491dab-9cb4-4b06-a794-7917114b8be5"},"vehicle_type_id":"4","last_reported":1756328965,"current_range_meters":16800,"station_id":"ce4bh692rcd13ifvqea0","pricing_plan_id":"cebpf4jnsgd1na2vs0mg"},{"bike_id":"722681a4-16bf-427f-a3c4-919fc679bf32","system_id":"levelo_inurba_marseille","lat":43.2955,"lon":5.38541,"is_reserved":false,"is_disabled":false,"rental_uris":{"android":"levelo://app?vid=722681a4-16bf-427f-a3c4-919fc679bf32","ios":"levelo://app?vid=722681a4-16bf-427f-a3c4-919fc679bf32"},"vehicle_type_id":"4","last_reported":1756328965,"current_range_meters":16800,"station_id":"ce4bgih2rcd13ifvqba0","pricing_plan_id":"cebpf4jnsgd1na2vs0mg"},{"bike_id":"05d97e45-19dc-4128-88fe-ffa6fa61464f","system_id":"levelo_inurba_marseille","lat":43.26223,"lon":5.37484,"is_reserved":false,"is_disabled":false,"rental_uris":{"android":"levelo://app?vid=05d97e45-19dc-4128-88fe-ffa6fa61464f","ios":"levelo://app?vid=05d97e45-19dc-4128-88fe-ffa6fa61464f"},"vehicle_type_id":"4","last_reported":1756328965,"current_range_meters":16800,"station_id":"ce4bhgp2rcd13ifvqfc0","pricing_plan_id":"cebpf4jnsgd1na2vs0mg"},{"bike_id":"01acadab-cadc-479f-8160-13b317197971","system_id":"levelo_inurba_marseille","lat":43.281,"lon":5.37866,"is_reserved":false,"is_disabled":false,"rental_uris":{"android":"levelo://app?vid=01acadab-cadc-479f-8160-13b317197971","ios":"levelo://app?vid=01acadab-cadc-479f-8160-13b317197971"},"vehicle_type_id":"4","last_reported":1756328965,"current_range_meters":16800,"station_id":"ce4bha12rcd13ifvqee0","pricing_plan_id":"cebpf4jnsgd1na2vs0mg"},{"bike_id":"ced3f615-eedf-48e0-9fe0-00500980c335","system_id":"levelo_inurba_marseille","lat":43.255,"lon":5.37651,"is_reserved":false,"is_disabled":false,"rental_uris":{"android":"levelo://app?vid=ced3f615-eedf-48e0-9fe0-00500980c335","ios":"levelo://app?vid=ced3f615-eedf-48e0-9fe0-00500980c335"},"vehicle_type_id":"4","last_reported":1756328965,"current_range_meters":16800,"station_id":"ce4bhh12rcd13ifvqff0","pricing_plan_id":"cebpf4jnsgd1na2vs0mg"},{"bike_id":"2ddde0e2-2088-418b-9262-4b0d6e96e416","system_id":"levelo_inurba_marseille","lat":43.2602,"lon":5.37561,"is_reserved":false,"is_disabled":false,"rental_uris":{"android":"levelo://app?vid=2ddde0e2-2088-418b-9262-4b0d6e96e416","ios":"levelo://app?vid=2ddde0e2-2088-418b-9262-4b0d6e96e416"},"vehicle_type_id":"4","last_reported":1756328965,"current_range_meters":17200,"station_id":"ce4bhgh2rcd13ifvqfa0","pricing_plan_id":"cebpf4jnsgd1na2vs0mg"},{"bike_id":"1091f287-02ee-4a66-888b-59c35fd65791","system_id":"levelo_inurba_marseille","lat":43.23186,"lon":5.35543,"is_reserved":false,"is_disabled":false,"rental_uris":{"android":"levelo://app?vid=1091f287-02ee-4a66-888b-59c35fd65791","ios":"levelo://app?vid=1091f287-02ee-4a66-888b-59c35fd65791"},"vehicle_type_id":"4","last_reported":1756328965,"current_range_meters":17200,"station_id":"ce4bhu92rcd13ifvqi70","pricing_plan_id":"cebpf4jnsgd1na2vs0mg"},{"bike_id":"131927a1-aedf-47d1-a070-2e9836467902","system_id":"levelo_inurba_marseille","lat":43.26029,"lon":5.37552,"is_reserved":false,"is_disabled":false,"rental_uris":{"android":"levelo://app?vid=131927a1-aedf-47d1-a070-2e9836467902","ios":"levelo://app?vid=131927a1-aedf-47d1-a070-2e9836467902"},"vehicle_type_id":"4","last_reported":1756328965,"current_range_meters":17200,"station_id":"ce4bhgh2rcd13ifvqfa0","pricing_plan_id":"cebpf4jnsgd1na2vs0mg"},{"bike_id":"ec0f9f0d-0796-42ac-9cf5-bb8596cdf342","system_id":"levelo_inurba_marseille","lat":43.21192,"lon":5.35078,"is_reserved":false,"is_disabled":false,"rental_uris":{"android":"levelo://app?vid=ec0f9f0d-0796-42ac-9cf5-bb8596cdf342","ios":"levelo://app?vid=ec0f9f0d-0796-42ac-9cf5-bb8596cdf342"},"vehicle_type_id":"4","last_reported":1756328965,"current_range_meters":17200,"station_id":"","pricing_plan_id":"cebpf4jnsgd1na2vs0mg"},{"bike_id":"ac6aaa20-6e63-469c-b48c-e5965ee2a708","system_id":"levelo_inurba_marseille","lat":43.26677,"lon":5.38267,"is_reserved":false,"is_disabled":false,"rental_uris":{"android":"levelo://app?vid=ac6aaa20-6e63-469c-b48c-e5965ee2a708","ios":"levelo://app?vid=ac6aaa20-6e63-469c-b48c-e5965ee2a708"},"vehicle_type_id":"4","last_reported":1756328965,"current_range_meters":17200,"station_id":"ce4bhg92rcd13ifvqf90","pricing_plan_id":"cebpf4jnsgd1na2vs0mg"},{"bike_id":"2c246624-962d-4f72-8341-3c6523db29ef","system_id":"levelo_inurba_marseille","lat":43.26553,"lon":5.37308,"is_reserved":false,"is_disabled":true,"rental_uris":{"android":"levelo://app?vid=2c246624-962d-4f72-8341-3c6523db29ef","ios":"levelo://app?vid=2c246624-962d-4f72-8341-3c6523db29ef"},"vehicle_type_id":"4","last_reported":1756328965,"current_range_meters":17200,"station_id":"ce4bhg12rcd13ifvqf70","pricing_plan_id":"cebpf4jnsgd1na2vs0mg"},{"bike_id":"5036e73b-6819-4721-a6b7-1c7ee8ee3c31","system_id":"levelo_inurba_marseille","lat":43.28657,"lon":5.36345,"is_reserved":false,"is_disabled":false,"rental_uris":{"android":"levelo://app?vid=5036e73b-6819-4721-a6b7-1c7ee8ee3c31","ios":"levelo://app?vid=5036e73b-6819-4721-a6b7-1c7ee8ee3c31"},"vehicle_type_id":"4","last_reported":1756328965,"current_range_meters":17200,"station_id":"ce4bhah2rcd13ifvqej0","pricing_plan_id":"cebpf4jnsgd1na2vs0mg"},{"bike_id":"b43d7a83-48eb-4bc3-814f-5aeaa6724e9a","system_id":"levelo_inurba_marseille","lat":43.29716,"lon":5.37721,"is_reserved":false,"is_disabled":false,"rental_uris":{"android":"levelo://app?vid=b43d7a83-48eb-4bc3-814f-5aeaa6724e9a","ios":"levelo://app?vid=b43d7a83-48eb-4bc3-814f-5aeaa6724e9a"},"vehicle_type_id":"4","last_reported":1756328965,"current_range_meters":17200,"station_id":"","pricing_plan_id":"cebpf4jnsgd1na2vs0mg"},{"bike_id":"7f96cfc7-6b62-4cd3-a164-5a1ee471a17d","system_id":"levelo_inurba_marseille","lat":43.30563,"lon":5.36524,"is_reserved":false,"is_disabled":false,"rental_uris":{"android":"levelo://app?vid=7f96cfc7-6b62-4cd3-a164-5a1ee471a17d","ios":"levelo://app?vid=7f96cfc7-6b62-4cd3-a164-5a1ee471a17d"},"vehicle_type_id":"4","last_reported":1756328965,"current_range_meters":17200,"station_id":"ce4bgs12rcd13ifvqcag","pricing_plan_id":"cebpf4jnsgd1na2vs0mg"},{"bike_id":"01f92d06-2c11-49e0-8fbd-c3d3e9fed8bb","system_id":"levelo_inurba_marseille","lat":43.2619,"lon":5.37454,"is_reserved":false,"is_disabled":false,"rental_uris":{"android":"levelo://app?vid=01f92d06-2c11-49e0-8fbd-c3d3e9fed8bb","ios":"levelo://app?vid=01f92d06-2c11-49e0-8fbd-c3d3e9fed8bb"},"vehicle_type_id":"4","last_reported":1756328965,"current_range_meters":17200,"station_id":"ce4bhgp2rcd13ifvqfc0","pricing_plan_id":"cebpf4jnsgd1na2vs0mg"},{"bike_id":"dc5c52e4-dda7-4e95-a8a1-40d18f8670b8","system_id":"levelo_inurba_marseille","lat":43.26552,"lon":5.37287,"is_reserved":false,"is_disabled":false,"rental_uris":{"android":"levelo://app?vid=dc5c52e4-dda7-4e95-a8a1-40d18f8670b8","ios":"levelo://app?vid=dc5c52e4-dda7-4e95-a8a1-40d18f8670b8"},"vehicle_type_id":"4","last_reported":1756328965,"current_range_meters":17200,"station_id":"ce4bhg12rcd13ifvqf70","pricing_plan_id":"cebpf4jnsgd1na2vs0mg"},{"bike_id":"8ee7b6b9-a950-440c-b4c9-fb0ea9087b86","system_id":"levelo_inurba_marseille","lat":43.29586,"lon":5.375227,"is_reserved":false,"is_disabled":false,"rental_uris":{"android":"levelo://app?vid=8ee7b6b9-a950-440c-b4c9-fb0ea9087b86","ios":"levelo://app?vid=8ee7b6b9-a950-440c-b4c9-fb0ea9087b86"},"vehicle_type_id":"4","last_reported":1756328965,"current_range_meters":17600,"station_id":"","pricing_plan_id":"cebpf4jnsgd1na2vs0mg"},{"bike_id":"aa59176d-81c7-472e-ba6c-17dbaef848e8","system_id":"levelo_inurba_marseille","lat":43.26684,"lon":5.3827,"is_reserved":false,"is_disabled":false,"rental_uris":{"android":"levelo://app?vid=aa59176d-81c7-472e-ba6c-17dbaef848e8","ios":"levelo://app?vid=aa59176d-81c7-472e-ba6c-17dbaef848e8"},"vehicle_type_id":"4","last_reported":1756328965,"current_range_meters":17600,"station_id":"ce4bhg92rcd13ifvqf90","pricing_plan_id":"cebpf4jnsgd1na2vs0mg"},{"bike_id":"90b81f7d-43ce-436e-b752-56dd29d0bf26","system_id":"levelo_inurba_marseille","lat":43.32538,"lon":5.41429,"is_reserved":false,"is_disabled":false,"rental_uris":{"android":"levelo://app?vid=90b81f7d-43ce-436e-b752-56dd29d0bf26","ios":"levelo://app?vid=90b81f7d-43ce-436e-b752-56dd29d0bf26"},"vehicle_type_id":"4","last_reported":1756328965,"current_range_meters":17600,"station_id":"ce4bhq12rcd13ifvqhhg","pricing_plan_id":"cebpf4jnsgd1na2vs0mg"},{"bike_id":"cc298adb-65f8-42d8-b512-00adb392bbad","system_id":"levelo_inurba_marseille","lat":43.24076,"lon":5.37756,"is_reserved":false,"is_disabled":false,"rental_uris":{"android":"levelo://app?vid=cc298adb-65f8-42d8-b512-00adb392bbad","ios":"levelo://app?vid=cc298adb-65f8-42d8-b512-00adb392bbad"},"vehicle_type_id":"4","last_reported":1756328965,"current_range_meters":17200,"station_id":"ce4bhnp2rcd13ifvqgvg","pricing_plan_id":"cebpf4jnsgd1na2vs0mg"},{"bike_id":"e1a43927-87d5-46ea-a77e-4a61db905a2b","system_id":"levelo_inurba_marseille","lat":43.23183,"lon":5.35562,"is_reserved":false,"is_disabled":false,"rental_uris":{"android":"levelo://app?vid=e1a43927-87d5-46ea-a77e-4a61db905a2b","ios":"levelo://app?vid=e1a43927-87d5-46ea-a77e-4a61db905a2b"},"vehicle_type_id":"4","last_reported":1756328965,"current_range_meters":17600,"station_id":"ce4bhu92rcd13ifvqi70","pricing_plan_id":"cebpf4jnsgd1na2vs0mg"},{"bike_id":"0758c3bd-dff8-4f81-815f-065ac2e80fcf","system_id":"levelo_inurba_marseille","lat":43.26679,"lon":5.38268,"is_reserved":false,"is_disabled":false,"rental_uris":{"android":"levelo://app?vid=0758c3bd-dff8-4f81-815f-065ac2e80fcf","ios":"levelo://app?vid=0758c3bd-dff8-4f81-815f-065ac2e80fcf"},"vehicle_type_id":"4","last_reported":1756328965,"current_range_meters":17600,"station_id":"ce4bhg92rcd13ifvqf90","pricing_plan_id":"cebpf4jnsgd1na2vs0mg"},{"bike_id":"c631d042-9203-4766-b2b5-a89949c9b73a","system_id":"levelo_inurba_marseille","lat":43.31125,"lon":5.37777,"is_reserved":false,"is_disabled":false,"rental_uris":{"android":"levelo://app?vid=c631d042-9203-4766-b2b5-a89949c9b73a","ios":"levelo://app?vid=c631d042-9203-4766-b2b5-a89949c9b73a"},"vehicle_type_id":"4","last_reported":1756328965,"current_range_meters":17600,"station_id":"ce4bgt92rcd13ifvqcg0","pricing_plan_id":"cebpf4jnsgd1na2vs0mg"},{"bike_id":"831a2354-0919-4530-8e5a-84c32dcc2c03","system_id":"levelo_inurba_marseille","lat":43.272052,"lon":5.391826,"is_reserved":false,"is_disabled":false,"rental_uris":{"android":"levelo://app?vid=831a2354-0919-4530-8e5a-84c32dcc2c03","ios":"levelo://app?vid=831a2354-0919-4530-8e5a-84c32dcc2c03"},"vehicle_type_id":"4","last_reported":1756328965,"current_range_meters":17600,"station_id":"","pricing_plan_id":"cebpf4jnsgd1na2vs0mg"},{"bike_id":"a08b95ab-5589-4c9e-b9eb-7db5abb7e2a4","system_id":"levelo_inurba_marseille","lat":43.28657,"lon":5.36365,"is_reserved":false,"is_disabled":false,"rental_uris":{"android":"levelo://app?vid=a08b95ab-5589-4c9e-b9eb-7db5abb7e2a4","ios":"levelo://app?vid=a08b95ab-5589-4c9e-b9eb-7db5abb7e2a4"},"vehicle_type_id":"4","last_reported":1756328965,"current_range_meters":17600,"station_id":"ce4bhah2rcd13ifvqej0","pricing_plan_id":"cebpf4jnsgd1na2vs0mg"},{"bike_id":"731ff345-1377-45e9-acf9-0825f15b172a","system_id":"levelo_inurba_marseille","lat":43.2291,"lon":5.35374,"is_reserved":false,"is_disabled":false,"rental_uris":{"android":"levelo://app?vid=731ff345-1377-45e9-acf9-0825f15b172a","ios":"levelo://app?vid=731ff345-1377-45e9-acf9-0825f15b172a"},"vehicle_type_id":"4","last_reported":1756328965,"current_range_meters":18000,"station_id":"cpo3532slgdg3j2ikp40","pricing_plan_id":"cebpf4jnsgd1na2vs0mg"},{"bike_id":"9a7edf6e-5f68-421e-a102-2ef5b337d341","system_id":"levelo_inurba_marseille","lat":43.27929,"lon":5.41052,"is_reserved":false,"is_disabled":true,"rental_uris":{"android":"levelo://app?vid=9a7edf6e-5f68-421e-a102-2ef5b337d341","ios":"levelo://app?vid=9a7edf6e-5f68-421e-a102-2ef5b337d341"},"vehicle_type_id":"4","last_reported":1756328965,"current_range_meters":18000,"station_id":"ce4bhnp2rcd13ifvqh0g","pricing_plan_id":"cebpf4jnsgd1na2vs0mg"},{"bike_id":"00865bff-72de-47be-acda-9cf6ec16a836","system_id":"levelo_inurba_marseille","lat":43.321021,"lon":5.367745,"is_reserved":false,"is_disabled":false,"rental_uris":{"android":"levelo://app?vid=00865bff-72de-47be-acda-9cf6ec16a836","ios":"levelo://app?vid=00865bff-72de-47be-acda-9cf6ec16a836"},"vehicle_type_id":"4","last_reported":1756328965,"current_range_meters":18000,"station_id":"ce4bhrh2rcd13ifvqhug","pricing_plan_id":"cebpf4jnsgd1na2vs0mg"},{"bike_id":"07296681-3400-48d5-88e2-c863a00e5bf3","system_id":"levelo_inurba_marseille","lat":43.22914,"lon":5.35382,"is_reserved":false,"is_disabled":false,"rental_uris":{"android":"levelo://app?vid=07296681-3400-48d5-88e2-c863a00e5bf3","ios":"levelo://app?vid=07296681-3400-48d5-88e2-c863a00e5bf3"},"vehicle_type_id":"4","last_reported":1756328965,"current_range_meters":18000,"station_id":"cpo3532slgdg3j2ikp40","pricing_plan_id":"cebpf4jnsgd1na2vs0mg"},{"bike_id":"98197b30-d626-498f-a605-b5bfc4ac7cdd","system_id":"levelo_inurba_marseille","lat":43.29554,"lon":5.42288,"is_reserved":false,"is_disabled":false,"rental_uris":{"android":"levelo://app?vid=98197b30-d626-498f-a605-b5bfc4ac7cdd","ios":"levelo://app?vid=98197b30-d626-498f-a605-b5bfc4ac7cdd"},"vehicle_type_id":"4","last_reported":1756328965,"current_range_meters":17600,"station_id":"ce4bhph2rcd13ifvqhdg","pricing_plan_id":"cebpf4jnsgd1na2vs0mg"},{"bike_id":"29c55d68-58c5-4ef2-b442-72bb9c55ddb0","system_id":"levelo_inurba_marseille","lat":43.323581,"lon":5.367397,"is_reserved":false,"is_disabled":false,"rental_uris":{"android":"levelo://app?vid=29c55d68-58c5-4ef2-b442-72bb9c55ddb0","ios":"levelo://app?vid=29c55d68-58c5-4ef2-b442-72bb9c55ddb0"},"vehicle_type_id":"4","last_reported":1756328965,"current_range_meters":18000,"station_id":"ce4bhsh2rcd13ifvqi2g","pricing_plan_id":"cebpf4jnsgd1na2vs0mg"},{"bike_id":"274284da-3f38-43b7-a77a-dcf23294e30d","system_id":"levelo_inurba_marseille","lat":43.28651,"lon":5.36359,"is_reserved":false,"is_disabled":false,"rental_uris":{"android":"levelo://app?vid=274284da-3f38-43b7-a77a-dcf23294e30d","ios":"levelo://app?vid=274284da-3f38-43b7-a77a-dcf23294e30d"},"vehicle_type_id":"4","last_reported":1756328965,"current_range_meters":18800,"station_id":"ce4bhah2rcd13ifvqej0","pricing_plan_id":"cebpf4jnsgd1na2vs0mg"},{"bike_id":"e6caca03-e4c1-40ce-9f4e-cc5046f7af92","system_id":"levelo_inurba_marseille","lat":43.31988,"lon":5.38147,"is_reserved":false,"is_disabled":false,"rental_uris":{"android":"levelo://app?vid=e6caca03-e4c1-40ce-9f4e-cc5046f7af92","ios":"levelo://app?vid=e6caca03-e4c1-40ce-9f4e-cc5046f7af92"},"vehicle_type_id":"4","last_reported":1756328965,"current_range_meters":18800,"station_id":"ce4bhr12rcd13ifvqhpg","pricing_plan_id":"cebpf4jnsgd1na2vs0mg"},{"bike_id":"43fb1eda-8f7d-4377-9b57-f38a0ecb5909","system_id":"levelo_inurba_marseille","lat":43.26208,"lon":5.37451,"is_reserved":false,"is_disabled":false,"rental_uris":{"android":"levelo://app?vid=43fb1eda-8f7d-4377-9b57-f38a0ecb5909","ios":"levelo://app?vid=43fb1eda-8f7d-4377-9b57-f38a0ecb5909"},"vehicle_type_id":"4","last_reported":1756328965,"current_range_meters":18800,"station_id":"ce4bhgp2rcd13ifvqfc0","pricing_plan_id":"cebpf4jnsgd1na2vs0mg"},{"bike_id":"d357b9b6-f49b-42ff-a289-796c73e20433","system_id":"levelo_inurba_marseille","lat":43.29793,"lon":5.39341,"is_reserved":false,"is_disabled":false,"rental_uris":{"android":"levelo://app?vid=d357b9b6-f49b-42ff-a289-796c73e20433","ios":"levelo://app?vid=d357b9b6-f49b-42ff-a289-796c73e20433"},"vehicle_type_id":"4","last_reported":1756328965,"current_range_meters":10800,"station_id":"chh1huq6cuj3fo74tm60","pricing_plan_id":"cebpf4jnsgd1na2vs0mg"},{"bike_id":"44c3e0a1-f0f1-44e3-8ad0-3a65a48f5329","system_id":"levelo_inurba_marseille","lat":43.285651,"lon":5.395024,"is_reserved":false,"is_disabled":false,"rental_uris":{"android":"levelo://app?vid=44c3e0a1-f0f1-44e3-8ad0-3a65a48f5329","ios":"levelo://app?vid=44c3e0a1-f0f1-44e3-8ad0-3a65a48f5329"},"vehicle_type_id":"4","last_reported":1756328965,"current_range_meters":18800,"station_id":"ce4bh292rcd13ifvqdg0","pricing_plan_id":"cebpf4jnsgd1na2vs0mg"},{"bike_id":"086fb8bd-6d0b-46ba-bd91-901ac277021b","system_id":"levelo_inurba_marseille","lat":43.269705,"lon":5.390362,"is_reserved":false,"is_disabled":false,"rental_uris":{"android":"levelo://app?vid=086fb8bd-6d0b-46ba-bd91-901ac277021b","ios":"levelo://app?vid=086fb8bd-6d0b-46ba-bd91-901ac277021b"},"vehicle_type_id":"4","last_reported":1756328965,"current_range_meters":18800,"station_id":"","pricing_plan_id":"cebpf4jnsgd1na2vs0mg"},{"bike_id":"fad509bb-f53b-44b6-a94f-044ddb828f7d","system_id":"levelo_inurba_marseille","lat":43.27064,"lon":5.40258,"is_reserved":false,"is_disabled":true,"rental_uris":{"android":"levelo://app?vid=fad509bb-f53b-44b6-a94f-044ddb828f7d","ios":"levelo://app?vid=fad509bb-f53b-44b6-a94f-044ddb828f7d"},"vehicle_type_id":"4","last_reported":1756328965,"current_range_meters":18800,"station_id":"cjm6bp8fraef2m0cb0m0","pricing_plan_id":"cebpf4jnsgd1na2vs0mg"},{"bike_id":"b19c285f-8a2a-47f8-8487-d4da1a0cbc17","system_id":"levelo_inurba_marseille","lat":43.28903,"lon":5.35773,"is_reserved":false,"is_disabled":false,"rental_uris":{"android":"levelo://app?vid=b19c285f-8a2a-47f8-8487-d4da1a0cbc17","ios":"levelo://app?vid=b19c285f-8a2a-47f8-8487-d4da1a0cbc17"},"vehicle_type_id":"4","last_reported":1756328965,"current_range_meters":18800,"station_id":"","pricing_plan_id":"cebpf4jnsgd1na2vs0mg"},{"bike_id":"e020bb26-72fe-4606-9a06-662456e18dda","system_id":"levelo_inurba_marseille","lat":43.29448,"lon":5.39752,"is_reserved":false,"is_disabled":false,"rental_uris":{"android":"levelo://app?vid=e020bb26-72fe-4606-9a06-662456e18dda","ios":"levelo://app?vid=e020bb26-72fe-4606-9a06-662456e18dda"},"vehicle_type_id":"4","last_reported":1756328965,"current_range_meters":18800,"station_id":"ce4bh3h2rcd13ifvqdo0","pricing_plan_id":"cebpf4jnsgd1na2vs0mg"},{"bike_id":"6c8ac04a-e56c-4d85-a710-b520bd1529e7","system_id":"levelo_inurba_marseille","lat":43.29265,"lon":5.36842,"is_reserved":false,"is_disabled":false,"rental_uris":{"android":"levelo://app?vid=6c8ac04a-e56c-4d85-a710-b520bd1529e7","ios":"levelo://app?vid=6c8ac04a-e56c-4d85-a710-b520bd1529e7"},"vehicle_type_id":"4","last_reported":1756328965,"current_range_meters":18800,"station_id":"ce4bhbp2rcd13ifvqesg","pricing_plan_id":"cebpf4jnsgd1na2vs0mg"},{"bike_id":"66dc086e-467e-4a61-9c45-5552aca059b2","system_id":"levelo_inurba_marseille","lat":43.25495,"lon":5.37652,"is_reserved":false,"is_disabled":false,"rental_uris":{"android":"levelo://app?vid=66dc086e-467e-4a61-9c45-5552aca059b2","ios":"levelo://app?vid=66dc086e-467e-4a61-9c45-5552aca059b2"},"vehicle_type_id":"4","last_reported":1756328965,"current_range_meters":18800,"station_id":"ce4bhh12rcd13ifvqff0","pricing_plan_id":"cebpf4jnsgd1na2vs0mg"},{"bike_id":"68bd38cb-27be-42e5-a7b5-8bc9ff0d75d2","system_id":"levelo_inurba_marseille","lat":43.29265,"lon":5.38451,"is_reserved":false,"is_disabled":false,"rental_uris":{"android":"levelo://app?vid=68bd38cb-27be-42e5-a7b5-8bc9ff0d75d2","ios":"levelo://app?vid=68bd38cb-27be-42e5-a7b5-8bc9ff0d75d2"},"vehicle_type_id":"4","last_reported":1756328965,"current_range_meters":18800,"station_id":"ce4bh692rcd13ifvqea0","pricing_plan_id":"cebpf4jnsgd1na2vs0mg"},{"bike_id":"7ddcc85e-68da-4578-99ec-4ec12ba61975","system_id":"levelo_inurba_marseille","lat":43.31324,"lon":5.39697,"is_reserved":false,"is_disabled":false,"rental_uris":{"android":"levelo://app?vid=7ddcc85e-68da-4578-99ec-4ec12ba61975","ios":"levelo://app?vid=7ddcc85e-68da-4578-99ec-4ec12ba61975"},"vehicle_type_id":"4","last_reported":1756328965,"current_range_meters":18800,"station_id":"ce4bgvp2rcd13ifvqcu0","pricing_plan_id":"cebpf4jnsgd1na2vs0mg"},{"bike_id":"690db01c-2a92-49d6-b978-406b2c7ea68d","system_id":"levelo_inurba_marseille","lat":43.29226,"lon":5.36074,"is_reserved":false,"is_disabled":false,"rental_uris":{"android":"levelo://app?vid=690db01c-2a92-49d6-b978-406b2c7ea68d","ios":"levelo://app?vid=690db01c-2a92-49d6-b978-406b2c7ea68d"},"vehicle_type_id":"4","last_reported":1756328965,"current_range_meters":18800,"station_id":"ce4bhbh2rcd13ifvqeqg","pricing_plan_id":"cebpf4jnsgd1na2vs0mg"},{"bike_id":"e53de3d6-6713-45f4-a0e6-64e989b7ac49","system_id":"levelo_inurba_marseille","lat":43.30797,"lon":5.3816,"is_reserved":false,"is_disabled":false,"rental_uris":{"android":"levelo://app?vid=e53de3d6-6713-45f4-a0e6-64e989b7ac49","ios":"levelo://app?vid=e53de3d6-6713-45f4-a0e6-64e989b7ac49"},"vehicle_type_id":"4","last_reported":1756328965,"current_range_meters":18800,"station_id":"ce4bgt12rcd13ifvqce0","pricing_plan_id":"cebpf4jnsgd1na2vs0mg"},{"bike_id":"d4411ce1-1269-4134-adda-1eb61c16980f","system_id":"levelo_inurba_marseille","lat":43.28092,"lon":5.37834,"is_reserved":false,"is_disabled":true,"rental_uris":{"android":"levelo://app?vid=d4411ce1-1269-4134-adda-1eb61c16980f","ios":"levelo://app?vid=d4411ce1-1269-4134-adda-1eb61c16980f"},"vehicle_type_id":"4","last_reported":1756328965,"current_range_meters":19200,"station_id":"ce4bha12rcd13ifvqee0","pricing_plan_id":"cebpf4jnsgd1na2vs0mg"},{"bike_id":"c914a072-ed71-4fc5-80f3-57d1e0459370","system_id":"levelo_inurba_marseille","lat":43.26546,"lon":5.37294,"is_reserved":false,"is_disabled":false,"rental_uris":{"android":"levelo://app?vid=c914a072-ed71-4fc5-80f3-57d1e0459370","ios":"levelo://app?vid=c914a072-ed71-4fc5-80f3-57d1e0459370"},"vehicle_type_id":"4","last_reported":1756328965,"current_range_meters":19200,"station_id":"ce4bhg12rcd13ifvqf70","pricing_plan_id":"cebpf4jnsgd1na2vs0mg"},{"bike_id":"03943ca0-30f8-42da-985d-0b11d13867d6","system_id":"levelo_inurba_marseille","lat":43.31362,"lon":5.38493,"is_reserved":false,"is_disabled":false,"rental_uris":{"android":"levelo://app?vid=03943ca0-30f8-42da-985d-0b11d13867d6","ios":"levelo://app?vid=03943ca0-30f8-42da-985d-0b11d13867d6"},"vehicle_type_id":"4","last_reported":1756328965,"current_range_meters":19200,"station_id":"ce4bgt92rcd13ifvqcf0","pricing_plan_id":"cebpf4jnsgd1na2vs0mg"},{"bike_id":"822b56cc-ff88-43cc-aca0-11e993bd09e3","system_id":"levelo_inurba_marseille","lat":43.30644,"lon":5.40097,"is_reserved":false,"is_disabled":false,"rental_uris":{"android":"levelo://app?vid=822b56cc-ff88-43cc-aca0-11e993bd09e3","ios":"levelo://app?vid=822b56cc-ff88-43cc-aca0-11e993bd09e3"},"vehicle_type_id":"4","last_reported":1756328965,"current_range_meters":19200,"station_id":"ce4bh112rcd13ifvqda0","pricing_plan_id":"cebpf4jnsgd1na2vs0mg"},{"bike_id":"2bb3409c-5e24-4523-b8ab-ef5b72a80c54","system_id":"levelo_inurba_marseille","lat":43.258695,"lon":5.398963,"is_reserved":false,"is_disabled":false,"rental_uris":{"android":"levelo://app?vid=2bb3409c-5e24-4523-b8ab-ef5b72a80c54","ios":"levelo://app?vid=2bb3409c-5e24-4523-b8ab-ef5b72a80c54"},"vehicle_type_id":"4","last_reported":1756328965,"current_range_meters":18800,"station_id":"ce4bhl92rcd13ifvqghg","pricing_plan_id":"cebpf4jnsgd1na2vs0mg"},{"bike_id":"db886a6e-1dd7-4ad6-80af-762275a5c8b0","system_id":"levelo_inurba_marseille","lat":43.27947,"lon":5.41039,"is_reserved":false,"is_disabled":false,"rental_uris":{"android":"levelo://app?vid=db886a6e-1dd7-4ad6-80af-762275a5c8b0","ios":"levelo://app?vid=db886a6e-1dd7-4ad6-80af-762275a5c8b0"},"vehicle_type_id":"4","last_reported":1756328965,"current_range_meters":19200,"station_id":"ce4bhnp2rcd13ifvqh0g","pricing_plan_id":"cebpf4jnsgd1na2vs0mg"},{"bike_id":"c5f85db3-e033-4ff1-b92c-d8828a669e75","system_id":"levelo_inurba_marseille","lat":43.30456,"lon":5.38907,"is_reserved":false,"is_disabled":false,"rental_uris":{"android":"levelo://app?vid=c5f85db3-e033-4ff1-b92c-d8828a669e75","ios":"levelo://app?vid=c5f85db3-e033-4ff1-b92c-d8828a669e75"},"vehicle_type_id":"4","last_reported":1756328965,"current_range_meters":19200,"station_id":"ce4bgk12rcd13ifvqbi0","pricing_plan_id":"cebpf4jnsgd1na2vs0mg"},{"bike_id":"b28e2a80-e4fc-4f58-b70b-3547a76f9860","system_id":"levelo_inurba_marseille","lat":43.29455,"lon":5.39746,"is_reserved":false,"is_disabled":false,"rental_uris":{"android":"levelo://app?vid=b28e2a80-e4fc-4f58-b70b-3547a76f9860","ios":"levelo://app?vid=b28e2a80-e4fc-4f58-b70b-3547a76f9860"},"vehicle_type_id":"4","last_reported":1756328965,"current_range_meters":19200,"station_id":"ce4bh3h2rcd13ifvqdo0","pricing_plan_id":"cebpf4jnsgd1na2vs0mg"},{"bike_id":"7b1b67ce-ec3a-4306-99ef-9044c3533e21","system_id":"levelo_inurba_marseille","lat":43.23153,"lon":5.43707,"is_reserved":false,"is_disabled":false,"rental_uris":{"android":"levelo://app?vid=7b1b67ce-ec3a-4306-99ef-9044c3533e21","ios":"levelo://app?vid=7b1b67ce-ec3a-4306-99ef-9044c3533e21"},"vehicle_type_id":"4","last_reported":1756328965,"current_range_meters":19200,"station_id":"ce4bhmp2rcd13ifvqgog","pricing_plan_id":"cebpf4jnsgd1na2vs0mg"},{"bike_id":"4db00c46-fd2c-4f92-af00-732ea18acab4","system_id":"levelo_inurba_marseille","lat":43.28103,"lon":5.378398,"is_reserved":false,"is_disabled":false,"rental_uris":{"android":"levelo://app?vid=4db00c46-fd2c-4f92-af00-732ea18acab4","ios":"levelo://app?vid=4db00c46-fd2c-4f92-af00-732ea18acab4"},"vehicle_type_id":"4","last_reported":1756328965,"current_range_meters":19200,"station_id":"ce4bha12rcd13ifvqee0","pricing_plan_id":"cebpf4jnsgd1na2vs0mg"},{"bike_id":"5434f6f1-34e3-4747-a824-ceabc425a71b","system_id":"levelo_inurba_marseille","lat":43.29843,"lon":5.36311,"is_reserved":false,"is_disabled":false,"rental_uris":{"android":"levelo://app?vid=5434f6f1-34e3-4747-a824-ceabc425a71b","ios":"levelo://app?vid=5434f6f1-34e3-4747-a824-ceabc425a71b"},"vehicle_type_id":"4","last_reported":1756328965,"current_range_meters":19200,"station_id":"ce4bgpp2rcd13ifvqc3g","pricing_plan_id":"cebpf4jnsgd1na2vs0mg"},{"bike_id":"e668f5fc-25cf-4272-bad2-0362faba18fe","system_id":"levelo_inurba_marseille","lat":43.30597,"lon":5.39349,"is_reserved":false,"is_disabled":false,"rental_uris":{"android":"levelo://app?vid=e668f5fc-25cf-4272-bad2-0362faba18fe","ios":"levelo://app?vid=e668f5fc-25cf-4272-bad2-0362faba18fe"},"vehicle_type_id":"4","last_reported":1756328965,"current_range_meters":19200,"station_id":"ce4bh0p2rcd13ifvqd80","pricing_plan_id":"cebpf4jnsgd1na2vs0mg"},{"bike_id":"6d9ac2af-014d-4305-9984-ef7c233b83da","system_id":"levelo_inurba_marseille","lat":43.32071,"lon":5.41543,"is_reserved":false,"is_disabled":false,"rental_uris":{"android":"levelo://app?vid=6d9ac2af-014d-4305-9984-ef7c233b83da","ios":"levelo://app?vid=6d9ac2af-014d-4305-9984-ef7c233b83da"},"vehicle_type_id":"4","last_reported":1756328965,"current_range_meters":19200,"station_id":"ce4bhq92rcd13ifvqhkg","pricing_plan_id":"cebpf4jnsgd1na2vs0mg"},{"bike_id":"fae7cfc9-f9be-4ee7-ab52-0268df1ee929","system_id":"levelo_inurba_marseille","lat":43.26199,"lon":5.37459,"is_reserved":false,"is_disabled":false,"rental_uris":{"android":"levelo://app?vid=fae7cfc9-f9be-4ee7-ab52-0268df1ee929","ios":"levelo://app?vid=fae7cfc9-f9be-4ee7-ab52-0268df1ee929"},"vehicle_type_id":"4","last_reported":1756328965,"current_range_meters":19200,"station_id":"ce4bhgp2rcd13ifvqfc0","pricing_plan_id":"cebpf4jnsgd1na2vs0mg"},{"bike_id":"69b4ff08-bcc7-439d-919d-ecacd6d9051a","system_id":"levelo_inurba_marseille","lat":43.281635,"lon":5.426406,"is_reserved":false,"is_disabled":false,"rental_uris":{"android":"levelo://app?vid=69b4ff08-bcc7-439d-919d-ecacd6d9051a","ios":"levelo://app?vid=69b4ff08-bcc7-439d-919d-ecacd6d9051a"},"vehicle_type_id":"4","last_reported":1756328965,"current_range_meters":19200,"station_id":"","pricing_plan_id":"cebpf4jnsgd1na2vs0mg"},{"bike_id":"ee3b6f93-aeb5-4b55-a252-b7fe28955d3a","system_id":"levelo_inurba_marseille","lat":43.29567,"lon":5.39981,"is_reserved":false,"is_disabled":false,"rental_uris":{"android":"levelo://app?vid=ee3b6f93-aeb5-4b55-a252-b7fe28955d3a","ios":"levelo://app?vid=ee3b6f93-aeb5-4b55-a252-b7fe28955d3a"},"vehicle_type_id":"4","last_reported":1756328965,"current_range_meters":19600,"station_id":"ce4bh312rcd13ifvqdj0","pricing_plan_id":"cebpf4jnsgd1na2vs0mg"},{"bike_id":"4fbce97f-acb9-4c6a-8eb5-11735db2ebfe","system_id":"levelo_inurba_marseille","lat":43.28226,"lon":5.39052,"is_reserved":false,"is_disabled":false,"rental_uris":{"android":"levelo://app?vid=4fbce97f-acb9-4c6a-8eb5-11735db2ebfe","ios":"levelo://app?vid=4fbce97f-acb9-4c6a-8eb5-11735db2ebfe"},"vehicle_type_id":"4","last_reported":1756328965,"current_range_meters":19600,"station_id":"ce4bhn92rcd13ifvqgsg","pricing_plan_id":"cebpf4jnsgd1na2vs0mg"},