{"last_updated":1724782283,"ttl":30,"version":"2.2","data":{"bikes":[{"bike_id":"5edab5f3-bebb-4164-830b-2f37a1c27d11","system_id":"levelo_inurba_marseille","lat":43.312239,"lon":5.368562,"is_reserved":false,"is_disabled":false,"rental_uris":{"android":"levelo://app?vid=5edab5f3-bebb-4164-830b-2f37a1c27d11","ios":"levelo://app?vid=5edab5f3-bebb-4164-830b-2f37a1c27d11"},"vehicle_type_id":"4","last_reported":1724782283,"current_range_meters":10000,"station_id":"ce4bgl92rcd13ifvqbq0","pricing_plan_id":"cebpf4jnsgd1na2vs0mg"},{"bike_id":"20dbf5d2-1bc6-40a0-872d-b4d58af9c2e5","system_id":"levelo_inurba_marseille","lat":43.309034,"lon":5.371783,"is_reserved":false,"is_disabled":false,"rental_uris":{"android":"levelo://app?vid=20dbf5d2-1bc6-40a0-872d-b4d58af9c2e5","ios":"levelo://app?vid=20dbf5d2-1bc6-40a0-872d-b4d58af9c2e5"},"vehicle_type_id":"4","last_reported":1724782283,"current_range_meters":4800,"station_id":"ce4bguh2rcd13ifvqckg","pricing_plan_id":"cebpf4jnsgd1na2vs0mg"},{"bike_id":"146c4a50-38ab-4d46-b784-7800d3365997","system_id":"levelo_inurba_marseille","lat":43.309039,"lon":5.371797,"is_reserved":false,"is_disabled":false,"rental_uris":{"android":"levelo://app?vid=146c4a50-38ab-4d46-b784-7800d3365997","ios":"levelo://app?vid=146c4a50-38ab-4d46-b784-7800d3365997"},"vehicle_type_id":"4","last_reported":1724782283,"current_range_meters":29600,"station_id":"ce4bguh2rcd13ifvqckg","pricing_plan_id":"cebpf4jnsgd1na2vs0mg"},{"bike_id":"5f0b9d92-72db-4fbe-887c-7733c48a8a33","system_id":"levelo_inurba_marseille","lat":43.31456,"lon":5.374,"is_reserved":false,"is_disabled":false,"rental_uris":{"android":"levelo://app?vid=5f0b9d92-72db-4fbe-887c-7733c48a8a33","ios":"levelo://app?vid=5f0b9d92-72db-4fbe-887c-7733c48a8a33"},"vehicle_type_id":"4","last_reported":1724782283,"current_range_meters":0,"station_id":"","pricing_plan_id":"cebpf4jnsgd1na2vs0mg"},{"bike_id":"89b84505-d28e-4be5-bb42-b9ce2e4710d5","system_id":"levelo_inurba_marseille","lat":43.305712,"lon":5.365641,"is_reserved":false,"is_disabled":false,"rental_uris":{"android":"levelo://app?vid=89b84505-d28e-4be5-bb42-b9ce2e4710d5","ios":"levelo://app?vid=89b84505-d28e-4be5-bb42-b9ce2e4710d5"},"vehicle_type_id":"4","last_reported":1724782283,"current_range_meters":23200,"station_id":"ce4bgs12rcd13ifvqcag","pricing_plan_id":"cebpf4jnsgd1na2vs0mg"},{"bike_id":"12f13877-dfee-4303-8db6-5d100a6811d2","system_id":"levelo_inurba_marseille","lat":43.30551,"lon":5.365563,"is_reserved":false,"is_disabled":false,"rental_uris":{"android":"levelo://app?vid=12f13877-dfee-4303-8db6-5d100a6811d2","ios":"levelo://app?vid=12f13877-dfee-4303-8db6-5d100a6811d2"},"vehicle_type_id":"4","last_reported":1724782283,"current_range_meters":0,"station_id":"ce4bgs12rcd13ifvqcag","pricing_plan_id":"cebpf4jnsgd1na2vs0mg"},{"bike_id":"5e76f0d3-e73c-43b6-82a3-cf77617b1265","system_id":"levelo_inurba_marseille","lat":43.30543,"lon":5.36705,"is_reserved":false,"is_disabled":false,"rental_uris":{"android":"levelo://app?vid=5e76f0d3-e73c-43b6-82a3-cf77617b1265","ios":"levelo://app?vid=5e76f0d3-e73c-43b6-82a3-cf77617b1265"},"vehicle_type_id":"4","last_reported":1724782283,"current_range_meters":0,"station_id":"ce4bgrp2rcd13ifvqc9g","pricing_plan_id":"cebpf4jnsgd1na2vs0mg"},{"bike_id":"5e9db156-7617-4878-9da4-23d49e2b4782","system_id":"levelo_inurba_marseille","lat":43.30537,"lon":5.367345,"is_reserved":false,"is_disabled":false,"rental_uris":{"android":"levelo://app?vid=5e9db156-7617-4878-9da4-23d49e2b4782","ios":"levelo://app?vid=5e9db156-7617-4878-9da4-23d49e2b4782"},"vehicle_type_id":"4","last_reported":1724782283,"current_range_meters":5200,"station_id":"ce4bgrp2rcd13ifvqc9g","pricing_plan_id":"cebpf4jnsgd1na2vs0mg"},{"bike_id":"1359225d-f906-4a31-8401-5f48064a092d","system_id":"levelo_inurba_marseille","lat":43.305373,"lon":5.365567,"is_reserved":false,"is_disabled":false,"rental_uris":{"android":"levelo://app?vid=1359225d-f906-4a31-8401-5f48064a092d","ios":"levelo://app?vid=1359225d-f906-4a31-8401-5f48064a092d"},"vehicle_type_id":"4","last_reported":1724782283,"current_range_meters":27200,"station_id":"ce4bgs12rcd13ifvqcag","pricing_plan_id":"cebpf4jnsgd1na2vs0mg"},{"bike_id":"a83325cf-fdc8-40da-8ba8-a8d30255d873","system_id":"levelo_inurba_marseille","lat":43.30533,"lon":5.36939,"is_reserved":false,"is_disabled":false,"rental_uris":{"android":"levelo://app?vid=a83325cf-fdc8-40da-8ba8-a8d30255d873","ios":"levelo://app?vid=a83325cf-fdc8-40da-8ba8-a8d30255d873"},"vehicle_type_id":"4","last_reported":1724782283,"current_range_meters":12400,"station_id":"","pricing_plan_id":"cebpf4jnsgd1na2vs0mg"},{"bike_id":"0d88e9ba-5694-4386-806d-4e4f87723889","system_id":"levelo_inurba_marseille","lat":43.311131,"lon":5.377651,"is_reserved":false,"is_disabled":false,"rental_uris":{"android":"levelo://app?vid=0d88e9ba-5694-4386-806d-4e4f87723889","ios":"levelo://app?vid=0d88e9ba-5694-4386-806d-4e4f87723889"},"vehicle_type_id":"4","last_reported":1724782283,"current_range_meters":6400,"station_id":"ce4bgt92rcd13ifvqcg0","pricing_plan_id":"cebpf4jnsgd1na2vs0mg"},{"bike_id":"0e65847b-0bf2-4ed1-9ebe-e8f221711732","system_id":"levelo_inurba_marseille","lat":43.307945,"lon":5.376487,"is_reserved":false,"is_disabled":false,"rental_uris":{"android":"levelo://app?vid=0e65847b-0bf2-4ed1-9ebe-e8f221711732","ios":"levelo://app?vid=0e65847b-0bf2-4ed1-9ebe-e8f221711732"},"vehicle_type_id":"4","last_reported":1724782283,"current_range_meters":6000,"station_id":"ce4bgv92rcd13ifvqcq0","pricing_plan_id":"cebpf4jnsgd1na2vs0mg"},{"bike_id":"f3cc3a63-b22b-4fff-87fd-027ad62defdc","system_id":"levelo_inurba_marseille","lat":43.317075,"lon":5.377367,"is_reserved":false,"is_disabled":false,"rental_uris":{"android":"levelo://app?vid=f3cc3a63-b22b-4fff-87fd-027ad62defdc","ios":"levelo://app?vid=f3cc3a63-b22b-4fff-87fd-027ad62defdc"},"vehicle_type_id":"4","last_reported":1724782283,"current_range_meters":31200,"station_id":"ce4bgth2rcd13ifvqch0","pricing_plan_id":"cebpf4jnsgd1na2vs0mg"},{"bike_id":"ab187593-0014-471f-b47c-aca9dbbb64fb","system_id":"levelo_inurba_marseille","lat":43.31695,"lon":5.37766,"is_reserved":false,"is_disabled":false,"rental_uris":{"android":"levelo://app?vid=ab187593-0014-471f-b47c-aca9dbbb64fb","ios":"levelo://app?vid=ab187593-0014-471f-b47c-aca9dbbb64fb"},"vehicle_type_id":"4","last_reported":1724782283,"current_range_meters":8800,"station_id":"ce4bgth2rcd13ifvqch0","pricing_plan_id":"cebpf4jnsgd1na2vs0mg"},{"bike_id":"76396786-201d-4f53-9bb5-aab4100bf121","system_id":"levelo_inurba_marseille","lat":43.279742,"lon":5.38744,"is_reserved":false,"is_disabled":false,"rental_uris":{"android":"levelo://app?vid=76396786-201d-4f53-9bb5-aab4100bf121","ios":"levelo://app?vid=76396786-201d-4f53-9bb5-aab4100bf121"},"vehicle_type_id":"4","last_reported":1724782283,"current_range_meters":14000,"station_id":"ce4bhg12rcd13ifvqf80","pricing_plan_id":"cebpf4jnsgd1na2vs0mg"},{"bike_id":"05216d0b-2f2d-43e3-ba07-355b0cb59b15","system_id":"levelo_inurba_marseille","lat":43.3142,"lon":5.37981,"is_reserved":false,"is_disabled":false,"rental_uris":{"android":"levelo://app?vid=05216d0b-2f2d-43e3-ba07-355b0cb59b15","ios":"levelo://app?vid=05216d0b-2f2d-43e3-ba07-355b0cb59b15"},"vehicle_type_id":"4","last_reported":1724782283,"current_range_meters":7600,"station_id":"ce4bhsp2rcd13ifvqi50","pricing_plan_id":"cebpf4jnsgd1na2vs0mg"},{"bike_id":"17971ef2-47a4-4aa3-976c-8219d4869aec","system_id":"levelo_inurba_marseille","lat":43.315289,"lon":5.380349,"is_reserved":false,"is_disabled":false,"rental_uris":{"android":"levelo://app?vid=17971ef2-47a4-4aa3-976c-8219d4869aec","ios":"levelo://app?vid=17971ef2-47a4-4aa3-976c-8219d4869aec"},"vehicle_type_id":"4","last_reported":1724782283,"current_range_meters":30000,"station_id":"ce4bhsp2rcd13ifvqi50","pricing_plan_id":"cebpf4jnsgd1na2vs0mg"},{"bike_id":"2e0bf7b7-2659-4f7e-9a9f-fddc11b19440","system_id":"levelo_inurba_marseille","lat":43.31524,"lon":5.38035,"is_reserved":false,"is_disabled":false,"rental_uris":{"android":"levelo://app?vid=2e0bf7b7-2659-4f7e-9a9f-fddc11b19440","ios":"levelo://app?vid=2e0bf7b7-2659-4f7e-9a9f-fddc11b19440"},"vehicle_type_id":"4","last_reported":1724782283,"current_range_meters":20000,"station_id":"ce4bhsp2rcd13ifvqi50","pricing_plan_id":"cebpf4jnsgd1na2vs0mg"},{"bike_id":"45acc0af-6bd3-4e4e-baf8-c97fd96862d4","system_id":"levelo_inurba_marseille","lat":43.315289,"lon":5.380349,"is_reserved":false,"is_disabled":false,"rental_uris":{"android":"levelo://app?vid=45acc0af-6bd3-4e4e-baf8-c97fd96862d4","ios":"levelo://app?vid=45acc0af-6bd3-4e4e-baf8-c97fd96862d4"},"vehicle_type_id":"4","last_reported":1724782283,"current_range_meters":4000,"station_id":"ce4bhsp2rcd13ifvqi50","pricing_plan_id":"cebpf4jnsgd1na2vs0mg"},{"bike_id":"04c94459-69f6-407e-a28f-540c14e6f792","system_id":"levelo_inurba_marseille","lat":43.301939,"lon":5.366286,"is_reserved":false,"is_disabled":false,"rental_uris":{"android":"levelo://app?vid=04c94459-69f6-407e-a28f-540c14e6f792","ios":"levelo://app?vid=04c94459-69f6-407e-a28f-540c14e6f792"},"vehicle_type_id":"4","last_reported":1724782283,"current_range_meters":26400,"station_id":"ce4bgrh2rcd13ifvqc8g","pricing_plan_id":"cebpf4jnsgd1na2vs0mg"},{"bike_id":"f06ac423-69d1-42a4-a9ad-e9bf261a2629","system_id":"levelo_inurba_marseille","lat":43.308012,"lon":5.381511,"is_reserved":false,"is_disabled":false,"rental_uris":{"android":"levelo://app?vid=f06ac423-69d1-42a4-a9ad-e9bf261a2629","ios":"levelo://app?vid=f06ac423-69d1-42a4-a9ad-e9bf261a2629"},"vehicle_type_id":"4","last_reported":1724782283,"current_range_meters":1600,"station_id":"ce4bgt12rcd13ifvqce0","pricing_plan_id":"cebpf4jnsgd1na2vs0mg"},{"bike_id":"04feb355-7b0d-4160-a90f-1cfae4d5b9a4","system_id":"levelo_inurba_marseille","lat":43.308012,"lon":5.381511,"is_reserved":false,"is_disabled":false,"rental_uris":{"android":"levelo://app?vid=04feb355-7b0d-4160-a90f-1cfae4d5b9a4","ios":"levelo://app?vid=04feb355-7b0d-4160-a90f-1cfae4d5b9a4"},"vehicle_type_id":"4","last_reported":1724782283,"current_range_meters":0,"station_id":"ce4bgt12rcd13ifvqce0","pricing_plan_id":"cebpf4jnsgd1na2vs0mg"},{"bike_id":"7363efa8-2464-476e-a614-e3ea53504d82","system_id":"levelo_inurba_marseille","lat":43.304606,"lon":5.379026,"is_reserved":false,"is_disabled":false,"rental_uris":{"android":"levelo://app?vid=7363efa8-2464-476e-a614-e3ea53504d82","ios":"levelo://app?vid=7363efa8-2464-476e-a614-e3ea53504d82"},"vehicle_type_id":"4","last_reported":1724782283,"current_range_meters":2000,"station_id":"ce4bgup2rcd13ifvqcn0","pricing_plan_id":"cebpf4jnsgd1na2vs0mg"},{"bike_id":"cd839a07-1a68-451b-9842-6d344d8475e3","system_id":"levelo_inurba_marseille","lat":43.304606,"lon":5.379026,"is_reserved":false,"is_disabled":false,"rental_uris":{"android":"levelo://app?vid=cd839a07-1a68-451b-9842-6d344d8475e3","ios":"levelo://app?vid=cd839a07-1a68-451b-9842-6d344d8475e3"},"vehicle_type_id":"4","last_reported":1724782283,"current_range_meters":400,"station_id":"ce4bgup2rcd13ifvqcn0","pricing_plan_id":"cebpf4jnsgd1na2vs0mg"},{"bike_id":"b26496fe-9057-40fb-90ee-9c2cd4a4725d","system_id":"levelo_inurba_marseille","lat":43.324771,"lon":5.36557,"is_reserved":false,"is_disabled":false,"rental_uris":{"android":"levelo://app?vid=b26496fe-9057-40fb-90ee-9c2cd4a4725d","ios":"levelo://app?vid=b26496fe-9057-40fb-90ee-9c2cd4a4725d"},"vehicle_type_id":"4","last_reported":1724782283,"current_range_meters":6000,"station_id":"ce4bhs12rcd13ifvqhvg","pricing_plan_id":"cebpf4jnsgd1na2vs0mg"},{"bike_id":"33ebc044-df36-4840-8edc-c6639780953d","system_id":"levelo_inurba_marseille","lat":43.324771,"lon":5.36557,"is_reserved":false,"is_disabled":false,"rental_uris":{"android":"levelo://app?vid=33ebc044-df36-4840-8edc-c6639780953d","ios":"levelo://app?vid=33ebc044-df36-4840-8edc-c6639780953d"},"vehicle_type_id":"4","last_reported":1724782283,"current_range_meters":5200,"station_id":"ce4bhs12rcd13ifvqhvg","pricing_plan_id":"cebpf4jnsgd1na2vs0mg"},{"bike_id":"81cf7e8d-2200-4a4c-a6db-5594467ea0c8","system_id":"levelo_inurba_marseille","lat":43.324771,"lon":5.36557,"is_reserved":false,"is_disabled":false,"rental_uris":{"android":"levelo://app?vid=81cf7e8d-2200-4a4c-a6db-5594467ea0c8","ios":"levelo://app?vid=81cf7e8d-2200-4a4c-a6db-5594467ea0c8"},"vehicle_type_id":"4","last_reported":1724782283,"current_range_meters":4800,"station_id":"ce4bhs12rcd13ifvqhvg","pricing_plan_id":"cebpf4jnsgd1na2vs0mg"},{"bike_id":"2b765485-1106-4db8-b84e-499dcd954f72","system_id":"levelo_inurba_marseille","lat":43.324771,"lon":5.36557,"is_reserved":false,"is_disabled":false,"rental_uris":{"android":"levelo://app?vid=2b765485-1106-4db8-b84e-499dcd954f72","ios":"levelo://app?vid=2b765485-1106-4db8-b84e-499dcd954f72"},"vehicle_type_id":"4","last_reported":1724782283,"current_range_meters":19200,"station_id":"ce4bhs12rcd13ifvqhvg","pricing_plan_id":"cebpf4jnsgd1na2vs0mg"},{"bike_id":"45eee157-d4f2-4b3a-83cf-85e04e2e164c","system_id":"levelo_inurba_marseille","lat":43.324771,"lon":5.36557,"is_reserved":false,"is_disabled":false,"rental_uris":{"android":"levelo://app?vid=45eee157-d4f2-4b3a-83cf-85e04e2e164c","ios":"levelo://app?vid=45eee157-d4f2-4b3a-83cf-85e04e2e164c"},"vehicle_type_id":"4","last_reported":1724782283,"current_range_meters":30400,"station_id":"ce4bhs12rcd13ifvqhvg","pricing_plan_id":"cebpf4jnsgd1na2vs0mg"},{"bike_id":"7cda7f10-7fae-4c87-95c7-87a923ff1fde","system_id":"levelo_inurba_marseille","lat":43.324771,"lon":5.36557,"is_reserved":false,"is_disabled":false,"rental_uris":{"android":"levelo://app?vid=7cda7f10-7fae-4c87-95c7-87a923ff1fde","ios":"levelo://app?vid=7cda7f10-7fae-4c87-95c7-87a923ff1fde"},"vehicle_type_id":"4","last_reported":1724782283,"current_range_meters":31600,"station_id":"ce4bhs12rcd13ifvqhvg","pricing_plan_id":"cebpf4jnsgd1na2vs0mg"},{"bike_id":"7f278697-1b9a-4f3e-aad4-a206e9aff6b1","system_id":"levelo_inurba_marseille","lat":43.324771,"lon":5.36557,"is_reserved":false,"is_disabled":false,"rental_uris":{"android":"levelo://app?vid=7f278697-1b9a-4f3e-aad4-a206e9aff6b1","ios":"levelo://app?vid=7f278697-1b9a-4f3e-aad4-a206e9aff6b1"},"vehicle_type_id":"4","last_reported":1724782283,"current_range_meters":31200,"station_id":"ce4bhs12rcd13ifvqhvg","pricing_plan_id":"cebpf4jnsgd1na2vs0mg"},{"bike_id":"8100e6a5-fb70-4946-bba4-cfa4b1ee42c6","system_id":"levelo_inurba_marseille","lat":43.324771,"lon":5.36557,"is_reserved":false,"is_disabled":false,"rental_uris":{"android":"levelo://app?vid=8100e6a5-fb70-4946-bba4-cfa4b1ee42c6","ios":"levelo://app?vid=8100e6a5-fb70-4946-bba4-cfa4b1ee42c6"},"vehicle_type_id":"4","last_reported":1724782283,"current_range_meters":20400,"station_id":"ce4bhs12rcd13ifvqhvg","pricing_plan_id":"cebpf4jnsgd1na2vs0mg"},{"bike_id":"160675c4-6c58-4448-bc7d-eb953e744d6f","system_id":"levelo_inurba_marseille","lat":43.30143,"lon":5.37413,"is_reserved":false,"is_disabled":false,"rental_uris":{"android":"levelo://app?vid=160675c4-6c58-4448-bc7d-eb953e744d6f","ios":"levelo://app?vid=160675c4-6c58-4448-bc7d-eb953e744d6f"},"vehicle_type_id":"4","last_reported":1724782283,"current_range_meters":0,"station_id":"ce4bgs92rcd13ifvqcc0","pricing_plan_id":"cebpf4jnsgd1na2vs0mg"},{"bike_id":"ff2e2f17-e53a-4360-9800-37c28492171b","system_id":"levelo_inurba_marseille","lat":43.319667,"lon":5.3815,"is_reserved":false,"is_disabled":false,"rental_uris":{"android":"levelo://app?vid=ff2e2f17-e53a-4360-9800-37c28492171b","ios":"levelo://app?vid=ff2e2f17-e53a-4360-9800-37c28492171b"},"vehicle_type_id":"4","last_reported":1724782283,"current_range_meters":5600,"station_id":"ce4bhr12rcd13ifvqhpg","pricing_plan_id":"cebpf4jnsgd1na2vs0mg"},{"bike_id":"117cda6a-1261-45f1-aa8c-f5aabee24375","system_id":"levelo_inurba_marseille","lat":43.32536,"lon":5.36403,"is_reserved":false,"is_disabled":false,"rental_uris":{"android":"levelo://app?vid=117cda6a-1261-45f1-aa8c-f5aabee24375","ios":"levelo://app?vid=117cda6a-1261-45f1-aa8c-f5aabee24375"},"vehicle_type_id":"4","last_reported":1724782283,"current_range_meters":5200,"station_id":"","pricing_plan_id":"cebpf4jnsgd1na2vs0mg"},{"bike_id":"f4b5168e-9e6e-45db-b4d8-5d817105b9c6","system_id":"levelo_inurba_marseille","lat":43.319935,"lon":5.381699,"is_reserved":false,"is_disabled":false,"rental_uris":{"android":"levelo://app?vid=f4b5168e-9e6e-45db-b4d8-5d817105b9c6","ios":"levelo://app?vid=f4b5168e-9e6e-45db-b4d8-5d817105b9c6"},"vehicle_type_id":"4","last_reported":1724782283,"current_range_meters":6000,"station_id":"ce4bhr12rcd13ifvqhpg","pricing_plan_id":"cebpf4jnsgd1na2vs0mg"},{"bike_id":"661630de-df48-417c-9056-3bc0d07036f9","system_id":"levelo_inurba_marseille","lat":43.319935,"lon":5.381699,"is_reserved":false,"is_disabled":false,"rental_uris":{"android":"levelo://app?vid=661630de-df48-417c-9056-3bc0d07036f9","ios":"levelo://app?vid=661630de-df48-417c-9056-3bc0d07036f9"},"vehicle_type_id":"4","last_reported":1724782283,"current_range_meters":2400,"station_id":"ce4bhr12rcd13ifvqhpg","pricing_plan_id":"cebpf4jnsgd1na2vs0mg"},{"bike_id":"6013e98d-59ea-4abe-a0df-1ee1a6b6b3d5","system_id":"levelo_inurba_marseille","lat":43.313571,"lon":5.384829,"is_reserved":false,"is_disabled":false,"rental_uris":{"android":"levelo://app?vid=6013e98d-59ea-4abe-a0df-1ee1a6b6b3d5","ios":"levelo://app?vid=6013e98d-59ea-4abe-a0df-1ee1a6b6b3d5"},"vehicle_type_id":"4","last_reported":1724782283,"current_range_meters":14400,"station_id":"ce4bgt92rcd13ifvqcf0","pricing_plan_id":"cebpf4jnsgd1na2vs0mg"},{"bike_id":"3d0c0740-ee10-4d0f-b593-6741d37d11da","system_id":"levelo_inurba_marseille","lat":43.299222,"lon":5.365554,"is_reserved":false,"is_disabled":false,"rental_uris":{"android":"levelo://app?vid=3d0c0740-ee10-4d0f-b593-6741d37d11da","ios":"levelo://app?vid=3d0c0740-ee10-4d0f-b593-6741d37d11da"},"vehicle_type_id":"4","last_reported":1724782283,"current_range_meters":21600,"station_id":"ce4bgm92rcd13ifvqbr0","pricing_plan_id":"cebpf4jnsgd1na2vs0mg"},{"bike_id":"ee50e843-59d5-47fb-8d54-5d3141bec524","system_id":"levelo_inurba_marseille","lat":43.299222,"lon":5.365554,"is_reserved":false,"is_disabled":false,"rental_uris":{"android":"levelo://app?vid=ee50e843-59d5-47fb-8d54-5d3141bec524","ios":"levelo://app?vid=ee50e843-59d5-47fb-8d54-5d3141bec524"},"vehicle_type_id":"4","last_reported":1724782283,"current_range_meters":5600,"station_id":"ce4bgm92rcd13ifvqbr0","pricing_plan_id":"cebpf4jnsgd1na2vs0mg"},{"bike_id":"353fcc89-670a-427c-8f8c-7147b1768639","system_id":"levelo_inurba_marseille","lat":43.299222,"lon":5.365554,"is_reserved":false,"is_disabled":false,"rental_uris":{"android":"levelo://app?vid=353fcc89-670a-427c-8f8c-7147b1768639","ios":"levelo://app?vid=353fcc89-670a-427c-8f8c-7147b1768639"},"vehicle_type_id":"4","last_reported":1724782283,"current_range_meters":27600,"station_id":"ce4bgm92rcd13ifvqbr0","pricing_plan_id":"cebpf4jnsgd1na2vs0mg"},{"bike_id":"6eb5815e-0f34-47ef-b166-5403beb33d34","system_id":"levelo_inurba_marseille","lat":43.2993,"lon":5.36545,"is_reserved":false,"is_disabled":false,"rental_uris":{"android":"levelo://app?vid=6eb5815e-0f34-47ef-b166-5403beb33d34","ios":"levelo://app?vid=6eb5815e-0f34-47ef-b166-5403beb33d34"},"vehicle_type_id":"4","last_reported":1724782283,"current_range_meters":22400,"station_id":"ce4bgm92rcd13ifvqbr0","pricing_plan_id":"cebpf4jnsgd1na2vs0mg"},{"bike_id":"4ace56d7-e807-4c93-ac93-1e76f22eabb1","system_id":"levelo_inurba_marseille","lat":43.29892,"lon":5.36326,"is_reserved":false,"is_disabled":false,"rental_uris":{"android":"levelo://app?vid=4ace56d7-e807-4c93-ac93-1e76f22eabb1","ios":"levelo://app?vid=4ace56d7-e807-4c93-ac93-1e76f22eabb1"},"vehicle_type_id":"4","last_reported":1724782283,"current_range_meters":24000,"station_id":"","pricing_plan_id":"cebpf4jnsgd1na2vs0mg"},{"bike_id":"d7b8f45f-78c9-4889-86bf-d20661c7f15b","system_id":"levelo_inurba_marseille","lat":43.298433,"lon":5.362774,"is_reserved":false,"is_disabled":false,"rental_uris":{"android":"levelo://app?vid=d7b8f45f-78c9-4889-86bf-d20661c7f15b","ios":"levelo://app?vid=d7b8f45f-78c9-4889-86bf-d20661c7f15b"},"vehicle_type_id":"4","last_reported":1724782283,"current_range_meters":30400,"station_id":"ce4bgpp2rcd13ifvqc3g","pricing_plan_id":"cebpf4jnsgd1na2vs0mg"},{"bike_id":"d3b7cdbb-a624-4a20-9cd8-78a7ccfc2523","system_id":"levelo_inurba_marseille","lat":43.298433,"lon":5.362774,"is_reserved":false,"is_disabled":false,"rental_uris":{"android":"levelo://app?vid=d3b7cdbb-a624-4a20-9cd8-78a7ccfc2523","ios":"levelo://app?vid=d3b7cdbb-a624-4a20-9cd8-78a7ccfc2523"},"vehicle_type_id":"4","last_reported":1724782283,"current_range_meters":800,"station_id":"ce4bgpp2rcd13ifvqc3g","pricing_plan_id":"cebpf4jnsgd1na2vs0mg"},{"bike_id":"bb3e1a05-7d18-4b80-b3af-140cac1d4ff7","system_id":"levelo_inurba_marseille","lat":43.311593,"lon":5.386877,"is_reserved":false,"is_disabled":false,"rental_uris":{"android":"levelo://app?vid=bb3e1a05-7d18-4b80-b3af-140cac1d4ff7","ios":"levelo://app?vid=bb3e1a05-7d18-4b80-b3af-140cac1d4ff7"},"vehicle_type_id":"4","last_reported":1724782283,"current_range_meters":19200,"station_id":"ce4bgv12rcd13ifvqcp0","pricing_plan_id":"cebpf4jnsgd1na2vs0mg"},{"bike_id":"63df44ad-13b1-4457-944a-cf317ba6efe8","system_id":"levelo_inurba_marseille","lat":43.298433,"lon":5.362774,"is_reserved":false,"is_disabled":false,"rental_uris":{"android":"levelo://app?vid=63df44ad-13b1-4457-944a-cf317ba6efe8","ios":"levelo://app?vid=63df44ad-13b1-4457-944a-cf317ba6efe8"},"vehicle_type_id":"4","last_reported":1724782283,"current_range_meters":1200,"station_id":"ce4bgpp2rcd13ifvqc3g","pricing_plan_id":"cebpf4jnsgd1na2vs0mg"},{"bike_id":"d458e19d-28fa-4cee-8929-94315860bcbf","system_id":"levelo_inurba_marseille","lat":43.298433,"lon":5.362774,"is_reserved":false,"is_disabled":false,"rental_uris":{"android":"levelo://app?vid=d458e19d-28fa-4cee-8929-94315860bcbf","ios":"levelo://app?vid=d458e19d-28fa-4cee-8929-94315860bcbf"},"vehicle_type_id":"4","last_reported":1724782283,"current_range_meters":17200,"station_id":"ce4bgpp2rcd13ifvqc3g","pricing_plan_id":"cebpf4jnsgd1na2vs0mg"},{"bike_id":"bf2cbdf2-2d03-434b-b7d4-f7934d5320cc","system_id":"levelo_inurba_marseille","lat":43.29839,"lon":5.36269,"is_reserved":false,"is_disabled":false,"rental_uris":{"android":"levelo://app?vid=bf2cbdf2-2d03-434b-b7d4-f7934d5320cc","ios":"levelo://app?vid=bf2cbdf2-2d03-434b-b7d4-f7934d5320cc"},"vehicle_type_id":"4","last_reported":1724782283,"current_range_meters":31200,"station_id":"ce4bgpp2rcd13ifvqc3g","pricing_plan_id":"cebpf4jnsgd1na2vs0mg"},{"bike_id":"dbd22c52-e5b7-4231-8d2a-c06267f0c1f7","system_id":"levelo_inurba_marseille","lat":43.29838,"lon":5.36265,"is_reserved":false,"is_disabled":false,"rental_uris":{"android":"levelo://app?vid=dbd22c52-e5b7-4231-8d2a-c06267f0c1f7","ios":"levelo://app?vid=dbd22c52-e5b7-4231-8d2a-c06267f0c1f7"},"vehicle_type_id":"4","last_reported":1724782283,"current_range_meters":26000,"station_id":"ce4bgpp2rcd13ifvqc3g","pricing_plan_id":"cebpf4jnsgd1na2vs0mg"},{"bike_id":"1ba773fa-f4fd-454e-989c-798f3d52df43","system_id":"levelo_inurba_marseille","lat":43.322872,"lon":5.382756,"is_reserved":false,"is_disabled":false,"rental_uris":{"android":"levelo://app?vid=1ba773fa-f4fd-454e-989c-798f3d52df43","ios":"levelo://app?vid=1ba773fa-f4fd-454e-989c-798f3d52df43"},"vehicle_type_id":"4","last_reported":1724782283,"current_range_meters":0,"station_id":"ce4bhr12rcd13ifvqhqg","pricing_plan_id":"cebpf4jnsgd1na2vs0mg"},{"bike_id":"a78c8b8a-cddc-4cd4-8997-e6b266787109","system_id":"levelo_inurba_marseille","lat":43.322872,"lon":5.382756,"is_reserved":false,"is_disabled":false,"rental_uris":{"android":"levelo://app?vid=a78c8b8a-cddc-4cd4-8997-e6b266787109","ios":"levelo://app?vid=a78c8b8a-cddc-4cd4-8997-e6b266787109"},"vehicle_type_id":"4","last_reported":1724782283,"current_range_meters":24800,"station_id":"ce4bhr12rcd13ifvqhqg","pricing_plan_id":"cebpf4jnsgd1na2vs0mg"},{"bike_id":"90d37695-c612-4384-92d0-977df80ac5dd","system_id":"levelo_inurba_marseille","lat":43.32292,"lon":5.38259,"is_reserved":false,"is_disabled":false,"rental_uris":{"android":"levelo://app?vid=90d37695-c612-4384-92d0-977df80ac5dd","ios":"levelo://app?vid=90d37695-c612-4384-92d0-977df80ac5dd"},"vehicle_type_id":"4","last_reported":1724782283,"current_range_meters":8000,"station_id":"ce4bhr12rcd13ifvqhqg","pricing_plan_id":"cebpf4jnsgd1na2vs0mg"},{"bike_id":"7ca65002-1bee-4aa8-a09e-831cd22ae001","system_id":"levelo_inurba_marseille","lat":43.322872,"lon":5.382756,"is_reserved":false,"is_disabled":false,"rental_uris":{"android":"levelo://app?vid=7ca65002-1bee-4aa8-a09e-831cd22ae001","ios":"levelo://app?vid=7ca65002-1bee-4aa8-a09e-831cd22ae001"},"vehicle_type_id":"4","last_reported":1724782283,"current_range_meters":15600,"station_id":"ce4bhr12rcd13ifvqhqg","pricing_plan_id":"cebpf4jnsgd1na2vs0mg"},{"bike_id":"6620c18c-e539-494a-b633-92cac3f2bd47","system_id":"levelo_inurba_marseille","lat":43.32294,"lon":5.38263,"is_reserved":false,"is_disabled":false,"rental_uris":{"android":"levelo://app?vid=6620c18c-e539-494a-b633-92cac3f2bd47","ios":"levelo://app?vid=6620c18c-e539-494a-b633-92cac3f2bd47"},"vehicle_type_id":"4","last_reported":1724782283,"current_range_meters":15600,"station_id":"ce4bhr12rcd13ifvqhqg","pricing_plan_id":"cebpf4jnsgd1na2vs0mg"},{"bike_id":"d343f4d6-a817-4274-ad88-7258888eb58f","system_id":"levelo_inurba_marseille","lat":43.322872,"lon":5.382756,"is_reserved":false,"is_disabled":false,"rental_uris":{"android":"levelo://app?vid=d343f4d6-a817-4274-ad88-7258888eb58f","ios":"levelo://app?vid=d343f4d6-a817-4274-ad88-7258888eb58f"},"vehicle_type_id":"4","last_reported":1724782283,"current_range_meters":6800,"station_id":"ce4bhr12rcd13ifvqhqg","pricing_plan_id":"cebpf4jnsgd1na2vs0mg"},{"bike_id":"dbca6fde-3192-418f-93d8-4c6e1e5aa9df","system_id":"levelo_inurba_marseille","lat":43.32335,"lon":5.38215,"is_reserved":false,"is_disabled":false,"rental_uris":{"android":"levelo://app?vid=dbca6fde-3192-418f-93d8-4c6e1e5aa9df","ios":"levelo://app?vid=dbca6fde-3192-418f-93d8-4c6e1e5aa9df"},"vehicle_type_id":"4","last_reported":1724782283,"current_range_meters":10400,"station_id":"","pricing_plan_id":"cebpf4jnsgd1na2vs0mg"},{"bike_id":"3e133dd8-f020-47e2-a993-77b93cdddc17","system_id":"levelo_inurba_marseille","lat":43.297794,"lon":5.370888,"is_reserved":false,"is_disabled":false,"rental_uris":{"android":"levelo://app?vid=3e133dd8-f020-47e2-a993-77b93cdddc17","ios":"levelo://app?vid=3e133dd8-f020-47e2-a993-77b93cdddc17"},"vehicle_type_id":"4","last_reported":1724782283,"current_range_meters":28800,"station_id":"ce4bgop2rcd13ifvqc1g","pricing_plan_id":"cebpf4jnsgd1na2vs0mg"},{"bike_id":"b10ab0a1-bd60-4f36-adb8-9dcbb84568c2","system_id":"levelo_inurba_marseille","lat":43.297794,"lon":5.370888,"is_reserved":false,"is_disabled":false,"rental_uris":{"android":"levelo://app?vid=b10ab0a1-bd60-4f36-adb8-9dcbb84568c2","ios":"levelo://app?vid=b10ab0a1-bd60-4f36-adb8-9dcbb84568c2"},"vehicle_type_id":"4","last_reported":1724782283,"current_range_meters":18800,"station_id":"ce4bgop2rcd13ifvqc1g","pricing_plan_id":"cebpf4jnsgd1na2vs0mg"},{"bike_id":"1e481316-79c2-4bf2-b0d1-9f5c29b6a7b9","system_id":"levelo_inurba_marseille","lat":43.297163,"lon":5.365866,"is_reserved":false,"is_disabled":false,"rental_uris":{"android":"levelo://app?vid=1e481316-79c2-4bf2-b0d1-9f5c29b6a7b9","ios":"levelo://app?vid=1e481316-79c2-4bf2-b0d1-9f5c29b6a7b9"},"vehicle_type_id":"4","last_reported":1724782283,"current_range_meters":31200,"station_id":"ce4bgn12rcd13ifvqbt0","pricing_plan_id":"cebpf4jnsgd1na2vs0mg"},{"bike_id":"a9488722-3590-43d8-96dd-603ef28053e8","system_id":"levelo_inurba_marseille","lat":43.297163,"lon":5.365866,"is_reserved":false,"is_disabled":false,"rental_uris":{"android":"levelo://app?vid=a9488722-3590-43d8-96dd-603ef28053e8","ios":"levelo://app?vid=a9488722-3590-43d8-96dd-603ef28053e8"},"vehicle_type_id":"4","last_reported":1724782283,"current_range_meters":8400,"station_id":"ce4bgn12rcd13ifvqbt0","pricing_plan_id":"cebpf4jnsgd1na2vs0mg"},{"bike_id":"1d67eddc-7477-4657-854c-1b32a8c1f178","system_id":"levelo_inurba_marseille","lat":43.297163,"lon":5.365866,"is_reserved":false,"is_disabled":false,"rental_uris":{"android":"levelo://app?vid=1d67eddc-7477-4657-854c-1b32a8c1f178","ios":"levelo://app?vid=1d67eddc-7477-4657-854c-1b32a8c1f178"},"vehicle_type_id":"4","last_reported":1724782283,"current_range_meters":31200,"station_id":"ce4bgn12rcd13ifvqbt0","pricing_plan_id":"cebpf4jnsgd1na2vs0mg"},{"bike_id":"f159e511-8e26-435f-af38-e3138281098c","system_id":"levelo_inurba_marseille","lat":43.297163,"lon":5.365866,"is_reserved":false,"is_disabled":false,"rental_uris":{"android":"levelo://app?vid=f159e511-8e26-435f-af38-e3138281098c","ios":"levelo://app?vid=f159e511-8e26-435f-af38-e3138281098c"},"vehicle_type_id":"4","last_reported":1724782283,"current_range_meters":14400,"station_id":"ce4bgn12rcd13ifvqbt0","pricing_plan_id":"cebpf4jnsgd1na2vs0mg"},{"bike_id":"4a7aaac8-4954-40f0-b389-d3d5fd9a1e2e","system_id":"levelo_inurba_marseille","lat":43.297163,"lon":5.365866,"is_reserved":false,"is_disabled":false,"rental_uris":{"android":"levelo://app?vid=4a7aaac8-4954-40f0-b389-d3d5fd9a1e2e","ios":"levelo://app?vid=4a7aaac8-4954-40f0-b389-d3d5fd9a1e2e"},"vehicle_type_id":"4","last_reported":1724782283,"current_range_meters":9600,"station_id":"ce4bgn12rcd13ifvqbt0","pricing_plan_id":"cebpf4jnsgd1na2vs0mg"},{"bike_id":"471576e9-1787-4069-87e3-e08024076c89","system_id":"levelo_inurba_marseille","lat":43.31467,"lon":5.38873,"is_reserved":false,"is_disabled":false,"rental_uris":{"android":"levelo://app?vid=471576e9-1787-4069-87e3-e08024076c89","ios":"levelo://app?vid=471576e9-1787-4069-87e3-e08024076c89"},"vehicle_type_id":"4","last_reported":1724782283,"current_range_meters":15600,"station_id":"","pricing_plan_id":"cebpf4jnsgd1na2vs0mg"},{"bike_id":"cee43b02-96fb-4f5a-87ef-7d4d864f4724","system_id":"levelo_inurba_marseille","lat":43.2968,"lon":5.37291,"is_reserved":false,"is_disabled":false,"rental_uris":{"android":"levelo://app?vid=cee43b02-96fb-4f5a-87ef-7d4d864f4724","ios":"levelo://app?vid=cee43b02-96fb-4f5a-87ef-7d4d864f4724"},"vehicle_type_id":"4","last_reported":1724782283,"current_range_meters":13200,"station_id":"ce4bgk12rcd13ifvqbj0","pricing_plan_id":"cebpf4jnsgd1na2vs0mg"},{"bike_id":"ba97f9fe-d7f3-4026-a318-9dd3702aa5ff","system_id":"levelo_inurba_marseille","lat":43.29669,"lon":5.36144,"is_reserved":false,"is_disabled":false,"rental_uris":{"android":"levelo://app?vid=ba97f9fe-d7f3-4026-a318-9dd3702aa5ff","ios":"levelo://app?vid=ba97f9fe-d7f3-4026-a318-9dd3702aa5ff"},"vehicle_type_id":"4","last_reported":1724782283,"current_range_meters":18800,"station_id":"","pricing_plan_id":"cebpf4jnsgd1na2vs0mg"},{"bike_id":"1e32199f-9ae2-4d18-9923-0ee3b708961f","system_id":"levelo_inurba_marseille","lat":43.296921,"lon":5.376579,"is_reserved":false,"is_disabled":false,"rental_uris":{"android":"levelo://app?vid=1e32199f-9ae2-4d18-9923-0ee3b708961f","ios":"levelo://app?vid=1e32199f-9ae2-4d18-9923-0ee3b708961f"},"vehicle_type_id":"4","last_reported":1724782283,"current_range_meters":6000,"station_id":"ce4bgkh2rcd13ifvqbl0","pricing_plan_id":"cebpf4jnsgd1na2vs0mg"},{"bike_id":"d18dc177-8db5-4fb0-bb04-6e6089505ae7","system_id":"levelo_inurba_marseille","lat":43.299028,"lon":5.381509,"is_reserved":false,"is_disabled":false,"rental_uris":{"android":"levelo://app?vid=d18dc177-8db5-4fb0-bb04-6e6089505ae7","ios":"levelo://app?vid=d18dc177-8db5-4fb0-bb04-6e6089505ae7"},"vehicle_type_id":"4","last_reported":1724782283,"current_range_meters":18800,"station_id":"ce4bgj12rcd13ifvqbc0","pricing_plan_id":"cebpf4jnsgd1na2vs0mg"},{"bike_id":"9a5a1bfd-6c60-4cc8-8823-5cfb71e0d7ee","system_id":"levelo_inurba_marseille","lat":43.299082,"lon":5.381512,"is_reserved":false,"is_disabled":false,"rental_uris":{"android":"levelo://app?vid=9a5a1bfd-6c60-4cc8-8823-5cfb71e0d7ee","ios":"levelo://app?vid=9a5a1bfd-6c60-4cc8-8823-5cfb71e0d7ee"},"vehicle_type_id":"4","last_reported":1724782283,"current_range_meters":0,"station_id":"ce4bgj12rcd13ifvqbc0","pricing_plan_id":"cebpf4jnsgd1na2vs0mg"},{"bike_id":"83c61993-0641-4a8d-bc1e-40ca51ceb891","system_id":"levelo_inurba_marseille","lat":43.309589,"lon":5.390258,"is_reserved":false,"is_disabled":false,"rental_uris":{"android":"levelo://app?vid=83c61993-0641-4a8d-bc1e-40ca51ceb891","ios":"levelo://app?vid=83c61993-0641-4a8d-bc1e-40ca51ceb891"},"vehicle_type_id":"4","last_reported":1724782283,"current_range_meters":4000,"station_id":"ce4bgup2rcd13ifvqco0","pricing_plan_id":"cebpf4jnsgd1na2vs0mg"},{"bike_id":"c28ef68f-f0ad-4791-b095-9908e639eb1c","system_id":"levelo_inurba_marseille","lat":43.309589,"lon":5.390258,"is_reserved":false,"is_disabled":false,"rental_uris":{"android":"levelo://app?vid=c28ef68f-f0ad-4791-b095-9908e639eb1c","ios":"levelo://app?vid=c28ef68f-f0ad-4791-b095-9908e639eb1c"},"vehicle_type_id":"4","last_reported":1724782283,"current_range_meters":19200,"station_id":"ce4bgup2rcd13ifvqco0","pricing_plan_id":"cebpf4jnsgd1na2vs0mg"},{"bike_id":"f529a252-fc61-45fc-9185-0e1d50a5ff5a","system_id":"levelo_inurba_marseille","lat":43.299028,"lon":5.381509,"is_reserved":false,"is_disabled":false,"rental_uris":{"android":"levelo://app?vid=f529a252-fc61-45fc-9185-0e1d50a5ff5a","ios":"levelo://app?vid=f529a252-fc61-45fc-9185-0e1d50a5ff5a"},"vehicle_type_id":"4","last_reported":1724782283,"current_range_meters":19200,"station_id":"ce4bgj12rcd13ifvqbc0","pricing_plan_id":"cebpf4jnsgd1na2vs0mg"},{"bike_id":"facbd3a6-7fb0-4d1e-a963-7668313eadcb","system_id":"levelo_inurba_marseille","lat":43.317596,"lon":5.3902,"is_reserved":false,"is_disabled":false,"rental_uris":{"android":"levelo://app?vid=facbd3a6-7fb0-4d1e-a963-7668313eadcb","ios":"levelo://app?vid=facbd3a6-7fb0-4d1e-a963-7668313eadcb"},"vehicle_type_id":"4","last_reported":1724782283,"current_range_meters":28000,"station_id":"ce4bhqp2rcd13ifvqhng","pricing_plan_id":"cebpf4jnsgd1na2vs0mg"},{"bike_id":"79581df8-c5a3-4a9b-949c-c61ab20e9008","system_id":"levelo_inurba_marseille","lat":43.317557,"lon":5.390173,"is_reserved":false,"is_disabled":false,"rental_uris":{"android":"levelo://app?vid=79581df8-c5a3-4a9b-949c-c61ab20e9008","ios":"levelo://app?vid=79581df8-c5a3-4a9b-949c-c61ab20e9008"},"vehicle_type_id":"4","last_reported":1724782283,"current_range_meters":20000,"station_id":"ce4bhqp2rcd13ifvqhng","pricing_plan_id":"cebpf4jnsgd1na2vs0mg"},{"bike_id":"b687b5a9-a38a-4d18-a7eb-d145e0e2cc88","system_id":"levelo_inurba_marseille","lat":43.31763,"lon":5.39021,"is_reserved":false,"is_disabled":false,"rental_uris":{"android":"levelo://app?vid=b687b5a9-a38a-4d18-a7eb-d145e0e2cc88","ios":"levelo://app?vid=b687b5a9-a38a-4d18-a7eb-d145e0e2cc88"},"vehicle_type_id":"4","last_reported":1724782283,"current_range_meters":26800,"station_id":"ce4bhqp2rcd13ifvqhng","pricing_plan_id":"cebpf4jnsgd1na2vs0mg"},{"bike_id":"d961e1ca-4b9d-40b4-b788-cf00f3695f82","system_id":"levelo_inurba_marseille","lat":43.29579,"lon":5.37495,"is_reserved":false,"is_disabled":false,"rental_uris":{"android":"levelo://app?vid=d961e1ca-4b9d-40b4-b788-cf00f3695f82","ios":"levelo://app?vid=d961e1ca-4b9d-40b4-b788-cf00f3695f82"},"vehicle_type_id":"4","last_reported":1724782283,"current_range_meters":27200,"station_id":"ce4bgh92rcd13ifvqb50","pricing_plan_id":"cebpf4jnsgd1na2vs0mg"},{"bike_id":"0a6a4991-d892-4226-95c9-74efef8f1cea","system_id":"levelo_inurba_marseille","lat":43.304274,"lon":5.388873,"is_reserved":false,"is_disabled":false,"rental_uris":{"android":"levelo://app?vid=0a6a4991-d892-4226-95c9-74efef8f1cea","ios":"levelo://app?vid=0a6a4991-d892-4226-95c9-74efef8f1cea"},"vehicle_type_id":"4","last_reported":1724782283,"current_range_meters":0,"station_id":"ce4bgk12rcd13ifvqbi0","pricing_plan_id":"cebpf4jnsgd1na2vs0mg"},{"bike_id":"fe0367e4-44ff-4dd7-a768-4099a27fc6ce","system_id":"levelo_inurba_marseille","lat":43.29569,"lon":5.375177,"is_reserved":false,"is_disabled":false,"rental_uris":{"android":"levelo://app?vid=fe0367e4-44ff-4dd7-a768-4099a27fc6ce","ios":"levelo://app?vid=fe0367e4-44ff-4dd7-a768-4099a27fc6ce"},"vehicle_type_id":"4","last_reported":1724782283,"current_range_meters":4800,"station_id":"ce4bgh92rcd13ifvqb50","pricing_plan_id":"cebpf4jnsgd1na2vs0mg"},{"bike_id":"5c83305a-165a-40b9-9f7c-c5e9b184b624","system_id":"levelo_inurba_marseille","lat":43.296277,"lon":5.377108,"is_reserved":false,"is_disabled":false,"rental_uris":{"android":"levelo://app?vid=5c83305a-165a-40b9-9f7c-c5e9b184b624","ios":"levelo://app?vid=5c83305a-165a-40b9-9f7c-c5e9b184b624"},"vehicle_type_id":"4","last_reported":1724782283,"current_range_meters":20400,"station_id":"ce4bgi92rcd13ifvqb90","pricing_plan_id":"cebpf4jnsgd1na2vs0mg"},{"bike_id":"af3b1706-5561-497e-8592-e3ab71847f48","system_id":"levelo_inurba_marseille","lat":43.296263,"lon":5.377094,"is_reserved":false,"is_disabled":false,"rental_uris":{"android":"levelo://app?vid=af3b1706-5561-497e-8592-e3ab71847f48","ios":"levelo://app?vid=af3b1706-5561-497e-8592-e3ab71847f48"},"vehicle_type_id":"4","last_reported":1724782283,"current_range_meters":10400,"station_id":"ce4bgi92rcd13ifvqb90","pricing_plan_id":"cebpf4jnsgd1na2vs0mg"},{"bike_id":"d712eba7-636c-4a88-a3e7-22832937dda5","system_id":"levelo_inurba_marseille","lat":43.295748,"lon":5.37522,"is_reserved":false,"is_disabled":false,"rental_uris":{"android":"levelo://app?vid=d712eba7-636c-4a88-a3e7-22832937dda5","ios":"levelo://app?vid=d712eba7-636c-4a88-a3e7-22832937dda5"},"vehicle_type_id":"4","last_reported":1724782283,"current_range_meters":14400,"station_id":"ce4bgh92rcd13ifvqb50","pricing_plan_id":"cebpf4jnsgd1na2vs0mg"},{"bike_id":"58e0f9d5-a9da-434c-ac19-e15cd86fd0e0","system_id":"levelo_inurba_marseille","lat":43.29531,"lon":5.374969,"is_reserved":false,"is_disabled":false,"rental_uris":{"android":"levelo://app?vid=58e0f9d5-a9da-434c-ac19-e15cd86fd0e0","ios":"levelo://app?vid=58e0f9d5-a9da-434c-ac19-e15cd86fd0e0"},"vehicle_type_id":"4","last_reported":1724782283,"current_range_meters":26800,"station_id":"ce4bgkp2rcd13ifvqbmg","pricing_plan_id":"cebpf4jnsgd1na2vs0mg"},{"bike_id":"29334ae1-973e-4821-91d9-156352b96db4","system_id":"levelo_inurba_marseille","lat":43.299724,"lon":5.384848,"is_reserved":false,"is_disabled":false,"rental_uris":{"android":"levelo://app?vid=29334ae1-973e-4821-91d9-156352b96db4","ios":"levelo://app?vid=29334ae1-973e-4821-91d9-156352b96db4"},"vehicle_type_id":"4","last_reported":1724782283,"current_range_meters":17200,"station_id":"ce4bgj92rcd13ifvqbd0","pricing_plan_id":"cebpf4jnsgd1na2vs0mg"},{"bike_id":"298d9345-fe48-49c7-ba85-b05520faf03e","system_id":"levelo_inurba_marseille","lat":43.304274,"lon":5.388873,"is_reserved":false,"is_disabled":false,"rental_uris":{"android":"levelo://app?vid=298d9345-fe48-49c7-ba85-b05520faf03e","ios":"levelo://app?vid=298d9345-fe48-49c7-ba85-b05520faf03e"},"vehicle_type_id":"4","last_reported":1724782283,"current_range_meters":3200,"station_id":"ce4bgk12rcd13ifvqbi0","pricing_plan_id":"cebpf4jnsgd1na2vs0mg"},{"bike_id":"f5a256da-cec6-4f50-abf4-6310c92d0efa","system_id":"levelo_inurba_marseille","lat":43.299717,"lon":5.384845,"is_reserved":false,"is_disabled":false,"rental_uris":{"android":"levelo://app?vid=f5a256da-cec6-4f50-abf4-6310c92d0efa","ios":"levelo://app?vid=f5a256da-cec6-4f50-abf4-6310c92d0efa"},"vehicle_type_id":"4","last_reported":1724782283,"current_range_meters":2800,"station_id":"ce4bgj92rcd13ifvqbd0","pricing_plan_id":"cebpf4jnsgd1na2vs0mg"},{"bike_id":"42705f3a-b388-43c0-8ed7-89d44bab1d72","system_id":"levelo_inurba_marseille","lat":43.299666,"lon":5.385136,"is_reserved":false,"is_disabled":false,"rental_uris":{"android":"levelo://app?vid=42705f3a-b388-43c0-8ed7-89d44bab1d72","ios":"levelo://app?vid=42705f3a-b388-43c0-8ed7-89d44bab1d72"},"vehicle_type_id":"4","last_reported":1724782283,"current_range_meters":0,"station_id":"ce4bgj92rcd13ifvqbd0","pricing_plan_id":"cebpf4jnsgd1na2vs0mg"},{"bike_id":"00497f98-ba39-4e77-a8d3-5e1d638146e4","system_id":"levelo_inurba_marseille","lat":43.301396,"lon":5.387812,"is_reserved":false,"is_disabled":false,"rental_uris":{"android":"levelo://app?vid=00497f98-ba39-4e77-a8d3-5e1d638146e4","ios":"levelo://app?vid=00497f98-ba39-4e77-a8d3-5e1d638146e4"},"vehicle_type_id":"4","last_reported":1724782283,"current_range_meters":0,"station_id":"ce4bghh2rcd13ifvqb60","pricing_plan_id":"cebpf4jnsgd1na2vs0mg"},{"bike_id":"9f9c9a6b-a09a-4196-868c-350569c63aa7","system_id":"levelo_inurba_marseille","lat":43.294314,"lon":5.397498,"is_reserved":false,"is_disabled":false,"rental_uris":{"android":"levelo://app?vid=9f9c9a6b-a09a-4196-868c-350569c63aa7","ios":"levelo://app?vid=9f9c9a6b-a09a-4196-868c-350569c63aa7"},"vehicle_type_id":"4","last_reported":1724782283,"current_range_meters":22800,"station_id":"ce4bh3h2rcd13ifvqdo0","pricing_plan_id":"cebpf4jnsgd1na2vs0mg"},{"bike_id":"e5589cd9-2c09-4000-af1f-4b53a93e81b4","system_id":"levelo_inurba_marseille","lat":43.32367,"lon":5.388836,"is_reserved":false,"is_disabled":false,"rental_uris":{"android":"levelo://app?vid=e5589cd9-2c09-4000-af1f-4b53a93e81b4","ios":"levelo://app?vid=e5589cd9-2c09-4000-af1f-4b53a93e81b4"},"vehicle_type_id":"4","last_reported":1724782283,"current_range_meters":29600,"station_id":"ce4bhqp2rcd13ifvqhog","pricing_plan_id":"cebpf4jnsgd1na2vs0mg"},{"bike_id":"01491de9-678c-4b65-91ff-e6d3c409956b","system_id":"levelo_inurba_marseille","lat":43.32366,"lon":5.38887,"is_reserved":false,"is_disabled":false,"rental_uris":{"android":"levelo://app?vid=01491de9-678c-4b65-91ff-e6d3c409956b","ios":"levelo://app?vid=01491de9-678c-4b65-91ff-e6d3c409956b"},"vehicle_type_id":"4","last_reported":1724782283,"current_range_meters":4000,"station_id":"ce4bhqp2rcd13ifvqhog","pricing_plan_id":"cebpf4jnsgd1na2vs0mg"},{"bike_id":"7c0770c0-638a-41cf-84cf-8c1ab047ea5e","system_id":"levelo_inurba_marseille","lat":43.32367,"lon":5.388836,"is_reserved":false,"is_disabled":false,"rental_uris":{"android":"levelo://app?vid=7c0770c0-638a-41cf-84cf-8c1ab047ea5e","ios":"levelo://app?vid=7c0770c0-638a-41cf-84cf-8c1ab047ea5e"},"vehicle_type_id":"4","last_reported":1724782283,"current_range_meters":14000,"station_id":"ce4bhqp2rcd13ifvqhog","pricing_plan_id":"cebpf4jnsgd1na2vs0mg"},{"bike_id":"02332041-05ba-4aaa-88ce-1a31e039609a","system_id":"levelo_inurba_marseille","lat":43.295983,"lon":5.381043,"is_reserved":false,"is_disabled":false,"rental_uris":{"android":"levelo://app?vid=02332041-05ba-4aaa-88ce-1a31e039609a","ios":"levelo://app?vid=02332041-05ba-4aaa-88ce-1a31e039609a"},"vehicle_type_id":"4","last_reported":1724782283,"current_range_meters":20400,"station_id":"ce4bgl12rcd13ifvqbo0","pricing_plan_id":"cebpf4jnsgd1na2vs0mg"},{"bike_id":"c0bb4a30-c81f-4838-849d-1b7fa70572ff","system_id":"levelo_inurba_marseille","lat":43.293055,"lon":5.371617,"is_reserved":false,"is_disabled":false,"rental_uris":{"android":"levelo://app?vid=c0bb4a30-c81f-4838-849d-1b7fa70572ff","ios":"levelo://app?vid=c0bb4a30-c81f-4838-849d-1b7fa70572ff"},"vehicle_type_id":"4","last_reported":1724782283,"current_range_meters":0,"station_id":"ce4bgh92rcd13ifvqb40","pricing_plan_id":"cebpf4jnsgd1na2vs0mg"},{"bike_id":"a203ddd1-57de-45c5-ba87-bacf48fdaf42","system_id":"levelo_inurba_marseille","lat":43.293259,"lon":5.371586,"is_reserved":false,"is_disabled":false,"rental_uris":{"android":"levelo://app?vid=a203ddd1-57de-45c5-ba87-bacf48fdaf42","ios":"levelo://app?vid=a203ddd1-57de-45c5-ba87-bacf48fdaf42"},"vehicle_type_id":"4","last_reported":1724782283,"current_range_meters":20400,"station_id":"ce4bgh92rcd13ifvqb40","pricing_plan_id":"cebpf4jnsgd1na2vs0mg"},{"bike_id":"4b2d650a-9729-4d76-8ace-732a3fc7e874","system_id":"levelo_inurba_marseille","lat":43.293259,"lon":5.371586,"is_reserved":false,"is_disabled":false,"rental_uris":{"android":"levelo://app?vid=4b2d650a-9729-4d76-8ace-732a3fc7e874","ios":"levelo://app?vid=4b2d650a-9729-4d76-8ace-732a3fc7e874"},"vehicle_type_id":"4","last_reported":1724782283,"current_range_meters":10000,"station_id":"ce4bgh92rcd13ifvqb40","pricing_plan_id":"cebpf4jnsgd1na2vs0mg"},{"bike_id":"0e15fac2-0ae3-4094-b7cc-a343b9a84126","system_id":"levelo_inurba_marseille","lat":43.29233,"lon":5.36634,"is_reserved":false,"is_disabled":false,"rental_uris":{"android":"levelo://app?vid=0e15fac2-0ae3-4094-b7cc-a343b9a84126","ios":"levelo://app?vid=0e15fac2-0ae3-4094-b7cc-a343b9a84126"},"vehicle_type_id":"4","last_reported":1724782283,"current_range_meters":0,"station_id":"","pricing_plan_id":"cebpf4jnsgd1na2vs0mg"},{"bike_id":"18fd3308-20ba-4ab0-b1f1-1115241b2ebc","system_id":"levelo_inurba_marseille","lat":43.305994,"lon":5.393687,"is_reserved":false,"is_disabled":false,"rental_uris":{"android":"levelo://app?vid=18fd3308-20ba-4ab0-b1f1-1115241b2ebc","ios":"levelo://app?vid=18fd3308-20ba-4ab0-b1f1-1115241b2ebc"},"vehicle_type_id":"4","last_reported":1724782283,"current_range_meters":0,"station_id":"ce4bh0p2rcd13ifvqd80","pricing_plan_id":"cebpf4jnsgd1na2vs0mg"},{"bike_id":"d3e3d6d7-1f5d-45a0-8fb2-f6093dd8debc","system_id":"levelo_inurba_marseille","lat":43.30589,"lon":5.39359,"is_reserved":false,"is_disabled":false,"rental_uris":{"android":"levelo://app?vid=d3e3d6d7-1f5d-45a0-8fb2-f6093dd8debc","ios":"levelo://app?vid=d3e3d6d7-1f5d-45a0-8fb2-f6093dd8debc"},"vehicle_type_id":"4","last_reported":1724782283,"current_range_meters":6000,"station_id":"ce4bh0p2rcd13ifvqd80","pricing_plan_id":"cebpf4jnsgd1na2vs0mg"},{"bike_id":"42859cc2-b09d-4a3f-9866-9149807fe87f","system_id":"levelo_inurba_marseille","lat":43.305994,"lon":5.393687,"is_reserved":false,"is_disabled":false,"rental_uris":{"android":"levelo://app?vid=42859cc2-b09d-4a3f-9866-9149807fe87f","ios":"levelo://app?vid=42859cc2-b09d-4a3f-9866-9149807fe87f"},"vehicle_type_id":"4","last_reported":1724782283,"current_range_meters":0,"station_id":"ce4bh0p2rcd13ifvqd80","pricing_plan_id":"cebpf4jnsgd1na2vs0mg"},{"bike_id":"3e039764-4799-4e42-a039-a3183a0051f6","system_id":"levelo_inurba_marseille","lat":43.305994,"lon":5.393687,"is_reserved":false,"is_disabled":false,"rental_uris":{"android":"levelo://app?vid=3e039764-4799-4e42-a039-a3183a0051f6","ios":"levelo://app?vid=3e039764-4799-4e42-a039-a3183a0051f6"},"vehicle_type_id":"4","last_reported":1724782283,"current_range_meters":17600,"station_id":"ce4bh0p2rcd13ifvqd80","pricing_plan_id":"cebpf4jnsgd1na2vs0mg"},{"bike_id":"091eec97-b6f0-44d3-898e-6682b848a4c4","system_id":"levelo_inurba_marseille","lat":43.305994,"lon":5.393687,"is_reserved":false,"is_disabled":false,"rental_uris":{"android":"levelo://app?vid=091eec97-b6f0-44d3-898e-6682b848a4c4","ios":"levelo://app?vid=091eec97-b6f0-44d3-898e-6682b848a4c4"},"vehicle_type_id":"4","last_reported":1724782283,"current_range_meters":4400,"station_id":"ce4bh0p2rcd13ifvqd80","pricing_plan_id":"cebpf4jnsgd1na2vs0mg"},{"bike_id":"34e6a5a7-0684-4cf2-83e2-eda5ba3b0eb3","system_id":"levelo_inurba_marseille","lat":43.303009,"lon":5.392047,"is_reserved":false,"is_disabled":false,"rental_uris":{"android":"levelo://app?vid=34e6a5a7-0684-4cf2-83e2-eda5ba3b0eb3","ios":"levelo://app?vid=34e6a5a7-0684-4cf2-83e2-eda5ba3b0eb3"},"vehicle_type_id":"4","last_reported":1724782283,"current_range_meters":0,"station_id":"ce4bgkh2rcd13ifvqbk0","pricing_plan_id":"cebpf4jnsgd1na2vs0mg"},{"bike_id":"e549140e-7655-43f6-93a4-d913fefd4248","system_id":"levelo_inurba_marseille","lat":43.30304,"lon":5.39209,"is_reserved":false,"is_disabled":false,"rental_uris":{"android":"levelo://app?vid=e549140e-7655-43f6-93a4-d913fefd4248","ios":"levelo://app?vid=e549140e-7655-43f6-93a4-d913fefd4248"},"vehicle_type_id":"4","last_reported":1724782283,"current_range_meters":0,"station_id":"ce4bgkh2rcd13ifvqbk0","pricing_plan_id":"cebpf4jnsgd1na2vs0mg"},{"bike_id":"088d1026-551f-4aa5-8adf-79bdd594337f","system_id":"levelo_inurba_marseille","lat":43.303067,"lon":5.392127,"is_reserved":false,"is_disabled":false,"rental_uris":{"android":"levelo://app?vid=088d1026-551f-4aa5-8adf-79bdd594337f","ios":"levelo://app?vid=088d1026-551f-4aa5-8adf-79bdd594337f"},"vehicle_type_id":"4","last_reported":1724782283,"current_range_meters":2000,"station_id":"ce4bgkh2rcd13ifvqbk0","pricing_plan_id":"cebpf4jnsgd1na2vs0mg"},{"bike_id":"2ba71120-b68d-467e-86a9-009a5540b712","system_id":"levelo_inurba_marseille","lat":43.30293,"lon":5.39212,"is_reserved":false,"is_disabled":false,"rental_uris":{"android":"levelo://app?vid=2ba71120-b68d-467e-86a9-009a5540b712","ios":"levelo://app?vid=2ba71120-b68d-467e-86a9-009a5540b712"},"vehicle_type_id":"4","last_reported":1724782283,"current_range_meters":0,"station_id":"ce4bgkh2rcd13ifvqbk0","pricing_plan_id":"cebpf4jnsgd1na2vs0mg"},{"bike_id":"49f2ed80-7e42-42f9-a41f-5ee01151f421","system_id":"levelo_inurba_marseille","lat":43.303002,"lon":5.392142,"is_reserved":false,"is_disabled":false,"rental_uris":{"android":"levelo://app?vid=49f2ed80-7e42-42f9-a41f-5ee01151f421","ios":"levelo://app?vid=49f2ed80-7e42-42f9-a41f-5ee01151f421"},"vehicle_type_id":"4","last_reported":1724782283,"current_range_meters":16800,"station_id":"ce4bgkh2rcd13ifvqbk0","pricing_plan_id":"cebpf4jnsgd1na2vs0mg"},{"bike_id":"ed6b0e18-cd78-48b2-a4c8-16bd8c8e945a","system_id":"levelo_inurba_marseille","lat":43.29229,"lon":5.36053,"is_reserved":false,"is_disabled":false,"rental_uris":{"android":"levelo://app?vid=ed6b0e18-cd78-48b2-a4c8-16bd8c8e945a","ios":"levelo://app?vid=ed6b0e18-cd78-48b2-a4c8-16bd8c8e945a"},"vehicle_type_id":"4","last_reported":1724782283,"current_range_meters":0,"station_id":"ce4bhbh2rcd13ifvqeqg","pricing_plan_id":"cebpf4jnsgd1na2vs0mg"},{"bike_id":"0d8e0409-ba59-486f-906b-217c2144f3d9","system_id":"levelo_inurba_marseille","lat":43.30085,"lon":5.390856,"is_reserved":false,"is_disabled":false,"rental_uris":{"android":"levelo://app?vid=0d8e0409-ba59-486f-906b-217c2144f3d9","ios":"levelo://app?vid=0d8e0409-ba59-486f-906b-217c2144f3d9"},"vehicle_type_id":"4","last_reported":1724782283,"current_range_meters":2800,"station_id":"ce4bh192rcd13ifvqdb0","pricing_plan_id":"cebpf4jnsgd1na2vs0mg"},{"bike_id":"5e86fde3-4c20-46b2-8fb9-06bb36d06235","system_id":"levelo_inurba_marseille","lat":43.292311,"lon":5.360731,"is_reserved":false,"is_disabled":false,"rental_uris":{"android":"levelo://app?vid=5e86fde3-4c20-46b2-8fb9-06bb36d06235","ios":"levelo://app?vid=5e86fde3-4c20-46b2-8fb9-06bb36d06235"},"vehicle_type_id":"4","last_reported":1724782283,"current_range_meters":2000,"station_id":"ce4bhbh2rcd13ifvqeqg","pricing_plan_id":"cebpf4jnsgd1na2vs0mg"},{"bike_id":"c67be5b2-5d7c-4b57-b6f6-da26dddad639","system_id":"levelo_inurba_marseille","lat":43.291671,"lon":5.371575,"is_reserved":false,"is_disabled":false,"rental_uris":{"android":"levelo://app?vid=c67be5b2-5d7c-4b57-b6f6-da26dddad639","ios":"levelo://app?vid=c67be5b2-5d7c-4b57-b6f6-da26dddad639"},"vehicle_type_id":"4","last_reported":1724782283,"current_range_meters":14000,"station_id":"ce4bha92rcd13ifvqeh0","pricing_plan_id":"cebpf4jnsgd1na2vs0mg"},{"bike_id":"adc62dc6-511f-4954-9c90-a3eced408b20","system_id":"levelo_inurba_marseille","lat":43.291671,"lon":5.371575,"is_reserved":false,"is_disabled":false,"rental_uris":{"android":"levelo://app?vid=adc62dc6-511f-4954-9c90-a3eced408b20","ios":"levelo://app?vid=adc62dc6-511f-4954-9c90-a3eced408b20"},"vehicle_type_id":"4","last_reported":1724782283,"current_range_meters":4400,"station_id":"ce4bha92rcd13ifvqeh0","pricing_plan_id":"cebpf4jnsgd1na2vs0mg"},{"bike_id":"78e3b7e3-fd4d-49aa-baed-9db8f4d84a47","system_id":"levelo_inurba_marseille","lat":43.291671,"lon":5.371575,"is_reserved":false,"is_disabled":false,"rental_uris":{"android":"levelo://app?vid=78e3b7e3-fd4d-49aa-baed-9db8f4d84a47","ios":"levelo://app?vid=78e3b7e3-fd4d-49aa-baed-9db8f4d84a47"},"vehicle_type_id":"4","last_reported":1724782283,"current_range_meters":21600,"station_id":"ce4bha92rcd13ifvqeh0","pricing_plan_id":"cebpf4jnsgd1na2vs0mg"},{"bike_id":"7070b70e-7416-4989-b44f-f17b98d3f151","system_id":"levelo_inurba_marseille","lat":43.298764,"lon":5.388973,"is_reserved":false,"is_disabled":false,"rental_uris":{"android":"levelo://app?vid=7070b70e-7416-4989-b44f-f17b98d3f151","ios":"levelo://app?vid=7070b70e-7416-4989-b44f-f17b98d3f151"},"vehicle_type_id":"4","last_reported":1724782283,"current_range_meters":7200,"station_id":"ce4bh392rcd13ifvqdl0","pricing_plan_id":"cebpf4jnsgd1na2vs0mg"},{"bike_id":"802a4f30-5a88-49b6-a456-407f66dc6fa5","system_id":"levelo_inurba_marseille","lat":43.29885,"lon":5.38912,"is_reserved":false,"is_disabled":false,"rental_uris":{"android":"levelo://app?vid=802a4f30-5a88-49b6-a456-407f66dc6fa5","ios":"levelo://app?vid=802a4f30-5a88-49b6-a456-407f66dc6fa5"},"vehicle_type_id":"4","last_reported":1724782283,"current_range_meters":12400,"station_id":"ce4bh392rcd13ifvqdl0","pricing_plan_id":"cebpf4jnsgd1na2vs0mg"},{"bike_id":"4ab1e4d4-0051-4d4a-a4a0-9348737d1ad5","system_id":"levelo_inurba_marseille","lat":43.298764,"lon":5.388973,"is_reserved":false,"is_disabled":false,"rental_uris":{"android":"levelo://app?vid=4ab1e4d4-0051-4d4a-a4a0-9348737d1ad5","ios":"levelo://app?vid=4ab1e4d4-0051-4d4a-a4a0-9348737d1ad5"},"vehicle_type_id":"4","last_reported":1724782283,"current_range_meters":22800,"station_id":"ce4bh392rcd13ifvqdl0","pricing_plan_id":"cebpf4jnsgd1na2vs0mg"},{"bike_id":"13995e3b-75bb-492e-bf2d-2415b2d56026","system_id":"levelo_inurba_marseille","lat":43.298764,"lon":5.388973,"is_reserved":false,"is_disabled":false,"rental_uris":{"android":"levelo://app?vid=13995e3b-75bb-492e-bf2d-2415b2d56026","ios":"levelo://app?vid=13995e3b-75bb-492e-bf2d-2415b2d56026"},"vehicle_type_id":"4","last_reported":1724782283,"current_range_meters":24400,"station_id":"ce4bh392rcd13ifvqdl0","pricing_plan_id":"cebpf4jnsgd1na2vs0mg"},{"bike_id":"03300186-070f-46f7-9191-956b01a5fe76","system_id":"levelo_inurba_marseille","lat":43.291671,"lon":5.371575,"is_reserved":false,"is_disabled":false,"rental_uris":{"android":"levelo://app?vid=03300186-070f-46f7-9191-956b01a5fe76","ios":"levelo://app?vid=03300186-070f-46f7-9191-956b01a5fe76"},"vehicle_type_id":"4","last_reported":1724782283,"current_range_meters":14400,"station_id":"ce4bha92rcd13ifvqeh0","pricing_plan_id":"cebpf4jnsgd1na2vs0mg"},{"bike_id":"3a2e2d80-0562-44a8-b48d-3e2aba510a3c","system_id":"levelo_inurba_marseille","lat":43.298764,"lon":5.388973,"is_reserved":false,"is_disabled":false,"rental_uris":{"android":"levelo://app?vid=3a2e2d80-0562-44a8-b48d-3e2aba510a3c","ios":"levelo://app?vid=3a2e2d80-0562-44a8-b48d-3e2aba510a3c"},"vehicle_type_id":"4","last_reported":1724782283,"current_range_meters":15200,"station_id":"ce4bh392rcd13ifvqdl0","pricing_plan_id":"cebpf4jnsgd1na2vs0mg"},{"bike_id":"bcaabff7-ac34-4c64-867c-2d496b929275","system_id":"levelo_inurba_marseille","lat":43.291675,"lon":5.371583,"is_reserved":false,"is_disabled":false,"rental_uris":{"android":"levelo://app?vid=bcaabff7-ac34-4c64-867c-2d496b929275","ios":"levelo://app?vid=bcaabff7-ac34-4c64-867c-2d496b929275"},"vehicle_type_id":"4","last_reported":1724782283,"current_range_meters":2800,"station_id":"ce4bha92rcd13ifvqeh0","pricing_plan_id":"cebpf4jnsgd1na2vs0mg"},{"bike_id":"764789eb-2864-4fc7-8094-6155c44e0e7a","system_id":"levelo_inurba_marseille","lat":43.291671,"lon":5.371575,"is_reserved":false,"is_disabled":false,"rental_uris":{"android":"levelo://app?vid=764789eb-2864-4fc7-8094-6155c44e0e7a","ios":"levelo://app?vid=764789eb-2864-4fc7-8094-6155c44e0e7a"},"vehicle_type_id":"4","last_reported":1724782283,"current_range_meters":4800,"station_id":"ce4bha92rcd13ifvqeh0","pricing_plan_id":"cebpf4jnsgd1na2vs0mg"},{"bike_id":"e6f63b4e-07de-494e-9c85-fce17f9dfeac","system_id":"levelo_inurba_marseille","lat":43.291675,"lon":5.371583,"is_reserved":false,"is_disabled":false,"rental_uris":{"android":"levelo://app?vid=e6f63b4e-07de-494e-9c85-fce17f9dfeac","ios":"levelo://app?vid=e6f63b4e-07de-494e-9c85-fce17f9dfeac"},"vehicle_type_id":"4","last_reported":1724782283,"current_range_meters":30400,"station_id":"ce4bha92rcd13ifvqeh0","pricing_plan_id":"cebpf4jnsgd1na2vs0mg"},{"bike_id":"c60def8e-615d-47a9-89ff-a8d82032d637","system_id":"levelo_inurba_marseille","lat":43.291675,"lon":5.371583,"is_reserved":false,"is_disabled":false,"rental_uris":{"android":"levelo://app?vid=c60def8e-615d-47a9-89ff-a8d82032d637","ios":"levelo://app?vid=c60def8e-615d-47a9-89ff-a8d82032d637"},"vehicle_type_id":"4","last_reported":1724782283,"current_range_meters":25600,"station_id":"ce4bha92rcd13ifvqeh0","pricing_plan_id":"cebpf4jnsgd1na2vs0mg"},{"bike_id":"421b4663-4f62-47b5-bb67-f414b2c80c77","system_id":"levelo_inurba_marseille","lat":43.29875,"lon":5.38916,"is_reserved":false,"is_disabled":false,"rental_uris":{"android":"levelo://app?vid=421b4663-4f62-47b5-bb67-f414b2c80c77","ios":"levelo://app?vid=421b4663-4f62-47b5-bb67-f414b2c80c77"},"vehicle_type_id":"4","last_reported":1724782283,"current_range_meters":15200,"station_id":"ce4bh392rcd13ifvqdl0","pricing_plan_id":"cebpf4jnsgd1na2vs0mg"},{"bike_id":"abfc13dd-4ba6-46c8-ba77-29fe1fa3a658","system_id":"levelo_inurba_marseille","lat":43.29877,"lon":5.38919,"is_reserved":false,"is_disabled":false,"rental_uris":{"android":"levelo://app?vid=abfc13dd-4ba6-46c8-ba77-29fe1fa3a658","ios":"levelo://app?vid=abfc13dd-4ba6-46c8-ba77-29fe1fa3a658"},"vehicle_type_id":"4","last_reported":1724782283,"current_range_meters":27200,"station_id":"ce4bh392rcd13ifvqdl0","pricing_plan_id":"cebpf4jnsgd1na2vs0mg"},{"bike_id":"94d138f2-e413-4dcd-b571-5b5d147c9843","system_id":"levelo_inurba_marseille","lat":43.292005,"lon":5.357875,"is_reserved":false,"is_disabled":false,"rental_uris":{"android":"levelo://app?vid=94d138f2-e413-4dcd-b571-5b5d147c9843","ios":"levelo://app?vid=94d138f2-e413-4dcd-b571-5b5d147c9843"},"vehicle_type_id":"4","last_reported":1724782283,"current_range_meters":3600,"station_id":"ce4bhb12rcd13ifvqel0","pricing_plan_id":"cebpf4jnsgd1na2vs0mg"},{"bike_id":"334d7592-7952-499b-808a-dcf150a7e4ed","system_id":"levelo_inurba_marseille","lat":43.292005,"lon":5.357875,"is_reserved":false,"is_disabled":false,"rental_uris":{"android":"levelo://app?vid=334d7592-7952-499b-808a-dcf150a7e4ed","ios":"levelo://app?vid=334d7592-7952-499b-808a-dcf150a7e4ed"},"vehicle_type_id":"4","last_reported":1724782283,"current_range_meters":31200,"station_id":"ce4bhb12rcd13ifvqel0","pricing_plan_id":"cebpf4jnsgd1na2vs0mg"},{"bike_id":"c4b86e8d-f8ae-4104-ac0d-ca28002fdd90","system_id":"levelo_inurba_marseille","lat":43.292005,"lon":5.357875,"is_reserved":false,"is_disabled":false,"rental_uris":{"android":"levelo://app?vid=c4b86e8d-f8ae-4104-ac0d-ca28002fdd90","ios":"levelo://app?vid=c4b86e8d-f8ae-4104-ac0d-ca28002fdd90"},"vehicle_type_id":"4","last_reported":1724782283,"current_range_meters":26800,"station_id":"ce4bhb12rcd13ifvqel0","pricing_plan_id":"cebpf4jnsgd1na2vs0mg"},{"bike_id":"10c9397a-20c9-42b7-b03f-ad1b2b796b19","system_id":"levelo_inurba_marseille","lat":43.292005,"lon":5.357875,"is_reserved":false,"is_disabled":false,"rental_uris":{"android":"levelo://app?vid=10c9397a-20c9-42b7-b03f-ad1b2b796b19","ios":"levelo://app?vid=10c9397a-20c9-42b7-b03f-ad1b2b796b19"},"vehicle_type_id":"4","last_reported":1724782283,"current_range_meters":24000,"station_id":"ce4bhb12rcd13ifvqel0","pricing_plan_id":"cebpf4jnsgd1na2vs0mg"},{"bike_id":"f2e2dd0c-e843-495a-aa48-d71f44b46ab9","system_id":"levelo_inurba_marseille","lat":43.292005,"lon":5.357875,"is_reserved":false,"is_disabled":false,"rental_uris":{"android":"levelo://app?vid=f2e2dd0c-e843-495a-aa48-d71f44b46ab9","ios":"levelo://app?vid=f2e2dd0c-e843-495a-aa48-d71f44b46ab9"},"vehicle_type_id":"4","last_reported":1724782283,"current_range_meters":16800,"station_id":"ce4bhb12rcd13ifvqel0","pricing_plan_id":"cebpf4jnsgd1na2vs0mg"},{"bike_id":"a0f439af-c84f-4a9d-b79a-8abc11678814","system_id":"levelo_inurba_marseille","lat":43.291943,"lon":5.358017,"is_reserved":false,"is_disabled":false,"rental_uris":{"android":"levelo://app?vid=a0f439af-c84f-4a9d-b79a-8abc11678814","ios":"levelo://app?vid=a0f439af-c84f-4a9d-b79a-8abc11678814"},"vehicle_type_id":"4","last_reported":1724782283,"current_range_meters":27200,"station_id":"ce4bhb12rcd13ifvqel0","pricing_plan_id":"cebpf4jnsgd1na2vs0mg"},{"bike_id":"f50f0348-1997-4f98-af34-8536a1f167e3","system_id":"levelo_inurba_marseille","lat":43.33416,"lon":5.36137,"is_reserved":false,"is_disabled":false,"rental_uris":{"android":"levelo://app?vid=f50f0348-1997-4f98-af34-8536a1f167e3","ios":"levelo://app?vid=f50f0348-1997-4f98-af34-8536a1f167e3"},"vehicle_type_id":"4","last_reported":1724782283,"current_range_meters":5200,"station_id":"","pricing_plan_id":"cebpf4jnsgd1na2vs0mg"},{"bike_id":"d2faf274-0559-4dc0-8b81-e587ca141f7d","system_id":"levelo_inurba_marseille","lat":43.292005,"lon":5.357875,"is_reserved":false,"is_disabled":false,"rental_uris":{"android":"levelo://app?vid=d2faf274-0559-4dc0-8b81-e587ca141f7d","ios":"levelo://app?vid=d2faf274-0559-4dc0-8b81-e587ca141f7d"},"vehicle_type_id":"4","last_reported":1724782283,"current_range_meters":26400,"station_id":"ce4bhb12rcd13ifvqel0","pricing_plan_id":"cebpf4jnsgd1na2vs0mg"},{"bike_id":"2f847520-b498-4b92-bf0b-682652d5ce95","system_id":"levelo_inurba_marseille","lat":43.292005,"lon":5.357875,"is_reserved":false,"is_disabled":false,"rental_uris":{"android":"levelo://app?vid=2f847520-b498-4b92-bf0b-682652d5ce95","ios":"levelo://app?vid=2f847520-b498-4b92-bf0b-682652d5ce95"},"vehicle_type_id":"4","last_reported":1724782283,"current_range_meters":2400,"station_id":"ce4bhb12rcd13ifvqel0","pricing_plan_id":"cebpf4jnsgd1na2vs0mg"},{"bike_id":"d8668416-404a-4784-a67b-1c1a985356ac","system_id":"levelo_inurba_marseille","lat":43.292005,"lon":5.357875,"is_reserved":false,"is_disabled":false,"rental_uris":{"android":"levelo://app?vid=d8668416-404a-4784-a67b-1c1a985356ac","ios":"levelo://app?vid=d8668416-404a-4784-a67b-1c1a985356ac"},"vehicle_type_id":"4","last_reported":1724782283,"current_range_meters":21200,"station_id":"ce4bhb12rcd13ifvqel0","pricing_plan_id":"cebpf4jnsgd1na2vs0mg"},{"bike_id":"7acfc564-07a0-4acf-86cd-8d7e2785f8b5","system_id":"levelo_inurba_marseille","lat":43.313291,"lon":5.396838,"is_reserved":false,"is_disabled":false,"rental_uris":{"android":"levelo://app?vid=7acfc564-07a0-4acf-86cd-8d7e2785f8b5","ios":"levelo://app?vid=7acfc564-07a0-4acf-86cd-8d7e2785f8b5"},"vehicle_type_id":"4","last_reported":1724782283,"current_range_meters":400,"station_id":"ce4bgvp2rcd13ifvqcu0","pricing_plan_id":"cebpf4jnsgd1na2vs0mg"},{"bike_id":"1b805807-6057-414f-9eb2-427c1cf3cde3","system_id":"levelo_inurba_marseille","lat":43.292005,"lon":5.357875,"is_reserved":false,"is_disabled":false,"rental_uris":{"android":"levelo://app?vid=1b805807-6057-414f-9eb2-427c1cf3cde3","ios":"levelo://app?vid=1b805807-6057-414f-9eb2-427c1cf3cde3"},"vehicle_type_id":"4","last_reported":1724782283,"current_range_meters":17600,"station_id":"ce4bhb12rcd13ifvqel0","pricing_plan_id":"cebpf4jnsgd1na2vs0mg"},{"bike_id":"58e295b0-4db7-4439-982d-f697e1d8381a","system_id":"levelo_inurba_marseille","lat":43.31331,"lon":5.39695,"is_reserved":false,"is_disabled":false,"rental_uris":{"android":"levelo://app?vid=58e295b0-4db7-4439-982d-f697e1d8381a","ios":"levelo://app?vid=58e295b0-4db7-4439-982d-f697e1d8381a"},"vehicle_type_id":"4","last_reported":1724782283,"current_range_meters":0,"station_id":"ce4bgvp2rcd13ifvqcu0","pricing_plan_id":"cebpf4jnsgd1na2vs0mg"},{"bike_id":"6e3988fe-2c71-4040-9f02-97fe576787e8","system_id":"levelo_inurba_marseille","lat":43.313291,"lon":5.396838,"is_reserved":false,"is_disabled":false,"rental_uris":{"android":"levelo://app?vid=6e3988fe-2c71-4040-9f02-97fe576787e8","ios":"levelo://app?vid=6e3988fe-2c71-4040-9f02-97fe576787e8"},"vehicle_type_id":"4","last_reported":1724782283,"current_range_meters":23600,"station_id":"ce4bgvp2rcd13ifvqcu0","pricing_plan_id":"cebpf4jnsgd1na2vs0mg"},{"bike_id":"c4865581-2c03-46d0-8fd3-9a569fd2560f","system_id":"levelo_inurba_marseille","lat":43.313291,"lon":5.396838,"is_reserved":false,"is_disabled":false,"rental_uris":{"android":"levelo://app?vid=c4865581-2c03-46d0-8fd3-9a569fd2560f","ios":"levelo://app?vid=c4865581-2c03-46d0-8fd3-9a569fd2560f"},"vehicle_type_id":"4","last_reported":1724782283,"current_range_meters":19200,"station_id":"ce4bgvp2rcd13ifvqcu0","pricing_plan_id":"cebpf4jnsgd1na2vs0mg"},{"bike_id":"3ab130f3-17d0-4489-9c67-ff7018257b70","system_id":"levelo_inurba_marseille","lat":43.313291,"lon":5.396838,"is_reserved":false,"is_disabled":false,"rental_uris":{"android":"levelo://app?vid=3ab130f3-17d0-4489-9c67-ff7018257b70","ios":"levelo://app?vid=3ab130f3-17d0-4489-9c67-ff7018257b70"},"vehicle_type_id":"4","last_reported":1724782283,"current_range_meters":28000,"station_id":"ce4bgvp2rcd13ifvqcu0","pricing_plan_id":"cebpf4jnsgd1na2vs0mg"},{"bike_id":"5b560713-b284-4572-96e2-a84cbe2885e7","system_id":"levelo_inurba_marseille","lat":43.29529,"lon":5.385581,"is_reserved":false,"is_disabled":false,"rental_uris":{"android":"levelo://app?vid=5b560713-b284-4572-96e2-a84cbe2885e7","ios":"levelo://app?vid=5b560713-b284-4572-96e2-a84cbe2885e7"},"vehicle_type_id":"4","last_reported":1724782283,"current_range_meters":13600,"station_id":"ce4bgih2rcd13ifvqba0","pricing_plan_id":"cebpf4jnsgd1na2vs0mg"},{"bike_id":"7f50ca83-ceb5-425e-8607-bbddb4c85158","system_id":"levelo_inurba_marseille","lat":43.29529,"lon":5.385581,"is_reserved":false,"is_disabled":false,"rental_uris":{"android":"levelo://app?vid=7f50ca83-ceb5-425e-8607-bbddb4c85158","ios":"levelo://app?vid=7f50ca83-ceb5-425e-8607-bbddb4c85158"},"vehicle_type_id":"4","last_reported":1724782283,"current_range_meters":30800,"station_id":"ce4bgih2rcd13ifvqba0","pricing_plan_id":"cebpf4jnsgd1na2vs0mg"},{"bike_id":"434ee304-ee7b-4e6d-a2f8-af83d780cad9","system_id":"levelo_inurba_marseille","lat":43.29531,"lon":5.38543,"is_reserved":false,"is_disabled":false,"rental_uris":{"android":"levelo://app?vid=434ee304-ee7b-4e6d-a2f8-af83d780cad9","ios":"levelo://app?vid=434ee304-ee7b-4e6d-a2f8-af83d780cad9"},"vehicle_type_id":"4","last_reported":1724782283,"current_range_meters":30400,"station_id":"ce4bgih2rcd13ifvqba0","pricing_plan_id":"cebpf4jnsgd1na2vs0mg"},{"bike_id":"450e1f0b-8ff5-4ff0-bdb1-d08d8f0eed8d","system_id":"levelo_inurba_marseille","lat":43.29529,"lon":5.385581,"is_reserved":false,"is_disabled":false,"rental_uris":{"android":"levelo://app?vid=450e1f0b-8ff5-4ff0-bdb1-d08d8f0eed8d","ios":"levelo://app?vid=450e1f0b-8ff5-4ff0-bdb1-d08d8f0eed8d"},"vehicle_type_id":"4","last_reported":1724782283,"current_range_meters":26800,"station_id":"ce4bgih2rcd13ifvqba0","pricing_plan_id":"cebpf4jnsgd1na2vs0mg"},{"bike_id":"c6385b34-3868-42d0-9a14-e7a89c9f8242","system_id":"levelo_inurba_marseille","lat":43.29529,"lon":5.385581,"is_reserved":false,"is_disabled":false,"rental_uris":{"android":"levelo://app?vid=c6385b34-3868-42d0-9a14-e7a89c9f8242","ios":"levelo://app?vid=c6385b34-3868-42d0-9a14-e7a89c9f8242"},"vehicle_type_id":"4","last_reported":1724782283,"current_range_meters":11200,"station_id":"ce4bgih2rcd13ifvqba0","pricing_plan_id":"cebpf4jnsgd1na2vs0mg"},{"bike_id":"b4e9573a-5f8c-4bfa-9318-3140e22c49dc","system_id":"levelo_inurba_marseille","lat":43.29529,"lon":5.385581,"is_reserved":false,"is_disabled":false,"rental_uris":{"android":"levelo://app?vid=b4e9573a-5f8c-4bfa-9318-3140e22c49dc","ios":"levelo://app?vid=b4e9573a-5f8c-4bfa-9318-3140e22c49dc"},"vehicle_type_id":"4","last_reported":1724782283,"current_range_meters":20800,"station_id":"ce4bgih2rcd13ifvqba0","pricing_plan_id":"cebpf4jnsgd1na2vs0mg"},{"bike_id":"861baa65-0737-4614-8238-8c46fb39b51d","system_id":"levelo_inurba_marseille","lat":43.291905,"lon":5.356763,"is_reserved":false,"is_disabled":false,"rental_uris":{"android":"levelo://app?vid=861baa65-0737-4614-8238-8c46fb39b51d","ios":"levelo://app?vid=861baa65-0737-4614-8238-8c46fb39b51d"},"vehicle_type_id":"4","last_reported":1724782283,"current_range_meters":21600,"station_id":"","pricing_plan_id":"cebpf4jnsgd1na2vs0mg"},{"bike_id":"42341e58-b76f-423d-a6ee-c90a3904567e","system_id":"levelo_inurba_marseille","lat":43.29526,"lon":5.38554,"is_reserved":false,"is_disabled":false,"rental_uris":{"android":"levelo://app?vid=42341e58-b76f-423d-a6ee-c90a3904567e","ios":"levelo://app?vid=42341e58-b76f-423d-a6ee-c90a3904567e"},"vehicle_type_id":"4","last_reported":1724782283,"current_range_meters":12400,"station_id":"ce4bgih2rcd13ifvqba0","pricing_plan_id":"cebpf4jnsgd1na2vs0mg"},{"bike_id":"ea62cea8-2eeb-4551-a974-e9cd1040a5fe","system_id":"levelo_inurba_marseille","lat":43.29075,"lon":5.37173,"is_reserved":false,"is_disabled":false,"rental_uris":{"android":"levelo://app?vid=ea62cea8-2eeb-4551-a974-e9cd1040a5fe","ios":"levelo://app?vid=ea62cea8-2eeb-4551-a974-e9cd1040a5fe"},"vehicle_type_id":"4","last_reported":1724782283,"current_range_meters":0,"station_id":"ce4bh5p2rcd13ifvqe4g","pricing_plan_id":"cebpf4jnsgd1na2vs0mg"},{"bike_id":"bf8d3700-a5c3-4805-b787-7b5e1d3fab0f","system_id":"levelo_inurba_marseille","lat":43.29072,"lon":5.37177,"is_reserved":false,"is_disabled":false,"rental_uris":{"android":"levelo://app?vid=bf8d3700-a5c3-4805-b787-7b5e1d3fab0f","ios":"levelo://app?vid=bf8d3700-a5c3-4805-b787-7b5e1d3fab0f"},"vehicle_type_id":"4","last_reported":1724782283,"current_range_meters":19200,"station_id":"ce4bh5p2rcd13ifvqe4g","pricing_plan_id":"cebpf4jnsgd1na2vs0mg"},{"bike_id":"1e84e2db-31c9-4217-a517-06d9043e7ebc","system_id":"levelo_inurba_marseille","lat":43.290779,"lon":5.371482,"is_reserved":false,"is_disabled":false,"rental_uris":{"android":"levelo://app?vid=1e84e2db-31c9-4217-a517-06d9043e7ebc","ios":"levelo://app?vid=1e84e2db-31c9-4217-a517-06d9043e7ebc"},"vehicle_type_id":"4","last_reported":1724782283,"current_range_meters":9600,"station_id":"ce4bh5p2rcd13ifvqe4g","pricing_plan_id":"cebpf4jnsgd1na2vs0mg"},{"bike_id":"1c395965-8b19-49ad-9ce2-f1c3388aee2f","system_id":"levelo_inurba_marseille","lat":43.29498,"lon":5.38631,"is_reserved":false,"is_disabled":false,"rental_uris":{"android":"levelo://app?vid=1c395965-8b19-49ad-9ce2-f1c3388aee2f","ios":"levelo://app?vid=1c395965-8b19-49ad-9ce2-f1c3388aee2f"},"vehicle_type_id":"4","last_reported":1724782283,"current_range_meters":10800,"station_id":"","pricing_plan_id":"cebpf4jnsgd1na2vs0mg"},{"bike_id":"9b63b843-99ba-4fe3-b7ea-8307be122e2e","system_id":"levelo_inurba_marseille","lat":43.307387,"lon":5.397283,"is_reserved":false,"is_disabled":false,"rental_uris":{"android":"levelo://app?vid=9b63b843-99ba-4fe3-b7ea-8307be122e2e","ios":"levelo://app?vid=9b63b843-99ba-4fe3-b7ea-8307be122e2e"},"vehicle_type_id":"4","last_reported":1724782283,"current_range_meters":24400,"station_id":"","pricing_plan_id":"cebpf4jnsgd1na2vs0mg"},{"bike_id":"57e8e413-27db-4185-ace8-39782660807a","system_id":"levelo_inurba_marseille","lat":43.302008,"lon":5.394694,"is_reserved":false,"is_disabled":false,"rental_uris":{"android":"levelo://app?vid=57e8e413-27db-4185-ace8-39782660807a","ios":"levelo://app?vid=57e8e413-27db-4185-ace8-39782660807a"},"vehicle_type_id":"4","last_reported":1724782283,"current_range_meters":8000,"station_id":"ce4bh0p2rcd13ifvqd70","pricing_plan_id":"cebpf4jnsgd1na2vs0mg"},{"bike_id":"716f911e-20c6-4959-b523-13ce4eb02d23","system_id":"levelo_inurba_marseille","lat":43.290631,"lon":5.359244,"is_reserved":false,"is_disabled":false,"rental_uris":{"android":"levelo://app?vid=716f911e-20c6-4959-b523-13ce4eb02d23","ios":"levelo://app?vid=716f911e-20c6-4959-b523-13ce4eb02d23"},"vehicle_type_id":"4","last_reported":1724782283,"current_range_meters":23600,"station_id":"ce4bha92rcd13ifvqeg0","pricing_plan_id":"cebpf4jnsgd1na2vs0mg"},{"bike_id":"faba35ab-56ea-4023-a9a9-bdc7151753bd","system_id":"levelo_inurba_marseille","lat":43.290624,"lon":5.359245,"is_reserved":false,"is_disabled":false,"rental_uris":{"android":"levelo://app?vid=faba35ab-56ea-4023-a9a9-bdc7151753bd","ios":"levelo://app?vid=faba35ab-56ea-4023-a9a9-bdc7151753bd"},"vehicle_type_id":"4","last_reported":1724782283,"current_range_meters":25600,"station_id":"ce4bha92rcd13ifvqeg0","pricing_plan_id":"cebpf4jnsgd1na2vs0mg"},{"bike_id":"c048d07f-d302-4759-9b4e-d7600d30c880","system_id":"levelo_inurba_marseille","lat":43.290624,"lon":5.359245,"is_reserved":false,"is_disabled":false,"rental_uris":{"android":"levelo://app?vid=c048d07f-d302-4759-9b4e-d7600d30c880","ios":"levelo://app?vid=c048d07f-d302-4759-9b4e-d7600d30c880"},"vehicle_type_id":"4","last_reported":1724782283,"current_range_meters":7600,"station_id":"ce4bha92rcd13ifvqeg0","pricing_plan_id":"cebpf4jnsgd1na2vs0mg"},{"bike_id":"e38a6240-8485-4bf0-8faf-323e8805141a","system_id":"levelo_inurba_marseille","lat":43.290631,"lon":5.359244,"is_reserved":false,"is_disabled":false,"rental_uris":{"android":"levelo://app?vid=e38a6240-8485-4bf0-8faf-323e8805141a","ios":"levelo://app?vid=e38a6240-8485-4bf0-8faf-323e8805141a"},"vehicle_type_id":"4","last_reported":1724782283,"current_range_meters":30800,"station_id":"ce4bha92rcd13ifvqeg0","pricing_plan_id":"cebpf4jnsgd1na2vs0mg"},{"bike_id":"3e0b5e10-53bc-425d-b0be-37c4d1a94565","system_id":"levelo_inurba_marseille","lat":43.32461,"lon":5.394,"is_reserved":false,"is_disabled":false,"rental_uris":{"android":"levelo://app?vid=3e0b5e10-53bc-425d-b0be-37c4d1a94565","ios":"levelo://app?vid=3e0b5e10-53bc-425d-b0be-37c4d1a94565"},"vehicle_type_id":"4","last_reported":1724782283,"current_range_meters":1200,"station_id":"","pricing_plan_id":"cebpf4jnsgd1na2vs0mg"},{"bike_id":"ffb31419-31a3-4af3-ba5b-2d6a7136676c","system_id":"levelo_inurba_marseille","lat":43.290631,"lon":5.359244,"is_reserved":false,"is_disabled":false,"rental_uris":{"android":"levelo://app?vid=ffb31419-31a3-4af3-ba5b-2d6a7136676c","ios":"levelo://app?vid=ffb31419-31a3-4af3-ba5b-2d6a7136676c"},"vehicle_type_id":"4","last_reported":1724782283,"current_range_meters":8000,"station_id":"ce4bha92rcd13ifvqeg0","pricing_plan_id":"cebpf4jnsgd1na2vs0mg"},{"bike_id":"4882883a-ef48-49f1-b5b7-95823a2a8969","system_id":"levelo_inurba_marseille","lat":43.290631,"lon":5.359244,"is_reserved":false,"is_disabled":false,"rental_uris":{"android":"levelo://app?vid=4882883a-ef48-49f1-b5b7-95823a2a8969","ios":"levelo://app?vid=4882883a-ef48-49f1-b5b7-95823a2a8969"},"vehicle_type_id":"4","last_reported":1724782283,"current_range_meters":32000,"station_id":"ce4bha92rcd13ifvqeg0","pricing_plan_id":"cebpf4jnsgd1na2vs0mg"},{"bike_id":"33d9eb92-a417-4e0d-a76d-8a79e58c3b17","system_id":"levelo_inurba_marseille","lat":43.290631,"lon":5.359244,"is_reserved":false,"is_disabled":false,"rental_uris":{"android":"levelo://app?vid=33d9eb92-a417-4e0d-a76d-8a79e58c3b17","ios":"levelo://app?vid=33d9eb92-a417-4e0d-a76d-8a79e58c3b17"},"vehicle_type_id":"4","last_reported":1724782283,"current_range_meters":17200,"station_id":"ce4bha92rcd13ifvqeg0","pricing_plan_id":"cebpf4jnsgd1na2vs0mg"},{"bike_id":"f0ef176b-851a-419d-a319-72c97858d306","system_id":"levelo_inurba_marseille","lat":43.290631,"lon":5.359244,"is_reserved":false,"is_disabled":false,"rental_uris":{"android":"levelo://app?vid=f0ef176b-851a-419d-a319-72c97858d306","ios":"levelo://app?vid=f0ef176b-851a-419d-a319-72c97858d306"},"vehicle_type_id":"4","last_reported":1724782283,"current_range_meters":9600,"station_id":"ce4bha92rcd13ifvqeg0","pricing_plan_id":"cebpf4jnsgd1na2vs0mg"},{"bike_id":"40a30a6e-3ccd-42cc-899f-1be25fbbca52","system_id":"levelo_inurba_marseille","lat":43.32555,"lon":5.39344,"is_reserved":false,"is_disabled":false,"rental_uris":{"android":"levelo://app?vid=40a30a6e-3ccd-42cc-899f-1be25fbbca52","ios":"levelo://app?vid=40a30a6e-3ccd-42cc-899f-1be25fbbca52"},"vehicle_type_id":"4","last_reported":1724782283,"current_range_meters":3600,"station_id":"","pricing_plan_id":"cebpf4jnsgd1na2vs0mg"},{"bike_id":"ba67c2c3-1bc8-4d88-bd45-4d1f6c418ae1","system_id":"levelo_inurba_marseille","lat":43.29429,"lon":5.38626,"is_reserved":false,"is_disabled":false,"rental_uris":{"android":"levelo://app?vid=ba67c2c3-1bc8-4d88-bd45-4d1f6c418ae1","ios":"levelo://app?vid=ba67c2c3-1bc8-4d88-bd45-4d1f6c418ae1"},"vehicle_type_id":"4","last_reported":1724782283,"current_range_meters":15600,"station_id":"ce4bh2h2rcd13ifvqdh0","pricing_plan_id":"cebpf4jnsgd1na2vs0mg"},{"bike_id":"8fa0c87c-9a82-4fea-970c-bab393fadea5","system_id":"levelo_inurba_marseille","lat":43.294153,"lon":5.386305,"is_reserved":false,"is_disabled":false,"rental_uris":{"android":"levelo://app?vid=8fa0c87c-9a82-4fea-970c-bab393fadea5","ios":"levelo://app?vid=8fa0c87c-9a82-4fea-970c-bab393fadea5"},"vehicle_type_id":"4","last_reported":1724782283,"current_range_meters":5600,"station_id":"ce4bh2h2rcd13ifvqdh0","pricing_plan_id":"cebpf4jnsgd1na2vs0mg"},{"bike_id":"37c74d27-f616-45b3-92da-dc4c2c99ab2d","system_id":"levelo_inurba_marseille","lat":43.290319,"lon":5.375732,"is_reserved":false,"is_disabled":false,"rental_uris":{"android":"levelo://app?vid=37c74d27-f616-45b3-92da-dc4c2c99ab2d","ios":"levelo://app?vid=37c74d27-f616-45b3-92da-dc4c2c99ab2d"},"vehicle_type_id":"4","last_reported":1724782283,"current_range_meters":5600,"station_id":"ce4bh692rcd13ifvqe90","pricing_plan_id":"cebpf4jnsgd1na2vs0mg"},{"bike_id":"a772cf81-52d6-425d-a266-3df501819b7f","system_id":"levelo_inurba_marseille","lat":43.29419,"lon":5.38622,"is_reserved":false,"is_disabled":false,"rental_uris":{"android":"levelo://app?vid=a772cf81-52d6-425d-a266-3df501819b7f","ios":"levelo://app?vid=a772cf81-52d6-425d-a266-3df501819b7f"},"vehicle_type_id":"4","last_reported":1724782283,"current_range_meters":1600,"station_id":"ce4bh2h2rcd13ifvqdh0","pricing_plan_id":"cebpf4jnsgd1na2vs0mg"},{"bike_id":"4a2f8b19-ea70-4cd7-8332-be345f9f79ba","system_id":"levelo_inurba_marseille","lat":43.294153,"lon":5.386305,"is_reserved":false,"is_disabled":false,"rental_uris":{"android":"levelo://app?vid=4a2f8b19-ea70-4cd7-8332-be345f9f79ba","ios":"levelo://app?vid=4a2f8b19-ea70-4cd7-8332-be345f9f79ba"},"vehicle_type_id":"4","last_reported":1724782283,"current_range_meters":4400,"station_id":"ce4bh2h2rcd13ifvqdh0","pricing_plan_id":"cebpf4jnsgd1na2vs0mg"},{"bike_id":"6497f1c1-5248-458f-be02-d78d27a3506b","system_id":"levelo_inurba_marseille","lat":43.294153,"lon":5.386305,"is_reserved":false,"is_disabled":false,"rental_uris":{"android":"levelo://app?vid=6497f1c1-5248-458f-be02-d78d27a3506b","ios":"levelo://app?vid=6497f1c1-5248-458f-be02-d78d27a3506b"},"vehicle_type_id":"4","last_reported":1724782283,"current_range_meters":2800,"station_id":"ce4bh2h2rcd13ifvqdh0","pricing_plan_id":"cebpf4jnsgd1na2vs0mg"},{"bike_id":"fd48140c-49b3-4d52-8b9d-e33eb946f281","system_id":"levelo_inurba_marseille","lat":43.294162,"lon":5.386292,"is_reserved":false,"is_disabled":false,"rental_uris":{"android":"levelo://app?vid=fd48140c-49b3-4d52-8b9d-e33eb946f281","ios":"levelo://app?vid=fd48140c-49b3-4d52-8b9d-e33eb946f281"},"vehicle_type_id":"4","last_reported":1724782283,"current_range_meters":9200,"station_id":"ce4bh2h2rcd13ifvqdh0","pricing_plan_id":"cebpf4jnsgd1na2vs0mg"},{"bike_id":"f0b028b8-dcdc-47ba-9997-9d93ced0634d","system_id":"levelo_inurba_marseille","lat":43.290319,"lon":5.375732,"is_reserved":false,"is_disabled":false,"rental_uris":{"android":"levelo://app?vid=f0b028b8-dcdc-47ba-9997-9d93ced0634d","ios":"levelo://app?vid=f0b028b8-dcdc-47ba-9997-9d93ced0634d"},"vehicle_type_id":"4","last_reported":1724782283,"current_range_meters":31600,"station_id":"ce4bh692rcd13ifvqe90","pricing_plan_id":"cebpf4jnsgd1na2vs0mg"},{"bike_id":"93ee1688-867d-454a-8ad6-e0655c8b472c","system_id":"levelo_inurba_marseille","lat":43.29414,"lon":5.3862,"is_reserved":false,"is_disabled":false,"rental_uris":{"android":"levelo://app?vid=93ee1688-867d-454a-8ad6-e0655c8b472c","ios":"levelo://app?vid=93ee1688-867d-454a-8ad6-e0655c8b472c"},"vehicle_type_id":"4","last_reported":1724782283,"current_range_meters":15600,"station_id":"ce4bh2h2rcd13ifvqdh0","pricing_plan_id":"cebpf4jnsgd1na2vs0mg"},{"bike_id":"fdf7631b-156b-425f-84e9-4903434146e2","system_id":"levelo_inurba_marseille","lat":43.29416,"lon":5.38624,"is_reserved":false,"is_disabled":false,"rental_uris":{"android":"levelo://app?vid=fdf7631b-156b-425f-84e9-4903434146e2","ios":"levelo://app?vid=fdf7631b-156b-425f-84e9-4903434146e2"},"vehicle_type_id":"4","last_reported":1724782283,"current_range_meters":28400,"station_id":"ce4bh2h2rcd13ifvqdh0","pricing_plan_id":"cebpf4jnsgd1na2vs0mg"},{"bike_id":"147040f3-83dc-4712-b784-b5957a887765","system_id":"levelo_inurba_marseille","lat":43.294162,"lon":5.386292,"is_reserved":false,"is_disabled":false,"rental_uris":{"android":"levelo://app?vid=147040f3-83dc-4712-b784-b5957a887765","ios":"levelo://app?vid=147040f3-83dc-4712-b784-b5957a887765"},"vehicle_type_id":"4","last_reported":1724782283,"current_range_meters":7600,"station_id":"ce4bh2h2rcd13ifvqdh0","pricing_plan_id":"cebpf4jnsgd1na2vs0mg"},{"bike_id":"1bcccd6b-0670-4cc7-8636-7743b5c17b9a","system_id":"levelo_inurba_marseille","lat":43.29416,"lon":5.38628,"is_reserved":false,"is_disabled":false,"rental_uris":{"android":"levelo://app?vid=1bcccd6b-0670-4cc7-8636-7743b5c17b9a","ios":"levelo://app?vid=1bcccd6b-0670-4cc7-8636-7743b5c17b9a"},"vehicle_type_id":"4","last_reported":1724782283,"current_range_meters":12400,"station_id":"ce4bh2h2rcd13ifvqdh0","pricing_plan_id":"cebpf4jnsgd1na2vs0mg"},{"bike_id":"6dff3e42-5a1e-456a-8456-d4583d1fe773","system_id":"levelo_inurba_marseille","lat":43.290319,"lon":5.375732,"is_reserved":false,"is_disabled":false,"rental_uris":{"android":"levelo://app?vid=6dff3e42-5a1e-456a-8456-d4583d1fe773","ios":"levelo://app?vid=6dff3e42-5a1e-456a-8456-d4583d1fe773"},"vehicle_type_id":"4","last_reported":1724782283,"current_range_meters":28800,"station_id":"ce4bh692rcd13ifvqe90","pricing_plan_id":"cebpf4jnsgd1na2vs0mg"},{"bike_id":"56899f03-78d3-4ffd-849a-8aa8b9d50e34","system_id":"levelo_inurba_marseille","lat":43.29415,"lon":5.38629,"is_reserved":false,"is_disabled":false,"rental_uris":{"android":"levelo://app?vid=56899f03-78d3-4ffd-849a-8aa8b9d50e34","ios":"levelo://app?vid=56899f03-78d3-4ffd-849a-8aa8b9d50e34"},"vehicle_type_id":"4","last_reported":1724782283,"current_range_meters":19600,"station_id":"ce4bh2h2rcd13ifvqdh0","pricing_plan_id":"cebpf4jnsgd1na2vs0mg"},{"bike_id":"c548d8d5-c072-4cf5-b134-5ffeb4be03ae","system_id":"levelo_inurba_marseille","lat":43.294153,"lon":5.386305,"is_reserved":false,"is_disabled":false,"rental_uris":{"android":"levelo://app?vid=c548d8d5-c072-4cf5-b134-5ffeb4be03ae","ios":"levelo://app?vid=c548d8d5-c072-4cf5-b134-5ffeb4be03ae"},"vehicle_type_id":"4","last_reported":1724782283,"current_range_meters":1200,"station_id":"ce4bh2h2rcd13ifvqdh0","pricing_plan_id":"cebpf4jnsgd1na2vs0mg"},{"bike_id":"0d29bf43-8dc2-4a2f-8fcb-2038397d3260","system_id":"levelo_inurba_marseille","lat":43.289184,"lon":5.366408,"is_reserved":false,"is_disabled":false,"rental_uris":{"android":"levelo://app?vid=0d29bf43-8dc2-4a2f-8fcb-2038397d3260","ios":"levelo://app?vid=0d29bf43-8dc2-4a2f-8fcb-2038397d3260"},"vehicle_type_id":"4","last_reported":1724782283,"current_range_meters":16400,"station_id":"ce4bhap2rcd13ifvqek0","pricing_plan_id":"cebpf4jnsgd1na2vs0mg"},{"bike_id":"dca8206f-d240-4455-ab7c-e1c3a505150c","system_id":"levelo_inurba_marseille","lat":43.289468,"lon":5.363719,"is_reserved":false,"is_disabled":false,"rental_uris":{"android":"levelo://app?vid=dca8206f-d240-4455-ab7c-e1c3a505150c","ios":"levelo://app?vid=dca8206f-d240-4455-ab7c-e1c3a505150c"},"vehicle_type_id":"4","last_reported":1724782283,"current_range_meters":0,"station_id":"ce4bhc92rcd13ifvqetg","pricing_plan_id":"cebpf4jnsgd1na2vs0mg"},{"bike_id":"a1bcaa78-c92e-4dfd-a9b7-1d6a782bf636","system_id":"levelo_inurba_marseille","lat":43.29414,"lon":5.38632,"is_reserved":false,"is_disabled":false,"rental_uris":{"android":"levelo://app?vid=a1bcaa78-c92e-4dfd-a9b7-1d6a782bf636","ios":"levelo://app?vid=a1bcaa78-c92e-4dfd-a9b7-1d6a782bf636"},"vehicle_type_id":"4","last_reported":1724782283,"current_range_meters":10000,"station_id":"ce4bh2h2rcd13ifvqdh0","pricing_plan_id":"cebpf4jnsgd1na2vs0mg"},{"bike_id":"0cabd58e-f552-4dea-b475-7d77e266d725","system_id":"levelo_inurba_marseille","lat":43.294153,"lon":5.386305,"is_reserved":false,"is_disabled":false,"rental_uris":{"android":"levelo://app?vid=0cabd58e-f552-4dea-b475-7d77e266d725","ios":"levelo://app?vid=0cabd58e-f552-4dea-b475-7d77e266d725"},"vehicle_type_id":"4","last_reported":1724782283,"current_range_meters":8000,"station_id":"ce4bh2h2rcd13ifvqdh0","pricing_plan_id":"cebpf4jnsgd1na2vs0mg"},{"bike_id":"85a9bee9-fb94-47c2-b36f-69810e6fb68f","system_id":"levelo_inurba_marseille","lat":43.289184,"lon":5.366408,"is_reserved":false,"is_disabled":false,"rental_uris":{"android":"levelo://app?vid=85a9bee9-fb94-47c2-b36f-69810e6fb68f","ios":"levelo://app?vid=85a9bee9-fb94-47c2-b36f-69810e6fb68f"},"vehicle_type_id":"4","last_reported":1724782283,"current_range_meters":9200,"station_id":"ce4bhap2rcd13ifvqek0","pricing_plan_id":"cebpf4jnsgd1na2vs0mg"},{"bike_id":"038841cf-54c9-44f1-8759-1b19e2dc7235","system_id":"levelo_inurba_marseille","lat":43.289184,"lon":5.366408,"is_reserved":false,"is_disabled":false,"rental_uris":{"android":"levelo://app?vid=038841cf-54c9-44f1-8759-1b19e2dc7235","ios":"levelo://app?vid=038841cf-54c9-44f1-8759-1b19e2dc7235"},"vehicle_type_id":"4","last_reported":1724782283,"current_range_meters":4400,"station_id":"ce4bhap2rcd13ifvqek0","pricing_plan_id":"cebpf4jnsgd1na2vs0mg"},{"bike_id":"d4a70d8d-12e4-4504-bb7f-e7c45d4a8114","system_id":"levelo_inurba_marseille","lat":43.29413,"lon":5.38636,"is_reserved":false,"is_disabled":false,"rental_uris":{"android":"levelo://app?vid=d4a70d8d-12e4-4504-bb7f-e7c45d4a8114","ios":"levelo://app?vid=d4a70d8d-12e4-4504-bb7f-e7c45d4a8114"},"vehicle_type_id":"4","last_reported":1724782283,"current_range_meters":1200,"station_id":"ce4bh2h2rcd13ifvqdh0","pricing_plan_id":"cebpf4jnsgd1na2vs0mg"},{"bike_id":"7d062e50-3b89-4654-b27f-2eb071a62471","system_id":"levelo_inurba_marseille","lat":43.28945,"lon":5.36413,"is_reserved":false,"is_disabled":false,"rental_uris":{"android":"levelo://app?vid=7d062e50-3b89-4654-b27f-2eb071a62471","ios":"levelo://app?vid=7d062e50-3b89-4654-b27f-2eb071a62471"},"vehicle_type_id":"4","last_reported":1724782283,"current_range_meters":7200,"station_id":"ce4bhc92rcd13ifvqetg","pricing_plan_id":"cebpf4jnsgd1na2vs0mg"},{"bike_id":"6b8196f3-e94b-4831-93a6-7f90d1c2f284","system_id":"levelo_inurba_marseille","lat":43.289184,"lon":5.366408,"is_reserved":false,"is_disabled":false,"rental_uris":{"android":"levelo://app?vid=6b8196f3-e94b-4831-93a6-7f90d1c2f284","ios":"levelo://app?vid=6b8196f3-e94b-4831-93a6-7f90d1c2f284"},"vehicle_type_id":"4","last_reported":1724782283,"current_range_meters":400,"station_id":"ce4bhap2rcd13ifvqek0","pricing_plan_id":"cebpf4jnsgd1na2vs0mg"},{"bike_id":"8d0685f7-b0bb-49f3-9739-8f1c2ac6d99f","system_id":"levelo_inurba_marseille","lat":43.289468,"lon":5.363719,"is_reserved":false,"is_disabled":false,"rental_uris":{"android":"levelo://app?vid=8d0685f7-b0bb-49f3-9739-8f1c2ac6d99f","ios":"levelo://app?vid=8d0685f7-b0bb-49f3-9739-8f1c2ac6d99f"},"vehicle_type_id":"4","last_reported":1724782283,"current_range_meters":23200,"station_id":"ce4bhc92rcd13ifvqetg","pricing_plan_id":"cebpf4jnsgd1na2vs0mg"},{"bike_id":"48be17ab-0872-4661-9cb5-5f761d3c873f","system_id":"levelo_inurba_marseille","lat":43.289184,"lon":5.366408,"is_reserved":false,"is_disabled":false,"rental_uris":{"android":"levelo://app?vid=48be17ab-0872-4661-9cb5-5f761d3c873f","ios":"levelo://app?vid=48be17ab-0872-4661-9cb5-5f761d3c873f"},"vehicle_type_id":"4","last_reported":1724782283,"current_range_meters":15200,"station_id":"ce4bhap2rcd13ifvqek0","pricing_plan_id":"cebpf4jnsgd1na2vs0mg"},{"bike_id":"5411017d-77b3-42d0-a9e5-f3dd09fd3631","system_id":"levelo_inurba_marseille","lat":43.289184,"lon":5.366408,"is_reserved":false,"is_disabled":false,"rental_uris":{"android":"levelo://app?vid=5411017d-77b3-42d0-a9e5-f3dd09fd3631","ios":"levelo://app?vid=5411017d-77b3-42d0-a9e5-f3dd09fd3631"},"vehicle_type_id":"4","last_reported":1724782283,"current_range_meters":11600,"station_id":"ce4bhap2rcd13ifvqek0","pricing_plan_id":"cebpf4jnsgd1na2vs0mg"},{"bike_id":"adad9c00-acd8-45d7-a109-b48654ebaf78","system_id":"levelo_inurba_marseille","lat":43.289468,"lon":5.363719,"is_reserved":false,"is_disabled":false,"rental_uris":{"android":"levelo://app?vid=adad9c00-acd8-45d7-a109-b48654ebaf78","ios":"levelo://app?vid=adad9c00-acd8-45d7-a109-b48654ebaf78"},"vehicle_type_id":"4","last_reported":1724782283,"current_range_meters":10800,"station_id":"ce4bhc92rcd13ifvqetg","pricing_plan_id":"cebpf4jnsgd1na2vs0mg"},{"bike_id":"77f269ae-a5b4-4ab9-8fb7-81c0f55ef444","system_id":"levelo_inurba_marseille","lat":43.289468,"lon":5.363719,"is_reserved":false,"is_disabled":false,"rental_uris":{"android":"levelo://app?vid=77f269ae-a5b4-4ab9-8fb7-81c0f55ef444","ios":"levelo://app?vid=77f269ae-a5b4-4ab9-8fb7-81c0f55ef444"},"vehicle_type_id":"4","last_reported":1724782283,"current_range_meters":18800,"station_id":"ce4bhc92rcd13ifvqetg","pricing_plan_id":"cebpf4jnsgd1na2vs0mg"},{"bike_id":"a2a96a31-902f-484a-b576-c3a5ac148869","system_id":"levelo_inurba_marseille","lat":43.289184,"lon":5.366408,"is_reserved":false,"is_disabled":false,"rental_uris":{"android":"levelo://app?vid=a2a96a31-902f-484a-b576-c3a5ac148869","ios":"levelo://app?vid=a2a96a31-902f-484a-b576-c3a5ac148869"},"vehicle_type_id":"4","last_reported":1724782283,"current_range_meters":18800,"station_id":"ce4bhap2rcd13ifvqek0","pricing_plan_id":"cebpf4jnsgd1na2vs0mg"},{"bike_id":"6c4d1c57-d8bf-4888-9217-5ce44d3e5443","system_id":"levelo_inurba_marseille","lat":43.28937,"lon":5.36402,"is_reserved":false,"is_disabled":false,"rental_uris":{"android":"levelo://app?vid=6c4d1c57-d8bf-4888-9217-5ce44d3e5443","ios":"levelo://app?vid=6c4d1c57-d8bf-4888-9217-5ce44d3e5443"},"vehicle_type_id":"4","last_reported":1724782283,"current_range_meters":6800,"station_id":"ce4bhc92rcd13ifvqetg","pricing_plan_id":"cebpf4jnsgd1na2vs0mg"},{"bike_id":"d28bff38-d49a-425c-b33f-665b6787cb0d","system_id":"levelo_inurba_marseille","lat":43.292642,"lon":5.384254,"is_reserved":false,"is_disabled":false,"rental_uris":{"android":"levelo://app?vid=d28bff38-d49a-425c-b33f-665b6787cb0d","ios":"levelo://app?vid=d28bff38-d49a-425c-b33f-665b6787cb0d"},"vehicle_type_id":"4","last_reported":1724782283,"current_range_meters":2800,"station_id":"ce4bh692rcd13ifvqea0","pricing_plan_id":"cebpf4jnsgd1na2vs0mg"},{"bike_id":"f130eaee-65c8-4d6d-b4ca-e8f9fe493c53","system_id":"levelo_inurba_marseille","lat":43.292644,"lon":5.384257,"is_reserved":false,"is_disabled":false,"rental_uris":{"android":"levelo://app?vid=f130eaee-65c8-4d6d-b4ca-e8f9fe493c53","ios":"levelo://app?vid=f130eaee-65c8-4d6d-b4ca-e8f9fe493c53"},"vehicle_type_id":"4","last_reported":1724782283,"current_range_meters":2000,"station_id":"ce4bh692rcd13ifvqea0","pricing_plan_id":"cebpf4jnsgd1na2vs0mg"},{"bike_id":"4e96f193-179b-45df-979c-51d4a6d46dbb","system_id":"levelo_inurba_marseille","lat":43.29272,"lon":5.38439,"is_reserved":false,"is_disabled":false,"rental_uris":{"android":"levelo://app?vid=4e96f193-179b-45df-979c-51d4a6d46dbb","ios":"levelo://app?vid=4e96f193-179b-45df-979c-51d4a6d46dbb"},"vehicle_type_id":"4","last_reported":1724782283,"current_range_meters":21200,"station_id":"ce4bh692rcd13ifvqea0","pricing_plan_id":"cebpf4jnsgd1na2vs0mg"},{"bike_id":"8d991a39-de73-47bd-a177-0d0dd1c31420","system_id":"levelo_inurba_marseille","lat":43.29274,"lon":5.38448,"is_reserved":false,"is_disabled":false,"rental_uris":{"android":"levelo://app?vid=8d991a39-de73-47bd-a177-0d0dd1c31420","ios":"levelo://app?vid=8d991a39-de73-47bd-a177-0d0dd1c31420"},"vehicle_type_id":"4","last_reported":1724782283,"current_range_meters":1200,"station_id":"ce4bh692rcd13ifvqea0","pricing_plan_id":"cebpf4jnsgd1na2vs0mg"},{"bike_id":"d26e0a53-289a-458e-8bda-228764484759","system_id":"levelo_inurba_marseille","lat":43.29267,"lon":5.38443,"is_reserved":false,"is_disabled":false,"rental_uris":{"android":"levelo://app?vid=d26e0a53-289a-458e-8bda-228764484759","ios":"levelo://app?vid=d26e0a53-289a-458e-8bda-228764484759"},"vehicle_type_id":"4","last_reported":1724782283,"current_range_meters":22400,"station_id":"ce4bh692rcd13ifvqea0","pricing_plan_id":"cebpf4jnsgd1na2vs0mg"},{"bike_id":"f38c58cc-5620-470b-84ee-b828aa56bc63","system_id":"levelo_inurba_marseille","lat":43.304296,"lon":5.397513,"is_reserved":false,"is_disabled":false,"rental_uris":{"android":"levelo://app?vid=f38c58cc-5620-470b-84ee-b828aa56bc63","ios":"levelo://app?vid=f38c58cc-5620-470b-84ee-b828aa56bc63"},"vehicle_type_id":"4","last_reported":1724782283,"current_range_meters":1200,"station_id":"ce4bh092rcd13ifvqd20","pricing_plan_id":"cebpf4jnsgd1na2vs0mg"},{"bike_id":"48325ec0-3423-4ec6-8219-ced5148321db","system_id":"levelo_inurba_marseille","lat":43.29266,"lon":5.38445,"is_reserved":false,"is_disabled":false,"rental_uris":{"android":"levelo://app?vid=48325ec0-3423-4ec6-8219-ced5148321db","ios":"levelo://app?vid=48325ec0-3423-4ec6-8219-ced5148321db"},"vehicle_type_id":"4","last_reported":1724782283,"current_range_meters":19200,"station_id":"ce4bh692rcd13ifvqea0","pricing_plan_id":"cebpf4jnsgd1na2vs0mg"},{"bike_id":"05661e11-4e24-479d-b7f2-cf6036b7a975","system_id":"levelo_inurba_marseille","lat":43.29267,"lon":5.38448,"is_reserved":false,"is_disabled":false,"rental_uris":{"android":"levelo://app?vid=05661e11-4e24-479d-b7f2-cf6036b7a975","ios":"levelo://app?vid=05661e11-4e24-479d-b7f2-cf6036b7a975"},"vehicle_type_id":"4","last_reported":1724782283,"current_range_meters":29600,"station_id":"ce4bh692rcd13ifvqea0","pricing_plan_id":"cebpf4jnsgd1na2vs0mg"},{"bike_id":"6d230489-f86c-4d64-a99e-e2241ef61c52","system_id":"levelo_inurba_marseille","lat":43.292622,"lon":5.384376,"is_reserved":false,"is_disabled":false,"rental_uris":{"android":"levelo://app?vid=6d230489-f86c-4d64-a99e-e2241ef61c52","ios":"levelo://app?vid=6d230489-f86c-4d64-a99e-e2241ef61c52"},"vehicle_type_id":"4","last_reported":1724782283,"current_range_meters":1200,"station_id":"ce4bh692rcd13ifvqea0","pricing_plan_id":"cebpf4jnsgd1na2vs0mg"},{"bike_id":"e5bc1779-ecb3-4892-b0ef-4215555623af","system_id":"levelo_inurba_marseille","lat":43.292642,"lon":5.384254,"is_reserved":false,"is_disabled":false,"rental_uris":{"android":"levelo://app?vid=e5bc1779-ecb3-4892-b0ef-4215555623af","ios":"levelo://app?vid=e5bc1779-ecb3-4892-b0ef-4215555623af"},"vehicle_type_id":"4","last_reported":1724782283,"current_range_meters":22000,"station_id":"ce4bh692rcd13ifvqea0","pricing_plan_id":"cebpf4jnsgd1na2vs0mg"},{"bike_id":"136d589d-275f-4b8a-a447-e5644196bb51","system_id":"levelo_inurba_marseille","lat":43.292644,"lon":5.384257,"is_reserved":false,"is_disabled":false,"rental_uris":{"android":"levelo://app?vid=136d589d-275f-4b8a-a447-e5644196bb51","ios":"levelo://app?vid=136d589d-275f-4b8a-a447-e5644196bb51"},"vehicle_type_id":"4","last_reported":1724782283,"current_range_meters":29200,"station_id":"ce4bh692rcd13ifvqea0","pricing_plan_id":"cebpf4jnsgd1na2vs0mg"},{"bike_id":"c04b5c66-fbd5-4b99-9390-6fb4680f9f26","system_id":"levelo_inurba_marseille","lat":43.292644,"lon":5.384257,"is_reserved":false,"is_disabled":false,"rental_uris":{"android":"levelo://app?vid=c04b5c66-fbd5-4b99-9390-6fb4680f9f26","ios":"levelo://app?vid=c04b5c66-fbd5-4b99-9390-6fb4680f9f26"},"vehicle_type_id":"4","last_reported":1724782283,"current_range_meters":2000,"station_id":"ce4bh692rcd13ifvqea0","pricing_plan_id":"cebpf4jnsgd1na2vs0mg"},{"bike_id":"c6563c74-ba4f-400b-b50c-9838818f3e73","system_id":"levelo_inurba_marseille","lat":43.29259,"lon":5.38443,"is_reserved":false,"is_disabled":false,"rental_uris":{"android":"levelo://app?vid=c6563c74-ba4f-400b-b50c-9838818f3e73","ios":"levelo://app?vid=c6563c74-ba4f-400b-b50c-9838818f3e73"},"vehicle_type_id":"4","last_reported":1724782283,"current_range_meters":0,"station_id":"ce4bh692rcd13ifvqea0","pricing_plan_id":"cebpf4jnsgd1na2vs0mg"},{"bike_id":"9ab09fc6-128f-4a6a-a45f-71fccbc29eff","system_id":"levelo_inurba_marseille","lat":43.29259,"lon":5.38448,"is_reserved":false,"is_disabled":false,"rental_uris":{"android":"levelo://app?vid=9ab09fc6-128f-4a6a-a45f-71fccbc29eff","ios":"levelo://app?vid=9ab09fc6-128f-4a6a-a45f-71fccbc29eff"},"vehicle_type_id":"4","last_reported":1724782283,"current_range_meters":1200,"station_id":"ce4bh692rcd13ifvqea0","pricing_plan_id":"cebpf4jnsgd1na2vs0mg"},{"bike_id":"ef5f3919-7bfc-4d75-80d6-c5165ec457ef","system_id":"levelo_inurba_marseille","lat":43.292642,"lon":5.384254,"is_reserved":false,"is_disabled":false,"rental_uris":{"android":"levelo://app?vid=ef5f3919-7bfc-4d75-80d6-c5165ec457ef","ios":"levelo://app?vid=ef5f3919-7bfc-4d75-80d6-c5165ec457ef"},"vehicle_type_id":"4","last_reported":1724782283,"current_range_meters":0,"station_id":"ce4bh692rcd13ifvqea0","pricing_plan_id":"cebpf4jnsgd1na2vs0mg"},{"bike_id":"bb9eb568-c6b2-4f1d-8453-189d3684b943","system_id":"levelo_inurba_marseille","lat":43.29252,"lon":5.38442,"is_reserved":false,"is_disabled":false,"rental_uris":{"android":"levelo://app?vid=bb9eb568-c6b2-4f1d-8453-189d3684b943","ios":"levelo://app?vid=bb9eb568-c6b2-4f1d-8453-189d3684b943"},"vehicle_type_id":"4","last_reported":1724782283,"current_range_meters":0,"station_id":"ce4bh692rcd13ifvqea0","pricing_plan_id":"cebpf4jnsgd1na2vs0mg"},{"bike_id":"3b4db3e9-daea-4294-a4bd-62534ffbc5d0","system_id":"levelo_inurba_marseille","lat":43.290103,"lon":5.356114,"is_reserved":false,"is_disabled":false,"rental_uris":{"android":"levelo://app?vid=3b4db3e9-daea-4294-a4bd-62534ffbc5d0","ios":"levelo://app?vid=3b4db3e9-daea-4294-a4bd-62534ffbc5d0"},"vehicle_type_id":"4","last_reported":1724782283,"current_range_meters":4000,"station_id":"ce4bhb92rcd13ifvqen0","pricing_plan_id":"cebpf4jnsgd1na2vs0mg"},{"bike_id":"9d07841a-b774-447a-891e-4bb3e54f0030","system_id":"levelo_inurba_marseille","lat":43.29006,"lon":5.35621,"is_reserved":false,"is_disabled":false,"rental_uris":{"android":"levelo://app?vid=9d07841a-b774-447a-891e-4bb3e54f0030","ios":"levelo://app?vid=9d07841a-b774-447a-891e-4bb3e54f0030"},"vehicle_type_id":"4","last_reported":1724782283,"current_range_meters":27600,"station_id":"ce4bhb92rcd13ifvqen0","pricing_plan_id":"cebpf4jnsgd1na2vs0mg"},{"bike_id":"f4a4d562-e2d3-4a86-80ba-9792f86a140c","system_id":"levelo_inurba_marseille","lat":43.29006,"lon":5.35617,"is_reserved":false,"is_disabled":false,"rental_uris":{"android":"levelo://app?vid=f4a4d562-e2d3-4a86-80ba-9792f86a140c","ios":"levelo://app?vid=f4a4d562-e2d3-4a86-80ba-9792f86a140c"},"vehicle_type_id":"4","last_reported":1724782283,"current_range_meters":0,"station_id":"ce4bhb92rcd13ifvqen0","pricing_plan_id":"cebpf4jnsgd1na2vs0mg"},{"bike_id":"7fb190fc-4b70-440a-83e5-55c806e2d36d","system_id":"levelo_inurba_marseille","lat":43.29007,"lon":5.35613,"is_reserved":false,"is_disabled":false,"rental_uris":{"android":"levelo://app?vid=7fb190fc-4b70-440a-83e5-55c806e2d36d","ios":"levelo://app?vid=7fb190fc-4b70-440a-83e5-55c806e2d36d"},"vehicle_type_id":"4","last_reported":1724782283,"current_range_meters":11600,"station_id":"ce4bhb92rcd13ifvqen0","pricing_plan_id":"cebpf4jnsgd1na2vs0mg"},{"bike_id":"c6e261ec-d396-4a85-b0b8-3f8ffa76c1f9","system_id":"levelo_inurba_marseille","lat":43.29007,"lon":5.35612,"is_reserved":false,"is_disabled":false,"rental_uris":{"android":"levelo://app?vid=c6e261ec-d396-4a85-b0b8-3f8ffa76c1f9","ios":"levelo://app?vid=c6e261ec-d396-4a85-b0b8-3f8ffa76c1f9"},"vehicle_type_id":"4","last_reported":1724782283,"current_range_meters":2000,"station_id":"ce4bhb92rcd13ifvqen0","pricing_plan_id":"cebpf4jnsgd1na2vs0mg"},{"bike_id":"11483abf-5836-4666-9b24-42f89efdb84d","system_id":"levelo_inurba_marseille","lat":43.290104,"lon":5.356111,"is_reserved":false,"is_disabled":false,"rental_uris":{"android":"levelo://app?vid=11483abf-5836-4666-9b24-42f89efdb84d","ios":"levelo://app?vid=11483abf-5836-4666-9b24-42f89efdb84d"},"vehicle_type_id":"4","last_reported":1724782283,"current_range_meters":27200,"station_id":"ce4bhb92rcd13ifvqen0","pricing_plan_id":"cebpf4jnsgd1na2vs0mg"},{"bike_id":"adf8aa61-9c80-4d4f-8a3c-4b3c7d6677af","system_id":"levelo_inurba_marseille","lat":43.290104,"lon":5.356111,"is_reserved":false,"is_disabled":false,"rental_uris":{"android":"levelo://app?vid=adf8aa61-9c80-4d4f-8a3c-4b3c7d6677af","ios":"levelo://app?vid=adf8aa61-9c80-4d4f-8a3c-4b3c7d6677af"},"vehicle_type_id":"4","last_reported":1724782283,"current_range_meters":32000,"station_id":"ce4bhb92rcd13ifvqen0","pricing_plan_id":"cebpf4jnsgd1na2vs0mg"},