{"last_updated":1723370880,"ttl":30,"version":"2.2","data":{"bikes":[{"bike_id":"76829401-ccfe-4f50-8112-7303ef77ce8d","system_id":"levelo_inurba_marseille","lat":43.31341,"lon":5.367098,"is_reserved":false,"is_disabled":false,"rental_uris":{"android":"levelo://app?vid=76829401-ccfe-4f50-8112-7303ef77ce8d","ios":"levelo://app?vid=76829401-ccfe-4f50-8112-7303ef77ce8d"},"vehicle_type_id":"4","last_reported":1723370880,"current_range_meters":31200,"station_id":"ce4bgr92rcd13ifvqc6g","pricing_plan_id":"cebpf4jnsgd1na2vs0mg"},{"bike_id":"de74bec8-6eaa-461a-8eeb-4cd4e6f9475c","system_id":"levelo_inurba_marseille","lat":43.314811,"lon":5.373103,"is_reserved":false,"is_disabled":false,"rental_uris":{"android":"levelo://app?vid=de74bec8-6eaa-461a-8eeb-4cd4e6f9475c","ios":"levelo://app?vid=de74bec8-6eaa-461a-8eeb-4cd4e6f9475c"},"vehicle_type_id":"4","last_reported":1723370880,"current_range_meters":30000,"station_id":"ce4bgt12rcd13ifvqcd0","pricing_plan_id":"cebpf4jnsgd1na2vs0mg"},{"bike_id":"9f2c0050-6fe7-466b-88d0-f3425eba67db","system_id":"levelo_inurba_marseille","lat":43.314811,"lon":5.373103,"is_reserved":false,"is_disabled":false,"rental_uris":{"android":"levelo://app?vid=9f2c0050-6fe7-466b-88d0-f3425eba67db","ios":"levelo://app?vid=9f2c0050-6fe7-466b-88d0-f3425eba67db"},"vehicle_type_id":"4","last_reported":1723370880,"current_range_meters":16000,"station_id":"ce4bgt12rcd13ifvqcd0","pricing_plan_id":"cebpf4jnsgd1na2vs0mg"},{"bike_id":"0a0d1504-0816-45d1-a14b-7aedf3610e22","system_id":"levelo_inurba_marseille","lat":43.3145,"lon":5.37374,"is_reserved":false,"is_disabled":false,"rental_uris":{"android":"levelo://app?vid=0a0d1504-0816-45d1-a14b-7aedf3610e22","ios":"levelo://app?vid=0a0d1504-0816-45d1-a14b-7aedf3610e22"},"vehicle_type_id":"4","last_reported":1723370880,"current_range_meters":6800,"station_id":"","pricing_plan_id":"cebpf4jnsgd1na2vs0mg"},{"bike_id":"19a0e599-2846-4148-a7fa-6b83d70d0ab4","system_id":"levelo_inurba_marseille","lat":43.308891,"lon":5.371922,"is_reserved":false,"is_disabled":false,"rental_uris":{"android":"levelo://app?vid=19a0e599-2846-4148-a7fa-6b83d70d0ab4","ios":"levelo://app?vid=19a0e599-2846-4148-a7fa-6b83d70d0ab4"},"vehicle_type_id":"4","last_reported":1723370880,"current_range_meters":0,"station_id":"ce4bguh2rcd13ifvqckg","pricing_plan_id":"cebpf4jnsgd1na2vs0mg"},{"bike_id":"42a694f8-3d05-44f2-bf3a-270b08b6b814","system_id":"levelo_inurba_marseille","lat":43.30553,"lon":5.36557,"is_reserved":false,"is_disabled":false,"rental_uris":{"android":"levelo://app?vid=42a694f8-3d05-44f2-bf3a-270b08b6b814","ios":"levelo://app?vid=42a694f8-3d05-44f2-bf3a-270b08b6b814"},"vehicle_type_id":"4","last_reported":1723370880,"current_range_meters":28000,"station_id":"ce4bgs12rcd13ifvqcag","pricing_plan_id":"cebpf4jnsgd1na2vs0mg"},{"bike_id":"d1847e5f-f879-41a7-80cb-6ec90763e3fe","system_id":"levelo_inurba_marseille","lat":43.30537,"lon":5.367345,"is_reserved":false,"is_disabled":false,"rental_uris":{"android":"levelo://app?vid=d1847e5f-f879-41a7-80cb-6ec90763e3fe","ios":"levelo://app?vid=d1847e5f-f879-41a7-80cb-6ec90763e3fe"},"vehicle_type_id":"4","last_reported":1723370880,"current_range_meters":27200,"station_id":"ce4bgrp2rcd13ifvqc9g","pricing_plan_id":"cebpf4jnsgd1na2vs0mg"},{"bike_id":"2909f880-c5fb-4ef5-a1d2-bf4702e76914","system_id":"levelo_inurba_marseille","lat":43.305714,"lon":5.365633,"is_reserved":false,"is_disabled":false,"rental_uris":{"android":"levelo://app?vid=2909f880-c5fb-4ef5-a1d2-bf4702e76914","ios":"levelo://app?vid=2909f880-c5fb-4ef5-a1d2-bf4702e76914"},"vehicle_type_id":"4","last_reported":1723370880,"current_range_meters":30400,"station_id":"ce4bgs12rcd13ifvqcag","pricing_plan_id":"cebpf4jnsgd1na2vs0mg"},{"bike_id":"b9bc490e-7dd2-45b1-9fcc-4a2161c3503d","system_id":"levelo_inurba_marseille","lat":43.305714,"lon":5.365633,"is_reserved":false,"is_disabled":false,"rental_uris":{"android":"levelo://app?vid=b9bc490e-7dd2-45b1-9fcc-4a2161c3503d","ios":"levelo://app?vid=b9bc490e-7dd2-45b1-9fcc-4a2161c3503d"},"vehicle_type_id":"4","last_reported":1723370880,"current_range_meters":16400,"station_id":"ce4bgs12rcd13ifvqcag","pricing_plan_id":"cebpf4jnsgd1na2vs0mg"},{"bike_id":"0f8e45be-fe73-4576-8438-a1c13fd9a7ad","system_id":"levelo_inurba_marseille","lat":43.305368,"lon":5.367343,"is_reserved":false,"is_disabled":false,"rental_uris":{"android":"levelo://app?vid=0f8e45be-fe73-4576-8438-a1c13fd9a7ad","ios":"levelo://app?vid=0f8e45be-fe73-4576-8438-a1c13fd9a7ad"},"vehicle_type_id":"4","last_reported":1723370880,"current_range_meters":21200,"station_id":"ce4bgrp2rcd13ifvqc9g","pricing_plan_id":"cebpf4jnsgd1na2vs0mg"},{"bike_id":"6d95c4b0-a7c8-4076-9904-8bf5925ca8ea","system_id":"levelo_inurba_marseille","lat":43.305706,"lon":5.365654,"is_reserved":false,"is_disabled":false,"rental_uris":{"android":"levelo://app?vid=6d95c4b0-a7c8-4076-9904-8bf5925ca8ea","ios":"levelo://app?vid=6d95c4b0-a7c8-4076-9904-8bf5925ca8ea"},"vehicle_type_id":"4","last_reported":1723370880,"current_range_meters":18400,"station_id":"ce4bgs12rcd13ifvqcag","pricing_plan_id":"cebpf4jnsgd1na2vs0mg"},{"bike_id":"1abf6d1d-cee3-40e3-a2b3-6c15fa7ac09d","system_id":"levelo_inurba_marseille","lat":43.305706,"lon":5.365654,"is_reserved":false,"is_disabled":false,"rental_uris":{"android":"levelo://app?vid=1abf6d1d-cee3-40e3-a2b3-6c15fa7ac09d","ios":"levelo://app?vid=1abf6d1d-cee3-40e3-a2b3-6c15fa7ac09d"},"vehicle_type_id":"4","last_reported":1723370880,"current_range_meters":12400,"station_id":"ce4bgs12rcd13ifvqcag","pricing_plan_id":"cebpf4jnsgd1na2vs0mg"},{"bike_id":"bf0820d8-87da-4fa4-816b-c8f25a808c2c","system_id":"levelo_inurba_marseille","lat":43.305706,"lon":5.365654,"is_reserved":false,"is_disabled":false,"rental_uris":{"android":"levelo://app?vid=bf0820d8-87da-4fa4-816b-c8f25a808c2c","ios":"levelo://app?vid=bf0820d8-87da-4fa4-816b-c8f25a808c2c"},"vehicle_type_id":"4","last_reported":1723370880,"current_range_meters":16800,"station_id":"ce4bgs12rcd13ifvqcag","pricing_plan_id":"cebpf4jnsgd1na2vs0mg"},{"bike_id":"4dfb0603-cd61-42c3-bbc4-4f884bf12d0c","system_id":"levelo_inurba_marseille","lat":43.305368,"lon":5.367343,"is_reserved":false,"is_disabled":false,"rental_uris":{"android":"levelo://app?vid=4dfb0603-cd61-42c3-bbc4-4f884bf12d0c","ios":"levelo://app?vid=4dfb0603-cd61-42c3-bbc4-4f884bf12d0c"},"vehicle_type_id":"4","last_reported":1723370880,"current_range_meters":8400,"station_id":"ce4bgrp2rcd13ifvqc9g","pricing_plan_id":"cebpf4jnsgd1na2vs0mg"},{"bike_id":"e0602b21-a5b8-48a2-9738-fe7bbadd1e10","system_id":"levelo_inurba_marseille","lat":43.305368,"lon":5.367343,"is_reserved":false,"is_disabled":false,"rental_uris":{"android":"levelo://app?vid=e0602b21-a5b8-48a2-9738-fe7bbadd1e10","ios":"levelo://app?vid=e0602b21-a5b8-48a2-9738-fe7bbadd1e10"},"vehicle_type_id":"4","last_reported":1723370880,"current_range_meters":17600,"station_id":"ce4bgrp2rcd13ifvqc9g","pricing_plan_id":"cebpf4jnsgd1na2vs0mg"},{"bike_id":"91afd995-6bec-49ae-813d-9fe407806ae8","system_id":"levelo_inurba_marseille","lat":43.305368,"lon":5.367343,"is_reserved":false,"is_disabled":false,"rental_uris":{"android":"levelo://app?vid=91afd995-6bec-49ae-813d-9fe407806ae8","ios":"levelo://app?vid=91afd995-6bec-49ae-813d-9fe407806ae8"},"vehicle_type_id":"4","last_reported":1723370880,"current_range_meters":7200,"station_id":"ce4bgrp2rcd13ifvqc9g","pricing_plan_id":"cebpf4jnsgd1na2vs0mg"},{"bike_id":"0e83acb6-22c1-437a-a816-ccd3ab31219d","system_id":"levelo_inurba_marseille","lat":43.305706,"lon":5.365654,"is_reserved":false,"is_disabled":false,"rental_uris":{"android":"levelo://app?vid=0e83acb6-22c1-437a-a816-ccd3ab31219d","ios":"levelo://app?vid=0e83acb6-22c1-437a-a816-ccd3ab31219d"},"vehicle_type_id":"4","last_reported":1723370880,"current_range_meters":32000,"station_id":"ce4bgs12rcd13ifvqcag","pricing_plan_id":"cebpf4jnsgd1na2vs0mg"},{"bike_id":"0b77984d-2fab-4489-b884-ceb543f1cd85","system_id":"levelo_inurba_marseille","lat":43.305368,"lon":5.367343,"is_reserved":false,"is_disabled":false,"rental_uris":{"android":"levelo://app?vid=0b77984d-2fab-4489-b884-ceb543f1cd85","ios":"levelo://app?vid=0b77984d-2fab-4489-b884-ceb543f1cd85"},"vehicle_type_id":"4","last_reported":1723370880,"current_range_meters":12000,"station_id":"ce4bgrp2rcd13ifvqc9g","pricing_plan_id":"cebpf4jnsgd1na2vs0mg"},{"bike_id":"4ad426f4-28f6-47a4-8d1b-5f63b5c6f57e","system_id":"levelo_inurba_marseille","lat":43.305989,"lon":5.37225,"is_reserved":false,"is_disabled":false,"rental_uris":{"android":"levelo://app?vid=4ad426f4-28f6-47a4-8d1b-5f63b5c6f57e","ios":"levelo://app?vid=4ad426f4-28f6-47a4-8d1b-5f63b5c6f57e"},"vehicle_type_id":"4","last_reported":1723370880,"current_range_meters":24000,"station_id":"ce4bgqh2rcd13ifvqc4g","pricing_plan_id":"cebpf4jnsgd1na2vs0mg"},{"bike_id":"c3d754a4-1944-4b03-9392-a12e1e920186","system_id":"levelo_inurba_marseille","lat":43.305989,"lon":5.37225,"is_reserved":false,"is_disabled":false,"rental_uris":{"android":"levelo://app?vid=c3d754a4-1944-4b03-9392-a12e1e920186","ios":"levelo://app?vid=c3d754a4-1944-4b03-9392-a12e1e920186"},"vehicle_type_id":"4","last_reported":1723370880,"current_range_meters":11200,"station_id":"ce4bgqh2rcd13ifvqc4g","pricing_plan_id":"cebpf4jnsgd1na2vs0mg"},{"bike_id":"5efca58d-de29-4b50-afa6-c56afb7e7696","system_id":"levelo_inurba_marseille","lat":43.311125,"lon":5.377624,"is_reserved":false,"is_disabled":false,"rental_uris":{"android":"levelo://app?vid=5efca58d-de29-4b50-afa6-c56afb7e7696","ios":"levelo://app?vid=5efca58d-de29-4b50-afa6-c56afb7e7696"},"vehicle_type_id":"4","last_reported":1723370880,"current_range_meters":24400,"station_id":"ce4bgt92rcd13ifvqcg0","pricing_plan_id":"cebpf4jnsgd1na2vs0mg"},{"bike_id":"d2ec3bca-7fe6-4390-aaa1-7f9bfdf371a9","system_id":"levelo_inurba_marseille","lat":43.311125,"lon":5.377624,"is_reserved":false,"is_disabled":false,"rental_uris":{"android":"levelo://app?vid=d2ec3bca-7fe6-4390-aaa1-7f9bfdf371a9","ios":"levelo://app?vid=d2ec3bca-7fe6-4390-aaa1-7f9bfdf371a9"},"vehicle_type_id":"4","last_reported":1723370880,"current_range_meters":3600,"station_id":"ce4bgt92rcd13ifvqcg0","pricing_plan_id":"cebpf4jnsgd1na2vs0mg"},{"bike_id":"06bda57f-ec03-4649-b83a-8dcd7e185070","system_id":"levelo_inurba_marseille","lat":43.311125,"lon":5.377624,"is_reserved":false,"is_disabled":false,"rental_uris":{"android":"levelo://app?vid=06bda57f-ec03-4649-b83a-8dcd7e185070","ios":"levelo://app?vid=06bda57f-ec03-4649-b83a-8dcd7e185070"},"vehicle_type_id":"4","last_reported":1723370880,"current_range_meters":32000,"station_id":"ce4bgt92rcd13ifvqcg0","pricing_plan_id":"cebpf4jnsgd1na2vs0mg"},{"bike_id":"195fa7e8-4786-4ef4-b2d9-14ee0aaf3874","system_id":"levelo_inurba_marseille","lat":43.311125,"lon":5.377624,"is_reserved":false,"is_disabled":false,"rental_uris":{"android":"levelo://app?vid=195fa7e8-4786-4ef4-b2d9-14ee0aaf3874","ios":"levelo://app?vid=195fa7e8-4786-4ef4-b2d9-14ee0aaf3874"},"vehicle_type_id":"4","last_reported":1723370880,"current_range_meters":31200,"station_id":"ce4bgt92rcd13ifvqcg0","pricing_plan_id":"cebpf4jnsgd1na2vs0mg"},{"bike_id":"c0ab7799-8a74-4e15-9a2c-1353141dfb13","system_id":"levelo_inurba_marseille","lat":43.307945,"lon":5.376487,"is_reserved":false,"is_disabled":false,"rental_uris":{"android":"levelo://app?vid=c0ab7799-8a74-4e15-9a2c-1353141dfb13","ios":"levelo://app?vid=c0ab7799-8a74-4e15-9a2c-1353141dfb13"},"vehicle_type_id":"4","last_reported":1723370880,"current_range_meters":26800,"station_id":"ce4bgv92rcd13ifvqcq0","pricing_plan_id":"cebpf4jnsgd1na2vs0mg"},{"bike_id":"b5ab8a7f-2151-4637-81b7-36cf86ab3b08","system_id":"levelo_inurba_marseille","lat":43.307945,"lon":5.376487,"is_reserved":false,"is_disabled":false,"rental_uris":{"android":"levelo://app?vid=b5ab8a7f-2151-4637-81b7-36cf86ab3b08","ios":"levelo://app?vid=b5ab8a7f-2151-4637-81b7-36cf86ab3b08"},"vehicle_type_id":"4","last_reported":1723370880,"current_range_meters":26000,"station_id":"ce4bgv92rcd13ifvqcq0","pricing_plan_id":"cebpf4jnsgd1na2vs0mg"},{"bike_id":"003679c8-9e92-464e-ac38-0c6ed3a49e31","system_id":"levelo_inurba_marseille","lat":43.30787,"lon":5.37646,"is_reserved":false,"is_disabled":false,"rental_uris":{"android":"levelo://app?vid=003679c8-9e92-464e-ac38-0c6ed3a49e31","ios":"levelo://app?vid=003679c8-9e92-464e-ac38-0c6ed3a49e31"},"vehicle_type_id":"4","last_reported":1723370880,"current_range_meters":0,"station_id":"","pricing_plan_id":"cebpf4jnsgd1na2vs0mg"},{"bike_id":"e7432530-8a5b-44fd-a485-4bc09d217151","system_id":"levelo_inurba_marseille","lat":43.317075,"lon":5.377367,"is_reserved":false,"is_disabled":false,"rental_uris":{"android":"levelo://app?vid=e7432530-8a5b-44fd-a485-4bc09d217151","ios":"levelo://app?vid=e7432530-8a5b-44fd-a485-4bc09d217151"},"vehicle_type_id":"4","last_reported":1723370880,"current_range_meters":8400,"station_id":"ce4bgth2rcd13ifvqch0","pricing_plan_id":"cebpf4jnsgd1na2vs0mg"},{"bike_id":"31509974-9d07-4ef8-bfdf-d24cc655be01","system_id":"levelo_inurba_marseille","lat":43.317075,"lon":5.377367,"is_reserved":false,"is_disabled":false,"rental_uris":{"android":"levelo://app?vid=31509974-9d07-4ef8-bfdf-d24cc655be01","ios":"levelo://app?vid=31509974-9d07-4ef8-bfdf-d24cc655be01"},"vehicle_type_id":"4","last_reported":1723370880,"current_range_meters":26000,"station_id":"ce4bgth2rcd13ifvqch0","pricing_plan_id":"cebpf4jnsgd1na2vs0mg"},{"bike_id":"f0427ece-42a1-479c-95f3-63e91234fed4","system_id":"levelo_inurba_marseille","lat":43.312473,"lon":5.379951,"is_reserved":false,"is_disabled":false,"rental_uris":{"android":"levelo://app?vid=f0427ece-42a1-479c-95f3-63e91234fed4","ios":"levelo://app?vid=f0427ece-42a1-479c-95f3-63e91234fed4"},"vehicle_type_id":"4","last_reported":1723370880,"current_range_meters":14400,"station_id":"","pricing_plan_id":"cebpf4jnsgd1na2vs0mg"},{"bike_id":"af4c1ccd-17c0-4ef7-ae8b-b1f64179b6e2","system_id":"levelo_inurba_marseille","lat":43.30304,"lon":5.368987,"is_reserved":false,"is_disabled":false,"rental_uris":{"android":"levelo://app?vid=af4c1ccd-17c0-4ef7-ae8b-b1f64179b6e2","ios":"levelo://app?vid=af4c1ccd-17c0-4ef7-ae8b-b1f64179b6e2"},"vehicle_type_id":"4","last_reported":1723370880,"current_range_meters":27600,"station_id":"ce4bgqh2rcd13ifvqc5g","pricing_plan_id":"cebpf4jnsgd1na2vs0mg"},{"bike_id":"3b12913b-96d7-4632-bb0c-018cdca64ab0","system_id":"levelo_inurba_marseille","lat":43.303046,"lon":5.368981,"is_reserved":false,"is_disabled":false,"rental_uris":{"android":"levelo://app?vid=3b12913b-96d7-4632-bb0c-018cdca64ab0","ios":"levelo://app?vid=3b12913b-96d7-4632-bb0c-018cdca64ab0"},"vehicle_type_id":"4","last_reported":1723370880,"current_range_meters":20400,"station_id":"ce4bgqh2rcd13ifvqc5g","pricing_plan_id":"cebpf4jnsgd1na2vs0mg"},{"bike_id":"582dc563-e2f9-49a2-ace9-33739e854018","system_id":"levelo_inurba_marseille","lat":43.303046,"lon":5.368981,"is_reserved":false,"is_disabled":false,"rental_uris":{"android":"levelo://app?vid=582dc563-e2f9-49a2-ace9-33739e854018","ios":"levelo://app?vid=582dc563-e2f9-49a2-ace9-33739e854018"},"vehicle_type_id":"4","last_reported":1723370880,"current_range_meters":25600,"station_id":"ce4bgqh2rcd13ifvqc5g","pricing_plan_id":"cebpf4jnsgd1na2vs0mg"},{"bike_id":"7095b520-d860-4dbe-a377-b7c18daa057a","system_id":"levelo_inurba_marseille","lat":43.301939,"lon":5.366286,"is_reserved":false,"is_disabled":false,"rental_uris":{"android":"levelo://app?vid=7095b520-d860-4dbe-a377-b7c18daa057a","ios":"levelo://app?vid=7095b520-d860-4dbe-a377-b7c18daa057a"},"vehicle_type_id":"4","last_reported":1723370880,"current_range_meters":5600,"station_id":"ce4bgrh2rcd13ifvqc8g","pricing_plan_id":"cebpf4jnsgd1na2vs0mg"},{"bike_id":"05d8a436-3164-4415-a27f-523880bef8d7","system_id":"levelo_inurba_marseille","lat":43.301939,"lon":5.366286,"is_reserved":false,"is_disabled":false,"rental_uris":{"android":"levelo://app?vid=05d8a436-3164-4415-a27f-523880bef8d7","ios":"levelo://app?vid=05d8a436-3164-4415-a27f-523880bef8d7"},"vehicle_type_id":"4","last_reported":1723370880,"current_range_meters":8400,"station_id":"ce4bgrh2rcd13ifvqc8g","pricing_plan_id":"cebpf4jnsgd1na2vs0mg"},{"bike_id":"b921bb21-4b5c-4857-8335-1f6da695a794","system_id":"levelo_inurba_marseille","lat":43.308012,"lon":5.381511,"is_reserved":false,"is_disabled":false,"rental_uris":{"android":"levelo://app?vid=b921bb21-4b5c-4857-8335-1f6da695a794","ios":"levelo://app?vid=b921bb21-4b5c-4857-8335-1f6da695a794"},"vehicle_type_id":"4","last_reported":1723370880,"current_range_meters":4000,"station_id":"ce4bgt12rcd13ifvqce0","pricing_plan_id":"cebpf4jnsgd1na2vs0mg"},{"bike_id":"44778564-4075-4345-be0b-7296e0140359","system_id":"levelo_inurba_marseille","lat":43.308012,"lon":5.381511,"is_reserved":false,"is_disabled":false,"rental_uris":{"android":"levelo://app?vid=44778564-4075-4345-be0b-7296e0140359","ios":"levelo://app?vid=44778564-4075-4345-be0b-7296e0140359"},"vehicle_type_id":"4","last_reported":1723370880,"current_range_meters":28400,"station_id":"ce4bgt12rcd13ifvqce0","pricing_plan_id":"cebpf4jnsgd1na2vs0mg"},{"bike_id":"a41843c2-c83b-41e3-8bfc-a52050781a1b","system_id":"levelo_inurba_marseille","lat":43.308012,"lon":5.381511,"is_reserved":false,"is_disabled":false,"rental_uris":{"android":"levelo://app?vid=a41843c2-c83b-41e3-8bfc-a52050781a1b","ios":"levelo://app?vid=a41843c2-c83b-41e3-8bfc-a52050781a1b"},"vehicle_type_id":"4","last_reported":1723370880,"current_range_meters":27200,"station_id":"ce4bgt12rcd13ifvqce0","pricing_plan_id":"cebpf4jnsgd1na2vs0mg"},{"bike_id":"0fb46e06-f8b2-4fa1-9ef0-1d360ab56a3c","system_id":"levelo_inurba_marseille","lat":43.308012,"lon":5.381511,"is_reserved":false,"is_disabled":false,"rental_uris":{"android":"levelo://app?vid=0fb46e06-f8b2-4fa1-9ef0-1d360ab56a3c","ios":"levelo://app?vid=0fb46e06-f8b2-4fa1-9ef0-1d360ab56a3c"},"vehicle_type_id":"4","last_reported":1723370880,"current_range_meters":5600,"station_id":"ce4bgt12rcd13ifvqce0","pricing_plan_id":"cebpf4jnsgd1na2vs0mg"},{"bike_id":"4047dc3a-a075-4997-890b-19b5cf2f27a2","system_id":"levelo_inurba_marseille","lat":43.308012,"lon":5.381511,"is_reserved":false,"is_disabled":false,"rental_uris":{"android":"levelo://app?vid=4047dc3a-a075-4997-890b-19b5cf2f27a2","ios":"levelo://app?vid=4047dc3a-a075-4997-890b-19b5cf2f27a2"},"vehicle_type_id":"4","last_reported":1723370880,"current_range_meters":21600,"station_id":"ce4bgt12rcd13ifvqce0","pricing_plan_id":"cebpf4jnsgd1na2vs0mg"},{"bike_id":"387b4e20-8235-49fa-a8cb-2300763d354f","system_id":"levelo_inurba_marseille","lat":43.30805,"lon":5.3816,"is_reserved":false,"is_disabled":false,"rental_uris":{"android":"levelo://app?vid=387b4e20-8235-49fa-a8cb-2300763d354f","ios":"levelo://app?vid=387b4e20-8235-49fa-a8cb-2300763d354f"},"vehicle_type_id":"4","last_reported":1723370880,"current_range_meters":5200,"station_id":"","pricing_plan_id":"cebpf4jnsgd1na2vs0mg"},{"bike_id":"6d5c5b9d-7776-4960-aa97-878df0fcb238","system_id":"levelo_inurba_marseille","lat":43.308012,"lon":5.381511,"is_reserved":false,"is_disabled":false,"rental_uris":{"android":"levelo://app?vid=6d5c5b9d-7776-4960-aa97-878df0fcb238","ios":"levelo://app?vid=6d5c5b9d-7776-4960-aa97-878df0fcb238"},"vehicle_type_id":"4","last_reported":1723370880,"current_range_meters":0,"station_id":"ce4bgt12rcd13ifvqce0","pricing_plan_id":"cebpf4jnsgd1na2vs0mg"},{"bike_id":"e9c32d31-f338-437c-83f0-bdac42fc56e7","system_id":"levelo_inurba_marseille","lat":43.304606,"lon":5.379026,"is_reserved":false,"is_disabled":false,"rental_uris":{"android":"levelo://app?vid=e9c32d31-f338-437c-83f0-bdac42fc56e7","ios":"levelo://app?vid=e9c32d31-f338-437c-83f0-bdac42fc56e7"},"vehicle_type_id":"4","last_reported":1723370880,"current_range_meters":14400,"station_id":"ce4bgup2rcd13ifvqcn0","pricing_plan_id":"cebpf4jnsgd1na2vs0mg"},{"bike_id":"fb031a4c-6f50-41fc-b0c3-b680dcd1e526","system_id":"levelo_inurba_marseille","lat":43.304606,"lon":5.379026,"is_reserved":false,"is_disabled":false,"rental_uris":{"android":"levelo://app?vid=fb031a4c-6f50-41fc-b0c3-b680dcd1e526","ios":"levelo://app?vid=fb031a4c-6f50-41fc-b0c3-b680dcd1e526"},"vehicle_type_id":"4","last_reported":1723370880,"current_range_meters":29200,"station_id":"ce4bgup2rcd13ifvqcn0","pricing_plan_id":"cebpf4jnsgd1na2vs0mg"},{"bike_id":"64d5d62f-c293-4af2-9a58-59d0c7a56ef7","system_id":"levelo_inurba_marseille","lat":43.304606,"lon":5.379026,"is_reserved":false,"is_disabled":false,"rental_uris":{"android":"levelo://app?vid=64d5d62f-c293-4af2-9a58-59d0c7a56ef7","ios":"levelo://app?vid=64d5d62f-c293-4af2-9a58-59d0c7a56ef7"},"vehicle_type_id":"4","last_reported":1723370880,"current_range_meters":23200,"station_id":"ce4bgup2rcd13ifvqcn0","pricing_plan_id":"cebpf4jnsgd1na2vs0mg"},{"bike_id":"79b0bb9d-cfca-4353-9a20-49e492502927","system_id":"levelo_inurba_marseille","lat":43.304606,"lon":5.379026,"is_reserved":false,"is_disabled":false,"rental_uris":{"android":"levelo://app?vid=79b0bb9d-cfca-4353-9a20-49e492502927","ios":"levelo://app?vid=79b0bb9d-cfca-4353-9a20-49e492502927"},"vehicle_type_id":"4","last_reported":1723370880,"current_range_meters":16400,"station_id":"ce4bgup2rcd13ifvqcn0","pricing_plan_id":"cebpf4jnsgd1na2vs0mg"},{"bike_id":"dcbdfa7f-4563-4d3e-8f84-bff69ac4508f","system_id":"levelo_inurba_marseille","lat":43.304606,"lon":5.379026,"is_reserved":false,"is_disabled":false,"rental_uris":{"android":"levelo://app?vid=dcbdfa7f-4563-4d3e-8f84-bff69ac4508f","ios":"levelo://app?vid=dcbdfa7f-4563-4d3e-8f84-bff69ac4508f"},"vehicle_type_id":"4","last_reported":1723370880,"current_range_meters":22800,"station_id":"ce4bgup2rcd13ifvqcn0","pricing_plan_id":"cebpf4jnsgd1na2vs0mg"},{"bike_id":"7fb2d64f-17c5-4f5a-bbec-7b22b00a0d80","system_id":"levelo_inurba_marseille","lat":43.304606,"lon":5.379026,"is_reserved":false,"is_disabled":false,"rental_uris":{"android":"levelo://app?vid=7fb2d64f-17c5-4f5a-bbec-7b22b00a0d80","ios":"levelo://app?vid=7fb2d64f-17c5-4f5a-bbec-7b22b00a0d80"},"vehicle_type_id":"4","last_reported":1723370880,"current_range_meters":19600,"station_id":"ce4bgup2rcd13ifvqcn0","pricing_plan_id":"cebpf4jnsgd1na2vs0mg"},{"bike_id":"3d5fe44a-77c4-47fd-a4a3-aaf894215436","system_id":"levelo_inurba_marseille","lat":43.304606,"lon":5.379026,"is_reserved":false,"is_disabled":false,"rental_uris":{"android":"levelo://app?vid=3d5fe44a-77c4-47fd-a4a3-aaf894215436","ios":"levelo://app?vid=3d5fe44a-77c4-47fd-a4a3-aaf894215436"},"vehicle_type_id":"4","last_reported":1723370880,"current_range_meters":16800,"station_id":"ce4bgup2rcd13ifvqcn0","pricing_plan_id":"cebpf4jnsgd1na2vs0mg"},{"bike_id":"bf70e8a8-d978-4613-9c14-a2b06e5cf3d6","system_id":"levelo_inurba_marseille","lat":43.304606,"lon":5.379026,"is_reserved":false,"is_disabled":false,"rental_uris":{"android":"levelo://app?vid=bf70e8a8-d978-4613-9c14-a2b06e5cf3d6","ios":"levelo://app?vid=bf70e8a8-d978-4613-9c14-a2b06e5cf3d6"},"vehicle_type_id":"4","last_reported":1723370880,"current_range_meters":11200,"station_id":"ce4bgup2rcd13ifvqcn0","pricing_plan_id":"cebpf4jnsgd1na2vs0mg"},{"bike_id":"e808a47c-f1ab-49c8-9868-162ce164be9e","system_id":"levelo_inurba_marseille","lat":43.324771,"lon":5.36557,"is_reserved":false,"is_disabled":false,"rental_uris":{"android":"levelo://app?vid=e808a47c-f1ab-49c8-9868-162ce164be9e","ios":"levelo://app?vid=e808a47c-f1ab-49c8-9868-162ce164be9e"},"vehicle_type_id":"4","last_reported":1723370880,"current_range_meters":32000,"station_id":"ce4bhs12rcd13ifvqhvg","pricing_plan_id":"cebpf4jnsgd1na2vs0mg"},{"bike_id":"040af7e8-4ed6-443b-a08e-098febd301a8","system_id":"levelo_inurba_marseille","lat":43.304606,"lon":5.379026,"is_reserved":false,"is_disabled":false,"rental_uris":{"android":"levelo://app?vid=040af7e8-4ed6-443b-a08e-098febd301a8","ios":"levelo://app?vid=040af7e8-4ed6-443b-a08e-098febd301a8"},"vehicle_type_id":"4","last_reported":1723370880,"current_range_meters":6000,"station_id":"ce4bgup2rcd13ifvqcn0","pricing_plan_id":"cebpf4jnsgd1na2vs0mg"},{"bike_id":"4bfed571-a781-4778-9bc9-fd89ed2bde35","system_id":"levelo_inurba_marseille","lat":43.324771,"lon":5.36557,"is_reserved":false,"is_disabled":false,"rental_uris":{"android":"levelo://app?vid=4bfed571-a781-4778-9bc9-fd89ed2bde35","ios":"levelo://app?vid=4bfed571-a781-4778-9bc9-fd89ed2bde35"},"vehicle_type_id":"4","last_reported":1723370880,"current_range_meters":26800,"station_id":"ce4bhs12rcd13ifvqhvg","pricing_plan_id":"cebpf4jnsgd1na2vs0mg"},{"bike_id":"ace94ede-ceef-4bfb-a31b-760bf3dff518","system_id":"levelo_inurba_marseille","lat":43.32477,"lon":5.36557,"is_reserved":false,"is_disabled":false,"rental_uris":{"android":"levelo://app?vid=ace94ede-ceef-4bfb-a31b-760bf3dff518","ios":"levelo://app?vid=ace94ede-ceef-4bfb-a31b-760bf3dff518"},"vehicle_type_id":"4","last_reported":1723370880,"current_range_meters":11600,"station_id":"ce4bhs12rcd13ifvqhvg","pricing_plan_id":"cebpf4jnsgd1na2vs0mg"},{"bike_id":"75a43ee6-e251-4740-af8e-bff42a826b72","system_id":"levelo_inurba_marseille","lat":43.324771,"lon":5.36557,"is_reserved":false,"is_disabled":false,"rental_uris":{"android":"levelo://app?vid=75a43ee6-e251-4740-af8e-bff42a826b72","ios":"levelo://app?vid=75a43ee6-e251-4740-af8e-bff42a826b72"},"vehicle_type_id":"4","last_reported":1723370880,"current_range_meters":8400,"station_id":"ce4bhs12rcd13ifvqhvg","pricing_plan_id":"cebpf4jnsgd1na2vs0mg"},{"bike_id":"0c46650d-acbb-452c-8551-83b678600d8e","system_id":"levelo_inurba_marseille","lat":43.32478,"lon":5.36561,"is_reserved":false,"is_disabled":false,"rental_uris":{"android":"levelo://app?vid=0c46650d-acbb-452c-8551-83b678600d8e","ios":"levelo://app?vid=0c46650d-acbb-452c-8551-83b678600d8e"},"vehicle_type_id":"4","last_reported":1723370880,"current_range_meters":18800,"station_id":"ce4bhs12rcd13ifvqhvg","pricing_plan_id":"cebpf4jnsgd1na2vs0mg"},{"bike_id":"57e8995c-1fc9-4244-abcf-1bf85026f973","system_id":"levelo_inurba_marseille","lat":43.32479,"lon":5.36573,"is_reserved":false,"is_disabled":false,"rental_uris":{"android":"levelo://app?vid=57e8995c-1fc9-4244-abcf-1bf85026f973","ios":"levelo://app?vid=57e8995c-1fc9-4244-abcf-1bf85026f973"},"vehicle_type_id":"4","last_reported":1723370880,"current_range_meters":10400,"station_id":"ce4bhs12rcd13ifvqhvg","pricing_plan_id":"cebpf4jnsgd1na2vs0mg"},{"bike_id":"4bf5be37-0c95-48b4-b540-09fa58a1f6ed","system_id":"levelo_inurba_marseille","lat":43.324771,"lon":5.36557,"is_reserved":false,"is_disabled":false,"rental_uris":{"android":"levelo://app?vid=4bf5be37-0c95-48b4-b540-09fa58a1f6ed","ios":"levelo://app?vid=4bf5be37-0c95-48b4-b540-09fa58a1f6ed"},"vehicle_type_id":"4","last_reported":1723370880,"current_range_meters":29600,"station_id":"ce4bhs12rcd13ifvqhvg","pricing_plan_id":"cebpf4jnsgd1na2vs0mg"},{"bike_id":"2c03f82f-970e-4b38-9598-c13e7d7e1f7e","system_id":"levelo_inurba_marseille","lat":43.324771,"lon":5.36557,"is_reserved":false,"is_disabled":false,"rental_uris":{"android":"levelo://app?vid=2c03f82f-970e-4b38-9598-c13e7d7e1f7e","ios":"levelo://app?vid=2c03f82f-970e-4b38-9598-c13e7d7e1f7e"},"vehicle_type_id":"4","last_reported":1723370880,"current_range_meters":25200,"station_id":"ce4bhs12rcd13ifvqhvg","pricing_plan_id":"cebpf4jnsgd1na2vs0mg"},{"bike_id":"f2ee1045-5069-491b-8cec-e4ca131259b8","system_id":"levelo_inurba_marseille","lat":43.324771,"lon":5.36557,"is_reserved":false,"is_disabled":false,"rental_uris":{"android":"levelo://app?vid=f2ee1045-5069-491b-8cec-e4ca131259b8","ios":"levelo://app?vid=f2ee1045-5069-491b-8cec-e4ca131259b8"},"vehicle_type_id":"4","last_reported":1723370880,"current_range_meters":14000,"station_id":"ce4bhs12rcd13ifvqhvg","pricing_plan_id":"cebpf4jnsgd1na2vs0mg"},{"bike_id":"fcb8a6fa-6156-4b33-80d5-0ede5b76cb5b","system_id":"levelo_inurba_marseille","lat":43.324771,"lon":5.36557,"is_reserved":false,"is_disabled":false,"rental_uris":{"android":"levelo://app?vid=fcb8a6fa-6156-4b33-80d5-0ede5b76cb5b","ios":"levelo://app?vid=fcb8a6fa-6156-4b33-80d5-0ede5b76cb5b"},"vehicle_type_id":"4","last_reported":1723370880,"current_range_meters":3200,"station_id":"ce4bhs12rcd13ifvqhvg","pricing_plan_id":"cebpf4jnsgd1na2vs0mg"},{"bike_id":"f509acdd-4e2b-4412-ba87-b355900b35f8","system_id":"levelo_inurba_marseille","lat":43.324771,"lon":5.36557,"is_reserved":false,"is_disabled":false,"rental_uris":{"android":"levelo://app?vid=f509acdd-4e2b-4412-ba87-b355900b35f8","ios":"levelo://app?vid=f509acdd-4e2b-4412-ba87-b355900b35f8"},"vehicle_type_id":"4","last_reported":1723370880,"current_range_meters":27600,"station_id":"ce4bhs12rcd13ifvqhvg","pricing_plan_id":"cebpf4jnsgd1na2vs0mg"},{"bike_id":"081007f9-31dc-4b77-b8f2-8dffedab8808","system_id":"levelo_inurba_marseille","lat":43.324771,"lon":5.36557,"is_reserved":false,"is_disabled":false,"rental_uris":{"android":"levelo://app?vid=081007f9-31dc-4b77-b8f2-8dffedab8808","ios":"levelo://app?vid=081007f9-31dc-4b77-b8f2-8dffedab8808"},"vehicle_type_id":"4","last_reported":1723370880,"current_range_meters":18000,"station_id":"ce4bhs12rcd13ifvqhvg","pricing_plan_id":"cebpf4jnsgd1na2vs0mg"},{"bike_id":"1ffad33b-bb6d-44b8-aa35-c11639d0650c","system_id":"levelo_inurba_marseille","lat":43.324771,"lon":5.36557,"is_reserved":false,"is_disabled":false,"rental_uris":{"android":"levelo://app?vid=1ffad33b-bb6d-44b8-aa35-c11639d0650c","ios":"levelo://app?vid=1ffad33b-bb6d-44b8-aa35-c11639d0650c"},"vehicle_type_id":"4","last_reported":1723370880,"current_range_meters":27600,"station_id":"ce4bhs12rcd13ifvqhvg","pricing_plan_id":"cebpf4jnsgd1na2vs0mg"},{"bike_id":"8d62cf42-ded4-40b6-a339-928240cb973a","system_id":"levelo_inurba_marseille","lat":43.324771,"lon":5.36557,"is_reserved":false,"is_disabled":false,"rental_uris":{"android":"levelo://app?vid=8d62cf42-ded4-40b6-a339-928240cb973a","ios":"levelo://app?vid=8d62cf42-ded4-40b6-a339-928240cb973a"},"vehicle_type_id":"4","last_reported":1723370880,"current_range_meters":29200,"station_id":"ce4bhs12rcd13ifvqhvg","pricing_plan_id":"cebpf4jnsgd1na2vs0mg"},{"bike_id":"d2a9e812-5230-4fde-86b2-e9f04eaa8eb7","system_id":"levelo_inurba_marseille","lat":43.32484,"lon":5.36577,"is_reserved":false,"is_disabled":false,"rental_uris":{"android":"levelo://app?vid=d2a9e812-5230-4fde-86b2-e9f04eaa8eb7","ios":"levelo://app?vid=d2a9e812-5230-4fde-86b2-e9f04eaa8eb7"},"vehicle_type_id":"4","last_reported":1723370880,"current_range_meters":20800,"station_id":"ce4bhs12rcd13ifvqhvg","pricing_plan_id":"cebpf4jnsgd1na2vs0mg"},{"bike_id":"e5000063-db07-4064-adf1-e6b77f0e18ee","system_id":"levelo_inurba_marseille","lat":43.324771,"lon":5.36557,"is_reserved":false,"is_disabled":false,"rental_uris":{"android":"levelo://app?vid=e5000063-db07-4064-adf1-e6b77f0e18ee","ios":"levelo://app?vid=e5000063-db07-4064-adf1-e6b77f0e18ee"},"vehicle_type_id":"4","last_reported":1723370880,"current_range_meters":32000,"station_id":"ce4bhs12rcd13ifvqhvg","pricing_plan_id":"cebpf4jnsgd1na2vs0mg"},{"bike_id":"a7107ef9-55f0-477a-b52b-a987c265ac12","system_id":"levelo_inurba_marseille","lat":43.324771,"lon":5.36557,"is_reserved":false,"is_disabled":false,"rental_uris":{"android":"levelo://app?vid=a7107ef9-55f0-477a-b52b-a987c265ac12","ios":"levelo://app?vid=a7107ef9-55f0-477a-b52b-a987c265ac12"},"vehicle_type_id":"4","last_reported":1723370880,"current_range_meters":11200,"station_id":"ce4bhs12rcd13ifvqhvg","pricing_plan_id":"cebpf4jnsgd1na2vs0mg"},{"bike_id":"3a7be5ea-b681-46a6-8d38-e68f680474d0","system_id":"levelo_inurba_marseille","lat":43.324771,"lon":5.36557,"is_reserved":false,"is_disabled":false,"rental_uris":{"android":"levelo://app?vid=3a7be5ea-b681-46a6-8d38-e68f680474d0","ios":"levelo://app?vid=3a7be5ea-b681-46a6-8d38-e68f680474d0"},"vehicle_type_id":"4","last_reported":1723370880,"current_range_meters":0,"station_id":"ce4bhs12rcd13ifvqhvg","pricing_plan_id":"cebpf4jnsgd1na2vs0mg"},{"bike_id":"fc590896-1ef2-4d20-aa58-87c2f9cc0567","system_id":"levelo_inurba_marseille","lat":43.324771,"lon":5.36557,"is_reserved":false,"is_disabled":false,"rental_uris":{"android":"levelo://app?vid=fc590896-1ef2-4d20-aa58-87c2f9cc0567","ios":"levelo://app?vid=fc590896-1ef2-4d20-aa58-87c2f9cc0567"},"vehicle_type_id":"4","last_reported":1723370880,"current_range_meters":29600,"station_id":"ce4bhs12rcd13ifvqhvg","pricing_plan_id":"cebpf4jnsgd1na2vs0mg"},{"bike_id":"a5f356b9-9e2f-4bbc-840e-b7ca33dff646","system_id":"levelo_inurba_marseille","lat":43.310804,"lon":5.38359,"is_reserved":false,"is_disabled":false,"rental_uris":{"android":"levelo://app?vid=a5f356b9-9e2f-4bbc-840e-b7ca33dff646","ios":"levelo://app?vid=a5f356b9-9e2f-4bbc-840e-b7ca33dff646"},"vehicle_type_id":"4","last_reported":1723370880,"current_range_meters":20400,"station_id":"ce4bgv92rcd13ifvqcr0","pricing_plan_id":"cebpf4jnsgd1na2vs0mg"},{"bike_id":"44d5ee01-17cf-4298-b152-f9324636a5f3","system_id":"levelo_inurba_marseille","lat":43.310804,"lon":5.38359,"is_reserved":false,"is_disabled":false,"rental_uris":{"android":"levelo://app?vid=44d5ee01-17cf-4298-b152-f9324636a5f3","ios":"levelo://app?vid=44d5ee01-17cf-4298-b152-f9324636a5f3"},"vehicle_type_id":"4","last_reported":1723370880,"current_range_meters":24000,"station_id":"ce4bgv92rcd13ifvqcr0","pricing_plan_id":"cebpf4jnsgd1na2vs0mg"},{"bike_id":"5fc0d868-3327-4e5f-a8aa-7409c11b9642","system_id":"levelo_inurba_marseille","lat":43.310804,"lon":5.38359,"is_reserved":false,"is_disabled":false,"rental_uris":{"android":"levelo://app?vid=5fc0d868-3327-4e5f-a8aa-7409c11b9642","ios":"levelo://app?vid=5fc0d868-3327-4e5f-a8aa-7409c11b9642"},"vehicle_type_id":"4","last_reported":1723370880,"current_range_meters":6000,"station_id":"ce4bgv92rcd13ifvqcr0","pricing_plan_id":"cebpf4jnsgd1na2vs0mg"},{"bike_id":"f7ac48df-e370-4195-87df-778650bc8fac","system_id":"levelo_inurba_marseille","lat":43.310804,"lon":5.38359,"is_reserved":false,"is_disabled":false,"rental_uris":{"android":"levelo://app?vid=f7ac48df-e370-4195-87df-778650bc8fac","ios":"levelo://app?vid=f7ac48df-e370-4195-87df-778650bc8fac"},"vehicle_type_id":"4","last_reported":1723370880,"current_range_meters":21200,"station_id":"ce4bgv92rcd13ifvqcr0","pricing_plan_id":"cebpf4jnsgd1na2vs0mg"},{"bike_id":"620cf760-93c2-46b1-88bb-9a12e066140d","system_id":"levelo_inurba_marseille","lat":43.310804,"lon":5.38359,"is_reserved":false,"is_disabled":false,"rental_uris":{"android":"levelo://app?vid=620cf760-93c2-46b1-88bb-9a12e066140d","ios":"levelo://app?vid=620cf760-93c2-46b1-88bb-9a12e066140d"},"vehicle_type_id":"4","last_reported":1723370880,"current_range_meters":8800,"station_id":"ce4bgv92rcd13ifvqcr0","pricing_plan_id":"cebpf4jnsgd1na2vs0mg"},{"bike_id":"01979ae9-4657-4fb6-be4d-9ee460dd4617","system_id":"levelo_inurba_marseille","lat":43.310804,"lon":5.38359,"is_reserved":false,"is_disabled":false,"rental_uris":{"android":"levelo://app?vid=01979ae9-4657-4fb6-be4d-9ee460dd4617","ios":"levelo://app?vid=01979ae9-4657-4fb6-be4d-9ee460dd4617"},"vehicle_type_id":"4","last_reported":1723370880,"current_range_meters":8400,"station_id":"ce4bgv92rcd13ifvqcr0","pricing_plan_id":"cebpf4jnsgd1na2vs0mg"},{"bike_id":"8347cc31-c3cf-4cb6-9f60-eadbb35009f7","system_id":"levelo_inurba_marseille","lat":43.310738,"lon":5.383527,"is_reserved":false,"is_disabled":false,"rental_uris":{"android":"levelo://app?vid=8347cc31-c3cf-4cb6-9f60-eadbb35009f7","ios":"levelo://app?vid=8347cc31-c3cf-4cb6-9f60-eadbb35009f7"},"vehicle_type_id":"4","last_reported":1723370880,"current_range_meters":7200,"station_id":"ce4bgv92rcd13ifvqcr0","pricing_plan_id":"cebpf4jnsgd1na2vs0mg"},{"bike_id":"e0facb38-3368-476b-b795-e1823a5f98a1","system_id":"levelo_inurba_marseille","lat":43.310804,"lon":5.38359,"is_reserved":false,"is_disabled":false,"rental_uris":{"android":"levelo://app?vid=e0facb38-3368-476b-b795-e1823a5f98a1","ios":"levelo://app?vid=e0facb38-3368-476b-b795-e1823a5f98a1"},"vehicle_type_id":"4","last_reported":1723370880,"current_range_meters":20800,"station_id":"ce4bgv92rcd13ifvqcr0","pricing_plan_id":"cebpf4jnsgd1na2vs0mg"},{"bike_id":"f9e5303c-7ddd-4fcb-9fca-b3ae6c975122","system_id":"levelo_inurba_marseille","lat":43.310804,"lon":5.38359,"is_reserved":false,"is_disabled":false,"rental_uris":{"android":"levelo://app?vid=f9e5303c-7ddd-4fcb-9fca-b3ae6c975122","ios":"levelo://app?vid=f9e5303c-7ddd-4fcb-9fca-b3ae6c975122"},"vehicle_type_id":"4","last_reported":1723370880,"current_range_meters":14000,"station_id":"ce4bgv92rcd13ifvqcr0","pricing_plan_id":"cebpf4jnsgd1na2vs0mg"},{"bike_id":"d3f49ccc-a650-4779-ac6d-c3f2baefb8cd","system_id":"levelo_inurba_marseille","lat":43.31063,"lon":5.38357,"is_reserved":false,"is_disabled":false,"rental_uris":{"android":"levelo://app?vid=d3f49ccc-a650-4779-ac6d-c3f2baefb8cd","ios":"levelo://app?vid=d3f49ccc-a650-4779-ac6d-c3f2baefb8cd"},"vehicle_type_id":"4","last_reported":1723370880,"current_range_meters":8800,"station_id":"ce4bgv92rcd13ifvqcr0","pricing_plan_id":"cebpf4jnsgd1na2vs0mg"},{"bike_id":"2b418b33-522e-436c-839c-8c724f789d8e","system_id":"levelo_inurba_marseille","lat":43.310804,"lon":5.38359,"is_reserved":false,"is_disabled":false,"rental_uris":{"android":"levelo://app?vid=2b418b33-522e-436c-839c-8c724f789d8e","ios":"levelo://app?vid=2b418b33-522e-436c-839c-8c724f789d8e"},"vehicle_type_id":"4","last_reported":1723370880,"current_range_meters":21600,"station_id":"ce4bgv92rcd13ifvqcr0","pricing_plan_id":"cebpf4jnsgd1na2vs0mg"},{"bike_id":"76436274-bfb3-4ec8-ba78-d4d266a1eb0d","system_id":"levelo_inurba_marseille","lat":43.310804,"lon":5.38359,"is_reserved":false,"is_disabled":false,"rental_uris":{"android":"levelo://app?vid=76436274-bfb3-4ec8-ba78-d4d266a1eb0d","ios":"levelo://app?vid=76436274-bfb3-4ec8-ba78-d4d266a1eb0d"},"vehicle_type_id":"4","last_reported":1723370880,"current_range_meters":9600,"station_id":"ce4bgv92rcd13ifvqcr0","pricing_plan_id":"cebpf4jnsgd1na2vs0mg"},{"bike_id":"3dde525d-ab76-48de-b646-783b0d7af99f","system_id":"levelo_inurba_marseille","lat":43.302784,"lon":5.377158,"is_reserved":false,"is_disabled":false,"rental_uris":{"android":"levelo://app?vid=3dde525d-ab76-48de-b646-783b0d7af99f","ios":"levelo://app?vid=3dde525d-ab76-48de-b646-783b0d7af99f"},"vehicle_type_id":"4","last_reported":1723370880,"current_range_meters":9600,"station_id":"ce4bguh2rcd13ifvqcj0","pricing_plan_id":"cebpf4jnsgd1na2vs0mg"},{"bike_id":"bb4bde9f-e444-49f3-a133-1324dfdbc1a4","system_id":"levelo_inurba_marseille","lat":43.302784,"lon":5.377158,"is_reserved":false,"is_disabled":false,"rental_uris":{"android":"levelo://app?vid=bb4bde9f-e444-49f3-a133-1324dfdbc1a4","ios":"levelo://app?vid=bb4bde9f-e444-49f3-a133-1324dfdbc1a4"},"vehicle_type_id":"4","last_reported":1723370880,"current_range_meters":9600,"station_id":"ce4bguh2rcd13ifvqcj0","pricing_plan_id":"cebpf4jnsgd1na2vs0mg"},{"bike_id":"630007f2-747c-4348-8154-375a11dc4985","system_id":"levelo_inurba_marseille","lat":43.30143,"lon":5.37413,"is_reserved":false,"is_disabled":false,"rental_uris":{"android":"levelo://app?vid=630007f2-747c-4348-8154-375a11dc4985","ios":"levelo://app?vid=630007f2-747c-4348-8154-375a11dc4985"},"vehicle_type_id":"4","last_reported":1723370880,"current_range_meters":1600,"station_id":"ce4bgs92rcd13ifvqcc0","pricing_plan_id":"cebpf4jnsgd1na2vs0mg"},{"bike_id":"e217526d-ea63-441e-8f08-6bb8da6a631d","system_id":"levelo_inurba_marseille","lat":43.302784,"lon":5.377158,"is_reserved":false,"is_disabled":false,"rental_uris":{"android":"levelo://app?vid=e217526d-ea63-441e-8f08-6bb8da6a631d","ios":"levelo://app?vid=e217526d-ea63-441e-8f08-6bb8da6a631d"},"vehicle_type_id":"4","last_reported":1723370880,"current_range_meters":11600,"station_id":"ce4bguh2rcd13ifvqcj0","pricing_plan_id":"cebpf4jnsgd1na2vs0mg"},{"bike_id":"298c7516-e0b7-4e93-adc7-799edd3005c0","system_id":"levelo_inurba_marseille","lat":43.30143,"lon":5.37413,"is_reserved":false,"is_disabled":false,"rental_uris":{"android":"levelo://app?vid=298c7516-e0b7-4e93-adc7-799edd3005c0","ios":"levelo://app?vid=298c7516-e0b7-4e93-adc7-799edd3005c0"},"vehicle_type_id":"4","last_reported":1723370880,"current_range_meters":14400,"station_id":"ce4bgs92rcd13ifvqcc0","pricing_plan_id":"cebpf4jnsgd1na2vs0mg"},{"bike_id":"81b535ba-ad57-42b7-b331-15c1b0f2abdc","system_id":"levelo_inurba_marseille","lat":43.302784,"lon":5.377158,"is_reserved":false,"is_disabled":false,"rental_uris":{"android":"levelo://app?vid=81b535ba-ad57-42b7-b331-15c1b0f2abdc","ios":"levelo://app?vid=81b535ba-ad57-42b7-b331-15c1b0f2abdc"},"vehicle_type_id":"4","last_reported":1723370880,"current_range_meters":11600,"station_id":"ce4bguh2rcd13ifvqcj0","pricing_plan_id":"cebpf4jnsgd1na2vs0mg"},{"bike_id":"0f729656-690e-418e-a05d-890954d1f523","system_id":"levelo_inurba_marseille","lat":43.30143,"lon":5.37413,"is_reserved":false,"is_disabled":false,"rental_uris":{"android":"levelo://app?vid=0f729656-690e-418e-a05d-890954d1f523","ios":"levelo://app?vid=0f729656-690e-418e-a05d-890954d1f523"},"vehicle_type_id":"4","last_reported":1723370880,"current_range_meters":7600,"station_id":"ce4bgs92rcd13ifvqcc0","pricing_plan_id":"cebpf4jnsgd1na2vs0mg"},{"bike_id":"51cc679c-0094-4d6a-a315-83b521ecd3b7","system_id":"levelo_inurba_marseille","lat":43.302784,"lon":5.377158,"is_reserved":false,"is_disabled":false,"rental_uris":{"android":"levelo://app?vid=51cc679c-0094-4d6a-a315-83b521ecd3b7","ios":"levelo://app?vid=51cc679c-0094-4d6a-a315-83b521ecd3b7"},"vehicle_type_id":"4","last_reported":1723370880,"current_range_meters":12400,"station_id":"ce4bguh2rcd13ifvqcj0","pricing_plan_id":"cebpf4jnsgd1na2vs0mg"},{"bike_id":"a2b42f11-e712-49bf-bcdb-8cc5ae376ec5","system_id":"levelo_inurba_marseille","lat":43.31991,"lon":5.38151,"is_reserved":false,"is_disabled":false,"rental_uris":{"android":"levelo://app?vid=a2b42f11-e712-49bf-bcdb-8cc5ae376ec5","ios":"levelo://app?vid=a2b42f11-e712-49bf-bcdb-8cc5ae376ec5"},"vehicle_type_id":"4","last_reported":1723370880,"current_range_meters":30800,"station_id":"ce4bhr12rcd13ifvqhpg","pricing_plan_id":"cebpf4jnsgd1na2vs0mg"},{"bike_id":"057ccf9f-39fa-445b-aa8c-1553727eb8e1","system_id":"levelo_inurba_marseille","lat":43.319955,"lon":5.381509,"is_reserved":false,"is_disabled":false,"rental_uris":{"android":"levelo://app?vid=057ccf9f-39fa-445b-aa8c-1553727eb8e1","ios":"levelo://app?vid=057ccf9f-39fa-445b-aa8c-1553727eb8e1"},"vehicle_type_id":"4","last_reported":1723370880,"current_range_meters":30800,"station_id":"ce4bhr12rcd13ifvqhpg","pricing_plan_id":"cebpf4jnsgd1na2vs0mg"},{"bike_id":"ff39d0c8-ba61-4ae1-abef-c721ee1fd9c8","system_id":"levelo_inurba_marseille","lat":43.31405,"lon":5.38461,"is_reserved":false,"is_disabled":false,"rental_uris":{"android":"levelo://app?vid=ff39d0c8-ba61-4ae1-abef-c721ee1fd9c8","ios":"levelo://app?vid=ff39d0c8-ba61-4ae1-abef-c721ee1fd9c8"},"vehicle_type_id":"4","last_reported":1723370880,"current_range_meters":9200,"station_id":"ce4bgt92rcd13ifvqcf0","pricing_plan_id":"cebpf4jnsgd1na2vs0mg"},{"bike_id":"b5c52bc9-7172-40d6-a885-1cfb27d024cf","system_id":"levelo_inurba_marseille","lat":43.3032,"lon":5.37894,"is_reserved":false,"is_disabled":false,"rental_uris":{"android":"levelo://app?vid=b5c52bc9-7172-40d6-a885-1cfb27d024cf","ios":"levelo://app?vid=b5c52bc9-7172-40d6-a885-1cfb27d024cf"},"vehicle_type_id":"4","last_reported":1723370880,"current_range_meters":0,"station_id":"","pricing_plan_id":"cebpf4jnsgd1na2vs0mg"},{"bike_id":"9d0aeb1c-49d7-4523-b7c2-70c7cdb0d8a2","system_id":"levelo_inurba_marseille","lat":43.302784,"lon":5.377158,"is_reserved":false,"is_disabled":false,"rental_uris":{"android":"levelo://app?vid=9d0aeb1c-49d7-4523-b7c2-70c7cdb0d8a2","ios":"levelo://app?vid=9d0aeb1c-49d7-4523-b7c2-70c7cdb0d8a2"},"vehicle_type_id":"4","last_reported":1723370880,"current_range_meters":26400,"station_id":"ce4bguh2rcd13ifvqcj0","pricing_plan_id":"cebpf4jnsgd1na2vs0mg"},{"bike_id":"1b4c94fb-af44-4323-9d75-88b0c42737f8","system_id":"levelo_inurba_marseille","lat":43.313571,"lon":5.384829,"is_reserved":false,"is_disabled":false,"rental_uris":{"android":"levelo://app?vid=1b4c94fb-af44-4323-9d75-88b0c42737f8","ios":"levelo://app?vid=1b4c94fb-af44-4323-9d75-88b0c42737f8"},"vehicle_type_id":"4","last_reported":1723370880,"current_range_meters":31600,"station_id":"ce4bgt92rcd13ifvqcf0","pricing_plan_id":"cebpf4jnsgd1na2vs0mg"},{"bike_id":"59cb7ac5-1d73-45dd-9f5d-6ef5726c1ea0","system_id":"levelo_inurba_marseille","lat":43.3136,"lon":5.3849,"is_reserved":false,"is_disabled":false,"rental_uris":{"android":"levelo://app?vid=59cb7ac5-1d73-45dd-9f5d-6ef5726c1ea0","ios":"levelo://app?vid=59cb7ac5-1d73-45dd-9f5d-6ef5726c1ea0"},"vehicle_type_id":"4","last_reported":1723370880,"current_range_meters":2000,"station_id":"ce4bgt92rcd13ifvqcf0","pricing_plan_id":"cebpf4jnsgd1na2vs0mg"},{"bike_id":"3f68294d-cd2d-4a29-9f7e-169398acb0ed","system_id":"levelo_inurba_marseille","lat":43.313571,"lon":5.384829,"is_reserved":false,"is_disabled":false,"rental_uris":{"android":"levelo://app?vid=3f68294d-cd2d-4a29-9f7e-169398acb0ed","ios":"levelo://app?vid=3f68294d-cd2d-4a29-9f7e-169398acb0ed"},"vehicle_type_id":"4","last_reported":1723370880,"current_range_meters":12400,"station_id":"ce4bgt92rcd13ifvqcf0","pricing_plan_id":"cebpf4jnsgd1na2vs0mg"},{"bike_id":"b20f236f-b384-4c2e-b1e9-e792a1aa720c","system_id":"levelo_inurba_marseille","lat":43.313571,"lon":5.384829,"is_reserved":false,"is_disabled":false,"rental_uris":{"android":"levelo://app?vid=b20f236f-b384-4c2e-b1e9-e792a1aa720c","ios":"levelo://app?vid=b20f236f-b384-4c2e-b1e9-e792a1aa720c"},"vehicle_type_id":"4","last_reported":1723370880,"current_range_meters":11600,"station_id":"ce4bgt92rcd13ifvqcf0","pricing_plan_id":"cebpf4jnsgd1na2vs0mg"},{"bike_id":"ac199aab-4a97-45fa-97eb-920567d75d3e","system_id":"levelo_inurba_marseille","lat":43.301765,"lon":5.3769,"is_reserved":false,"is_disabled":false,"rental_uris":{"android":"levelo://app?vid=ac199aab-4a97-45fa-97eb-920567d75d3e","ios":"levelo://app?vid=ac199aab-4a97-45fa-97eb-920567d75d3e"},"vehicle_type_id":"4","last_reported":1723370880,"current_range_meters":17200,"station_id":"","pricing_plan_id":"cebpf4jnsgd1na2vs0mg"},{"bike_id":"b9c92734-98cf-4475-979e-706510604306","system_id":"levelo_inurba_marseille","lat":43.299222,"lon":5.365554,"is_reserved":false,"is_disabled":false,"rental_uris":{"android":"levelo://app?vid=b9c92734-98cf-4475-979e-706510604306","ios":"levelo://app?vid=b9c92734-98cf-4475-979e-706510604306"},"vehicle_type_id":"4","last_reported":1723370880,"current_range_meters":24400,"station_id":"ce4bgm92rcd13ifvqbr0","pricing_plan_id":"cebpf4jnsgd1na2vs0mg"},{"bike_id":"82f7369e-be8a-4450-9079-7d6fdc2ccca2","system_id":"levelo_inurba_marseille","lat":43.305115,"lon":5.382034,"is_reserved":false,"is_disabled":false,"rental_uris":{"android":"levelo://app?vid=82f7369e-be8a-4450-9079-7d6fdc2ccca2","ios":"levelo://app?vid=82f7369e-be8a-4450-9079-7d6fdc2ccca2"},"vehicle_type_id":"4","last_reported":1723370880,"current_range_meters":2400,"station_id":"","pricing_plan_id":"cebpf4jnsgd1na2vs0mg"},{"bike_id":"289cccca-2859-49f7-9602-853df4236664","system_id":"levelo_inurba_marseille","lat":43.29939,"lon":5.36552,"is_reserved":false,"is_disabled":false,"rental_uris":{"android":"levelo://app?vid=289cccca-2859-49f7-9602-853df4236664","ios":"levelo://app?vid=289cccca-2859-49f7-9602-853df4236664"},"vehicle_type_id":"4","last_reported":1723370880,"current_range_meters":26000,"station_id":"ce4bgm92rcd13ifvqbr0","pricing_plan_id":"cebpf4jnsgd1na2vs0mg"},{"bike_id":"3862a2f5-ffd9-4164-af7e-4ac9ab27f0d4","system_id":"levelo_inurba_marseille","lat":43.299222,"lon":5.365554,"is_reserved":false,"is_disabled":false,"rental_uris":{"android":"levelo://app?vid=3862a2f5-ffd9-4164-af7e-4ac9ab27f0d4","ios":"levelo://app?vid=3862a2f5-ffd9-4164-af7e-4ac9ab27f0d4"},"vehicle_type_id":"4","last_reported":1723370880,"current_range_meters":28800,"station_id":"ce4bgm92rcd13ifvqbr0","pricing_plan_id":"cebpf4jnsgd1na2vs0mg"},{"bike_id":"4c8866ff-0707-4c0a-884d-a93e2f7c283b","system_id":"levelo_inurba_marseille","lat":43.29935,"lon":5.3656,"is_reserved":false,"is_disabled":false,"rental_uris":{"android":"levelo://app?vid=4c8866ff-0707-4c0a-884d-a93e2f7c283b","ios":"levelo://app?vid=4c8866ff-0707-4c0a-884d-a93e2f7c283b"},"vehicle_type_id":"4","last_reported":1723370880,"current_range_meters":2800,"station_id":"ce4bgm92rcd13ifvqbr0","pricing_plan_id":"cebpf4jnsgd1na2vs0mg"},{"bike_id":"b780e143-e105-4670-a4df-3ee00547abac","system_id":"levelo_inurba_marseille","lat":43.299724,"lon":5.371829,"is_reserved":false,"is_disabled":false,"rental_uris":{"android":"levelo://app?vid=b780e143-e105-4670-a4df-3ee00547abac","ios":"levelo://app?vid=b780e143-e105-4670-a4df-3ee00547abac"},"vehicle_type_id":"4","last_reported":1723370880,"current_range_meters":22800,"station_id":"ce4bgr92rcd13ifvqc7g","pricing_plan_id":"cebpf4jnsgd1na2vs0mg"},{"bike_id":"115e6613-3fa6-4aca-b1e7-1e6893438d53","system_id":"levelo_inurba_marseille","lat":43.299222,"lon":5.365554,"is_reserved":false,"is_disabled":false,"rental_uris":{"android":"levelo://app?vid=115e6613-3fa6-4aca-b1e7-1e6893438d53","ios":"levelo://app?vid=115e6613-3fa6-4aca-b1e7-1e6893438d53"},"vehicle_type_id":"4","last_reported":1723370880,"current_range_meters":18000,"station_id":"ce4bgm92rcd13ifvqbr0","pricing_plan_id":"cebpf4jnsgd1na2vs0mg"},{"bike_id":"6dd155ab-e76c-4fad-8870-9ed85c1d253f","system_id":"levelo_inurba_marseille","lat":43.30593,"lon":5.38371,"is_reserved":false,"is_disabled":false,"rental_uris":{"android":"levelo://app?vid=6dd155ab-e76c-4fad-8870-9ed85c1d253f","ios":"levelo://app?vid=6dd155ab-e76c-4fad-8870-9ed85c1d253f"},"vehicle_type_id":"4","last_reported":1723370880,"current_range_meters":24000,"station_id":"","pricing_plan_id":"cebpf4jnsgd1na2vs0mg"},{"bike_id":"0a499116-ad80-48f7-8132-a5e32eff9c6b","system_id":"levelo_inurba_marseille","lat":43.2985,"lon":5.36288,"is_reserved":false,"is_disabled":false,"rental_uris":{"android":"levelo://app?vid=0a499116-ad80-48f7-8132-a5e32eff9c6b","ios":"levelo://app?vid=0a499116-ad80-48f7-8132-a5e32eff9c6b"},"vehicle_type_id":"4","last_reported":1723370880,"current_range_meters":20000,"station_id":"ce4bgpp2rcd13ifvqc3g","pricing_plan_id":"cebpf4jnsgd1na2vs0mg"},{"bike_id":"da450512-82e9-4fbd-ad1e-a4f2660ba086","system_id":"levelo_inurba_marseille","lat":43.2985,"lon":5.36287,"is_reserved":false,"is_disabled":false,"rental_uris":{"android":"levelo://app?vid=da450512-82e9-4fbd-ad1e-a4f2660ba086","ios":"levelo://app?vid=da450512-82e9-4fbd-ad1e-a4f2660ba086"},"vehicle_type_id":"4","last_reported":1723370880,"current_range_meters":14000,"station_id":"ce4bgpp2rcd13ifvqc3g","pricing_plan_id":"cebpf4jnsgd1na2vs0mg"},{"bike_id":"013c53e7-7d13-4c32-b99e-631e8f38acbd","system_id":"levelo_inurba_marseille","lat":43.29847,"lon":5.36292,"is_reserved":false,"is_disabled":false,"rental_uris":{"android":"levelo://app?vid=013c53e7-7d13-4c32-b99e-631e8f38acbd","ios":"levelo://app?vid=013c53e7-7d13-4c32-b99e-631e8f38acbd"},"vehicle_type_id":"4","last_reported":1723370880,"current_range_meters":25200,"station_id":"ce4bgpp2rcd13ifvqc3g","pricing_plan_id":"cebpf4jnsgd1na2vs0mg"},{"bike_id":"94d05e9b-582e-4cd1-9c13-09598993dcdf","system_id":"levelo_inurba_marseille","lat":43.298433,"lon":5.362774,"is_reserved":false,"is_disabled":false,"rental_uris":{"android":"levelo://app?vid=94d05e9b-582e-4cd1-9c13-09598993dcdf","ios":"levelo://app?vid=94d05e9b-582e-4cd1-9c13-09598993dcdf"},"vehicle_type_id":"4","last_reported":1723370880,"current_range_meters":28000,"station_id":"ce4bgpp2rcd13ifvqc3g","pricing_plan_id":"cebpf4jnsgd1na2vs0mg"},{"bike_id":"b0cfa68b-9d5f-4c02-976a-a7f57511e567","system_id":"levelo_inurba_marseille","lat":43.298433,"lon":5.362774,"is_reserved":false,"is_disabled":false,"rental_uris":{"android":"levelo://app?vid=b0cfa68b-9d5f-4c02-976a-a7f57511e567","ios":"levelo://app?vid=b0cfa68b-9d5f-4c02-976a-a7f57511e567"},"vehicle_type_id":"4","last_reported":1723370880,"current_range_meters":24400,"station_id":"ce4bgpp2rcd13ifvqc3g","pricing_plan_id":"cebpf4jnsgd1na2vs0mg"},{"bike_id":"b7cc19a5-e3d0-46b6-a3af-fb9c91d14108","system_id":"levelo_inurba_marseille","lat":43.298433,"lon":5.362774,"is_reserved":false,"is_disabled":false,"rental_uris":{"android":"levelo://app?vid=b7cc19a5-e3d0-46b6-a3af-fb9c91d14108","ios":"levelo://app?vid=b7cc19a5-e3d0-46b6-a3af-fb9c91d14108"},"vehicle_type_id":"4","last_reported":1723370880,"current_range_meters":26800,"station_id":"ce4bgpp2rcd13ifvqc3g","pricing_plan_id":"cebpf4jnsgd1na2vs0mg"},{"bike_id":"d0e24aa9-e6a2-4a86-9709-bdaa9941c04d","system_id":"levelo_inurba_marseille","lat":43.298433,"lon":5.362774,"is_reserved":false,"is_disabled":false,"rental_uris":{"android":"levelo://app?vid=d0e24aa9-e6a2-4a86-9709-bdaa9941c04d","ios":"levelo://app?vid=d0e24aa9-e6a2-4a86-9709-bdaa9941c04d"},"vehicle_type_id":"4","last_reported":1723370880,"current_range_meters":12400,"station_id":"ce4bgpp2rcd13ifvqc3g","pricing_plan_id":"cebpf4jnsgd1na2vs0mg"},{"bike_id":"780ea3e5-038b-4b48-9ce8-496088702bff","system_id":"levelo_inurba_marseille","lat":43.298433,"lon":5.362774,"is_reserved":false,"is_disabled":false,"rental_uris":{"android":"levelo://app?vid=780ea3e5-038b-4b48-9ce8-496088702bff","ios":"levelo://app?vid=780ea3e5-038b-4b48-9ce8-496088702bff"},"vehicle_type_id":"4","last_reported":1723370880,"current_range_meters":28400,"station_id":"ce4bgpp2rcd13ifvqc3g","pricing_plan_id":"cebpf4jnsgd1na2vs0mg"},{"bike_id":"3e790d6e-b011-4480-960e-66b7e264e2d2","system_id":"levelo_inurba_marseille","lat":43.298433,"lon":5.362774,"is_reserved":false,"is_disabled":false,"rental_uris":{"android":"levelo://app?vid=3e790d6e-b011-4480-960e-66b7e264e2d2","ios":"levelo://app?vid=3e790d6e-b011-4480-960e-66b7e264e2d2"},"vehicle_type_id":"4","last_reported":1723370880,"current_range_meters":25600,"station_id":"ce4bgpp2rcd13ifvqc3g","pricing_plan_id":"cebpf4jnsgd1na2vs0mg"},{"bike_id":"2969dc86-f8f0-4191-82e0-1f83d84ffb89","system_id":"levelo_inurba_marseille","lat":43.299243,"lon":5.37481,"is_reserved":false,"is_disabled":false,"rental_uris":{"android":"levelo://app?vid=2969dc86-f8f0-4191-82e0-1f83d84ffb89","ios":"levelo://app?vid=2969dc86-f8f0-4191-82e0-1f83d84ffb89"},"vehicle_type_id":"4","last_reported":1723370880,"current_range_meters":23200,"station_id":"ce4bgjh2rcd13ifvqbg0","pricing_plan_id":"cebpf4jnsgd1na2vs0mg"},{"bike_id":"277aa2af-59c5-4bbd-a76c-52712601ae25","system_id":"levelo_inurba_marseille","lat":43.297774,"lon":5.370875,"is_reserved":false,"is_disabled":false,"rental_uris":{"android":"levelo://app?vid=277aa2af-59c5-4bbd-a76c-52712601ae25","ios":"levelo://app?vid=277aa2af-59c5-4bbd-a76c-52712601ae25"},"vehicle_type_id":"4","last_reported":1723370880,"current_range_meters":28800,"station_id":"ce4bgop2rcd13ifvqc1g","pricing_plan_id":"cebpf4jnsgd1na2vs0mg"},{"bike_id":"3fcafe52-95d8-47ac-a135-19eb42d71c41","system_id":"levelo_inurba_marseille","lat":43.322863,"lon":5.382577,"is_reserved":false,"is_disabled":false,"rental_uris":{"android":"levelo://app?vid=3fcafe52-95d8-47ac-a135-19eb42d71c41","ios":"levelo://app?vid=3fcafe52-95d8-47ac-a135-19eb42d71c41"},"vehicle_type_id":"4","last_reported":1723370880,"current_range_meters":22400,"station_id":"ce4bhr12rcd13ifvqhqg","pricing_plan_id":"cebpf4jnsgd1na2vs0mg"},{"bike_id":"3dd1619e-75d7-4fcd-bddc-cee4efa70e43","system_id":"levelo_inurba_marseille","lat":43.297794,"lon":5.370888,"is_reserved":false,"is_disabled":false,"rental_uris":{"android":"levelo://app?vid=3dd1619e-75d7-4fcd-bddc-cee4efa70e43","ios":"levelo://app?vid=3dd1619e-75d7-4fcd-bddc-cee4efa70e43"},"vehicle_type_id":"4","last_reported":1723370880,"current_range_meters":20000,"station_id":"ce4bgop2rcd13ifvqc1g","pricing_plan_id":"cebpf4jnsgd1na2vs0mg"},{"bike_id":"c568f253-f437-40d7-91e0-8a0c20115011","system_id":"levelo_inurba_marseille","lat":43.32085,"lon":5.38615,"is_reserved":false,"is_disabled":false,"rental_uris":{"android":"levelo://app?vid=c568f253-f437-40d7-91e0-8a0c20115011","ios":"levelo://app?vid=c568f253-f437-40d7-91e0-8a0c20115011"},"vehicle_type_id":"4","last_reported":1723370880,"current_range_meters":12800,"station_id":"","pricing_plan_id":"cebpf4jnsgd1na2vs0mg"},{"bike_id":"efe3b1e4-6ca0-46e9-b0ab-9c719f7443fe","system_id":"levelo_inurba_marseille","lat":43.2968,"lon":5.37291,"is_reserved":false,"is_disabled":false,"rental_uris":{"android":"levelo://app?vid=efe3b1e4-6ca0-46e9-b0ab-9c719f7443fe","ios":"levelo://app?vid=efe3b1e4-6ca0-46e9-b0ab-9c719f7443fe"},"vehicle_type_id":"4","last_reported":1723370880,"current_range_meters":11200,"station_id":"ce4bgk12rcd13ifvqbj0","pricing_plan_id":"cebpf4jnsgd1na2vs0mg"},{"bike_id":"09122586-6b7a-44d6-882b-d2feb0364c3f","system_id":"levelo_inurba_marseille","lat":43.299646,"lon":5.380658,"is_reserved":false,"is_disabled":false,"rental_uris":{"android":"levelo://app?vid=09122586-6b7a-44d6-882b-d2feb0364c3f","ios":"levelo://app?vid=09122586-6b7a-44d6-882b-d2feb0364c3f"},"vehicle_type_id":"4","last_reported":1723370880,"current_range_meters":0,"station_id":"","pricing_plan_id":"cebpf4jnsgd1na2vs0mg"},{"bike_id":"906a1073-7b05-4dfa-a7d8-abded222e52e","system_id":"levelo_inurba_marseille","lat":43.2968,"lon":5.37291,"is_reserved":false,"is_disabled":false,"rental_uris":{"android":"levelo://app?vid=906a1073-7b05-4dfa-a7d8-abded222e52e","ios":"levelo://app?vid=906a1073-7b05-4dfa-a7d8-abded222e52e"},"vehicle_type_id":"4","last_reported":1723370880,"current_range_meters":28400,"station_id":"ce4bgk12rcd13ifvqbj0","pricing_plan_id":"cebpf4jnsgd1na2vs0mg"},{"bike_id":"b8f46754-7c35-4d25-a217-6c2a6c4d3bc1","system_id":"levelo_inurba_marseille","lat":43.296921,"lon":5.376579,"is_reserved":false,"is_disabled":false,"rental_uris":{"android":"levelo://app?vid=b8f46754-7c35-4d25-a217-6c2a6c4d3bc1","ios":"levelo://app?vid=b8f46754-7c35-4d25-a217-6c2a6c4d3bc1"},"vehicle_type_id":"4","last_reported":1723370880,"current_range_meters":5600,"station_id":"ce4bgkh2rcd13ifvqbl0","pricing_plan_id":"cebpf4jnsgd1na2vs0mg"},{"bike_id":"a9f256fc-a348-4993-bccf-2b58b151ea7d","system_id":"levelo_inurba_marseille","lat":43.296921,"lon":5.376579,"is_reserved":false,"is_disabled":false,"rental_uris":{"android":"levelo://app?vid=a9f256fc-a348-4993-bccf-2b58b151ea7d","ios":"levelo://app?vid=a9f256fc-a348-4993-bccf-2b58b151ea7d"},"vehicle_type_id":"4","last_reported":1723370880,"current_range_meters":15200,"station_id":"ce4bgkh2rcd13ifvqbl0","pricing_plan_id":"cebpf4jnsgd1na2vs0mg"},{"bike_id":"f5496518-e4b9-4fa1-83dd-ef96e2caad1f","system_id":"levelo_inurba_marseille","lat":43.31742,"lon":5.38978,"is_reserved":false,"is_disabled":false,"rental_uris":{"android":"levelo://app?vid=f5496518-e4b9-4fa1-83dd-ef96e2caad1f","ios":"levelo://app?vid=f5496518-e4b9-4fa1-83dd-ef96e2caad1f"},"vehicle_type_id":"4","last_reported":1723370880,"current_range_meters":9600,"station_id":"","pricing_plan_id":"cebpf4jnsgd1na2vs0mg"},{"bike_id":"415fcd08-a29c-4261-9393-0cc25ea41d00","system_id":"levelo_inurba_marseille","lat":43.309589,"lon":5.390258,"is_reserved":false,"is_disabled":false,"rental_uris":{"android":"levelo://app?vid=415fcd08-a29c-4261-9393-0cc25ea41d00","ios":"levelo://app?vid=415fcd08-a29c-4261-9393-0cc25ea41d00"},"vehicle_type_id":"4","last_reported":1723370880,"current_range_meters":4000,"station_id":"ce4bgup2rcd13ifvqco0","pricing_plan_id":"cebpf4jnsgd1na2vs0mg"},{"bike_id":"057a013e-894a-41c5-889b-76d52f604ac5","system_id":"levelo_inurba_marseille","lat":43.299028,"lon":5.381509,"is_reserved":false,"is_disabled":false,"rental_uris":{"android":"levelo://app?vid=057a013e-894a-41c5-889b-76d52f604ac5","ios":"levelo://app?vid=057a013e-894a-41c5-889b-76d52f604ac5"},"vehicle_type_id":"4","last_reported":1723370880,"current_range_meters":0,"station_id":"ce4bgj12rcd13ifvqbc0","pricing_plan_id":"cebpf4jnsgd1na2vs0mg"},{"bike_id":"a7e07e89-9bcb-4dbe-9308-a447d3529128","system_id":"levelo_inurba_marseille","lat":43.3175,"lon":5.39019,"is_reserved":false,"is_disabled":false,"rental_uris":{"android":"levelo://app?vid=a7e07e89-9bcb-4dbe-9308-a447d3529128","ios":"levelo://app?vid=a7e07e89-9bcb-4dbe-9308-a447d3529128"},"vehicle_type_id":"4","last_reported":1723370880,"current_range_meters":400,"station_id":"ce4bhqp2rcd13ifvqhng","pricing_plan_id":"cebpf4jnsgd1na2vs0mg"},{"bike_id":"80f9f110-4ffc-4297-bf57-2bf2a710da39","system_id":"levelo_inurba_marseille","lat":43.32146,"lon":5.38819,"is_reserved":false,"is_disabled":false,"rental_uris":{"android":"levelo://app?vid=80f9f110-4ffc-4297-bf57-2bf2a710da39","ios":"levelo://app?vid=80f9f110-4ffc-4297-bf57-2bf2a710da39"},"vehicle_type_id":"4","last_reported":1723370880,"current_range_meters":13600,"station_id":"","pricing_plan_id":"cebpf4jnsgd1na2vs0mg"},{"bike_id":"b657d99e-2ba7-4b14-a9a5-d83fd5e0d4e0","system_id":"levelo_inurba_marseille","lat":43.298037,"lon":5.381066,"is_reserved":false,"is_disabled":false,"rental_uris":{"android":"levelo://app?vid=b657d99e-2ba7-4b14-a9a5-d83fd5e0d4e0","ios":"levelo://app?vid=b657d99e-2ba7-4b14-a9a5-d83fd5e0d4e0"},"vehicle_type_id":"4","last_reported":1723370880,"current_range_meters":12400,"station_id":"ce4bgip2rcd13ifvqbb0","pricing_plan_id":"cebpf4jnsgd1na2vs0mg"},{"bike_id":"a783aeed-72c4-42d9-b85c-4e1e5a1382a0","system_id":"levelo_inurba_marseille","lat":43.298037,"lon":5.381066,"is_reserved":false,"is_disabled":false,"rental_uris":{"android":"levelo://app?vid=a783aeed-72c4-42d9-b85c-4e1e5a1382a0","ios":"levelo://app?vid=a783aeed-72c4-42d9-b85c-4e1e5a1382a0"},"vehicle_type_id":"4","last_reported":1723370880,"current_range_meters":7200,"station_id":"ce4bgip2rcd13ifvqbb0","pricing_plan_id":"cebpf4jnsgd1na2vs0mg"},{"bike_id":"fa6d971a-a1d1-4d37-861d-8e6b1a853207","system_id":"levelo_inurba_marseille","lat":43.298037,"lon":5.381066,"is_reserved":false,"is_disabled":false,"rental_uris":{"android":"levelo://app?vid=fa6d971a-a1d1-4d37-861d-8e6b1a853207","ios":"levelo://app?vid=fa6d971a-a1d1-4d37-861d-8e6b1a853207"},"vehicle_type_id":"4","last_reported":1723370880,"current_range_meters":400,"station_id":"ce4bgip2rcd13ifvqbb0","pricing_plan_id":"cebpf4jnsgd1na2vs0mg"},{"bike_id":"f95c905e-bc95-4ee5-bf91-0f2c2237a73a","system_id":"levelo_inurba_marseille","lat":43.29577,"lon":5.37516,"is_reserved":false,"is_disabled":false,"rental_uris":{"android":"levelo://app?vid=f95c905e-bc95-4ee5-bf91-0f2c2237a73a","ios":"levelo://app?vid=f95c905e-bc95-4ee5-bf91-0f2c2237a73a"},"vehicle_type_id":"4","last_reported":1723370880,"current_range_meters":800,"station_id":"ce4bgh92rcd13ifvqb50","pricing_plan_id":"cebpf4jnsgd1na2vs0mg"},{"bike_id":"4886aaa9-c8d6-4e49-818c-36c35796a907","system_id":"levelo_inurba_marseille","lat":43.304278,"lon":5.388868,"is_reserved":false,"is_disabled":false,"rental_uris":{"android":"levelo://app?vid=4886aaa9-c8d6-4e49-818c-36c35796a907","ios":"levelo://app?vid=4886aaa9-c8d6-4e49-818c-36c35796a907"},"vehicle_type_id":"4","last_reported":1723370880,"current_range_meters":24000,"station_id":"ce4bgk12rcd13ifvqbi0","pricing_plan_id":"cebpf4jnsgd1na2vs0mg"},{"bike_id":"4f889ad0-dbfd-4585-a7fb-e578fd643366","system_id":"levelo_inurba_marseille","lat":43.296277,"lon":5.377108,"is_reserved":false,"is_disabled":false,"rental_uris":{"android":"levelo://app?vid=4f889ad0-dbfd-4585-a7fb-e578fd643366","ios":"levelo://app?vid=4f889ad0-dbfd-4585-a7fb-e578fd643366"},"vehicle_type_id":"4","last_reported":1723370880,"current_range_meters":21200,"station_id":"ce4bgi92rcd13ifvqb90","pricing_plan_id":"cebpf4jnsgd1na2vs0mg"},{"bike_id":"ae291070-5c13-4729-a870-5a0d015ad361","system_id":"levelo_inurba_marseille","lat":43.298037,"lon":5.381066,"is_reserved":false,"is_disabled":false,"rental_uris":{"android":"levelo://app?vid=ae291070-5c13-4729-a870-5a0d015ad361","ios":"levelo://app?vid=ae291070-5c13-4729-a870-5a0d015ad361"},"vehicle_type_id":"4","last_reported":1723370880,"current_range_meters":16800,"station_id":"ce4bgip2rcd13ifvqbb0","pricing_plan_id":"cebpf4jnsgd1na2vs0mg"},{"bike_id":"4d6ffb2d-b338-45d4-99fd-36425f66ac1a","system_id":"levelo_inurba_marseille","lat":43.298037,"lon":5.381066,"is_reserved":false,"is_disabled":false,"rental_uris":{"android":"levelo://app?vid=4d6ffb2d-b338-45d4-99fd-36425f66ac1a","ios":"levelo://app?vid=4d6ffb2d-b338-45d4-99fd-36425f66ac1a"},"vehicle_type_id":"4","last_reported":1723370880,"current_range_meters":25200,"station_id":"ce4bgip2rcd13ifvqbb0","pricing_plan_id":"cebpf4jnsgd1na2vs0mg"},{"bike_id":"6c4eb974-8001-43e6-8ee1-72af44116801","system_id":"levelo_inurba_marseille","lat":43.296277,"lon":5.377108,"is_reserved":false,"is_disabled":false,"rental_uris":{"android":"levelo://app?vid=6c4eb974-8001-43e6-8ee1-72af44116801","ios":"levelo://app?vid=6c4eb974-8001-43e6-8ee1-72af44116801"},"vehicle_type_id":"4","last_reported":1723370880,"current_range_meters":28000,"station_id":"ce4bgi92rcd13ifvqb90","pricing_plan_id":"cebpf4jnsgd1na2vs0mg"},{"bike_id":"06311b9d-2ce5-4ec9-b172-86c374b406aa","system_id":"levelo_inurba_marseille","lat":43.296277,"lon":5.377108,"is_reserved":false,"is_disabled":false,"rental_uris":{"android":"levelo://app?vid=06311b9d-2ce5-4ec9-b172-86c374b406aa","ios":"levelo://app?vid=06311b9d-2ce5-4ec9-b172-86c374b406aa"},"vehicle_type_id":"4","last_reported":1723370880,"current_range_meters":21600,"station_id":"ce4bgi92rcd13ifvqb90","pricing_plan_id":"cebpf4jnsgd1na2vs0mg"},{"bike_id":"6d52cee6-c2a7-48c7-80bb-0e3202a6dafd","system_id":"levelo_inurba_marseille","lat":43.296277,"lon":5.377108,"is_reserved":false,"is_disabled":false,"rental_uris":{"android":"levelo://app?vid=6d52cee6-c2a7-48c7-80bb-0e3202a6dafd","ios":"levelo://app?vid=6d52cee6-c2a7-48c7-80bb-0e3202a6dafd"},"vehicle_type_id":"4","last_reported":1723370880,"current_range_meters":4800,"station_id":"ce4bgi92rcd13ifvqb90","pricing_plan_id":"cebpf4jnsgd1na2vs0mg"},{"bike_id":"760f36a7-f2dc-4794-bb30-0e5b352e4534","system_id":"levelo_inurba_marseille","lat":43.296277,"lon":5.377108,"is_reserved":false,"is_disabled":false,"rental_uris":{"android":"levelo://app?vid=760f36a7-f2dc-4794-bb30-0e5b352e4534","ios":"levelo://app?vid=760f36a7-f2dc-4794-bb30-0e5b352e4534"},"vehicle_type_id":"4","last_reported":1723370880,"current_range_meters":10800,"station_id":"ce4bgi92rcd13ifvqb90","pricing_plan_id":"cebpf4jnsgd1na2vs0mg"},{"bike_id":"7c808d5b-f92d-4a90-ae75-6b39f90f672b","system_id":"levelo_inurba_marseille","lat":43.296277,"lon":5.377108,"is_reserved":false,"is_disabled":false,"rental_uris":{"android":"levelo://app?vid=7c808d5b-f92d-4a90-ae75-6b39f90f672b","ios":"levelo://app?vid=7c808d5b-f92d-4a90-ae75-6b39f90f672b"},"vehicle_type_id":"4","last_reported":1723370880,"current_range_meters":8000,"station_id":"ce4bgi92rcd13ifvqb90","pricing_plan_id":"cebpf4jnsgd1na2vs0mg"},{"bike_id":"421ffaa8-d3c5-4d89-b5f6-0a94ced56985","system_id":"levelo_inurba_marseille","lat":43.295279,"lon":5.375048,"is_reserved":false,"is_disabled":false,"rental_uris":{"android":"levelo://app?vid=421ffaa8-d3c5-4d89-b5f6-0a94ced56985","ios":"levelo://app?vid=421ffaa8-d3c5-4d89-b5f6-0a94ced56985"},"vehicle_type_id":"4","last_reported":1723370880,"current_range_meters":0,"station_id":"ce4bgkp2rcd13ifvqbmg","pricing_plan_id":"cebpf4jnsgd1na2vs0mg"},{"bike_id":"77192461-172c-4d40-8ca2-f5aa19dcb034","system_id":"levelo_inurba_marseille","lat":43.33042,"lon":5.3589,"is_reserved":false,"is_disabled":false,"rental_uris":{"android":"levelo://app?vid=77192461-172c-4d40-8ca2-f5aa19dcb034","ios":"levelo://app?vid=77192461-172c-4d40-8ca2-f5aa19dcb034"},"vehicle_type_id":"4","last_reported":1723370880,"current_range_meters":12000,"station_id":"","pricing_plan_id":"cebpf4jnsgd1na2vs0mg"},{"bike_id":"18c052d9-d353-405b-9183-57427b58d278","system_id":"levelo_inurba_marseille","lat":43.301396,"lon":5.387812,"is_reserved":false,"is_disabled":false,"rental_uris":{"android":"levelo://app?vid=18c052d9-d353-405b-9183-57427b58d278","ios":"levelo://app?vid=18c052d9-d353-405b-9183-57427b58d278"},"vehicle_type_id":"4","last_reported":1723370880,"current_range_meters":26400,"station_id":"ce4bghh2rcd13ifvqb60","pricing_plan_id":"cebpf4jnsgd1na2vs0mg"},{"bike_id":"e4fbb306-8e6a-4919-ae66-9ca4489eaa61","system_id":"levelo_inurba_marseille","lat":43.305706,"lon":5.365654,"is_reserved":false,"is_disabled":false,"rental_uris":{"android":"levelo://app?vid=e4fbb306-8e6a-4919-ae66-9ca4489eaa61","ios":"levelo://app?vid=e4fbb306-8e6a-4919-ae66-9ca4489eaa61"},"vehicle_type_id":"4","last_reported":1723370880,"current_range_meters":18000,"station_id":"ce4bgs12rcd13ifvqcag","pricing_plan_id":"cebpf4jnsgd1na2vs0mg"},{"bike_id":"f57dac92-b2b9-49e0-bd0a-e7f405720d9d","system_id":"levelo_inurba_marseille","lat":43.32363,"lon":5.38881,"is_reserved":false,"is_disabled":false,"rental_uris":{"android":"levelo://app?vid=f57dac92-b2b9-49e0-bd0a-e7f405720d9d","ios":"levelo://app?vid=f57dac92-b2b9-49e0-bd0a-e7f405720d9d"},"vehicle_type_id":"4","last_reported":1723370880,"current_range_meters":24000,"station_id":"ce4bhqp2rcd13ifvqhog","pricing_plan_id":"cebpf4jnsgd1na2vs0mg"},{"bike_id":"acd1e697-2e22-4335-a1b9-15bdc96fc0f0","system_id":"levelo_inurba_marseille","lat":43.32367,"lon":5.388836,"is_reserved":false,"is_disabled":false,"rental_uris":{"android":"levelo://app?vid=acd1e697-2e22-4335-a1b9-15bdc96fc0f0","ios":"levelo://app?vid=acd1e697-2e22-4335-a1b9-15bdc96fc0f0"},"vehicle_type_id":"4","last_reported":1723370880,"current_range_meters":4400,"station_id":"ce4bhqp2rcd13ifvqhog","pricing_plan_id":"cebpf4jnsgd1na2vs0mg"},{"bike_id":"459ff395-454c-4066-ba5f-b80b315562c2","system_id":"levelo_inurba_marseille","lat":43.32367,"lon":5.388836,"is_reserved":false,"is_disabled":false,"rental_uris":{"android":"levelo://app?vid=459ff395-454c-4066-ba5f-b80b315562c2","ios":"levelo://app?vid=459ff395-454c-4066-ba5f-b80b315562c2"},"vehicle_type_id":"4","last_reported":1723370880,"current_range_meters":30000,"station_id":"ce4bhqp2rcd13ifvqhog","pricing_plan_id":"cebpf4jnsgd1na2vs0mg"},{"bike_id":"6d5b013e-574f-404e-904b-0057aac8b72c","system_id":"levelo_inurba_marseille","lat":43.29299,"lon":5.3718,"is_reserved":false,"is_disabled":false,"rental_uris":{"android":"levelo://app?vid=6d5b013e-574f-404e-904b-0057aac8b72c","ios":"levelo://app?vid=6d5b013e-574f-404e-904b-0057aac8b72c"},"vehicle_type_id":"4","last_reported":1723370880,"current_range_meters":0,"station_id":"ce4bgh92rcd13ifvqb40","pricing_plan_id":"cebpf4jnsgd1na2vs0mg"},{"bike_id":"17c08955-d1e6-425d-95ab-25aef4ce8cac","system_id":"levelo_inurba_marseille","lat":43.300397,"lon":5.389283,"is_reserved":false,"is_disabled":false,"rental_uris":{"android":"levelo://app?vid=17c08955-d1e6-425d-95ab-25aef4ce8cac","ios":"levelo://app?vid=17c08955-d1e6-425d-95ab-25aef4ce8cac"},"vehicle_type_id":"4","last_reported":1723370880,"current_range_meters":15200,"station_id":"","pricing_plan_id":"cebpf4jnsgd1na2vs0mg"},{"bike_id":"c4641531-9d67-4baa-98da-f21b34972e39","system_id":"levelo_inurba_marseille","lat":43.293009,"lon":5.374584,"is_reserved":false,"is_disabled":false,"rental_uris":{"android":"levelo://app?vid=c4641531-9d67-4baa-98da-f21b34972e39","ios":"levelo://app?vid=c4641531-9d67-4baa-98da-f21b34972e39"},"vehicle_type_id":"4","last_reported":1723370880,"current_range_meters":17200,"station_id":"ce4bgi12rcd13ifvqb70","pricing_plan_id":"cebpf4jnsgd1na2vs0mg"},{"bike_id":"2879b1c2-9f25-4afc-90fb-b497e73a97de","system_id":"levelo_inurba_marseille","lat":43.293009,"lon":5.374584,"is_reserved":false,"is_disabled":false,"rental_uris":{"android":"levelo://app?vid=2879b1c2-9f25-4afc-90fb-b497e73a97de","ios":"levelo://app?vid=2879b1c2-9f25-4afc-90fb-b497e73a97de"},"vehicle_type_id":"4","last_reported":1723370880,"current_range_meters":28400,"station_id":"ce4bgi12rcd13ifvqb70","pricing_plan_id":"cebpf4jnsgd1na2vs0mg"},{"bike_id":"8d37495d-9961-45f8-ba67-ee81725ae3ae","system_id":"levelo_inurba_marseille","lat":43.29228,"lon":5.36363,"is_reserved":false,"is_disabled":false,"rental_uris":{"android":"levelo://app?vid=8d37495d-9961-45f8-ba67-ee81725ae3ae","ios":"levelo://app?vid=8d37495d-9961-45f8-ba67-ee81725ae3ae"},"vehicle_type_id":"4","last_reported":1723370880,"current_range_meters":5600,"station_id":"","pricing_plan_id":"cebpf4jnsgd1na2vs0mg"},{"bike_id":"1d3eacef-91ee-4933-a80e-6a0538d0bc07","system_id":"levelo_inurba_marseille","lat":43.303002,"lon":5.392142,"is_reserved":false,"is_disabled":false,"rental_uris":{"android":"levelo://app?vid=1d3eacef-91ee-4933-a80e-6a0538d0bc07","ios":"levelo://app?vid=1d3eacef-91ee-4933-a80e-6a0538d0bc07"},"vehicle_type_id":"4","last_reported":1723370880,"current_range_meters":13200,"station_id":"ce4bgkh2rcd13ifvqbk0","pricing_plan_id":"cebpf4jnsgd1na2vs0mg"},{"bike_id":"1005c8f3-b9cb-46e7-b778-f0f9d9105137","system_id":"levelo_inurba_marseille","lat":43.303002,"lon":5.392142,"is_reserved":false,"is_disabled":false,"rental_uris":{"android":"levelo://app?vid=1005c8f3-b9cb-46e7-b778-f0f9d9105137","ios":"levelo://app?vid=1005c8f3-b9cb-46e7-b778-f0f9d9105137"},"vehicle_type_id":"4","last_reported":1723370880,"current_range_meters":20800,"station_id":"ce4bgkh2rcd13ifvqbk0","pricing_plan_id":"cebpf4jnsgd1na2vs0mg"},{"bike_id":"7fcd8c4b-e28b-4a1e-aa5b-a11643e6bf96","system_id":"levelo_inurba_marseille","lat":43.29225,"lon":5.36075,"is_reserved":false,"is_disabled":false,"rental_uris":{"android":"levelo://app?vid=7fcd8c4b-e28b-4a1e-aa5b-a11643e6bf96","ios":"levelo://app?vid=7fcd8c4b-e28b-4a1e-aa5b-a11643e6bf96"},"vehicle_type_id":"4","last_reported":1723370880,"current_range_meters":28000,"station_id":"ce4bhbh2rcd13ifvqeqg","pricing_plan_id":"cebpf4jnsgd1na2vs0mg"},{"bike_id":"4ef731af-5144-4b18-aed7-a97e55756973","system_id":"levelo_inurba_marseille","lat":43.292311,"lon":5.360731,"is_reserved":false,"is_disabled":false,"rental_uris":{"android":"levelo://app?vid=4ef731af-5144-4b18-aed7-a97e55756973","ios":"levelo://app?vid=4ef731af-5144-4b18-aed7-a97e55756973"},"vehicle_type_id":"4","last_reported":1723370880,"current_range_meters":26400,"station_id":"ce4bhbh2rcd13ifvqeqg","pricing_plan_id":"cebpf4jnsgd1na2vs0mg"},{"bike_id":"c272379a-0499-44d8-a039-146de135e38a","system_id":"levelo_inurba_marseille","lat":43.292225,"lon":5.360653,"is_reserved":false,"is_disabled":false,"rental_uris":{"android":"levelo://app?vid=c272379a-0499-44d8-a039-146de135e38a","ios":"levelo://app?vid=c272379a-0499-44d8-a039-146de135e38a"},"vehicle_type_id":"4","last_reported":1723370880,"current_range_meters":28800,"station_id":"ce4bhbh2rcd13ifvqeqg","pricing_plan_id":"cebpf4jnsgd1na2vs0mg"},{"bike_id":"c63bb770-a533-4751-9d0c-88f4fb20ee74","system_id":"levelo_inurba_marseille","lat":43.30085,"lon":5.390856,"is_reserved":false,"is_disabled":false,"rental_uris":{"android":"levelo://app?vid=c63bb770-a533-4751-9d0c-88f4fb20ee74","ios":"levelo://app?vid=c63bb770-a533-4751-9d0c-88f4fb20ee74"},"vehicle_type_id":"4","last_reported":1723370880,"current_range_meters":5200,"station_id":"ce4bh192rcd13ifvqdb0","pricing_plan_id":"cebpf4jnsgd1na2vs0mg"},{"bike_id":"7544f9e5-6e95-4b4c-b869-fa676e64bf79","system_id":"levelo_inurba_marseille","lat":43.30085,"lon":5.390856,"is_reserved":false,"is_disabled":false,"rental_uris":{"android":"levelo://app?vid=7544f9e5-6e95-4b4c-b869-fa676e64bf79","ios":"levelo://app?vid=7544f9e5-6e95-4b4c-b869-fa676e64bf79"},"vehicle_type_id":"4","last_reported":1723370880,"current_range_meters":0,"station_id":"ce4bh192rcd13ifvqdb0","pricing_plan_id":"cebpf4jnsgd1na2vs0mg"},{"bike_id":"8669c215-f64f-4991-918a-38e605b47e3d","system_id":"levelo_inurba_marseille","lat":43.292847,"lon":5.355585,"is_reserved":false,"is_disabled":false,"rental_uris":{"android":"levelo://app?vid=8669c215-f64f-4991-918a-38e605b47e3d","ios":"levelo://app?vid=8669c215-f64f-4991-918a-38e605b47e3d"},"vehicle_type_id":"4","last_reported":1723370880,"current_range_meters":3600,"station_id":"","pricing_plan_id":"cebpf4jnsgd1na2vs0mg"},{"bike_id":"5492a69c-e456-40ef-b30c-6d8cfc4b6f68","system_id":"levelo_inurba_marseille","lat":43.309038,"lon":5.396546,"is_reserved":false,"is_disabled":false,"rental_uris":{"android":"levelo://app?vid=5492a69c-e456-40ef-b30c-6d8cfc4b6f68","ios":"levelo://app?vid=5492a69c-e456-40ef-b30c-6d8cfc4b6f68"},"vehicle_type_id":"4","last_reported":1723370880,"current_range_meters":20000,"station_id":"ce4bh012rcd13ifvqcv0","pricing_plan_id":"cebpf4jnsgd1na2vs0mg"},{"bike_id":"51ac89ce-e4a1-452e-9a8d-a323aa5ae6f2","system_id":"levelo_inurba_marseille","lat":43.313291,"lon":5.396838,"is_reserved":false,"is_disabled":false,"rental_uris":{"android":"levelo://app?vid=51ac89ce-e4a1-452e-9a8d-a323aa5ae6f2","ios":"levelo://app?vid=51ac89ce-e4a1-452e-9a8d-a323aa5ae6f2"},"vehicle_type_id":"4","last_reported":1723370880,"current_range_meters":21200,"station_id":"ce4bgvp2rcd13ifvqcu0","pricing_plan_id":"cebpf4jnsgd1na2vs0mg"},{"bike_id":"9d4b68a5-c93f-4844-a235-5ff4a055b660","system_id":"levelo_inurba_marseille","lat":43.292385,"lon":5.37767,"is_reserved":false,"is_disabled":false,"rental_uris":{"android":"levelo://app?vid=9d4b68a5-c93f-4844-a235-5ff4a055b660","ios":"levelo://app?vid=9d4b68a5-c93f-4844-a235-5ff4a055b660"},"vehicle_type_id":"4","last_reported":1723370880,"current_range_meters":8400,"station_id":"","pricing_plan_id":"cebpf4jnsgd1na2vs0mg"},{"bike_id":"cd6db9bf-1220-4fda-8c4b-133688a4e67e","system_id":"levelo_inurba_marseille","lat":43.29191,"lon":5.35795,"is_reserved":false,"is_disabled":false,"rental_uris":{"android":"levelo://app?vid=cd6db9bf-1220-4fda-8c4b-133688a4e67e","ios":"levelo://app?vid=cd6db9bf-1220-4fda-8c4b-133688a4e67e"},"vehicle_type_id":"4","last_reported":1723370880,"current_range_meters":5200,"station_id":"ce4bhb12rcd13ifvqel0","pricing_plan_id":"cebpf4jnsgd1na2vs0mg"},{"bike_id":"de29d767-c050-4cdb-aac2-89188d1688a9","system_id":"levelo_inurba_marseille","lat":43.313291,"lon":5.396838,"is_reserved":false,"is_disabled":false,"rental_uris":{"android":"levelo://app?vid=de29d767-c050-4cdb-aac2-89188d1688a9","ios":"levelo://app?vid=de29d767-c050-4cdb-aac2-89188d1688a9"},"vehicle_type_id":"4","last_reported":1723370880,"current_range_meters":19600,"station_id":"ce4bgvp2rcd13ifvqcu0","pricing_plan_id":"cebpf4jnsgd1na2vs0mg"},{"bike_id":"8b6c0672-ada3-4507-a0ec-fd601dc4fbf9","system_id":"levelo_inurba_marseille","lat":43.313291,"lon":5.396838,"is_reserved":false,"is_disabled":false,"rental_uris":{"android":"levelo://app?vid=8b6c0672-ada3-4507-a0ec-fd601dc4fbf9","ios":"levelo://app?vid=8b6c0672-ada3-4507-a0ec-fd601dc4fbf9"},"vehicle_type_id":"4","last_reported":1723370880,"current_range_meters":31600,"station_id":"ce4bgvp2rcd13ifvqcu0","pricing_plan_id":"cebpf4jnsgd1na2vs0mg"},{"bike_id":"14eafae1-14cd-46e0-9cee-2e6bf66cbb7c","system_id":"levelo_inurba_marseille","lat":43.309047,"lon":5.396551,"is_reserved":false,"is_disabled":false,"rental_uris":{"android":"levelo://app?vid=14eafae1-14cd-46e0-9cee-2e6bf66cbb7c","ios":"levelo://app?vid=14eafae1-14cd-46e0-9cee-2e6bf66cbb7c"},"vehicle_type_id":"4","last_reported":1723370880,"current_range_meters":19200,"station_id":"ce4bh012rcd13ifvqcv0","pricing_plan_id":"cebpf4jnsgd1na2vs0mg"},{"bike_id":"f5e7466d-3f61-419c-b9dd-545e025d7a10","system_id":"levelo_inurba_marseille","lat":43.29533,"lon":5.3854,"is_reserved":false,"is_disabled":false,"rental_uris":{"android":"levelo://app?vid=f5e7466d-3f61-419c-b9dd-545e025d7a10","ios":"levelo://app?vid=f5e7466d-3f61-419c-b9dd-545e025d7a10"},"vehicle_type_id":"4","last_reported":1723370880,"current_range_meters":0,"station_id":"ce4bgih2rcd13ifvqba0","pricing_plan_id":"cebpf4jnsgd1na2vs0mg"},{"bike_id":"e0dc01d0-3a15-4f53-b8c7-8a8e05a579d6","system_id":"levelo_inurba_marseille","lat":43.309455,"lon":5.39772,"is_reserved":false,"is_disabled":false,"rental_uris":{"android":"levelo://app?vid=e0dc01d0-3a15-4f53-b8c7-8a8e05a579d6","ios":"levelo://app?vid=e0dc01d0-3a15-4f53-b8c7-8a8e05a579d6"},"vehicle_type_id":"4","last_reported":1723370880,"current_range_meters":6000,"station_id":"","pricing_plan_id":"cebpf4jnsgd1na2vs0mg"},{"bike_id":"f487b378-cf2d-4387-b118-1081f1938911","system_id":"levelo_inurba_marseille","lat":43.29286,"lon":5.38245,"is_reserved":false,"is_disabled":false,"rental_uris":{"android":"levelo://app?vid=f487b378-cf2d-4387-b118-1081f1938911","ios":"levelo://app?vid=f487b378-cf2d-4387-b118-1081f1938911"},"vehicle_type_id":"4","last_reported":1723370880,"current_range_meters":1200,"station_id":"","pricing_plan_id":"cebpf4jnsgd1na2vs0mg"},{"bike_id":"dbc3d462-2f6b-4476-a70e-2c6ea737d89a","system_id":"levelo_inurba_marseille","lat":43.294153,"lon":5.386305,"is_reserved":false,"is_disabled":false,"rental_uris":{"android":"levelo://app?vid=dbc3d462-2f6b-4476-a70e-2c6ea737d89a","ios":"levelo://app?vid=dbc3d462-2f6b-4476-a70e-2c6ea737d89a"},"vehicle_type_id":"4","last_reported":1723370880,"current_range_meters":15600,"station_id":"ce4bh2h2rcd13ifvqdh0","pricing_plan_id":"cebpf4jnsgd1na2vs0mg"},{"bike_id":"2efa21d7-7d70-4a30-b80a-4a883f680c4b","system_id":"levelo_inurba_marseille","lat":43.290327,"lon":5.375711,"is_reserved":false,"is_disabled":false,"rental_uris":{"android":"levelo://app?vid=2efa21d7-7d70-4a30-b80a-4a883f680c4b","ios":"levelo://app?vid=2efa21d7-7d70-4a30-b80a-4a883f680c4b"},"vehicle_type_id":"4","last_reported":1723370880,"current_range_meters":31600,"station_id":"ce4bh692rcd13ifvqe90","pricing_plan_id":"cebpf4jnsgd1na2vs0mg"},{"bike_id":"b2238b98-216c-4ea8-b9a1-61a1da81f52c","system_id":"levelo_inurba_marseille","lat":43.2903,"lon":5.3755,"is_reserved":false,"is_disabled":false,"rental_uris":{"android":"levelo://app?vid=b2238b98-216c-4ea8-b9a1-61a1da81f52c","ios":"levelo://app?vid=b2238b98-216c-4ea8-b9a1-61a1da81f52c"},"vehicle_type_id":"4","last_reported":1723370880,"current_range_meters":31600,"station_id":"ce4bh692rcd13ifvqe90","pricing_plan_id":"cebpf4jnsgd1na2vs0mg"},{"bike_id":"a2e3e621-b31b-4a0d-8e7c-77475c7d0000","system_id":"levelo_inurba_marseille","lat":43.290327,"lon":5.375711,"is_reserved":false,"is_disabled":false,"rental_uris":{"android":"levelo://app?vid=a2e3e621-b31b-4a0d-8e7c-77475c7d0000","ios":"levelo://app?vid=a2e3e621-b31b-4a0d-8e7c-77475c7d0000"},"vehicle_type_id":"4","last_reported":1723370880,"current_range_meters":31600,"station_id":"ce4bh692rcd13ifvqe90","pricing_plan_id":"cebpf4jnsgd1na2vs0mg"},{"bike_id":"528e73b5-7e78-4dc9-8345-912de57dae32","system_id":"levelo_inurba_marseille","lat":43.28936,"lon":5.36635,"is_reserved":false,"is_disabled":false,"rental_uris":{"android":"levelo://app?vid=528e73b5-7e78-4dc9-8345-912de57dae32","ios":"levelo://app?vid=528e73b5-7e78-4dc9-8345-912de57dae32"},"vehicle_type_id":"4","last_reported":1723370880,"current_range_meters":28800,"station_id":"ce4bhap2rcd13ifvqek0","pricing_plan_id":"cebpf4jnsgd1na2vs0mg"},{"bike_id":"553112ec-4e9b-4b12-b1a5-ed20920a3340","system_id":"levelo_inurba_marseille","lat":43.289184,"lon":5.366408,"is_reserved":false,"is_disabled":false,"rental_uris":{"android":"levelo://app?vid=553112ec-4e9b-4b12-b1a5-ed20920a3340","ios":"levelo://app?vid=553112ec-4e9b-4b12-b1a5-ed20920a3340"},"vehicle_type_id":"4","last_reported":1723370880,"current_range_meters":29600,"station_id":"ce4bhap2rcd13ifvqek0","pricing_plan_id":"cebpf4jnsgd1na2vs0mg"},{"bike_id":"6a322b18-71eb-4d93-99c3-b92955def0e9","system_id":"levelo_inurba_marseille","lat":43.28933,"lon":5.36634,"is_reserved":false,"is_disabled":false,"rental_uris":{"android":"levelo://app?vid=6a322b18-71eb-4d93-99c3-b92955def0e9","ios":"levelo://app?vid=6a322b18-71eb-4d93-99c3-b92955def0e9"},"vehicle_type_id":"4","last_reported":1723370880,"current_range_meters":0,"station_id":"ce4bhap2rcd13ifvqek0","pricing_plan_id":"cebpf4jnsgd1na2vs0mg"},{"bike_id":"1ddcdbf5-0a62-4fea-9d53-64a7c7797bed","system_id":"levelo_inurba_marseille","lat":43.28931,"lon":5.36636,"is_reserved":false,"is_disabled":false,"rental_uris":{"android":"levelo://app?vid=1ddcdbf5-0a62-4fea-9d53-64a7c7797bed","ios":"levelo://app?vid=1ddcdbf5-0a62-4fea-9d53-64a7c7797bed"},"vehicle_type_id":"4","last_reported":1723370880,"current_range_meters":9600,"station_id":"ce4bhap2rcd13ifvqek0","pricing_plan_id":"cebpf4jnsgd1na2vs0mg"},{"bike_id":"1b70a36f-873b-43c4-a8e1-b0368aa0f3ec","system_id":"levelo_inurba_marseille","lat":43.292644,"lon":5.384257,"is_reserved":false,"is_disabled":false,"rental_uris":{"android":"levelo://app?vid=1b70a36f-873b-43c4-a8e1-b0368aa0f3ec","ios":"levelo://app?vid=1b70a36f-873b-43c4-a8e1-b0368aa0f3ec"},"vehicle_type_id":"4","last_reported":1723370880,"current_range_meters":28400,"station_id":"ce4bh692rcd13ifvqea0","pricing_plan_id":"cebpf4jnsgd1na2vs0mg"},{"bike_id":"912431c9-ebb3-4efb-844d-4254cf8d9599","system_id":"levelo_inurba_marseille","lat":43.292509,"lon":5.384208,"is_reserved":false,"is_disabled":false,"rental_uris":{"android":"levelo://app?vid=912431c9-ebb3-4efb-844d-4254cf8d9599","ios":"levelo://app?vid=912431c9-ebb3-4efb-844d-4254cf8d9599"},"vehicle_type_id":"4","last_reported":1723370880,"current_range_meters":21200,"station_id":"","pricing_plan_id":"cebpf4jnsgd1na2vs0mg"},{"bike_id":"f65076f4-f348-46ca-b2d2-b1132fcf8ed3","system_id":"levelo_inurba_marseille","lat":43.290995,"lon":5.381361,"is_reserved":false,"is_disabled":false,"rental_uris":{"android":"levelo://app?vid=f65076f4-f348-46ca-b2d2-b1132fcf8ed3","ios":"levelo://app?vid=f65076f4-f348-46ca-b2d2-b1132fcf8ed3"},"vehicle_type_id":"4","last_reported":1723370880,"current_range_meters":1600,"station_id":"ce4bh512rcd13ifvqe2g","pricing_plan_id":"cebpf4jnsgd1na2vs0mg"},{"bike_id":"97b8efdf-f966-43b6-a6bb-63c268cb2d99","system_id":"levelo_inurba_marseille","lat":43.290103,"lon":5.356114,"is_reserved":false,"is_disabled":false,"rental_uris":{"android":"levelo://app?vid=97b8efdf-f966-43b6-a6bb-63c268cb2d99","ios":"levelo://app?vid=97b8efdf-f966-43b6-a6bb-63c268cb2d99"},"vehicle_type_id":"4","last_reported":1723370880,"current_range_meters":1200,"station_id":"ce4bhb92rcd13ifvqen0","pricing_plan_id":"cebpf4jnsgd1na2vs0mg"},{"bike_id":"ee67a1dc-b3c9-48bf-9a06-10da32189d18","system_id":"levelo_inurba_marseille","lat":43.290103,"lon":5.356114,"is_reserved":false,"is_disabled":false,"rental_uris":{"android":"levelo://app?vid=ee67a1dc-b3c9-48bf-9a06-10da32189d18","ios":"levelo://app?vid=ee67a1dc-b3c9-48bf-9a06-10da32189d18"},"vehicle_type_id":"4","last_reported":1723370880,"current_range_meters":0,"station_id":"ce4bhb92rcd13ifvqen0","pricing_plan_id":"cebpf4jnsgd1na2vs0mg"},{"bike_id":"734c6c89-dbf5-46e3-bc35-60f4bce90d5b","system_id":"levelo_inurba_marseille","lat":43.297807,"lon":5.393533,"is_reserved":false,"is_disabled":false,"rental_uris":{"android":"levelo://app?vid=734c6c89-dbf5-46e3-bc35-60f4bce90d5b","ios":"levelo://app?vid=734c6c89-dbf5-46e3-bc35-60f4bce90d5b"},"vehicle_type_id":"4","last_reported":1723370880,"current_range_meters":22800,"station_id":"chh1huq6cuj3fo74tm60","pricing_plan_id":"cebpf4jnsgd1na2vs0mg"},{"bike_id":"0588b4f0-1ce3-4748-abe2-939dcc015ee4","system_id":"levelo_inurba_marseille","lat":43.297807,"lon":5.393533,"is_reserved":false,"is_disabled":false,"rental_uris":{"android":"levelo://app?vid=0588b4f0-1ce3-4748-abe2-939dcc015ee4","ios":"levelo://app?vid=0588b4f0-1ce3-4748-abe2-939dcc015ee4"},"vehicle_type_id":"4","last_reported":1723370880,"current_range_meters":17600,"station_id":"chh1huq6cuj3fo74tm60","pricing_plan_id":"cebpf4jnsgd1na2vs0mg"},{"bike_id":"075070bc-82ba-4bfb-bc57-ae8027c8f07b","system_id":"levelo_inurba_marseille","lat":43.295169,"lon":5.390426,"is_reserved":false,"is_disabled":false,"rental_uris":{"android":"levelo://app?vid=075070bc-82ba-4bfb-bc57-ae8027c8f07b","ios":"levelo://app?vid=075070bc-82ba-4bfb-bc57-ae8027c8f07b"},"vehicle_type_id":"4","last_reported":1723370880,"current_range_meters":6400,"station_id":"ce4bh3p2rcd13ifvqdp0","pricing_plan_id":"cebpf4jnsgd1na2vs0mg"},{"bike_id":"b22d11b0-0a8c-4061-984c-e6975c962de4","system_id":"levelo_inurba_marseille","lat":43.330442,"lon":5.389148,"is_reserved":false,"is_disabled":false,"rental_uris":{"android":"levelo://app?vid=b22d11b0-0a8c-4061-984c-e6975c962de4","ios":"levelo://app?vid=b22d11b0-0a8c-4061-984c-e6975c962de4"},"vehicle_type_id":"4","last_reported":1723370880,"current_range_meters":29200,"station_id":"ce4bhr92rcd13ifvqhrg","pricing_plan_id":"cebpf4jnsgd1na2vs0mg"},{"bike_id":"c7991355-17de-4db5-9c84-065edc9d4a4a","system_id":"levelo_inurba_marseille","lat":43.330216,"lon":5.390344,"is_reserved":false,"is_disabled":false,"rental_uris":{"android":"levelo://app?vid=c7991355-17de-4db5-9c84-065edc9d4a4a","ios":"levelo://app?vid=c7991355-17de-4db5-9c84-065edc9d4a4a"},"vehicle_type_id":"4","last_reported":1723370880,"current_range_meters":3600,"station_id":"ce4bhr92rcd13ifvqhrg","pricing_plan_id":"cebpf4jnsgd1na2vs0mg"},{"bike_id":"0b3026fb-8bfd-4b6c-8010-5b4207697d48","system_id":"levelo_inurba_marseille","lat":43.330442,"lon":5.389148,"is_reserved":false,"is_disabled":false,"rental_uris":{"android":"levelo://app?vid=0b3026fb-8bfd-4b6c-8010-5b4207697d48","ios":"levelo://app?vid=0b3026fb-8bfd-4b6c-8010-5b4207697d48"},"vehicle_type_id":"4","last_reported":1723370880,"current_range_meters":31600,"station_id":"ce4bhr92rcd13ifvqhrg","pricing_plan_id":"cebpf4jnsgd1na2vs0mg"},{"bike_id":"1bf59f0c-7ae3-4877-9e89-a08325796429","system_id":"levelo_inurba_marseille","lat":43.330442,"lon":5.389148,"is_reserved":false,"is_disabled":false,"rental_uris":{"android":"levelo://app?vid=1bf59f0c-7ae3-4877-9e89-a08325796429","ios":"levelo://app?vid=1bf59f0c-7ae3-4877-9e89-a08325796429"},"vehicle_type_id":"4","last_reported":1723370880,"current_range_meters":10800,"station_id":"ce4bhr92rcd13ifvqhrg","pricing_plan_id":"cebpf4jnsgd1na2vs0mg"},{"bike_id":"a08ef5a7-865e-45cf-9096-384a0db9c4ce","system_id":"levelo_inurba_marseille","lat":43.295169,"lon":5.390426,"is_reserved":false,"is_disabled":false,"rental_uris":{"android":"levelo://app?vid=a08ef5a7-865e-45cf-9096-384a0db9c4ce","ios":"levelo://app?vid=a08ef5a7-865e-45cf-9096-384a0db9c4ce"},"vehicle_type_id":"4","last_reported":1723370880,"current_range_meters":19200,"station_id":"ce4bh3p2rcd13ifvqdp0","pricing_plan_id":"cebpf4jnsgd1na2vs0mg"},{"bike_id":"a3198cfb-9c28-4f2a-98e2-cb2d332095f5","system_id":"levelo_inurba_marseille","lat":43.330442,"lon":5.389148,"is_reserved":false,"is_disabled":false,"rental_uris":{"android":"levelo://app?vid=a3198cfb-9c28-4f2a-98e2-cb2d332095f5","ios":"levelo://app?vid=a3198cfb-9c28-4f2a-98e2-cb2d332095f5"},"vehicle_type_id":"4","last_reported":1723370880,"current_range_meters":20000,"station_id":"ce4bhr92rcd13ifvqhrg","pricing_plan_id":"cebpf4jnsgd1na2vs0mg"},{"bike_id":"22d16e92-7fe3-493a-a32b-fc2bbab2bbe4","system_id":"levelo_inurba_marseille","lat":43.330442,"lon":5.389148,"is_reserved":false,"is_disabled":false,"rental_uris":{"android":"levelo://app?vid=22d16e92-7fe3-493a-a32b-fc2bbab2bbe4","ios":"levelo://app?vid=22d16e92-7fe3-493a-a32b-fc2bbab2bbe4"},"vehicle_type_id":"4","last_reported":1723370880,"current_range_meters":29600,"station_id":"ce4bhr92rcd13ifvqhrg","pricing_plan_id":"cebpf4jnsgd1na2vs0mg"},{"bike_id":"464319e8-bbc0-4a93-9546-8fbc2dd213c8","system_id":"levelo_inurba_marseille","lat":43.30173,"lon":5.39728,"is_reserved":false,"is_disabled":false,"rental_uris":{"android":"levelo://app?vid=464319e8-bbc0-4a93-9546-8fbc2dd213c8","ios":"levelo://app?vid=464319e8-bbc0-4a93-9546-8fbc2dd213c8"},"vehicle_type_id":"4","last_reported":1723370880,"current_range_meters":12400,"station_id":"","pricing_plan_id":"cebpf4jnsgd1na2vs0mg"},{"bike_id":"0efc5175-57d0-4114-bf40-0df88f9057d8","system_id":"levelo_inurba_marseille","lat":43.2901,"lon":5.381269,"is_reserved":false,"is_disabled":false,"rental_uris":{"android":"levelo://app?vid=0efc5175-57d0-4114-bf40-0df88f9057d8","ios":"levelo://app?vid=0efc5175-57d0-4114-bf40-0df88f9057d8"},"vehicle_type_id":"4","last_reported":1723370880,"current_range_meters":6800,"station_id":"ce4bh4p2rcd13ifvqe1g","pricing_plan_id":"cebpf4jnsgd1na2vs0mg"},{"bike_id":"3bddb62c-2d52-4c3a-8452-b866061adece","system_id":"levelo_inurba_marseille","lat":43.312609,"lon":5.401662,"is_reserved":false,"is_disabled":false,"rental_uris":{"android":"levelo://app?vid=3bddb62c-2d52-4c3a-8452-b866061adece","ios":"levelo://app?vid=3bddb62c-2d52-4c3a-8452-b866061adece"},"vehicle_type_id":"4","last_reported":1723370880,"current_range_meters":32000,"station_id":"ce4bh092rcd13ifvqd30","pricing_plan_id":"cebpf4jnsgd1na2vs0mg"},{"bike_id":"bebce8ee-6374-4089-86b4-fb79f92fccf8","system_id":"levelo_inurba_marseille","lat":43.312609,"lon":5.401662,"is_reserved":false,"is_disabled":false,"rental_uris":{"android":"levelo://app?vid=bebce8ee-6374-4089-86b4-fb79f92fccf8","ios":"levelo://app?vid=bebce8ee-6374-4089-86b4-fb79f92fccf8"},"vehicle_type_id":"4","last_reported":1723370880,"current_range_meters":24400,"station_id":"ce4bh092rcd13ifvqd30","pricing_plan_id":"cebpf4jnsgd1na2vs0mg"},{"bike_id":"4dd3df97-f042-4ef0-9fba-47ec4b401346","system_id":"levelo_inurba_marseille","lat":43.312609,"lon":5.401662,"is_reserved":false,"is_disabled":false,"rental_uris":{"android":"levelo://app?vid=4dd3df97-f042-4ef0-9fba-47ec4b401346","ios":"levelo://app?vid=4dd3df97-f042-4ef0-9fba-47ec4b401346"},"vehicle_type_id":"4","last_reported":1723370880,"current_range_meters":31600,"station_id":"ce4bh092rcd13ifvqd30","pricing_plan_id":"cebpf4jnsgd1na2vs0mg"},{"bike_id":"c3cf305c-692c-41ed-b07c-7ebbc13f240d","system_id":"levelo_inurba_marseille","lat":43.337405,"lon":5.374624,"is_reserved":false,"is_disabled":false,"rental_uris":{"android":"levelo://app?vid=c3cf305c-692c-41ed-b07c-7ebbc13f240d","ios":"levelo://app?vid=c3cf305c-692c-41ed-b07c-7ebbc13f240d"},"vehicle_type_id":"4","last_reported":1723370880,"current_range_meters":14800,"station_id":"","pricing_plan_id":"cebpf4jnsgd1na2vs0mg"},{"bike_id":"1fb92748-c742-46d8-833a-66bb3556b96a","system_id":"levelo_inurba_marseille","lat":43.30937,"lon":5.40138,"is_reserved":false,"is_disabled":false,"rental_uris":{"android":"levelo://app?vid=1fb92748-c742-46d8-833a-66bb3556b96a","ios":"levelo://app?vid=1fb92748-c742-46d8-833a-66bb3556b96a"},"vehicle_type_id":"4","last_reported":1723370880,"current_range_meters":23600,"station_id":"ce4bgvp2rcd13ifvqct0","pricing_plan_id":"cebpf4jnsgd1na2vs0mg"},{"bike_id":"5fcf6d7b-99d2-41f1-860a-180c0c20f992","system_id":"levelo_inurba_marseille","lat":43.312609,"lon":5.401662,"is_reserved":false,"is_disabled":false,"rental_uris":{"android":"levelo://app?vid=5fcf6d7b-99d2-41f1-860a-180c0c20f992","ios":"levelo://app?vid=5fcf6d7b-99d2-41f1-860a-180c0c20f992"},"vehicle_type_id":"4","last_reported":1723370880,"current_range_meters":10400,"station_id":"ce4bh092rcd13ifvqd30","pricing_plan_id":"cebpf4jnsgd1na2vs0mg"},{"bike_id":"ac75d8e5-5139-4e43-a64e-51e7994c2517","system_id":"levelo_inurba_marseille","lat":43.337444,"lon":5.374475,"is_reserved":false,"is_disabled":false,"rental_uris":{"android":"levelo://app?vid=ac75d8e5-5139-4e43-a64e-51e7994c2517","ios":"levelo://app?vid=ac75d8e5-5139-4e43-a64e-51e7994c2517"},"vehicle_type_id":"3","last_reported":1723370880,"current_range_meters":24800,"station_id":"","pricing_plan_id":"cebpf4jnsgd1na2vs0mg"},{"bike_id":"7553d7c6-8eef-4b21-9dca-534ec43256a6","system_id":"levelo_inurba_marseille","lat":43.33743,"lon":5.37458,"is_reserved":false,"is_disabled":false,"rental_uris":{"android":"levelo://app?vid=7553d7c6-8eef-4b21-9dca-534ec43256a6","ios":"levelo://app?vid=7553d7c6-8eef-4b21-9dca-534ec43256a6"},"vehicle_type_id":"4","last_reported":1723370880,"current_range_meters":10400,"station_id":"","pricing_plan_id":"cebpf4jnsgd1na2vs0mg"},{"bike_id":"8b5f6228-3582-497c-9919-c849c8ef0c9b","system_id":"levelo_inurba_marseille","lat":43.337436,"lon":5.374589,"is_reserved":false,"is_disabled":false,"rental_uris":{"android":"levelo://app?vid=8b5f6228-3582-497c-9919-c849c8ef0c9b","ios":"levelo://app?vid=8b5f6228-3582-497c-9919-c849c8ef0c9b"},"vehicle_type_id":"4","last_reported":1723370880,"current_range_meters":800,"station_id":"","pricing_plan_id":"cebpf4jnsgd1na2vs0mg"},{"bike_id":"43f21911-683d-4ba4-93d3-8a7e20e1c78c","system_id":"levelo_inurba_marseille","lat":43.337427,"lon":5.374664,"is_reserved":false,"is_disabled":false,"rental_uris":{"android":"levelo://app?vid=43f21911-683d-4ba4-93d3-8a7e20e1c78c","ios":"levelo://app?vid=43f21911-683d-4ba4-93d3-8a7e20e1c78c"},"vehicle_type_id":"4","last_reported":1723370880,"current_range_meters":27600,"station_id":"","pricing_plan_id":"cebpf4jnsgd1na2vs0mg"},{"bike_id":"f4767f82-aaaf-446c-9ba1-3bf9f4d71aad","system_id":"levelo_inurba_marseille","lat":43.312609,"lon":5.401662,"is_reserved":false,"is_disabled":false,"rental_uris":{"android":"levelo://app?vid=f4767f82-aaaf-446c-9ba1-3bf9f4d71aad","ios":"levelo://app?vid=f4767f82-aaaf-446c-9ba1-3bf9f4d71aad"},"vehicle_type_id":"4","last_reported":1723370880,"current_range_meters":21200,"station_id":"ce4bh092rcd13ifvqd30","pricing_plan_id":"cebpf4jnsgd1na2vs0mg"},{"bike_id":"99ff80d6-767c-4ca9-81b5-c19f253f3bd3","system_id":"levelo_inurba_marseille","lat":43.337458,"lon":5.374553,"is_reserved":false,"is_disabled":false,"rental_uris":{"android":"levelo://app?vid=99ff80d6-767c-4ca9-81b5-c19f253f3bd3","ios":"levelo://app?vid=99ff80d6-767c-4ca9-81b5-c19f253f3bd3"},"vehicle_type_id":"4","last_reported":1723370880,"current_range_meters":0,"station_id":"","pricing_plan_id":"cebpf4jnsgd1na2vs0mg"},{"bike_id":"a99690a8-3e4f-41a1-9b6a-5b43249a269f","system_id":"levelo_inurba_marseille","lat":43.33746,"lon":5.37457,"is_reserved":false,"is_disabled":false,"rental_uris":{"android":"levelo://app?vid=a99690a8-3e4f-41a1-9b6a-5b43249a269f","ios":"levelo://app?vid=a99690a8-3e4f-41a1-9b6a-5b43249a269f"},"vehicle_type_id":"4","last_reported":1723370880,"current_range_meters":1600,"station_id":"","pricing_plan_id":"cebpf4jnsgd1na2vs0mg"},{"bike_id":"00e6c580-ef9c-400a-9ba1-78d18ee81e54","system_id":"levelo_inurba_marseille","lat":43.30935,"lon":5.40145,"is_reserved":false,"is_disabled":false,"rental_uris":{"android":"levelo://app?vid=00e6c580-ef9c-400a-9ba1-78d18ee81e54","ios":"levelo://app?vid=00e6c580-ef9c-400a-9ba1-78d18ee81e54"},"vehicle_type_id":"4","last_reported":1723370880,"current_range_meters":17200,"station_id":"ce4bgvp2rcd13ifvqct0","pricing_plan_id":"cebpf4jnsgd1na2vs0mg"},{"bike_id":"6137b86e-8de9-4c4f-94ef-bfa372175031","system_id":"levelo_inurba_marseille","lat":43.337513,"lon":5.37454,"is_reserved":false,"is_disabled":false,"rental_uris":{"android":"levelo://app?vid=6137b86e-8de9-4c4f-94ef-bfa372175031","ios":"levelo://app?vid=6137b86e-8de9-4c4f-94ef-bfa372175031"},"vehicle_type_id":"4","last_reported":1723370880,"current_range_meters":12400,"station_id":"","pricing_plan_id":"cebpf4jnsgd1na2vs0mg"},{"bike_id":"1ece39e8-5ec5-465b-b0d5-bdea3554c74d","system_id":"levelo_inurba_marseille","lat":43.33759,"lon":5.374473,"is_reserved":false,"is_disabled":false,"rental_uris":{"android":"levelo://app?vid=1ece39e8-5ec5-465b-b0d5-bdea3554c74d","ios":"levelo://app?vid=1ece39e8-5ec5-465b-b0d5-bdea3554c74d"},"vehicle_type_id":"4","last_reported":1723370880,"current_range_meters":22000,"station_id":"","pricing_plan_id":"cebpf4jnsgd1na2vs0mg"},{"bike_id":"ea1cc1bc-b3f0-4093-8f5f-6dfff1fa63d9","system_id":"levelo_inurba_marseille","lat":43.337575,"lon":5.37485,"is_reserved":false,"is_disabled":false,"rental_uris":{"android":"levelo://app?vid=ea1cc1bc-b3f0-4093-8f5f-6dfff1fa63d9","ios":"levelo://app?vid=ea1cc1bc-b3f0-4093-8f5f-6dfff1fa63d9"},"vehicle_type_id":"4","last_reported":1723370880,"current_range_meters":30400,"station_id":"","pricing_plan_id":"cebpf4jnsgd1na2vs0mg"},{"bike_id":"e0da458e-1309-458b-956b-aab617b2ea05","system_id":"levelo_inurba_marseille","lat":43.3376,"lon":5.37473,"is_reserved":false,"is_disabled":false,"rental_uris":{"android":"levelo://app?vid=e0da458e-1309-458b-956b-aab617b2ea05","ios":"levelo://app?vid=e0da458e-1309-458b-956b-aab617b2ea05"},"vehicle_type_id":"4","last_reported":1723370880,"current_range_meters":24000,"station_id":"","pricing_plan_id":"cebpf4jnsgd1na2vs0mg"},{"bike_id":"b473cd93-de26-4a92-9804-543298275a7c","system_id":"levelo_inurba_marseille","lat":43.30642,"lon":5.401031,"is_reserved":false,"is_disabled":false,"rental_uris":{"android":"levelo://app?vid=b473cd93-de26-4a92-9804-543298275a7c","ios":"levelo://app?vid=b473cd93-de26-4a92-9804-543298275a7c"},"vehicle_type_id":"4","last_reported":1723370880,"current_range_meters":3200,"station_id":"ce4bh112rcd13ifvqda0","pricing_plan_id":"cebpf4jnsgd1na2vs0mg"},{"bike_id":"a7e71684-8757-4c0e-98c0-cd5b05cd0ba7","system_id":"levelo_inurba_marseille","lat":43.337583,"lon":5.374932,"is_reserved":false,"is_disabled":false,"rental_uris":{"android":"levelo://app?vid=a7e71684-8757-4c0e-98c0-cd5b05cd0ba7","ios":"levelo://app?vid=a7e71684-8757-4c0e-98c0-cd5b05cd0ba7"},