{"last_updated":1726326488,"ttl":30,"version":"2.2","data":{"bikes":[{"bike_id":"1433cc86-19c5-4d38-a0b5-c5c087739e0a","system_id":"levelo_inurba_marseille","lat":43.22936,"lon":5.35377,"is_reserved":false,"is_disabled":false,"rental_uris":{"android":"levelo://app?vid=1433cc86-19c5-4d38-a0b5-c5c087739e0a","ios":"levelo://app?vid=1433cc86-19c5-4d38-a0b5-c5c087739e0a"},"vehicle_type_id":"4","last_reported":1726326488,"current_range_meters":26000,"station_id":"cpo3532slgdg3j2ikp40","pricing_plan_id":"cebpf4jnsgd1na2vs0mg"},{"bike_id":"083984dd-1abd-4a7d-84c6-e8ceb7b63abe","system_id":"levelo_inurba_marseille","lat":43.31294,"lon":5.37812,"is_reserved":false,"is_disabled":false,"rental_uris":{"android":"levelo://app?vid=083984dd-1abd-4a7d-84c6-e8ceb7b63abe","ios":"levelo://app?vid=083984dd-1abd-4a7d-84c6-e8ceb7b63abe"},"vehicle_type_id":"4","last_reported":1726326488,"current_range_meters":38000,"station_id":"","pricing_plan_id":"cebpf4jnsgd1na2vs0mg"},{"bike_id":"ae3ec41c-e0cc-4663-9456-f99d228502dd","system_id":"levelo_inurba_marseille","lat":43.30087,"lon":5.39065,"is_reserved":false,"is_disabled":false,"rental_uris":{"android":"levelo://app?vid=ae3ec41c-e0cc-4663-9456-f99d228502dd","ios":"levelo://app?vid=ae3ec41c-e0cc-4663-9456-f99d228502dd"},"vehicle_type_id":"4","last_reported":1726326488,"current_range_meters":2800,"station_id":"ce4bh192rcd13ifvqdb0","pricing_plan_id":"cebpf4jnsgd1na2vs0mg"},{"bike_id":"d7b935d8-1b04-4e04-9887-8c515a0b3b09","system_id":"levelo_inurba_marseille","lat":43.311696,"lon":5.387237,"is_reserved":false,"is_disabled":false,"rental_uris":{"android":"levelo://app?vid=d7b935d8-1b04-4e04-9887-8c515a0b3b09","ios":"levelo://app?vid=d7b935d8-1b04-4e04-9887-8c515a0b3b09"},"vehicle_type_id":"4","last_reported":1726326488,"current_range_meters":14000,"station_id":"ce4bgv12rcd13ifvqcp0","pricing_plan_id":"cebpf4jnsgd1na2vs0mg"},{"bike_id":"ff7c5126-ee18-4ca7-892f-39973f2585de","system_id":"levelo_inurba_marseille","lat":43.29863,"lon":5.39728,"is_reserved":false,"is_disabled":false,"rental_uris":{"android":"levelo://app?vid=ff7c5126-ee18-4ca7-892f-39973f2585de","ios":"levelo://app?vid=ff7c5126-ee18-4ca7-892f-39973f2585de"},"vehicle_type_id":"4","last_reported":1726326488,"current_range_meters":34800,"station_id":"ce4bh0h2rcd13ifvqd50","pricing_plan_id":"cebpf4jnsgd1na2vs0mg"},{"bike_id":"78e8b1af-39b3-4486-9f1e-8f9320f078e7","system_id":"levelo_inurba_marseille","lat":43.2694,"lon":5.40256,"is_reserved":false,"is_disabled":false,"rental_uris":{"android":"levelo://app?vid=78e8b1af-39b3-4486-9f1e-8f9320f078e7","ios":"levelo://app?vid=78e8b1af-39b3-4486-9f1e-8f9320f078e7"},"vehicle_type_id":"4","last_reported":1726326488,"current_range_meters":38000,"station_id":"cjm6bp8fraef2m0cb0m0","pricing_plan_id":"cebpf4jnsgd1na2vs0mg"},{"bike_id":"66939dbb-9a5e-485d-a93f-b30f98afcbb9","system_id":"levelo_inurba_marseille","lat":43.28619,"lon":5.35104,"is_reserved":false,"is_disabled":false,"rental_uris":{"android":"levelo://app?vid=66939dbb-9a5e-485d-a93f-b30f98afcbb9","ios":"levelo://app?vid=66939dbb-9a5e-485d-a93f-b30f98afcbb9"},"vehicle_type_id":"4","last_reported":1726326488,"current_range_meters":11600,"station_id":"ce4bhch2rcd13ifvqeug","pricing_plan_id":"cebpf4jnsgd1na2vs0mg"},{"bike_id":"941cfc79-0c4c-4720-b0cb-b72d1bdf727b","system_id":"levelo_inurba_marseille","lat":43.26788,"lon":5.39421,"is_reserved":false,"is_disabled":false,"rental_uris":{"android":"levelo://app?vid=941cfc79-0c4c-4720-b0cb-b72d1bdf727b","ios":"levelo://app?vid=941cfc79-0c4c-4720-b0cb-b72d1bdf727b"},"vehicle_type_id":"4","last_reported":1726326488,"current_range_meters":8000,"station_id":"ce4bhh12rcd13ifvqfg0","pricing_plan_id":"cebpf4jnsgd1na2vs0mg"},{"bike_id":"a725e6bd-2610-4052-aad1-4708c94b8d10","system_id":"levelo_inurba_marseille","lat":43.28266,"lon":5.35066,"is_reserved":false,"is_disabled":false,"rental_uris":{"android":"levelo://app?vid=a725e6bd-2610-4052-aad1-4708c94b8d10","ios":"levelo://app?vid=a725e6bd-2610-4052-aad1-4708c94b8d10"},"vehicle_type_id":"4","last_reported":1726326488,"current_range_meters":20800,"station_id":"ce4bhbp2rcd13ifvqerg","pricing_plan_id":"cebpf4jnsgd1na2vs0mg"},{"bike_id":"9fc5ecc2-8476-4d6c-b383-ba8a743a4427","system_id":"levelo_inurba_marseille","lat":43.29871,"lon":5.39726,"is_reserved":false,"is_disabled":false,"rental_uris":{"android":"levelo://app?vid=9fc5ecc2-8476-4d6c-b383-ba8a743a4427","ios":"levelo://app?vid=9fc5ecc2-8476-4d6c-b383-ba8a743a4427"},"vehicle_type_id":"4","last_reported":1726326488,"current_range_meters":33200,"station_id":"ce4bh0h2rcd13ifvqd50","pricing_plan_id":"cebpf4jnsgd1na2vs0mg"},{"bike_id":"13ec4916-f0ea-4897-8afc-596425b42c42","system_id":"levelo_inurba_marseille","lat":43.23195,"lon":5.35552,"is_reserved":false,"is_disabled":false,"rental_uris":{"android":"levelo://app?vid=13ec4916-f0ea-4897-8afc-596425b42c42","ios":"levelo://app?vid=13ec4916-f0ea-4897-8afc-596425b42c42"},"vehicle_type_id":"4","last_reported":1726326488,"current_range_meters":27200,"station_id":"ce4bhu92rcd13ifvqi70","pricing_plan_id":"cebpf4jnsgd1na2vs0mg"},{"bike_id":"8e31f1db-5305-418d-a7b9-66565d9164e1","system_id":"levelo_inurba_marseille","lat":43.26804,"lon":5.40268,"is_reserved":false,"is_disabled":false,"rental_uris":{"android":"levelo://app?vid=8e31f1db-5305-418d-a7b9-66565d9164e1","ios":"levelo://app?vid=8e31f1db-5305-418d-a7b9-66565d9164e1"},"vehicle_type_id":"4","last_reported":1726326488,"current_range_meters":16800,"station_id":"ce501612rcd8frsf0b60","pricing_plan_id":"cebpf4jnsgd1na2vs0mg"},{"bike_id":"cb0eaffb-2812-4bc5-9ace-6454d6cac3eb","system_id":"levelo_inurba_marseille","lat":43.28617,"lon":5.35103,"is_reserved":false,"is_disabled":false,"rental_uris":{"android":"levelo://app?vid=cb0eaffb-2812-4bc5-9ace-6454d6cac3eb","ios":"levelo://app?vid=cb0eaffb-2812-4bc5-9ace-6454d6cac3eb"},"vehicle_type_id":"4","last_reported":1726326488,"current_range_meters":28800,"station_id":"ce4bhch2rcd13ifvqeug","pricing_plan_id":"cebpf4jnsgd1na2vs0mg"},{"bike_id":"31b3316a-4e24-4422-ba56-899862d148f3","system_id":"levelo_inurba_marseille","lat":43.24808,"lon":5.37456,"is_reserved":false,"is_disabled":false,"rental_uris":{"android":"levelo://app?vid=31b3316a-4e24-4422-ba56-899862d148f3","ios":"levelo://app?vid=31b3316a-4e24-4422-ba56-899862d148f3"},"vehicle_type_id":"4","last_reported":1726326488,"current_range_meters":22800,"station_id":"ce4bhgh2rcd13ifvqfb0","pricing_plan_id":"cebpf4jnsgd1na2vs0mg"},{"bike_id":"3f1e932a-540c-4c5d-a4f8-ac49240977b8","system_id":"levelo_inurba_marseille","lat":43.24387,"lon":5.37052,"is_reserved":false,"is_disabled":false,"rental_uris":{"android":"levelo://app?vid=3f1e932a-540c-4c5d-a4f8-ac49240977b8","ios":"levelo://app?vid=3f1e932a-540c-4c5d-a4f8-ac49240977b8"},"vehicle_type_id":"4","last_reported":1726326488,"current_range_meters":38800,"station_id":"ce4bhhh2rcd13ifvqfk0","pricing_plan_id":"cebpf4jnsgd1na2vs0mg"},{"bike_id":"1b69e28d-b657-4802-b5dd-aa17fb5a768b","system_id":"levelo_inurba_marseille","lat":43.27135,"lon":5.4279,"is_reserved":false,"is_disabled":false,"rental_uris":{"android":"levelo://app?vid=1b69e28d-b657-4802-b5dd-aa17fb5a768b","ios":"levelo://app?vid=1b69e28d-b657-4802-b5dd-aa17fb5a768b"},"vehicle_type_id":"4","last_reported":1726326488,"current_range_meters":26000,"station_id":"","pricing_plan_id":"cebpf4jnsgd1na2vs0mg"},{"bike_id":"17e06d76-9226-40b8-a3da-1add47a80f7c","system_id":"levelo_inurba_marseille","lat":43.26798,"lon":5.39417,"is_reserved":false,"is_disabled":false,"rental_uris":{"android":"levelo://app?vid=17e06d76-9226-40b8-a3da-1add47a80f7c","ios":"levelo://app?vid=17e06d76-9226-40b8-a3da-1add47a80f7c"},"vehicle_type_id":"4","last_reported":1726326488,"current_range_meters":35600,"station_id":"ce4bhh12rcd13ifvqfg0","pricing_plan_id":"cebpf4jnsgd1na2vs0mg"},{"bike_id":"026a3fb4-5a7d-413d-850f-bdb6b382da7d","system_id":"levelo_inurba_marseille","lat":43.23188,"lon":5.3554,"is_reserved":false,"is_disabled":false,"rental_uris":{"android":"levelo://app?vid=026a3fb4-5a7d-413d-850f-bdb6b382da7d","ios":"levelo://app?vid=026a3fb4-5a7d-413d-850f-bdb6b382da7d"},"vehicle_type_id":"4","last_reported":1726326488,"current_range_meters":6400,"station_id":"ce4bhu92rcd13ifvqi70","pricing_plan_id":"cebpf4jnsgd1na2vs0mg"},{"bike_id":"56027024-a49e-4427-945d-e2d1dedef521","system_id":"levelo_inurba_marseille","lat":43.23964,"lon":5.36627,"is_reserved":false,"is_disabled":false,"rental_uris":{"android":"levelo://app?vid=56027024-a49e-4427-945d-e2d1dedef521","ios":"levelo://app?vid=56027024-a49e-4427-945d-e2d1dedef521"},"vehicle_type_id":"4","last_reported":1726326488,"current_range_meters":11600,"station_id":"ce4bhi12rcd13ifvqfp0","pricing_plan_id":"cebpf4jnsgd1na2vs0mg"},{"bike_id":"87aa1887-99a8-46ec-bf76-271cf1869f4d","system_id":"levelo_inurba_marseille","lat":43.29025,"lon":5.38632,"is_reserved":false,"is_disabled":false,"rental_uris":{"android":"levelo://app?vid=87aa1887-99a8-46ec-bf76-271cf1869f4d","ios":"levelo://app?vid=87aa1887-99a8-46ec-bf76-271cf1869f4d"},"vehicle_type_id":"4","last_reported":1726326488,"current_range_meters":4000,"station_id":"ce4bh4p2rcd13ifvqe0g","pricing_plan_id":"cebpf4jnsgd1na2vs0mg"},{"bike_id":"995d3a7e-289e-4ebd-b785-9d2da426ad57","system_id":"levelo_inurba_marseille","lat":43.23193,"lon":5.35549,"is_reserved":false,"is_disabled":false,"rental_uris":{"android":"levelo://app?vid=995d3a7e-289e-4ebd-b785-9d2da426ad57","ios":"levelo://app?vid=995d3a7e-289e-4ebd-b785-9d2da426ad57"},"vehicle_type_id":"4","last_reported":1726326488,"current_range_meters":19600,"station_id":"ce4bhu92rcd13ifvqi70","pricing_plan_id":"cebpf4jnsgd1na2vs0mg"},{"bike_id":"74c67d55-8a5f-40c9-8066-d68354718f8c","system_id":"levelo_inurba_marseille","lat":43.23197,"lon":5.35549,"is_reserved":false,"is_disabled":false,"rental_uris":{"android":"levelo://app?vid=74c67d55-8a5f-40c9-8066-d68354718f8c","ios":"levelo://app?vid=74c67d55-8a5f-40c9-8066-d68354718f8c"},"vehicle_type_id":"4","last_reported":1726326488,"current_range_meters":25200,"station_id":"ce4bhu92rcd13ifvqi70","pricing_plan_id":"cebpf4jnsgd1na2vs0mg"},{"bike_id":"b59367b5-9cf2-454d-9c0c-9efa1a59998d","system_id":"levelo_inurba_marseille","lat":43.27205,"lon":5.39187,"is_reserved":false,"is_disabled":false,"rental_uris":{"android":"levelo://app?vid=b59367b5-9cf2-454d-9c0c-9efa1a59998d","ios":"levelo://app?vid=b59367b5-9cf2-454d-9c0c-9efa1a59998d"},"vehicle_type_id":"4","last_reported":1726326488,"current_range_meters":12000,"station_id":"ce4bhhp2rcd13ifvqfm0","pricing_plan_id":"cebpf4jnsgd1na2vs0mg"},{"bike_id":"0d66b512-35e3-4d95-a925-d6213908bdff","system_id":"levelo_inurba_marseille","lat":43.29572,"lon":5.37525,"is_reserved":false,"is_disabled":false,"rental_uris":{"android":"levelo://app?vid=0d66b512-35e3-4d95-a925-d6213908bdff","ios":"levelo://app?vid=0d66b512-35e3-4d95-a925-d6213908bdff"},"vehicle_type_id":"4","last_reported":1726326488,"current_range_meters":39200,"station_id":"ce4bgh92rcd13ifvqb50","pricing_plan_id":"cebpf4jnsgd1na2vs0mg"},{"bike_id":"5d4d196a-dcd3-401c-bbda-3dae8babdc01","system_id":"levelo_inurba_marseille","lat":43.262,"lon":5.37924,"is_reserved":false,"is_disabled":false,"rental_uris":{"android":"levelo://app?vid=5d4d196a-dcd3-401c-bbda-3dae8babdc01","ios":"levelo://app?vid=5d4d196a-dcd3-401c-bbda-3dae8babdc01"},"vehicle_type_id":"4","last_reported":1726326488,"current_range_meters":39200,"station_id":"ce4bhjp2rcd13ifvqg90","pricing_plan_id":"cebpf4jnsgd1na2vs0mg"},{"bike_id":"76102230-8c84-4888-b8b7-8f9724d15667","system_id":"levelo_inurba_marseille","lat":43.27206,"lon":5.39185,"is_reserved":false,"is_disabled":false,"rental_uris":{"android":"levelo://app?vid=76102230-8c84-4888-b8b7-8f9724d15667","ios":"levelo://app?vid=76102230-8c84-4888-b8b7-8f9724d15667"},"vehicle_type_id":"4","last_reported":1726326488,"current_range_meters":20800,"station_id":"ce4bhhp2rcd13ifvqfm0","pricing_plan_id":"cebpf4jnsgd1na2vs0mg"},{"bike_id":"8b085320-0367-48fd-9439-d5a2380ff618","system_id":"levelo_inurba_marseille","lat":43.27816,"lon":5.40716,"is_reserved":false,"is_disabled":false,"rental_uris":{"android":"levelo://app?vid=8b085320-0367-48fd-9439-d5a2380ff618","ios":"levelo://app?vid=8b085320-0367-48fd-9439-d5a2380ff618"},"vehicle_type_id":"4","last_reported":1726326488,"current_range_meters":22400,"station_id":"ce4bhnh2rcd13ifvqgtg","pricing_plan_id":"cebpf4jnsgd1na2vs0mg"},{"bike_id":"aac07f6f-d068-41e5-80ed-ad695afca2fa","system_id":"levelo_inurba_marseille","lat":43.2572,"lon":5.41116,"is_reserved":false,"is_disabled":false,"rental_uris":{"android":"levelo://app?vid=aac07f6f-d068-41e5-80ed-ad695afca2fa","ios":"levelo://app?vid=aac07f6f-d068-41e5-80ed-ad695afca2fa"},"vehicle_type_id":"4","last_reported":1726326488,"current_range_meters":38800,"station_id":"ce4bhkp2rcd13ifvqgd0","pricing_plan_id":"cebpf4jnsgd1na2vs0mg"},{"bike_id":"6e6de30f-01fb-471f-a1c0-52c22afab9e2","system_id":"levelo_inurba_marseille","lat":43.2841,"lon":5.3498,"is_reserved":false,"is_disabled":false,"rental_uris":{"android":"levelo://app?vid=6e6de30f-01fb-471f-a1c0-52c22afab9e2","ios":"levelo://app?vid=6e6de30f-01fb-471f-a1c0-52c22afab9e2"},"vehicle_type_id":"4","last_reported":1726326488,"current_range_meters":8800,"station_id":"ce4bhbh2rcd13ifvqepg","pricing_plan_id":"cebpf4jnsgd1na2vs0mg"},{"bike_id":"9cccd282-cf28-4e9d-bf1e-a71a404ba9a3","system_id":"levelo_inurba_marseille","lat":43.24651,"lon":5.38896,"is_reserved":false,"is_disabled":false,"rental_uris":{"android":"levelo://app?vid=9cccd282-cf28-4e9d-bf1e-a71a404ba9a3","ios":"levelo://app?vid=9cccd282-cf28-4e9d-bf1e-a71a404ba9a3"},"vehicle_type_id":"4","last_reported":1726326488,"current_range_meters":5600,"station_id":"ce4bhg12rcd13ifvqf60","pricing_plan_id":"cebpf4jnsgd1na2vs0mg"},{"bike_id":"34721204-9cc8-4128-8304-5b698c26b1e6","system_id":"levelo_inurba_marseille","lat":43.2318,"lon":5.39982,"is_reserved":false,"is_disabled":false,"rental_uris":{"android":"levelo://app?vid=34721204-9cc8-4128-8304-5b698c26b1e6","ios":"levelo://app?vid=34721204-9cc8-4128-8304-5b698c26b1e6"},"vehicle_type_id":"4","last_reported":1726326488,"current_range_meters":40000,"station_id":"ce4bhn12rcd13ifvqgqg","pricing_plan_id":"cebpf4jnsgd1na2vs0mg"},{"bike_id":"429b0e4c-9d5f-4b59-a920-31b0295cb709","system_id":"levelo_inurba_marseille","lat":43.27176,"lon":5.40995,"is_reserved":false,"is_disabled":false,"rental_uris":{"android":"levelo://app?vid=429b0e4c-9d5f-4b59-a920-31b0295cb709","ios":"levelo://app?vid=429b0e4c-9d5f-4b59-a920-31b0295cb709"},"vehicle_type_id":"4","last_reported":1726326488,"current_range_meters":8800,"station_id":"ce4bhl12rcd13ifvqgf0","pricing_plan_id":"cebpf4jnsgd1na2vs0mg"},{"bike_id":"69efc60e-10d0-453b-8bb5-8135ab5b4edb","system_id":"levelo_inurba_marseille","lat":43.27211,"lon":5.39178,"is_reserved":false,"is_disabled":false,"rental_uris":{"android":"levelo://app?vid=69efc60e-10d0-453b-8bb5-8135ab5b4edb","ios":"levelo://app?vid=69efc60e-10d0-453b-8bb5-8135ab5b4edb"},"vehicle_type_id":"4","last_reported":1726326488,"current_range_meters":38400,"station_id":"ce4bhhp2rcd13ifvqfm0","pricing_plan_id":"cebpf4jnsgd1na2vs0mg"},{"bike_id":"4cf50f1d-cc84-4226-b856-5888cf52be34","system_id":"levelo_inurba_marseille","lat":43.23181,"lon":5.39983,"is_reserved":false,"is_disabled":false,"rental_uris":{"android":"levelo://app?vid=4cf50f1d-cc84-4226-b856-5888cf52be34","ios":"levelo://app?vid=4cf50f1d-cc84-4226-b856-5888cf52be34"},"vehicle_type_id":"4","last_reported":1726326488,"current_range_meters":25600,"station_id":"ce4bhn12rcd13ifvqgqg","pricing_plan_id":"cebpf4jnsgd1na2vs0mg"},{"bike_id":"f89ebaff-608b-48c6-99bf-a4efd018954e","system_id":"levelo_inurba_marseille","lat":43.25727,"lon":5.41107,"is_reserved":false,"is_disabled":false,"rental_uris":{"android":"levelo://app?vid=f89ebaff-608b-48c6-99bf-a4efd018954e","ios":"levelo://app?vid=f89ebaff-608b-48c6-99bf-a4efd018954e"},"vehicle_type_id":"4","last_reported":1726326488,"current_range_meters":21600,"station_id":"ce4bhkp2rcd13ifvqgd0","pricing_plan_id":"cebpf4jnsgd1na2vs0mg"},{"bike_id":"fc8b27c4-f2ac-4aa3-a72e-f0799ca48e22","system_id":"levelo_inurba_marseille","lat":43.23156,"lon":5.43709,"is_reserved":false,"is_disabled":false,"rental_uris":{"android":"levelo://app?vid=fc8b27c4-f2ac-4aa3-a72e-f0799ca48e22","ios":"levelo://app?vid=fc8b27c4-f2ac-4aa3-a72e-f0799ca48e22"},"vehicle_type_id":"4","last_reported":1726326488,"current_range_meters":16800,"station_id":"ce4bhmp2rcd13ifvqgog","pricing_plan_id":"cebpf4jnsgd1na2vs0mg"},{"bike_id":"472ab7cc-b50e-4263-9e5d-d3c17427e5c9","system_id":"levelo_inurba_marseille","lat":43.296692,"lon":5.379028,"is_reserved":false,"is_disabled":false,"rental_uris":{"android":"levelo://app?vid=472ab7cc-b50e-4263-9e5d-d3c17427e5c9","ios":"levelo://app?vid=472ab7cc-b50e-4263-9e5d-d3c17427e5c9"},"vehicle_type_id":"4","last_reported":1726326488,"current_range_meters":7200,"station_id":"ce4bhp92rcd13ifvqhcg","pricing_plan_id":"cebpf4jnsgd1na2vs0mg"},{"bike_id":"e41b3853-40bf-4ff4-ac2f-5546cdb3ec02","system_id":"levelo_inurba_marseille","lat":43.29264,"lon":5.38434,"is_reserved":false,"is_disabled":false,"rental_uris":{"android":"levelo://app?vid=e41b3853-40bf-4ff4-ac2f-5546cdb3ec02","ios":"levelo://app?vid=e41b3853-40bf-4ff4-ac2f-5546cdb3ec02"},"vehicle_type_id":"4","last_reported":1726326488,"current_range_meters":4800,"station_id":"ce4bh692rcd13ifvqea0","pricing_plan_id":"cebpf4jnsgd1na2vs0mg"},{"bike_id":"67cef4a3-0443-4547-b932-be08a4e29deb","system_id":"levelo_inurba_marseille","lat":43.27205,"lon":5.39192,"is_reserved":false,"is_disabled":false,"rental_uris":{"android":"levelo://app?vid=67cef4a3-0443-4547-b932-be08a4e29deb","ios":"levelo://app?vid=67cef4a3-0443-4547-b932-be08a4e29deb"},"vehicle_type_id":"4","last_reported":1726326488,"current_range_meters":18800,"station_id":"ce4bhhp2rcd13ifvqfm0","pricing_plan_id":"cebpf4jnsgd1na2vs0mg"},{"bike_id":"6c5599b1-0440-41da-ac45-dfda77054232","system_id":"levelo_inurba_marseille","lat":43.26944,"lon":5.40241,"is_reserved":false,"is_disabled":false,"rental_uris":{"android":"levelo://app?vid=6c5599b1-0440-41da-ac45-dfda77054232","ios":"levelo://app?vid=6c5599b1-0440-41da-ac45-dfda77054232"},"vehicle_type_id":"4","last_reported":1726326488,"current_range_meters":15200,"station_id":"cjm6bp8fraef2m0cb0m0","pricing_plan_id":"cebpf4jnsgd1na2vs0mg"},{"bike_id":"abae6892-1b9b-4a8a-9d09-fc26c657d31d","system_id":"levelo_inurba_marseille","lat":43.26199,"lon":5.37932,"is_reserved":false,"is_disabled":false,"rental_uris":{"android":"levelo://app?vid=abae6892-1b9b-4a8a-9d09-fc26c657d31d","ios":"levelo://app?vid=abae6892-1b9b-4a8a-9d09-fc26c657d31d"},"vehicle_type_id":"4","last_reported":1726326488,"current_range_meters":27600,"station_id":"ce4bhjp2rcd13ifvqg90","pricing_plan_id":"cebpf4jnsgd1na2vs0mg"},{"bike_id":"e443fb33-efc6-4dca-9fdb-497fba78a9c3","system_id":"levelo_inurba_marseille","lat":43.27215,"lon":5.3918,"is_reserved":false,"is_disabled":false,"rental_uris":{"android":"levelo://app?vid=e443fb33-efc6-4dca-9fdb-497fba78a9c3","ios":"levelo://app?vid=e443fb33-efc6-4dca-9fdb-497fba78a9c3"},"vehicle_type_id":"4","last_reported":1726326488,"current_range_meters":10800,"station_id":"ce4bhhp2rcd13ifvqfm0","pricing_plan_id":"cebpf4jnsgd1na2vs0mg"},{"bike_id":"083f80f9-af32-4b4b-98d9-51e7c9548087","system_id":"levelo_inurba_marseille","lat":43.32367,"lon":5.38878,"is_reserved":false,"is_disabled":false,"rental_uris":{"android":"levelo://app?vid=083f80f9-af32-4b4b-98d9-51e7c9548087","ios":"levelo://app?vid=083f80f9-af32-4b4b-98d9-51e7c9548087"},"vehicle_type_id":"4","last_reported":1726326488,"current_range_meters":10800,"station_id":"ce4bhqp2rcd13ifvqhog","pricing_plan_id":"cebpf4jnsgd1na2vs0mg"},{"bike_id":"16ca6d91-7513-415c-9a61-5d33eb8ad677","system_id":"levelo_inurba_marseille","lat":43.22934,"lon":5.35374,"is_reserved":false,"is_disabled":false,"rental_uris":{"android":"levelo://app?vid=16ca6d91-7513-415c-9a61-5d33eb8ad677","ios":"levelo://app?vid=16ca6d91-7513-415c-9a61-5d33eb8ad677"},"vehicle_type_id":"4","last_reported":1726326488,"current_range_meters":22400,"station_id":"cpo3532slgdg3j2ikp40","pricing_plan_id":"cebpf4jnsgd1na2vs0mg"},{"bike_id":"db95a2d4-3fa3-4e85-8942-c694d16bd45c","system_id":"levelo_inurba_marseille","lat":43.29275,"lon":5.36848,"is_reserved":false,"is_disabled":false,"rental_uris":{"android":"levelo://app?vid=db95a2d4-3fa3-4e85-8942-c694d16bd45c","ios":"levelo://app?vid=db95a2d4-3fa3-4e85-8942-c694d16bd45c"},"vehicle_type_id":"4","last_reported":1726326488,"current_range_meters":6000,"station_id":"ce4bhbp2rcd13ifvqesg","pricing_plan_id":"cebpf4jnsgd1na2vs0mg"},{"bike_id":"d38a17d1-a3ef-44ea-8c84-8c3822e22edc","system_id":"levelo_inurba_marseille","lat":43.27204,"lon":5.39178,"is_reserved":false,"is_disabled":false,"rental_uris":{"android":"levelo://app?vid=d38a17d1-a3ef-44ea-8c84-8c3822e22edc","ios":"levelo://app?vid=d38a17d1-a3ef-44ea-8c84-8c3822e22edc"},"vehicle_type_id":"4","last_reported":1726326488,"current_range_meters":33600,"station_id":"ce4bhhp2rcd13ifvqfm0","pricing_plan_id":"cebpf4jnsgd1na2vs0mg"},{"bike_id":"f4c36463-ddf2-4e8a-90a8-c12391e72ce0","system_id":"levelo_inurba_marseille","lat":43.2827,"lon":5.35064,"is_reserved":false,"is_disabled":false,"rental_uris":{"android":"levelo://app?vid=f4c36463-ddf2-4e8a-90a8-c12391e72ce0","ios":"levelo://app?vid=f4c36463-ddf2-4e8a-90a8-c12391e72ce0"},"vehicle_type_id":"4","last_reported":1726326488,"current_range_meters":39200,"station_id":"ce4bhbp2rcd13ifvqerg","pricing_plan_id":"cebpf4jnsgd1na2vs0mg"},{"bike_id":"d19bb16c-c267-4bb6-a90b-b189dbb17733","system_id":"levelo_inurba_marseille","lat":43.27208,"lon":5.39171,"is_reserved":false,"is_disabled":false,"rental_uris":{"android":"levelo://app?vid=d19bb16c-c267-4bb6-a90b-b189dbb17733","ios":"levelo://app?vid=d19bb16c-c267-4bb6-a90b-b189dbb17733"},"vehicle_type_id":"4","last_reported":1726326488,"current_range_meters":24000,"station_id":"ce4bhhp2rcd13ifvqfm0","pricing_plan_id":"cebpf4jnsgd1na2vs0mg"},{"bike_id":"fff8974a-74a3-4f70-810a-1bfbd6a3ba1d","system_id":"levelo_inurba_marseille","lat":43.27369,"lon":5.36251,"is_reserved":false,"is_disabled":false,"rental_uris":{"android":"levelo://app?vid=fff8974a-74a3-4f70-810a-1bfbd6a3ba1d","ios":"levelo://app?vid=fff8974a-74a3-4f70-810a-1bfbd6a3ba1d"},"vehicle_type_id":"4","last_reported":1726326488,"current_range_meters":38800,"station_id":"ce4bhbh2rcd13ifvqeo0","pricing_plan_id":"cebpf4jnsgd1na2vs0mg"},{"bike_id":"fcfee3e8-2f3a-48b0-8ea6-775aec090c14","system_id":"levelo_inurba_marseille","lat":43.278839,"lon":5.3819,"is_reserved":false,"is_disabled":false,"rental_uris":{"android":"levelo://app?vid=fcfee3e8-2f3a-48b0-8ea6-775aec090c14","ios":"levelo://app?vid=fcfee3e8-2f3a-48b0-8ea6-775aec090c14"},"vehicle_type_id":"4","last_reported":1726326488,"current_range_meters":30400,"station_id":"ce4bhf92rcd13ifvqf50","pricing_plan_id":"cebpf4jnsgd1na2vs0mg"},{"bike_id":"340e0b35-f7d3-4b6b-9feb-60d94d233982","system_id":"levelo_inurba_marseille","lat":43.25497,"lon":5.3765,"is_reserved":false,"is_disabled":false,"rental_uris":{"android":"levelo://app?vid=340e0b35-f7d3-4b6b-9feb-60d94d233982","ios":"levelo://app?vid=340e0b35-f7d3-4b6b-9feb-60d94d233982"},"vehicle_type_id":"4","last_reported":1726326488,"current_range_meters":13600,"station_id":"ce4bhh12rcd13ifvqff0","pricing_plan_id":"cebpf4jnsgd1na2vs0mg"},{"bike_id":"f86563e3-39f0-4a4f-adb3-080cebe6b973","system_id":"levelo_inurba_marseille","lat":43.229283,"lon":5.35373,"is_reserved":false,"is_disabled":false,"rental_uris":{"android":"levelo://app?vid=f86563e3-39f0-4a4f-adb3-080cebe6b973","ios":"levelo://app?vid=f86563e3-39f0-4a4f-adb3-080cebe6b973"},"vehicle_type_id":"4","last_reported":1726326488,"current_range_meters":12000,"station_id":"cpo3532slgdg3j2ikp40","pricing_plan_id":"cebpf4jnsgd1na2vs0mg"},{"bike_id":"811d48cf-f42f-4c17-946c-e418bd516f00","system_id":"levelo_inurba_marseille","lat":43.29525,"lon":5.39042,"is_reserved":false,"is_disabled":false,"rental_uris":{"android":"levelo://app?vid=811d48cf-f42f-4c17-946c-e418bd516f00","ios":"levelo://app?vid=811d48cf-f42f-4c17-946c-e418bd516f00"},"vehicle_type_id":"4","last_reported":1726326488,"current_range_meters":25200,"station_id":"ce4bh3p2rcd13ifvqdp0","pricing_plan_id":"cebpf4jnsgd1na2vs0mg"},{"bike_id":"26db0265-0a91-4c66-8aa8-67a94f7eef0d","system_id":"levelo_inurba_marseille","lat":43.26932,"lon":5.40043,"is_reserved":false,"is_disabled":false,"rental_uris":{"android":"levelo://app?vid=26db0265-0a91-4c66-8aa8-67a94f7eef0d","ios":"levelo://app?vid=26db0265-0a91-4c66-8aa8-67a94f7eef0d"},"vehicle_type_id":"4","last_reported":1726326488,"current_range_meters":17200,"station_id":"","pricing_plan_id":"cebpf4jnsgd1na2vs0mg"},{"bike_id":"9b49fc06-69dc-4375-9bc8-2ab31283d424","system_id":"levelo_inurba_marseille","lat":43.29903,"lon":5.43662,"is_reserved":false,"is_disabled":false,"rental_uris":{"android":"levelo://app?vid=9b49fc06-69dc-4375-9bc8-2ab31283d424","ios":"levelo://app?vid=9b49fc06-69dc-4375-9bc8-2ab31283d424"},"vehicle_type_id":"4","last_reported":1726326488,"current_range_meters":32400,"station_id":"ce4bhpp2rcd13ifvqhfg","pricing_plan_id":"cebpf4jnsgd1na2vs0mg"},{"bike_id":"226198aa-f036-4a64-b063-1d305686b773","system_id":"levelo_inurba_marseille","lat":43.27209,"lon":5.39181,"is_reserved":false,"is_disabled":false,"rental_uris":{"android":"levelo://app?vid=226198aa-f036-4a64-b063-1d305686b773","ios":"levelo://app?vid=226198aa-f036-4a64-b063-1d305686b773"},"vehicle_type_id":"4","last_reported":1726326488,"current_range_meters":9600,"station_id":"ce4bhhp2rcd13ifvqfm0","pricing_plan_id":"cebpf4jnsgd1na2vs0mg"},{"bike_id":"2f4f0bab-ad73-4df1-8cb2-fd81110cf0ee","system_id":"levelo_inurba_marseille","lat":43.30783,"lon":5.37638,"is_reserved":false,"is_disabled":false,"rental_uris":{"android":"levelo://app?vid=2f4f0bab-ad73-4df1-8cb2-fd81110cf0ee","ios":"levelo://app?vid=2f4f0bab-ad73-4df1-8cb2-fd81110cf0ee"},"vehicle_type_id":"4","last_reported":1726326488,"current_range_meters":22800,"station_id":"ce4bgv92rcd13ifvqcq0","pricing_plan_id":"cebpf4jnsgd1na2vs0mg"},{"bike_id":"47f6de78-df01-4a2d-a6c4-d802e1896e74","system_id":"levelo_inurba_marseille","lat":43.27315,"lon":5.39082,"is_reserved":false,"is_disabled":false,"rental_uris":{"android":"levelo://app?vid=47f6de78-df01-4a2d-a6c4-d802e1896e74","ios":"levelo://app?vid=47f6de78-df01-4a2d-a6c4-d802e1896e74"},"vehicle_type_id":"4","last_reported":1726326488,"current_range_meters":18000,"station_id":"ce4bhgp2rcd13ifvqfe0","pricing_plan_id":"cebpf4jnsgd1na2vs0mg"},{"bike_id":"c7cd67a6-2f65-43e6-9e58-1489cab32866","system_id":"levelo_inurba_marseille","lat":43.24166,"lon":5.36395,"is_reserved":false,"is_disabled":false,"rental_uris":{"android":"levelo://app?vid=c7cd67a6-2f65-43e6-9e58-1489cab32866","ios":"levelo://app?vid=c7cd67a6-2f65-43e6-9e58-1489cab32866"},"vehicle_type_id":"4","last_reported":1726326488,"current_range_meters":38400,"station_id":"cpo36qri1sfpv3e86is0","pricing_plan_id":"cebpf4jnsgd1na2vs0mg"},{"bike_id":"460f7517-43ca-4016-9bb2-b4a8d6bef432","system_id":"levelo_inurba_marseille","lat":43.27211,"lon":5.39173,"is_reserved":false,"is_disabled":false,"rental_uris":{"android":"levelo://app?vid=460f7517-43ca-4016-9bb2-b4a8d6bef432","ios":"levelo://app?vid=460f7517-43ca-4016-9bb2-b4a8d6bef432"},"vehicle_type_id":"4","last_reported":1726326488,"current_range_meters":18000,"station_id":"ce4bhhp2rcd13ifvqfm0","pricing_plan_id":"cebpf4jnsgd1na2vs0mg"},{"bike_id":"bea2eb63-6dba-4a7f-ba8a-ed9270863fa0","system_id":"levelo_inurba_marseille","lat":43.25503,"lon":5.37652,"is_reserved":false,"is_disabled":false,"rental_uris":{"android":"levelo://app?vid=bea2eb63-6dba-4a7f-ba8a-ed9270863fa0","ios":"levelo://app?vid=bea2eb63-6dba-4a7f-ba8a-ed9270863fa0"},"vehicle_type_id":"4","last_reported":1726326488,"current_range_meters":33600,"station_id":"ce4bhh12rcd13ifvqff0","pricing_plan_id":"cebpf4jnsgd1na2vs0mg"},{"bike_id":"e00d038a-00c7-4258-ab4b-259bdb081cfd","system_id":"levelo_inurba_marseille","lat":43.23194,"lon":5.35547,"is_reserved":false,"is_disabled":false,"rental_uris":{"android":"levelo://app?vid=e00d038a-00c7-4258-ab4b-259bdb081cfd","ios":"levelo://app?vid=e00d038a-00c7-4258-ab4b-259bdb081cfd"},"vehicle_type_id":"4","last_reported":1726326488,"current_range_meters":35200,"station_id":"ce4bhu92rcd13ifvqi70","pricing_plan_id":"cebpf4jnsgd1na2vs0mg"},{"bike_id":"4f847161-8733-40c0-9d1a-924c211b3057","system_id":"levelo_inurba_marseille","lat":43.23191,"lon":5.35539,"is_reserved":false,"is_disabled":false,"rental_uris":{"android":"levelo://app?vid=4f847161-8733-40c0-9d1a-924c211b3057","ios":"levelo://app?vid=4f847161-8733-40c0-9d1a-924c211b3057"},"vehicle_type_id":"4","last_reported":1726326488,"current_range_meters":37600,"station_id":"ce4bhu92rcd13ifvqi70","pricing_plan_id":"cebpf4jnsgd1na2vs0mg"},{"bike_id":"6a0ba89f-d9cb-4b15-ad4d-931592dbcc7a","system_id":"levelo_inurba_marseille","lat":43.26945,"lon":5.40251,"is_reserved":false,"is_disabled":false,"rental_uris":{"android":"levelo://app?vid=6a0ba89f-d9cb-4b15-ad4d-931592dbcc7a","ios":"levelo://app?vid=6a0ba89f-d9cb-4b15-ad4d-931592dbcc7a"},"vehicle_type_id":"4","last_reported":1726326488,"current_range_meters":14000,"station_id":"cjm6bp8fraef2m0cb0m0","pricing_plan_id":"cebpf4jnsgd1na2vs0mg"},{"bike_id":"c8bcf91a-5827-41b8-81db-791cf371961e","system_id":"levelo_inurba_marseille","lat":43.26946,"lon":5.40248,"is_reserved":false,"is_disabled":false,"rental_uris":{"android":"levelo://app?vid=c8bcf91a-5827-41b8-81db-791cf371961e","ios":"levelo://app?vid=c8bcf91a-5827-41b8-81db-791cf371961e"},"vehicle_type_id":"4","last_reported":1726326488,"current_range_meters":38800,"station_id":"cjm6bp8fraef2m0cb0m0","pricing_plan_id":"cebpf4jnsgd1na2vs0mg"},{"bike_id":"aced5ab7-b508-4250-8809-353d2c8a330a","system_id":"levelo_inurba_marseille","lat":43.255829,"lon":5.38236,"is_reserved":false,"is_disabled":false,"rental_uris":{"android":"levelo://app?vid=aced5ab7-b508-4250-8809-353d2c8a330a","ios":"levelo://app?vid=aced5ab7-b508-4250-8809-353d2c8a330a"},"vehicle_type_id":"4","last_reported":1726326488,"current_range_meters":18800,"station_id":"ce4bhih2rcd13ifvqfs0","pricing_plan_id":"cebpf4jnsgd1na2vs0mg"},{"bike_id":"557fbab8-6db7-456b-91cd-8b32161ddb92","system_id":"levelo_inurba_marseille","lat":43.31722,"lon":5.42398,"is_reserved":false,"is_disabled":false,"rental_uris":{"android":"levelo://app?vid=557fbab8-6db7-456b-91cd-8b32161ddb92","ios":"levelo://app?vid=557fbab8-6db7-456b-91cd-8b32161ddb92"},"vehicle_type_id":"4","last_reported":1726326488,"current_range_meters":4800,"station_id":"ce4bhp92rcd13ifvqhbg","pricing_plan_id":"cebpf4jnsgd1na2vs0mg"},{"bike_id":"5dcb1e0f-96d5-461a-bdc2-58e0bdd06558","system_id":"levelo_inurba_marseille","lat":43.30248,"lon":5.40044,"is_reserved":false,"is_disabled":false,"rental_uris":{"android":"levelo://app?vid=5dcb1e0f-96d5-461a-bdc2-58e0bdd06558","ios":"levelo://app?vid=5dcb1e0f-96d5-461a-bdc2-58e0bdd06558"},"vehicle_type_id":"4","last_reported":1726326488,"current_range_meters":10800,"station_id":"ce4bgvh2rcd13ifvqcs0","pricing_plan_id":"cebpf4jnsgd1na2vs0mg"},{"bike_id":"9e6b05d9-5b9e-4e8c-a7ed-a6aa23fe9a42","system_id":"levelo_inurba_marseille","lat":43.28608,"lon":5.35104,"is_reserved":false,"is_disabled":false,"rental_uris":{"android":"levelo://app?vid=9e6b05d9-5b9e-4e8c-a7ed-a6aa23fe9a42","ios":"levelo://app?vid=9e6b05d9-5b9e-4e8c-a7ed-a6aa23fe9a42"},"vehicle_type_id":"4","last_reported":1726326488,"current_range_meters":27200,"station_id":"ce4bhch2rcd13ifvqeug","pricing_plan_id":"cebpf4jnsgd1na2vs0mg"},{"bike_id":"883d6aac-580d-461c-b94f-6721061913de","system_id":"levelo_inurba_marseille","lat":43.26805,"lon":5.40269,"is_reserved":false,"is_disabled":false,"rental_uris":{"android":"levelo://app?vid=883d6aac-580d-461c-b94f-6721061913de","ios":"levelo://app?vid=883d6aac-580d-461c-b94f-6721061913de"},"vehicle_type_id":"4","last_reported":1726326488,"current_range_meters":26800,"station_id":"ce501612rcd8frsf0b60","pricing_plan_id":"cebpf4jnsgd1na2vs0mg"},{"bike_id":"7b0ea9ff-3b34-49c3-a8e5-55ef79b7830a","system_id":"levelo_inurba_marseille","lat":43.27209,"lon":5.39179,"is_reserved":false,"is_disabled":false,"rental_uris":{"android":"levelo://app?vid=7b0ea9ff-3b34-49c3-a8e5-55ef79b7830a","ios":"levelo://app?vid=7b0ea9ff-3b34-49c3-a8e5-55ef79b7830a"},"vehicle_type_id":"4","last_reported":1726326488,"current_range_meters":30000,"station_id":"ce4bhhp2rcd13ifvqfm0","pricing_plan_id":"cebpf4jnsgd1na2vs0mg"},{"bike_id":"0da935ed-f65f-4538-b3ed-d1364c7bf47a","system_id":"levelo_inurba_marseille","lat":43.280513,"lon":5.407874,"is_reserved":false,"is_disabled":false,"rental_uris":{"android":"levelo://app?vid=0da935ed-f65f-4538-b3ed-d1364c7bf47a","ios":"levelo://app?vid=0da935ed-f65f-4538-b3ed-d1364c7bf47a"},"vehicle_type_id":"4","last_reported":1726326488,"current_range_meters":24400,"station_id":"","pricing_plan_id":"cebpf4jnsgd1na2vs0mg"},{"bike_id":"0e38cf77-866a-47d4-bf55-be09b6dd01a9","system_id":"levelo_inurba_marseille","lat":43.26211,"lon":5.37439,"is_reserved":false,"is_disabled":false,"rental_uris":{"android":"levelo://app?vid=0e38cf77-866a-47d4-bf55-be09b6dd01a9","ios":"levelo://app?vid=0e38cf77-866a-47d4-bf55-be09b6dd01a9"},"vehicle_type_id":"4","last_reported":1726326488,"current_range_meters":22800,"station_id":"ce4bhgp2rcd13ifvqfc0","pricing_plan_id":"cebpf4jnsgd1na2vs0mg"},{"bike_id":"ee721f16-71d0-49c8-9da4-858f78b55bcb","system_id":"levelo_inurba_marseille","lat":43.25939,"lon":5.40901,"is_reserved":false,"is_disabled":false,"rental_uris":{"android":"levelo://app?vid=ee721f16-71d0-49c8-9da4-858f78b55bcb","ios":"levelo://app?vid=ee721f16-71d0-49c8-9da4-858f78b55bcb"},"vehicle_type_id":"4","last_reported":1726326488,"current_range_meters":29600,"station_id":"ce4bhm92rcd13ifvqglg","pricing_plan_id":"cebpf4jnsgd1na2vs0mg"},{"bike_id":"b539ebd9-7ecc-4f7e-b4c7-7d15509ac9e8","system_id":"levelo_inurba_marseille","lat":43.27212,"lon":5.39184,"is_reserved":false,"is_disabled":false,"rental_uris":{"android":"levelo://app?vid=b539ebd9-7ecc-4f7e-b4c7-7d15509ac9e8","ios":"levelo://app?vid=b539ebd9-7ecc-4f7e-b4c7-7d15509ac9e8"},"vehicle_type_id":"4","last_reported":1726326488,"current_range_meters":35600,"station_id":"ce4bhhp2rcd13ifvqfm0","pricing_plan_id":"cebpf4jnsgd1na2vs0mg"},{"bike_id":"3b04105b-3d4a-4d6b-a0c7-58da2ab327f7","system_id":"levelo_inurba_marseille","lat":43.30148,"lon":5.38091,"is_reserved":false,"is_disabled":false,"rental_uris":{"android":"levelo://app?vid=3b04105b-3d4a-4d6b-a0c7-58da2ab327f7","ios":"levelo://app?vid=3b04105b-3d4a-4d6b-a0c7-58da2ab327f7"},"vehicle_type_id":"4","last_reported":1726326488,"current_range_meters":8000,"station_id":"ce4bgjp2rcd13ifvqbh0","pricing_plan_id":"cebpf4jnsgd1na2vs0mg"},{"bike_id":"c4b23437-ef77-4237-ad73-f588f62793fe","system_id":"levelo_inurba_marseille","lat":43.27205,"lon":5.39187,"is_reserved":false,"is_disabled":false,"rental_uris":{"android":"levelo://app?vid=c4b23437-ef77-4237-ad73-f588f62793fe","ios":"levelo://app?vid=c4b23437-ef77-4237-ad73-f588f62793fe"},"vehicle_type_id":"4","last_reported":1726326488,"current_range_meters":24800,"station_id":"ce4bhhp2rcd13ifvqfm0","pricing_plan_id":"cebpf4jnsgd1na2vs0mg"},{"bike_id":"6dca4450-ad2b-4e54-b899-97b8b05b15c7","system_id":"levelo_inurba_marseille","lat":43.26947,"lon":5.40245,"is_reserved":false,"is_disabled":false,"rental_uris":{"android":"levelo://app?vid=6dca4450-ad2b-4e54-b899-97b8b05b15c7","ios":"levelo://app?vid=6dca4450-ad2b-4e54-b899-97b8b05b15c7"},"vehicle_type_id":"4","last_reported":1726326488,"current_range_meters":9200,"station_id":"cjm6bp8fraef2m0cb0m0","pricing_plan_id":"cebpf4jnsgd1na2vs0mg"},{"bike_id":"b0c446f9-0779-41f7-a709-2533bddd7a01","system_id":"levelo_inurba_marseille","lat":43.23192,"lon":5.35553,"is_reserved":false,"is_disabled":false,"rental_uris":{"android":"levelo://app?vid=b0c446f9-0779-41f7-a709-2533bddd7a01","ios":"levelo://app?vid=b0c446f9-0779-41f7-a709-2533bddd7a01"},"vehicle_type_id":"4","last_reported":1726326488,"current_range_meters":30800,"station_id":"ce4bhu92rcd13ifvqi70","pricing_plan_id":"cebpf4jnsgd1na2vs0mg"},{"bike_id":"75c35499-0de6-41a0-acf5-7c9b58381038","system_id":"levelo_inurba_marseille","lat":43.23184,"lon":5.39976,"is_reserved":false,"is_disabled":false,"rental_uris":{"android":"levelo://app?vid=75c35499-0de6-41a0-acf5-7c9b58381038","ios":"levelo://app?vid=75c35499-0de6-41a0-acf5-7c9b58381038"},"vehicle_type_id":"4","last_reported":1726326488,"current_range_meters":40000,"station_id":"ce4bhn12rcd13ifvqgqg","pricing_plan_id":"cebpf4jnsgd1na2vs0mg"},{"bike_id":"6aeb8f52-254c-4c49-9929-59568932318a","system_id":"levelo_inurba_marseille","lat":43.292633,"lon":5.409096,"is_reserved":false,"is_disabled":false,"rental_uris":{"android":"levelo://app?vid=6aeb8f52-254c-4c49-9929-59568932318a","ios":"levelo://app?vid=6aeb8f52-254c-4c49-9929-59568932318a"},"vehicle_type_id":"4","last_reported":1726326488,"current_range_meters":38000,"station_id":"ce4bh192rcd13ifvqdc0","pricing_plan_id":"cebpf4jnsgd1na2vs0mg"},{"bike_id":"dfc7e944-178a-43bd-85e8-0abf1cafc416","system_id":"levelo_inurba_marseille","lat":43.22931,"lon":5.35374,"is_reserved":false,"is_disabled":false,"rental_uris":{"android":"levelo://app?vid=dfc7e944-178a-43bd-85e8-0abf1cafc416","ios":"levelo://app?vid=dfc7e944-178a-43bd-85e8-0abf1cafc416"},"vehicle_type_id":"4","last_reported":1726326488,"current_range_meters":25600,"station_id":"cpo3532slgdg3j2ikp40","pricing_plan_id":"cebpf4jnsgd1na2vs0mg"},{"bike_id":"cf452cd7-76f9-44cb-a0dc-b0f24a98717b","system_id":"levelo_inurba_marseille","lat":43.31692,"lon":5.40479,"is_reserved":false,"is_disabled":false,"rental_uris":{"android":"levelo://app?vid=cf452cd7-76f9-44cb-a0dc-b0f24a98717b","ios":"levelo://app?vid=cf452cd7-76f9-44cb-a0dc-b0f24a98717b"},"vehicle_type_id":"4","last_reported":1726326488,"current_range_meters":14400,"station_id":"ce4bh012rcd13ifvqd00","pricing_plan_id":"cebpf4jnsgd1na2vs0mg"},{"bike_id":"bd26f63e-d7bd-4ada-8a1f-3b93d54404f8","system_id":"levelo_inurba_marseille","lat":43.299583,"lon":5.380825,"is_reserved":false,"is_disabled":false,"rental_uris":{"android":"levelo://app?vid=bd26f63e-d7bd-4ada-8a1f-3b93d54404f8","ios":"levelo://app?vid=bd26f63e-d7bd-4ada-8a1f-3b93d54404f8"},"vehicle_type_id":"4","last_reported":1726326488,"current_range_meters":27600,"station_id":"","pricing_plan_id":"cebpf4jnsgd1na2vs0mg"},{"bike_id":"4318a448-e899-4c9e-b36c-b669c3c89985","system_id":"levelo_inurba_marseille","lat":43.297272,"lon":5.377235,"is_reserved":false,"is_disabled":false,"rental_uris":{"android":"levelo://app?vid=4318a448-e899-4c9e-b36c-b669c3c89985","ios":"levelo://app?vid=4318a448-e899-4c9e-b36c-b669c3c89985"},"vehicle_type_id":"4","last_reported":1726326488,"current_range_meters":36400,"station_id":"ce4bgkh2rcd13ifvqbl0","pricing_plan_id":"cebpf4jnsgd1na2vs0mg"},{"bike_id":"c98b9ea6-255f-4257-8fbe-22cb09f97b9d","system_id":"levelo_inurba_marseille","lat":43.27211,"lon":5.39184,"is_reserved":false,"is_disabled":false,"rental_uris":{"android":"levelo://app?vid=c98b9ea6-255f-4257-8fbe-22cb09f97b9d","ios":"levelo://app?vid=c98b9ea6-255f-4257-8fbe-22cb09f97b9d"},"vehicle_type_id":"4","last_reported":1726326488,"current_range_meters":20400,"station_id":"ce4bhhp2rcd13ifvqfm0","pricing_plan_id":"cebpf4jnsgd1na2vs0mg"},{"bike_id":"b645ac77-0d58-4fa9-8ad3-947af8bdb1d9","system_id":"levelo_inurba_marseille","lat":43.29895,"lon":5.43661,"is_reserved":false,"is_disabled":false,"rental_uris":{"android":"levelo://app?vid=b645ac77-0d58-4fa9-8ad3-947af8bdb1d9","ios":"levelo://app?vid=b645ac77-0d58-4fa9-8ad3-947af8bdb1d9"},"vehicle_type_id":"4","last_reported":1726326488,"current_range_meters":38400,"station_id":"ce4bhpp2rcd13ifvqhfg","pricing_plan_id":"cebpf4jnsgd1na2vs0mg"},{"bike_id":"0cf989da-bbcb-4791-b6e8-1d9f3e9025a5","system_id":"levelo_inurba_marseille","lat":43.29609,"lon":5.37679,"is_reserved":false,"is_disabled":false,"rental_uris":{"android":"levelo://app?vid=0cf989da-bbcb-4791-b6e8-1d9f3e9025a5","ios":"levelo://app?vid=0cf989da-bbcb-4791-b6e8-1d9f3e9025a5"},"vehicle_type_id":"4","last_reported":1726326488,"current_range_meters":2000,"station_id":"ce4bgi92rcd13ifvqb90","pricing_plan_id":"cebpf4jnsgd1na2vs0mg"},{"bike_id":"91d155a1-0e95-42f4-9cf2-24e586735a13","system_id":"levelo_inurba_marseille","lat":43.33724,"lon":5.39186,"is_reserved":false,"is_disabled":false,"rental_uris":{"android":"levelo://app?vid=91d155a1-0e95-42f4-9cf2-24e586735a13","ios":"levelo://app?vid=91d155a1-0e95-42f4-9cf2-24e586735a13"},"vehicle_type_id":"4","last_reported":1726326488,"current_range_meters":40000,"station_id":"ce4bhr92rcd13ifvqhsg","pricing_plan_id":"cebpf4jnsgd1na2vs0mg"},{"bike_id":"157244ef-14c2-452c-a6a4-b6f543ebe213","system_id":"levelo_inurba_marseille","lat":43.27211,"lon":5.39175,"is_reserved":false,"is_disabled":false,"rental_uris":{"android":"levelo://app?vid=157244ef-14c2-452c-a6a4-b6f543ebe213","ios":"levelo://app?vid=157244ef-14c2-452c-a6a4-b6f543ebe213"},"vehicle_type_id":"4","last_reported":1726326488,"current_range_meters":9200,"station_id":"ce4bhhp2rcd13ifvqfm0","pricing_plan_id":"cebpf4jnsgd1na2vs0mg"},{"bike_id":"2e80ce3f-22c7-4b5a-98dd-274b5f5ee31b","system_id":"levelo_inurba_marseille","lat":43.27996,"lon":5.40013,"is_reserved":false,"is_disabled":false,"rental_uris":{"android":"levelo://app?vid=2e80ce3f-22c7-4b5a-98dd-274b5f5ee31b","ios":"levelo://app?vid=2e80ce3f-22c7-4b5a-98dd-274b5f5ee31b"},"vehicle_type_id":"4","last_reported":1726326488,"current_range_meters":35200,"station_id":"ce4bho92rcd13ifvqh4g","pricing_plan_id":"cebpf4jnsgd1na2vs0mg"},{"bike_id":"b7c63d30-74c1-424b-b54f-288327b9ffcd","system_id":"levelo_inurba_marseille","lat":43.30832,"lon":5.43615,"is_reserved":false,"is_disabled":false,"rental_uris":{"android":"levelo://app?vid=b7c63d30-74c1-424b-b54f-288327b9ffcd","ios":"levelo://app?vid=b7c63d30-74c1-424b-b54f-288327b9ffcd"},"vehicle_type_id":"4","last_reported":1726326488,"current_range_meters":28000,"station_id":"ce4bhph2rcd13ifvqheg","pricing_plan_id":"cebpf4jnsgd1na2vs0mg"},{"bike_id":"38837d30-9cad-470f-ac4a-62702b6ace3f","system_id":"levelo_inurba_marseille","lat":43.26029,"lon":5.37548,"is_reserved":false,"is_disabled":false,"rental_uris":{"android":"levelo://app?vid=38837d30-9cad-470f-ac4a-62702b6ace3f","ios":"levelo://app?vid=38837d30-9cad-470f-ac4a-62702b6ace3f"},"vehicle_type_id":"4","last_reported":1726326488,"current_range_meters":4800,"station_id":"ce4bhgh2rcd13ifvqfa0","pricing_plan_id":"cebpf4jnsgd1na2vs0mg"},{"bike_id":"8298538d-38c0-4b75-a654-e47ba5f1f3a0","system_id":"levelo_inurba_marseille","lat":43.27214,"lon":5.39172,"is_reserved":false,"is_disabled":false,"rental_uris":{"android":"levelo://app?vid=8298538d-38c0-4b75-a654-e47ba5f1f3a0","ios":"levelo://app?vid=8298538d-38c0-4b75-a654-e47ba5f1f3a0"},"vehicle_type_id":"4","last_reported":1726326488,"current_range_meters":8000,"station_id":"ce4bhhp2rcd13ifvqfm0","pricing_plan_id":"cebpf4jnsgd1na2vs0mg"},{"bike_id":"0d9f035c-8e47-426d-8593-e2bc7f05f235","system_id":"levelo_inurba_marseille","lat":43.29593,"lon":5.37017,"is_reserved":false,"is_disabled":false,"rental_uris":{"android":"levelo://app?vid=0d9f035c-8e47-426d-8593-e2bc7f05f235","ios":"levelo://app?vid=0d9f035c-8e47-426d-8593-e2bc7f05f235"},"vehicle_type_id":"4","last_reported":1726326488,"current_range_meters":10000,"station_id":"","pricing_plan_id":"cebpf4jnsgd1na2vs0mg"},{"bike_id":"a700f7c0-23ab-4ba3-90d9-2f3ad37fa493","system_id":"levelo_inurba_marseille","lat":43.33025,"lon":5.39045,"is_reserved":false,"is_disabled":false,"rental_uris":{"android":"levelo://app?vid=a700f7c0-23ab-4ba3-90d9-2f3ad37fa493","ios":"levelo://app?vid=a700f7c0-23ab-4ba3-90d9-2f3ad37fa493"},"vehicle_type_id":"4","last_reported":1726326488,"current_range_meters":37600,"station_id":"ce4bhr92rcd13ifvqhrg","pricing_plan_id":"cebpf4jnsgd1na2vs0mg"},{"bike_id":"7740e5ef-e555-42a9-b370-43d6e38180e8","system_id":"levelo_inurba_marseille","lat":43.26686,"lon":5.38276,"is_reserved":false,"is_disabled":false,"rental_uris":{"android":"levelo://app?vid=7740e5ef-e555-42a9-b370-43d6e38180e8","ios":"levelo://app?vid=7740e5ef-e555-42a9-b370-43d6e38180e8"},"vehicle_type_id":"4","last_reported":1726326488,"current_range_meters":33200,"station_id":"ce4bhg92rcd13ifvqf90","pricing_plan_id":"cebpf4jnsgd1na2vs0mg"},{"bike_id":"8b3bd363-466b-4841-8d44-6d1a95e8499a","system_id":"levelo_inurba_marseille","lat":43.31263,"lon":5.40169,"is_reserved":false,"is_disabled":false,"rental_uris":{"android":"levelo://app?vid=8b3bd363-466b-4841-8d44-6d1a95e8499a","ios":"levelo://app?vid=8b3bd363-466b-4841-8d44-6d1a95e8499a"},"vehicle_type_id":"4","last_reported":1726326488,"current_range_meters":14800,"station_id":"ce4bh092rcd13ifvqd30","pricing_plan_id":"cebpf4jnsgd1na2vs0mg"},{"bike_id":"f81c9c0a-c2a9-4feb-9288-9725e8c2c56f","system_id":"levelo_inurba_marseille","lat":43.2315,"lon":5.43717,"is_reserved":false,"is_disabled":false,"rental_uris":{"android":"levelo://app?vid=f81c9c0a-c2a9-4feb-9288-9725e8c2c56f","ios":"levelo://app?vid=f81c9c0a-c2a9-4feb-9288-9725e8c2c56f"},"vehicle_type_id":"4","last_reported":1726326488,"current_range_meters":34800,"station_id":"ce4bhmp2rcd13ifvqgog","pricing_plan_id":"cebpf4jnsgd1na2vs0mg"},{"bike_id":"720ef12a-64d1-4b56-969a-7af6037fa468","system_id":"levelo_inurba_marseille","lat":43.28435,"lon":5.392,"is_reserved":false,"is_disabled":false,"rental_uris":{"android":"levelo://app?vid=720ef12a-64d1-4b56-969a-7af6037fa468","ios":"levelo://app?vid=720ef12a-64d1-4b56-969a-7af6037fa468"},"vehicle_type_id":"4","last_reported":1726326488,"current_range_meters":32000,"station_id":"ce4bhoh2rcd13ifvqh5g","pricing_plan_id":"cebpf4jnsgd1na2vs0mg"},{"bike_id":"552ccea4-a0ab-4fa2-9015-1ea8da64cd61","system_id":"levelo_inurba_marseille","lat":43.25582,"lon":5.38241,"is_reserved":false,"is_disabled":false,"rental_uris":{"android":"levelo://app?vid=552ccea4-a0ab-4fa2-9015-1ea8da64cd61","ios":"levelo://app?vid=552ccea4-a0ab-4fa2-9015-1ea8da64cd61"},"vehicle_type_id":"4","last_reported":1726326488,"current_range_meters":5600,"station_id":"ce4bhih2rcd13ifvqfs0","pricing_plan_id":"cebpf4jnsgd1na2vs0mg"},{"bike_id":"5897589e-43ce-4de9-acfe-3672a55a2415","system_id":"levelo_inurba_marseille","lat":43.281647,"lon":5.426351,"is_reserved":false,"is_disabled":false,"rental_uris":{"android":"levelo://app?vid=5897589e-43ce-4de9-acfe-3672a55a2415","ios":"levelo://app?vid=5897589e-43ce-4de9-acfe-3672a55a2415"},"vehicle_type_id":"4","last_reported":1726326488,"current_range_meters":23200,"station_id":"ce4bhnh2rcd13ifvqgug","pricing_plan_id":"cebpf4jnsgd1na2vs0mg"},{"bike_id":"edf20ab5-b6fb-4ac2-84e1-bc016e5ba262","system_id":"levelo_inurba_marseille","lat":43.29556,"lon":5.42288,"is_reserved":false,"is_disabled":false,"rental_uris":{"android":"levelo://app?vid=edf20ab5-b6fb-4ac2-84e1-bc016e5ba262","ios":"levelo://app?vid=edf20ab5-b6fb-4ac2-84e1-bc016e5ba262"},"vehicle_type_id":"4","last_reported":1726326488,"current_range_meters":8000,"station_id":"ce4bhph2rcd13ifvqhdg","pricing_plan_id":"cebpf4jnsgd1na2vs0mg"},{"bike_id":"0a1b50ca-8602-461f-9159-4f6b8364008e","system_id":"levelo_inurba_marseille","lat":43.290379,"lon":5.375777,"is_reserved":false,"is_disabled":false,"rental_uris":{"android":"levelo://app?vid=0a1b50ca-8602-461f-9159-4f6b8364008e","ios":"levelo://app?vid=0a1b50ca-8602-461f-9159-4f6b8364008e"},"vehicle_type_id":"4","last_reported":1726326488,"current_range_meters":13600,"station_id":"ce4bh692rcd13ifvqe90","pricing_plan_id":"cebpf4jnsgd1na2vs0mg"},{"bike_id":"05675f93-103a-4dd3-bc69-86f2b2f97577","system_id":"levelo_inurba_marseille","lat":43.31721,"lon":5.42392,"is_reserved":false,"is_disabled":false,"rental_uris":{"android":"levelo://app?vid=05675f93-103a-4dd3-bc69-86f2b2f97577","ios":"levelo://app?vid=05675f93-103a-4dd3-bc69-86f2b2f97577"},"vehicle_type_id":"4","last_reported":1726326488,"current_range_meters":33200,"station_id":"ce4bhp92rcd13ifvqhbg","pricing_plan_id":"cebpf4jnsgd1na2vs0mg"},{"bike_id":"b4504fa2-ac2b-4c1e-b2d1-946edb9cf919","system_id":"levelo_inurba_marseille","lat":43.246613,"lon":5.381702,"is_reserved":false,"is_disabled":false,"rental_uris":{"android":"levelo://app?vid=b4504fa2-ac2b-4c1e-b2d1-946edb9cf919","ios":"levelo://app?vid=b4504fa2-ac2b-4c1e-b2d1-946edb9cf919"},"vehicle_type_id":"4","last_reported":1726326488,"current_range_meters":38800,"station_id":"ce4bhih2rcd13ifvqfr0","pricing_plan_id":"cebpf4jnsgd1na2vs0mg"},{"bike_id":"d85ab2af-d7ee-47c5-b97a-f55f599627be","system_id":"levelo_inurba_marseille","lat":43.24166,"lon":5.36392,"is_reserved":false,"is_disabled":false,"rental_uris":{"android":"levelo://app?vid=d85ab2af-d7ee-47c5-b97a-f55f599627be","ios":"levelo://app?vid=d85ab2af-d7ee-47c5-b97a-f55f599627be"},"vehicle_type_id":"4","last_reported":1726326488,"current_range_meters":36400,"station_id":"cpo36qri1sfpv3e86is0","pricing_plan_id":"cebpf4jnsgd1na2vs0mg"},{"bike_id":"53a2d874-293d-47cc-bdbd-a03b3468623b","system_id":"levelo_inurba_marseille","lat":43.29895,"lon":5.4367,"is_reserved":false,"is_disabled":false,"rental_uris":{"android":"levelo://app?vid=53a2d874-293d-47cc-bdbd-a03b3468623b","ios":"levelo://app?vid=53a2d874-293d-47cc-bdbd-a03b3468623b"},"vehicle_type_id":"4","last_reported":1726326488,"current_range_meters":9200,"station_id":"ce4bhpp2rcd13ifvqhfg","pricing_plan_id":"cebpf4jnsgd1na2vs0mg"},{"bike_id":"2fd1e66e-f15a-476b-b490-05d7fcf3878d","system_id":"levelo_inurba_marseille","lat":43.26785,"lon":5.39413,"is_reserved":false,"is_disabled":false,"rental_uris":{"android":"levelo://app?vid=2fd1e66e-f15a-476b-b490-05d7fcf3878d","ios":"levelo://app?vid=2fd1e66e-f15a-476b-b490-05d7fcf3878d"},"vehicle_type_id":"4","last_reported":1726326488,"current_range_meters":24000,"station_id":"ce4bhh12rcd13ifvqfg0","pricing_plan_id":"cebpf4jnsgd1na2vs0mg"},{"bike_id":"d835c8af-bb7d-4139-9595-2b625e9bc322","system_id":"levelo_inurba_marseille","lat":43.26483,"lon":5.39551,"is_reserved":false,"is_disabled":false,"rental_uris":{"android":"levelo://app?vid=d835c8af-bb7d-4139-9595-2b625e9bc322","ios":"levelo://app?vid=d835c8af-bb7d-4139-9595-2b625e9bc322"},"vehicle_type_id":"4","last_reported":1726326488,"current_range_meters":11200,"station_id":"ce4bhi12rcd13ifvqfq0","pricing_plan_id":"cebpf4jnsgd1na2vs0mg"},{"bike_id":"bb7acf50-b6bc-4b2d-adf4-833abc23b24c","system_id":"levelo_inurba_marseille","lat":43.23194,"lon":5.35548,"is_reserved":false,"is_disabled":false,"rental_uris":{"android":"levelo://app?vid=bb7acf50-b6bc-4b2d-adf4-833abc23b24c","ios":"levelo://app?vid=bb7acf50-b6bc-4b2d-adf4-833abc23b24c"},"vehicle_type_id":"4","last_reported":1726326488,"current_range_meters":40000,"station_id":"ce4bhu92rcd13ifvqi70","pricing_plan_id":"cebpf4jnsgd1na2vs0mg"},{"bike_id":"836defd1-fb66-4ac4-8fbb-20b46af1ebda","system_id":"levelo_inurba_marseille","lat":43.2721,"lon":5.39174,"is_reserved":false,"is_disabled":false,"rental_uris":{"android":"levelo://app?vid=836defd1-fb66-4ac4-8fbb-20b46af1ebda","ios":"levelo://app?vid=836defd1-fb66-4ac4-8fbb-20b46af1ebda"},"vehicle_type_id":"4","last_reported":1726326488,"current_range_meters":20800,"station_id":"ce4bhhp2rcd13ifvqfm0","pricing_plan_id":"cebpf4jnsgd1na2vs0mg"},{"bike_id":"f6de5503-3f64-4c45-a987-7e74ca5c7044","system_id":"levelo_inurba_marseille","lat":43.24177,"lon":5.36393,"is_reserved":false,"is_disabled":false,"rental_uris":{"android":"levelo://app?vid=f6de5503-3f64-4c45-a987-7e74ca5c7044","ios":"levelo://app?vid=f6de5503-3f64-4c45-a987-7e74ca5c7044"},"vehicle_type_id":"4","last_reported":1726326488,"current_range_meters":30400,"station_id":"cpo36qri1sfpv3e86is0","pricing_plan_id":"cebpf4jnsgd1na2vs0mg"},{"bike_id":"bc8be1fd-7bee-49c5-817c-184bdd69b536","system_id":"levelo_inurba_marseille","lat":43.27374,"lon":5.41942,"is_reserved":false,"is_disabled":false,"rental_uris":{"android":"levelo://app?vid=bc8be1fd-7bee-49c5-817c-184bdd69b536","ios":"levelo://app?vid=bc8be1fd-7bee-49c5-817c-184bdd69b536"},"vehicle_type_id":"4","last_reported":1726326488,"current_range_meters":30400,"station_id":"","pricing_plan_id":"cebpf4jnsgd1na2vs0mg"},{"bike_id":"712c3403-d774-4001-8a40-47aa2ea3a3a4","system_id":"levelo_inurba_marseille","lat":43.27317,"lon":5.39098,"is_reserved":false,"is_disabled":false,"rental_uris":{"android":"levelo://app?vid=712c3403-d774-4001-8a40-47aa2ea3a3a4","ios":"levelo://app?vid=712c3403-d774-4001-8a40-47aa2ea3a3a4"},"vehicle_type_id":"4","last_reported":1726326488,"current_range_meters":28000,"station_id":"ce4bhgp2rcd13ifvqfe0","pricing_plan_id":"cebpf4jnsgd1na2vs0mg"},{"bike_id":"c481ad63-d2a6-458f-921f-0c9f830d313c","system_id":"levelo_inurba_marseille","lat":43.271124,"lon":5.422411,"is_reserved":false,"is_disabled":false,"rental_uris":{"android":"levelo://app?vid=c481ad63-d2a6-458f-921f-0c9f830d313c","ios":"levelo://app?vid=c481ad63-d2a6-458f-921f-0c9f830d313c"},"vehicle_type_id":"4","last_reported":1726326488,"current_range_meters":32000,"station_id":"ce4bhk92rcd13ifvqgb0","pricing_plan_id":"cebpf4jnsgd1na2vs0mg"},{"bike_id":"0c1ca48e-e408-4285-a49a-9abf189a2f0b","system_id":"levelo_inurba_marseille","lat":43.28395,"lon":5.34976,"is_reserved":false,"is_disabled":false,"rental_uris":{"android":"levelo://app?vid=0c1ca48e-e408-4285-a49a-9abf189a2f0b","ios":"levelo://app?vid=0c1ca48e-e408-4285-a49a-9abf189a2f0b"},"vehicle_type_id":"4","last_reported":1726326488,"current_range_meters":38800,"station_id":"ce4bhbh2rcd13ifvqepg","pricing_plan_id":"cebpf4jnsgd1na2vs0mg"},{"bike_id":"47cb0d4a-5768-4801-a8cb-79e84c86cf2f","system_id":"levelo_inurba_marseille","lat":43.30986,"lon":5.41998,"is_reserved":false,"is_disabled":false,"rental_uris":{"android":"levelo://app?vid=47cb0d4a-5768-4801-a8cb-79e84c86cf2f","ios":"levelo://app?vid=47cb0d4a-5768-4801-a8cb-79e84c86cf2f"},"vehicle_type_id":"4","last_reported":1726326488,"current_range_meters":20400,"station_id":"","pricing_plan_id":"cebpf4jnsgd1na2vs0mg"},{"bike_id":"632de835-3430-40ed-ac94-819588647085","system_id":"levelo_inurba_marseille","lat":43.24816,"lon":5.37461,"is_reserved":false,"is_disabled":false,"rental_uris":{"android":"levelo://app?vid=632de835-3430-40ed-ac94-819588647085","ios":"levelo://app?vid=632de835-3430-40ed-ac94-819588647085"},"vehicle_type_id":"4","last_reported":1726326488,"current_range_meters":6400,"station_id":"ce4bhgh2rcd13ifvqfb0","pricing_plan_id":"cebpf4jnsgd1na2vs0mg"},{"bike_id":"5b8d0983-a39e-42ef-b930-2c3695850d77","system_id":"levelo_inurba_marseille","lat":43.30154,"lon":5.3809,"is_reserved":false,"is_disabled":false,"rental_uris":{"android":"levelo://app?vid=5b8d0983-a39e-42ef-b930-2c3695850d77","ios":"levelo://app?vid=5b8d0983-a39e-42ef-b930-2c3695850d77"},"vehicle_type_id":"4","last_reported":1726326488,"current_range_meters":27200,"station_id":"ce4bgjp2rcd13ifvqbh0","pricing_plan_id":"cebpf4jnsgd1na2vs0mg"},{"bike_id":"54c8e63d-b39c-4555-98a1-3580419a3e96","system_id":"levelo_inurba_marseille","lat":43.28419,"lon":5.34979,"is_reserved":false,"is_disabled":false,"rental_uris":{"android":"levelo://app?vid=54c8e63d-b39c-4555-98a1-3580419a3e96","ios":"levelo://app?vid=54c8e63d-b39c-4555-98a1-3580419a3e96"},"vehicle_type_id":"4","last_reported":1726326488,"current_range_meters":38800,"station_id":"ce4bhbh2rcd13ifvqepg","pricing_plan_id":"cebpf4jnsgd1na2vs0mg"},{"bike_id":"c124f6bf-227d-48e6-be7f-e29c20c25b9f","system_id":"levelo_inurba_marseille","lat":43.26196,"lon":5.37452,"is_reserved":false,"is_disabled":false,"rental_uris":{"android":"levelo://app?vid=c124f6bf-227d-48e6-be7f-e29c20c25b9f","ios":"levelo://app?vid=c124f6bf-227d-48e6-be7f-e29c20c25b9f"},"vehicle_type_id":"4","last_reported":1726326488,"current_range_meters":14400,"station_id":"ce4bhgp2rcd13ifvqfc0","pricing_plan_id":"cebpf4jnsgd1na2vs0mg"},{"bike_id":"e6d53be3-29f2-4cd2-8c75-734d34e906ef","system_id":"levelo_inurba_marseille","lat":43.24065,"lon":5.37752,"is_reserved":false,"is_disabled":false,"rental_uris":{"android":"levelo://app?vid=e6d53be3-29f2-4cd2-8c75-734d34e906ef","ios":"levelo://app?vid=e6d53be3-29f2-4cd2-8c75-734d34e906ef"},"vehicle_type_id":"4","last_reported":1726326488,"current_range_meters":13600,"station_id":"ce4bhnp2rcd13ifvqgvg","pricing_plan_id":"cebpf4jnsgd1na2vs0mg"},{"bike_id":"bd9993b0-31b7-42dc-ba35-a7829b4d9ee3","system_id":"levelo_inurba_marseille","lat":43.27315,"lon":5.39084,"is_reserved":false,"is_disabled":false,"rental_uris":{"android":"levelo://app?vid=bd9993b0-31b7-42dc-ba35-a7829b4d9ee3","ios":"levelo://app?vid=bd9993b0-31b7-42dc-ba35-a7829b4d9ee3"},"vehicle_type_id":"4","last_reported":1726326488,"current_range_meters":28800,"station_id":"ce4bhgp2rcd13ifvqfe0","pricing_plan_id":"cebpf4jnsgd1na2vs0mg"},{"bike_id":"05dce78e-2b1f-446e-8956-bcf56a752a91","system_id":"levelo_inurba_marseille","lat":43.26938,"lon":5.40256,"is_reserved":false,"is_disabled":false,"rental_uris":{"android":"levelo://app?vid=05dce78e-2b1f-446e-8956-bcf56a752a91","ios":"levelo://app?vid=05dce78e-2b1f-446e-8956-bcf56a752a91"},"vehicle_type_id":"4","last_reported":1726326488,"current_range_meters":38000,"station_id":"cjm6bp8fraef2m0cb0m0","pricing_plan_id":"cebpf4jnsgd1na2vs0mg"},{"bike_id":"dbdd0cf1-9ac9-42ed-9e04-9369c829f327","system_id":"levelo_inurba_marseille","lat":43.26942,"lon":5.40255,"is_reserved":false,"is_disabled":false,"rental_uris":{"android":"levelo://app?vid=dbdd0cf1-9ac9-42ed-9e04-9369c829f327","ios":"levelo://app?vid=dbdd0cf1-9ac9-42ed-9e04-9369c829f327"},"vehicle_type_id":"4","last_reported":1726326488,"current_range_meters":24400,"station_id":"cjm6bp8fraef2m0cb0m0","pricing_plan_id":"cebpf4jnsgd1na2vs0mg"},{"bike_id":"026a8105-a313-4bd8-96fb-a8d6d1b140a9","system_id":"levelo_inurba_marseille","lat":43.23196,"lon":5.35549,"is_reserved":false,"is_disabled":false,"rental_uris":{"android":"levelo://app?vid=026a8105-a313-4bd8-96fb-a8d6d1b140a9","ios":"levelo://app?vid=026a8105-a313-4bd8-96fb-a8d6d1b140a9"},"vehicle_type_id":"4","last_reported":1726326488,"current_range_meters":38000,"station_id":"ce4bhu92rcd13ifvqi70","pricing_plan_id":"cebpf4jnsgd1na2vs0mg"},{"bike_id":"b6d8a6b9-b8c5-4040-8547-d95a4323ac37","system_id":"levelo_inurba_marseille","lat":43.306366,"lon":5.400826,"is_reserved":false,"is_disabled":false,"rental_uris":{"android":"levelo://app?vid=b6d8a6b9-b8c5-4040-8547-d95a4323ac37","ios":"levelo://app?vid=b6d8a6b9-b8c5-4040-8547-d95a4323ac37"},"vehicle_type_id":"4","last_reported":1726326488,"current_range_meters":26000,"station_id":"ce4bh112rcd13ifvqda0","pricing_plan_id":"cebpf4jnsgd1na2vs0mg"},{"bike_id":"ed6a9be0-3b17-4c19-bda3-ac18ce19a61b","system_id":"levelo_inurba_marseille","lat":43.29444,"lon":5.39749,"is_reserved":false,"is_disabled":false,"rental_uris":{"android":"levelo://app?vid=ed6a9be0-3b17-4c19-bda3-ac18ce19a61b","ios":"levelo://app?vid=ed6a9be0-3b17-4c19-bda3-ac18ce19a61b"},"vehicle_type_id":"4","last_reported":1726326488,"current_range_meters":35600,"station_id":"ce4bh3h2rcd13ifvqdo0","pricing_plan_id":"cebpf4jnsgd1na2vs0mg"},{"bike_id":"9378e46c-90ff-48e5-9112-f5aafd156a5f","system_id":"levelo_inurba_marseille","lat":43.29555,"lon":5.42272,"is_reserved":false,"is_disabled":false,"rental_uris":{"android":"levelo://app?vid=9378e46c-90ff-48e5-9112-f5aafd156a5f","ios":"levelo://app?vid=9378e46c-90ff-48e5-9112-f5aafd156a5f"},"vehicle_type_id":"4","last_reported":1726326488,"current_range_meters":24800,"station_id":"ce4bhph2rcd13ifvqhdg","pricing_plan_id":"cebpf4jnsgd1na2vs0mg"},{"bike_id":"7b54d5c6-16c9-409f-a29b-96bf843ce82d","system_id":"levelo_inurba_marseille","lat":43.27056,"lon":5.40261,"is_reserved":false,"is_disabled":false,"rental_uris":{"android":"levelo://app?vid=7b54d5c6-16c9-409f-a29b-96bf843ce82d","ios":"levelo://app?vid=7b54d5c6-16c9-409f-a29b-96bf843ce82d"},"vehicle_type_id":"4","last_reported":1726326488,"current_range_meters":32000,"station_id":"ce4bhk92rcd13ifvqgc0","pricing_plan_id":"cebpf4jnsgd1na2vs0mg"},{"bike_id":"51b93f73-c647-4dd9-b993-0e72de9b0462","system_id":"levelo_inurba_marseille","lat":43.2829,"lon":5.39074,"is_reserved":false,"is_disabled":false,"rental_uris":{"android":"levelo://app?vid=51b93f73-c647-4dd9-b993-0e72de9b0462","ios":"levelo://app?vid=51b93f73-c647-4dd9-b993-0e72de9b0462"},"vehicle_type_id":"4","last_reported":1726326488,"current_range_meters":28400,"station_id":"","pricing_plan_id":"cebpf4jnsgd1na2vs0mg"},{"bike_id":"cc71f222-5c82-4893-be78-38639f62ecb1","system_id":"levelo_inurba_marseille","lat":43.26783,"lon":5.39413,"is_reserved":false,"is_disabled":false,"rental_uris":{"android":"levelo://app?vid=cc71f222-5c82-4893-be78-38639f62ecb1","ios":"levelo://app?vid=cc71f222-5c82-4893-be78-38639f62ecb1"},"vehicle_type_id":"4","last_reported":1726326488,"current_range_meters":4000,"station_id":"ce4bhh12rcd13ifvqfg0","pricing_plan_id":"cebpf4jnsgd1na2vs0mg"},{"bike_id":"c1804980-0b5f-4cc6-8227-fd4e9097f704","system_id":"levelo_inurba_marseille","lat":43.26783,"lon":5.39414,"is_reserved":false,"is_disabled":false,"rental_uris":{"android":"levelo://app?vid=c1804980-0b5f-4cc6-8227-fd4e9097f704","ios":"levelo://app?vid=c1804980-0b5f-4cc6-8227-fd4e9097f704"},"vehicle_type_id":"4","last_reported":1726326488,"current_range_meters":14800,"station_id":"ce4bhh12rcd13ifvqfg0","pricing_plan_id":"cebpf4jnsgd1na2vs0mg"},{"bike_id":"03c37d44-4677-4066-8f3e-6be2864072f6","system_id":"levelo_inurba_marseille","lat":43.292633,"lon":5.38445,"is_reserved":false,"is_disabled":false,"rental_uris":{"android":"levelo://app?vid=03c37d44-4677-4066-8f3e-6be2864072f6","ios":"levelo://app?vid=03c37d44-4677-4066-8f3e-6be2864072f6"},"vehicle_type_id":"4","last_reported":1726326488,"current_range_meters":19200,"station_id":"ce4bh692rcd13ifvqea0","pricing_plan_id":"cebpf4jnsgd1na2vs0mg"},{"bike_id":"27f169bd-0815-4d7a-9e6a-9fc0c4d91dec","system_id":"levelo_inurba_marseille","lat":43.29577,"lon":5.37514,"is_reserved":false,"is_disabled":false,"rental_uris":{"android":"levelo://app?vid=27f169bd-0815-4d7a-9e6a-9fc0c4d91dec","ios":"levelo://app?vid=27f169bd-0815-4d7a-9e6a-9fc0c4d91dec"},"vehicle_type_id":"4","last_reported":1726326488,"current_range_meters":20800,"station_id":"ce4bgh92rcd13ifvqb50","pricing_plan_id":"cebpf4jnsgd1na2vs0mg"},{"bike_id":"0f74c556-4946-4d6e-a315-3c61470cdddb","system_id":"levelo_inurba_marseille","lat":43.26954,"lon":5.38624,"is_reserved":false,"is_disabled":false,"rental_uris":{"android":"levelo://app?vid=0f74c556-4946-4d6e-a315-3c61470cdddb","ios":"levelo://app?vid=0f74c556-4946-4d6e-a315-3c61470cdddb"},"vehicle_type_id":"4","last_reported":1726326488,"current_range_meters":29600,"station_id":"ce4bhh92rcd13ifvqfh0","pricing_plan_id":"cebpf4jnsgd1na2vs0mg"},{"bike_id":"edf1a68a-cd06-4002-99c4-c6ece5bac7e3","system_id":"levelo_inurba_marseille","lat":43.29714,"lon":5.36597,"is_reserved":false,"is_disabled":false,"rental_uris":{"android":"levelo://app?vid=edf1a68a-cd06-4002-99c4-c6ece5bac7e3","ios":"levelo://app?vid=edf1a68a-cd06-4002-99c4-c6ece5bac7e3"},"vehicle_type_id":"4","last_reported":1726326488,"current_range_meters":40000,"station_id":"ce4bgn12rcd13ifvqbt0","pricing_plan_id":"cebpf4jnsgd1na2vs0mg"},{"bike_id":"341c86cd-4588-4504-9beb-78d6ccaa9917","system_id":"levelo_inurba_marseille","lat":43.27179,"lon":5.40996,"is_reserved":false,"is_disabled":false,"rental_uris":{"android":"levelo://app?vid=341c86cd-4588-4504-9beb-78d6ccaa9917","ios":"levelo://app?vid=341c86cd-4588-4504-9beb-78d6ccaa9917"},"vehicle_type_id":"4","last_reported":1726326488,"current_range_meters":33600,"station_id":"ce4bhl12rcd13ifvqgf0","pricing_plan_id":"cebpf4jnsgd1na2vs0mg"},{"bike_id":"f77bce4b-3d37-4a2c-b924-2c4048be61d3","system_id":"levelo_inurba_marseille","lat":43.29687,"lon":5.37294,"is_reserved":false,"is_disabled":false,"rental_uris":{"android":"levelo://app?vid=f77bce4b-3d37-4a2c-b924-2c4048be61d3","ios":"levelo://app?vid=f77bce4b-3d37-4a2c-b924-2c4048be61d3"},"vehicle_type_id":"4","last_reported":1726326488,"current_range_meters":17600,"station_id":"ce4bgk12rcd13ifvqbj0","pricing_plan_id":"cebpf4jnsgd1na2vs0mg"},{"bike_id":"6d2f1fdf-ef85-4dbc-b421-2602e9d32ca8","system_id":"levelo_inurba_marseille","lat":43.25931,"lon":5.40911,"is_reserved":false,"is_disabled":false,"rental_uris":{"android":"levelo://app?vid=6d2f1fdf-ef85-4dbc-b421-2602e9d32ca8","ios":"levelo://app?vid=6d2f1fdf-ef85-4dbc-b421-2602e9d32ca8"},"vehicle_type_id":"4","last_reported":1726326488,"current_range_meters":26800,"station_id":"ce4bhm92rcd13ifvqglg","pricing_plan_id":"cebpf4jnsgd1na2vs0mg"},{"bike_id":"71cddaa6-0aee-44ab-b4ec-c21adab0e94b","system_id":"levelo_inurba_marseille","lat":43.28271,"lon":5.35063,"is_reserved":false,"is_disabled":false,"rental_uris":{"android":"levelo://app?vid=71cddaa6-0aee-44ab-b4ec-c21adab0e94b","ios":"levelo://app?vid=71cddaa6-0aee-44ab-b4ec-c21adab0e94b"},"vehicle_type_id":"4","last_reported":1726326488,"current_range_meters":30400,"station_id":"ce4bhbp2rcd13ifvqerg","pricing_plan_id":"cebpf4jnsgd1na2vs0mg"},{"bike_id":"d09aedb3-0212-456b-a0d7-0a019f75665d","system_id":"levelo_inurba_marseille","lat":43.23153,"lon":5.43707,"is_reserved":false,"is_disabled":false,"rental_uris":{"android":"levelo://app?vid=d09aedb3-0212-456b-a0d7-0a019f75665d","ios":"levelo://app?vid=d09aedb3-0212-456b-a0d7-0a019f75665d"},"vehicle_type_id":"4","last_reported":1726326488,"current_range_meters":38800,"station_id":"ce4bhmp2rcd13ifvqgog","pricing_plan_id":"cebpf4jnsgd1na2vs0mg"},{"bike_id":"dc0ccd88-fc19-4726-a897-132fa0be586b","system_id":"levelo_inurba_marseille","lat":43.29581,"lon":5.36737,"is_reserved":false,"is_disabled":false,"rental_uris":{"android":"levelo://app?vid=dc0ccd88-fc19-4726-a897-132fa0be586b","ios":"levelo://app?vid=dc0ccd88-fc19-4726-a897-132fa0be586b"},"vehicle_type_id":"4","last_reported":1726326488,"current_range_meters":35600,"station_id":"ce4bgph2rcd13ifvqc2g","pricing_plan_id":"cebpf4jnsgd1na2vs0mg"},{"bike_id":"02269f0e-1758-473f-8a5c-764f1ddf9ddc","system_id":"levelo_inurba_marseille","lat":43.23184,"lon":5.39977,"is_reserved":false,"is_disabled":false,"rental_uris":{"android":"levelo://app?vid=02269f0e-1758-473f-8a5c-764f1ddf9ddc","ios":"levelo://app?vid=02269f0e-1758-473f-8a5c-764f1ddf9ddc"},"vehicle_type_id":"4","last_reported":1726326488,"current_range_meters":40000,"station_id":"ce4bhn12rcd13ifvqgqg","pricing_plan_id":"cebpf4jnsgd1na2vs0mg"},{"bike_id":"43412657-8f93-44d7-90fb-da7639962547","system_id":"levelo_inurba_marseille","lat":43.33719,"lon":5.39172,"is_reserved":false,"is_disabled":false,"rental_uris":{"android":"levelo://app?vid=43412657-8f93-44d7-90fb-da7639962547","ios":"levelo://app?vid=43412657-8f93-44d7-90fb-da7639962547"},"vehicle_type_id":"4","last_reported":1726326488,"current_range_meters":25600,"station_id":"ce4bhr92rcd13ifvqhsg","pricing_plan_id":"cebpf4jnsgd1na2vs0mg"},{"bike_id":"2a29b388-d4ff-45e1-bf47-010ffa290630","system_id":"levelo_inurba_marseille","lat":43.27314,"lon":5.39098,"is_reserved":false,"is_disabled":false,"rental_uris":{"android":"levelo://app?vid=2a29b388-d4ff-45e1-bf47-010ffa290630","ios":"levelo://app?vid=2a29b388-d4ff-45e1-bf47-010ffa290630"},"vehicle_type_id":"4","last_reported":1726326488,"current_range_meters":26000,"station_id":"ce4bhgp2rcd13ifvqfe0","pricing_plan_id":"cebpf4jnsgd1na2vs0mg"},{"bike_id":"f69c6472-47eb-4057-901f-de8c968f2c29","system_id":"levelo_inurba_marseille","lat":43.2551,"lon":5.3765,"is_reserved":false,"is_disabled":false,"rental_uris":{"android":"levelo://app?vid=f69c6472-47eb-4057-901f-de8c968f2c29","ios":"levelo://app?vid=f69c6472-47eb-4057-901f-de8c968f2c29"},"vehicle_type_id":"4","last_reported":1726326488,"current_range_meters":26800,"station_id":"ce4bhh12rcd13ifvqff0","pricing_plan_id":"cebpf4jnsgd1na2vs0mg"},{"bike_id":"afb90e5f-b0e4-4434-9cbf-9852849bbb37","system_id":"levelo_inurba_marseille","lat":43.27213,"lon":5.39169,"is_reserved":false,"is_disabled":false,"rental_uris":{"android":"levelo://app?vid=afb90e5f-b0e4-4434-9cbf-9852849bbb37","ios":"levelo://app?vid=afb90e5f-b0e4-4434-9cbf-9852849bbb37"},"vehicle_type_id":"4","last_reported":1726326488,"current_range_meters":28800,"station_id":"ce4bhhp2rcd13ifvqfm0","pricing_plan_id":"cebpf4jnsgd1na2vs0mg"},{"bike_id":"8effac75-63a3-4219-abc8-e816cfec4200","system_id":"levelo_inurba_marseille","lat":43.293868,"lon":5.365659,"is_reserved":false,"is_disabled":false,"rental_uris":{"android":"levelo://app?vid=8effac75-63a3-4219-abc8-e816cfec4200","ios":"levelo://app?vid=8effac75-63a3-4219-abc8-e816cfec4200"},"vehicle_type_id":"4","last_reported":1726326488,"current_range_meters":25200,"station_id":"ce4bhap2rcd13ifvqek0","pricing_plan_id":"cebpf4jnsgd1na2vs0mg"},{"bike_id":"61e00977-be43-400f-99ea-3c33330f7657","system_id":"levelo_inurba_marseille","lat":43.25009,"lon":5.38913,"is_reserved":false,"is_disabled":false,"rental_uris":{"android":"levelo://app?vid=61e00977-be43-400f-99ea-3c33330f7657","ios":"levelo://app?vid=61e00977-be43-400f-99ea-3c33330f7657"},"vehicle_type_id":"4","last_reported":1726326488,"current_range_meters":19200,"station_id":"ce4bhgp2rcd13ifvqfd0","pricing_plan_id":"cebpf4jnsgd1na2vs0mg"},{"bike_id":"d1f38fcd-be46-4877-a9ac-34b365272c30","system_id":"levelo_inurba_marseille","lat":43.27099,"lon":5.43316,"is_reserved":false,"is_disabled":false,"rental_uris":{"android":"levelo://app?vid=d1f38fcd-be46-4877-a9ac-34b365272c30","ios":"levelo://app?vid=d1f38fcd-be46-4877-a9ac-34b365272c30"},"vehicle_type_id":"4","last_reported":1726326488,"current_range_meters":32000,"station_id":"","pricing_plan_id":"cebpf4jnsgd1na2vs0mg"},{"bike_id":"086ea8d8-e77a-4101-889d-b81698ca0c89","system_id":"levelo_inurba_marseille","lat":43.28414,"lon":5.34982,"is_reserved":false,"is_disabled":false,"rental_uris":{"android":"levelo://app?vid=086ea8d8-e77a-4101-889d-b81698ca0c89","ios":"levelo://app?vid=086ea8d8-e77a-4101-889d-b81698ca0c89"},"vehicle_type_id":"4","last_reported":1726326488,"current_range_meters":24000,"station_id":"ce4bhbh2rcd13ifvqepg","pricing_plan_id":"cebpf4jnsgd1na2vs0mg"},{"bike_id":"312b00c3-6c5b-440b-8745-549e9043a90d","system_id":"levelo_inurba_marseille","lat":43.27323,"lon":5.39081,"is_reserved":false,"is_disabled":false,"rental_uris":{"android":"levelo://app?vid=312b00c3-6c5b-440b-8745-549e9043a90d","ios":"levelo://app?vid=312b00c3-6c5b-440b-8745-549e9043a90d"},"vehicle_type_id":"4","last_reported":1726326488,"current_range_meters":24000,"station_id":"ce4bhgp2rcd13ifvqfe0","pricing_plan_id":"cebpf4jnsgd1na2vs0mg"},{"bike_id":"f9076aec-56e7-4b2e-a7b1-575337aca9d5","system_id":"levelo_inurba_marseille","lat":43.24175,"lon":5.36401,"is_reserved":false,"is_disabled":false,"rental_uris":{"android":"levelo://app?vid=f9076aec-56e7-4b2e-a7b1-575337aca9d5","ios":"levelo://app?vid=f9076aec-56e7-4b2e-a7b1-575337aca9d5"},"vehicle_type_id":"4","last_reported":1726326488,"current_range_meters":32800,"station_id":"cpo36qri1sfpv3e86is0","pricing_plan_id":"cebpf4jnsgd1na2vs0mg"},{"bike_id":"342c35e0-d4a8-4a6d-9049-ae3c40ce314d","system_id":"levelo_inurba_marseille","lat":43.24166,"lon":5.36398,"is_reserved":false,"is_disabled":false,"rental_uris":{"android":"levelo://app?vid=342c35e0-d4a8-4a6d-9049-ae3c40ce314d","ios":"levelo://app?vid=342c35e0-d4a8-4a6d-9049-ae3c40ce314d"},"vehicle_type_id":"4","last_reported":1726326488,"current_range_meters":20000,"station_id":"cpo36qri1sfpv3e86is0","pricing_plan_id":"cebpf4jnsgd1na2vs0mg"},{"bike_id":"9da3cfc3-76e1-45aa-bd84-0cc476fb2e0c","system_id":"levelo_inurba_marseille","lat":43.22933,"lon":5.35377,"is_reserved":false,"is_disabled":false,"rental_uris":{"android":"levelo://app?vid=9da3cfc3-76e1-45aa-bd84-0cc476fb2e0c","ios":"levelo://app?vid=9da3cfc3-76e1-45aa-bd84-0cc476fb2e0c"},"vehicle_type_id":"4","last_reported":1726326488,"current_range_meters":32400,"station_id":"cpo3532slgdg3j2ikp40","pricing_plan_id":"cebpf4jnsgd1na2vs0mg"},{"bike_id":"a4f18687-e126-425b-b639-a942cceab9e8","system_id":"levelo_inurba_marseille","lat":43.24649,"lon":5.3889,"is_reserved":false,"is_disabled":false,"rental_uris":{"android":"levelo://app?vid=a4f18687-e126-425b-b639-a942cceab9e8","ios":"levelo://app?vid=a4f18687-e126-425b-b639-a942cceab9e8"},"vehicle_type_id":"4","last_reported":1726326488,"current_range_meters":12000,"station_id":"ce4bhg12rcd13ifvqf60","pricing_plan_id":"cebpf4jnsgd1na2vs0mg"},{"bike_id":"52b809d5-f282-4606-9ac6-db674f6f8446","system_id":"levelo_inurba_marseille","lat":43.25825,"lon":5.39431,"is_reserved":false,"is_disabled":false,"rental_uris":{"android":"levelo://app?vid=52b809d5-f282-4606-9ac6-db674f6f8446","ios":"levelo://app?vid=52b809d5-f282-4606-9ac6-db674f6f8446"},"vehicle_type_id":"4","last_reported":1726326488,"current_range_meters":27600,"station_id":"ce4bhip2rcd13ifvqft0","pricing_plan_id":"cebpf4jnsgd1na2vs0mg"},{"bike_id":"103cf9f9-2f0a-447b-a31f-dbd4bc9e6e95","system_id":"levelo_inurba_marseille","lat":43.29554,"lon":5.42282,"is_reserved":false,"is_disabled":false,"rental_uris":{"android":"levelo://app?vid=103cf9f9-2f0a-447b-a31f-dbd4bc9e6e95","ios":"levelo://app?vid=103cf9f9-2f0a-447b-a31f-dbd4bc9e6e95"},"vehicle_type_id":"4","last_reported":1726326488,"current_range_meters":28800,"station_id":"ce4bhph2rcd13ifvqhdg","pricing_plan_id":"cebpf4jnsgd1na2vs0mg"},{"bike_id":"a0e127b8-f4bd-49b5-80fd-e2c563f66476","system_id":"levelo_inurba_marseille","lat":43.2318,"lon":5.39989,"is_reserved":false,"is_disabled":false,"rental_uris":{"android":"levelo://app?vid=a0e127b8-f4bd-49b5-80fd-e2c563f66476","ios":"levelo://app?vid=a0e127b8-f4bd-49b5-80fd-e2c563f66476"},"vehicle_type_id":"4","last_reported":1726326488,"current_range_meters":11600,"station_id":"ce4bhn12rcd13ifvqgqg","pricing_plan_id":"cebpf4jnsgd1na2vs0mg"},{"bike_id":"1e714fef-55b2-4d0e-a371-330963d99c08","system_id":"levelo_inurba_marseille","lat":43.25111,"lon":5.4032,"is_reserved":false,"is_disabled":false,"rental_uris":{"android":"levelo://app?vid=1e714fef-55b2-4d0e-a371-330963d99c08","ios":"levelo://app?vid=1e714fef-55b2-4d0e-a371-330963d99c08"},"vehicle_type_id":"4","last_reported":1726326488,"current_range_meters":15200,"station_id":"ce4bhlh2rcd13ifvqgig","pricing_plan_id":"cebpf4jnsgd1na2vs0mg"},{"bike_id":"f1a170e1-206d-4173-a8b9-2fdf8fb4bf79","system_id":"levelo_inurba_marseille","lat":43.297008,"lon":5.365902,"is_reserved":false,"is_disabled":false,"rental_uris":{"android":"levelo://app?vid=f1a170e1-206d-4173-a8b9-2fdf8fb4bf79","ios":"levelo://app?vid=f1a170e1-206d-4173-a8b9-2fdf8fb4bf79"},"vehicle_type_id":"4","last_reported":1726326488,"current_range_meters":2800,"station_id":"ce4bgn12rcd13ifvqbt0","pricing_plan_id":"cebpf4jnsgd1na2vs0mg"},{"bike_id":"1ebdb96e-43cc-45e3-9cf0-8270b0642f27","system_id":"levelo_inurba_marseille","lat":43.23179,"lon":5.39985,"is_reserved":false,"is_disabled":false,"rental_uris":{"android":"levelo://app?vid=1ebdb96e-43cc-45e3-9cf0-8270b0642f27","ios":"levelo://app?vid=1ebdb96e-43cc-45e3-9cf0-8270b0642f27"},"vehicle_type_id":"4","last_reported":1726326488,"current_range_meters":38800,"station_id":"ce4bhn12rcd13ifvqgqg","pricing_plan_id":"cebpf4jnsgd1na2vs0mg"},{"bike_id":"4e26d67f-3260-467d-88af-075a11ad36b7","system_id":"levelo_inurba_marseille","lat":43.29944,"lon":5.38477,"is_reserved":false,"is_disabled":false,"rental_uris":{"android":"levelo://app?vid=4e26d67f-3260-467d-88af-075a11ad36b7","ios":"levelo://app?vid=4e26d67f-3260-467d-88af-075a11ad36b7"},"vehicle_type_id":"4","last_reported":1726326488,"current_range_meters":11600,"station_id":"ce4bgj92rcd13ifvqbd0","pricing_plan_id":"cebpf4jnsgd1na2vs0mg"},{"bike_id":"d4444612-5895-4e34-948b-de1a7430f7df","system_id":"levelo_inurba_marseille","lat":43.30781,"lon":5.37652,"is_reserved":false,"is_disabled":false,"rental_uris":{"android":"levelo://app?vid=d4444612-5895-4e34-948b-de1a7430f7df","ios":"levelo://app?vid=d4444612-5895-4e34-948b-de1a7430f7df"},"vehicle_type_id":"4","last_reported":1726326488,"current_range_meters":37600,"station_id":"ce4bgv92rcd13ifvqcq0","pricing_plan_id":"cebpf4jnsgd1na2vs0mg"},{"bike_id":"18887003-152a-42a1-96d1-207f3538a507","system_id":"levelo_inurba_marseille","lat":43.29974,"lon":5.3717,"is_reserved":false,"is_disabled":false,"rental_uris":{"android":"levelo://app?vid=18887003-152a-42a1-96d1-207f3538a507","ios":"levelo://app?vid=18887003-152a-42a1-96d1-207f3538a507"},"vehicle_type_id":"4","last_reported":1726326488,"current_range_meters":37600,"station_id":"ce4bgr92rcd13ifvqc7g","pricing_plan_id":"cebpf4jnsgd1na2vs0mg"},{"bike_id":"b88f0fe4-cd7d-4509-ae58-4b9a4612c492","system_id":"levelo_inurba_marseille","lat":43.25828,"lon":5.39436,"is_reserved":false,"is_disabled":false,"rental_uris":{"android":"levelo://app?vid=b88f0fe4-cd7d-4509-ae58-4b9a4612c492","ios":"levelo://app?vid=b88f0fe4-cd7d-4509-ae58-4b9a4612c492"},"vehicle_type_id":"4","last_reported":1726326488,"current_range_meters":6400,"station_id":"ce4bhip2rcd13ifvqft0","pricing_plan_id":"cebpf4jnsgd1na2vs0mg"},{"bike_id":"45c59df1-ee6c-4c7f-a8eb-fd53f5e0724c","system_id":"levelo_inurba_marseille","lat":43.2849,"lon":5.3856,"is_reserved":false,"is_disabled":false,"rental_uris":{"android":"levelo://app?vid=45c59df1-ee6c-4c7f-a8eb-fd53f5e0724c","ios":"levelo://app?vid=45c59df1-ee6c-4c7f-a8eb-fd53f5e0724c"},"vehicle_type_id":"4","last_reported":1726326488,"current_range_meters":32000,"station_id":"ce4bh8p2rcd13ifvqeb0","pricing_plan_id":"cebpf4jnsgd1na2vs0mg"},{"bike_id":"340669ab-a788-4c33-9b84-732c1706ab20","system_id":"levelo_inurba_marseille","lat":43.28415,"lon":5.34984,"is_reserved":false,"is_disabled":false,"rental_uris":{"android":"levelo://app?vid=340669ab-a788-4c33-9b84-732c1706ab20","ios":"levelo://app?vid=340669ab-a788-4c33-9b84-732c1706ab20"},"vehicle_type_id":"4","last_reported":1726326488,"current_range_meters":19600,"station_id":"ce4bhbh2rcd13ifvqepg","pricing_plan_id":"cebpf4jnsgd1na2vs0mg"},{"bike_id":"d245c575-835b-4497-948c-e04efce39c4a","system_id":"levelo_inurba_marseille","lat":43.262024,"lon":5.379329,"is_reserved":false,"is_disabled":false,"rental_uris":{"android":"levelo://app?vid=d245c575-835b-4497-948c-e04efce39c4a","ios":"levelo://app?vid=d245c575-835b-4497-948c-e04efce39c4a"},"vehicle_type_id":"4","last_reported":1726326488,"current_range_meters":2800,"station_id":"ce4bhjp2rcd13ifvqg90","pricing_plan_id":"cebpf4jnsgd1na2vs0mg"},{"bike_id":"14290f35-956d-45c2-a0a4-feac7b7ec252","system_id":"levelo_inurba_marseille","lat":43.28612,"lon":5.35105,"is_reserved":false,"is_disabled":false,"rental_uris":{"android":"levelo://app?vid=14290f35-956d-45c2-a0a4-feac7b7ec252","ios":"levelo://app?vid=14290f35-956d-45c2-a0a4-feac7b7ec252"},"vehicle_type_id":"4","last_reported":1726326488,"current_range_meters":17600,"station_id":"ce4bhch2rcd13ifvqeug","pricing_plan_id":"cebpf4jnsgd1na2vs0mg"},{"bike_id":"af97313c-5eff-4f01-8281-7ae294759090","system_id":"levelo_inurba_marseille","lat":43.2732,"lon":5.39083,"is_reserved":false,"is_disabled":false,"rental_uris":{"android":"levelo://app?vid=af97313c-5eff-4f01-8281-7ae294759090","ios":"levelo://app?vid=af97313c-5eff-4f01-8281-7ae294759090"},"vehicle_type_id":"4","last_reported":1726326488,"current_range_meters":23200,"station_id":"ce4bhgp2rcd13ifvqfe0","pricing_plan_id":"cebpf4jnsgd1na2vs0mg"},{"bike_id":"47b913da-a851-4a2c-9b70-7296bc0501e1","system_id":"levelo_inurba_marseille","lat":43.30154,"lon":5.38084,"is_reserved":false,"is_disabled":false,"rental_uris":{"android":"levelo://app?vid=47b913da-a851-4a2c-9b70-7296bc0501e1","ios":"levelo://app?vid=47b913da-a851-4a2c-9b70-7296bc0501e1"},"vehicle_type_id":"4","last_reported":1726326488,"current_range_meters":36000,"station_id":"ce4bgjp2rcd13ifvqbh0","pricing_plan_id":"cebpf4jnsgd1na2vs0mg"},{"bike_id":"a2297e44-ed7c-404a-9891-8598306504eb","system_id":"levelo_inurba_marseille","lat":43.31724,"lon":5.42404,"is_reserved":false,"is_disabled":false,"rental_uris":{"android":"levelo://app?vid=a2297e44-ed7c-404a-9891-8598306504eb","ios":"levelo://app?vid=a2297e44-ed7c-404a-9891-8598306504eb"},"vehicle_type_id":"4","last_reported":1726326488,"current_range_meters":31200,"station_id":"ce4bhp92rcd13ifvqhbg","pricing_plan_id":"cebpf4jnsgd1na2vs0mg"},{"bike_id":"ede1d335-8396-4fe4-bd1e-8f628edf99ca","system_id":"levelo_inurba_marseille","lat":43.29024,"lon":5.38645,"is_reserved":false,"is_disabled":false,"rental_uris":{"android":"levelo://app?vid=ede1d335-8396-4fe4-bd1e-8f628edf99ca","ios":"levelo://app?vid=ede1d335-8396-4fe4-bd1e-8f628edf99ca"},"vehicle_type_id":"4","last_reported":1726326488,"current_range_meters":32400,"station_id":"ce4bh4p2rcd13ifvqe0g","pricing_plan_id":"cebpf4jnsgd1na2vs0mg"},{"bike_id":"ee5adcc2-1cbc-4bf1-8d4b-a35212621eac","system_id":"levelo_inurba_marseille","lat":43.28614,"lon":5.3511,"is_reserved":false,"is_disabled":false,"rental_uris":{"android":"levelo://app?vid=ee5adcc2-1cbc-4bf1-8d4b-a35212621eac","ios":"levelo://app?vid=ee5adcc2-1cbc-4bf1-8d4b-a35212621eac"},"vehicle_type_id":"4","last_reported":1726326488,"current_range_meters":20400,"station_id":"ce4bhch2rcd13ifvqeug","pricing_plan_id":"cebpf4jnsgd1na2vs0mg"},{"bike_id":"74f615fb-ea45-4272-9cc9-51ceb6cd2eee","system_id":"levelo_inurba_marseille","lat":43.29575,"lon":5.3997,"is_reserved":false,"is_disabled":false,"rental_uris":{"android":"levelo://app?vid=74f615fb-ea45-4272-9cc9-51ceb6cd2eee","ios":"levelo://app?vid=74f615fb-ea45-4272-9cc9-51ceb6cd2eee"},"vehicle_type_id":"4","last_reported":1726326488,"current_range_meters":10000,"station_id":"ce4bh312rcd13ifvqdj0","pricing_plan_id":"cebpf4jnsgd1na2vs0mg"},{"bike_id":"1c3b48e8-a60e-4c9c-ad13-c51c6ae47c74","system_id":"levelo_inurba_marseille","lat":43.2407,"lon":5.37763,"is_reserved":false,"is_disabled":false,"rental_uris":{"android":"levelo://app?vid=1c3b48e8-a60e-4c9c-ad13-c51c6ae47c74","ios":"levelo://app?vid=1c3b48e8-a60e-4c9c-ad13-c51c6ae47c74"},"vehicle_type_id":"4","last_reported":1726326488,"current_range_meters":24400,"station_id":"ce4bhnp2rcd13ifvqgvg","pricing_plan_id":"cebpf4jnsgd1na2vs0mg"},{"bike_id":"28f88cf3-c693-4842-a3a5-bf3c49fc64c6","system_id":"levelo_inurba_marseille","lat":43.270874,"lon":5.388236,"is_reserved":false,"is_disabled":false,"rental_uris":{"android":"levelo://app?vid=28f88cf3-c693-4842-a3a5-bf3c49fc64c6","ios":"levelo://app?vid=28f88cf3-c693-4842-a3a5-bf3c49fc64c6"},"vehicle_type_id":"4","last_reported":1726326488,"current_range_meters":10000,"station_id":"ce4bhgp2rcd13ifvqfe0","pricing_plan_id":"cebpf4jnsgd1na2vs0mg"},{"bike_id":"13e4e1f1-ca7a-4e6f-b284-520dc9687025","system_id":"levelo_inurba_marseille","lat":43.26196,"lon":5.37448,"is_reserved":false,"is_disabled":false,"rental_uris":{"android":"levelo://app?vid=13e4e1f1-ca7a-4e6f-b284-520dc9687025","ios":"levelo://app?vid=13e4e1f1-ca7a-4e6f-b284-520dc9687025"},"vehicle_type_id":"4","last_reported":1726326488,"current_range_meters":18000,"station_id":"ce4bhgp2rcd13ifvqfc0","pricing_plan_id":"cebpf4jnsgd1na2vs0mg"},{"bike_id":"328d45f9-980e-4811-97c0-47d761861509","system_id":"levelo_inurba_marseille","lat":43.29847,"lon":5.37836,"is_reserved":false,"is_disabled":false,"rental_uris":{"android":"levelo://app?vid=328d45f9-980e-4811-97c0-47d761861509","ios":"levelo://app?vid=328d45f9-980e-4811-97c0-47d761861509"},"vehicle_type_id":"4","last_reported":1726326488,"current_range_meters":32400,"station_id":"ce4bgkh2rcd13ifvqbl0","pricing_plan_id":"cebpf4jnsgd1na2vs0mg"},{"bike_id":"66617835-2d51-4af9-be86-8128bf2ff8bf","system_id":"levelo_inurba_marseille","lat":43.27212,"lon":5.39169,"is_reserved":false,"is_disabled":false,"rental_uris":{"android":"levelo://app?vid=66617835-2d51-4af9-be86-8128bf2ff8bf","ios":"levelo://app?vid=66617835-2d51-4af9-be86-8128bf2ff8bf"},"vehicle_type_id":"4","last_reported":1726326488,"current_range_meters":19600,"station_id":"ce4bhhp2rcd13ifvqfm0","pricing_plan_id":"cebpf4jnsgd1na2vs0mg"},{"bike_id":"1a551d59-8151-4f73-ad06-068d62da88a6","system_id":"levelo_inurba_marseille","lat":43.27054,"lon":5.40259,"is_reserved":false,"is_disabled":false,"rental_uris":{"android":"levelo://app?vid=1a551d59-8151-4f73-ad06-068d62da88a6","ios":"levelo://app?vid=1a551d59-8151-4f73-ad06-068d62da88a6"},"vehicle_type_id":"4","last_reported":1726326488,"current_range_meters":20000,"station_id":"ce4bhk92rcd13ifvqgc0","pricing_plan_id":"cebpf4jnsgd1na2vs0mg"},{"bike_id":"7bb4cbc1-d2eb-4b86-af66-b24e498fe7b9","system_id":"levelo_inurba_marseille","lat":43.31662,"lon":5.436244,"is_reserved":false,"is_disabled":false,"rental_uris":{"android":"levelo://app?vid=7bb4cbc1-d2eb-4b86-af66-b24e498fe7b9","ios":"levelo://app?vid=7bb4cbc1-d2eb-4b86-af66-b24e498fe7b9"},"vehicle_type_id":"4","last_reported":1726326488,"current_range_meters":11600,"station_id":"ce4bhop2rcd13ifvqh7g","pricing_plan_id":"cebpf4jnsgd1na2vs0mg"},{"bike_id":"9ef74294-1e9f-40c9-b6de-b65562b51f9f","system_id":"levelo_inurba_marseille","lat":43.29549,"lon":5.42297,"is_reserved":false,"is_disabled":false,"rental_uris":{"android":"levelo://app?vid=9ef74294-1e9f-40c9-b6de-b65562b51f9f","ios":"levelo://app?vid=9ef74294-1e9f-40c9-b6de-b65562b51f9f"},"vehicle_type_id":"4","last_reported":1726326488,"current_range_meters":40000,"station_id":"ce4bhph2rcd13ifvqhdg","pricing_plan_id":"cebpf4jnsgd1na2vs0mg"},{"bike_id":"a3be8e6b-40f9-4555-902e-7a478df35561","system_id":"levelo_inurba_marseille","lat":43.31493,"lon":5.37308,"is_reserved":false,"is_disabled":false,"rental_uris":{"android":"levelo://app?vid=a3be8e6b-40f9-4555-902e-7a478df35561","ios":"levelo://app?vid=a3be8e6b-40f9-4555-902e-7a478df35561"},"vehicle_type_id":"4","last_reported":1726326488,"current_range_meters":38400,"station_id":"ce4bgt12rcd13ifvqcd0","pricing_plan_id":"cebpf4jnsgd1na2vs0mg"},{"bike_id":"f13b6a55-c51e-4752-8381-ce395b961475","system_id":"levelo_inurba_marseille","lat":43.23149,"lon":5.43717,"is_reserved":false,"is_disabled":false,"rental_uris":{"android":"levelo://app?vid=f13b6a55-c51e-4752-8381-ce395b961475","ios":"levelo://app?vid=f13b6a55-c51e-4752-8381-ce395b961475"},"vehicle_type_id":"4","last_reported":1726326488,"current_range_meters":3600,"station_id":"ce4bhmp2rcd13ifvqgog","pricing_plan_id":"cebpf4jnsgd1na2vs0mg"},{"bike_id":"80c8e0ec-a9e8-43ab-be98-fc4a347c6347","system_id":"levelo_inurba_marseille","lat":43.29525,"lon":5.39045,"is_reserved":false,"is_disabled":false,"rental_uris":{"android":"levelo://app?vid=80c8e0ec-a9e8-43ab-be98-fc4a347c6347","ios":"levelo://app?vid=80c8e0ec-a9e8-43ab-be98-fc4a347c6347"},"vehicle_type_id":"4","last_reported":1726326488,"current_range_meters":4400,"station_id":"ce4bh3p2rcd13ifvqdp0","pricing_plan_id":"cebpf4jnsgd1na2vs0mg"},{"bike_id":"486835b6-8134-448f-b75e-2a777d1d2676","system_id":"levelo_inurba_marseille","lat":43.29702,"lon":5.36605,"is_reserved":false,"is_disabled":false,"rental_uris":{"android":"levelo://app?vid=486835b6-8134-448f-b75e-2a777d1d2676","ios":"levelo://app?vid=486835b6-8134-448f-b75e-2a777d1d2676"},"vehicle_type_id":"4","last_reported":1726326488,"current_range_meters":30400,"station_id":"ce4bgn12rcd13ifvqbt0","pricing_plan_id":"cebpf4jnsgd1na2vs0mg"},{"bike_id":"8b608b96-fedf-4511-8d4b-09bad2606e1a","system_id":"levelo_inurba_marseille","lat":43.27738,"lon":5.41134,"is_reserved":false,"is_disabled":false,"rental_uris":{"android":"levelo://app?vid=8b608b96-fedf-4511-8d4b-09bad2606e1a","ios":"levelo://app?vid=8b608b96-fedf-4511-8d4b-09bad2606e1a"},"vehicle_type_id":"4","last_reported":1726326488,"current_range_meters":26800,"station_id":"","pricing_plan_id":"cebpf4jnsgd1na2vs0mg"},{"bike_id":"0cd1c978-13e8-4405-af4b-07c5d83560a3","system_id":"levelo_inurba_marseille","lat":43.29903,"lon":5.4367,"is_reserved":false,"is_disabled":false,"rental_uris":{"android":"levelo://app?vid=0cd1c978-13e8-4405-af4b-07c5d83560a3","ios":"levelo://app?vid=0cd1c978-13e8-4405-af4b-07c5d83560a3"},"vehicle_type_id":"4","last_reported":1726326488,"current_range_meters":38000,"station_id":"ce4bhpp2rcd13ifvqhfg","pricing_plan_id":"cebpf4jnsgd1na2vs0mg"},{"bike_id":"deb2e51a-bb7b-4c9c-97c2-9209a5430f7c","system_id":"levelo_inurba_marseille","lat":43.281677,"lon":5.426886,"is_reserved":false,"is_disabled":false,"rental_uris":{"android":"levelo://app?vid=deb2e51a-bb7b-4c9c-97c2-9209a5430f7c","ios":"levelo://app?vid=deb2e51a-bb7b-4c9c-97c2-9209a5430f7c"},"vehicle_type_id":"4","last_reported":1726326488,"current_range_meters":10800,"station_id":"ce4bhnh2rcd13ifvqgug","pricing_plan_id":"cebpf4jnsgd1na2vs0mg"},{"bike_id":"271182d0-7318-4fd4-814c-db2b8265c1a9","system_id":"levelo_inurba_marseille","lat":43.24394,"lon":5.37063,"is_reserved":false,"is_disabled":false,"rental_uris":{"android":"levelo://app?vid=271182d0-7318-4fd4-814c-db2b8265c1a9","ios":"levelo://app?vid=271182d0-7318-4fd4-814c-db2b8265c1a9"},"vehicle_type_id":"4","last_reported":1726326488,"current_range_meters":33600,"station_id":"ce4bhhh2rcd13ifvqfk0","pricing_plan_id":"cebpf4jnsgd1na2vs0mg"},{"bike_id":"9d9829a5-4831-454d-ac95-b18b7da7e1e1","system_id":"levelo_inurba_marseille","lat":43.297302,"lon":5.377284,"is_reserved":false,"is_disabled":false,"rental_uris":{"android":"levelo://app?vid=9d9829a5-4831-454d-ac95-b18b7da7e1e1","ios":"levelo://app?vid=9d9829a5-4831-454d-ac95-b18b7da7e1e1"},"vehicle_type_id":"4","last_reported":1726326488,"current_range_meters":33600,"station_id":"ce4bgkh2rcd13ifvqbl0","pricing_plan_id":"cebpf4jnsgd1na2vs0mg"},{"bike_id":"d246913e-9086-45a9-adae-7db3a5306322","system_id":"levelo_inurba_marseille","lat":43.25005,"lon":5.38926,"is_reserved":false,"is_disabled":false,"rental_uris":{"android":"levelo://app?vid=d246913e-9086-45a9-adae-7db3a5306322","ios":"levelo://app?vid=d246913e-9086-45a9-adae-7db3a5306322"},"vehicle_type_id":"4","last_reported":1726326488,"current_range_meters":40000,"station_id":"ce4bhgp2rcd13ifvqfd0","pricing_plan_id":"cebpf4jnsgd1na2vs0mg"},{"bike_id":"fe11311b-42b9-45a5-92e5-e3c3445bd058","system_id":"levelo_inurba_marseille","lat":43.27321,"lon":5.39077,"is_reserved":false,"is_disabled":false,"rental_uris":{"android":"levelo://app?vid=fe11311b-42b9-45a5-92e5-e3c3445bd058","ios":"levelo://app?vid=fe11311b-42b9-45a5-92e5-e3c3445bd058"},"vehicle_type_id":"4","last_reported":1726326488,"current_range_meters":19600,"station_id":"ce4bhgp2rcd13ifvqfe0","pricing_plan_id":"cebpf4jnsgd1na2vs0mg"},{"bike_id":"3c8258fd-c525-4498-880e-db77347fd4a6","system_id":"levelo_inurba_marseille","lat":43.28412,"lon":5.34976,"is_reserved":false,"is_disabled":false,"rental_uris":{"android":"levelo://app?vid=3c8258fd-c525-4498-880e-db77347fd4a6","ios":"levelo://app?vid=3c8258fd-c525-4498-880e-db77347fd4a6"},"vehicle_type_id":"4","last_reported":1726326488,"current_range_meters":38800,"station_id":"ce4bhbh2rcd13ifvqepg","pricing_plan_id":"cebpf4jnsgd1na2vs0mg"},{"bike_id":"5e6f2599-d87c-4c20-8c72-d7c1711aa50a","system_id":"levelo_inurba_marseille","lat":43.27211,"lon":5.39188,"is_reserved":false,"is_disabled":false,"rental_uris":{"android":"levelo://app?vid=5e6f2599-d87c-4c20-8c72-d7c1711aa50a","ios":"levelo://app?vid=5e6f2599-d87c-4c20-8c72-d7c1711aa50a"},"vehicle_type_id":"4","last_reported":1726326488,"current_range_meters":6800,"station_id":"ce4bhhp2rcd13ifvqfm0","pricing_plan_id":"cebpf4jnsgd1na2vs0mg"},{"bike_id":"df7ed7e6-0315-42b6-ae72-4164ac47da73","system_id":"levelo_inurba_marseille","lat":43.30957,"lon":5.39034,"is_reserved":false,"is_disabled":false,"rental_uris":{"android":"levelo://app?vid=df7ed7e6-0315-42b6-ae72-4164ac47da73","ios":"levelo://app?vid=df7ed7e6-0315-42b6-ae72-4164ac47da73"},"vehicle_type_id":"4","last_reported":1726326488,"current_range_meters":28800,"station_id":"ce4bgup2rcd13ifvqco0","pricing_plan_id":"cebpf4jnsgd1na2vs0mg"},{"bike_id":"2fa7a912-256f-4ebe-9793-d9b6c6940c4a","system_id":"levelo_inurba_marseille","lat":43.25003,"lon":5.38924,"is_reserved":false,"is_disabled":false,"rental_uris":{"android":"levelo://app?vid=2fa7a912-256f-4ebe-9793-d9b6c6940c4a","ios":"levelo://app?vid=2fa7a912-256f-4ebe-9793-d9b6c6940c4a"},"vehicle_type_id":"4","last_reported":1726326488,"current_range_meters":27600,"station_id":"ce4bhgp2rcd13ifvqfd0","pricing_plan_id":"cebpf4jnsgd1na2vs0mg"},{"bike_id":"f14a984d-0e31-43a4-8c1e-308731fa26f8","system_id":"levelo_inurba_marseille","lat":43.31723,"lon":5.42392,"is_reserved":false,"is_disabled":false,"rental_uris":{"android":"levelo://app?vid=f14a984d-0e31-43a4-8c1e-308731fa26f8","ios":"levelo://app?vid=f14a984d-0e31-43a4-8c1e-308731fa26f8"},"vehicle_type_id":"4","last_reported":1726326488,"current_range_meters":3600,"station_id":"ce4bhp92rcd13ifvqhbg","pricing_plan_id":"cebpf4jnsgd1na2vs0mg"},{"bike_id":"890d5203-adb9-49de-9932-095ab27e8729","system_id":"levelo_inurba_marseille","lat":43.28722,"lon":5.36098,"is_reserved":false,"is_disabled":false,"rental_uris":{"android":"levelo://app?vid=890d5203-adb9-49de-9932-095ab27e8729","ios":"levelo://app?vid=890d5203-adb9-49de-9932-095ab27e8729"},"vehicle_type_id":"4","last_reported":1726326488,"current_range_meters":29600,"station_id":"cki0cbj6b192h4jlfktg","pricing_plan_id":"cebpf4jnsgd1na2vs0mg"},{"bike_id":"f0fcee64-7f47-4b64-80a3-082a233485a9","system_id":"levelo_inurba_marseille","lat":43.29867,"lon":5.39729,"is_reserved":false,"is_disabled":false,"rental_uris":{"android":"levelo://app?vid=f0fcee64-7f47-4b64-80a3-082a233485a9","ios":"levelo://app?vid=f0fcee64-7f47-4b64-80a3-082a233485a9"},"vehicle_type_id":"4","last_reported":1726326488,"current_range_meters":3200,"station_id":"ce4bh0h2rcd13ifvqd50","pricing_plan_id":"cebpf4jnsgd1na2vs0mg"},{"bike_id":"2a12dc64-c725-43c4-93e6-46f9337c91b1","system_id":"levelo_inurba_marseille","lat":43.27214,"lon":5.39179,"is_reserved":false,"is_disabled":false,"rental_uris":{"android":"levelo://app?vid=2a12dc64-c725-43c4-93e6-46f9337c91b1","ios":"levelo://app?vid=2a12dc64-c725-43c4-93e6-46f9337c91b1"},"vehicle_type_id":"4","last_reported":1726326488,"current_range_meters":27600,"station_id":"ce4bhhp2rcd13ifvqfm0","pricing_plan_id":"cebpf4jnsgd1na2vs0mg"},{"bike_id":"7b26aa1f-378d-4988-8f98-9b623eaed422","system_id":"levelo_inurba_marseille","lat":43.30883,"lon":5.3965,"is_reserved":false,"is_disabled":false,"rental_uris":{"android":"levelo://app?vid=7b26aa1f-378d-4988-8f98-9b623eaed422","ios":"levelo://app?vid=7b26aa1f-378d-4988-8f98-9b623eaed422"},"vehicle_type_id":"4","last_reported":1726326488,"current_range_meters":28800,"station_id":"ce4bh012rcd13ifvqcv0","pricing_plan_id":"cebpf4jnsgd1na2vs0mg"},{"bike_id":"5251ff69-10f4-4fdc-bf82-bac55df31f78","system_id":"levelo_inurba_marseille","lat":43.3234,"lon":5.40622,"is_reserved":false,"is_disabled":false,"rental_uris":{"android":"levelo://app?vid=5251ff69-10f4-4fdc-bf82-bac55df31f78","ios":"levelo://app?vid=5251ff69-10f4-4fdc-bf82-bac55df31f78"},"vehicle_type_id":"4","last_reported":1726326488,"current_range_meters":8400,"station_id":"ce4bhq92rcd13ifvqhjg","pricing_plan_id":"cebpf4jnsgd1na2vs0mg"},{"bike_id":"7ef87a67-8606-4275-b8dc-1d69640f55d1","system_id":"levelo_inurba_marseille","lat":43.27321,"lon":5.39083,"is_reserved":false,"is_disabled":false,"rental_uris":{"android":"levelo://app?vid=7ef87a67-8606-4275-b8dc-1d69640f55d1","ios":"levelo://app?vid=7ef87a67-8606-4275-b8dc-1d69640f55d1"},"vehicle_type_id":"4","last_reported":1726326488,"current_range_meters":38800,"station_id":"ce4bhgp2rcd13ifvqfe0","pricing_plan_id":"cebpf4jnsgd1na2vs0mg"},{"bike_id":"5773e448-b981-4035-bda6-57f33ec8252f","system_id":"levelo_inurba_marseille","lat":43.27212,"lon":5.39178,"is_reserved":false,"is_disabled":false,"rental_uris":{"android":"levelo://app?vid=5773e448-b981-4035-bda6-57f33ec8252f","ios":"levelo://app?vid=5773e448-b981-4035-bda6-57f33ec8252f"},"vehicle_type_id":"4","last_reported":1726326488,"current_range_meters":11200,"station_id":"ce4bhhp2rcd13ifvqfm0","pricing_plan_id":"cebpf4jnsgd1na2vs0mg"},{"bike_id":"83577e15-da2b-48ab-855c-aa99a7f4a9cc","system_id":"levelo_inurba_marseille","lat":43.2897,"lon":5.37836,"is_reserved":false,"is_disabled":false,"rental_uris":{"android":"levelo://app?vid=83577e15-da2b-48ab-855c-aa99a7f4a9cc","ios":"levelo://app?vid=83577e15-da2b-48ab-855c-aa99a7f4a9cc"},"vehicle_type_id":"4","last_reported":1726326488,"current_range_meters":4000,"station_id":"ce4bh9p2rcd13ifvqed0","pricing_plan_id":"cebpf4jnsgd1na2vs0mg"},{"bike_id":"3e91378b-5efd-470d-9034-58681757792d","system_id":"levelo_inurba_marseille","lat":43.3042,"lon":5.39749,"is_reserved":false,"is_disabled":false,"rental_uris":{"android":"levelo://app?vid=3e91378b-5efd-470d-9034-58681757792d","ios":"levelo://app?vid=3e91378b-5efd-470d-9034-58681757792d"},"vehicle_type_id":"4","last_reported":1726326488,"current_range_meters":27600,"station_id":"ce4bh092rcd13ifvqd20","pricing_plan_id":"cebpf4jnsgd1na2vs0mg"},{"bike_id":"1e16e455-5839-4047-981d-2a27d90df9db","system_id":"levelo_inurba_marseille","lat":43.27326,"lon":5.39088,"is_reserved":false,"is_disabled":false,"rental_uris":{"android":"levelo://app?vid=1e16e455-5839-4047-981d-2a27d90df9db","ios":"levelo://app?vid=1e16e455-5839-4047-981d-2a27d90df9db"},"vehicle_type_id":"4","last_reported":1726326488,"current_range_meters":18000,"station_id":"ce4bhgp2rcd13ifvqfe0","pricing_plan_id":"cebpf4jnsgd1na2vs0mg"},{"bike_id":"19905df6-e73e-46a1-ae96-6fdb91b17345","system_id":"levelo_inurba_marseille","lat":43.32197,"lon":5.41327,"is_reserved":false,"is_disabled":false,"rental_uris":{"android":"levelo://app?vid=19905df6-e73e-46a1-ae96-6fdb91b17345","ios":"levelo://app?vid=19905df6-e73e-46a1-ae96-6fdb91b17345"},"vehicle_type_id":"4","last_reported":1726326488,"current_range_meters":22800,"station_id":"","pricing_plan_id":"cebpf4jnsgd1na2vs0mg"},{"bike_id":"96ed7867-0607-4c51-8224-1bf3a25d693c","system_id":"levelo_inurba_marseille","lat":43.28361,"lon":5.38627,"is_reserved":false,"is_disabled":false,"rental_uris":{"android":"levelo://app?vid=96ed7867-0607-4c51-8224-1bf3a25d693c","ios":"levelo://app?vid=96ed7867-0607-4c51-8224-1bf3a25d693c"},"vehicle_type_id":"4","last_reported":1726326488,"current_range_meters":2800,"station_id":"ce4bh492rcd13ifvqdvg","pricing_plan_id":"cebpf4jnsgd1na2vs0mg"},{"bike_id":"d1ee0288-4844-44c0-8f60-1b7945ebe94c","system_id":"levelo_inurba_marseille","lat":43.27215,"lon":5.39173,"is_reserved":false,"is_disabled":false,"rental_uris":{"android":"levelo://app?vid=d1ee0288-4844-44c0-8f60-1b7945ebe94c","ios":"levelo://app?vid=d1ee0288-4844-44c0-8f60-1b7945ebe94c"},"vehicle_type_id":"4","last_reported":1726326488,"current_range_meters":33200,"station_id":"ce4bhhp2rcd13ifvqfm0","pricing_plan_id":"cebpf4jnsgd1na2vs0mg"},{"bike_id":"dd6e6a1e-5d86-4b90-abb1-f65a96ce8c4d","system_id":"levelo_inurba_marseille","lat":43.23192,"lon":5.35555,"is_reserved":false,"is_disabled":false,"rental_uris":{"android":"levelo://app?vid=dd6e6a1e-5d86-4b90-abb1-f65a96ce8c4d","ios":"levelo://app?vid=dd6e6a1e-5d86-4b90-abb1-f65a96ce8c4d"},"vehicle_type_id":"4","last_reported":1726326488,"current_range_meters":11200,"station_id":"ce4bhu92rcd13ifvqi70","pricing_plan_id":"cebpf4jnsgd1na2vs0mg"},{"bike_id":"4d757515-28a2-4279-a74e-cbdd46774cd9","system_id":"levelo_inurba_marseille","lat":43.26962,"lon":5.38632,"is_reserved":false,"is_disabled":false,"rental_uris":{"android":"levelo://app?vid=4d757515-28a2-4279-a74e-cbdd46774cd9","ios":"levelo://app?vid=4d757515-28a2-4279-a74e-cbdd46774cd9"},"vehicle_type_id":"4","last_reported":1726326488,"current_range_meters":6000,"station_id":"ce4bhh92rcd13ifvqfh0","pricing_plan_id":"cebpf4jnsgd1na2vs0mg"},{"bike_id":"7a86f285-e234-45ed-a194-b1bdfc1fdded","system_id":"levelo_inurba_marseille","lat":43.27221,"lon":5.3917,"is_reserved":false,"is_disabled":false,"rental_uris":{"android":"levelo://app?vid=7a86f285-e234-45ed-a194-b1bdfc1fdded","ios":"levelo://app?vid=7a86f285-e234-45ed-a194-b1bdfc1fdded"},"vehicle_type_id":"4","last_reported":1726326488,"current_range_meters":24400,"station_id":"ce4bhhp2rcd13ifvqfm0","pricing_plan_id":"cebpf4jnsgd1na2vs0mg"},{"bike_id":"6614a378-4828-4011-ac83-afe704cbc8fa","system_id":"levelo_inurba_marseille","lat":43.31715,"lon":5.43705,"is_reserved":false,"is_disabled":false,"rental_uris":{"android":"levelo://app?vid=6614a378-4828-4011-ac83-afe704cbc8fa","ios":"levelo://app?vid=6614a378-4828-4011-ac83-afe704cbc8fa"},"vehicle_type_id":"4","last_reported":1726326488,"current_range_meters":35600,"station_id":"ce4bhp92rcd13ifvqhcg","pricing_plan_id":"cebpf4jnsgd1na2vs0mg"},