{"last_updated":1734178621,"ttl":60,"version":"2.2","data":{"bikes":[{"bike_id":"45c22bfb-3859-46ca-bbdd-b43970628095","system_id":"levelo_inurba_marseille","lat":43.23186,"lon":5.40009,"is_reserved":false,"is_disabled":false,"rental_uris":{"android":"levelo://app?vid=45c22bfb-3859-46ca-bbdd-b43970628095","ios":"levelo://app?vid=45c22bfb-3859-46ca-bbdd-b43970628095"},"vehicle_type_id":"4","last_reported":1734178621,"current_range_meters":22400,"station_id":"ce4bhn12rcd13ifvqgqg","pricing_plan_id":"cebpf4jnsgd1na2vs0mg"},{"bike_id":"3e5d99b9-1aaf-48b9-b5fb-fb7a0b5b1ba5","system_id":"levelo_inurba_marseille","lat":43.29035,"lon":5.39232,"is_reserved":false,"is_disabled":true,"rental_uris":{"android":"levelo://app?vid=3e5d99b9-1aaf-48b9-b5fb-fb7a0b5b1ba5","ios":"levelo://app?vid=3e5d99b9-1aaf-48b9-b5fb-fb7a0b5b1ba5"},"vehicle_type_id":"4","last_reported":1734178621,"current_range_meters":0,"station_id":"","pricing_plan_id":"cebpf4jnsgd1na2vs0mg"},{"bike_id":"441216d7-ddf7-42bd-a06e-c791c7db6ef9","system_id":"levelo_inurba_marseille","lat":43.24652,"lon":5.38896,"is_reserved":false,"is_disabled":false,"rental_uris":{"android":"levelo://app?vid=441216d7-ddf7-42bd-a06e-c791c7db6ef9","ios":"levelo://app?vid=441216d7-ddf7-42bd-a06e-c791c7db6ef9"},"vehicle_type_id":"4","last_reported":1734178621,"current_range_meters":30400,"station_id":"ce4bhg12rcd13ifvqf60","pricing_plan_id":"cebpf4jnsgd1na2vs0mg"},{"bike_id":"c51100c8-6f19-4841-a7a1-cbd1fa6192e6","system_id":"levelo_inurba_marseille","lat":43.29522,"lon":5.37483,"is_reserved":false,"is_disabled":false,"rental_uris":{"android":"levelo://app?vid=c51100c8-6f19-4841-a7a1-cbd1fa6192e6","ios":"levelo://app?vid=c51100c8-6f19-4841-a7a1-cbd1fa6192e6"},"vehicle_type_id":"4","last_reported":1734178621,"current_range_meters":24800,"station_id":"ce4bgkp2rcd13ifvqbmg","pricing_plan_id":"cebpf4jnsgd1na2vs0mg"},{"bike_id":"548b71d6-57f8-4fef-ad05-d9f3c9d122d8","system_id":"levelo_inurba_marseille","lat":43.23154,"lon":5.43706,"is_reserved":false,"is_disabled":false,"rental_uris":{"android":"levelo://app?vid=548b71d6-57f8-4fef-ad05-d9f3c9d122d8","ios":"levelo://app?vid=548b71d6-57f8-4fef-ad05-d9f3c9d122d8"},"vehicle_type_id":"4","last_reported":1734178621,"current_range_meters":30800,"station_id":"ce4bhmp2rcd13ifvqgog","pricing_plan_id":"cebpf4jnsgd1na2vs0mg"},{"bike_id":"5b85565d-da8c-476d-91d7-933b2b1cf338","system_id":"levelo_inurba_marseille","lat":43.26679,"lon":5.38268,"is_reserved":false,"is_disabled":false,"rental_uris":{"android":"levelo://app?vid=5b85565d-da8c-476d-91d7-933b2b1cf338","ios":"levelo://app?vid=5b85565d-da8c-476d-91d7-933b2b1cf338"},"vehicle_type_id":"4","last_reported":1734178621,"current_range_meters":38800,"station_id":"ce4bhg92rcd13ifvqf90","pricing_plan_id":"cebpf4jnsgd1na2vs0mg"},{"bike_id":"35642114-ba9f-4cd0-9d6f-a2edaa6e597b","system_id":"levelo_inurba_marseille","lat":43.30459,"lon":5.37896,"is_reserved":false,"is_disabled":false,"rental_uris":{"android":"levelo://app?vid=35642114-ba9f-4cd0-9d6f-a2edaa6e597b","ios":"levelo://app?vid=35642114-ba9f-4cd0-9d6f-a2edaa6e597b"},"vehicle_type_id":"4","last_reported":1734178621,"current_range_meters":14000,"station_id":"ce4bgup2rcd13ifvqcn0","pricing_plan_id":"cebpf4jnsgd1na2vs0mg"},{"bike_id":"e3e2c755-2983-4a51-89a6-24322fb4142f","system_id":"levelo_inurba_marseille","lat":43.25003,"lon":5.38913,"is_reserved":false,"is_disabled":false,"rental_uris":{"android":"levelo://app?vid=e3e2c755-2983-4a51-89a6-24322fb4142f","ios":"levelo://app?vid=e3e2c755-2983-4a51-89a6-24322fb4142f"},"vehicle_type_id":"4","last_reported":1734178621,"current_range_meters":22800,"station_id":"ce4bhgp2rcd13ifvqfd0","pricing_plan_id":"cebpf4jnsgd1na2vs0mg"},{"bike_id":"8a48137c-5795-4dee-a507-4b9e73f5214f","system_id":"levelo_inurba_marseille","lat":43.26941,"lon":5.40263,"is_reserved":false,"is_disabled":false,"rental_uris":{"android":"levelo://app?vid=8a48137c-5795-4dee-a507-4b9e73f5214f","ios":"levelo://app?vid=8a48137c-5795-4dee-a507-4b9e73f5214f"},"vehicle_type_id":"4","last_reported":1734178621,"current_range_meters":13600,"station_id":"cjm6bp8fraef2m0cb0m0","pricing_plan_id":"cebpf4jnsgd1na2vs0mg"},{"bike_id":"4e22a3c2-2939-4dc9-a23e-a505298747e8","system_id":"levelo_inurba_marseille","lat":43.27827,"lon":5.40719,"is_reserved":false,"is_disabled":false,"rental_uris":{"android":"levelo://app?vid=4e22a3c2-2939-4dc9-a23e-a505298747e8","ios":"levelo://app?vid=4e22a3c2-2939-4dc9-a23e-a505298747e8"},"vehicle_type_id":"4","last_reported":1734178621,"current_range_meters":24400,"station_id":"ce4bhnh2rcd13ifvqgtg","pricing_plan_id":"cebpf4jnsgd1na2vs0mg"},{"bike_id":"d64735b9-3201-48f9-b7d1-d8bd9269830f","system_id":"levelo_inurba_marseille","lat":43.31332,"lon":5.39712,"is_reserved":false,"is_disabled":false,"rental_uris":{"android":"levelo://app?vid=d64735b9-3201-48f9-b7d1-d8bd9269830f","ios":"levelo://app?vid=d64735b9-3201-48f9-b7d1-d8bd9269830f"},"vehicle_type_id":"4","last_reported":1734178621,"current_range_meters":32000,"station_id":"ce4bgvp2rcd13ifvqcu0","pricing_plan_id":"cebpf4jnsgd1na2vs0mg"},{"bike_id":"92911da1-35ed-4153-b20b-4efa12b925ae","system_id":"levelo_inurba_marseille","lat":43.29961,"lon":5.37183,"is_reserved":false,"is_disabled":false,"rental_uris":{"android":"levelo://app?vid=92911da1-35ed-4153-b20b-4efa12b925ae","ios":"levelo://app?vid=92911da1-35ed-4153-b20b-4efa12b925ae"},"vehicle_type_id":"4","last_reported":1734178621,"current_range_meters":20000,"station_id":"ce4bgr92rcd13ifvqc7g","pricing_plan_id":"cebpf4jnsgd1na2vs0mg"},{"bike_id":"c7b061a9-1121-45e7-84c9-388975827d47","system_id":"levelo_inurba_marseille","lat":43.29976,"lon":5.38497,"is_reserved":false,"is_disabled":true,"rental_uris":{"android":"levelo://app?vid=c7b061a9-1121-45e7-84c9-388975827d47","ios":"levelo://app?vid=c7b061a9-1121-45e7-84c9-388975827d47"},"vehicle_type_id":"4","last_reported":1734178621,"current_range_meters":17600,"station_id":"ce4bgj92rcd13ifvqbd0","pricing_plan_id":"cebpf4jnsgd1na2vs0mg"},{"bike_id":"80e5c1e3-8d27-43e3-9451-b00f65b301df","system_id":"levelo_inurba_marseille","lat":43.23195,"lon":5.35583,"is_reserved":false,"is_disabled":false,"rental_uris":{"android":"levelo://app?vid=80e5c1e3-8d27-43e3-9451-b00f65b301df","ios":"levelo://app?vid=80e5c1e3-8d27-43e3-9451-b00f65b301df"},"vehicle_type_id":"4","last_reported":1734178621,"current_range_meters":38800,"station_id":"ce4bhu92rcd13ifvqi70","pricing_plan_id":"cebpf4jnsgd1na2vs0mg"},{"bike_id":"496b9119-850a-49b3-bf98-295bb079ca7c","system_id":"levelo_inurba_marseille","lat":43.28194,"lon":5.44589,"is_reserved":false,"is_disabled":false,"rental_uris":{"android":"levelo://app?vid=496b9119-850a-49b3-bf98-295bb079ca7c","ios":"levelo://app?vid=496b9119-850a-49b3-bf98-295bb079ca7c"},"vehicle_type_id":"4","last_reported":1734178621,"current_range_meters":10000,"station_id":"","pricing_plan_id":"cebpf4jnsgd1na2vs0mg"},{"bike_id":"057c20b7-bf34-40df-bd6f-93a11afceebe","system_id":"levelo_inurba_marseille","lat":43.27993,"lon":5.41663,"is_reserved":false,"is_disabled":false,"rental_uris":{"android":"levelo://app?vid=057c20b7-bf34-40df-bd6f-93a11afceebe","ios":"levelo://app?vid=057c20b7-bf34-40df-bd6f-93a11afceebe"},"vehicle_type_id":"4","last_reported":1734178621,"current_range_meters":38000,"station_id":"ce4bho12rcd13ifvqh1g","pricing_plan_id":"cebpf4jnsgd1na2vs0mg"},{"bike_id":"6ccb1b55-c0a9-46eb-8f0b-906ec7a25595","system_id":"levelo_inurba_marseille","lat":43.28265,"lon":5.35078,"is_reserved":false,"is_disabled":false,"rental_uris":{"android":"levelo://app?vid=6ccb1b55-c0a9-46eb-8f0b-906ec7a25595","ios":"levelo://app?vid=6ccb1b55-c0a9-46eb-8f0b-906ec7a25595"},"vehicle_type_id":"4","last_reported":1734178621,"current_range_meters":19600,"station_id":"ce4bhbp2rcd13ifvqerg","pricing_plan_id":"cebpf4jnsgd1na2vs0mg"},{"bike_id":"88f2033b-7e30-4fec-967e-f2db67085ede","system_id":"levelo_inurba_marseille","lat":43.34146,"lon":5.40913,"is_reserved":false,"is_disabled":false,"rental_uris":{"android":"levelo://app?vid=88f2033b-7e30-4fec-967e-f2db67085ede","ios":"levelo://app?vid=88f2033b-7e30-4fec-967e-f2db67085ede"},"vehicle_type_id":"4","last_reported":1734178621,"current_range_meters":38800,"station_id":"ce4bhqh2rcd13ifvqhlg","pricing_plan_id":"cebpf4jnsgd1na2vs0mg"},{"bike_id":"99b818db-5c5f-4f14-83e4-51243089e786","system_id":"levelo_inurba_marseille","lat":43.28256,"lon":5.35054,"is_reserved":false,"is_disabled":false,"rental_uris":{"android":"levelo://app?vid=99b818db-5c5f-4f14-83e4-51243089e786","ios":"levelo://app?vid=99b818db-5c5f-4f14-83e4-51243089e786"},"vehicle_type_id":"4","last_reported":1734178621,"current_range_meters":22400,"station_id":"ce4bhbp2rcd13ifvqerg","pricing_plan_id":"cebpf4jnsgd1na2vs0mg"},{"bike_id":"5baef8d5-cbef-415d-a7c4-3212b2dae114","system_id":"levelo_inurba_marseille","lat":43.26209,"lon":5.37444,"is_reserved":false,"is_disabled":false,"rental_uris":{"android":"levelo://app?vid=5baef8d5-cbef-415d-a7c4-3212b2dae114","ios":"levelo://app?vid=5baef8d5-cbef-415d-a7c4-3212b2dae114"},"vehicle_type_id":"4","last_reported":1734178621,"current_range_meters":38800,"station_id":"ce4bhgp2rcd13ifvqfc0","pricing_plan_id":"cebpf4jnsgd1na2vs0mg"},{"bike_id":"d5c89c1f-3bad-4af2-9449-e04c277a4696","system_id":"levelo_inurba_marseille","lat":43.29954,"lon":5.41349,"is_reserved":false,"is_disabled":true,"rental_uris":{"android":"levelo://app?vid=d5c89c1f-3bad-4af2-9449-e04c277a4696","ios":"levelo://app?vid=d5c89c1f-3bad-4af2-9449-e04c277a4696"},"vehicle_type_id":"4","last_reported":1734178621,"current_range_meters":38800,"station_id":"ce4bhp12rcd13ifvqh9g","pricing_plan_id":"cebpf4jnsgd1na2vs0mg"},{"bike_id":"890f202e-9e01-4b2f-882a-c0fde24ab815","system_id":"levelo_inurba_marseille","lat":43.29374,"lon":5.37842,"is_reserved":false,"is_disabled":false,"rental_uris":{"android":"levelo://app?vid=890f202e-9e01-4b2f-882a-c0fde24ab815","ios":"levelo://app?vid=890f202e-9e01-4b2f-882a-c0fde24ab815"},"vehicle_type_id":"4","last_reported":1734178621,"current_range_meters":26800,"station_id":"ce4bgjh2rcd13ifvqbf0","pricing_plan_id":"cebpf4jnsgd1na2vs0mg"},{"bike_id":"5dcb142e-3766-4e2c-b1fe-c9ebbc5d3c50","system_id":"levelo_inurba_marseille","lat":43.31984,"lon":5.38152,"is_reserved":false,"is_disabled":false,"rental_uris":{"android":"levelo://app?vid=5dcb142e-3766-4e2c-b1fe-c9ebbc5d3c50","ios":"levelo://app?vid=5dcb142e-3766-4e2c-b1fe-c9ebbc5d3c50"},"vehicle_type_id":"4","last_reported":1734178621,"current_range_meters":38800,"station_id":"ce4bhr12rcd13ifvqhpg","pricing_plan_id":"cebpf4jnsgd1na2vs0mg"},{"bike_id":"a7b8257e-8dd8-4089-b34c-9c18012a63d0","system_id":"levelo_inurba_marseille","lat":43.23141,"lon":5.43706,"is_reserved":false,"is_disabled":false,"rental_uris":{"android":"levelo://app?vid=a7b8257e-8dd8-4089-b34c-9c18012a63d0","ios":"levelo://app?vid=a7b8257e-8dd8-4089-b34c-9c18012a63d0"},"vehicle_type_id":"4","last_reported":1734178621,"current_range_meters":24000,"station_id":"ce4bhmp2rcd13ifvqgog","pricing_plan_id":"cebpf4jnsgd1na2vs0mg"},{"bike_id":"ba838ee3-c54d-4ede-b6cd-d1685e40e5d7","system_id":"levelo_inurba_marseille","lat":43.2318,"lon":5.39984,"is_reserved":false,"is_disabled":false,"rental_uris":{"android":"levelo://app?vid=ba838ee3-c54d-4ede-b6cd-d1685e40e5d7","ios":"levelo://app?vid=ba838ee3-c54d-4ede-b6cd-d1685e40e5d7"},"vehicle_type_id":"4","last_reported":1734178621,"current_range_meters":27200,"station_id":"ce4bhn12rcd13ifvqgqg","pricing_plan_id":"cebpf4jnsgd1na2vs0mg"},{"bike_id":"61d61022-7266-42d2-824f-90cfb73d7765","system_id":"levelo_inurba_marseille","lat":43.23056,"lon":5.35489,"is_reserved":false,"is_disabled":false,"rental_uris":{"android":"levelo://app?vid=61d61022-7266-42d2-824f-90cfb73d7765","ios":"levelo://app?vid=61d61022-7266-42d2-824f-90cfb73d7765"},"vehicle_type_id":"4","last_reported":1734178621,"current_range_meters":16400,"station_id":"","pricing_plan_id":"cebpf4jnsgd1na2vs0mg"},{"bike_id":"24ff158c-8779-4dcc-81fa-55a618b83502","system_id":"levelo_inurba_marseille","lat":43.29607,"lon":5.37685,"is_reserved":false,"is_disabled":false,"rental_uris":{"android":"levelo://app?vid=24ff158c-8779-4dcc-81fa-55a618b83502","ios":"levelo://app?vid=24ff158c-8779-4dcc-81fa-55a618b83502"},"vehicle_type_id":"4","last_reported":1734178621,"current_range_meters":24800,"station_id":"ce4bgi92rcd13ifvqb90","pricing_plan_id":"cebpf4jnsgd1na2vs0mg"},{"bike_id":"1246e6b9-1bba-43b9-9075-2687b084a677","system_id":"levelo_inurba_marseille","lat":43.2584,"lon":5.39914,"is_reserved":false,"is_disabled":false,"rental_uris":{"android":"levelo://app?vid=1246e6b9-1bba-43b9-9075-2687b084a677","ios":"levelo://app?vid=1246e6b9-1bba-43b9-9075-2687b084a677"},"vehicle_type_id":"4","last_reported":1734178621,"current_range_meters":38800,"station_id":"ce4bhl92rcd13ifvqghg","pricing_plan_id":"cebpf4jnsgd1na2vs0mg"},{"bike_id":"89276e2c-cf12-42cd-94d6-ea25c23de3f8","system_id":"levelo_inurba_marseille","lat":43.30314,"lon":5.36898,"is_reserved":false,"is_disabled":false,"rental_uris":{"android":"levelo://app?vid=89276e2c-cf12-42cd-94d6-ea25c23de3f8","ios":"levelo://app?vid=89276e2c-cf12-42cd-94d6-ea25c23de3f8"},"vehicle_type_id":"4","last_reported":1734178621,"current_range_meters":38800,"station_id":"ce4bgqh2rcd13ifvqc5g","pricing_plan_id":"cebpf4jnsgd1na2vs0mg"},{"bike_id":"4fcbc983-6f02-4c3c-8352-f29d7735eab7","system_id":"levelo_inurba_marseille","lat":43.29624,"lon":5.37719,"is_reserved":false,"is_disabled":true,"rental_uris":{"android":"levelo://app?vid=4fcbc983-6f02-4c3c-8352-f29d7735eab7","ios":"levelo://app?vid=4fcbc983-6f02-4c3c-8352-f29d7735eab7"},"vehicle_type_id":"4","last_reported":1734178621,"current_range_meters":36800,"station_id":"ce4bgi92rcd13ifvqb90","pricing_plan_id":"cebpf4jnsgd1na2vs0mg"},{"bike_id":"ff4dd77c-9815-4ceb-84fd-29a29009fea2","system_id":"levelo_inurba_marseille","lat":43.2861,"lon":5.37065,"is_reserved":false,"is_disabled":false,"rental_uris":{"android":"levelo://app?vid=ff4dd77c-9815-4ceb-84fd-29a29009fea2","ios":"levelo://app?vid=ff4dd77c-9815-4ceb-84fd-29a29009fea2"},"vehicle_type_id":"4","last_reported":1734178621,"current_range_meters":36800,"station_id":"ce4bht12rcd13ifvqi60","pricing_plan_id":"cebpf4jnsgd1na2vs0mg"},{"bike_id":"adb72e6c-6128-4ddc-a92d-faae4fed7a1d","system_id":"levelo_inurba_marseille","lat":43.30212,"lon":5.3947,"is_reserved":false,"is_disabled":false,"rental_uris":{"android":"levelo://app?vid=adb72e6c-6128-4ddc-a92d-faae4fed7a1d","ios":"levelo://app?vid=adb72e6c-6128-4ddc-a92d-faae4fed7a1d"},"vehicle_type_id":"4","last_reported":1734178621,"current_range_meters":33600,"station_id":"ce4bh0p2rcd13ifvqd70","pricing_plan_id":"cebpf4jnsgd1na2vs0mg"},{"bike_id":"78dbdccf-cd83-4aaa-aac2-c42bb3e8d303","system_id":"levelo_inurba_marseille","lat":43.27377,"lon":5.36258,"is_reserved":false,"is_disabled":false,"rental_uris":{"android":"levelo://app?vid=78dbdccf-cd83-4aaa-aac2-c42bb3e8d303","ios":"levelo://app?vid=78dbdccf-cd83-4aaa-aac2-c42bb3e8d303"},"vehicle_type_id":"4","last_reported":1734178621,"current_range_meters":35600,"station_id":"ce4bhbh2rcd13ifvqeo0","pricing_plan_id":"cebpf4jnsgd1na2vs0mg"},{"bike_id":"edaea664-24e0-4d6c-aa7a-497f5c5f88f6","system_id":"levelo_inurba_marseille","lat":43.270065,"lon":5.391565,"is_reserved":false,"is_disabled":true,"rental_uris":{"android":"levelo://app?vid=edaea664-24e0-4d6c-aa7a-497f5c5f88f6","ios":"levelo://app?vid=edaea664-24e0-4d6c-aa7a-497f5c5f88f6"},"vehicle_type_id":"4","last_reported":1734178621,"current_range_meters":0,"station_id":"","pricing_plan_id":"cebpf4jnsgd1na2vs0mg"},{"bike_id":"72ad76d7-5a2d-4089-9d42-96862758d84f","system_id":"levelo_inurba_marseille","lat":43.29525,"lon":5.39023,"is_reserved":false,"is_disabled":true,"rental_uris":{"android":"levelo://app?vid=72ad76d7-5a2d-4089-9d42-96862758d84f","ios":"levelo://app?vid=72ad76d7-5a2d-4089-9d42-96862758d84f"},"vehicle_type_id":"4","last_reported":1734178621,"current_range_meters":31200,"station_id":"ce4bh3p2rcd13ifvqdp0","pricing_plan_id":"cebpf4jnsgd1na2vs0mg"},{"bike_id":"19d39a81-af74-4d56-9ac2-862699519091","system_id":"levelo_inurba_marseille","lat":43.297,"lon":5.36623,"is_reserved":false,"is_disabled":false,"rental_uris":{"android":"levelo://app?vid=19d39a81-af74-4d56-9ac2-862699519091","ios":"levelo://app?vid=19d39a81-af74-4d56-9ac2-862699519091"},"vehicle_type_id":"4","last_reported":1734178621,"current_range_meters":27200,"station_id":"ce4bgn12rcd13ifvqbt0","pricing_plan_id":"cebpf4jnsgd1na2vs0mg"},{"bike_id":"ac5d66d6-1c74-457e-9696-36d20572e3dd","system_id":"levelo_inurba_marseille","lat":43.29295,"lon":5.37455,"is_reserved":false,"is_disabled":false,"rental_uris":{"android":"levelo://app?vid=ac5d66d6-1c74-457e-9696-36d20572e3dd","ios":"levelo://app?vid=ac5d66d6-1c74-457e-9696-36d20572e3dd"},"vehicle_type_id":"4","last_reported":1734178621,"current_range_meters":31200,"station_id":"ce4bgi12rcd13ifvqb70","pricing_plan_id":"cebpf4jnsgd1na2vs0mg"},{"bike_id":"7432c1ec-a8bd-4c18-bcc7-e2fe6bde2044","system_id":"levelo_inurba_marseille","lat":43.31116,"lon":5.37774,"is_reserved":false,"is_disabled":false,"rental_uris":{"android":"levelo://app?vid=7432c1ec-a8bd-4c18-bcc7-e2fe6bde2044","ios":"levelo://app?vid=7432c1ec-a8bd-4c18-bcc7-e2fe6bde2044"},"vehicle_type_id":"4","last_reported":1734178621,"current_range_meters":22000,"station_id":"ce4bgt92rcd13ifvqcg0","pricing_plan_id":"cebpf4jnsgd1na2vs0mg"},{"bike_id":"66331cc1-d263-487f-86ec-bf9d2260ae21","system_id":"levelo_inurba_marseille","lat":43.25856,"lon":5.39912,"is_reserved":false,"is_disabled":false,"rental_uris":{"android":"levelo://app?vid=66331cc1-d263-487f-86ec-bf9d2260ae21","ios":"levelo://app?vid=66331cc1-d263-487f-86ec-bf9d2260ae21"},"vehicle_type_id":"4","last_reported":1734178621,"current_range_meters":39200,"station_id":"ce4bhl92rcd13ifvqghg","pricing_plan_id":"cebpf4jnsgd1na2vs0mg"},{"bike_id":"e52b3f4b-e939-41e3-9f82-214e06fdae21","system_id":"levelo_inurba_marseille","lat":43.32656,"lon":5.40995,"is_reserved":false,"is_disabled":false,"rental_uris":{"android":"levelo://app?vid=e52b3f4b-e939-41e3-9f82-214e06fdae21","ios":"levelo://app?vid=e52b3f4b-e939-41e3-9f82-214e06fdae21"},"vehicle_type_id":"4","last_reported":1734178621,"current_range_meters":38800,"station_id":"ce4bhpp2rcd13ifvqhgg","pricing_plan_id":"cebpf4jnsgd1na2vs0mg"},{"bike_id":"75d005f1-a104-4287-b501-1002db049ee7","system_id":"levelo_inurba_marseille","lat":43.33715,"lon":5.39207,"is_reserved":false,"is_disabled":false,"rental_uris":{"android":"levelo://app?vid=75d005f1-a104-4287-b501-1002db049ee7","ios":"levelo://app?vid=75d005f1-a104-4287-b501-1002db049ee7"},"vehicle_type_id":"4","last_reported":1734178621,"current_range_meters":38800,"station_id":"ce4bhr92rcd13ifvqhsg","pricing_plan_id":"cebpf4jnsgd1na2vs0mg"},{"bike_id":"a7997eea-d65a-46eb-b9b1-16a5c2f34cc0","system_id":"levelo_inurba_marseille","lat":43.26211,"lon":5.37441,"is_reserved":false,"is_disabled":false,"rental_uris":{"android":"levelo://app?vid=a7997eea-d65a-46eb-b9b1-16a5c2f34cc0","ios":"levelo://app?vid=a7997eea-d65a-46eb-b9b1-16a5c2f34cc0"},"vehicle_type_id":"4","last_reported":1734178621,"current_range_meters":24000,"station_id":"ce4bhgp2rcd13ifvqfc0","pricing_plan_id":"cebpf4jnsgd1na2vs0mg"},{"bike_id":"30b7f7b0-cffb-44e8-9e23-86428fe1183d","system_id":"levelo_inurba_marseille","lat":43.23044,"lon":5.35511,"is_reserved":false,"is_disabled":false,"rental_uris":{"android":"levelo://app?vid=30b7f7b0-cffb-44e8-9e23-86428fe1183d","ios":"levelo://app?vid=30b7f7b0-cffb-44e8-9e23-86428fe1183d"},"vehicle_type_id":"4","last_reported":1734178621,"current_range_meters":35200,"station_id":"cpo3342slgdg3j2ifvpg","pricing_plan_id":"cebpf4jnsgd1na2vs0mg"},{"bike_id":"477c947b-8b78-4c54-bfa3-469a23410093","system_id":"levelo_inurba_marseille","lat":43.25818,"lon":5.39441,"is_reserved":false,"is_disabled":false,"rental_uris":{"android":"levelo://app?vid=477c947b-8b78-4c54-bfa3-469a23410093","ios":"levelo://app?vid=477c947b-8b78-4c54-bfa3-469a23410093"},"vehicle_type_id":"4","last_reported":1734178621,"current_range_meters":24000,"station_id":"ce4bhip2rcd13ifvqft0","pricing_plan_id":"cebpf4jnsgd1na2vs0mg"},{"bike_id":"c962957d-ec10-4997-96e1-a869343f922e","system_id":"levelo_inurba_marseille","lat":43.32664,"lon":5.36089,"is_reserved":false,"is_disabled":true,"rental_uris":{"android":"levelo://app?vid=c962957d-ec10-4997-96e1-a869343f922e","ios":"levelo://app?vid=c962957d-ec10-4997-96e1-a869343f922e"},"vehicle_type_id":"4","last_reported":1734178621,"current_range_meters":1200,"station_id":"","pricing_plan_id":"cebpf4jnsgd1na2vs0mg"},{"bike_id":"0aeafd43-76dd-4c4c-89ac-f53a24f3e150","system_id":"levelo_inurba_marseille","lat":43.30909,"lon":5.36848,"is_reserved":false,"is_disabled":false,"rental_uris":{"android":"levelo://app?vid=0aeafd43-76dd-4c4c-89ac-f53a24f3e150","ios":"levelo://app?vid=0aeafd43-76dd-4c4c-89ac-f53a24f3e150"},"vehicle_type_id":"4","last_reported":1734178621,"current_range_meters":30800,"station_id":"ce4bgn92rcd13ifvqbvg","pricing_plan_id":"cebpf4jnsgd1na2vs0mg"},{"bike_id":"39a6dddc-f92f-4c9f-9e0d-485a26eeb3b8","system_id":"levelo_inurba_marseille","lat":43.291,"lon":5.38294,"is_reserved":false,"is_disabled":false,"rental_uris":{"android":"levelo://app?vid=39a6dddc-f92f-4c9f-9e0d-485a26eeb3b8","ios":"levelo://app?vid=39a6dddc-f92f-4c9f-9e0d-485a26eeb3b8"},"vehicle_type_id":"4","last_reported":1734178621,"current_range_meters":39200,"station_id":"ce4bh612rcd13ifvqe6g","pricing_plan_id":"cebpf4jnsgd1na2vs0mg"},{"bike_id":"dba3791e-90b8-4cd9-8ad7-6ce408caca1d","system_id":"levelo_inurba_marseille","lat":43.29562,"lon":5.37532,"is_reserved":false,"is_disabled":false,"rental_uris":{"android":"levelo://app?vid=dba3791e-90b8-4cd9-8ad7-6ce408caca1d","ios":"levelo://app?vid=dba3791e-90b8-4cd9-8ad7-6ce408caca1d"},"vehicle_type_id":"4","last_reported":1734178621,"current_range_meters":38800,"station_id":"ce4bgh92rcd13ifvqb50","pricing_plan_id":"cebpf4jnsgd1na2vs0mg"},{"bike_id":"fe82721e-a1a0-4e44-a36d-eb22073144b8","system_id":"levelo_inurba_marseille","lat":43.30537,"lon":5.366978,"is_reserved":false,"is_disabled":false,"rental_uris":{"android":"levelo://app?vid=fe82721e-a1a0-4e44-a36d-eb22073144b8","ios":"levelo://app?vid=fe82721e-a1a0-4e44-a36d-eb22073144b8"},"vehicle_type_id":"4","last_reported":1734178621,"current_range_meters":37600,"station_id":"ce4bgrp2rcd13ifvqc9g","pricing_plan_id":"cebpf4jnsgd1na2vs0mg"},{"bike_id":"a12e5109-638c-4146-800f-6dfa622bd4ca","system_id":"levelo_inurba_marseille","lat":43.28037,"lon":5.36942,"is_reserved":false,"is_disabled":false,"rental_uris":{"android":"levelo://app?vid=a12e5109-638c-4146-800f-6dfa622bd4ca","ios":"levelo://app?vid=a12e5109-638c-4146-800f-6dfa622bd4ca"},"vehicle_type_id":"4","last_reported":1734178621,"current_range_meters":14400,"station_id":"ce4bha12rcd13ifvqef0","pricing_plan_id":"cebpf4jnsgd1na2vs0mg"},{"bike_id":"20702f7c-cc57-4e3e-8d05-7fe23854c922","system_id":"levelo_inurba_marseille","lat":43.30529,"lon":5.38425,"is_reserved":false,"is_disabled":false,"rental_uris":{"android":"levelo://app?vid=20702f7c-cc57-4e3e-8d05-7fe23854c922","ios":"levelo://app?vid=20702f7c-cc57-4e3e-8d05-7fe23854c922"},"vehicle_type_id":"4","last_reported":1734178621,"current_range_meters":20800,"station_id":"ce4bgg92rcd13ifvqb30","pricing_plan_id":"cebpf4jnsgd1na2vs0mg"},{"bike_id":"84c8d09d-029f-495e-9d43-5b6c3fbe9cba","system_id":"levelo_inurba_marseille","lat":43.29299,"lon":5.37452,"is_reserved":false,"is_disabled":false,"rental_uris":{"android":"levelo://app?vid=84c8d09d-029f-495e-9d43-5b6c3fbe9cba","ios":"levelo://app?vid=84c8d09d-029f-495e-9d43-5b6c3fbe9cba"},"vehicle_type_id":"4","last_reported":1734178621,"current_range_meters":32000,"station_id":"ce4bgi12rcd13ifvqb70","pricing_plan_id":"cebpf4jnsgd1na2vs0mg"},{"bike_id":"773210ee-d19a-4226-90f8-e420da4ce6bd","system_id":"levelo_inurba_marseille","lat":43.30249,"lon":5.40041,"is_reserved":false,"is_disabled":true,"rental_uris":{"android":"levelo://app?vid=773210ee-d19a-4226-90f8-e420da4ce6bd","ios":"levelo://app?vid=773210ee-d19a-4226-90f8-e420da4ce6bd"},"vehicle_type_id":"4","last_reported":1734178621,"current_range_meters":38800,"station_id":"ce4bgvh2rcd13ifvqcs0","pricing_plan_id":"cebpf4jnsgd1na2vs0mg"},{"bike_id":"9ad311dd-c450-4f09-933a-ef53d4559dc3","system_id":"levelo_inurba_marseille","lat":43.26979,"lon":5.3986,"is_reserved":false,"is_disabled":false,"rental_uris":{"android":"levelo://app?vid=9ad311dd-c450-4f09-933a-ef53d4559dc3","ios":"levelo://app?vid=9ad311dd-c450-4f09-933a-ef53d4559dc3"},"vehicle_type_id":"4","last_reported":1734178621,"current_range_meters":27200,"station_id":"","pricing_plan_id":"cebpf4jnsgd1na2vs0mg"},{"bike_id":"fd910433-2801-4559-9b54-94fea46239e5","system_id":"levelo_inurba_marseille","lat":43.24386,"lon":5.37057,"is_reserved":false,"is_disabled":false,"rental_uris":{"android":"levelo://app?vid=fd910433-2801-4559-9b54-94fea46239e5","ios":"levelo://app?vid=fd910433-2801-4559-9b54-94fea46239e5"},"vehicle_type_id":"4","last_reported":1734178621,"current_range_meters":27200,"station_id":"ce4bhhh2rcd13ifvqfk0","pricing_plan_id":"cebpf4jnsgd1na2vs0mg"},{"bike_id":"3787bba6-8a43-4277-afd7-a70b2fecfb32","system_id":"levelo_inurba_marseille","lat":43.27302,"lon":5.39135,"is_reserved":false,"is_disabled":false,"rental_uris":{"android":"levelo://app?vid=3787bba6-8a43-4277-afd7-a70b2fecfb32","ios":"levelo://app?vid=3787bba6-8a43-4277-afd7-a70b2fecfb32"},"vehicle_type_id":"4","last_reported":1734178621,"current_range_meters":38800,"station_id":"ce4bhgp2rcd13ifvqfe0","pricing_plan_id":"cebpf4jnsgd1na2vs0mg"},{"bike_id":"dedac0f7-8eb8-4442-83cc-8ca040e2eb9b","system_id":"levelo_inurba_marseille","lat":43.26784,"lon":5.39422,"is_reserved":false,"is_disabled":false,"rental_uris":{"android":"levelo://app?vid=dedac0f7-8eb8-4442-83cc-8ca040e2eb9b","ios":"levelo://app?vid=dedac0f7-8eb8-4442-83cc-8ca040e2eb9b"},"vehicle_type_id":"4","last_reported":1734178621,"current_range_meters":27600,"station_id":"ce4bhh12rcd13ifvqfg0","pricing_plan_id":"cebpf4jnsgd1na2vs0mg"},{"bike_id":"af67ac53-ba21-4ff0-8334-95679e9ff2cc","system_id":"levelo_inurba_marseille","lat":43.278805,"lon":5.388003,"is_reserved":false,"is_disabled":true,"rental_uris":{"android":"levelo://app?vid=af67ac53-ba21-4ff0-8334-95679e9ff2cc","ios":"levelo://app?vid=af67ac53-ba21-4ff0-8334-95679e9ff2cc"},"vehicle_type_id":"4","last_reported":1734178621,"current_range_meters":2000,"station_id":"","pricing_plan_id":"cebpf4jnsgd1na2vs0mg"},{"bike_id":"c1ae412a-6681-4523-b320-819c39a2e95e","system_id":"levelo_inurba_marseille","lat":43.29785,"lon":5.381,"is_reserved":false,"is_disabled":false,"rental_uris":{"android":"levelo://app?vid=c1ae412a-6681-4523-b320-819c39a2e95e","ios":"levelo://app?vid=c1ae412a-6681-4523-b320-819c39a2e95e"},"vehicle_type_id":"4","last_reported":1734178621,"current_range_meters":23200,"station_id":"ce4bgip2rcd13ifvqbb0","pricing_plan_id":"cebpf4jnsgd1na2vs0mg"},{"bike_id":"c499bc96-e941-4193-aad7-f22a97e8202e","system_id":"levelo_inurba_marseille","lat":43.29093,"lon":5.38162,"is_reserved":false,"is_disabled":false,"rental_uris":{"android":"levelo://app?vid=c499bc96-e941-4193-aad7-f22a97e8202e","ios":"levelo://app?vid=c499bc96-e941-4193-aad7-f22a97e8202e"},"vehicle_type_id":"4","last_reported":1734178621,"current_range_meters":8400,"station_id":"ce4bh512rcd13ifvqe2g","pricing_plan_id":"cebpf4jnsgd1na2vs0mg"},{"bike_id":"c75a632b-3700-4955-a7fc-927e2b5ea3a3","system_id":"levelo_inurba_marseille","lat":43.24173,"lon":5.39734,"is_reserved":false,"is_disabled":false,"rental_uris":{"android":"levelo://app?vid=c75a632b-3700-4955-a7fc-927e2b5ea3a3","ios":"levelo://app?vid=c75a632b-3700-4955-a7fc-927e2b5ea3a3"},"vehicle_type_id":"4","last_reported":1734178621,"current_range_meters":26000,"station_id":"ce4bhn12rcd13ifvqgpg","pricing_plan_id":"cebpf4jnsgd1na2vs0mg"},{"bike_id":"0232408d-292c-41d3-b181-663261afd040","system_id":"levelo_inurba_marseille","lat":43.27494,"lon":5.40933,"is_reserved":false,"is_disabled":false,"rental_uris":{"android":"levelo://app?vid=0232408d-292c-41d3-b181-663261afd040","ios":"levelo://app?vid=0232408d-292c-41d3-b181-663261afd040"},"vehicle_type_id":"4","last_reported":1734178621,"current_range_meters":34800,"station_id":"","pricing_plan_id":"cebpf4jnsgd1na2vs0mg"},{"bike_id":"9b4b0523-bd2e-4c02-8a7f-68d17a5c480c","system_id":"levelo_inurba_marseille","lat":43.32536,"lon":5.41462,"is_reserved":true,"is_disabled":false,"rental_uris":{"android":"levelo://app?vid=9b4b0523-bd2e-4c02-8a7f-68d17a5c480c","ios":"levelo://app?vid=9b4b0523-bd2e-4c02-8a7f-68d17a5c480c"},"vehicle_type_id":"4","last_reported":1734178621,"current_range_meters":37600,"station_id":"ce4bhq12rcd13ifvqhhg","pricing_plan_id":"cebpf4jnsgd1na2vs0mg"},{"bike_id":"70e5d0d5-b07e-4ec6-8f71-19498a066626","system_id":"levelo_inurba_marseille","lat":43.30951,"lon":5.3904,"is_reserved":false,"is_disabled":false,"rental_uris":{"android":"levelo://app?vid=70e5d0d5-b07e-4ec6-8f71-19498a066626","ios":"levelo://app?vid=70e5d0d5-b07e-4ec6-8f71-19498a066626"},"vehicle_type_id":"4","last_reported":1734178621,"current_range_meters":25200,"station_id":"ce4bgup2rcd13ifvqco0","pricing_plan_id":"cebpf4jnsgd1na2vs0mg"},{"bike_id":"d65fcea9-51ba-41f0-86fd-e798dfdd6f09","system_id":"levelo_inurba_marseille","lat":43.28697,"lon":5.38309,"is_reserved":false,"is_disabled":true,"rental_uris":{"android":"levelo://app?vid=d65fcea9-51ba-41f0-86fd-e798dfdd6f09","ios":"levelo://app?vid=d65fcea9-51ba-41f0-86fd-e798dfdd6f09"},"vehicle_type_id":"4","last_reported":1734178621,"current_range_meters":0,"station_id":"","pricing_plan_id":"cebpf4jnsgd1na2vs0mg"},{"bike_id":"066d4b67-889e-489c-9d7b-bed75ec6880d","system_id":"levelo_inurba_marseille","lat":43.29571,"lon":5.37522,"is_reserved":false,"is_disabled":false,"rental_uris":{"android":"levelo://app?vid=066d4b67-889e-489c-9d7b-bed75ec6880d","ios":"levelo://app?vid=066d4b67-889e-489c-9d7b-bed75ec6880d"},"vehicle_type_id":"4","last_reported":1734178621,"current_range_meters":16000,"station_id":"ce4bgh92rcd13ifvqb50","pricing_plan_id":"cebpf4jnsgd1na2vs0mg"},{"bike_id":"73f4bb3e-cb3f-4053-aec8-a4dd16a5364e","system_id":"levelo_inurba_marseille","lat":43.29513,"lon":5.3942,"is_reserved":false,"is_disabled":true,"rental_uris":{"android":"levelo://app?vid=73f4bb3e-cb3f-4053-aec8-a4dd16a5364e","ios":"levelo://app?vid=73f4bb3e-cb3f-4053-aec8-a4dd16a5364e"},"vehicle_type_id":"4","last_reported":1734178621,"current_range_meters":36800,"station_id":"ce4bh292rcd13ifvqdf0","pricing_plan_id":"cebpf4jnsgd1na2vs0mg"},{"bike_id":"6ce34af6-c1ad-476d-a99d-f5cfdf92650e","system_id":"levelo_inurba_marseille","lat":43.27978,"lon":5.41682,"is_reserved":false,"is_disabled":false,"rental_uris":{"android":"levelo://app?vid=6ce34af6-c1ad-476d-a99d-f5cfdf92650e","ios":"levelo://app?vid=6ce34af6-c1ad-476d-a99d-f5cfdf92650e"},"vehicle_type_id":"4","last_reported":1734178621,"current_range_meters":36800,"station_id":"ce4bho12rcd13ifvqh1g","pricing_plan_id":"cebpf4jnsgd1na2vs0mg"},{"bike_id":"e5007d7d-30da-4cfd-a7f0-3df2adfbe187","system_id":"levelo_inurba_marseille","lat":43.2976,"lon":5.38975,"is_reserved":false,"is_disabled":false,"rental_uris":{"android":"levelo://app?vid=e5007d7d-30da-4cfd-a7f0-3df2adfbe187","ios":"levelo://app?vid=e5007d7d-30da-4cfd-a7f0-3df2adfbe187"},"vehicle_type_id":"4","last_reported":1734178621,"current_range_meters":17200,"station_id":"","pricing_plan_id":"cebpf4jnsgd1na2vs0mg"},{"bike_id":"621d72ce-78e0-4f2a-accb-0f59590e0fa4","system_id":"levelo_inurba_marseille","lat":43.3012,"lon":5.38095,"is_reserved":false,"is_disabled":false,"rental_uris":{"android":"levelo://app?vid=621d72ce-78e0-4f2a-accb-0f59590e0fa4","ios":"levelo://app?vid=621d72ce-78e0-4f2a-accb-0f59590e0fa4"},"vehicle_type_id":"4","last_reported":1734178621,"current_range_meters":25600,"station_id":"ce4bgjp2rcd13ifvqbh0","pricing_plan_id":"cebpf4jnsgd1na2vs0mg"},{"bike_id":"64203de9-e72b-4d66-9a84-7a315c7ed37f","system_id":"levelo_inurba_marseille","lat":43.29373,"lon":5.37441,"is_reserved":false,"is_disabled":true,"rental_uris":{"android":"levelo://app?vid=64203de9-e72b-4d66-9a84-7a315c7ed37f","ios":"levelo://app?vid=64203de9-e72b-4d66-9a84-7a315c7ed37f"},"vehicle_type_id":"4","last_reported":1734178621,"current_range_meters":0,"station_id":"","pricing_plan_id":"cebpf4jnsgd1na2vs0mg"},{"bike_id":"602691e9-aa8f-4050-8786-0cd653596410","system_id":"levelo_inurba_marseille","lat":43.31224,"lon":5.36887,"is_reserved":false,"is_disabled":false,"rental_uris":{"android":"levelo://app?vid=602691e9-aa8f-4050-8786-0cd653596410","ios":"levelo://app?vid=602691e9-aa8f-4050-8786-0cd653596410"},"vehicle_type_id":"4","last_reported":1734178621,"current_range_meters":37600,"station_id":"ce4bgl92rcd13ifvqbq0","pricing_plan_id":"cebpf4jnsgd1na2vs0mg"},{"bike_id":"ad4f09d0-c364-4c53-8418-e8f3941491bf","system_id":"levelo_inurba_marseille","lat":43.31117,"lon":5.37782,"is_reserved":false,"is_disabled":false,"rental_uris":{"android":"levelo://app?vid=ad4f09d0-c364-4c53-8418-e8f3941491bf","ios":"levelo://app?vid=ad4f09d0-c364-4c53-8418-e8f3941491bf"},"vehicle_type_id":"4","last_reported":1734178621,"current_range_meters":19200,"station_id":"ce4bgt92rcd13ifvqcg0","pricing_plan_id":"cebpf4jnsgd1na2vs0mg"},{"bike_id":"c6335399-6c9e-42a4-90cb-a0b5ecb13295","system_id":"levelo_inurba_marseille","lat":43.247893,"lon":5.374643,"is_reserved":false,"is_disabled":false,"rental_uris":{"android":"levelo://app?vid=c6335399-6c9e-42a4-90cb-a0b5ecb13295","ios":"levelo://app?vid=c6335399-6c9e-42a4-90cb-a0b5ecb13295"},"vehicle_type_id":"4","last_reported":1734178621,"current_range_meters":38800,"station_id":"ce4bhgh2rcd13ifvqfb0","pricing_plan_id":"cebpf4jnsgd1na2vs0mg"},{"bike_id":"59cb688d-2573-48e7-a8a2-80b23957be28","system_id":"levelo_inurba_marseille","lat":43.28151,"lon":5.42636,"is_reserved":false,"is_disabled":false,"rental_uris":{"android":"levelo://app?vid=59cb688d-2573-48e7-a8a2-80b23957be28","ios":"levelo://app?vid=59cb688d-2573-48e7-a8a2-80b23957be28"},"vehicle_type_id":"4","last_reported":1734178621,"current_range_meters":5600,"station_id":"ce4bhnh2rcd13ifvqgug","pricing_plan_id":"cebpf4jnsgd1na2vs0mg"},{"bike_id":"4affb114-42a6-4277-adbc-6264935eaf9d","system_id":"levelo_inurba_marseille","lat":43.30518,"lon":5.36548,"is_reserved":false,"is_disabled":false,"rental_uris":{"android":"levelo://app?vid=4affb114-42a6-4277-adbc-6264935eaf9d","ios":"levelo://app?vid=4affb114-42a6-4277-adbc-6264935eaf9d"},"vehicle_type_id":"4","last_reported":1734178621,"current_range_meters":36000,"station_id":"","pricing_plan_id":"cebpf4jnsgd1na2vs0mg"},{"bike_id":"f751d01e-b97c-4606-afb5-56be026ee7fc","system_id":"levelo_inurba_marseille","lat":43.29567,"lon":5.37519,"is_reserved":false,"is_disabled":false,"rental_uris":{"android":"levelo://app?vid=f751d01e-b97c-4606-afb5-56be026ee7fc","ios":"levelo://app?vid=f751d01e-b97c-4606-afb5-56be026ee7fc"},"vehicle_type_id":"4","last_reported":1734178621,"current_range_meters":38800,"station_id":"ce4bgh92rcd13ifvqb50","pricing_plan_id":"cebpf4jnsgd1na2vs0mg"},{"bike_id":"026dd4c7-4406-4e4d-a440-050931a9adf6","system_id":"levelo_inurba_marseille","lat":43.26778,"lon":5.39414,"is_reserved":false,"is_disabled":false,"rental_uris":{"android":"levelo://app?vid=026dd4c7-4406-4e4d-a440-050931a9adf6","ios":"levelo://app?vid=026dd4c7-4406-4e4d-a440-050931a9adf6"},"vehicle_type_id":"4","last_reported":1734178621,"current_range_meters":34800,"station_id":"ce4bhh12rcd13ifvqfg0","pricing_plan_id":"cebpf4jnsgd1na2vs0mg"},{"bike_id":"8f3ac92d-1651-4772-899e-a1e56620faea","system_id":"levelo_inurba_marseille","lat":43.23964,"lon":5.36624,"is_reserved":false,"is_disabled":false,"rental_uris":{"android":"levelo://app?vid=8f3ac92d-1651-4772-899e-a1e56620faea","ios":"levelo://app?vid=8f3ac92d-1651-4772-899e-a1e56620faea"},"vehicle_type_id":"4","last_reported":1734178621,"current_range_meters":30000,"station_id":"ce4bhi12rcd13ifvqfp0","pricing_plan_id":"cebpf4jnsgd1na2vs0mg"},{"bike_id":"9e537004-7250-4650-9370-76464cbe54e8","system_id":"levelo_inurba_marseille","lat":43.24178,"lon":5.39735,"is_reserved":false,"is_disabled":false,"rental_uris":{"android":"levelo://app?vid=9e537004-7250-4650-9370-76464cbe54e8","ios":"levelo://app?vid=9e537004-7250-4650-9370-76464cbe54e8"},"vehicle_type_id":"4","last_reported":1734178621,"current_range_meters":37600,"station_id":"ce4bhn12rcd13ifvqgpg","pricing_plan_id":"cebpf4jnsgd1na2vs0mg"},{"bike_id":"5740ae4c-fd14-4007-b1d1-410c1440e7bc","system_id":"levelo_inurba_marseille","lat":43.2731,"lon":5.39073,"is_reserved":false,"is_disabled":false,"rental_uris":{"android":"levelo://app?vid=5740ae4c-fd14-4007-b1d1-410c1440e7bc","ios":"levelo://app?vid=5740ae4c-fd14-4007-b1d1-410c1440e7bc"},"vehicle_type_id":"4","last_reported":1734178621,"current_range_meters":38800,"station_id":"ce4bhgp2rcd13ifvqfe0","pricing_plan_id":"cebpf4jnsgd1na2vs0mg"},{"bike_id":"6f9ded0b-b0f0-4763-8a9f-3b4a533a2c57","system_id":"levelo_inurba_marseille","lat":43.29892,"lon":5.43675,"is_reserved":false,"is_disabled":false,"rental_uris":{"android":"levelo://app?vid=6f9ded0b-b0f0-4763-8a9f-3b4a533a2c57","ios":"levelo://app?vid=6f9ded0b-b0f0-4763-8a9f-3b4a533a2c57"},"vehicle_type_id":"4","last_reported":1734178621,"current_range_meters":30000,"station_id":"ce4bhpp2rcd13ifvqhfg","pricing_plan_id":"cebpf4jnsgd1na2vs0mg"},{"bike_id":"b948092c-9ab4-45a3-af33-669f10a0ca1c","system_id":"levelo_inurba_marseille","lat":43.24797,"lon":5.37467,"is_reserved":false,"is_disabled":false,"rental_uris":{"android":"levelo://app?vid=b948092c-9ab4-45a3-af33-669f10a0ca1c","ios":"levelo://app?vid=b948092c-9ab4-45a3-af33-669f10a0ca1c"},"vehicle_type_id":"4","last_reported":1734178621,"current_range_meters":33200,"station_id":"ce4bhgh2rcd13ifvqfb0","pricing_plan_id":"cebpf4jnsgd1na2vs0mg"},{"bike_id":"07154a6e-1aad-4b6f-8cd5-49a1da2b8e24","system_id":"levelo_inurba_marseille","lat":43.2314,"lon":5.43714,"is_reserved":false,"is_disabled":false,"rental_uris":{"android":"levelo://app?vid=07154a6e-1aad-4b6f-8cd5-49a1da2b8e24","ios":"levelo://app?vid=07154a6e-1aad-4b6f-8cd5-49a1da2b8e24"},"vehicle_type_id":"4","last_reported":1734178621,"current_range_meters":27200,"station_id":"ce4bhmp2rcd13ifvqgog","pricing_plan_id":"cebpf4jnsgd1na2vs0mg"},{"bike_id":"818ef841-d8c0-4c92-9c0c-4a12654cda95","system_id":"levelo_inurba_marseille","lat":43.30583,"lon":5.3723,"is_reserved":false,"is_disabled":false,"rental_uris":{"android":"levelo://app?vid=818ef841-d8c0-4c92-9c0c-4a12654cda95","ios":"levelo://app?vid=818ef841-d8c0-4c92-9c0c-4a12654cda95"},"vehicle_type_id":"4","last_reported":1734178621,"current_range_meters":26000,"station_id":"ce4bgqh2rcd13ifvqc4g","pricing_plan_id":"cebpf4jnsgd1na2vs0mg"},{"bike_id":"c749d8c7-37c7-454d-bb2b-35153119327b","system_id":"levelo_inurba_marseille","lat":43.31114,"lon":5.37776,"is_reserved":false,"is_disabled":false,"rental_uris":{"android":"levelo://app?vid=c749d8c7-37c7-454d-bb2b-35153119327b","ios":"levelo://app?vid=c749d8c7-37c7-454d-bb2b-35153119327b"},"vehicle_type_id":"4","last_reported":1734178621,"current_range_meters":7200,"station_id":"ce4bgt92rcd13ifvqcg0","pricing_plan_id":"cebpf4jnsgd1na2vs0mg"},{"bike_id":"08cbdfac-3be1-46bf-a8b8-d6e51237a7ef","system_id":"levelo_inurba_marseille","lat":43.30545,"lon":5.3654,"is_reserved":false,"is_disabled":false,"rental_uris":{"android":"levelo://app?vid=08cbdfac-3be1-46bf-a8b8-d6e51237a7ef","ios":"levelo://app?vid=08cbdfac-3be1-46bf-a8b8-d6e51237a7ef"},"vehicle_type_id":"4","last_reported":1734178621,"current_range_meters":17600,"station_id":"ce4bgs12rcd13ifvqcag","pricing_plan_id":"cebpf4jnsgd1na2vs0mg"},{"bike_id":"cb88792c-61e1-45a7-8354-2daa848fb721","system_id":"levelo_inurba_marseille","lat":43.29559,"lon":5.37524,"is_reserved":false,"is_disabled":false,"rental_uris":{"android":"levelo://app?vid=cb88792c-61e1-45a7-8354-2daa848fb721","ios":"levelo://app?vid=cb88792c-61e1-45a7-8354-2daa848fb721"},"vehicle_type_id":"4","last_reported":1734178621,"current_range_meters":38800,"station_id":"ce4bgh92rcd13ifvqb50","pricing_plan_id":"cebpf4jnsgd1na2vs0mg"},{"bike_id":"b840ac17-8d85-44e5-b7e6-ff2b1798dd19","system_id":"levelo_inurba_marseille","lat":43.28056,"lon":5.36949,"is_reserved":false,"is_disabled":false,"rental_uris":{"android":"levelo://app?vid=b840ac17-8d85-44e5-b7e6-ff2b1798dd19","ios":"levelo://app?vid=b840ac17-8d85-44e5-b7e6-ff2b1798dd19"},"vehicle_type_id":"4","last_reported":1734178621,"current_range_meters":37600,"station_id":"ce4bha12rcd13ifvqef0","pricing_plan_id":"cebpf4jnsgd1na2vs0mg"},{"bike_id":"f5fd42bb-ee05-4bb3-a88a-3cdb1ac1d3ea","system_id":"levelo_inurba_marseille","lat":43.25802,"lon":5.39429,"is_reserved":false,"is_disabled":false,"rental_uris":{"android":"levelo://app?vid=f5fd42bb-ee05-4bb3-a88a-3cdb1ac1d3ea","ios":"levelo://app?vid=f5fd42bb-ee05-4bb3-a88a-3cdb1ac1d3ea"},"vehicle_type_id":"4","last_reported":1734178621,"current_range_meters":32400,"station_id":"ce4bhip2rcd13ifvqft0","pricing_plan_id":"cebpf4jnsgd1na2vs0mg"},{"bike_id":"80dabeea-0e35-400b-b5f6-b7b8f185fe7b","system_id":"levelo_inurba_marseille","lat":43.28445,"lon":5.39202,"is_reserved":false,"is_disabled":false,"rental_uris":{"android":"levelo://app?vid=80dabeea-0e35-400b-b5f6-b7b8f185fe7b","ios":"levelo://app?vid=80dabeea-0e35-400b-b5f6-b7b8f185fe7b"},"vehicle_type_id":"4","last_reported":1734178621,"current_range_meters":37600,"station_id":"ce4bhoh2rcd13ifvqh5g","pricing_plan_id":"cebpf4jnsgd1na2vs0mg"},{"bike_id":"36e7715c-0532-437d-93a8-73af0c444d6a","system_id":"levelo_inurba_marseille","lat":43.30548,"lon":5.36548,"is_reserved":false,"is_disabled":false,"rental_uris":{"android":"levelo://app?vid=36e7715c-0532-437d-93a8-73af0c444d6a","ios":"levelo://app?vid=36e7715c-0532-437d-93a8-73af0c444d6a"},"vehicle_type_id":"4","last_reported":1734178621,"current_range_meters":36000,"station_id":"ce4bgs12rcd13ifvqcag","pricing_plan_id":"cebpf4jnsgd1na2vs0mg"},{"bike_id":"28fc90b9-3e7b-4c11-b6c2-40d95902dadd","system_id":"levelo_inurba_marseille","lat":43.22932,"lon":5.3537,"is_reserved":false,"is_disabled":false,"rental_uris":{"android":"levelo://app?vid=28fc90b9-3e7b-4c11-b6c2-40d95902dadd","ios":"levelo://app?vid=28fc90b9-3e7b-4c11-b6c2-40d95902dadd"},"vehicle_type_id":"4","last_reported":1734178621,"current_range_meters":38800,"station_id":"cpo3532slgdg3j2ikp40","pricing_plan_id":"cebpf4jnsgd1na2vs0mg"},{"bike_id":"c5f43db4-45bc-418e-bac1-46135460304e","system_id":"levelo_inurba_marseille","lat":43.30414,"lon":5.41291,"is_reserved":false,"is_disabled":false,"rental_uris":{"android":"levelo://app?vid=c5f43db4-45bc-418e-bac1-46135460304e","ios":"levelo://app?vid=c5f43db4-45bc-418e-bac1-46135460304e"},"vehicle_type_id":"4","last_reported":1734178621,"current_range_meters":31200,"station_id":"","pricing_plan_id":"cebpf4jnsgd1na2vs0mg"},{"bike_id":"c8c2d36f-de38-4457-b47d-4e919241ec53","system_id":"levelo_inurba_marseille","lat":43.27972,"lon":5.38751,"is_reserved":false,"is_disabled":false,"rental_uris":{"android":"levelo://app?vid=c8c2d36f-de38-4457-b47d-4e919241ec53","ios":"levelo://app?vid=c8c2d36f-de38-4457-b47d-4e919241ec53"},"vehicle_type_id":"4","last_reported":1734178621,"current_range_meters":38800,"station_id":"ce4bhg12rcd13ifvqf80","pricing_plan_id":"cebpf4jnsgd1na2vs0mg"},{"bike_id":"6aadc0dd-d854-4c08-9c03-8083806fe54c","system_id":"levelo_inurba_marseille","lat":43.27367,"lon":5.36261,"is_reserved":false,"is_disabled":false,"rental_uris":{"android":"levelo://app?vid=6aadc0dd-d854-4c08-9c03-8083806fe54c","ios":"levelo://app?vid=6aadc0dd-d854-4c08-9c03-8083806fe54c"},"vehicle_type_id":"4","last_reported":1734178621,"current_range_meters":30800,"station_id":"ce4bhbh2rcd13ifvqeo0","pricing_plan_id":"cebpf4jnsgd1na2vs0mg"},{"bike_id":"eb1496f4-67ed-47fd-8660-60023378367f","system_id":"levelo_inurba_marseille","lat":43.294212,"lon":5.374322,"is_reserved":false,"is_disabled":true,"rental_uris":{"android":"levelo://app?vid=eb1496f4-67ed-47fd-8660-60023378367f","ios":"levelo://app?vid=eb1496f4-67ed-47fd-8660-60023378367f"},"vehicle_type_id":"4","last_reported":1734178621,"current_range_meters":0,"station_id":"","pricing_plan_id":"cebpf4jnsgd1na2vs0mg"},{"bike_id":"31c7c931-55e2-482c-9ee5-63e523f58659","system_id":"levelo_inurba_marseille","lat":43.29993,"lon":5.37199,"is_reserved":false,"is_disabled":false,"rental_uris":{"android":"levelo://app?vid=31c7c931-55e2-482c-9ee5-63e523f58659","ios":"levelo://app?vid=31c7c931-55e2-482c-9ee5-63e523f58659"},"vehicle_type_id":"4","last_reported":1734178621,"current_range_meters":8000,"station_id":"ce4bgr92rcd13ifvqc7g","pricing_plan_id":"cebpf4jnsgd1na2vs0mg"},{"bike_id":"faf7cbfc-5a3b-4c27-83a7-aaa310de447c","system_id":"levelo_inurba_marseille","lat":43.27206,"lon":5.3919,"is_reserved":false,"is_disabled":false,"rental_uris":{"android":"levelo://app?vid=faf7cbfc-5a3b-4c27-83a7-aaa310de447c","ios":"levelo://app?vid=faf7cbfc-5a3b-4c27-83a7-aaa310de447c"},"vehicle_type_id":"4","last_reported":1734178621,"current_range_meters":33200,"station_id":"ce4bhhp2rcd13ifvqfm0","pricing_plan_id":"cebpf4jnsgd1na2vs0mg"},{"bike_id":"f959f7f5-71c3-41fe-b107-12c59d02cbd0","system_id":"levelo_inurba_marseille","lat":43.31201,"lon":5.36915,"is_reserved":false,"is_disabled":false,"rental_uris":{"android":"levelo://app?vid=f959f7f5-71c3-41fe-b107-12c59d02cbd0","ios":"levelo://app?vid=f959f7f5-71c3-41fe-b107-12c59d02cbd0"},"vehicle_type_id":"4","last_reported":1734178621,"current_range_meters":25600,"station_id":"","pricing_plan_id":"cebpf4jnsgd1na2vs0mg"},{"bike_id":"a2e3bf37-f1e5-4b35-adeb-0da3e0fe69d3","system_id":"levelo_inurba_marseille","lat":43.2863,"lon":5.38617,"is_reserved":false,"is_disabled":true,"rental_uris":{"android":"levelo://app?vid=a2e3bf37-f1e5-4b35-adeb-0da3e0fe69d3","ios":"levelo://app?vid=a2e3bf37-f1e5-4b35-adeb-0da3e0fe69d3"},"vehicle_type_id":"4","last_reported":1734178621,"current_range_meters":0,"station_id":"","pricing_plan_id":"cebpf4jnsgd1na2vs0mg"},{"bike_id":"7598c6ce-cf6e-4fb0-841c-5c5c2ee94d30","system_id":"levelo_inurba_marseille","lat":43.23136,"lon":5.43721,"is_reserved":false,"is_disabled":false,"rental_uris":{"android":"levelo://app?vid=7598c6ce-cf6e-4fb0-841c-5c5c2ee94d30","ios":"levelo://app?vid=7598c6ce-cf6e-4fb0-841c-5c5c2ee94d30"},"vehicle_type_id":"4","last_reported":1734178621,"current_range_meters":27200,"station_id":"ce4bhmp2rcd13ifvqgog","pricing_plan_id":"cebpf4jnsgd1na2vs0mg"},{"bike_id":"d9f77b6f-8412-4ea2-94ba-d68273ccc8f2","system_id":"levelo_inurba_marseille","lat":43.29791,"lon":5.38084,"is_reserved":false,"is_disabled":false,"rental_uris":{"android":"levelo://app?vid=d9f77b6f-8412-4ea2-94ba-d68273ccc8f2","ios":"levelo://app?vid=d9f77b6f-8412-4ea2-94ba-d68273ccc8f2"},"vehicle_type_id":"4","last_reported":1734178621,"current_range_meters":24800,"station_id":"ce4bgip2rcd13ifvqbb0","pricing_plan_id":"cebpf4jnsgd1na2vs0mg"},{"bike_id":"e9fb4c62-7ef5-419f-8461-09e5b0d9f96c","system_id":"levelo_inurba_marseille","lat":43.30896,"lon":5.37218,"is_reserved":false,"is_disabled":false,"rental_uris":{"android":"levelo://app?vid=e9fb4c62-7ef5-419f-8461-09e5b0d9f96c","ios":"levelo://app?vid=e9fb4c62-7ef5-419f-8461-09e5b0d9f96c"},"vehicle_type_id":"4","last_reported":1734178621,"current_range_meters":32000,"station_id":"ce4bguh2rcd13ifvqckg","pricing_plan_id":"cebpf4jnsgd1na2vs0mg"},{"bike_id":"ec927667-9164-479a-b446-395f55c955bb","system_id":"levelo_inurba_marseille","lat":43.22914,"lon":5.35376,"is_reserved":false,"is_disabled":false,"rental_uris":{"android":"levelo://app?vid=ec927667-9164-479a-b446-395f55c955bb","ios":"levelo://app?vid=ec927667-9164-479a-b446-395f55c955bb"},"vehicle_type_id":"4","last_reported":1734178621,"current_range_meters":38400,"station_id":"cpo3532slgdg3j2ikp40","pricing_plan_id":"cebpf4jnsgd1na2vs0mg"},{"bike_id":"23da8d2b-06c4-4399-92fc-c81ae6a0511c","system_id":"levelo_inurba_marseille","lat":43.33718,"lon":5.39179,"is_reserved":false,"is_disabled":false,"rental_uris":{"android":"levelo://app?vid=23da8d2b-06c4-4399-92fc-c81ae6a0511c","ios":"levelo://app?vid=23da8d2b-06c4-4399-92fc-c81ae6a0511c"},"vehicle_type_id":"4","last_reported":1734178621,"current_range_meters":24400,"station_id":"ce4bhr92rcd13ifvqhsg","pricing_plan_id":"cebpf4jnsgd1na2vs0mg"},{"bike_id":"75309d62-31ad-4799-9f50-95f09798eef2","system_id":"levelo_inurba_marseille","lat":43.30634,"lon":5.37337,"is_reserved":false,"is_disabled":false,"rental_uris":{"android":"levelo://app?vid=75309d62-31ad-4799-9f50-95f09798eef2","ios":"levelo://app?vid=75309d62-31ad-4799-9f50-95f09798eef2"},"vehicle_type_id":"4","last_reported":1734178621,"current_range_meters":8000,"station_id":"ce4bgup2rcd13ifvqcn0","pricing_plan_id":"cebpf4jnsgd1na2vs0mg"},{"bike_id":"e171553a-d499-40c6-b158-4c1c9a0d09dc","system_id":"levelo_inurba_marseille","lat":43.27164,"lon":5.41012,"is_reserved":false,"is_disabled":false,"rental_uris":{"android":"levelo://app?vid=e171553a-d499-40c6-b158-4c1c9a0d09dc","ios":"levelo://app?vid=e171553a-d499-40c6-b158-4c1c9a0d09dc"},"vehicle_type_id":"4","last_reported":1734178621,"current_range_meters":38800,"station_id":"ce4bhl12rcd13ifvqgf0","pricing_plan_id":"cebpf4jnsgd1na2vs0mg"},{"bike_id":"a02bce7c-288c-46c0-a9fd-8aa8e0178c35","system_id":"levelo_inurba_marseille","lat":43.23186,"lon":5.35574,"is_reserved":false,"is_disabled":false,"rental_uris":{"android":"levelo://app?vid=a02bce7c-288c-46c0-a9fd-8aa8e0178c35","ios":"levelo://app?vid=a02bce7c-288c-46c0-a9fd-8aa8e0178c35"},"vehicle_type_id":"4","last_reported":1734178621,"current_range_meters":24400,"station_id":"ce4bhu92rcd13ifvqi70","pricing_plan_id":"cebpf4jnsgd1na2vs0mg"},{"bike_id":"f1a06ee4-1d14-4634-9311-99ca126b78ec","system_id":"levelo_inurba_marseille","lat":43.23959,"lon":5.36637,"is_reserved":false,"is_disabled":true,"rental_uris":{"android":"levelo://app?vid=f1a06ee4-1d14-4634-9311-99ca126b78ec","ios":"levelo://app?vid=f1a06ee4-1d14-4634-9311-99ca126b78ec"},"vehicle_type_id":"4","last_reported":1734178621,"current_range_meters":0,"station_id":"ce4bhi12rcd13ifvqfp0","pricing_plan_id":"cebpf4jnsgd1na2vs0mg"},{"bike_id":"026eac8f-1877-4181-bac3-28bf4f63c4e7","system_id":"levelo_inurba_marseille","lat":43.2927,"lon":5.36851,"is_reserved":false,"is_disabled":false,"rental_uris":{"android":"levelo://app?vid=026eac8f-1877-4181-bac3-28bf4f63c4e7","ios":"levelo://app?vid=026eac8f-1877-4181-bac3-28bf4f63c4e7"},"vehicle_type_id":"4","last_reported":1734178621,"current_range_meters":30400,"station_id":"ce4bhbp2rcd13ifvqesg","pricing_plan_id":"cebpf4jnsgd1na2vs0mg"},{"bike_id":"807c66ce-b746-48c3-bf88-07717a49aec6","system_id":"levelo_inurba_marseille","lat":43.29975,"lon":5.37175,"is_reserved":false,"is_disabled":false,"rental_uris":{"android":"levelo://app?vid=807c66ce-b746-48c3-bf88-07717a49aec6","ios":"levelo://app?vid=807c66ce-b746-48c3-bf88-07717a49aec6"},"vehicle_type_id":"4","last_reported":1734178621,"current_range_meters":39200,"station_id":"ce4bgr92rcd13ifvqc7g","pricing_plan_id":"cebpf4jnsgd1na2vs0mg"},{"bike_id":"5b0b2149-975d-47a9-a76e-2cd95b7ec831","system_id":"levelo_inurba_marseille","lat":43.30355,"lon":5.41879,"is_reserved":false,"is_disabled":false,"rental_uris":{"android":"levelo://app?vid=5b0b2149-975d-47a9-a76e-2cd95b7ec831","ios":"levelo://app?vid=5b0b2149-975d-47a9-a76e-2cd95b7ec831"},"vehicle_type_id":"4","last_reported":1734178621,"current_range_meters":38000,"station_id":"ce4bhop2rcd13ifvqh7g","pricing_plan_id":"cebpf4jnsgd1na2vs0mg"},{"bike_id":"49f965d3-e895-4eda-a9ad-15593103f277","system_id":"levelo_inurba_marseille","lat":43.26555,"lon":5.37286,"is_reserved":false,"is_disabled":false,"rental_uris":{"android":"levelo://app?vid=49f965d3-e895-4eda-a9ad-15593103f277","ios":"levelo://app?vid=49f965d3-e895-4eda-a9ad-15593103f277"},"vehicle_type_id":"4","last_reported":1734178621,"current_range_meters":9600,"station_id":"ce4bhg12rcd13ifvqf70","pricing_plan_id":"cebpf4jnsgd1na2vs0mg"},{"bike_id":"fd12253f-5beb-47b8-ae4f-33f5f5761a8c","system_id":"levelo_inurba_marseille","lat":43.27213,"lon":5.39186,"is_reserved":false,"is_disabled":false,"rental_uris":{"android":"levelo://app?vid=fd12253f-5beb-47b8-ae4f-33f5f5761a8c","ios":"levelo://app?vid=fd12253f-5beb-47b8-ae4f-33f5f5761a8c"},"vehicle_type_id":"4","last_reported":1734178621,"current_range_meters":20800,"station_id":"ce4bhhp2rcd13ifvqfm0","pricing_plan_id":"cebpf4jnsgd1na2vs0mg"},{"bike_id":"7691eeb5-458b-415d-8b8b-0369bf8ed1f5","system_id":"levelo_inurba_marseille","lat":43.27371,"lon":5.36259,"is_reserved":false,"is_disabled":false,"rental_uris":{"android":"levelo://app?vid=7691eeb5-458b-415d-8b8b-0369bf8ed1f5","ios":"levelo://app?vid=7691eeb5-458b-415d-8b8b-0369bf8ed1f5"},"vehicle_type_id":"4","last_reported":1734178621,"current_range_meters":39200,"station_id":"ce4bhbh2rcd13ifvqeo0","pricing_plan_id":"cebpf4jnsgd1na2vs0mg"},{"bike_id":"fa90612f-7cb7-4169-894f-6478ec30bfe6","system_id":"levelo_inurba_marseille","lat":43.295513,"lon":5.422877,"is_reserved":false,"is_disabled":false,"rental_uris":{"android":"levelo://app?vid=fa90612f-7cb7-4169-894f-6478ec30bfe6","ios":"levelo://app?vid=fa90612f-7cb7-4169-894f-6478ec30bfe6"},"vehicle_type_id":"4","last_reported":1734178621,"current_range_meters":38800,"station_id":"ce4bhph2rcd13ifvqhdg","pricing_plan_id":"cebpf4jnsgd1na2vs0mg"},{"bike_id":"e3f07579-33b8-4ea5-a327-764bc4427a03","system_id":"levelo_inurba_marseille","lat":43.28932,"lon":5.36375,"is_reserved":false,"is_disabled":false,"rental_uris":{"android":"levelo://app?vid=e3f07579-33b8-4ea5-a327-764bc4427a03","ios":"levelo://app?vid=e3f07579-33b8-4ea5-a327-764bc4427a03"},"vehicle_type_id":"4","last_reported":1734178621,"current_range_meters":28800,"station_id":"ce4bhc92rcd13ifvqetg","pricing_plan_id":"cebpf4jnsgd1na2vs0mg"},{"bike_id":"c51154b5-1034-4fc0-8fac-d1d2e91dba39","system_id":"levelo_inurba_marseille","lat":43.23053,"lon":5.35492,"is_reserved":false,"is_disabled":false,"rental_uris":{"android":"levelo://app?vid=c51154b5-1034-4fc0-8fac-d1d2e91dba39","ios":"levelo://app?vid=c51154b5-1034-4fc0-8fac-d1d2e91dba39"},"vehicle_type_id":"4","last_reported":1734178621,"current_range_meters":10800,"station_id":"cpo3342slgdg3j2ifvpg","pricing_plan_id":"cebpf4jnsgd1na2vs0mg"},{"bike_id":"44a0683d-173b-4692-9edd-1a8b465502d3","system_id":"levelo_inurba_marseille","lat":43.29574,"lon":5.37512,"is_reserved":false,"is_disabled":false,"rental_uris":{"android":"levelo://app?vid=44a0683d-173b-4692-9edd-1a8b465502d3","ios":"levelo://app?vid=44a0683d-173b-4692-9edd-1a8b465502d3"},"vehicle_type_id":"4","last_reported":1734178621,"current_range_meters":28400,"station_id":"ce4bgh92rcd13ifvqb50","pricing_plan_id":"cebpf4jnsgd1na2vs0mg"},{"bike_id":"9898497d-08a8-4f3f-896d-f939d7b3fae3","system_id":"levelo_inurba_marseille","lat":43.29722,"lon":5.37689,"is_reserved":false,"is_disabled":false,"rental_uris":{"android":"levelo://app?vid=9898497d-08a8-4f3f-896d-f939d7b3fae3","ios":"levelo://app?vid=9898497d-08a8-4f3f-896d-f939d7b3fae3"},"vehicle_type_id":"4","last_reported":1734178621,"current_range_meters":27600,"station_id":"ce4bgkh2rcd13ifvqbl0","pricing_plan_id":"cebpf4jnsgd1na2vs0mg"},{"bike_id":"b5205575-de41-469c-8bf4-268796ad09be","system_id":"levelo_inurba_marseille","lat":43.25504,"lon":5.37658,"is_reserved":false,"is_disabled":false,"rental_uris":{"android":"levelo://app?vid=b5205575-de41-469c-8bf4-268796ad09be","ios":"levelo://app?vid=b5205575-de41-469c-8bf4-268796ad09be"},"vehicle_type_id":"4","last_reported":1734178621,"current_range_meters":38800,"station_id":"ce4bhh12rcd13ifvqff0","pricing_plan_id":"cebpf4jnsgd1na2vs0mg"},{"bike_id":"abe250a1-3d26-47a1-bae8-73bf3354b17a","system_id":"levelo_inurba_marseille","lat":43.27199,"lon":5.4099,"is_reserved":false,"is_disabled":false,"rental_uris":{"android":"levelo://app?vid=abe250a1-3d26-47a1-bae8-73bf3354b17a","ios":"levelo://app?vid=abe250a1-3d26-47a1-bae8-73bf3354b17a"},"vehicle_type_id":"4","last_reported":1734178621,"current_range_meters":11200,"station_id":"ce4bhl12rcd13ifvqgf0","pricing_plan_id":"cebpf4jnsgd1na2vs0mg"},{"bike_id":"ce9f2ae6-d005-47e2-a1b4-8674b1b9254b","system_id":"levelo_inurba_marseille","lat":43.30153,"lon":5.38078,"is_reserved":false,"is_disabled":false,"rental_uris":{"android":"levelo://app?vid=ce9f2ae6-d005-47e2-a1b4-8674b1b9254b","ios":"levelo://app?vid=ce9f2ae6-d005-47e2-a1b4-8674b1b9254b"},"vehicle_type_id":"4","last_reported":1734178621,"current_range_meters":38400,"station_id":"ce4bgjp2rcd13ifvqbh0","pricing_plan_id":"cebpf4jnsgd1na2vs0mg"},{"bike_id":"b62e50dd-f184-45c8-bbe1-5f69a12c37ff","system_id":"levelo_inurba_marseille","lat":43.2737,"lon":5.36253,"is_reserved":false,"is_disabled":false,"rental_uris":{"android":"levelo://app?vid=b62e50dd-f184-45c8-bbe1-5f69a12c37ff","ios":"levelo://app?vid=b62e50dd-f184-45c8-bbe1-5f69a12c37ff"},"vehicle_type_id":"4","last_reported":1734178621,"current_range_meters":27600,"station_id":"ce4bhbh2rcd13ifvqeo0","pricing_plan_id":"cebpf4jnsgd1na2vs0mg"},{"bike_id":"bad09c18-7711-41ee-bbb5-b5fd34fb1d4d","system_id":"levelo_inurba_marseille","lat":43.27166,"lon":5.41016,"is_reserved":false,"is_disabled":false,"rental_uris":{"android":"levelo://app?vid=bad09c18-7711-41ee-bbb5-b5fd34fb1d4d","ios":"levelo://app?vid=bad09c18-7711-41ee-bbb5-b5fd34fb1d4d"},"vehicle_type_id":"4","last_reported":1734178621,"current_range_meters":38800,"station_id":"ce4bhl12rcd13ifvqgf0","pricing_plan_id":"cebpf4jnsgd1na2vs0mg"},{"bike_id":"d2a0b895-cddb-4c91-8025-52871ff8256e","system_id":"levelo_inurba_marseille","lat":43.3223,"lon":5.38964,"is_reserved":false,"is_disabled":true,"rental_uris":{"android":"levelo://app?vid=d2a0b895-cddb-4c91-8025-52871ff8256e","ios":"levelo://app?vid=d2a0b895-cddb-4c91-8025-52871ff8256e"},"vehicle_type_id":"4","last_reported":1734178621,"current_range_meters":38800,"station_id":"","pricing_plan_id":"cebpf4jnsgd1na2vs0mg"},{"bike_id":"efb37f5f-62fe-431e-83df-44ebdf8380b8","system_id":"levelo_inurba_marseille","lat":43.28987,"lon":5.39924,"is_reserved":false,"is_disabled":false,"rental_uris":{"android":"levelo://app?vid=efb37f5f-62fe-431e-83df-44ebdf8380b8","ios":"levelo://app?vid=efb37f5f-62fe-431e-83df-44ebdf8380b8"},"vehicle_type_id":"4","last_reported":1734178621,"current_range_meters":32400,"station_id":"ce4bh692rcd13ifvqea0","pricing_plan_id":"cebpf4jnsgd1na2vs0mg"},{"bike_id":"75506391-a12b-4ce2-997a-eff08551addc","system_id":"levelo_inurba_marseille","lat":43.23048,"lon":5.35501,"is_reserved":false,"is_disabled":false,"rental_uris":{"android":"levelo://app?vid=75506391-a12b-4ce2-997a-eff08551addc","ios":"levelo://app?vid=75506391-a12b-4ce2-997a-eff08551addc"},"vehicle_type_id":"4","last_reported":1734178621,"current_range_meters":36400,"station_id":"cpo3342slgdg3j2ifvpg","pricing_plan_id":"cebpf4jnsgd1na2vs0mg"},{"bike_id":"c9386dd6-8f0b-425f-ba06-4c88cbc1f623","system_id":"levelo_inurba_marseille","lat":43.255029,"lon":5.376633,"is_reserved":false,"is_disabled":false,"rental_uris":{"android":"levelo://app?vid=c9386dd6-8f0b-425f-ba06-4c88cbc1f623","ios":"levelo://app?vid=c9386dd6-8f0b-425f-ba06-4c88cbc1f623"},"vehicle_type_id":"4","last_reported":1734178621,"current_range_meters":39200,"station_id":"ce4bhh12rcd13ifvqff0","pricing_plan_id":"cebpf4jnsgd1na2vs0mg"},{"bike_id":"e7670056-028a-4ad6-a74c-f8db7e8100e8","system_id":"levelo_inurba_marseille","lat":43.29363,"lon":5.37868,"is_reserved":false,"is_disabled":false,"rental_uris":{"android":"levelo://app?vid=e7670056-028a-4ad6-a74c-f8db7e8100e8","ios":"levelo://app?vid=e7670056-028a-4ad6-a74c-f8db7e8100e8"},"vehicle_type_id":"4","last_reported":1734178621,"current_range_meters":30400,"station_id":"ce4bgjh2rcd13ifvqbf0","pricing_plan_id":"cebpf4jnsgd1na2vs0mg"},{"bike_id":"587d1534-49c1-4e4a-a940-83a47fcf998c","system_id":"levelo_inurba_marseille","lat":43.29254,"lon":5.36866,"is_reserved":false,"is_disabled":false,"rental_uris":{"android":"levelo://app?vid=587d1534-49c1-4e4a-a940-83a47fcf998c","ios":"levelo://app?vid=587d1534-49c1-4e4a-a940-83a47fcf998c"},"vehicle_type_id":"4","last_reported":1734178621,"current_range_meters":28000,"station_id":"ce4bhbp2rcd13ifvqesg","pricing_plan_id":"cebpf4jnsgd1na2vs0mg"},{"bike_id":"0cd93126-2c1b-4ce7-acc7-85a36e9551f0","system_id":"levelo_inurba_marseille","lat":43.26678,"lon":5.3827,"is_reserved":false,"is_disabled":false,"rental_uris":{"android":"levelo://app?vid=0cd93126-2c1b-4ce7-acc7-85a36e9551f0","ios":"levelo://app?vid=0cd93126-2c1b-4ce7-acc7-85a36e9551f0"},"vehicle_type_id":"4","last_reported":1734178621,"current_range_meters":34800,"station_id":"ce4bhg92rcd13ifvqf90","pricing_plan_id":"cebpf4jnsgd1na2vs0mg"},{"bike_id":"f0688521-339d-4b11-98b4-8b413dfcdc75","system_id":"levelo_inurba_marseille","lat":43.30239,"lon":5.40058,"is_reserved":false,"is_disabled":true,"rental_uris":{"android":"levelo://app?vid=f0688521-339d-4b11-98b4-8b413dfcdc75","ios":"levelo://app?vid=f0688521-339d-4b11-98b4-8b413dfcdc75"},"vehicle_type_id":"4","last_reported":1734178621,"current_range_meters":20800,"station_id":"ce4bgvh2rcd13ifvqcs0","pricing_plan_id":"cebpf4jnsgd1na2vs0mg"},{"bike_id":"c75bddd8-53e9-48da-b5b5-42395c8f7395","system_id":"levelo_inurba_marseille","lat":43.33712,"lon":5.39232,"is_reserved":false,"is_disabled":false,"rental_uris":{"android":"levelo://app?vid=c75bddd8-53e9-48da-b5b5-42395c8f7395","ios":"levelo://app?vid=c75bddd8-53e9-48da-b5b5-42395c8f7395"},"vehicle_type_id":"4","last_reported":1734178621,"current_range_meters":38400,"station_id":"ce4bhr92rcd13ifvqhsg","pricing_plan_id":"cebpf4jnsgd1na2vs0mg"},{"bike_id":"be3d60a6-6fb6-4cc8-81d6-6fe96ff5ee23","system_id":"levelo_inurba_marseille","lat":43.2306,"lon":5.35509,"is_reserved":false,"is_disabled":false,"rental_uris":{"android":"levelo://app?vid=be3d60a6-6fb6-4cc8-81d6-6fe96ff5ee23","ios":"levelo://app?vid=be3d60a6-6fb6-4cc8-81d6-6fe96ff5ee23"},"vehicle_type_id":"4","last_reported":1734178621,"current_range_meters":35600,"station_id":"cpo3342slgdg3j2ifvpg","pricing_plan_id":"cebpf4jnsgd1na2vs0mg"},{"bike_id":"f5f2dda6-a2d0-42c5-ac2b-1ec14572f19e","system_id":"levelo_inurba_marseille","lat":43.26788,"lon":5.39446,"is_reserved":false,"is_disabled":false,"rental_uris":{"android":"levelo://app?vid=f5f2dda6-a2d0-42c5-ac2b-1ec14572f19e","ios":"levelo://app?vid=f5f2dda6-a2d0-42c5-ac2b-1ec14572f19e"},"vehicle_type_id":"4","last_reported":1734178621,"current_range_meters":38000,"station_id":"ce4bhh12rcd13ifvqfg0","pricing_plan_id":"cebpf4jnsgd1na2vs0mg"},{"bike_id":"bcbdbd5a-3bc2-47aa-9e3b-6fa0782e4613","system_id":"levelo_inurba_marseille","lat":43.29296,"lon":5.37177,"is_reserved":false,"is_disabled":false,"rental_uris":{"android":"levelo://app?vid=bcbdbd5a-3bc2-47aa-9e3b-6fa0782e4613","ios":"levelo://app?vid=bcbdbd5a-3bc2-47aa-9e3b-6fa0782e4613"},"vehicle_type_id":"4","last_reported":1734178621,"current_range_meters":17200,"station_id":"ce4bgh92rcd13ifvqb40","pricing_plan_id":"cebpf4jnsgd1na2vs0mg"},{"bike_id":"aec1ddc6-0a94-4d71-a165-631c28847dad","system_id":"levelo_inurba_marseille","lat":43.231846,"lon":5.399967,"is_reserved":false,"is_disabled":false,"rental_uris":{"android":"levelo://app?vid=aec1ddc6-0a94-4d71-a165-631c28847dad","ios":"levelo://app?vid=aec1ddc6-0a94-4d71-a165-631c28847dad"},"vehicle_type_id":"4","last_reported":1734178621,"current_range_meters":32800,"station_id":"ce4bhn12rcd13ifvqgqg","pricing_plan_id":"cebpf4jnsgd1na2vs0mg"},{"bike_id":"fd1d6366-cf9f-4720-bfed-437d147382a8","system_id":"levelo_inurba_marseille","lat":43.24995,"lon":5.3893,"is_reserved":false,"is_disabled":false,"rental_uris":{"android":"levelo://app?vid=fd1d6366-cf9f-4720-bfed-437d147382a8","ios":"levelo://app?vid=fd1d6366-cf9f-4720-bfed-437d147382a8"},"vehicle_type_id":"4","last_reported":1734178621,"current_range_meters":38800,"station_id":"ce4bhgp2rcd13ifvqfd0","pricing_plan_id":"cebpf4jnsgd1na2vs0mg"},{"bike_id":"b377a437-ba59-4356-810f-8a4d1c613335","system_id":"levelo_inurba_marseille","lat":43.28004,"lon":5.41669,"is_reserved":false,"is_disabled":false,"rental_uris":{"android":"levelo://app?vid=b377a437-ba59-4356-810f-8a4d1c613335","ios":"levelo://app?vid=b377a437-ba59-4356-810f-8a4d1c613335"},"vehicle_type_id":"4","last_reported":1734178621,"current_range_meters":38400,"station_id":"ce4bho12rcd13ifvqh1g","pricing_plan_id":"cebpf4jnsgd1na2vs0mg"},{"bike_id":"9332f19c-96e3-47ac-8807-c5c2384614c0","system_id":"levelo_inurba_marseille","lat":43.23058,"lon":5.35546,"is_reserved":false,"is_disabled":false,"rental_uris":{"android":"levelo://app?vid=9332f19c-96e3-47ac-8807-c5c2384614c0","ios":"levelo://app?vid=9332f19c-96e3-47ac-8807-c5c2384614c0"},"vehicle_type_id":"4","last_reported":1734178621,"current_range_meters":36800,"station_id":"cpo3342slgdg3j2ifvpg","pricing_plan_id":"cebpf4jnsgd1na2vs0mg"},{"bike_id":"380c9a62-9355-46ea-aba6-5d39cd47ad4b","system_id":"levelo_inurba_marseille","lat":43.31375,"lon":5.40618,"is_reserved":false,"is_disabled":true,"rental_uris":{"android":"levelo://app?vid=380c9a62-9355-46ea-aba6-5d39cd47ad4b","ios":"levelo://app?vid=380c9a62-9355-46ea-aba6-5d39cd47ad4b"},"vehicle_type_id":"4","last_reported":1734178621,"current_range_meters":0,"station_id":"","pricing_plan_id":"cebpf4jnsgd1na2vs0mg"},{"bike_id":"b5acdb59-0933-4d4c-bed0-4036ed75810e","system_id":"levelo_inurba_marseille","lat":43.26955,"lon":5.38636,"is_reserved":false,"is_disabled":false,"rental_uris":{"android":"levelo://app?vid=b5acdb59-0933-4d4c-bed0-4036ed75810e","ios":"levelo://app?vid=b5acdb59-0933-4d4c-bed0-4036ed75810e"},"vehicle_type_id":"4","last_reported":1734178621,"current_range_meters":38000,"station_id":"ce4bhh92rcd13ifvqfh0","pricing_plan_id":"cebpf4jnsgd1na2vs0mg"},{"bike_id":"05497c94-8de9-4ad5-b808-7e50f8747cce","system_id":"levelo_inurba_marseille","lat":43.28987,"lon":5.38135,"is_reserved":false,"is_disabled":false,"rental_uris":{"android":"levelo://app?vid=05497c94-8de9-4ad5-b808-7e50f8747cce","ios":"levelo://app?vid=05497c94-8de9-4ad5-b808-7e50f8747cce"},"vehicle_type_id":"4","last_reported":1734178621,"current_range_meters":16400,"station_id":"ce4bh4p2rcd13ifvqe1g","pricing_plan_id":"cebpf4jnsgd1na2vs0mg"},{"bike_id":"091bdc4c-19b5-460d-8ab6-f71e518c7c9a","system_id":"levelo_inurba_marseille","lat":43.32659,"lon":5.40995,"is_reserved":false,"is_disabled":false,"rental_uris":{"android":"levelo://app?vid=091bdc4c-19b5-460d-8ab6-f71e518c7c9a","ios":"levelo://app?vid=091bdc4c-19b5-460d-8ab6-f71e518c7c9a"},"vehicle_type_id":"4","last_reported":1734178621,"current_range_meters":38800,"station_id":"ce4bhpp2rcd13ifvqhgg","pricing_plan_id":"cebpf4jnsgd1na2vs0mg"},{"bike_id":"fda2c63f-1fe2-4d00-8d20-2677f78c6a20","system_id":"levelo_inurba_marseille","lat":43.26023,"lon":5.37556,"is_reserved":false,"is_disabled":false,"rental_uris":{"android":"levelo://app?vid=fda2c63f-1fe2-4d00-8d20-2677f78c6a20","ios":"levelo://app?vid=fda2c63f-1fe2-4d00-8d20-2677f78c6a20"},"vehicle_type_id":"4","last_reported":1734178621,"current_range_meters":27600,"station_id":"ce4bhgh2rcd13ifvqfa0","pricing_plan_id":"cebpf4jnsgd1na2vs0mg"},{"bike_id":"ca59d865-1951-4846-a717-a349b9e50e7c","system_id":"levelo_inurba_marseille","lat":43.27613,"lon":5.36108,"is_reserved":false,"is_disabled":true,"rental_uris":{"android":"levelo://app?vid=ca59d865-1951-4846-a717-a349b9e50e7c","ios":"levelo://app?vid=ca59d865-1951-4846-a717-a349b9e50e7c"},"vehicle_type_id":"4","last_reported":1734178621,"current_range_meters":36800,"station_id":"ce4bgj92rcd13ifvqbe0","pricing_plan_id":"cebpf4jnsgd1na2vs0mg"},{"bike_id":"118d448b-5f01-4d3c-ae60-b729695d0c56","system_id":"levelo_inurba_marseille","lat":43.27377,"lon":5.36258,"is_reserved":false,"is_disabled":false,"rental_uris":{"android":"levelo://app?vid=118d448b-5f01-4d3c-ae60-b729695d0c56","ios":"levelo://app?vid=118d448b-5f01-4d3c-ae60-b729695d0c56"},"vehicle_type_id":"4","last_reported":1734178621,"current_range_meters":38000,"station_id":"ce4bhbh2rcd13ifvqeo0","pricing_plan_id":"cebpf4jnsgd1na2vs0mg"},{"bike_id":"99500b29-d428-4fd4-a577-4f104590c1ca","system_id":"levelo_inurba_marseille","lat":43.29846,"lon":5.36267,"is_reserved":false,"is_disabled":false,"rental_uris":{"android":"levelo://app?vid=99500b29-d428-4fd4-a577-4f104590c1ca","ios":"levelo://app?vid=99500b29-d428-4fd4-a577-4f104590c1ca"},"vehicle_type_id":"4","last_reported":1734178621,"current_range_meters":38800,"station_id":"ce4bgpp2rcd13ifvqc3g","pricing_plan_id":"cebpf4jnsgd1na2vs0mg"},{"bike_id":"283ec910-2b59-4ffd-bbff-9867d116f826","system_id":"levelo_inurba_marseille","lat":43.337444,"lon":5.374475,"is_reserved":false,"is_disabled":true,"rental_uris":{"android":"levelo://app?vid=283ec910-2b59-4ffd-bbff-9867d116f826","ios":"levelo://app?vid=283ec910-2b59-4ffd-bbff-9867d116f826"},"vehicle_type_id":"4","last_reported":1734178621,"current_range_meters":0,"station_id":"","pricing_plan_id":"cebpf4jnsgd1na2vs0mg"},{"bike_id":"9c526aef-86e3-4b34-92cc-0221b9d7446a","system_id":"levelo_inurba_marseille","lat":43.26794,"lon":5.39408,"is_reserved":false,"is_disabled":false,"rental_uris":{"android":"levelo://app?vid=9c526aef-86e3-4b34-92cc-0221b9d7446a","ios":"levelo://app?vid=9c526aef-86e3-4b34-92cc-0221b9d7446a"},"vehicle_type_id":"4","last_reported":1734178621,"current_range_meters":3600,"station_id":"ce4bhh12rcd13ifvqfg0","pricing_plan_id":"cebpf4jnsgd1na2vs0mg"},{"bike_id":"fe6395e8-dd4d-419f-96c3-295d4de39938","system_id":"levelo_inurba_marseille","lat":43.29845,"lon":5.36261,"is_reserved":false,"is_disabled":false,"rental_uris":{"android":"levelo://app?vid=fe6395e8-dd4d-419f-96c3-295d4de39938","ios":"levelo://app?vid=fe6395e8-dd4d-419f-96c3-295d4de39938"},"vehicle_type_id":"4","last_reported":1734178621,"current_range_meters":38800,"station_id":"ce4bgpp2rcd13ifvqc3g","pricing_plan_id":"cebpf4jnsgd1na2vs0mg"},{"bike_id":"c6234abb-f24f-4e51-8203-a434dd5a5cf7","system_id":"levelo_inurba_marseille","lat":43.27187,"lon":5.40985,"is_reserved":false,"is_disabled":false,"rental_uris":{"android":"levelo://app?vid=c6234abb-f24f-4e51-8203-a434dd5a5cf7","ios":"levelo://app?vid=c6234abb-f24f-4e51-8203-a434dd5a5cf7"},"vehicle_type_id":"4","last_reported":1734178621,"current_range_meters":38400,"station_id":"ce4bhl12rcd13ifvqgf0","pricing_plan_id":"cebpf4jnsgd1na2vs0mg"},{"bike_id":"6e6a004b-462d-4b03-aeaa-2611256f0d89","system_id":"levelo_inurba_marseille","lat":43.2812,"lon":5.38936,"is_reserved":false,"is_disabled":true,"rental_uris":{"android":"levelo://app?vid=6e6a004b-462d-4b03-aeaa-2611256f0d89","ios":"levelo://app?vid=6e6a004b-462d-4b03-aeaa-2611256f0d89"},"vehicle_type_id":"4","last_reported":1734178621,"current_range_meters":0,"station_id":"","pricing_plan_id":"cebpf4jnsgd1na2vs0mg"},{"bike_id":"735cf19f-b67c-44a5-bb2d-cb05eb1081e7","system_id":"levelo_inurba_marseille","lat":43.29317,"lon":5.3715,"is_reserved":false,"is_disabled":false,"rental_uris":{"android":"levelo://app?vid=735cf19f-b67c-44a5-bb2d-cb05eb1081e7","ios":"levelo://app?vid=735cf19f-b67c-44a5-bb2d-cb05eb1081e7"},"vehicle_type_id":"4","last_reported":1734178621,"current_range_meters":39200,"station_id":"ce4bgh92rcd13ifvqb40","pricing_plan_id":"cebpf4jnsgd1na2vs0mg"},{"bike_id":"68524e6e-6b99-423a-85a0-ef3636cb167a","system_id":"levelo_inurba_marseille","lat":43.28698,"lon":5.37389,"is_reserved":false,"is_disabled":false,"rental_uris":{"android":"levelo://app?vid=68524e6e-6b99-423a-85a0-ef3636cb167a","ios":"levelo://app?vid=68524e6e-6b99-423a-85a0-ef3636cb167a"},"vehicle_type_id":"4","last_reported":1734178621,"current_range_meters":26800,"station_id":"ce4bh3p2rcd13ifvqdq0","pricing_plan_id":"cebpf4jnsgd1na2vs0mg"},{"bike_id":"6666abf9-47c2-42a4-9451-283e2fa4d06e","system_id":"levelo_inurba_marseille","lat":43.30354,"lon":5.41887,"is_reserved":false,"is_disabled":false,"rental_uris":{"android":"levelo://app?vid=6666abf9-47c2-42a4-9451-283e2fa4d06e","ios":"levelo://app?vid=6666abf9-47c2-42a4-9451-283e2fa4d06e"},"vehicle_type_id":"4","last_reported":1734178621,"current_range_meters":38800,"station_id":"ce4bhop2rcd13ifvqh7g","pricing_plan_id":"cebpf4jnsgd1na2vs0mg"},{"bike_id":"c3848dd6-dc25-44d4-8c07-ff3e79d88df9","system_id":"levelo_inurba_marseille","lat":43.30156,"lon":5.38095,"is_reserved":false,"is_disabled":false,"rental_uris":{"android":"levelo://app?vid=c3848dd6-dc25-44d4-8c07-ff3e79d88df9","ios":"levelo://app?vid=c3848dd6-dc25-44d4-8c07-ff3e79d88df9"},"vehicle_type_id":"4","last_reported":1734178621,"current_range_meters":37600,"station_id":"ce4bgjp2rcd13ifvqbh0","pricing_plan_id":"cebpf4jnsgd1na2vs0mg"},{"bike_id":"a9825185-3001-4d8d-9f3b-ed652af29296","system_id":"levelo_inurba_marseille","lat":43.28602,"lon":5.37064,"is_reserved":false,"is_disabled":false,"rental_uris":{"android":"levelo://app?vid=a9825185-3001-4d8d-9f3b-ed652af29296","ios":"levelo://app?vid=a9825185-3001-4d8d-9f3b-ed652af29296"},"vehicle_type_id":"4","last_reported":1734178621,"current_range_meters":39200,"station_id":"ce4bht12rcd13ifvqi60","pricing_plan_id":"cebpf4jnsgd1na2vs0mg"},{"bike_id":"e3ed667f-ae67-4730-b300-d002dfb9bc90","system_id":"levelo_inurba_marseille","lat":43.29524,"lon":5.37514,"is_reserved":false,"is_disabled":false,"rental_uris":{"android":"levelo://app?vid=e3ed667f-ae67-4730-b300-d002dfb9bc90","ios":"levelo://app?vid=e3ed667f-ae67-4730-b300-d002dfb9bc90"},"vehicle_type_id":"4","last_reported":1734178621,"current_range_meters":39200,"station_id":"ce4bgkp2rcd13ifvqbmg","pricing_plan_id":"cebpf4jnsgd1na2vs0mg"},{"bike_id":"1536d859-8531-4d78-87ee-c9b02f5fc438","system_id":"levelo_inurba_marseille","lat":43.23058,"lon":5.35496,"is_reserved":false,"is_disabled":false,"rental_uris":{"android":"levelo://app?vid=1536d859-8531-4d78-87ee-c9b02f5fc438","ios":"levelo://app?vid=1536d859-8531-4d78-87ee-c9b02f5fc438"},"vehicle_type_id":"4","last_reported":1734178621,"current_range_meters":16800,"station_id":"cpo3342slgdg3j2ifvpg","pricing_plan_id":"cebpf4jnsgd1na2vs0mg"},{"bike_id":"702fe746-2950-4d83-96ad-da74f787e42f","system_id":"levelo_inurba_marseille","lat":43.25864,"lon":5.39898,"is_reserved":false,"is_disabled":false,"rental_uris":{"android":"levelo://app?vid=702fe746-2950-4d83-96ad-da74f787e42f","ios":"levelo://app?vid=702fe746-2950-4d83-96ad-da74f787e42f"},"vehicle_type_id":"4","last_reported":1734178621,"current_range_meters":36800,"station_id":"ce4bhl92rcd13ifvqghg","pricing_plan_id":"cebpf4jnsgd1na2vs0mg"},{"bike_id":"7965bd8b-65b9-4460-9e65-36f253ebc53b","system_id":"levelo_inurba_marseille","lat":43.3204,"lon":5.41527,"is_reserved":false,"is_disabled":false,"rental_uris":{"android":"levelo://app?vid=7965bd8b-65b9-4460-9e65-36f253ebc53b","ios":"levelo://app?vid=7965bd8b-65b9-4460-9e65-36f253ebc53b"},"vehicle_type_id":"4","last_reported":1734178621,"current_range_meters":19600,"station_id":"ce4bhq92rcd13ifvqhkg","pricing_plan_id":"cebpf4jnsgd1na2vs0mg"},{"bike_id":"a0f39a97-ea65-49c8-8e11-cdce114daa4c","system_id":"levelo_inurba_marseille","lat":43.30765,"lon":5.37662,"is_reserved":false,"is_disabled":false,"rental_uris":{"android":"levelo://app?vid=a0f39a97-ea65-49c8-8e11-cdce114daa4c","ios":"levelo://app?vid=a0f39a97-ea65-49c8-8e11-cdce114daa4c"},"vehicle_type_id":"4","last_reported":1734178621,"current_range_meters":14400,"station_id":"ce4bgv92rcd13ifvqcq0","pricing_plan_id":"cebpf4jnsgd1na2vs0mg"},{"bike_id":"e5192aff-1008-4e7e-b82a-23b5df79d920","system_id":"levelo_inurba_marseille","lat":43.29551,"lon":5.42285,"is_reserved":false,"is_disabled":false,"rental_uris":{"android":"levelo://app?vid=e5192aff-1008-4e7e-b82a-23b5df79d920","ios":"levelo://app?vid=e5192aff-1008-4e7e-b82a-23b5df79d920"},"vehicle_type_id":"4","last_reported":1734178621,"current_range_meters":38000,"station_id":"ce4bhph2rcd13ifvqhdg","pricing_plan_id":"cebpf4jnsgd1na2vs0mg"},{"bike_id":"04f74f3a-620d-4cfe-a925-05d9d082937d","system_id":"levelo_inurba_marseille","lat":43.27988,"lon":5.41663,"is_reserved":false,"is_disabled":false,"rental_uris":{"android":"levelo://app?vid=04f74f3a-620d-4cfe-a925-05d9d082937d","ios":"levelo://app?vid=04f74f3a-620d-4cfe-a925-05d9d082937d"},"vehicle_type_id":"4","last_reported":1734178621,"current_range_meters":33200,"station_id":"ce4bho12rcd13ifvqh1g","pricing_plan_id":"cebpf4jnsgd1na2vs0mg"},{"bike_id":"07aaffff-6c5a-4390-a6e5-b91a437396ec","system_id":"levelo_inurba_marseille","lat":43.24166,"lon":5.36396,"is_reserved":false,"is_disabled":false,"rental_uris":{"android":"levelo://app?vid=07aaffff-6c5a-4390-a6e5-b91a437396ec","ios":"levelo://app?vid=07aaffff-6c5a-4390-a6e5-b91a437396ec"},"vehicle_type_id":"4","last_reported":1734178621,"current_range_meters":10800,"station_id":"cpo36qri1sfpv3e86is0","pricing_plan_id":"cebpf4jnsgd1na2vs0mg"},{"bike_id":"ed248b41-a30f-4928-a4ab-aeab02a12b40","system_id":"levelo_inurba_marseille","lat":43.29263,"lon":5.40173,"is_reserved":false,"is_disabled":true,"rental_uris":{"android":"levelo://app?vid=ed248b41-a30f-4928-a4ab-aeab02a12b40","ios":"levelo://app?vid=ed248b41-a30f-4928-a4ab-aeab02a12b40"},"vehicle_type_id":"4","last_reported":1734178621,"current_range_meters":29600,"station_id":"ce4bh312rcd13ifvqdk0","pricing_plan_id":"cebpf4jnsgd1na2vs0mg"},{"bike_id":"a5589391-a7e4-412b-9a87-f917b2322580","system_id":"levelo_inurba_marseille","lat":43.23047,"lon":5.35529,"is_reserved":false,"is_disabled":false,"rental_uris":{"android":"levelo://app?vid=a5589391-a7e4-412b-9a87-f917b2322580","ios":"levelo://app?vid=a5589391-a7e4-412b-9a87-f917b2322580"},"vehicle_type_id":"4","last_reported":1734178621,"current_range_meters":36000,"station_id":"cpo3342slgdg3j2ifvpg","pricing_plan_id":"cebpf4jnsgd1na2vs0mg"},{"bike_id":"e0219f58-85cc-4316-8383-92a9aab3795e","system_id":"levelo_inurba_marseille","lat":43.31487,"lon":5.37306,"is_reserved":false,"is_disabled":false,"rental_uris":{"android":"levelo://app?vid=e0219f58-85cc-4316-8383-92a9aab3795e","ios":"levelo://app?vid=e0219f58-85cc-4316-8383-92a9aab3795e"},"vehicle_type_id":"4","last_reported":1734178621,"current_range_meters":34000,"station_id":"ce4bgt12rcd13ifvqcd0","pricing_plan_id":"cebpf4jnsgd1na2vs0mg"},{"bike_id":"cf114bb8-ce3e-43ba-8e23-69bcac3003fd","system_id":"levelo_inurba_marseille","lat":43.337793,"lon":5.374391,"is_reserved":false,"is_disabled":false,"rental_uris":{"android":"levelo://app?vid=cf114bb8-ce3e-43ba-8e23-69bcac3003fd","ios":"levelo://app?vid=cf114bb8-ce3e-43ba-8e23-69bcac3003fd"},"vehicle_type_id":"4","last_reported":1734178621,"current_range_meters":20800,"station_id":"","pricing_plan_id":"cebpf4jnsgd1na2vs0mg"},{"bike_id":"b399749f-2db3-48ba-ac0c-ed3cdbfba1db","system_id":"levelo_inurba_marseille","lat":43.2737,"lon":5.36254,"is_reserved":false,"is_disabled":false,"rental_uris":{"android":"levelo://app?vid=b399749f-2db3-48ba-ac0c-ed3cdbfba1db","ios":"levelo://app?vid=b399749f-2db3-48ba-ac0c-ed3cdbfba1db"},"vehicle_type_id":"4","last_reported":1734178621,"current_range_meters":27200,"station_id":"ce4bhbh2rcd13ifvqeo0","pricing_plan_id":"cebpf4jnsgd1na2vs0mg"},{"bike_id":"a8f0de7b-1973-4f72-99a5-213e7b2f08d7","system_id":"levelo_inurba_marseille","lat":43.27367,"lon":5.3626,"is_reserved":false,"is_disabled":false,"rental_uris":{"android":"levelo://app?vid=a8f0de7b-1973-4f72-99a5-213e7b2f08d7","ios":"levelo://app?vid=a8f0de7b-1973-4f72-99a5-213e7b2f08d7"},"vehicle_type_id":"4","last_reported":1734178621,"current_range_meters":38800,"station_id":"ce4bhbh2rcd13ifvqeo0","pricing_plan_id":"cebpf4jnsgd1na2vs0mg"},{"bike_id":"afc65c7e-2df0-479e-8802-76edad43706a","system_id":"levelo_inurba_marseille","lat":43.26209,"lon":5.37935,"is_reserved":false,"is_disabled":false,"rental_uris":{"android":"levelo://app?vid=afc65c7e-2df0-479e-8802-76edad43706a","ios":"levelo://app?vid=afc65c7e-2df0-479e-8802-76edad43706a"},"vehicle_type_id":"4","last_reported":1734178621,"current_range_meters":25600,"station_id":"ce4bhjp2rcd13ifvqg90","pricing_plan_id":"cebpf4jnsgd1na2vs0mg"},{"bike_id":"3dc50e8c-f733-4683-9332-0b952d0f6631","system_id":"levelo_inurba_marseille","lat":43.25,"lon":5.38921,"is_reserved":false,"is_disabled":false,"rental_uris":{"android":"levelo://app?vid=3dc50e8c-f733-4683-9332-0b952d0f6631","ios":"levelo://app?vid=3dc50e8c-f733-4683-9332-0b952d0f6631"},"vehicle_type_id":"4","last_reported":1734178621,"current_range_meters":8400,"station_id":"ce4bhgp2rcd13ifvqfd0","pricing_plan_id":"cebpf4jnsgd1na2vs0mg"},{"bike_id":"78f525d5-67a4-45b6-be5f-eff0d5b5afa2","system_id":"levelo_inurba_marseille","lat":43.24647,"lon":5.38893,"is_reserved":false,"is_disabled":false,"rental_uris":{"android":"levelo://app?vid=78f525d5-67a4-45b6-be5f-eff0d5b5afa2","ios":"levelo://app?vid=78f525d5-67a4-45b6-be5f-eff0d5b5afa2"},"vehicle_type_id":"4","last_reported":1734178621,"current_range_meters":38800,"station_id":"ce4bhg12rcd13ifvqf60","pricing_plan_id":"cebpf4jnsgd1na2vs0mg"},{"bike_id":"c5d2f8ac-e046-4ff0-bc13-465a2ebfb9a1","system_id":"levelo_inurba_marseille","lat":43.31115,"lon":5.37763,"is_reserved":false,"is_disabled":false,"rental_uris":{"android":"levelo://app?vid=c5d2f8ac-e046-4ff0-bc13-465a2ebfb9a1","ios":"levelo://app?vid=c5d2f8ac-e046-4ff0-bc13-465a2ebfb9a1"},"vehicle_type_id":"4","last_reported":1734178621,"current_range_meters":28000,"station_id":"ce4bgt92rcd13ifvqcg0","pricing_plan_id":"cebpf4jnsgd1na2vs0mg"},{"bike_id":"ca3bf6a0-806c-4046-b219-bbea4c2ba646","system_id":"levelo_inurba_marseille","lat":43.23194,"lon":5.35548,"is_reserved":false,"is_disabled":false,"rental_uris":{"android":"levelo://app?vid=ca3bf6a0-806c-4046-b219-bbea4c2ba646","ios":"levelo://app?vid=ca3bf6a0-806c-4046-b219-bbea4c2ba646"},"vehicle_type_id":"4","last_reported":1734178621,"current_range_meters":38800,"station_id":"ce4bhu92rcd13ifvqi70","pricing_plan_id":"cebpf4jnsgd1na2vs0mg"},{"bike_id":"e92b53be-0a79-44c0-8c0f-b198c7a21d46","system_id":"levelo_inurba_marseille","lat":43.32364,"lon":5.38887,"is_reserved":false,"is_disabled":false,"rental_uris":{"android":"levelo://app?vid=e92b53be-0a79-44c0-8c0f-b198c7a21d46","ios":"levelo://app?vid=e92b53be-0a79-44c0-8c0f-b198c7a21d46"},"vehicle_type_id":"4","last_reported":1734178621,"current_range_meters":28400,"station_id":"ce4bhqp2rcd13ifvqhog","pricing_plan_id":"cebpf4jnsgd1na2vs0mg"},{"bike_id":"46b2fdec-0870-4ae2-84dc-b1f57512351e","system_id":"levelo_inurba_marseille","lat":43.337444,"lon":5.374475,"is_reserved":false,"is_disabled":true,"rental_uris":{"android":"levelo://app?vid=46b2fdec-0870-4ae2-84dc-b1f57512351e","ios":"levelo://app?vid=46b2fdec-0870-4ae2-84dc-b1f57512351e"},"vehicle_type_id":"4","last_reported":1734178621,"current_range_meters":0,"station_id":"","pricing_plan_id":"cebpf4jnsgd1na2vs0mg"},{"bike_id":"e07f8927-8121-4133-911c-f4fdbcb240cf","system_id":"levelo_inurba_marseille","lat":43.337679,"lon":5.374467,"is_reserved":false,"is_disabled":true,"rental_uris":{"android":"levelo://app?vid=e07f8927-8121-4133-911c-f4fdbcb240cf","ios":"levelo://app?vid=e07f8927-8121-4133-911c-f4fdbcb240cf"},"vehicle_type_id":"4","last_reported":1734178621,"current_range_meters":33600,"station_id":"","pricing_plan_id":"cebpf4jnsgd1na2vs0mg"},{"bike_id":"2d1621ab-e817-4a31-b19b-22c30129ac2e","system_id":"levelo_inurba_marseille","lat":43.27993,"lon":5.4166,"is_reserved":false,"is_disabled":false,"rental_uris":{"android":"levelo://app?vid=2d1621ab-e817-4a31-b19b-22c30129ac2e","ios":"levelo://app?vid=2d1621ab-e817-4a31-b19b-22c30129ac2e"},"vehicle_type_id":"4","last_reported":1734178621,"current_range_meters":16800,"station_id":"ce4bho12rcd13ifvqh1g","pricing_plan_id":"cebpf4jnsgd1na2vs0mg"},{"bike_id":"89440fa6-6e76-4b7b-9c20-d51a32533c5a","system_id":"levelo_inurba_marseille","lat":43.27356,"lon":5.36243,"is_reserved":false,"is_disabled":false,"rental_uris":{"android":"levelo://app?vid=89440fa6-6e76-4b7b-9c20-d51a32533c5a","ios":"levelo://app?vid=89440fa6-6e76-4b7b-9c20-d51a32533c5a"},"vehicle_type_id":"4","last_reported":1734178621,"current_range_meters":39200,"station_id":"ce4bhbh2rcd13ifvqeo0","pricing_plan_id":"cebpf4jnsgd1na2vs0mg"},{"bike_id":"f9e6bb9b-5af9-41b4-94d6-1a9a9891f123","system_id":"levelo_inurba_marseille","lat":43.24642,"lon":5.38894,"is_reserved":false,"is_disabled":false,"rental_uris":{"android":"levelo://app?vid=f9e6bb9b-5af9-41b4-94d6-1a9a9891f123","ios":"levelo://app?vid=f9e6bb9b-5af9-41b4-94d6-1a9a9891f123"},"vehicle_type_id":"4","last_reported":1734178621,"current_range_meters":24400,"station_id":"ce4bhg12rcd13ifvqf60","pricing_plan_id":"cebpf4jnsgd1na2vs0mg"},{"bike_id":"ada6d03a-ccf8-4688-b4bc-a3c7bbf8c3cf","system_id":"levelo_inurba_marseille","lat":43.28455,"lon":5.35884,"is_reserved":false,"is_disabled":false,"rental_uris":{"android":"levelo://app?vid=ada6d03a-ccf8-4688-b4bc-a3c7bbf8c3cf","ios":"levelo://app?vid=ada6d03a-ccf8-4688-b4bc-a3c7bbf8c3cf"},"vehicle_type_id":"4","last_reported":1734178621,"current_range_meters":34800,"station_id":"","pricing_plan_id":"cebpf4jnsgd1na2vs0mg"},{"bike_id":"3497cdeb-949b-4eff-9177-0154c63dca8c","system_id":"levelo_inurba_marseille","lat":43.267867,"lon":5.394165,"is_reserved":false,"is_disabled":false,"rental_uris":{"android":"levelo://app?vid=3497cdeb-949b-4eff-9177-0154c63dca8c","ios":"levelo://app?vid=3497cdeb-949b-4eff-9177-0154c63dca8c"},"vehicle_type_id":"4","last_reported":1734178621,"current_range_meters":25600,"station_id":"ce4bhh12rcd13ifvqfg0","pricing_plan_id":"cebpf4jnsgd1na2vs0mg"},{"bike_id":"5f11fdd9-45f0-4d70-8224-eef136d43616","system_id":"levelo_inurba_marseille","lat":43.27194,"lon":5.41009,"is_reserved":false,"is_disabled":false,"rental_uris":{"android":"levelo://app?vid=5f11fdd9-45f0-4d70-8224-eef136d43616","ios":"levelo://app?vid=5f11fdd9-45f0-4d70-8224-eef136d43616"},"vehicle_type_id":"4","last_reported":1734178621,"current_range_meters":34000,"station_id":"ce4bhl12rcd13ifvqgf0","pricing_plan_id":"cebpf4jnsgd1na2vs0mg"},{"bike_id":"550a6645-adcd-428f-b265-13b37828399c","system_id":"levelo_inurba_marseille","lat":43.28416,"lon":5.34993,"is_reserved":false,"is_disabled":true,"rental_uris":{"android":"levelo://app?vid=550a6645-adcd-428f-b265-13b37828399c","ios":"levelo://app?vid=550a6645-adcd-428f-b265-13b37828399c"},"vehicle_type_id":"4","last_reported":1734178621,"current_range_meters":800,"station_id":"ce4bhbh2rcd13ifvqepg","pricing_plan_id":"cebpf4jnsgd1na2vs0mg"},{"bike_id":"78dfabfe-f693-47fe-85e9-64251b082357","system_id":"levelo_inurba_marseille","lat":43.29841,"lon":5.36274,"is_reserved":false,"is_disabled":false,"rental_uris":{"android":"levelo://app?vid=78dfabfe-f693-47fe-85e9-64251b082357","ios":"levelo://app?vid=78dfabfe-f693-47fe-85e9-64251b082357"},"vehicle_type_id":"4","last_reported":1734178621,"current_range_meters":33600,"station_id":"ce4bgpp2rcd13ifvqc3g","pricing_plan_id":"cebpf4jnsgd1na2vs0mg"},{"bike_id":"2448f112-093b-44a4-8c49-c482af2ba024","system_id":"levelo_inurba_marseille","lat":43.2306,"lon":5.35479,"is_reserved":false,"is_disabled":false,"rental_uris":{"android":"levelo://app?vid=2448f112-093b-44a4-8c49-c482af2ba024","ios":"levelo://app?vid=2448f112-093b-44a4-8c49-c482af2ba024"},"vehicle_type_id":"4","last_reported":1734178621,"current_range_meters":22000,"station_id":"cpo3342slgdg3j2ifvpg","pricing_plan_id":"cebpf4jnsgd1na2vs0mg"},{"bike_id":"169d6776-51ab-41b0-9567-a24adfb79d90","system_id":"levelo_inurba_marseille","lat":43.25865,"lon":5.39915,"is_reserved":false,"is_disabled":false,"rental_uris":{"android":"levelo://app?vid=169d6776-51ab-41b0-9567-a24adfb79d90","ios":"levelo://app?vid=169d6776-51ab-41b0-9567-a24adfb79d90"},"vehicle_type_id":"4","last_reported":1734178621,"current_range_meters":28000,"station_id":"ce4bhl92rcd13ifvqghg","pricing_plan_id":"cebpf4jnsgd1na2vs0mg"},{"bike_id":"eff6214a-e327-44ef-b149-b0c14110902c","system_id":"levelo_inurba_marseille","lat":43.30159,"lon":5.38083,"is_reserved":false,"is_disabled":false,"rental_uris":{"android":"levelo://app?vid=eff6214a-e327-44ef-b149-b0c14110902c","ios":"levelo://app?vid=eff6214a-e327-44ef-b149-b0c14110902c"},"vehicle_type_id":"4","last_reported":1734178621,"current_range_meters":38800,"station_id":"ce4bgjp2rcd13ifvqbh0","pricing_plan_id":"cebpf4jnsgd1na2vs0mg"},{"bike_id":"c4eb3e13-bf4d-4e8c-93e8-3afb85802dde","system_id":"levelo_inurba_marseille","lat":43.23178,"lon":5.3999,"is_reserved":false,"is_disabled":false,"rental_uris":{"android":"levelo://app?vid=c4eb3e13-bf4d-4e8c-93e8-3afb85802dde","ios":"levelo://app?vid=c4eb3e13-bf4d-4e8c-93e8-3afb85802dde"},"vehicle_type_id":"4","last_reported":1734178621,"current_range_meters":16400,"station_id":"ce4bhn12rcd13ifvqgqg","pricing_plan_id":"cebpf4jnsgd1na2vs0mg"},{"bike_id":"269d647c-7f75-4ab5-ba3e-aade4c95309f","system_id":"levelo_inurba_marseille","lat":43.28708,"lon":5.37418,"is_reserved":false,"is_disabled":true,"rental_uris":{"android":"levelo://app?vid=269d647c-7f75-4ab5-ba3e-aade4c95309f","ios":"levelo://app?vid=269d647c-7f75-4ab5-ba3e-aade4c95309f"},"vehicle_type_id":"4","last_reported":1734178621,"current_range_meters":28800,"station_id":"ce4bh3p2rcd13ifvqdq0","pricing_plan_id":"cebpf4jnsgd1na2vs0mg"},{"bike_id":"d214c25f-242c-440b-993d-cd644c655be6","system_id":"levelo_inurba_marseille","lat":43.23044,"lon":5.35513,"is_reserved":false,"is_disabled":false,"rental_uris":{"android":"levelo://app?vid=d214c25f-242c-440b-993d-cd644c655be6","ios":"levelo://app?vid=d214c25f-242c-440b-993d-cd644c655be6"},"vehicle_type_id":"4","last_reported":1734178621,"current_range_meters":30000,"station_id":"cpo3342slgdg3j2ifvpg","pricing_plan_id":"cebpf4jnsgd1na2vs0mg"},{"bike_id":"ff3ea3a0-2a6c-439e-a971-96d98fd19296","system_id":"levelo_inurba_marseille","lat":43.32481,"lon":5.36575,"is_reserved":false,"is_disabled":false,"rental_uris":{"android":"levelo://app?vid=ff3ea3a0-2a6c-439e-a971-96d98fd19296","ios":"levelo://app?vid=ff3ea3a0-2a6c-439e-a971-96d98fd19296"},"vehicle_type_id":"4","last_reported":1734178621,"current_range_meters":35200,"station_id":"ce4bhs12rcd13ifvqhvg","pricing_plan_id":"cebpf4jnsgd1na2vs0mg"},{"bike_id":"36fe7f2d-6b60-46ad-a5d3-ec5715357c26","system_id":"levelo_inurba_marseille","lat":43.33814,"lon":5.37425,"is_reserved":false,"is_disabled":false,"rental_uris":{"android":"levelo://app?vid=36fe7f2d-6b60-46ad-a5d3-ec5715357c26","ios":"levelo://app?vid=36fe7f2d-6b60-46ad-a5d3-ec5715357c26"},"vehicle_type_id":"4","last_reported":1734178621,"current_range_meters":30000,"station_id":"","pricing_plan_id":"cebpf4jnsgd1na2vs0mg"},{"bike_id":"b2dfff15-5df1-49fd-85d9-70fbe53d6169","system_id":"levelo_inurba_marseille","lat":43.29582,"lon":5.3751,"is_reserved":false,"is_disabled":false,"rental_uris":{"android":"levelo://app?vid=b2dfff15-5df1-49fd-85d9-70fbe53d6169","ios":"levelo://app?vid=b2dfff15-5df1-49fd-85d9-70fbe53d6169"},"vehicle_type_id":"4","last_reported":1734178621,"current_range_meters":11600,"station_id":"ce4bgh92rcd13ifvqb50","pricing_plan_id":"cebpf4jnsgd1na2vs0mg"},{"bike_id":"6d05f7ba-808a-4403-b1f3-f8483fec843c","system_id":"levelo_inurba_marseille","lat":43.23188,"lon":5.35562,"is_reserved":false,"is_disabled":false,"rental_uris":{"android":"levelo://app?vid=6d05f7ba-808a-4403-b1f3-f8483fec843c","ios":"levelo://app?vid=6d05f7ba-808a-4403-b1f3-f8483fec843c"},"vehicle_type_id":"4","last_reported":1734178621,"current_range_meters":22800,"station_id":"ce4bhu92rcd13ifvqi70","pricing_plan_id":"cebpf4jnsgd1na2vs0mg"},{"bike_id":"68f7c996-65c3-45a7-9132-d1467492915c","system_id":"levelo_inurba_marseille","lat":43.29714,"lon":5.3769,"is_reserved":false,"is_disabled":false,"rental_uris":{"android":"levelo://app?vid=68f7c996-65c3-45a7-9132-d1467492915c","ios":"levelo://app?vid=68f7c996-65c3-45a7-9132-d1467492915c"},"vehicle_type_id":"4","last_reported":1734178621,"current_range_meters":27600,"station_id":"ce4bgkh2rcd13ifvqbl0","pricing_plan_id":"cebpf4jnsgd1na2vs0mg"},{"bike_id":"a5397efa-629d-4917-8594-0532aea74fe2","system_id":"levelo_inurba_marseille","lat":43.28445,"lon":5.35922,"is_reserved":false,"is_disabled":true,"rental_uris":{"android":"levelo://app?vid=a5397efa-629d-4917-8594-0532aea74fe2","ios":"levelo://app?vid=a5397efa-629d-4917-8594-0532aea74fe2"},"vehicle_type_id":"4","last_reported":1734178621,"current_range_meters":14000,"station_id":"ce4bhah2rcd13ifvqei0","pricing_plan_id":"cebpf4jnsgd1na2vs0mg"},{"bike_id":"ff60a752-d67e-416a-840f-f104a4b6ec15","system_id":"levelo_inurba_marseille","lat":43.29748,"lon":5.38773,"is_reserved":false,"is_disabled":false,"rental_uris":{"android":"levelo://app?vid=ff60a752-d67e-416a-840f-f104a4b6ec15","ios":"levelo://app?vid=ff60a752-d67e-416a-840f-f104a4b6ec15"},"vehicle_type_id":"4","last_reported":1734178621,"current_range_meters":28000,"station_id":"ce4bgi12rcd13ifvqb70","pricing_plan_id":"cebpf4jnsgd1na2vs0mg"},{"bike_id":"8dc6ba3b-eadd-4bf8-84a4-63fd959b82ac","system_id":"levelo_inurba_marseille","lat":43.27319,"lon":5.39073,"is_reserved":false,"is_disabled":false,"rental_uris":{"android":"levelo://app?vid=8dc6ba3b-eadd-4bf8-84a4-63fd959b82ac","ios":"levelo://app?vid=8dc6ba3b-eadd-4bf8-84a4-63fd959b82ac"},"vehicle_type_id":"4","last_reported":1734178621,"current_range_meters":26800,"station_id":"ce4bhgp2rcd13ifvqfe0","pricing_plan_id":"cebpf4jnsgd1na2vs0mg"},{"bike_id":"60932253-84bf-4e7c-9194-10707c087893","system_id":"levelo_inurba_marseille","lat":43.24385,"lon":5.37058,"is_reserved":false,"is_disabled":false,"rental_uris":{"android":"levelo://app?vid=60932253-84bf-4e7c-9194-10707c087893","ios":"levelo://app?vid=60932253-84bf-4e7c-9194-10707c087893"},"vehicle_type_id":"4","last_reported":1734178621,"current_range_meters":6800,"station_id":"ce4bhhh2rcd13ifvqfk0","pricing_plan_id":"cebpf4jnsgd1na2vs0mg"},{"bike_id":"9c8c1480-9ffa-4086-913c-c2125a6eb848","system_id":"levelo_inurba_marseille","lat":43.22933,"lon":5.35377,"is_reserved":false,"is_disabled":false,"rental_uris":{"android":"levelo://app?vid=9c8c1480-9ffa-4086-913c-c2125a6eb848","ios":"levelo://app?vid=9c8c1480-9ffa-4086-913c-c2125a6eb848"},"vehicle_type_id":"4","last_reported":1734178621,"current_range_meters":28000,"station_id":"cpo3532slgdg3j2ikp40","pricing_plan_id":"cebpf4jnsgd1na2vs0mg"},{"bike_id":"5e7d6ff5-442e-4736-a6a1-2833041cb2f3","system_id":"levelo_inurba_marseille","lat":43.28031,"lon":5.36949,"is_reserved":false,"is_disabled":false,"rental_uris":{"android":"levelo://app?vid=5e7d6ff5-442e-4736-a6a1-2833041cb2f3","ios":"levelo://app?vid=5e7d6ff5-442e-4736-a6a1-2833041cb2f3"},"vehicle_type_id":"4","last_reported":1734178621,"current_range_meters":9600,"station_id":"ce4bha12rcd13ifvqef0","pricing_plan_id":"cebpf4jnsgd1na2vs0mg"},{"bike_id":"a8e64c22-66a2-4f25-bf2f-fb3eb6acebc1","system_id":"levelo_inurba_marseille","lat":43.29851,"lon":5.36292,"is_reserved":false,"is_disabled":false,"rental_uris":{"android":"levelo://app?vid=a8e64c22-66a2-4f25-bf2f-fb3eb6acebc1","ios":"levelo://app?vid=a8e64c22-66a2-4f25-bf2f-fb3eb6acebc1"},"vehicle_type_id":"4","last_reported":1734178621,"current_range_meters":36800,"station_id":"ce4bgpp2rcd13ifvqc3g","pricing_plan_id":"cebpf4jnsgd1na2vs0mg"},{"bike_id":"bbfae43d-1d15-4d73-842a-e7269bb01cc3","system_id":"levelo_inurba_marseille","lat":43.2315,"lon":5.43721,"is_reserved":false,"is_disabled":false,"rental_uris":{"android":"levelo://app?vid=bbfae43d-1d15-4d73-842a-e7269bb01cc3","ios":"levelo://app?vid=bbfae43d-1d15-4d73-842a-e7269bb01cc3"},"vehicle_type_id":"4","last_reported":1734178621,"current_range_meters":9600,"station_id":"ce4bhmp2rcd13ifvqgog","pricing_plan_id":"cebpf4jnsgd1na2vs0mg"},{"bike_id":"a0558514-8e0f-4155-9a85-0039c6314621","system_id":"levelo_inurba_marseille","lat":43.29933,"lon":5.36543,"is_reserved":false,"is_disabled":false,"rental_uris":{"android":"levelo://app?vid=a0558514-8e0f-4155-9a85-0039c6314621","ios":"levelo://app?vid=a0558514-8e0f-4155-9a85-0039c6314621"},"vehicle_type_id":"4","last_reported":1734178621,"current_range_meters":9600,"station_id":"ce4bgm92rcd13ifvqbr0","pricing_plan_id":"cebpf4jnsgd1na2vs0mg"},{"bike_id":"9d5f11ae-e28b-41c9-9497-65a3dd46a68e","system_id":"levelo_inurba_marseille","lat":43.29486,"lon":5.3747,"is_reserved":false,"is_disabled":false,"rental_uris":{"android":"levelo://app?vid=9d5f11ae-e28b-41c9-9497-65a3dd46a68e","ios":"levelo://app?vid=9d5f11ae-e28b-41c9-9497-65a3dd46a68e"},"vehicle_type_id":"4","last_reported":1734178621,"current_range_meters":34000,"station_id":"","pricing_plan_id":"cebpf4jnsgd1na2vs0mg"},{"bike_id":"a49c8a43-6aa0-466a-aafc-992b9b807122","system_id":"levelo_inurba_marseille","lat":43.24172,"lon":5.364,"is_reserved":false,"is_disabled":false,"rental_uris":{"android":"levelo://app?vid=a49c8a43-6aa0-466a-aafc-992b9b807122","ios":"levelo://app?vid=a49c8a43-6aa0-466a-aafc-992b9b807122"},"vehicle_type_id":"4","last_reported":1734178621,"current_range_meters":36400,"station_id":"cpo36qri1sfpv3e86is0","pricing_plan_id":"cebpf4jnsgd1na2vs0mg"},{"bike_id":"fa23f5ed-073a-4bbe-8ac6-8e0b3f714056","system_id":"levelo_inurba_marseille","lat":43.30478,"lon":5.37907,"is_reserved":false,"is_disabled":false,"rental_uris":{"android":"levelo://app?vid=fa23f5ed-073a-4bbe-8ac6-8e0b3f714056","ios":"levelo://app?vid=fa23f5ed-073a-4bbe-8ac6-8e0b3f714056"},"vehicle_type_id":"4","last_reported":1734178621,"current_range_meters":38800,"station_id":"ce4bgup2rcd13ifvqcn0","pricing_plan_id":"cebpf4jnsgd1na2vs0mg"},{"bike_id":"ea86feb5-a34a-44ec-9b84-5d02ea28847c","system_id":"levelo_inurba_marseille","lat":43.29855,"lon":5.36268,"is_reserved":false,"is_disabled":false,"rental_uris":{"android":"levelo://app?vid=ea86feb5-a34a-44ec-9b84-5d02ea28847c","ios":"levelo://app?vid=ea86feb5-a34a-44ec-9b84-5d02ea28847c"},"vehicle_type_id":"4","last_reported":1734178621,"current_range_meters":24000,"station_id":"ce4bgpp2rcd13ifvqc3g","pricing_plan_id":"cebpf4jnsgd1na2vs0mg"},{"bike_id":"e071fa59-61c3-42a0-ba67-d085d2d40d00","system_id":"levelo_inurba_marseille","lat":43.24808,"lon":5.37461,"is_reserved":false,"is_disabled":false,"rental_uris":{"android":"levelo://app?vid=e071fa59-61c3-42a0-ba67-d085d2d40d00","ios":"levelo://app?vid=e071fa59-61c3-42a0-ba67-d085d2d40d00"},"vehicle_type_id":"4","last_reported":1734178621,"current_range_meters":25600,"station_id":"ce4bhgh2rcd13ifvqfb0","pricing_plan_id":"cebpf4jnsgd1na2vs0mg"},{"bike_id":"8f7ca6a2-9758-49ed-a646-137295470b24","system_id":"levelo_inurba_marseille","lat":43.29623,"lon":5.37725,"is_reserved":false,"is_disabled":true,"rental_uris":{"android":"levelo://app?vid=8f7ca6a2-9758-49ed-a646-137295470b24","ios":"levelo://app?vid=8f7ca6a2-9758-49ed-a646-137295470b24"},"vehicle_type_id":"4","last_reported":1734178621,"current_range_meters":0,"station_id":"ce4bgi92rcd13ifvqb90","pricing_plan_id":"cebpf4jnsgd1na2vs0mg"},{"bike_id":"69d51b9b-80ef-4d48-9a7a-3ece6e989f15","system_id":"levelo_inurba_marseille","lat":43.27252,"lon":5.39062,"is_reserved":false,"is_disabled":false,"rental_uris":{"android":"levelo://app?vid=69d51b9b-80ef-4d48-9a7a-3ece6e989f15","ios":"levelo://app?vid=69d51b9b-80ef-4d48-9a7a-3ece6e989f15"},"vehicle_type_id":"4","last_reported":1734178621,"current_range_meters":28800,"station_id":"","pricing_plan_id":"cebpf4jnsgd1na2vs0mg"},{"bike_id":"8fc37d7c-60fa-46fb-9d18-76c5524994e8","system_id":"levelo_inurba_marseille","lat":43.2953,"lon":5.37502,"is_reserved":false,"is_disabled":true,"rental_uris":{"android":"levelo://app?vid=8fc37d7c-60fa-46fb-9d18-76c5524994e8","ios":"levelo://app?vid=8fc37d7c-60fa-46fb-9d18-76c5524994e8"},"vehicle_type_id":"4","last_reported":1734178621,"current_range_meters":39200,"station_id":"ce4bgkp2rcd13ifvqbmg","pricing_plan_id":"cebpf4jnsgd1na2vs0mg"},{"bike_id":"60f3031c-7743-44dc-b91d-151f4319c1b9","system_id":"levelo_inurba_marseille","lat":43.29889,"lon":5.4366,"is_reserved":false,"is_disabled":false,"rental_uris":{"android":"levelo://app?vid=60f3031c-7743-44dc-b91d-151f4319c1b9","ios":"levelo://app?vid=60f3031c-7743-44dc-b91d-151f4319c1b9"},"vehicle_type_id":"4","last_reported":1734178621,"current_range_meters":39200,"station_id":"ce4bhpp2rcd13ifvqhfg","pricing_plan_id":"cebpf4jnsgd1na2vs0mg"},{"bike_id":"d3415d14-ae44-484a-873b-678a872d5c55","system_id":"levelo_inurba_marseille","lat":43.28152,"lon":5.42641,"is_reserved":false,"is_disabled":false,"rental_uris":{"android":"levelo://app?vid=d3415d14-ae44-484a-873b-678a872d5c55","ios":"levelo://app?vid=d3415d14-ae44-484a-873b-678a872d5c55"},"vehicle_type_id":"4","last_reported":1734178621,"current_range_meters":28400,"station_id":"ce4bhnh2rcd13ifvqgug","pricing_plan_id":"cebpf4jnsgd1na2vs0mg"},