{"last_updated":1758884889,"ttl":60,"version":"2.2","data":{"bikes":[{"bike_id":"4e737411-53ce-4bdf-9802-c3bc30d9bc94","system_id":"levelo_inurba_marseille","lat":43.29557,"lon":5.40629,"is_reserved":false,"is_disabled":false,"rental_uris":{"android":"levelo://app?vid=4e737411-53ce-4bdf-9802-c3bc30d9bc94","ios":"levelo://app?vid=4e737411-53ce-4bdf-9802-c3bc30d9bc94"},"vehicle_type_id":"4","last_reported":1758884889,"current_range_meters":2800,"station_id":"","pricing_plan_id":"cebpf4jnsgd1na2vs0mg"},{"bike_id":"c1fdf849-0ac7-47eb-9d19-27ff20122e7e","system_id":"levelo_inurba_marseille","lat":43.283697,"lon":5.38091,"is_reserved":false,"is_disabled":false,"rental_uris":{"android":"levelo://app?vid=c1fdf849-0ac7-47eb-9d19-27ff20122e7e","ios":"levelo://app?vid=c1fdf849-0ac7-47eb-9d19-27ff20122e7e"},"vehicle_type_id":"4","last_reported":1758884889,"current_range_meters":2800,"station_id":"ce4bh412rcd13ifvqdr0","pricing_plan_id":"cebpf4jnsgd1na2vs0mg"},{"bike_id":"7ed33cf5-c025-4fca-b62d-66fe538c64b8","system_id":"levelo_inurba_marseille","lat":43.31222,"lon":5.36866,"is_reserved":false,"is_disabled":false,"rental_uris":{"android":"levelo://app?vid=7ed33cf5-c025-4fca-b62d-66fe538c64b8","ios":"levelo://app?vid=7ed33cf5-c025-4fca-b62d-66fe538c64b8"},"vehicle_type_id":"4","last_reported":1758884889,"current_range_meters":2800,"station_id":"ce4bgl92rcd13ifvqbq0","pricing_plan_id":"cebpf4jnsgd1na2vs0mg"},{"bike_id":"7a405502-8962-4f4c-9150-f0b83655cc72","system_id":"levelo_inurba_marseille","lat":43.30473,"lon":5.37553,"is_reserved":false,"is_disabled":false,"rental_uris":{"android":"levelo://app?vid=7a405502-8962-4f4c-9150-f0b83655cc72","ios":"levelo://app?vid=7a405502-8962-4f4c-9150-f0b83655cc72"},"vehicle_type_id":"4","last_reported":1758884889,"current_range_meters":2800,"station_id":"","pricing_plan_id":"cebpf4jnsgd1na2vs0mg"},{"bike_id":"9c4a7bdb-c552-4dfd-8efb-40b9e0b0b147","system_id":"levelo_inurba_marseille","lat":43.30922,"lon":5.36731,"is_reserved":false,"is_disabled":false,"rental_uris":{"android":"levelo://app?vid=9c4a7bdb-c552-4dfd-8efb-40b9e0b0b147","ios":"levelo://app?vid=9c4a7bdb-c552-4dfd-8efb-40b9e0b0b147"},"vehicle_type_id":"4","last_reported":1758884889,"current_range_meters":2800,"station_id":"","pricing_plan_id":"cebpf4jnsgd1na2vs0mg"},{"bike_id":"a691c84a-35b6-4cd9-9917-6b752e012ca7","system_id":"levelo_inurba_marseille","lat":43.30168,"lon":5.38106,"is_reserved":false,"is_disabled":true,"rental_uris":{"android":"levelo://app?vid=a691c84a-35b6-4cd9-9917-6b752e012ca7","ios":"levelo://app?vid=a691c84a-35b6-4cd9-9917-6b752e012ca7"},"vehicle_type_id":"4","last_reported":1758884889,"current_range_meters":2800,"station_id":"ce4bgjp2rcd13ifvqbh0","pricing_plan_id":"cebpf4jnsgd1na2vs0mg"},{"bike_id":"d600a733-b0e9-449b-9bff-c3124fb1d22f","system_id":"levelo_inurba_marseille","lat":43.28459,"lon":5.35877,"is_reserved":false,"is_disabled":false,"rental_uris":{"android":"levelo://app?vid=d600a733-b0e9-449b-9bff-c3124fb1d22f","ios":"levelo://app?vid=d600a733-b0e9-449b-9bff-c3124fb1d22f"},"vehicle_type_id":"4","last_reported":1758884889,"current_range_meters":2000,"station_id":"ce4bhah2rcd13ifvqei0","pricing_plan_id":"cebpf4jnsgd1na2vs0mg"},{"bike_id":"dff7d4c7-7813-488d-b6cb-95ccf3149ebb","system_id":"levelo_inurba_marseille","lat":43.26941,"lon":5.40254,"is_reserved":false,"is_disabled":false,"rental_uris":{"android":"levelo://app?vid=dff7d4c7-7813-488d-b6cb-95ccf3149ebb","ios":"levelo://app?vid=dff7d4c7-7813-488d-b6cb-95ccf3149ebb"},"vehicle_type_id":"4","last_reported":1758884889,"current_range_meters":2800,"station_id":"cjm6bp8fraef2m0cb0m0","pricing_plan_id":"cebpf4jnsgd1na2vs0mg"},{"bike_id":"f4920603-fb20-4df9-bd96-67216c373d06","system_id":"levelo_inurba_marseille","lat":43.313533,"lon":5.396846,"is_reserved":false,"is_disabled":false,"rental_uris":{"android":"levelo://app?vid=f4920603-fb20-4df9-bd96-67216c373d06","ios":"levelo://app?vid=f4920603-fb20-4df9-bd96-67216c373d06"},"vehicle_type_id":"4","last_reported":1758884889,"current_range_meters":2800,"station_id":"ce4bgvp2rcd13ifvqcu0","pricing_plan_id":"cebpf4jnsgd1na2vs0mg"},{"bike_id":"1c35bf83-ebdb-4c44-ba8d-eb30d817a599","system_id":"levelo_inurba_marseille","lat":43.304206,"lon":5.397437,"is_reserved":false,"is_disabled":true,"rental_uris":{"android":"levelo://app?vid=1c35bf83-ebdb-4c44-ba8d-eb30d817a599","ios":"levelo://app?vid=1c35bf83-ebdb-4c44-ba8d-eb30d817a599"},"vehicle_type_id":"4","last_reported":1758884889,"current_range_meters":3200,"station_id":"ce4bh092rcd13ifvqd20","pricing_plan_id":"cebpf4jnsgd1na2vs0mg"},{"bike_id":"652165ff-363c-4a96-9d1b-fcd90102bd69","system_id":"levelo_inurba_marseille","lat":43.26956,"lon":5.38631,"is_reserved":false,"is_disabled":false,"rental_uris":{"android":"levelo://app?vid=652165ff-363c-4a96-9d1b-fcd90102bd69","ios":"levelo://app?vid=652165ff-363c-4a96-9d1b-fcd90102bd69"},"vehicle_type_id":"4","last_reported":1758884889,"current_range_meters":3200,"station_id":"ce4bhh92rcd13ifvqfh0","pricing_plan_id":"cebpf4jnsgd1na2vs0mg"},{"bike_id":"8a67bf10-cbc8-4841-a717-43d3b2306089","system_id":"levelo_inurba_marseille","lat":43.29747,"lon":5.3778,"is_reserved":false,"is_disabled":false,"rental_uris":{"android":"levelo://app?vid=8a67bf10-cbc8-4841-a717-43d3b2306089","ios":"levelo://app?vid=8a67bf10-cbc8-4841-a717-43d3b2306089"},"vehicle_type_id":"4","last_reported":1758884889,"current_range_meters":3600,"station_id":"","pricing_plan_id":"cebpf4jnsgd1na2vs0mg"},{"bike_id":"dfb611b8-f179-492e-8f7f-d8892eeee97c","system_id":"levelo_inurba_marseille","lat":43.29009,"lon":5.35604,"is_reserved":false,"is_disabled":false,"rental_uris":{"android":"levelo://app?vid=dfb611b8-f179-492e-8f7f-d8892eeee97c","ios":"levelo://app?vid=dfb611b8-f179-492e-8f7f-d8892eeee97c"},"vehicle_type_id":"4","last_reported":1758884889,"current_range_meters":4000,"station_id":"ce4bhb92rcd13ifvqen0","pricing_plan_id":"cebpf4jnsgd1na2vs0mg"},{"bike_id":"2be08365-57f5-41d8-a0e4-2c20c6b67d05","system_id":"levelo_inurba_marseille","lat":43.31174,"lon":5.3872,"is_reserved":false,"is_disabled":false,"rental_uris":{"android":"levelo://app?vid=2be08365-57f5-41d8-a0e4-2c20c6b67d05","ios":"levelo://app?vid=2be08365-57f5-41d8-a0e4-2c20c6b67d05"},"vehicle_type_id":"4","last_reported":1758884889,"current_range_meters":4000,"station_id":"ce4bgv12rcd13ifvqcp0","pricing_plan_id":"cebpf4jnsgd1na2vs0mg"},{"bike_id":"d1bf5877-7433-4026-a1ea-b36c24e54045","system_id":"levelo_inurba_marseille","lat":43.21189,"lon":5.35074,"is_reserved":false,"is_disabled":false,"rental_uris":{"android":"levelo://app?vid=d1bf5877-7433-4026-a1ea-b36c24e54045","ios":"levelo://app?vid=d1bf5877-7433-4026-a1ea-b36c24e54045"},"vehicle_type_id":"4","last_reported":1758884889,"current_range_meters":4000,"station_id":"st_cvj6sg6p6f1abm77japg","pricing_plan_id":"cebpf4jnsgd1na2vs0mg"},{"bike_id":"58bcb43d-c000-4e3e-b004-30450f57645b","system_id":"levelo_inurba_marseille","lat":43.29527,"lon":5.37448,"is_reserved":false,"is_disabled":true,"rental_uris":{"android":"levelo://app?vid=58bcb43d-c000-4e3e-b004-30450f57645b","ios":"levelo://app?vid=58bcb43d-c000-4e3e-b004-30450f57645b"},"vehicle_type_id":"4","last_reported":1758884889,"current_range_meters":4000,"station_id":"","pricing_plan_id":"cebpf4jnsgd1na2vs0mg"},{"bike_id":"438ead59-de14-4fa0-a61d-03a70a4122ae","system_id":"levelo_inurba_marseille","lat":43.97269,"lon":4.89111,"is_reserved":false,"is_disabled":true,"rental_uris":{"android":"levelo://app?vid=438ead59-de14-4fa0-a61d-03a70a4122ae","ios":"levelo://app?vid=438ead59-de14-4fa0-a61d-03a70a4122ae"},"vehicle_type_id":"4","last_reported":1758884889,"current_range_meters":4000,"station_id":"","pricing_plan_id":"cebpf4jnsgd1na2vs0mg"},{"bike_id":"fd8f0a9d-738a-434f-a8ae-8c9718e7d7b3","system_id":"levelo_inurba_marseille","lat":43.317018,"lon":5.376643,"is_reserved":false,"is_disabled":false,"rental_uris":{"android":"levelo://app?vid=fd8f0a9d-738a-434f-a8ae-8c9718e7d7b3","ios":"levelo://app?vid=fd8f0a9d-738a-434f-a8ae-8c9718e7d7b3"},"vehicle_type_id":"4","last_reported":1758884889,"current_range_meters":4400,"station_id":"ce4bhr12rcd13ifvqhpg","pricing_plan_id":"cebpf4jnsgd1na2vs0mg"},{"bike_id":"e2c32013-a53d-43e8-aa4f-f03f2ef13815","system_id":"levelo_inurba_marseille","lat":43.291965,"lon":5.358004,"is_reserved":false,"is_disabled":false,"rental_uris":{"android":"levelo://app?vid=e2c32013-a53d-43e8-aa4f-f03f2ef13815","ios":"levelo://app?vid=e2c32013-a53d-43e8-aa4f-f03f2ef13815"},"vehicle_type_id":"4","last_reported":1758884889,"current_range_meters":4400,"station_id":"ce4bhb12rcd13ifvqel0","pricing_plan_id":"cebpf4jnsgd1na2vs0mg"},{"bike_id":"ad4acf3b-593e-48c2-a3b6-be42735433ec","system_id":"levelo_inurba_marseille","lat":43.28702,"lon":5.39976,"is_reserved":false,"is_disabled":false,"rental_uris":{"android":"levelo://app?vid=ad4acf3b-593e-48c2-a3b6-be42735433ec","ios":"levelo://app?vid=ad4acf3b-593e-48c2-a3b6-be42735433ec"},"vehicle_type_id":"4","last_reported":1758884889,"current_range_meters":4400,"station_id":"ce4bho92rcd13ifvqh3g","pricing_plan_id":"cebpf4jnsgd1na2vs0mg"},{"bike_id":"565b8f16-e0d4-4fcb-a15a-f6c10ef89f70","system_id":"levelo_inurba_marseille","lat":43.30467,"lon":5.37916,"is_reserved":false,"is_disabled":false,"rental_uris":{"android":"levelo://app?vid=565b8f16-e0d4-4fcb-a15a-f6c10ef89f70","ios":"levelo://app?vid=565b8f16-e0d4-4fcb-a15a-f6c10ef89f70"},"vehicle_type_id":"4","last_reported":1758884889,"current_range_meters":4400,"station_id":"ce4bgup2rcd13ifvqcn0","pricing_plan_id":"cebpf4jnsgd1na2vs0mg"},{"bike_id":"0c81b40b-1c40-4984-9001-de11236803c2","system_id":"levelo_inurba_marseille","lat":43.25085,"lon":5.39513,"is_reserved":false,"is_disabled":false,"rental_uris":{"android":"levelo://app?vid=0c81b40b-1c40-4984-9001-de11236803c2","ios":"levelo://app?vid=0c81b40b-1c40-4984-9001-de11236803c2"},"vehicle_type_id":"4","last_reported":1758884889,"current_range_meters":4800,"station_id":"ce4bhm12rcd13ifvqgkg","pricing_plan_id":"cebpf4jnsgd1na2vs0mg"},{"bike_id":"f60e27ec-6372-4738-912b-cc5add3ebd55","system_id":"levelo_inurba_marseille","lat":43.29276,"lon":5.40112,"is_reserved":false,"is_disabled":false,"rental_uris":{"android":"levelo://app?vid=f60e27ec-6372-4738-912b-cc5add3ebd55","ios":"levelo://app?vid=f60e27ec-6372-4738-912b-cc5add3ebd55"},"vehicle_type_id":"4","last_reported":1758884889,"current_range_meters":4800,"station_id":"ce4bh312rcd13ifvqdk0","pricing_plan_id":"cebpf4jnsgd1na2vs0mg"},{"bike_id":"32f30c2d-f5e4-4a3f-8eaf-df20f67f2423","system_id":"levelo_inurba_marseille","lat":43.24389,"lon":5.37059,"is_reserved":false,"is_disabled":false,"rental_uris":{"android":"levelo://app?vid=32f30c2d-f5e4-4a3f-8eaf-df20f67f2423","ios":"levelo://app?vid=32f30c2d-f5e4-4a3f-8eaf-df20f67f2423"},"vehicle_type_id":"4","last_reported":1758884889,"current_range_meters":4400,"station_id":"ce4bhhh2rcd13ifvqfk0","pricing_plan_id":"cebpf4jnsgd1na2vs0mg"},{"bike_id":"6cd537e0-dbfc-4f59-b3b3-22491905826b","system_id":"levelo_inurba_marseille","lat":43.24642,"lon":5.38906,"is_reserved":false,"is_disabled":true,"rental_uris":{"android":"levelo://app?vid=6cd537e0-dbfc-4f59-b3b3-22491905826b","ios":"levelo://app?vid=6cd537e0-dbfc-4f59-b3b3-22491905826b"},"vehicle_type_id":"4","last_reported":1758884889,"current_range_meters":5600,"station_id":"ce4bhg12rcd13ifvqf60","pricing_plan_id":"cebpf4jnsgd1na2vs0mg"},{"bike_id":"f7456772-b0a2-4a7c-a0f3-a14a6ad2054f","system_id":"levelo_inurba_marseille","lat":43.28284,"lon":5.35061,"is_reserved":false,"is_disabled":false,"rental_uris":{"android":"levelo://app?vid=f7456772-b0a2-4a7c-a0f3-a14a6ad2054f","ios":"levelo://app?vid=f7456772-b0a2-4a7c-a0f3-a14a6ad2054f"},"vehicle_type_id":"4","last_reported":1758884889,"current_range_meters":6000,"station_id":"ce4bhbp2rcd13ifvqerg","pricing_plan_id":"cebpf4jnsgd1na2vs0mg"},{"bike_id":"dfb090e7-d5db-4ab4-9dc5-5d636c1d17d4","system_id":"levelo_inurba_marseille","lat":43.28934,"lon":5.38381,"is_reserved":false,"is_disabled":false,"rental_uris":{"android":"levelo://app?vid=dfb090e7-d5db-4ab4-9dc5-5d636c1d17d4","ios":"levelo://app?vid=dfb090e7-d5db-4ab4-9dc5-5d636c1d17d4"},"vehicle_type_id":"4","last_reported":1758884889,"current_range_meters":6000,"station_id":"ce4bh612rcd13ifvqe6g","pricing_plan_id":"cebpf4jnsgd1na2vs0mg"},{"bike_id":"b0e65e99-3bb0-47ea-ac88-d8ae408a9133","system_id":"levelo_inurba_marseille","lat":43.27936,"lon":5.41037,"is_reserved":false,"is_disabled":false,"rental_uris":{"android":"levelo://app?vid=b0e65e99-3bb0-47ea-ac88-d8ae408a9133","ios":"levelo://app?vid=b0e65e99-3bb0-47ea-ac88-d8ae408a9133"},"vehicle_type_id":"4","last_reported":1758884889,"current_range_meters":6000,"station_id":"ce4bhnp2rcd13ifvqh0g","pricing_plan_id":"cebpf4jnsgd1na2vs0mg"},{"bike_id":"afb5f42c-bc92-4753-b8b5-463a6aed8244","system_id":"levelo_inurba_marseille","lat":43.33773,"lon":5.3741,"is_reserved":false,"is_disabled":false,"rental_uris":{"android":"levelo://app?vid=afb5f42c-bc92-4753-b8b5-463a6aed8244","ios":"levelo://app?vid=afb5f42c-bc92-4753-b8b5-463a6aed8244"},"vehicle_type_id":"4","last_reported":1758884889,"current_range_meters":6000,"station_id":"","pricing_plan_id":"cebpf4jnsgd1na2vs0mg"},{"bike_id":"9d51a1d4-1bc5-4dad-be86-0dd9e7cd18ed","system_id":"levelo_inurba_marseille","lat":43.28271,"lon":5.35058,"is_reserved":false,"is_disabled":false,"rental_uris":{"android":"levelo://app?vid=9d51a1d4-1bc5-4dad-be86-0dd9e7cd18ed","ios":"levelo://app?vid=9d51a1d4-1bc5-4dad-be86-0dd9e7cd18ed"},"vehicle_type_id":"4","last_reported":1758884889,"current_range_meters":6400,"station_id":"ce4bhbp2rcd13ifvqerg","pricing_plan_id":"cebpf4jnsgd1na2vs0mg"},{"bike_id":"3bd489e5-2659-4c74-b36b-70a17cc86db1","system_id":"levelo_inurba_marseille","lat":43.23447,"lon":5.36072,"is_reserved":false,"is_disabled":false,"rental_uris":{"android":"levelo://app?vid=3bd489e5-2659-4c74-b36b-70a17cc86db1","ios":"levelo://app?vid=3bd489e5-2659-4c74-b36b-70a17cc86db1"},"vehicle_type_id":"4","last_reported":1758884889,"current_range_meters":6400,"station_id":"","pricing_plan_id":"cebpf4jnsgd1na2vs0mg"},{"bike_id":"0757d931-a28d-4dbd-8667-28fd9f782eba","system_id":"levelo_inurba_marseille","lat":43.230605,"lon":5.354809,"is_reserved":false,"is_disabled":false,"rental_uris":{"android":"levelo://app?vid=0757d931-a28d-4dbd-8667-28fd9f782eba","ios":"levelo://app?vid=0757d931-a28d-4dbd-8667-28fd9f782eba"},"vehicle_type_id":"4","last_reported":1758884889,"current_range_meters":6400,"station_id":"cpo3342slgdg3j2ifvpg","pricing_plan_id":"cebpf4jnsgd1na2vs0mg"},{"bike_id":"53c742ed-3a6b-43b4-8c88-65c8cf7acd68","system_id":"levelo_inurba_marseille","lat":43.28411,"lon":5.37514,"is_reserved":false,"is_disabled":false,"rental_uris":{"android":"levelo://app?vid=53c742ed-3a6b-43b4-8c88-65c8cf7acd68","ios":"levelo://app?vid=53c742ed-3a6b-43b4-8c88-65c8cf7acd68"},"vehicle_type_id":"4","last_reported":1758884889,"current_range_meters":6400,"station_id":"ce4bh412rcd13ifvqds0","pricing_plan_id":"cebpf4jnsgd1na2vs0mg"},{"bike_id":"5542fa88-3dae-425b-b1be-5895ed684075","system_id":"levelo_inurba_marseille","lat":43.2318,"lon":5.39991,"is_reserved":false,"is_disabled":false,"rental_uris":{"android":"levelo://app?vid=5542fa88-3dae-425b-b1be-5895ed684075","ios":"levelo://app?vid=5542fa88-3dae-425b-b1be-5895ed684075"},"vehicle_type_id":"4","last_reported":1758884889,"current_range_meters":6400,"station_id":"ce4bhn12rcd13ifvqgqg","pricing_plan_id":"cebpf4jnsgd1na2vs0mg"},{"bike_id":"dd1a5588-0f80-49e5-a1d8-26325029fd1e","system_id":"levelo_inurba_marseille","lat":43.285005,"lon":5.374817,"is_reserved":false,"is_disabled":false,"rental_uris":{"android":"levelo://app?vid=dd1a5588-0f80-49e5-a1d8-26325029fd1e","ios":"levelo://app?vid=dd1a5588-0f80-49e5-a1d8-26325029fd1e"},"vehicle_type_id":"4","last_reported":1758884889,"current_range_meters":6800,"station_id":"ce4bh412rcd13ifvqds0","pricing_plan_id":"cebpf4jnsgd1na2vs0mg"},{"bike_id":"2e182951-8b10-4026-b924-3b67584f196b","system_id":"levelo_inurba_marseille","lat":43.30376,"lon":5.42487,"is_reserved":false,"is_disabled":false,"rental_uris":{"android":"levelo://app?vid=2e182951-8b10-4026-b924-3b67584f196b","ios":"levelo://app?vid=2e182951-8b10-4026-b924-3b67584f196b"},"vehicle_type_id":"4","last_reported":1758884889,"current_range_meters":6800,"station_id":"ce4bhoh2rcd13ifvqh6g","pricing_plan_id":"cebpf4jnsgd1na2vs0mg"},{"bike_id":"cab46120-6cad-4c83-9c61-ae42ae9f98ce","system_id":"levelo_inurba_marseille","lat":43.30913,"lon":5.39633,"is_reserved":false,"is_disabled":false,"rental_uris":{"android":"levelo://app?vid=cab46120-6cad-4c83-9c61-ae42ae9f98ce","ios":"levelo://app?vid=cab46120-6cad-4c83-9c61-ae42ae9f98ce"},"vehicle_type_id":"4","last_reported":1758884889,"current_range_meters":6800,"station_id":"ce4bh012rcd13ifvqcv0","pricing_plan_id":"cebpf4jnsgd1na2vs0mg"},{"bike_id":"cba8aa6c-7f74-4030-af1a-03009ce82c0e","system_id":"levelo_inurba_marseille","lat":43.28151,"lon":5.42646,"is_reserved":false,"is_disabled":false,"rental_uris":{"android":"levelo://app?vid=cba8aa6c-7f74-4030-af1a-03009ce82c0e","ios":"levelo://app?vid=cba8aa6c-7f74-4030-af1a-03009ce82c0e"},"vehicle_type_id":"4","last_reported":1758884889,"current_range_meters":7200,"station_id":"ce4bhnh2rcd13ifvqgug","pricing_plan_id":"cebpf4jnsgd1na2vs0mg"},{"bike_id":"170d25a3-3f37-45de-95ef-88e6e1e28de3","system_id":"levelo_inurba_marseille","lat":43.3123,"lon":5.36891,"is_reserved":false,"is_disabled":false,"rental_uris":{"android":"levelo://app?vid=170d25a3-3f37-45de-95ef-88e6e1e28de3","ios":"levelo://app?vid=170d25a3-3f37-45de-95ef-88e6e1e28de3"},"vehicle_type_id":"4","last_reported":1758884889,"current_range_meters":7200,"station_id":"ce4bgl92rcd13ifvqbq0","pricing_plan_id":"cebpf4jnsgd1na2vs0mg"},{"bike_id":"ed7f8f67-3ed2-4247-b995-4fee0395f434","system_id":"levelo_inurba_marseille","lat":43.26786,"lon":5.39409,"is_reserved":false,"is_disabled":false,"rental_uris":{"android":"levelo://app?vid=ed7f8f67-3ed2-4247-b995-4fee0395f434","ios":"levelo://app?vid=ed7f8f67-3ed2-4247-b995-4fee0395f434"},"vehicle_type_id":"4","last_reported":1758884889,"current_range_meters":6800,"station_id":"ce4bhh12rcd13ifvqfg0","pricing_plan_id":"cebpf4jnsgd1na2vs0mg"},{"bike_id":"379911e0-a8b9-4b05-96ac-c75be54d3c45","system_id":"levelo_inurba_marseille","lat":43.28872,"lon":5.42524,"is_reserved":false,"is_disabled":false,"rental_uris":{"android":"levelo://app?vid=379911e0-a8b9-4b05-96ac-c75be54d3c45","ios":"levelo://app?vid=379911e0-a8b9-4b05-96ac-c75be54d3c45"},"vehicle_type_id":"4","last_reported":1758884889,"current_range_meters":7200,"station_id":"","pricing_plan_id":"cebpf4jnsgd1na2vs0mg"},{"bike_id":"9a01d92f-89b5-4919-a02a-874ed277a8b5","system_id":"levelo_inurba_marseille","lat":43.30465,"lon":5.37906,"is_reserved":false,"is_disabled":false,"rental_uris":{"android":"levelo://app?vid=9a01d92f-89b5-4919-a02a-874ed277a8b5","ios":"levelo://app?vid=9a01d92f-89b5-4919-a02a-874ed277a8b5"},"vehicle_type_id":"4","last_reported":1758884889,"current_range_meters":7200,"station_id":"ce4bgup2rcd13ifvqcn0","pricing_plan_id":"cebpf4jnsgd1na2vs0mg"},{"bike_id":"aa3363c5-53af-4130-b343-344e4d2a3f30","system_id":"levelo_inurba_marseille","lat":43.26194,"lon":5.37447,"is_reserved":false,"is_disabled":false,"rental_uris":{"android":"levelo://app?vid=aa3363c5-53af-4130-b343-344e4d2a3f30","ios":"levelo://app?vid=aa3363c5-53af-4130-b343-344e4d2a3f30"},"vehicle_type_id":"4","last_reported":1758884889,"current_range_meters":8000,"station_id":"ce4bhgp2rcd13ifvqfc0","pricing_plan_id":"cebpf4jnsgd1na2vs0mg"},{"bike_id":"b3195491-1786-4e97-8179-9f991c4f1272","system_id":"levelo_inurba_marseille","lat":43.28001,"lon":5.40013,"is_reserved":false,"is_disabled":false,"rental_uris":{"android":"levelo://app?vid=b3195491-1786-4e97-8179-9f991c4f1272","ios":"levelo://app?vid=b3195491-1786-4e97-8179-9f991c4f1272"},"vehicle_type_id":"4","last_reported":1758884889,"current_range_meters":8000,"station_id":"ce4bho92rcd13ifvqh4g","pricing_plan_id":"cebpf4jnsgd1na2vs0mg"},{"bike_id":"9e5baae9-5270-43b9-b453-0d112f58b9e6","system_id":"levelo_inurba_marseille","lat":43.23151,"lon":5.43717,"is_reserved":false,"is_disabled":false,"rental_uris":{"android":"levelo://app?vid=9e5baae9-5270-43b9-b453-0d112f58b9e6","ios":"levelo://app?vid=9e5baae9-5270-43b9-b453-0d112f58b9e6"},"vehicle_type_id":"4","last_reported":1758884889,"current_range_meters":8000,"station_id":"ce4bhmp2rcd13ifvqgog","pricing_plan_id":"cebpf4jnsgd1na2vs0mg"},{"bike_id":"90c3e9c9-77d3-41aa-be48-5c1241178dfc","system_id":"levelo_inurba_marseille","lat":43.26553,"lon":5.37286,"is_reserved":false,"is_disabled":false,"rental_uris":{"android":"levelo://app?vid=90c3e9c9-77d3-41aa-be48-5c1241178dfc","ios":"levelo://app?vid=90c3e9c9-77d3-41aa-be48-5c1241178dfc"},"vehicle_type_id":"4","last_reported":1758884889,"current_range_meters":8400,"station_id":"ce4bhg12rcd13ifvqf70","pricing_plan_id":"cebpf4jnsgd1na2vs0mg"},{"bike_id":"09f62ba6-af65-412e-aa52-83df4d376991","system_id":"levelo_inurba_marseille","lat":43.31091,"lon":5.36744,"is_reserved":false,"is_disabled":false,"rental_uris":{"android":"levelo://app?vid=09f62ba6-af65-412e-aa52-83df4d376991","ios":"levelo://app?vid=09f62ba6-af65-412e-aa52-83df4d376991"},"vehicle_type_id":"4","last_reported":1758884889,"current_range_meters":8400,"station_id":"","pricing_plan_id":"cebpf4jnsgd1na2vs0mg"},{"bike_id":"8eae954c-dab6-4303-94f5-569e1c483f62","system_id":"levelo_inurba_marseille","lat":43.29451,"lon":5.40762,"is_reserved":false,"is_disabled":false,"rental_uris":{"android":"levelo://app?vid=8eae954c-dab6-4303-94f5-569e1c483f62","ios":"levelo://app?vid=8eae954c-dab6-4303-94f5-569e1c483f62"},"vehicle_type_id":"4","last_reported":1758884889,"current_range_meters":8400,"station_id":"","pricing_plan_id":"cebpf4jnsgd1na2vs0mg"},{"bike_id":"7b4021de-1c13-468f-a548-994dafb3df4a","system_id":"levelo_inurba_marseille","lat":43.29575,"lon":5.37521,"is_reserved":false,"is_disabled":false,"rental_uris":{"android":"levelo://app?vid=7b4021de-1c13-468f-a548-994dafb3df4a","ios":"levelo://app?vid=7b4021de-1c13-468f-a548-994dafb3df4a"},"vehicle_type_id":"4","last_reported":1758884889,"current_range_meters":8400,"station_id":"ce4bgh92rcd13ifvqb50","pricing_plan_id":"cebpf4jnsgd1na2vs0mg"},{"bike_id":"332d6867-ff96-478f-bd3e-880160196b1f","system_id":"levelo_inurba_marseille","lat":43.27811,"lon":5.40711,"is_reserved":false,"is_disabled":false,"rental_uris":{"android":"levelo://app?vid=332d6867-ff96-478f-bd3e-880160196b1f","ios":"levelo://app?vid=332d6867-ff96-478f-bd3e-880160196b1f"},"vehicle_type_id":"4","last_reported":1758884889,"current_range_meters":8400,"station_id":"ce4bhnh2rcd13ifvqgtg","pricing_plan_id":"cebpf4jnsgd1na2vs0mg"},{"bike_id":"234f9897-ca2f-4a17-807c-faef05729c1e","system_id":"levelo_inurba_marseille","lat":43.305481,"lon":5.367069,"is_reserved":false,"is_disabled":false,"rental_uris":{"android":"levelo://app?vid=234f9897-ca2f-4a17-807c-faef05729c1e","ios":"levelo://app?vid=234f9897-ca2f-4a17-807c-faef05729c1e"},"vehicle_type_id":"4","last_reported":1758884889,"current_range_meters":8400,"station_id":"ce4bgrp2rcd13ifvqc9g","pricing_plan_id":"cebpf4jnsgd1na2vs0mg"},{"bike_id":"bdec3261-de13-477f-818b-7af8ae1d1f6a","system_id":"levelo_inurba_marseille","lat":43.23961,"lon":5.37657,"is_reserved":false,"is_disabled":false,"rental_uris":{"android":"levelo://app?vid=bdec3261-de13-477f-818b-7af8ae1d1f6a","ios":"levelo://app?vid=bdec3261-de13-477f-818b-7af8ae1d1f6a"},"vehicle_type_id":"4","last_reported":1758884889,"current_range_meters":8400,"station_id":"","pricing_plan_id":"cebpf4jnsgd1na2vs0mg"},{"bike_id":"f90766b3-afe1-48da-b84e-d3036688a7b0","system_id":"levelo_inurba_marseille","lat":43.29722,"lon":5.37696,"is_reserved":false,"is_disabled":false,"rental_uris":{"android":"levelo://app?vid=f90766b3-afe1-48da-b84e-d3036688a7b0","ios":"levelo://app?vid=f90766b3-afe1-48da-b84e-d3036688a7b0"},"vehicle_type_id":"4","last_reported":1758884889,"current_range_meters":8400,"station_id":"ce4bgkh2rcd13ifvqbl0","pricing_plan_id":"cebpf4jnsgd1na2vs0mg"},{"bike_id":"003515e8-8117-44bb-979d-5f47e8d50fda","system_id":"levelo_inurba_marseille","lat":43.30628,"lon":5.37538,"is_reserved":false,"is_disabled":false,"rental_uris":{"android":"levelo://app?vid=003515e8-8117-44bb-979d-5f47e8d50fda","ios":"levelo://app?vid=003515e8-8117-44bb-979d-5f47e8d50fda"},"vehicle_type_id":"4","last_reported":1758884889,"current_range_meters":8800,"station_id":"","pricing_plan_id":"cebpf4jnsgd1na2vs0mg"},{"bike_id":"8917b1cf-f1f7-44e3-a8f9-93ebde28ebf0","system_id":"levelo_inurba_marseille","lat":43.283495,"lon":5.380993,"is_reserved":false,"is_disabled":false,"rental_uris":{"android":"levelo://app?vid=8917b1cf-f1f7-44e3-a8f9-93ebde28ebf0","ios":"levelo://app?vid=8917b1cf-f1f7-44e3-a8f9-93ebde28ebf0"},"vehicle_type_id":"4","last_reported":1758884889,"current_range_meters":8800,"station_id":"ce4bh412rcd13ifvqdr0","pricing_plan_id":"cebpf4jnsgd1na2vs0mg"},{"bike_id":"d7f9e1df-8b0f-4a8d-ad58-d349030d8c25","system_id":"levelo_inurba_marseille","lat":43.29615,"lon":5.37809,"is_reserved":false,"is_disabled":false,"rental_uris":{"android":"levelo://app?vid=d7f9e1df-8b0f-4a8d-ad58-d349030d8c25","ios":"levelo://app?vid=d7f9e1df-8b0f-4a8d-ad58-d349030d8c25"},"vehicle_type_id":"4","last_reported":1758884889,"current_range_meters":8800,"station_id":"","pricing_plan_id":"cebpf4jnsgd1na2vs0mg"},{"bike_id":"315914cf-d567-4149-8509-3ee03e3dda51","system_id":"levelo_inurba_marseille","lat":43.30183,"lon":5.36626,"is_reserved":false,"is_disabled":false,"rental_uris":{"android":"levelo://app?vid=315914cf-d567-4149-8509-3ee03e3dda51","ios":"levelo://app?vid=315914cf-d567-4149-8509-3ee03e3dda51"},"vehicle_type_id":"4","last_reported":1758884889,"current_range_meters":8400,"station_id":"ce4bgrh2rcd13ifvqc8g","pricing_plan_id":"cebpf4jnsgd1na2vs0mg"},{"bike_id":"f82a947c-7969-45db-87fa-130d53029612","system_id":"levelo_inurba_marseille","lat":43.26197,"lon":5.37918,"is_reserved":false,"is_disabled":false,"rental_uris":{"android":"levelo://app?vid=f82a947c-7969-45db-87fa-130d53029612","ios":"levelo://app?vid=f82a947c-7969-45db-87fa-130d53029612"},"vehicle_type_id":"4","last_reported":1758884889,"current_range_meters":8400,"station_id":"ce4bhjp2rcd13ifvqg90","pricing_plan_id":"cebpf4jnsgd1na2vs0mg"},{"bike_id":"b4fc2896-3200-4225-90d6-75548b902696","system_id":"levelo_inurba_marseille","lat":43.241723,"lon":5.364005,"is_reserved":false,"is_disabled":false,"rental_uris":{"android":"levelo://app?vid=b4fc2896-3200-4225-90d6-75548b902696","ios":"levelo://app?vid=b4fc2896-3200-4225-90d6-75548b902696"},"vehicle_type_id":"4","last_reported":1758884889,"current_range_meters":8800,"station_id":"cpo36qri1sfpv3e86is0","pricing_plan_id":"cebpf4jnsgd1na2vs0mg"},{"bike_id":"212de2eb-8bbc-413c-b204-9fe1facd76e8","system_id":"levelo_inurba_marseille","lat":43.31297,"lon":5.37823,"is_reserved":false,"is_disabled":false,"rental_uris":{"android":"levelo://app?vid=212de2eb-8bbc-413c-b204-9fe1facd76e8","ios":"levelo://app?vid=212de2eb-8bbc-413c-b204-9fe1facd76e8"},"vehicle_type_id":"4","last_reported":1758884889,"current_range_meters":8800,"station_id":"","pricing_plan_id":"cebpf4jnsgd1na2vs0mg"},{"bike_id":"4aa45a87-12ea-4226-b557-d611fef74c29","system_id":"levelo_inurba_marseille","lat":43.27182,"lon":5.40978,"is_reserved":false,"is_disabled":false,"rental_uris":{"android":"levelo://app?vid=4aa45a87-12ea-4226-b557-d611fef74c29","ios":"levelo://app?vid=4aa45a87-12ea-4226-b557-d611fef74c29"},"vehicle_type_id":"4","last_reported":1758884889,"current_range_meters":8800,"station_id":"ce4bhl12rcd13ifvqgf0","pricing_plan_id":"cebpf4jnsgd1na2vs0mg"},{"bike_id":"fefb5c60-0b11-41ad-8d30-5d9169054db9","system_id":"levelo_inurba_marseille","lat":43.301459,"lon":5.380864,"is_reserved":false,"is_disabled":false,"rental_uris":{"android":"levelo://app?vid=fefb5c60-0b11-41ad-8d30-5d9169054db9","ios":"levelo://app?vid=fefb5c60-0b11-41ad-8d30-5d9169054db9"},"vehicle_type_id":"4","last_reported":1758884889,"current_range_meters":9200,"station_id":"ce4bgjp2rcd13ifvqbh0","pricing_plan_id":"cebpf4jnsgd1na2vs0mg"},{"bike_id":"cb540118-7681-4658-89a4-0fcfa78a07cf","system_id":"levelo_inurba_marseille","lat":43.28425,"lon":5.37505,"is_reserved":false,"is_disabled":false,"rental_uris":{"android":"levelo://app?vid=cb540118-7681-4658-89a4-0fcfa78a07cf","ios":"levelo://app?vid=cb540118-7681-4658-89a4-0fcfa78a07cf"},"vehicle_type_id":"4","last_reported":1758884889,"current_range_meters":9200,"station_id":"ce4bh412rcd13ifvqds0","pricing_plan_id":"cebpf4jnsgd1na2vs0mg"},{"bike_id":"c42662fd-8b1b-4b95-b8c8-451d30d16f9c","system_id":"levelo_inurba_marseille","lat":43.23155,"lon":5.43716,"is_reserved":false,"is_disabled":false,"rental_uris":{"android":"levelo://app?vid=c42662fd-8b1b-4b95-b8c8-451d30d16f9c","ios":"levelo://app?vid=c42662fd-8b1b-4b95-b8c8-451d30d16f9c"},"vehicle_type_id":"4","last_reported":1758884889,"current_range_meters":9200,"station_id":"ce4bhmp2rcd13ifvqgog","pricing_plan_id":"cebpf4jnsgd1na2vs0mg"},{"bike_id":"3a1b0aec-41fe-4fe4-a265-d1a9001d0607","system_id":"levelo_inurba_marseille","lat":43.27998,"lon":5.41667,"is_reserved":false,"is_disabled":false,"rental_uris":{"android":"levelo://app?vid=3a1b0aec-41fe-4fe4-a265-d1a9001d0607","ios":"levelo://app?vid=3a1b0aec-41fe-4fe4-a265-d1a9001d0607"},"vehicle_type_id":"4","last_reported":1758884889,"current_range_meters":9200,"station_id":"ce4bho12rcd13ifvqh1g","pricing_plan_id":"cebpf4jnsgd1na2vs0mg"},{"bike_id":"a1e82ce2-3451-4e31-a1bf-c0be05f73183","system_id":"levelo_inurba_marseille","lat":43.30466,"lon":5.379231,"is_reserved":false,"is_disabled":true,"rental_uris":{"android":"levelo://app?vid=a1e82ce2-3451-4e31-a1bf-c0be05f73183","ios":"levelo://app?vid=a1e82ce2-3451-4e31-a1bf-c0be05f73183"},"vehicle_type_id":"4","last_reported":1758884889,"current_range_meters":9600,"station_id":"ce4bgup2rcd13ifvqcn0","pricing_plan_id":"cebpf4jnsgd1na2vs0mg"},{"bike_id":"f897d300-643c-4c7a-951b-f56d70ef23ca","system_id":"levelo_inurba_marseille","lat":43.3033,"lon":5.39063,"is_reserved":false,"is_disabled":false,"rental_uris":{"android":"levelo://app?vid=f897d300-643c-4c7a-951b-f56d70ef23ca","ios":"levelo://app?vid=f897d300-643c-4c7a-951b-f56d70ef23ca"},"vehicle_type_id":"4","last_reported":1758884889,"current_range_meters":9600,"station_id":"","pricing_plan_id":"cebpf4jnsgd1na2vs0mg"},{"bike_id":"ebd56324-b7f1-4cd4-9891-4cc1b513c62e","system_id":"levelo_inurba_marseille","lat":43.31484,"lon":5.37306,"is_reserved":false,"is_disabled":false,"rental_uris":{"android":"levelo://app?vid=ebd56324-b7f1-4cd4-9891-4cc1b513c62e","ios":"levelo://app?vid=ebd56324-b7f1-4cd4-9891-4cc1b513c62e"},"vehicle_type_id":"4","last_reported":1758884889,"current_range_meters":9200,"station_id":"ce4bgt12rcd13ifvqcd0","pricing_plan_id":"cebpf4jnsgd1na2vs0mg"},{"bike_id":"2662cf47-8dac-4a8d-b1b8-2248a5dead70","system_id":"levelo_inurba_marseille","lat":43.26199,"lon":5.3746,"is_reserved":false,"is_disabled":false,"rental_uris":{"android":"levelo://app?vid=2662cf47-8dac-4a8d-b1b8-2248a5dead70","ios":"levelo://app?vid=2662cf47-8dac-4a8d-b1b8-2248a5dead70"},"vehicle_type_id":"4","last_reported":1758884889,"current_range_meters":9600,"station_id":"ce4bhgp2rcd13ifvqfc0","pricing_plan_id":"cebpf4jnsgd1na2vs0mg"},{"bike_id":"5695b616-7457-49fe-a081-c890d08835f8","system_id":"levelo_inurba_marseille","lat":43.23174,"lon":5.39993,"is_reserved":false,"is_disabled":false,"rental_uris":{"android":"levelo://app?vid=5695b616-7457-49fe-a081-c890d08835f8","ios":"levelo://app?vid=5695b616-7457-49fe-a081-c890d08835f8"},"vehicle_type_id":"4","last_reported":1758884889,"current_range_meters":9600,"station_id":"ce4bhn12rcd13ifvqgqg","pricing_plan_id":"cebpf4jnsgd1na2vs0mg"},{"bike_id":"063fb100-d869-403b-8afa-93fdec1ae176","system_id":"levelo_inurba_marseille","lat":43.28148,"lon":5.42639,"is_reserved":false,"is_disabled":false,"rental_uris":{"android":"levelo://app?vid=063fb100-d869-403b-8afa-93fdec1ae176","ios":"levelo://app?vid=063fb100-d869-403b-8afa-93fdec1ae176"},"vehicle_type_id":"4","last_reported":1758884889,"current_range_meters":10000,"station_id":"ce4bhnh2rcd13ifvqgug","pricing_plan_id":"cebpf4jnsgd1na2vs0mg"},{"bike_id":"a34d2d2e-9aef-4509-a6c5-c09a4a6a512b","system_id":"levelo_inurba_marseille","lat":43.27176,"lon":5.40985,"is_reserved":false,"is_disabled":false,"rental_uris":{"android":"levelo://app?vid=a34d2d2e-9aef-4509-a6c5-c09a4a6a512b","ios":"levelo://app?vid=a34d2d2e-9aef-4509-a6c5-c09a4a6a512b"},"vehicle_type_id":"4","last_reported":1758884889,"current_range_meters":10000,"station_id":"ce4bhl12rcd13ifvqgf0","pricing_plan_id":"cebpf4jnsgd1na2vs0mg"},{"bike_id":"edf9ef85-12a8-4e7b-bc2e-dbd3c80af557","system_id":"levelo_inurba_marseille","lat":43.31072,"lon":5.38343,"is_reserved":false,"is_disabled":false,"rental_uris":{"android":"levelo://app?vid=edf9ef85-12a8-4e7b-bc2e-dbd3c80af557","ios":"levelo://app?vid=edf9ef85-12a8-4e7b-bc2e-dbd3c80af557"},"vehicle_type_id":"4","last_reported":1758884889,"current_range_meters":10000,"station_id":"ce4bgv92rcd13ifvqcr0","pricing_plan_id":"cebpf4jnsgd1na2vs0mg"},{"bike_id":"f5a888db-229a-4246-81ee-0ff2a1bcfdfa","system_id":"levelo_inurba_marseille","lat":43.2293,"lon":5.35378,"is_reserved":false,"is_disabled":false,"rental_uris":{"android":"levelo://app?vid=f5a888db-229a-4246-81ee-0ff2a1bcfdfa","ios":"levelo://app?vid=f5a888db-229a-4246-81ee-0ff2a1bcfdfa"},"vehicle_type_id":"4","last_reported":1758884889,"current_range_meters":10000,"station_id":"cpo3532slgdg3j2ikp40","pricing_plan_id":"cebpf4jnsgd1na2vs0mg"},{"bike_id":"fb348001-1b5a-4c69-955b-241f4ef1e357","system_id":"levelo_inurba_marseille","lat":43.29783,"lon":5.38087,"is_reserved":false,"is_disabled":false,"rental_uris":{"android":"levelo://app?vid=fb348001-1b5a-4c69-955b-241f4ef1e357","ios":"levelo://app?vid=fb348001-1b5a-4c69-955b-241f4ef1e357"},"vehicle_type_id":"4","last_reported":1758884889,"current_range_meters":10000,"station_id":"ce4bgip2rcd13ifvqbb0","pricing_plan_id":"cebpf4jnsgd1na2vs0mg"},{"bike_id":"e00ba10a-12cf-49e2-b9a4-791c20020c37","system_id":"levelo_inurba_marseille","lat":43.28938,"lon":5.3664,"is_reserved":false,"is_disabled":false,"rental_uris":{"android":"levelo://app?vid=e00ba10a-12cf-49e2-b9a4-791c20020c37","ios":"levelo://app?vid=e00ba10a-12cf-49e2-b9a4-791c20020c37"},"vehicle_type_id":"4","last_reported":1758884889,"current_range_meters":10000,"station_id":"ce4bhap2rcd13ifvqek0","pricing_plan_id":"cebpf4jnsgd1na2vs0mg"},{"bike_id":"e5303607-da03-4ac7-b81e-b332ede84cf7","system_id":"levelo_inurba_marseille","lat":43.31294,"lon":5.37814,"is_reserved":false,"is_disabled":false,"rental_uris":{"android":"levelo://app?vid=e5303607-da03-4ac7-b81e-b332ede84cf7","ios":"levelo://app?vid=e5303607-da03-4ac7-b81e-b332ede84cf7"},"vehicle_type_id":"4","last_reported":1758884889,"current_range_meters":10000,"station_id":"","pricing_plan_id":"cebpf4jnsgd1na2vs0mg"},{"bike_id":"22e1526a-5d94-480e-9eef-c281aa35345c","system_id":"levelo_inurba_marseille","lat":43.21194,"lon":5.35099,"is_reserved":false,"is_disabled":false,"rental_uris":{"android":"levelo://app?vid=22e1526a-5d94-480e-9eef-c281aa35345c","ios":"levelo://app?vid=22e1526a-5d94-480e-9eef-c281aa35345c"},"vehicle_type_id":"4","last_reported":1758884889,"current_range_meters":10800,"station_id":"","pricing_plan_id":"cebpf4jnsgd1na2vs0mg"},{"bike_id":"d4e9aea9-37ef-4671-866a-41198a6c7125","system_id":"levelo_inurba_marseille","lat":43.30549,"lon":5.36713,"is_reserved":false,"is_disabled":false,"rental_uris":{"android":"levelo://app?vid=d4e9aea9-37ef-4671-866a-41198a6c7125","ios":"levelo://app?vid=d4e9aea9-37ef-4671-866a-41198a6c7125"},"vehicle_type_id":"4","last_reported":1758884889,"current_range_meters":10800,"station_id":"ce4bgrp2rcd13ifvqc9g","pricing_plan_id":"cebpf4jnsgd1na2vs0mg"},{"bike_id":"4dc562c3-4107-4d38-9e71-5fa82acc67cc","system_id":"levelo_inurba_marseille","lat":43.28002,"lon":5.41663,"is_reserved":false,"is_disabled":false,"rental_uris":{"android":"levelo://app?vid=4dc562c3-4107-4d38-9e71-5fa82acc67cc","ios":"levelo://app?vid=4dc562c3-4107-4d38-9e71-5fa82acc67cc"},"vehicle_type_id":"4","last_reported":1758884889,"current_range_meters":10800,"station_id":"ce4bho12rcd13ifvqh1g","pricing_plan_id":"cebpf4jnsgd1na2vs0mg"},{"bike_id":"c7f6a08b-c655-4213-b2ba-7d02e7f382fe","system_id":"levelo_inurba_marseille","lat":43.27988,"lon":5.39483,"is_reserved":false,"is_disabled":false,"rental_uris":{"android":"levelo://app?vid=c7f6a08b-c655-4213-b2ba-7d02e7f382fe","ios":"levelo://app?vid=c7f6a08b-c655-4213-b2ba-7d02e7f382fe"},"vehicle_type_id":"4","last_reported":1758884889,"current_range_meters":10800,"station_id":"","pricing_plan_id":"cebpf4jnsgd1na2vs0mg"},{"bike_id":"893820ad-0236-4cce-aea3-19cae00d7974","system_id":"levelo_inurba_marseille","lat":43.29228,"lon":5.36063,"is_reserved":false,"is_disabled":false,"rental_uris":{"android":"levelo://app?vid=893820ad-0236-4cce-aea3-19cae00d7974","ios":"levelo://app?vid=893820ad-0236-4cce-aea3-19cae00d7974"},"vehicle_type_id":"4","last_reported":1758884889,"current_range_meters":10800,"station_id":"ce4bhbh2rcd13ifvqeqg","pricing_plan_id":"cebpf4jnsgd1na2vs0mg"},{"bike_id":"97a5ee76-2e0a-479d-a727-d5a9ad8fecb2","system_id":"levelo_inurba_marseille","lat":43.22934,"lon":5.35379,"is_reserved":false,"is_disabled":false,"rental_uris":{"android":"levelo://app?vid=97a5ee76-2e0a-479d-a727-d5a9ad8fecb2","ios":"levelo://app?vid=97a5ee76-2e0a-479d-a727-d5a9ad8fecb2"},"vehicle_type_id":"4","last_reported":1758884889,"current_range_meters":11200,"station_id":"cpo3532slgdg3j2ikp40","pricing_plan_id":"cebpf4jnsgd1na2vs0mg"},{"bike_id":"5a535bf0-e071-46e2-a4c8-c4124b53f033","system_id":"levelo_inurba_marseille","lat":43.262165,"lon":5.374437,"is_reserved":false,"is_disabled":false,"rental_uris":{"android":"levelo://app?vid=5a535bf0-e071-46e2-a4c8-c4124b53f033","ios":"levelo://app?vid=5a535bf0-e071-46e2-a4c8-c4124b53f033"},"vehicle_type_id":"4","last_reported":1758884889,"current_range_meters":11200,"station_id":"ce4bhgp2rcd13ifvqfc0","pricing_plan_id":"cebpf4jnsgd1na2vs0mg"},{"bike_id":"041cd397-24ab-4e04-af23-07b961e161f4","system_id":"levelo_inurba_marseille","lat":43.337444,"lon":5.374475,"is_reserved":false,"is_disabled":false,"rental_uris":{"android":"levelo://app?vid=041cd397-24ab-4e04-af23-07b961e161f4","ios":"levelo://app?vid=041cd397-24ab-4e04-af23-07b961e161f4"},"vehicle_type_id":"4","last_reported":1758884889,"current_range_meters":11200,"station_id":"","pricing_plan_id":"cebpf4jnsgd1na2vs0mg"},{"bike_id":"1d283c31-ae7e-48d9-ab60-7186523b9918","system_id":"levelo_inurba_marseille","lat":43.29573,"lon":5.37507,"is_reserved":false,"is_disabled":false,"rental_uris":{"android":"levelo://app?vid=1d283c31-ae7e-48d9-ab60-7186523b9918","ios":"levelo://app?vid=1d283c31-ae7e-48d9-ab60-7186523b9918"},"vehicle_type_id":"4","last_reported":1758884889,"current_range_meters":11600,"station_id":"ce4bgh92rcd13ifvqb50","pricing_plan_id":"cebpf4jnsgd1na2vs0mg"},{"bike_id":"99aec3fd-38e8-433a-8b41-16e4e4589de6","system_id":"levelo_inurba_marseille","lat":43.337444,"lon":5.374475,"is_reserved":false,"is_disabled":false,"rental_uris":{"android":"levelo://app?vid=99aec3fd-38e8-433a-8b41-16e4e4589de6","ios":"levelo://app?vid=99aec3fd-38e8-433a-8b41-16e4e4589de6"},"vehicle_type_id":"4","last_reported":1758884889,"current_range_meters":11600,"station_id":"ce4bhih2rcd13ifvqfs0","pricing_plan_id":"cebpf4jnsgd1na2vs0mg"},{"bike_id":"1b0b41a5-7632-4048-aa3c-0af72d995d01","system_id":"levelo_inurba_marseille","lat":43.29193,"lon":5.35804,"is_reserved":false,"is_disabled":false,"rental_uris":{"android":"levelo://app?vid=1b0b41a5-7632-4048-aa3c-0af72d995d01","ios":"levelo://app?vid=1b0b41a5-7632-4048-aa3c-0af72d995d01"},"vehicle_type_id":"4","last_reported":1758884889,"current_range_meters":11600,"station_id":"ce4bhb12rcd13ifvqel0","pricing_plan_id":"cebpf4jnsgd1na2vs0mg"},{"bike_id":"63eacffa-316c-48cb-8afd-21bd56b0a35a","system_id":"levelo_inurba_marseille","lat":43.301571,"lon":5.380948,"is_reserved":false,"is_disabled":false,"rental_uris":{"android":"levelo://app?vid=63eacffa-316c-48cb-8afd-21bd56b0a35a","ios":"levelo://app?vid=63eacffa-316c-48cb-8afd-21bd56b0a35a"},"vehicle_type_id":"4","last_reported":1758884889,"current_range_meters":11600,"station_id":"ce4bgjp2rcd13ifvqbh0","pricing_plan_id":"cebpf4jnsgd1na2vs0mg"},{"bike_id":"ea0fb565-2a30-4d64-9c7b-6411522472c1","system_id":"levelo_inurba_marseille","lat":43.26559,"lon":5.37278,"is_reserved":false,"is_disabled":false,"rental_uris":{"android":"levelo://app?vid=ea0fb565-2a30-4d64-9c7b-6411522472c1","ios":"levelo://app?vid=ea0fb565-2a30-4d64-9c7b-6411522472c1"},"vehicle_type_id":"4","last_reported":1758884889,"current_range_meters":11600,"station_id":"ce4bhg12rcd13ifvqf70","pricing_plan_id":"cebpf4jnsgd1na2vs0mg"},{"bike_id":"39e6b2d7-e7bc-4366-8a01-87bc46855564","system_id":"levelo_inurba_marseille","lat":43.321349,"lon":5.368135,"is_reserved":false,"is_disabled":false,"rental_uris":{"android":"levelo://app?vid=39e6b2d7-e7bc-4366-8a01-87bc46855564","ios":"levelo://app?vid=39e6b2d7-e7bc-4366-8a01-87bc46855564"},"vehicle_type_id":"4","last_reported":1758884889,"current_range_meters":11600,"station_id":"ce4bhrh2rcd13ifvqhug","pricing_plan_id":"cebpf4jnsgd1na2vs0mg"},{"bike_id":"3c25e8ce-2870-4cf9-9c4b-12067a666c0d","system_id":"levelo_inurba_marseille","lat":43.3056,"lon":5.36525,"is_reserved":false,"is_disabled":false,"rental_uris":{"android":"levelo://app?vid=3c25e8ce-2870-4cf9-9c4b-12067a666c0d","ios":"levelo://app?vid=3c25e8ce-2870-4cf9-9c4b-12067a666c0d"},"vehicle_type_id":"4","last_reported":1758884889,"current_range_meters":12000,"station_id":"","pricing_plan_id":"cebpf4jnsgd1na2vs0mg"},{"bike_id":"603a82b4-3e5a-4574-bb37-babc8a1e0e0a","system_id":"levelo_inurba_marseille","lat":43.292278,"lon":5.385073,"is_reserved":false,"is_disabled":false,"rental_uris":{"android":"levelo://app?vid=603a82b4-3e5a-4574-bb37-babc8a1e0e0a","ios":"levelo://app?vid=603a82b4-3e5a-4574-bb37-babc8a1e0e0a"},"vehicle_type_id":"4","last_reported":1758884889,"current_range_meters":11600,"station_id":"ce4bh4p2rcd13ifvqe0g","pricing_plan_id":"cebpf4jnsgd1na2vs0mg"},{"bike_id":"3c50a4b3-83d8-465b-9f90-e5a7edda191d","system_id":"levelo_inurba_marseille","lat":43.286907,"lon":5.399693,"is_reserved":false,"is_disabled":false,"rental_uris":{"android":"levelo://app?vid=3c50a4b3-83d8-465b-9f90-e5a7edda191d","ios":"levelo://app?vid=3c50a4b3-83d8-465b-9f90-e5a7edda191d"},"vehicle_type_id":"4","last_reported":1758884889,"current_range_meters":12000,"station_id":"ce4bho92rcd13ifvqh3g","pricing_plan_id":"cebpf4jnsgd1na2vs0mg"},{"bike_id":"b0934032-3d3c-44e1-985e-e72b8cee3491","system_id":"levelo_inurba_marseille","lat":43.24672,"lon":5.43136,"is_reserved":false,"is_disabled":false,"rental_uris":{"android":"levelo://app?vid=b0934032-3d3c-44e1-985e-e72b8cee3491","ios":"levelo://app?vid=b0934032-3d3c-44e1-985e-e72b8cee3491"},"vehicle_type_id":"4","last_reported":1758884889,"current_range_meters":12000,"station_id":"st_d2m6c4gdas8pm72e190g","pricing_plan_id":"cebpf4jnsgd1na2vs0mg"},{"bike_id":"58bcdbc6-003f-4eda-a909-b01f7e2dab5b","system_id":"levelo_inurba_marseille","lat":43.284638,"lon":5.358816,"is_reserved":false,"is_disabled":false,"rental_uris":{"android":"levelo://app?vid=58bcdbc6-003f-4eda-a909-b01f7e2dab5b","ios":"levelo://app?vid=58bcdbc6-003f-4eda-a909-b01f7e2dab5b"},"vehicle_type_id":"4","last_reported":1758884889,"current_range_meters":11600,"station_id":"ce4bhah2rcd13ifvqei0","pricing_plan_id":"cebpf4jnsgd1na2vs0mg"},{"bike_id":"9b89a209-e0c0-45ec-8282-5667d4867fa8","system_id":"levelo_inurba_marseille","lat":43.26931,"lon":5.38918,"is_reserved":false,"is_disabled":false,"rental_uris":{"android":"levelo://app?vid=9b89a209-e0c0-45ec-8282-5667d4867fa8","ios":"levelo://app?vid=9b89a209-e0c0-45ec-8282-5667d4867fa8"},"vehicle_type_id":"4","last_reported":1758884889,"current_range_meters":11600,"station_id":"ce4bhhh2rcd13ifvqfl0","pricing_plan_id":"cebpf4jnsgd1na2vs0mg"},{"bike_id":"c1c424fa-0df9-4d4a-a51d-b87d584d6a18","system_id":"levelo_inurba_marseille","lat":43.27314,"lon":5.39073,"is_reserved":false,"is_disabled":false,"rental_uris":{"android":"levelo://app?vid=c1c424fa-0df9-4d4a-a51d-b87d584d6a18","ios":"levelo://app?vid=c1c424fa-0df9-4d4a-a51d-b87d584d6a18"},"vehicle_type_id":"4","last_reported":1758884889,"current_range_meters":12000,"station_id":"ce4bhgp2rcd13ifvqfe0","pricing_plan_id":"cebpf4jnsgd1na2vs0mg"},{"bike_id":"7efae4a8-6463-4cb2-b82e-51811b1e3826","system_id":"levelo_inurba_marseille","lat":43.28358,"lon":5.38105,"is_reserved":false,"is_disabled":false,"rental_uris":{"android":"levelo://app?vid=7efae4a8-6463-4cb2-b82e-51811b1e3826","ios":"levelo://app?vid=7efae4a8-6463-4cb2-b82e-51811b1e3826"},"vehicle_type_id":"4","last_reported":1758884889,"current_range_meters":12000,"station_id":"ce4bh412rcd13ifvqdr0","pricing_plan_id":"cebpf4jnsgd1na2vs0mg"},{"bike_id":"b01b5bc6-6834-41fb-be97-f5b6fb7e9ec8","system_id":"levelo_inurba_marseille","lat":43.26315,"lon":5.39848,"is_reserved":false,"is_disabled":false,"rental_uris":{"android":"levelo://app?vid=b01b5bc6-6834-41fb-be97-f5b6fb7e9ec8","ios":"levelo://app?vid=b01b5bc6-6834-41fb-be97-f5b6fb7e9ec8"},"vehicle_type_id":"4","last_reported":1758884889,"current_range_meters":12400,"station_id":"","pricing_plan_id":"cebpf4jnsgd1na2vs0mg"},{"bike_id":"a1a1547d-e920-4664-b11d-6018bf059689","system_id":"levelo_inurba_marseille","lat":43.31169,"lon":5.3871,"is_reserved":false,"is_disabled":false,"rental_uris":{"android":"levelo://app?vid=a1a1547d-e920-4664-b11d-6018bf059689","ios":"levelo://app?vid=a1a1547d-e920-4664-b11d-6018bf059689"},"vehicle_type_id":"4","last_reported":1758884889,"current_range_meters":12400,"station_id":"ce4bgv12rcd13ifvqcp0","pricing_plan_id":"cebpf4jnsgd1na2vs0mg"},{"bike_id":"0ef81889-2d7f-4e70-b480-0b08f55cbfba","system_id":"levelo_inurba_marseille","lat":43.30839,"lon":5.36872,"is_reserved":false,"is_disabled":false,"rental_uris":{"android":"levelo://app?vid=0ef81889-2d7f-4e70-b480-0b08f55cbfba","ios":"levelo://app?vid=0ef81889-2d7f-4e70-b480-0b08f55cbfba"},"vehicle_type_id":"4","last_reported":1758884889,"current_range_meters":12400,"station_id":"","pricing_plan_id":"cebpf4jnsgd1na2vs0mg"},{"bike_id":"a57b3feb-2354-42fe-87fd-e8fcee3a0260","system_id":"levelo_inurba_marseille","lat":43.26953,"lon":5.40241,"is_reserved":false,"is_disabled":false,"rental_uris":{"android":"levelo://app?vid=a57b3feb-2354-42fe-87fd-e8fcee3a0260","ios":"levelo://app?vid=a57b3feb-2354-42fe-87fd-e8fcee3a0260"},"vehicle_type_id":"4","last_reported":1758884889,"current_range_meters":12400,"station_id":"","pricing_plan_id":"cebpf4jnsgd1na2vs0mg"},{"bike_id":"b2ed6e5e-1c02-430c-bb94-4cc5facc2795","system_id":"levelo_inurba_marseille","lat":43.27619,"lon":5.36108,"is_reserved":false,"is_disabled":false,"rental_uris":{"android":"levelo://app?vid=b2ed6e5e-1c02-430c-bb94-4cc5facc2795","ios":"levelo://app?vid=b2ed6e5e-1c02-430c-bb94-4cc5facc2795"},"vehicle_type_id":"4","last_reported":1758884889,"current_range_meters":12800,"station_id":"ce4bgj92rcd13ifvqbe0","pricing_plan_id":"cebpf4jnsgd1na2vs0mg"},{"bike_id":"b4f47bc1-4d12-4541-a757-a859819c9d1c","system_id":"levelo_inurba_marseille","lat":43.276802,"lon":5.388803,"is_reserved":false,"is_disabled":false,"rental_uris":{"android":"levelo://app?vid=b4f47bc1-4d12-4541-a757-a859819c9d1c","ios":"levelo://app?vid=b4f47bc1-4d12-4541-a757-a859819c9d1c"},"vehicle_type_id":"4","last_reported":1758884889,"current_range_meters":12800,"station_id":"","pricing_plan_id":"cebpf4jnsgd1na2vs0mg"},{"bike_id":"377142cb-267c-494b-99d9-6fe238c4e676","system_id":"levelo_inurba_marseille","lat":43.31011,"lon":5.40776,"is_reserved":false,"is_disabled":false,"rental_uris":{"android":"levelo://app?vid=377142cb-267c-494b-99d9-6fe238c4e676","ios":"levelo://app?vid=377142cb-267c-494b-99d9-6fe238c4e676"},"vehicle_type_id":"4","last_reported":1758884889,"current_range_meters":12800,"station_id":"","pricing_plan_id":"cebpf4jnsgd1na2vs0mg"},{"bike_id":"a937c125-65d3-4283-afe8-69cd4b1e984a","system_id":"levelo_inurba_marseille","lat":43.2958,"lon":5.37511,"is_reserved":false,"is_disabled":false,"rental_uris":{"android":"levelo://app?vid=a937c125-65d3-4283-afe8-69cd4b1e984a","ios":"levelo://app?vid=a937c125-65d3-4283-afe8-69cd4b1e984a"},"vehicle_type_id":"4","last_reported":1758884889,"current_range_meters":12800,"station_id":"ce4bgh92rcd13ifvqb50","pricing_plan_id":"cebpf4jnsgd1na2vs0mg"},{"bike_id":"bab5c8ab-1744-44be-8b82-d05f0a54ce02","system_id":"levelo_inurba_marseille","lat":43.3237,"lon":5.38874,"is_reserved":false,"is_disabled":false,"rental_uris":{"android":"levelo://app?vid=bab5c8ab-1744-44be-8b82-d05f0a54ce02","ios":"levelo://app?vid=bab5c8ab-1744-44be-8b82-d05f0a54ce02"},"vehicle_type_id":"4","last_reported":1758884889,"current_range_meters":13600,"station_id":"ce4bhqp2rcd13ifvqhog","pricing_plan_id":"cebpf4jnsgd1na2vs0mg"},{"bike_id":"75611fb7-df45-4d9f-9db0-a181136cc424","system_id":"levelo_inurba_marseille","lat":43.21764,"lon":5.34599,"is_reserved":false,"is_disabled":true,"rental_uris":{"android":"levelo://app?vid=75611fb7-df45-4d9f-9db0-a181136cc424","ios":"levelo://app?vid=75611fb7-df45-4d9f-9db0-a181136cc424"},"vehicle_type_id":"4","last_reported":1758884889,"current_range_meters":13600,"station_id":"st_cvj6r9ubvosntc0bgbag","pricing_plan_id":"cebpf4jnsgd1na2vs0mg"},{"bike_id":"280349c2-7d75-4732-844a-272770d12d07","system_id":"levelo_inurba_marseille","lat":43.249487,"lon":5.404953,"is_reserved":false,"is_disabled":false,"rental_uris":{"android":"levelo://app?vid=280349c2-7d75-4732-844a-272770d12d07","ios":"levelo://app?vid=280349c2-7d75-4732-844a-272770d12d07"},"vehicle_type_id":"4","last_reported":1758884889,"current_range_meters":13600,"station_id":"st_d2ngiaodas8pm72gd1h0","pricing_plan_id":"cebpf4jnsgd1na2vs0mg"},{"bike_id":"615a4814-a492-4de5-9e2a-c8f410f3a18b","system_id":"levelo_inurba_marseille","lat":43.23195,"lon":5.35557,"is_reserved":false,"is_disabled":false,"rental_uris":{"android":"levelo://app?vid=615a4814-a492-4de5-9e2a-c8f410f3a18b","ios":"levelo://app?vid=615a4814-a492-4de5-9e2a-c8f410f3a18b"},"vehicle_type_id":"4","last_reported":1758884889,"current_range_meters":13600,"station_id":"ce4bhu92rcd13ifvqi70","pricing_plan_id":"cebpf4jnsgd1na2vs0mg"},{"bike_id":"c8fb4f1c-09dc-4ba3-b9e8-17ffe43b4972","system_id":"levelo_inurba_marseille","lat":43.32361,"lon":5.36764,"is_reserved":false,"is_disabled":false,"rental_uris":{"android":"levelo://app?vid=c8fb4f1c-09dc-4ba3-b9e8-17ffe43b4972","ios":"levelo://app?vid=c8fb4f1c-09dc-4ba3-b9e8-17ffe43b4972"},"vehicle_type_id":"4","last_reported":1758884889,"current_range_meters":13600,"station_id":"ce4bhsh2rcd13ifvqi2g","pricing_plan_id":"cebpf4jnsgd1na2vs0mg"},{"bike_id":"8baeac13-7e80-456d-83aa-12e0372d0df5","system_id":"levelo_inurba_marseille","lat":43.32458,"lon":5.375438,"is_reserved":false,"is_disabled":false,"rental_uris":{"android":"levelo://app?vid=8baeac13-7e80-456d-83aa-12e0372d0df5","ios":"levelo://app?vid=8baeac13-7e80-456d-83aa-12e0372d0df5"},"vehicle_type_id":"4","last_reported":1758884889,"current_range_meters":13600,"station_id":"","pricing_plan_id":"cebpf4jnsgd1na2vs0mg"},{"bike_id":"d71d38e2-7275-4838-b3b2-4b864195937a","system_id":"levelo_inurba_marseille","lat":43.2465,"lon":5.38884,"is_reserved":false,"is_disabled":false,"rental_uris":{"android":"levelo://app?vid=d71d38e2-7275-4838-b3b2-4b864195937a","ios":"levelo://app?vid=d71d38e2-7275-4838-b3b2-4b864195937a"},"vehicle_type_id":"4","last_reported":1758884889,"current_range_meters":13600,"station_id":"ce4bhg12rcd13ifvqf60","pricing_plan_id":"cebpf4jnsgd1na2vs0mg"},{"bike_id":"df649d25-1f44-4471-8cdd-9566da8ef9b9","system_id":"levelo_inurba_marseille","lat":43.32167,"lon":5.38782,"is_reserved":false,"is_disabled":false,"rental_uris":{"android":"levelo://app?vid=df649d25-1f44-4471-8cdd-9566da8ef9b9","ios":"levelo://app?vid=df649d25-1f44-4471-8cdd-9566da8ef9b9"},"vehicle_type_id":"4","last_reported":1758884889,"current_range_meters":14000,"station_id":"","pricing_plan_id":"cebpf4jnsgd1na2vs0mg"},{"bike_id":"10bd2f45-69d8-49c8-8b0c-60f11d49ca52","system_id":"levelo_inurba_marseille","lat":43.2587,"lon":5.39896,"is_reserved":false,"is_disabled":false,"rental_uris":{"android":"levelo://app?vid=10bd2f45-69d8-49c8-8b0c-60f11d49ca52","ios":"levelo://app?vid=10bd2f45-69d8-49c8-8b0c-60f11d49ca52"},"vehicle_type_id":"4","last_reported":1758884889,"current_range_meters":14000,"station_id":"ce4bhl92rcd13ifvqghg","pricing_plan_id":"cebpf4jnsgd1na2vs0mg"},{"bike_id":"126dcbd8-b437-4a60-baed-f573b84edeed","system_id":"levelo_inurba_marseille","lat":43.29551,"lon":5.37473,"is_reserved":false,"is_disabled":false,"rental_uris":{"android":"levelo://app?vid=126dcbd8-b437-4a60-baed-f573b84edeed","ios":"levelo://app?vid=126dcbd8-b437-4a60-baed-f573b84edeed"},"vehicle_type_id":"4","last_reported":1758884889,"current_range_meters":14000,"station_id":"ce4bgkp2rcd13ifvqbmg","pricing_plan_id":"cebpf4jnsgd1na2vs0mg"},{"bike_id":"fc3198c4-ba28-427b-93c7-8547c5bb0937","system_id":"levelo_inurba_marseille","lat":43.25869,"lon":5.39891,"is_reserved":false,"is_disabled":false,"rental_uris":{"android":"levelo://app?vid=fc3198c4-ba28-427b-93c7-8547c5bb0937","ios":"levelo://app?vid=fc3198c4-ba28-427b-93c7-8547c5bb0937"},"vehicle_type_id":"4","last_reported":1758884889,"current_range_meters":13600,"station_id":"ce4bhl92rcd13ifvqghg","pricing_plan_id":"cebpf4jnsgd1na2vs0mg"},{"bike_id":"1d5d14cf-15e7-4470-bff9-613bb9abe120","system_id":"levelo_inurba_marseille","lat":43.33497,"lon":5.4206,"is_reserved":false,"is_disabled":false,"rental_uris":{"android":"levelo://app?vid=1d5d14cf-15e7-4470-bff9-613bb9abe120","ios":"levelo://app?vid=1d5d14cf-15e7-4470-bff9-613bb9abe120"},"vehicle_type_id":"4","last_reported":1758884889,"current_range_meters":14000,"station_id":"","pricing_plan_id":"cebpf4jnsgd1na2vs0mg"},{"bike_id":"01e7cf9b-5bdc-40a2-9aa3-dd8bbbace5d1","system_id":"levelo_inurba_marseille","lat":43.28732,"lon":5.37922,"is_reserved":false,"is_disabled":false,"rental_uris":{"android":"levelo://app?vid=01e7cf9b-5bdc-40a2-9aa3-dd8bbbace5d1","ios":"levelo://app?vid=01e7cf9b-5bdc-40a2-9aa3-dd8bbbace5d1"},"vehicle_type_id":"4","last_reported":1758884889,"current_range_meters":14000,"station_id":"ce4bh9p2rcd13ifvqec0","pricing_plan_id":"cebpf4jnsgd1na2vs0mg"},{"bike_id":"83dffd9f-f52e-4a81-8a9b-61e07509d59f","system_id":"levelo_inurba_marseille","lat":43.2968,"lon":5.37296,"is_reserved":false,"is_disabled":false,"rental_uris":{"android":"levelo://app?vid=83dffd9f-f52e-4a81-8a9b-61e07509d59f","ios":"levelo://app?vid=83dffd9f-f52e-4a81-8a9b-61e07509d59f"},"vehicle_type_id":"4","last_reported":1758884889,"current_range_meters":14000,"station_id":"ce4bgk12rcd13ifvqbj0","pricing_plan_id":"cebpf4jnsgd1na2vs0mg"},{"bike_id":"46f9b484-6f08-4ebe-8cac-3f01deda53fc","system_id":"levelo_inurba_marseille","lat":43.32665,"lon":5.40981,"is_reserved":false,"is_disabled":false,"rental_uris":{"android":"levelo://app?vid=46f9b484-6f08-4ebe-8cac-3f01deda53fc","ios":"levelo://app?vid=46f9b484-6f08-4ebe-8cac-3f01deda53fc"},"vehicle_type_id":"4","last_reported":1758884889,"current_range_meters":14400,"station_id":"ce4bhpp2rcd13ifvqhgg","pricing_plan_id":"cebpf4jnsgd1na2vs0mg"},{"bike_id":"08fe2b08-b3fa-43f8-ae73-04061f76318d","system_id":"levelo_inurba_marseille","lat":43.305552,"lon":5.365395,"is_reserved":false,"is_disabled":false,"rental_uris":{"android":"levelo://app?vid=08fe2b08-b3fa-43f8-ae73-04061f76318d","ios":"levelo://app?vid=08fe2b08-b3fa-43f8-ae73-04061f76318d"},"vehicle_type_id":"4","last_reported":1758884889,"current_range_meters":14400,"station_id":"","pricing_plan_id":"cebpf4jnsgd1na2vs0mg"},{"bike_id":"be64b45a-f6eb-41c5-b0ea-b89d8b046532","system_id":"levelo_inurba_marseille","lat":43.29001,"lon":5.35613,"is_reserved":false,"is_disabled":false,"rental_uris":{"android":"levelo://app?vid=be64b45a-f6eb-41c5-b0ea-b89d8b046532","ios":"levelo://app?vid=be64b45a-f6eb-41c5-b0ea-b89d8b046532"},"vehicle_type_id":"4","last_reported":1758884889,"current_range_meters":14400,"station_id":"ce4bhb92rcd13ifvqen0","pricing_plan_id":"cebpf4jnsgd1na2vs0mg"},{"bike_id":"10b8d871-07e9-4114-9eb9-6bcce40e7beb","system_id":"levelo_inurba_marseille","lat":43.27045,"lon":5.392226,"is_reserved":false,"is_disabled":false,"rental_uris":{"android":"levelo://app?vid=10b8d871-07e9-4114-9eb9-6bcce40e7beb","ios":"levelo://app?vid=10b8d871-07e9-4114-9eb9-6bcce40e7beb"},"vehicle_type_id":"4","last_reported":1758884889,"current_range_meters":14400,"station_id":"ce4bhe12rcd13ifvqf30","pricing_plan_id":"cebpf4jnsgd1na2vs0mg"},{"bike_id":"f9e21fc1-be7d-42a8-9eff-6458e73f3db9","system_id":"levelo_inurba_marseille","lat":43.3236,"lon":5.3675,"is_reserved":false,"is_disabled":false,"rental_uris":{"android":"levelo://app?vid=f9e21fc1-be7d-42a8-9eff-6458e73f3db9","ios":"levelo://app?vid=f9e21fc1-be7d-42a8-9eff-6458e73f3db9"},"vehicle_type_id":"4","last_reported":1758884889,"current_range_meters":14400,"station_id":"ce4bhsh2rcd13ifvqi2g","pricing_plan_id":"cebpf4jnsgd1na2vs0mg"},{"bike_id":"5d944089-7d4d-485d-8e5e-fe9c9b3dd7de","system_id":"levelo_inurba_marseille","lat":43.22561,"lon":5.41622,"is_reserved":false,"is_disabled":false,"rental_uris":{"android":"levelo://app?vid=5d944089-7d4d-485d-8e5e-fe9c9b3dd7de","ios":"levelo://app?vid=5d944089-7d4d-485d-8e5e-fe9c9b3dd7de"},"vehicle_type_id":"4","last_reported":1758884889,"current_range_meters":14400,"station_id":"st_d2o4gvlbi1j2169b742g","pricing_plan_id":"cebpf4jnsgd1na2vs0mg"},{"bike_id":"08292ac0-f4a0-4778-9703-5ac015ee1e3a","system_id":"levelo_inurba_marseille","lat":43.24631,"lon":5.43145,"is_reserved":false,"is_disabled":false,"rental_uris":{"android":"levelo://app?vid=08292ac0-f4a0-4778-9703-5ac015ee1e3a","ios":"levelo://app?vid=08292ac0-f4a0-4778-9703-5ac015ee1e3a"},"vehicle_type_id":"4","last_reported":1758884889,"current_range_meters":14800,"station_id":"st_d2m6c4gdas8pm72e190g","pricing_plan_id":"cebpf4jnsgd1na2vs0mg"},{"bike_id":"60b43ffa-9705-464e-b1e0-9742b897dfa2","system_id":"levelo_inurba_marseille","lat":43.29718,"lon":5.37699,"is_reserved":false,"is_disabled":false,"rental_uris":{"android":"levelo://app?vid=60b43ffa-9705-464e-b1e0-9742b897dfa2","ios":"levelo://app?vid=60b43ffa-9705-464e-b1e0-9742b897dfa2"},"vehicle_type_id":"4","last_reported":1758884889,"current_range_meters":14800,"station_id":"ce4bgkh2rcd13ifvqbl0","pricing_plan_id":"cebpf4jnsgd1na2vs0mg"},{"bike_id":"f4e7185c-4986-47ea-b5e8-8513b2aa2682","system_id":"levelo_inurba_marseille","lat":43.23055,"lon":5.35497,"is_reserved":false,"is_disabled":false,"rental_uris":{"android":"levelo://app?vid=f4e7185c-4986-47ea-b5e8-8513b2aa2682","ios":"levelo://app?vid=f4e7185c-4986-47ea-b5e8-8513b2aa2682"},"vehicle_type_id":"4","last_reported":1758884889,"current_range_meters":14400,"station_id":"cpo3342slgdg3j2ifvpg","pricing_plan_id":"cebpf4jnsgd1na2vs0mg"},{"bike_id":"467b4306-5fd8-484e-9a4b-cf8eb50151ba","system_id":"levelo_inurba_marseille","lat":43.32302,"lon":5.38263,"is_reserved":false,"is_disabled":false,"rental_uris":{"android":"levelo://app?vid=467b4306-5fd8-484e-9a4b-cf8eb50151ba","ios":"levelo://app?vid=467b4306-5fd8-484e-9a4b-cf8eb50151ba"},"vehicle_type_id":"4","last_reported":1758884889,"current_range_meters":15200,"station_id":"ce4bhr12rcd13ifvqhqg","pricing_plan_id":"cebpf4jnsgd1na2vs0mg"},{"bike_id":"9a4f92ed-e086-4038-a651-bbe0613f80bd","system_id":"levelo_inurba_marseille","lat":43.22576,"lon":5.4162,"is_reserved":false,"is_disabled":false,"rental_uris":{"android":"levelo://app?vid=9a4f92ed-e086-4038-a651-bbe0613f80bd","ios":"levelo://app?vid=9a4f92ed-e086-4038-a651-bbe0613f80bd"},"vehicle_type_id":"4","last_reported":1758884889,"current_range_meters":15200,"station_id":"st_d2o4gvlbi1j2169b742g","pricing_plan_id":"cebpf4jnsgd1na2vs0mg"},{"bike_id":"3a8434b3-3b84-4c79-9b6a-02facc359ea4","system_id":"levelo_inurba_marseille","lat":43.2955,"lon":5.37516,"is_reserved":false,"is_disabled":false,"rental_uris":{"android":"levelo://app?vid=3a8434b3-3b84-4c79-9b6a-02facc359ea4","ios":"levelo://app?vid=3a8434b3-3b84-4c79-9b6a-02facc359ea4"},"vehicle_type_id":"4","last_reported":1758884889,"current_range_meters":15200,"station_id":"ce4bgkp2rcd13ifvqbmg","pricing_plan_id":"cebpf4jnsgd1na2vs0mg"},{"bike_id":"921ace3d-9185-4623-b0b1-7d3a13f6da52","system_id":"levelo_inurba_marseille","lat":43.30325,"lon":5.4043,"is_reserved":false,"is_disabled":false,"rental_uris":{"android":"levelo://app?vid=921ace3d-9185-4623-b0b1-7d3a13f6da52","ios":"levelo://app?vid=921ace3d-9185-4623-b0b1-7d3a13f6da52"},"vehicle_type_id":"4","last_reported":1758884889,"current_range_meters":14800,"station_id":"ce4bh012rcd13ifvqd10","pricing_plan_id":"cebpf4jnsgd1na2vs0mg"},{"bike_id":"fd18a301-a9dd-4600-afce-c6b935fa8b40","system_id":"levelo_inurba_marseille","lat":43.26191,"lon":5.37459,"is_reserved":false,"is_disabled":false,"rental_uris":{"android":"levelo://app?vid=fd18a301-a9dd-4600-afce-c6b935fa8b40","ios":"levelo://app?vid=fd18a301-a9dd-4600-afce-c6b935fa8b40"},"vehicle_type_id":"4","last_reported":1758884889,"current_range_meters":16000,"station_id":"ce4bhgp2rcd13ifvqfc0","pricing_plan_id":"cebpf4jnsgd1na2vs0mg"},{"bike_id":"6dac0028-53fe-4753-b1a1-56900bf42087","system_id":"levelo_inurba_marseille","lat":43.30236,"lon":5.4008,"is_reserved":false,"is_disabled":true,"rental_uris":{"android":"levelo://app?vid=6dac0028-53fe-4753-b1a1-56900bf42087","ios":"levelo://app?vid=6dac0028-53fe-4753-b1a1-56900bf42087"},"vehicle_type_id":"4","last_reported":1758884889,"current_range_meters":16000,"station_id":"ce4bgvh2rcd13ifvqcs0","pricing_plan_id":"cebpf4jnsgd1na2vs0mg"},{"bike_id":"46a648bf-42a5-4fc5-b881-b77e8e43b612","system_id":"levelo_inurba_marseille","lat":43.2293,"lon":5.35386,"is_reserved":false,"is_disabled":false,"rental_uris":{"android":"levelo://app?vid=46a648bf-42a5-4fc5-b881-b77e8e43b612","ios":"levelo://app?vid=46a648bf-42a5-4fc5-b881-b77e8e43b612"},"vehicle_type_id":"4","last_reported":1758884889,"current_range_meters":16000,"station_id":"cpo3532slgdg3j2ikp40","pricing_plan_id":"cebpf4jnsgd1na2vs0mg"},{"bike_id":"0064974e-02bb-40bc-8149-ba249ea4de7d","system_id":"levelo_inurba_marseille","lat":43.30535,"lon":5.36526,"is_reserved":false,"is_disabled":false,"rental_uris":{"android":"levelo://app?vid=0064974e-02bb-40bc-8149-ba249ea4de7d","ios":"levelo://app?vid=0064974e-02bb-40bc-8149-ba249ea4de7d"},"vehicle_type_id":"4","last_reported":1758884889,"current_range_meters":16000,"station_id":"ce4bgs12rcd13ifvqcag","pricing_plan_id":"cebpf4jnsgd1na2vs0mg"},{"bike_id":"27edfc01-5b2c-4d48-9b7a-f1c7cd3f1da3","system_id":"levelo_inurba_marseille","lat":43.2919,"lon":5.35792,"is_reserved":false,"is_disabled":false,"rental_uris":{"android":"levelo://app?vid=27edfc01-5b2c-4d48-9b7a-f1c7cd3f1da3","ios":"levelo://app?vid=27edfc01-5b2c-4d48-9b7a-f1c7cd3f1da3"},"vehicle_type_id":"4","last_reported":1758884889,"current_range_meters":16000,"station_id":"ce4bhb12rcd13ifvqel0","pricing_plan_id":"cebpf4jnsgd1na2vs0mg"},{"bike_id":"8bd3c034-980f-4553-998a-0c8d81a4875e","system_id":"levelo_inurba_marseille","lat":43.2338,"lon":5.43601,"is_reserved":false,"is_disabled":false,"rental_uris":{"android":"levelo://app?vid=8bd3c034-980f-4553-998a-0c8d81a4875e","ios":"levelo://app?vid=8bd3c034-980f-4553-998a-0c8d81a4875e"},"vehicle_type_id":"4","last_reported":1758884889,"current_range_meters":16000,"station_id":"","pricing_plan_id":"cebpf4jnsgd1na2vs0mg"},{"bike_id":"fee74e98-eb52-4f66-a612-109c75f34aa6","system_id":"levelo_inurba_marseille","lat":43.29599,"lon":5.37948,"is_reserved":false,"is_disabled":false,"rental_uris":{"android":"levelo://app?vid=fee74e98-eb52-4f66-a612-109c75f34aa6","ios":"levelo://app?vid=fee74e98-eb52-4f66-a612-109c75f34aa6"},"vehicle_type_id":"4","last_reported":1758884889,"current_range_meters":16000,"station_id":"","pricing_plan_id":"cebpf4jnsgd1na2vs0mg"},{"bike_id":"5e6de702-fac4-4c9a-ba44-88d5c5b7fa03","system_id":"levelo_inurba_marseille","lat":43.29077,"lon":5.37165,"is_reserved":false,"is_disabled":false,"rental_uris":{"android":"levelo://app?vid=5e6de702-fac4-4c9a-ba44-88d5c5b7fa03","ios":"levelo://app?vid=5e6de702-fac4-4c9a-ba44-88d5c5b7fa03"},"vehicle_type_id":"4","last_reported":1758884889,"current_range_meters":15200,"station_id":"ce4bh5p2rcd13ifvqe4g","pricing_plan_id":"cebpf4jnsgd1na2vs0mg"},{"bike_id":"dd314df1-4919-4564-8953-dd09f5ba495a","system_id":"levelo_inurba_marseille","lat":43.28269,"lon":5.35057,"is_reserved":false,"is_disabled":false,"rental_uris":{"android":"levelo://app?vid=dd314df1-4919-4564-8953-dd09f5ba495a","ios":"levelo://app?vid=dd314df1-4919-4564-8953-dd09f5ba495a"},"vehicle_type_id":"4","last_reported":1758884889,"current_range_meters":16000,"station_id":"ce4bhbp2rcd13ifvqerg","pricing_plan_id":"cebpf4jnsgd1na2vs0mg"},{"bike_id":"18851f71-5229-4f34-94ce-a8bec9514798","system_id":"levelo_inurba_marseille","lat":43.29937,"lon":5.36545,"is_reserved":false,"is_disabled":false,"rental_uris":{"android":"levelo://app?vid=18851f71-5229-4f34-94ce-a8bec9514798","ios":"levelo://app?vid=18851f71-5229-4f34-94ce-a8bec9514798"},"vehicle_type_id":"4","last_reported":1758884889,"current_range_meters":16000,"station_id":"ce4bgm92rcd13ifvqbr0","pricing_plan_id":"cebpf4jnsgd1na2vs0mg"},{"bike_id":"2a416e7a-1803-402e-9523-74bfe690bd54","system_id":"levelo_inurba_marseille","lat":43.32365,"lon":5.36767,"is_reserved":false,"is_disabled":false,"rental_uris":{"android":"levelo://app?vid=2a416e7a-1803-402e-9523-74bfe690bd54","ios":"levelo://app?vid=2a416e7a-1803-402e-9523-74bfe690bd54"},"vehicle_type_id":"4","last_reported":1758884889,"current_range_meters":16000,"station_id":"ce4bhsh2rcd13ifvqi2g","pricing_plan_id":"cebpf4jnsgd1na2vs0mg"},{"bike_id":"8e66fe85-7e10-4fcf-89e6-c3f47abe9572","system_id":"levelo_inurba_marseille","lat":43.24813,"lon":5.37456,"is_reserved":false,"is_disabled":false,"rental_uris":{"android":"levelo://app?vid=8e66fe85-7e10-4fcf-89e6-c3f47abe9572","ios":"levelo://app?vid=8e66fe85-7e10-4fcf-89e6-c3f47abe9572"},"vehicle_type_id":"4","last_reported":1758884889,"current_range_meters":16400,"station_id":"ce4bhgh2rcd13ifvqfb0","pricing_plan_id":"cebpf4jnsgd1na2vs0mg"},{"bike_id":"15b8abb9-1b82-439d-bef4-2444276aa7c3","system_id":"levelo_inurba_marseille","lat":43.31071,"lon":5.38349,"is_reserved":false,"is_disabled":true,"rental_uris":{"android":"levelo://app?vid=15b8abb9-1b82-439d-bef4-2444276aa7c3","ios":"levelo://app?vid=15b8abb9-1b82-439d-bef4-2444276aa7c3"},"vehicle_type_id":"4","last_reported":1758884889,"current_range_meters":16400,"station_id":"ce4bgv92rcd13ifvqcr0","pricing_plan_id":"cebpf4jnsgd1na2vs0mg"},{"bike_id":"63d52c35-c9c9-44eb-9780-1b2f9145123b","system_id":"levelo_inurba_marseille","lat":43.29627,"lon":5.377037,"is_reserved":false,"is_disabled":false,"rental_uris":{"android":"levelo://app?vid=63d52c35-c9c9-44eb-9780-1b2f9145123b","ios":"levelo://app?vid=63d52c35-c9c9-44eb-9780-1b2f9145123b"},"vehicle_type_id":"4","last_reported":1758884889,"current_range_meters":16400,"station_id":"","pricing_plan_id":"cebpf4jnsgd1na2vs0mg"},{"bike_id":"85782661-163d-4a8b-b5a4-1f0a766faaa2","system_id":"levelo_inurba_marseille","lat":43.24636,"lon":5.43141,"is_reserved":false,"is_disabled":false,"rental_uris":{"android":"levelo://app?vid=85782661-163d-4a8b-b5a4-1f0a766faaa2","ios":"levelo://app?vid=85782661-163d-4a8b-b5a4-1f0a766faaa2"},"vehicle_type_id":"4","last_reported":1758884889,"current_range_meters":16400,"station_id":"st_d2m6c4gdas8pm72e190g","pricing_plan_id":"cebpf4jnsgd1na2vs0mg"},{"bike_id":"b5b3cf7c-3cd2-468e-81f0-a3cad12404e6","system_id":"levelo_inurba_marseille","lat":43.25952,"lon":5.40873,"is_reserved":false,"is_disabled":false,"rental_uris":{"android":"levelo://app?vid=b5b3cf7c-3cd2-468e-81f0-a3cad12404e6","ios":"levelo://app?vid=b5b3cf7c-3cd2-468e-81f0-a3cad12404e6"},"vehicle_type_id":"4","last_reported":1758884889,"current_range_meters":16400,"station_id":"ce4bhm92rcd13ifvqglg","pricing_plan_id":"cebpf4jnsgd1na2vs0mg"},{"bike_id":"9bb4db31-0bf9-4171-bca1-76cb045f53a3","system_id":"levelo_inurba_marseille","lat":43.26924,"lon":5.389081,"is_reserved":false,"is_disabled":true,"rental_uris":{"android":"levelo://app?vid=9bb4db31-0bf9-4171-bca1-76cb045f53a3","ios":"levelo://app?vid=9bb4db31-0bf9-4171-bca1-76cb045f53a3"},"vehicle_type_id":"4","last_reported":1758884889,"current_range_meters":16400,"station_id":"ce4bhhh2rcd13ifvqfl0","pricing_plan_id":"cebpf4jnsgd1na2vs0mg"},{"bike_id":"e438f743-9525-44aa-8cda-c8be3486e464","system_id":"levelo_inurba_marseille","lat":43.33598,"lon":5.40997,"is_reserved":false,"is_disabled":false,"rental_uris":{"android":"levelo://app?vid=e438f743-9525-44aa-8cda-c8be3486e464","ios":"levelo://app?vid=e438f743-9525-44aa-8cda-c8be3486e464"},"vehicle_type_id":"4","last_reported":1758884889,"current_range_meters":16400,"station_id":"ce4bhqh2rcd13ifvqhmg","pricing_plan_id":"cebpf4jnsgd1na2vs0mg"},{"bike_id":"01bf55f2-4ac6-46f6-8504-3267bf31e1a6","system_id":"levelo_inurba_marseille","lat":43.2973,"lon":5.381787,"is_reserved":false,"is_disabled":false,"rental_uris":{"android":"levelo://app?vid=01bf55f2-4ac6-46f6-8504-3267bf31e1a6","ios":"levelo://app?vid=01bf55f2-4ac6-46f6-8504-3267bf31e1a6"},"vehicle_type_id":"4","last_reported":1758884889,"current_range_meters":16400,"station_id":"","pricing_plan_id":"cebpf4jnsgd1na2vs0mg"},{"bike_id":"9541740e-72a8-4047-9126-ecf02438f431","system_id":"levelo_inurba_marseille","lat":43.28608,"lon":5.35101,"is_reserved":false,"is_disabled":false,"rental_uris":{"android":"levelo://app?vid=9541740e-72a8-4047-9126-ecf02438f431","ios":"levelo://app?vid=9541740e-72a8-4047-9126-ecf02438f431"},"vehicle_type_id":"4","last_reported":1758884889,"current_range_meters":16400,"station_id":"ce4bhch2rcd13ifvqeug","pricing_plan_id":"cebpf4jnsgd1na2vs0mg"},{"bike_id":"ffb123f6-49c1-43c2-a6cc-d0daae11a604","system_id":"levelo_inurba_marseille","lat":43.32341,"lon":5.40608,"is_reserved":false,"is_disabled":false,"rental_uris":{"android":"levelo://app?vid=ffb123f6-49c1-43c2-a6cc-d0daae11a604","ios":"levelo://app?vid=ffb123f6-49c1-43c2-a6cc-d0daae11a604"},"vehicle_type_id":"4","last_reported":1758884889,"current_range_meters":16400,"station_id":"ce4bhq92rcd13ifvqhjg","pricing_plan_id":"cebpf4jnsgd1na2vs0mg"},{"bike_id":"c91aa95c-ae83-4f8a-bef3-89f188e39bfa","system_id":"levelo_inurba_marseille","lat":43.22564,"lon":5.41626,"is_reserved":false,"is_disabled":false,"rental_uris":{"android":"levelo://app?vid=c91aa95c-ae83-4f8a-bef3-89f188e39bfa","ios":"levelo://app?vid=c91aa95c-ae83-4f8a-bef3-89f188e39bfa"},"vehicle_type_id":"4","last_reported":1758884889,"current_range_meters":16400,"station_id":"st_d2o4gvlbi1j2169b742g","pricing_plan_id":"cebpf4jnsgd1na2vs0mg"},{"bike_id":"e8f1bb4b-6767-4e83-acee-3cdfa763a5ca","system_id":"levelo_inurba_marseille","lat":43.30588,"lon":5.36503,"is_reserved":false,"is_disabled":false,"rental_uris":{"android":"levelo://app?vid=e8f1bb4b-6767-4e83-acee-3cdfa763a5ca","ios":"levelo://app?vid=e8f1bb4b-6767-4e83-acee-3cdfa763a5ca"},"vehicle_type_id":"4","last_reported":1758884889,"current_range_meters":16800,"station_id":"","pricing_plan_id":"cebpf4jnsgd1na2vs0mg"},{"bike_id":"175ed984-4779-4b98-920a-039ca300eaa4","system_id":"levelo_inurba_marseille","lat":43.27299,"lon":5.40804,"is_reserved":false,"is_disabled":false,"rental_uris":{"android":"levelo://app?vid=175ed984-4779-4b98-920a-039ca300eaa4","ios":"levelo://app?vid=175ed984-4779-4b98-920a-039ca300eaa4"},"vehicle_type_id":"4","last_reported":1758884889,"current_range_meters":16800,"station_id":"","pricing_plan_id":"cebpf4jnsgd1na2vs0mg"},{"bike_id":"c973dbb4-81a7-4731-a850-2666ddbc48bd","system_id":"levelo_inurba_marseille","lat":43.28166,"lon":5.42639,"is_reserved":false,"is_disabled":false,"rental_uris":{"android":"levelo://app?vid=c973dbb4-81a7-4731-a850-2666ddbc48bd","ios":"levelo://app?vid=c973dbb4-81a7-4731-a850-2666ddbc48bd"},"vehicle_type_id":"4","last_reported":1758884889,"current_range_meters":16800,"station_id":"ce4bhnh2rcd13ifvqgug","pricing_plan_id":"cebpf4jnsgd1na2vs0mg"},{"bike_id":"e64f8efe-88a5-405d-aad4-7e3107672272","system_id":"levelo_inurba_marseille","lat":43.287047,"lon":5.373857,"is_reserved":false,"is_disabled":false,"rental_uris":{"android":"levelo://app?vid=e64f8efe-88a5-405d-aad4-7e3107672272","ios":"levelo://app?vid=e64f8efe-88a5-405d-aad4-7e3107672272"},"vehicle_type_id":"4","last_reported":1758884889,"current_range_meters":16400,"station_id":"ce4bh3p2rcd13ifvqdq0","pricing_plan_id":"cebpf4jnsgd1na2vs0mg"},{"bike_id":"43d3e43e-b792-4604-865a-4db1d5f5a46a","system_id":"levelo_inurba_marseille","lat":43.25099,"lon":5.39525,"is_reserved":false,"is_disabled":true,"rental_uris":{"android":"levelo://app?vid=43d3e43e-b792-4604-865a-4db1d5f5a46a","ios":"levelo://app?vid=43d3e43e-b792-4604-865a-4db1d5f5a46a"},"vehicle_type_id":"4","last_reported":1758884889,"current_range_meters":16800,"station_id":"ce4bhm12rcd13ifvqgkg","pricing_plan_id":"cebpf4jnsgd1na2vs0mg"},{"bike_id":"3652de56-c611-41c6-aa03-7fef6136da9d","system_id":"levelo_inurba_marseille","lat":43.25,"lon":5.38929,"is_reserved":false,"is_disabled":false,"rental_uris":{"android":"levelo://app?vid=3652de56-c611-41c6-aa03-7fef6136da9d","ios":"levelo://app?vid=3652de56-c611-41c6-aa03-7fef6136da9d"},"vehicle_type_id":"4","last_reported":1758884889,"current_range_meters":16800,"station_id":"ce4bhgp2rcd13ifvqfd0","pricing_plan_id":"cebpf4jnsgd1na2vs0mg"},{"bike_id":"c47381a3-5a4b-4844-b987-0207088305bf","system_id":"levelo_inurba_marseille","lat":43.3078,"lon":5.37637,"is_reserved":false,"is_disabled":false,"rental_uris":{"android":"levelo://app?vid=c47381a3-5a4b-4844-b987-0207088305bf","ios":"levelo://app?vid=c47381a3-5a4b-4844-b987-0207088305bf"},"vehicle_type_id":"4","last_reported":1758884889,"current_range_meters":16800,"station_id":"ce4bgv92rcd13ifvqcq0","pricing_plan_id":"cebpf4jnsgd1na2vs0mg"},{"bike_id":"f7d02cdd-1af8-489d-84e6-2169828dbac6","system_id":"levelo_inurba_marseille","lat":43.30528,"lon":5.36683,"is_reserved":false,"is_disabled":false,"rental_uris":{"android":"levelo://app?vid=f7d02cdd-1af8-489d-84e6-2169828dbac6","ios":"levelo://app?vid=f7d02cdd-1af8-489d-84e6-2169828dbac6"},"vehicle_type_id":"4","last_reported":1758884889,"current_range_meters":16800,"station_id":"ce4bgrp2rcd13ifvqc9g","pricing_plan_id":"cebpf4jnsgd1na2vs0mg"},{"bike_id":"3cca746f-fac4-450b-bb9c-94a2c2908362","system_id":"levelo_inurba_marseille","lat":43.29028,"lon":5.3782,"is_reserved":false,"is_disabled":false,"rental_uris":{"android":"levelo://app?vid=3cca746f-fac4-450b-bb9c-94a2c2908362","ios":"levelo://app?vid=3cca746f-fac4-450b-bb9c-94a2c2908362"},"vehicle_type_id":"4","last_reported":1758884889,"current_range_meters":16800,"station_id":"","pricing_plan_id":"cebpf4jnsgd1na2vs0mg"},{"bike_id":"695ac183-f275-407f-9172-52657984d0dc","system_id":"levelo_inurba_marseille","lat":43.26683,"lon":5.38257,"is_reserved":false,"is_disabled":true,"rental_uris":{"android":"levelo://app?vid=695ac183-f275-407f-9172-52657984d0dc","ios":"levelo://app?vid=695ac183-f275-407f-9172-52657984d0dc"},"vehicle_type_id":"4","last_reported":1758884889,"current_range_meters":16800,"station_id":"ce4bhg92rcd13ifvqf90","pricing_plan_id":"cebpf4jnsgd1na2vs0mg"},{"bike_id":"41fbe864-b9c2-4b8a-a22b-e40ee788b52e","system_id":"levelo_inurba_marseille","lat":43.25086,"lon":5.39521,"is_reserved":false,"is_disabled":false,"rental_uris":{"android":"levelo://app?vid=41fbe864-b9c2-4b8a-a22b-e40ee788b52e","ios":"levelo://app?vid=41fbe864-b9c2-4b8a-a22b-e40ee788b52e"},"vehicle_type_id":"4","last_reported":1758884889,"current_range_meters":16800,"station_id":"ce4bhm12rcd13ifvqgkg","pricing_plan_id":"cebpf4jnsgd1na2vs0mg"},{"bike_id":"82cf85ff-c9bc-4d34-9fba-817448bb3b6c","system_id":"levelo_inurba_marseille","lat":43.279519,"lon":5.410701,"is_reserved":false,"is_disabled":false,"rental_uris":{"android":"levelo://app?vid=82cf85ff-c9bc-4d34-9fba-817448bb3b6c","ios":"levelo://app?vid=82cf85ff-c9bc-4d34-9fba-817448bb3b6c"},"vehicle_type_id":"4","last_reported":1758884889,"current_range_meters":17200,"station_id":"ce4bho12rcd13ifvqh1g","pricing_plan_id":"cebpf4jnsgd1na2vs0mg"},{"bike_id":"21147e85-29a3-4c9f-8feb-bbd6cc7b16ae","system_id":"levelo_inurba_marseille","lat":43.31993,"lon":5.38157,"is_reserved":false,"is_disabled":false,"rental_uris":{"android":"levelo://app?vid=21147e85-29a3-4c9f-8feb-bbd6cc7b16ae","ios":"levelo://app?vid=21147e85-29a3-4c9f-8feb-bbd6cc7b16ae"},"vehicle_type_id":"4","last_reported":1758884889,"current_range_meters":17200,"station_id":"ce4bhr12rcd13ifvqhpg","pricing_plan_id":"cebpf4jnsgd1na2vs0mg"},{"bike_id":"6f731abe-8b59-4d82-a808-f8cf06b34e7f","system_id":"levelo_inurba_marseille","lat":43.30913,"lon":5.36843,"is_reserved":false,"is_disabled":false,"rental_uris":{"android":"levelo://app?vid=6f731abe-8b59-4d82-a808-f8cf06b34e7f","ios":"levelo://app?vid=6f731abe-8b59-4d82-a808-f8cf06b34e7f"},"vehicle_type_id":"4","last_reported":1758884889,"current_range_meters":17200,"station_id":"ce4bgn92rcd13ifvqbvg","pricing_plan_id":"cebpf4jnsgd1na2vs0mg"},{"bike_id":"66d7338f-5df2-47d3-9ca4-acf9a7aae8f8","system_id":"levelo_inurba_marseille","lat":43.33577,"lon":5.40973,"is_reserved":false,"is_disabled":false,"rental_uris":{"android":"levelo://app?vid=66d7338f-5df2-47d3-9ca4-acf9a7aae8f8","ios":"levelo://app?vid=66d7338f-5df2-47d3-9ca4-acf9a7aae8f8"},"vehicle_type_id":"4","last_reported":1758884889,"current_range_meters":17200,"station_id":"","pricing_plan_id":"cebpf4jnsgd1na2vs0mg"},{"bike_id":"d135f4e0-47bb-4329-9492-a41d83d89b4e","system_id":"levelo_inurba_marseille","lat":43.29897,"lon":5.36486,"is_reserved":false,"is_disabled":false,"rental_uris":{"android":"levelo://app?vid=d135f4e0-47bb-4329-9492-a41d83d89b4e","ios":"levelo://app?vid=d135f4e0-47bb-4329-9492-a41d83d89b4e"},"vehicle_type_id":"4","last_reported":1758884889,"current_range_meters":17200,"station_id":"","pricing_plan_id":"cebpf4jnsgd1na2vs0mg"},{"bike_id":"ecde7416-5159-40e4-a639-87c55fad7fd9","system_id":"levelo_inurba_marseille","lat":43.23149,"lon":5.43708,"is_reserved":false,"is_disabled":false,"rental_uris":{"android":"levelo://app?vid=ecde7416-5159-40e4-a639-87c55fad7fd9","ios":"levelo://app?vid=ecde7416-5159-40e4-a639-87c55fad7fd9"},"vehicle_type_id":"4","last_reported":1758884889,"current_range_meters":17200,"station_id":"ce4bhmp2rcd13ifvqgog","pricing_plan_id":"cebpf4jnsgd1na2vs0mg"},{"bike_id":"8237bf53-d01b-459f-b428-b49fd3d70223","system_id":"levelo_inurba_marseille","lat":43.29225,"lon":5.36069,"is_reserved":false,"is_disabled":false,"rental_uris":{"android":"levelo://app?vid=8237bf53-d01b-459f-b428-b49fd3d70223","ios":"levelo://app?vid=8237bf53-d01b-459f-b428-b49fd3d70223"},"vehicle_type_id":"4","last_reported":1758884889,"current_range_meters":17200,"station_id":"ce4bhbh2rcd13ifvqeqg","pricing_plan_id":"cebpf4jnsgd1na2vs0mg"},{"bike_id":"80bdba63-46f3-4274-b0d9-d9711409b6a8","system_id":"levelo_inurba_marseille","lat":43.270752,"lon":5.402497,"is_reserved":false,"is_disabled":false,"rental_uris":{"android":"levelo://app?vid=80bdba63-46f3-4274-b0d9-d9711409b6a8","ios":"levelo://app?vid=80bdba63-46f3-4274-b0d9-d9711409b6a8"},"vehicle_type_id":"4","last_reported":1758884889,"current_range_meters":17200,"station_id":"","pricing_plan_id":"cebpf4jnsgd1na2vs0mg"},{"bike_id":"56f1778f-17d8-4e0b-a83f-9f87c1a76598","system_id":"levelo_inurba_marseille","lat":43.293703,"lon":5.378484,"is_reserved":false,"is_disabled":false,"rental_uris":{"android":"levelo://app?vid=56f1778f-17d8-4e0b-a83f-9f87c1a76598","ios":"levelo://app?vid=56f1778f-17d8-4e0b-a83f-9f87c1a76598"},"vehicle_type_id":"4","last_reported":1758884889,"current_range_meters":17200,"station_id":"ce4bgjh2rcd13ifvqbf0","pricing_plan_id":"cebpf4jnsgd1na2vs0mg"},{"bike_id":"172d0563-1015-4763-84e5-fbade3189ee3","system_id":"levelo_inurba_marseille","lat":43.3061,"lon":5.37219,"is_reserved":false,"is_disabled":false,"rental_uris":{"android":"levelo://app?vid=172d0563-1015-4763-84e5-fbade3189ee3","ios":"levelo://app?vid=172d0563-1015-4763-84e5-fbade3189ee3"},"vehicle_type_id":"4","last_reported":1758884889,"current_range_meters":17200,"station_id":"ce4bgqh2rcd13ifvqc4g","pricing_plan_id":"cebpf4jnsgd1na2vs0mg"},{"bike_id":"c39f3e6f-c409-4162-9696-783cf8747be2","system_id":"levelo_inurba_marseille","lat":43.280372,"lon":5.369484,"is_reserved":false,"is_disabled":false,"rental_uris":{"android":"levelo://app?vid=c39f3e6f-c409-4162-9696-783cf8747be2","ios":"levelo://app?vid=c39f3e6f-c409-4162-9696-783cf8747be2"},"vehicle_type_id":"4","last_reported":1758884889,"current_range_meters":16800,"station_id":"ce4bha12rcd13ifvqef0","pricing_plan_id":"cebpf4jnsgd1na2vs0mg"},{"bike_id":"ee925a9c-c600-454e-8837-0da5956fd25f","system_id":"levelo_inurba_marseille","lat":43.22945,"lon":5.3536,"is_reserved":false,"is_disabled":false,"rental_uris":{"android":"levelo://app?vid=ee925a9c-c600-454e-8837-0da5956fd25f","ios":"levelo://app?vid=ee925a9c-c600-454e-8837-0da5956fd25f"},"vehicle_type_id":"4","last_reported":1758884889,"current_range_meters":17200,"station_id":"cpo3532slgdg3j2ikp40","pricing_plan_id":"cebpf4jnsgd1na2vs0mg"},{"bike_id":"8cf842e4-76c1-4a82-ad31-66529da65dba","system_id":"levelo_inurba_marseille","lat":43.267004,"lon":5.402,"is_reserved":false,"is_disabled":false,"rental_uris":{"android":"levelo://app?vid=8cf842e4-76c1-4a82-ad31-66529da65dba","ios":"levelo://app?vid=8cf842e4-76c1-4a82-ad31-66529da65dba"},"vehicle_type_id":"4","last_reported":1758884889,"current_range_meters":17600,"station_id":"","pricing_plan_id":"cebpf4jnsgd1na2vs0mg"},{"bike_id":"e9c2ea95-f8f4-44ac-8b95-70093bf04c5a","system_id":"levelo_inurba_marseille","lat":43.255612,"lon":5.382223,"is_reserved":false,"is_disabled":false,"rental_uris":{"android":"levelo://app?vid=e9c2ea95-f8f4-44ac-8b95-70093bf04c5a","ios":"levelo://app?vid=e9c2ea95-f8f4-44ac-8b95-70093bf04c5a"},"vehicle_type_id":"4","last_reported":1758884889,"current_range_meters":17600,"station_id":"ce4bhih2rcd13ifvqfs0","pricing_plan_id":"cebpf4jnsgd1na2vs0mg"},{"bike_id":"ff80ace9-5bb1-4400-92db-811f67417271","system_id":"levelo_inurba_marseille","lat":43.24963,"lon":5.40486,"is_reserved":false,"is_disabled":false,"rental_uris":{"android":"levelo://app?vid=ff80ace9-5bb1-4400-92db-811f67417271","ios":"levelo://app?vid=ff80ace9-5bb1-4400-92db-811f67417271"},"vehicle_type_id":"4","last_reported":1758884889,"current_range_meters":17600,"station_id":"st_d2ngiaodas8pm72gd1h0","pricing_plan_id":"cebpf4jnsgd1na2vs0mg"},{"bike_id":"675e8c57-28b0-452f-85ee-0c52a2cf7755","system_id":"levelo_inurba_marseille","lat":43.26564,"lon":5.39004,"is_reserved":false,"is_disabled":false,"rental_uris":{"android":"levelo://app?vid=675e8c57-28b0-452f-85ee-0c52a2cf7755","ios":"levelo://app?vid=675e8c57-28b0-452f-85ee-0c52a2cf7755"},"vehicle_type_id":"4","last_reported":1758884889,"current_range_meters":17600,"station_id":"ce4bhe12rcd13ifvqf30","pricing_plan_id":"cebpf4jnsgd1na2vs0mg"},{"bike_id":"934ea1ec-b7f6-49a1-9efa-287317d4eb22","system_id":"levelo_inurba_marseille","lat":43.29048,"lon":5.35914,"is_reserved":false,"is_disabled":false,"rental_uris":{"android":"levelo://app?vid=934ea1ec-b7f6-49a1-9efa-287317d4eb22","ios":"levelo://app?vid=934ea1ec-b7f6-49a1-9efa-287317d4eb22"},"vehicle_type_id":"4","last_reported":1758884889,"current_range_meters":17600,"station_id":"","pricing_plan_id":"cebpf4jnsgd1na2vs0mg"},{"bike_id":"63c0879c-e69b-4e84-9806-c068fbaee754","system_id":"levelo_inurba_marseille","lat":43.2294,"lon":5.35393,"is_reserved":false,"is_disabled":false,"rental_uris":{"android":"levelo://app?vid=63c0879c-e69b-4e84-9806-c068fbaee754","ios":"levelo://app?vid=63c0879c-e69b-4e84-9806-c068fbaee754"},"vehicle_type_id":"4","last_reported":1758884889,"current_range_meters":17600,"station_id":"cpo3532slgdg3j2ikp40","pricing_plan_id":"cebpf4jnsgd1na2vs0mg"},{"bike_id":"7f09bc43-02a6-468a-9182-731c83281b4a","system_id":"levelo_inurba_marseille","lat":43.26345,"lon":5.37507,"is_reserved":false,"is_disabled":false,"rental_uris":{"android":"levelo://app?vid=7f09bc43-02a6-468a-9182-731c83281b4a","ios":"levelo://app?vid=7f09bc43-02a6-468a-9182-731c83281b4a"},"vehicle_type_id":"4","last_reported":1758884889,"current_range_meters":17600,"station_id":"","pricing_plan_id":"cebpf4jnsgd1na2vs0mg"},{"bike_id":"b8ba914a-408e-46c4-935e-99cb5f520527","system_id":"levelo_inurba_marseille","lat":43.25501,"lon":5.37646,"is_reserved":false,"is_disabled":false,"rental_uris":{"android":"levelo://app?vid=b8ba914a-408e-46c4-935e-99cb5f520527","ios":"levelo://app?vid=b8ba914a-408e-46c4-935e-99cb5f520527"},"vehicle_type_id":"4","last_reported":1758884889,"current_range_meters":17600,"station_id":"ce4bhh12rcd13ifvqff0","pricing_plan_id":"cebpf4jnsgd1na2vs0mg"},{"bike_id":"371fd6e1-ff4a-4143-98fe-3368993b3f11","system_id":"levelo_inurba_marseille","lat":43.21191,"lon":5.35074,"is_reserved":false,"is_disabled":false,"rental_uris":{"android":"levelo://app?vid=371fd6e1-ff4a-4143-98fe-3368993b3f11","ios":"levelo://app?vid=371fd6e1-ff4a-4143-98fe-3368993b3f11"},"vehicle_type_id":"4","last_reported":1758884889,"current_range_meters":17600,"station_id":"st_cvj6sg6p6f1abm77japg","pricing_plan_id":"cebpf4jnsgd1na2vs0mg"},{"bike_id":"b27a4804-7e33-4d03-8454-3d3963c5b868","system_id":"levelo_inurba_marseille","lat":43.29569,"lon":5.37495,"is_reserved":false,"is_disabled":false,"rental_uris":{"android":"levelo://app?vid=b27a4804-7e33-4d03-8454-3d3963c5b868","ios":"levelo://app?vid=b27a4804-7e33-4d03-8454-3d3963c5b868"},"vehicle_type_id":"4","last_reported":1758884889,"current_range_meters":17600,"station_id":"ce4bgh92rcd13ifvqb50","pricing_plan_id":"cebpf4jnsgd1na2vs0mg"},{"bike_id":"e9269908-ff89-46d8-bbe8-39742ae77796","system_id":"levelo_inurba_marseille","lat":43.28,"lon":5.41671,"is_reserved":false,"is_disabled":false,"rental_uris":{"android":"levelo://app?vid=e9269908-ff89-46d8-bbe8-39742ae77796","ios":"levelo://app?vid=e9269908-ff89-46d8-bbe8-39742ae77796"},"vehicle_type_id":"4","last_reported":1758884889,"current_range_meters":17600,"station_id":"ce4bho12rcd13ifvqh1g","pricing_plan_id":"cebpf4jnsgd1na2vs0mg"},{"bike_id":"5d98ca1a-dfa1-49a6-99f5-418ddb9f99d6","system_id":"levelo_inurba_marseille","lat":43.2467,"lon":5.38856,"is_reserved":false,"is_disabled":false,"rental_uris":{"android":"levelo://app?vid=5d98ca1a-dfa1-49a6-99f5-418ddb9f99d6","ios":"levelo://app?vid=5d98ca1a-dfa1-49a6-99f5-418ddb9f99d6"},"vehicle_type_id":"4","last_reported":1758884889,"current_range_meters":17600,"station_id":"ce4bhg12rcd13ifvqf60","pricing_plan_id":"cebpf4jnsgd1na2vs0mg"},{"bike_id":"73d89fb3-82e6-4bec-9369-602a2295d444","system_id":"levelo_inurba_marseille","lat":43.30465,"lon":5.37913,"is_reserved":false,"is_disabled":false,"rental_uris":{"android":"levelo://app?vid=73d89fb3-82e6-4bec-9369-602a2295d444","ios":"levelo://app?vid=73d89fb3-82e6-4bec-9369-602a2295d444"},"vehicle_type_id":"4","last_reported":1758884889,"current_range_meters":17600,"station_id":"ce4bgup2rcd13ifvqcn0","pricing_plan_id":"cebpf4jnsgd1na2vs0mg"},{"bike_id":"7c79b95f-29ac-42b6-9a98-291d5f57b6e6","system_id":"levelo_inurba_marseille","lat":43.29611,"lon":5.37521,"is_reserved":false,"is_disabled":false,"rental_uris":{"android":"levelo://app?vid=7c79b95f-29ac-42b6-9a98-291d5f57b6e6","ios":"levelo://app?vid=7c79b95f-29ac-42b6-9a98-291d5f57b6e6"},"vehicle_type_id":"4","last_reported":1758884889,"current_range_meters":18000,"station_id":"ce4bgh92rcd13ifvqb50","pricing_plan_id":"cebpf4jnsgd1na2vs0mg"},{"bike_id":"f9c2c353-0037-4e7d-bffa-25d4c9dbdb4b","system_id":"levelo_inurba_marseille","lat":43.295796,"lon":5.375173,"is_reserved":false,"is_disabled":false,"rental_uris":{"android":"levelo://app?vid=f9c2c353-0037-4e7d-bffa-25d4c9dbdb4b","ios":"levelo://app?vid=f9c2c353-0037-4e7d-bffa-25d4c9dbdb4b"},"vehicle_type_id":"4","last_reported":1758884889,"current_range_meters":18000,"station_id":"ce4bgh92rcd13ifvqb50","pricing_plan_id":"cebpf4jnsgd1na2vs0mg"},{"bike_id":"ac9d3204-6075-4372-a1c7-c680ded3bf74","system_id":"levelo_inurba_marseille","lat":43.23153,"lon":5.4371,"is_reserved":false,"is_disabled":false,"rental_uris":{"android":"levelo://app?vid=ac9d3204-6075-4372-a1c7-c680ded3bf74","ios":"levelo://app?vid=ac9d3204-6075-4372-a1c7-c680ded3bf74"},"vehicle_type_id":"4","last_reported":1758884889,"current_range_meters":18000,"station_id":"ce4bhmp2rcd13ifvqgog","pricing_plan_id":"cebpf4jnsgd1na2vs0mg"},{"bike_id":"6ead73bc-4fe5-4384-a633-88a0aff833f9","system_id":"levelo_inurba_marseille","lat":43.27813,"lon":5.40717,"is_reserved":false,"is_disabled":false,"rental_uris":{"android":"levelo://app?vid=6ead73bc-4fe5-4384-a633-88a0aff833f9","ios":"levelo://app?vid=6ead73bc-4fe5-4384-a633-88a0aff833f9"},"vehicle_type_id":"4","last_reported":1758884889,"current_range_meters":18000,"station_id":"ce4bhnh2rcd13ifvqgtg","pricing_plan_id":"cebpf4jnsgd1na2vs0mg"},{"bike_id":"03350417-1098-4d6c-b8fe-9e64358744bf","system_id":"levelo_inurba_marseille","lat":43.31062,"lon":5.37549,"is_reserved":false,"is_disabled":false,"rental_uris":{"android":"levelo://app?vid=03350417-1098-4d6c-b8fe-9e64358744bf","ios":"levelo://app?vid=03350417-1098-4d6c-b8fe-9e64358744bf"},"vehicle_type_id":"4","last_reported":1758884889,"current_range_meters":18000,"station_id":"","pricing_plan_id":"cebpf4jnsgd1na2vs0mg"},{"bike_id":"73c20c43-bc61-43cb-87a1-f9ee0799dd60","system_id":"levelo_inurba_marseille","lat":43.28594,"lon":5.38433,"is_reserved":false,"is_disabled":false,"rental_uris":{"android":"levelo://app?vid=73c20c43-bc61-43cb-87a1-f9ee0799dd60","ios":"levelo://app?vid=73c20c43-bc61-43cb-87a1-f9ee0799dd60"},"vehicle_type_id":"4","last_reported":1758884889,"current_range_meters":18000,"station_id":"","pricing_plan_id":"cebpf4jnsgd1na2vs0mg"},{"bike_id":"b4831387-7286-4793-92c6-2b5a36d9cc45","system_id":"levelo_inurba_marseille","lat":43.33023,"lon":5.39041,"is_reserved":false,"is_disabled":false,"rental_uris":{"android":"levelo://app?vid=b4831387-7286-4793-92c6-2b5a36d9cc45","ios":"levelo://app?vid=b4831387-7286-4793-92c6-2b5a36d9cc45"},"vehicle_type_id":"4","last_reported":1758884889,"current_range_meters":18000,"station_id":"ce4bhr92rcd13ifvqhrg","pricing_plan_id":"cebpf4jnsgd1na2vs0mg"},{"bike_id":"a5c2a027-75ab-4cc4-9384-86bd54e4b6bd","system_id":"levelo_inurba_marseille","lat":43.2175,"lon":5.34594,"is_reserved":false,"is_disabled":false,"rental_uris":{"android":"levelo://app?vid=a5c2a027-75ab-4cc4-9384-86bd54e4b6bd","ios":"levelo://app?vid=a5c2a027-75ab-4cc4-9384-86bd54e4b6bd"},"vehicle_type_id":"4","last_reported":1758884889,"current_range_meters":18800,"station_id":"","pricing_plan_id":"cebpf4jnsgd1na2vs0mg"},{"bike_id":"c3aaf357-dacd-44ee-849c-77627935c404","system_id":"levelo_inurba_marseille","lat":43.31252,"lon":5.369,"is_reserved":false,"is_disabled":false,"rental_uris":{"android":"levelo://app?vid=c3aaf357-dacd-44ee-849c-77627935c404","ios":"levelo://app?vid=c3aaf357-dacd-44ee-849c-77627935c404"},"vehicle_type_id":"4","last_reported":1758884889,"current_range_meters":18800,"station_id":"ce4bgl92rcd13ifvqbq0","pricing_plan_id":"cebpf4jnsgd1na2vs0mg"},{"bike_id":"9614dc46-ab77-4974-9082-149805c2a5a9","system_id":"levelo_inurba_marseille","lat":43.3248,"lon":5.36555,"is_reserved":false,"is_disabled":false,"rental_uris":{"android":"levelo://app?vid=9614dc46-ab77-4974-9082-149805c2a5a9","ios":"levelo://app?vid=9614dc46-ab77-4974-9082-149805c2a5a9"},"vehicle_type_id":"4","last_reported":1758884889,"current_range_meters":18800,"station_id":"ce4bhs12rcd13ifvqhvg","pricing_plan_id":"cebpf4jnsgd1na2vs0mg"},{"bike_id":"c14a2886-6a93-4e46-87d6-648078bdbfcd","system_id":"levelo_inurba_marseille","lat":43.26567,"lon":5.40315,"is_reserved":false,"is_disabled":false,"rental_uris":{"android":"levelo://app?vid=c14a2886-6a93-4e46-87d6-648078bdbfcd","ios":"levelo://app?vid=c14a2886-6a93-4e46-87d6-648078bdbfcd"},"vehicle_type_id":"4","last_reported":1758884889,"current_range_meters":18800,"station_id":"ce4bhmp2rcd13ifvqgng","pricing_plan_id":"cebpf4jnsgd1na2vs0mg"},{"bike_id":"b7055002-0b6c-492c-8e14-167d479052f9","system_id":"levelo_inurba_marseille","lat":43.31323,"lon":5.3969,"is_reserved":false,"is_disabled":false,"rental_uris":{"android":"levelo://app?vid=b7055002-0b6c-492c-8e14-167d479052f9","ios":"levelo://app?vid=b7055002-0b6c-492c-8e14-167d479052f9"},"vehicle_type_id":"4","last_reported":1758884889,"current_range_meters":18800,"station_id":"ce4bgvp2rcd13ifvqcu0","pricing_plan_id":"cebpf4jnsgd1na2vs0mg"},{"bike_id":"5bb42022-0e19-48bc-a5b4-218bb1d7482e","system_id":"levelo_inurba_marseille","lat":43.3128,"lon":5.37746,"is_reserved":false,"is_disabled":false,"rental_uris":{"android":"levelo://app?vid=5bb42022-0e19-48bc-a5b4-218bb1d7482e","ios":"levelo://app?vid=5bb42022-0e19-48bc-a5b4-218bb1d7482e"},"vehicle_type_id":"4","last_reported":1758884889,"current_range_meters":18800,"station_id":"","pricing_plan_id":"cebpf4jnsgd1na2vs0mg"},{"bike_id":"d22c170d-293f-4967-b06e-93f6e571af52","system_id":"levelo_inurba_marseille","lat":43.26211,"lon":5.37447,"is_reserved":false,"is_disabled":false,"rental_uris":{"android":"levelo://app?vid=d22c170d-293f-4967-b06e-93f6e571af52","ios":"levelo://app?vid=d22c170d-293f-4967-b06e-93f6e571af52"},"vehicle_type_id":"4","last_reported":1758884889,"current_range_meters":18800,"station_id":"ce4bhgp2rcd13ifvqfc0","pricing_plan_id":"cebpf4jnsgd1na2vs0mg"},{"bike_id":"74680853-f7be-4bee-9b3b-f2a052cf411d","system_id":"levelo_inurba_marseille","lat":43.29378,"lon":5.37822,"is_reserved":false,"is_disabled":false,"rental_uris":{"android":"levelo://app?vid=74680853-f7be-4bee-9b3b-f2a052cf411d","ios":"levelo://app?vid=74680853-f7be-4bee-9b3b-f2a052cf411d"},"vehicle_type_id":"4","last_reported":1758884889,"current_range_meters":18800,"station_id":"ce4bgjh2rcd13ifvqbf0","pricing_plan_id":"cebpf4jnsgd1na2vs0mg"},{"bike_id":"ae58ae82-385d-4e14-8a72-751e530f467a","system_id":"levelo_inurba_marseille","lat":43.23162,"lon":5.437,"is_reserved":false,"is_disabled":false,"rental_uris":{"android":"levelo://app?vid=ae58ae82-385d-4e14-8a72-751e530f467a","ios":"levelo://app?vid=ae58ae82-385d-4e14-8a72-751e530f467a"},"vehicle_type_id":"4","last_reported":1758884889,"current_range_meters":18800,"station_id":"ce4bhmp2rcd13ifvqgog","pricing_plan_id":"cebpf4jnsgd1na2vs0mg"},{"bike_id":"b8d868b7-e6c2-46f2-80ea-96deb85a0e4a","system_id":"levelo_inurba_marseille","lat":43.32657,"lon":5.40997,"is_reserved":false,"is_disabled":false,"rental_uris":{"android":"levelo://app?vid=b8d868b7-e6c2-46f2-80ea-96deb85a0e4a","ios":"levelo://app?vid=b8d868b7-e6c2-46f2-80ea-96deb85a0e4a"},"vehicle_type_id":"4","last_reported":1758884889,"current_range_meters":19200,"station_id":"ce4bhpp2rcd13ifvqhgg","pricing_plan_id":"cebpf4jnsgd1na2vs0mg"},{"bike_id":"327c041e-5c9e-4b0d-a97c-a2dbaab036ae","system_id":"levelo_inurba_marseille","lat":43.32813,"lon":5.4113,"is_reserved":false,"is_disabled":false,"rental_uris":{"android":"levelo://app?vid=327c041e-5c9e-4b0d-a97c-a2dbaab036ae","ios":"levelo://app?vid=327c041e-5c9e-4b0d-a97c-a2dbaab036ae"},"vehicle_type_id":"4","last_reported":1758884889,"current_range_meters":19200,"station_id":"","pricing_plan_id":"cebpf4jnsgd1na2vs0mg"},{"bike_id":"34faf15a-f1a4-405b-8978-48fdb1d38e66","system_id":"levelo_inurba_marseille","lat":43.24995,"lon":5.389306,"is_reserved":false,"is_disabled":false,"rental_uris":{"android":"levelo://app?vid=34faf15a-f1a4-405b-8978-48fdb1d38e66","ios":"levelo://app?vid=34faf15a-f1a4-405b-8978-48fdb1d38e66"},"vehicle_type_id":"4","last_reported":1758884889,"current_range_meters":19200,"station_id":"ce4bhgp2rcd13ifvqfd0","pricing_plan_id":"cebpf4jnsgd1na2vs0mg"},{"bike_id":"6fa11d64-bb9e-4e9b-b1cc-33b2818fdb2e","system_id":"levelo_inurba_marseille","lat":43.29231,"lon":5.36045,"is_reserved":false,"is_disabled":false,"rental_uris":{"android":"levelo://app?vid=6fa11d64-bb9e-4e9b-b1cc-33b2818fdb2e","ios":"levelo://app?vid=6fa11d64-bb9e-4e9b-b1cc-33b2818fdb2e"},"vehicle_type_id":"4","last_reported":1758884889,"current_range_meters":19200,"station_id":"ce4bhbh2rcd13ifvqeqg","pricing_plan_id":"cebpf4jnsgd1na2vs0mg"},{"bike_id":"cecc14b1-e35c-4bda-a1ff-f8b4863a20a2","system_id":"levelo_inurba_marseille","lat":43.25584,"lon":5.38224,"is_reserved":false,"is_disabled":false,"rental_uris":{"android":"levelo://app?vid=cecc14b1-e35c-4bda-a1ff-f8b4863a20a2","ios":"levelo://app?vid=cecc14b1-e35c-4bda-a1ff-f8b4863a20a2"},"vehicle_type_id":"4","last_reported":1758884889,"current_range_meters":19200,"station_id":"ce4bhih2rcd13ifvqfs0","pricing_plan_id":"cebpf4jnsgd1na2vs0mg"},{"bike_id":"01f45480-95a4-4e5b-8360-a4f6ffe40fb0","system_id":"levelo_inurba_marseille","lat":43.29797,"lon":5.37135,"is_reserved":false,"is_disabled":false,"rental_uris":{"android":"levelo://app?vid=01f45480-95a4-4e5b-8360-a4f6ffe40fb0","ios":"levelo://app?vid=01f45480-95a4-4e5b-8360-a4f6ffe40fb0"},"vehicle_type_id":"4","last_reported":1758884889,"current_range_meters":19200,"station_id":"ce4bgop2rcd13ifvqc1g","pricing_plan_id":"cebpf4jnsgd1na2vs0mg"},{"bike_id":"2ec3ba5d-3f49-4904-8f98-0a7a15de6356","system_id":"levelo_inurba_marseille","lat":43.27176,"lon":5.40987,"is_reserved":false,"is_disabled":false,"rental_uris":{"android":"levelo://app?vid=2ec3ba5d-3f49-4904-8f98-0a7a15de6356","ios":"levelo://app?vid=2ec3ba5d-3f49-4904-8f98-0a7a15de6356"},"vehicle_type_id":"4","last_reported":1758884889,"current_range_meters":19200,"station_id":"ce4bhl12rcd13ifvqgf0","pricing_plan_id":"cebpf4jnsgd1na2vs0mg"},{"bike_id":"5914036d-955f-497f-ab99-fb9f4c4f6806","system_id":"levelo_inurba_marseille","lat":43.2718,"lon":5.40985,"is_reserved":false,"is_disabled":false,"rental_uris":{"android":"levelo://app?vid=5914036d-955f-497f-ab99-fb9f4c4f6806","ios":"levelo://app?vid=5914036d-955f-497f-ab99-fb9f4c4f6806"},"vehicle_type_id":"4","last_reported":1758884889,"current_range_meters":19200,"station_id":"ce4bhl12rcd13ifvqgf0","pricing_plan_id":"cebpf4jnsgd1na2vs0mg"},{"bike_id":"e12d1b65-8531-4a9f-845a-6cb4ab614e07","system_id":"levelo_inurba_marseille","lat":43.30136,"lon":5.37409,"is_reserved":false,"is_disabled":false,"rental_uris":{"android":"levelo://app?vid=e12d1b65-8531-4a9f-845a-6cb4ab614e07","ios":"levelo://app?vid=e12d1b65-8531-4a9f-845a-6cb4ab614e07"},"vehicle_type_id":"4","last_reported":1758884889,"current_range_meters":19200,"station_id":"ce4bgs92rcd13ifvqcc0","pricing_plan_id":"cebpf4jnsgd1na2vs0mg"},{"bike_id":"894a4312-807b-4f78-a14b-747c7ca6cda9","system_id":"levelo_inurba_marseille","lat":43.29375,"lon":5.37841,"is_reserved":false,"is_disabled":false,"rental_uris":{"android":"levelo://app?vid=894a4312-807b-4f78-a14b-747c7ca6cda9","ios":"levelo://app?vid=894a4312-807b-4f78-a14b-747c7ca6cda9"},"vehicle_type_id":"4","last_reported":1758884889,"current_range_meters":19200,"station_id":"ce4bgjh2rcd13ifvqbf0","pricing_plan_id":"cebpf4jnsgd1na2vs0mg"},{"bike_id":"46ac5fb6-ac2e-43e8-84c9-c4e46889ea29","system_id":"levelo_inurba_marseille","lat":43.2119,"lon":5.35069,"is_reserved":false,"is_disabled":false,"rental_uris":{"android":"levelo://app?vid=46ac5fb6-ac2e-43e8-84c9-c4e46889ea29","ios":"levelo://app?vid=46ac5fb6-ac2e-43e8-84c9-c4e46889ea29"},"vehicle_type_id":"4","last_reported":1758884889,"current_range_meters":19200,"station_id":"st_cvj6sg6p6f1abm77japg","pricing_plan_id":"cebpf4jnsgd1na2vs0mg"},{"bike_id":"10990acb-6c9d-4ba9-a551-73dfaaf72c10","system_id":"levelo_inurba_marseille","lat":43.25824,"lon":5.39436,"is_reserved":false,"is_disabled":false,"rental_uris":{"android":"levelo://app?vid=10990acb-6c9d-4ba9-a551-73dfaaf72c10","ios":"levelo://app?vid=10990acb-6c9d-4ba9-a551-73dfaaf72c10"},"vehicle_type_id":"4","last_reported":1758884889,"current_range_meters":18800,"station_id":"ce4bhip2rcd13ifvqft0","pricing_plan_id":"cebpf4jnsgd1na2vs0mg"},{"bike_id":"ff675049-f0f2-4324-858a-e36027835893","system_id":"levelo_inurba_marseille","lat":43.25916,"lon":5.40897,"is_reserved":false,"is_disabled":false,"rental_uris":{"android":"levelo://app?vid=ff675049-f0f2-4324-858a-e36027835893","ios":"levelo://app?vid=ff675049-f0f2-4324-858a-e36027835893"},