{"last_updated":1701108569,"ttl":30,"version":"2.2","data":{"bikes":[{"bike_id":"a62900b3-e231-444b-ba3d-6a5f491ede5f","system_id":"levelo_inurba_marseille","lat":43.31344,"lon":5.36699,"is_reserved":false,"is_disabled":false,"rental_uris":{"android":"levelo://app?vid=a62900b3-e231-444b-ba3d-6a5f491ede5f","ios":"levelo://app?vid=a62900b3-e231-444b-ba3d-6a5f491ede5f"},"vehicle_type_id":"4","last_reported":1701108569,"current_range_meters":20000,"station_id":"ce4bgr92rcd13ifvqc6g","pricing_plan_id":"free"},{"bike_id":"f79e56b7-07fc-4cbb-8c5f-1219abdbaaa0","system_id":"levelo_inurba_marseille","lat":43.31362,"lon":5.36706,"is_reserved":false,"is_disabled":false,"rental_uris":{"android":"levelo://app?vid=f79e56b7-07fc-4cbb-8c5f-1219abdbaaa0","ios":"levelo://app?vid=f79e56b7-07fc-4cbb-8c5f-1219abdbaaa0"},"vehicle_type_id":"4","last_reported":1701108569,"current_range_meters":28400,"station_id":"ce4bgr92rcd13ifvqc6g","pricing_plan_id":"free"},{"bike_id":"df7f1710-213d-4be5-86a8-93f4a5b41e94","system_id":"levelo_inurba_marseille","lat":43.312239,"lon":5.368562,"is_reserved":false,"is_disabled":false,"rental_uris":{"android":"levelo://app?vid=df7f1710-213d-4be5-86a8-93f4a5b41e94","ios":"levelo://app?vid=df7f1710-213d-4be5-86a8-93f4a5b41e94"},"vehicle_type_id":"4","last_reported":1701108569,"current_range_meters":31200,"station_id":"ce4bgl92rcd13ifvqbq0","pricing_plan_id":"free"},{"bike_id":"f8ce07bd-74a2-449d-a36f-cb40f7c8a45f","system_id":"levelo_inurba_marseille","lat":43.312239,"lon":5.368562,"is_reserved":false,"is_disabled":false,"rental_uris":{"android":"levelo://app?vid=f8ce07bd-74a2-449d-a36f-cb40f7c8a45f","ios":"levelo://app?vid=f8ce07bd-74a2-449d-a36f-cb40f7c8a45f"},"vehicle_type_id":"4","last_reported":1701108569,"current_range_meters":11600,"station_id":"ce4bgl92rcd13ifvqbq0","pricing_plan_id":"free"},{"bike_id":"f51fe9fd-4279-44cb-8049-f49fa432c2b0","system_id":"levelo_inurba_marseille","lat":43.312239,"lon":5.368562,"is_reserved":false,"is_disabled":false,"rental_uris":{"android":"levelo://app?vid=f51fe9fd-4279-44cb-8049-f49fa432c2b0","ios":"levelo://app?vid=f51fe9fd-4279-44cb-8049-f49fa432c2b0"},"vehicle_type_id":"4","last_reported":1701108569,"current_range_meters":31600,"station_id":"ce4bgl92rcd13ifvqbq0","pricing_plan_id":"free"},{"bike_id":"ec23ce75-aca3-4739-b1fe-5b6216530996","system_id":"levelo_inurba_marseille","lat":43.312239,"lon":5.368562,"is_reserved":false,"is_disabled":false,"rental_uris":{"android":"levelo://app?vid=ec23ce75-aca3-4739-b1fe-5b6216530996","ios":"levelo://app?vid=ec23ce75-aca3-4739-b1fe-5b6216530996"},"vehicle_type_id":"4","last_reported":1701108569,"current_range_meters":21600,"station_id":"ce4bgl92rcd13ifvqbq0","pricing_plan_id":"free"},{"bike_id":"aaa4e1cf-a683-48f2-a569-50836fdba32a","system_id":"levelo_inurba_marseille","lat":43.309076,"lon":5.368465,"is_reserved":false,"is_disabled":false,"rental_uris":{"android":"levelo://app?vid=aaa4e1cf-a683-48f2-a569-50836fdba32a","ios":"levelo://app?vid=aaa4e1cf-a683-48f2-a569-50836fdba32a"},"vehicle_type_id":"4","last_reported":1701108569,"current_range_meters":18400,"station_id":"ce4bgn92rcd13ifvqbvg","pricing_plan_id":"free"},{"bike_id":"f6b2aaf9-bdcc-4dea-a101-b057177ec0cb","system_id":"levelo_inurba_marseille","lat":43.309076,"lon":5.368465,"is_reserved":false,"is_disabled":false,"rental_uris":{"android":"levelo://app?vid=f6b2aaf9-bdcc-4dea-a101-b057177ec0cb","ios":"levelo://app?vid=f6b2aaf9-bdcc-4dea-a101-b057177ec0cb"},"vehicle_type_id":"4","last_reported":1701108569,"current_range_meters":31200,"station_id":"ce4bgn92rcd13ifvqbvg","pricing_plan_id":"free"},{"bike_id":"92900463-fb19-4355-9eca-e031a31e28dc","system_id":"levelo_inurba_marseille","lat":43.309076,"lon":5.368465,"is_reserved":false,"is_disabled":false,"rental_uris":{"android":"levelo://app?vid=92900463-fb19-4355-9eca-e031a31e28dc","ios":"levelo://app?vid=92900463-fb19-4355-9eca-e031a31e28dc"},"vehicle_type_id":"4","last_reported":1701108569,"current_range_meters":20800,"station_id":"ce4bgn92rcd13ifvqbvg","pricing_plan_id":"free"},{"bike_id":"5126b0aa-d865-4589-8d50-8d8600ba8782","system_id":"levelo_inurba_marseille","lat":43.308502,"lon":5.368752,"is_reserved":false,"is_disabled":false,"rental_uris":{"android":"levelo://app?vid=5126b0aa-d865-4589-8d50-8d8600ba8782","ios":"levelo://app?vid=5126b0aa-d865-4589-8d50-8d8600ba8782"},"vehicle_type_id":"4","last_reported":1701108569,"current_range_meters":25600,"station_id":"","pricing_plan_id":"free"},{"bike_id":"ab9abe58-6163-44aa-b7c6-f6d1f6b7986a","system_id":"levelo_inurba_marseille","lat":43.314811,"lon":5.373104,"is_reserved":false,"is_disabled":false,"rental_uris":{"android":"levelo://app?vid=ab9abe58-6163-44aa-b7c6-f6d1f6b7986a","ios":"levelo://app?vid=ab9abe58-6163-44aa-b7c6-f6d1f6b7986a"},"vehicle_type_id":"4","last_reported":1701108569,"current_range_meters":22000,"station_id":"ce4bgt12rcd13ifvqcd0","pricing_plan_id":"free"},{"bike_id":"af357200-4bdd-45d3-9a14-6408e5dc0ea3","system_id":"levelo_inurba_marseille","lat":43.314811,"lon":5.373103,"is_reserved":false,"is_disabled":false,"rental_uris":{"android":"levelo://app?vid=af357200-4bdd-45d3-9a14-6408e5dc0ea3","ios":"levelo://app?vid=af357200-4bdd-45d3-9a14-6408e5dc0ea3"},"vehicle_type_id":"4","last_reported":1701108569,"current_range_meters":27200,"station_id":"ce4bgt12rcd13ifvqcd0","pricing_plan_id":"free"},{"bike_id":"00126c7b-0d71-41ef-990b-a75bd3f068c7","system_id":"levelo_inurba_marseille","lat":43.314811,"lon":5.373104,"is_reserved":false,"is_disabled":false,"rental_uris":{"android":"levelo://app?vid=00126c7b-0d71-41ef-990b-a75bd3f068c7","ios":"levelo://app?vid=00126c7b-0d71-41ef-990b-a75bd3f068c7"},"vehicle_type_id":"4","last_reported":1701108569,"current_range_meters":31200,"station_id":"ce4bgt12rcd13ifvqcd0","pricing_plan_id":"free"},{"bike_id":"6fb76ca3-fafc-42d9-b691-f8ab39db6c20","system_id":"levelo_inurba_marseille","lat":43.309039,"lon":5.371797,"is_reserved":false,"is_disabled":false,"rental_uris":{"android":"levelo://app?vid=6fb76ca3-fafc-42d9-b691-f8ab39db6c20","ios":"levelo://app?vid=6fb76ca3-fafc-42d9-b691-f8ab39db6c20"},"vehicle_type_id":"4","last_reported":1701108569,"current_range_meters":24000,"station_id":"ce4bguh2rcd13ifvqckg","pricing_plan_id":"free"},{"bike_id":"4c3aff8e-69af-496f-b676-c009479e1889","system_id":"levelo_inurba_marseille","lat":43.314811,"lon":5.373103,"is_reserved":false,"is_disabled":false,"rental_uris":{"android":"levelo://app?vid=4c3aff8e-69af-496f-b676-c009479e1889","ios":"levelo://app?vid=4c3aff8e-69af-496f-b676-c009479e1889"},"vehicle_type_id":"4","last_reported":1701108569,"current_range_meters":29600,"station_id":"ce4bgt12rcd13ifvqcd0","pricing_plan_id":"free"},{"bike_id":"fa4c08a8-f79b-4419-8791-02374ece74c7","system_id":"levelo_inurba_marseille","lat":43.316891,"lon":5.372804,"is_reserved":false,"is_disabled":false,"rental_uris":{"android":"levelo://app?vid=fa4c08a8-f79b-4419-8791-02374ece74c7","ios":"levelo://app?vid=fa4c08a8-f79b-4419-8791-02374ece74c7"},"vehicle_type_id":"4","last_reported":1701108569,"current_range_meters":5200,"station_id":"","pricing_plan_id":"free"},{"bike_id":"226310b2-638c-444c-a15f-247c16471cee","system_id":"levelo_inurba_marseille","lat":43.3193,"lon":5.36798,"is_reserved":false,"is_disabled":false,"rental_uris":{"android":"levelo://app?vid=226310b2-638c-444c-a15f-247c16471cee","ios":"levelo://app?vid=226310b2-638c-444c-a15f-247c16471cee"},"vehicle_type_id":"4","last_reported":1701108569,"current_range_meters":14800,"station_id":"","pricing_plan_id":"free"},{"bike_id":"58fa7a2c-3aca-437c-bc95-2a2d30e62ebf","system_id":"levelo_inurba_marseille","lat":43.305984,"lon":5.365677,"is_reserved":false,"is_disabled":false,"rental_uris":{"android":"levelo://app?vid=58fa7a2c-3aca-437c-bc95-2a2d30e62ebf","ios":"levelo://app?vid=58fa7a2c-3aca-437c-bc95-2a2d30e62ebf"},"vehicle_type_id":"4","last_reported":1701108569,"current_range_meters":0,"station_id":"ce4bgs12rcd13ifvqcag","pricing_plan_id":"free"},{"bike_id":"265b0eba-bee4-4c8a-baf8-ee780b80fb07","system_id":"levelo_inurba_marseille","lat":43.311131,"lon":5.377651,"is_reserved":false,"is_disabled":false,"rental_uris":{"android":"levelo://app?vid=265b0eba-bee4-4c8a-baf8-ee780b80fb07","ios":"levelo://app?vid=265b0eba-bee4-4c8a-baf8-ee780b80fb07"},"vehicle_type_id":"4","last_reported":1701108569,"current_range_meters":22800,"station_id":"ce4bgt92rcd13ifvqcg0","pricing_plan_id":"free"},{"bike_id":"0525c228-cd5d-40c2-ac67-edd6915961b7","system_id":"levelo_inurba_marseille","lat":43.308189,"lon":5.376542,"is_reserved":false,"is_disabled":false,"rental_uris":{"android":"levelo://app?vid=0525c228-cd5d-40c2-ac67-edd6915961b7","ios":"levelo://app?vid=0525c228-cd5d-40c2-ac67-edd6915961b7"},"vehicle_type_id":"4","last_reported":1701108569,"current_range_meters":5200,"station_id":"ce4bgv92rcd13ifvqcq0","pricing_plan_id":"free"},{"bike_id":"fc415d5e-6575-4d37-9a53-1372d544d6af","system_id":"levelo_inurba_marseille","lat":43.30817,"lon":5.37656,"is_reserved":false,"is_disabled":false,"rental_uris":{"android":"levelo://app?vid=fc415d5e-6575-4d37-9a53-1372d544d6af","ios":"levelo://app?vid=fc415d5e-6575-4d37-9a53-1372d544d6af"},"vehicle_type_id":"4","last_reported":1701108569,"current_range_meters":24800,"station_id":"ce4bgv92rcd13ifvqcq0","pricing_plan_id":"free"},{"bike_id":"f427a2c3-6e4a-446b-ae2f-9be8aa7f4122","system_id":"levelo_inurba_marseille","lat":43.31719,"lon":5.376813,"is_reserved":false,"is_disabled":false,"rental_uris":{"android":"levelo://app?vid=f427a2c3-6e4a-446b-ae2f-9be8aa7f4122","ios":"levelo://app?vid=f427a2c3-6e4a-446b-ae2f-9be8aa7f4122"},"vehicle_type_id":"4","last_reported":1701108569,"current_range_meters":16400,"station_id":"ce4bgth2rcd13ifvqch0","pricing_plan_id":"free"},{"bike_id":"e913f328-1e31-4c22-bd87-f809ea246de4","system_id":"levelo_inurba_marseille","lat":43.317168,"lon":5.376883,"is_reserved":false,"is_disabled":false,"rental_uris":{"android":"levelo://app?vid=e913f328-1e31-4c22-bd87-f809ea246de4","ios":"levelo://app?vid=e913f328-1e31-4c22-bd87-f809ea246de4"},"vehicle_type_id":"4","last_reported":1701108569,"current_range_meters":18800,"station_id":"ce4bgth2rcd13ifvqch0","pricing_plan_id":"free"},{"bike_id":"685c3d0f-2059-420f-9313-9e969a0e167e","system_id":"levelo_inurba_marseille","lat":43.307945,"lon":5.376487,"is_reserved":false,"is_disabled":false,"rental_uris":{"android":"levelo://app?vid=685c3d0f-2059-420f-9313-9e969a0e167e","ios":"levelo://app?vid=685c3d0f-2059-420f-9313-9e969a0e167e"},"vehicle_type_id":"4","last_reported":1701108569,"current_range_meters":6000,"station_id":"ce4bgv92rcd13ifvqcq0","pricing_plan_id":"free"},{"bike_id":"d0aeb06d-4cab-437f-acc6-b30730ffe861","system_id":"levelo_inurba_marseille","lat":43.305966,"lon":5.374964,"is_reserved":false,"is_disabled":false,"rental_uris":{"android":"levelo://app?vid=d0aeb06d-4cab-437f-acc6-b30730ffe861","ios":"levelo://app?vid=d0aeb06d-4cab-437f-acc6-b30730ffe861"},"vehicle_type_id":"4","last_reported":1701108569,"current_range_meters":14800,"station_id":"","pricing_plan_id":"free"},{"bike_id":"c43dfa65-6ea9-44b4-bfbd-29a4ee9da93f","system_id":"levelo_inurba_marseille","lat":43.31538,"lon":5.38033,"is_reserved":false,"is_disabled":false,"rental_uris":{"android":"levelo://app?vid=c43dfa65-6ea9-44b4-bfbd-29a4ee9da93f","ios":"levelo://app?vid=c43dfa65-6ea9-44b4-bfbd-29a4ee9da93f"},"vehicle_type_id":"4","last_reported":1701108569,"current_range_meters":16000,"station_id":"ce4bhsp2rcd13ifvqi50","pricing_plan_id":"free"},{"bike_id":"7fcdacd0-b608-4301-ad7d-f2b3dd9cb659","system_id":"levelo_inurba_marseille","lat":43.30797,"lon":5.38153,"is_reserved":false,"is_disabled":false,"rental_uris":{"android":"levelo://app?vid=7fcdacd0-b608-4301-ad7d-f2b3dd9cb659","ios":"levelo://app?vid=7fcdacd0-b608-4301-ad7d-f2b3dd9cb659"},"vehicle_type_id":"4","last_reported":1701108569,"current_range_meters":2400,"station_id":"ce4bgt12rcd13ifvqce0","pricing_plan_id":"free"},{"bike_id":"74c61186-5a22-47b0-9c3e-c78231c21522","system_id":"levelo_inurba_marseille","lat":43.304667,"lon":5.378963,"is_reserved":false,"is_disabled":false,"rental_uris":{"android":"levelo://app?vid=74c61186-5a22-47b0-9c3e-c78231c21522","ios":"levelo://app?vid=74c61186-5a22-47b0-9c3e-c78231c21522"},"vehicle_type_id":"4","last_reported":1701108569,"current_range_meters":18400,"station_id":"","pricing_plan_id":"free"},{"bike_id":"91f02502-2c08-47d7-a567-f561313705e3","system_id":"levelo_inurba_marseille","lat":43.304606,"lon":5.379026,"is_reserved":false,"is_disabled":false,"rental_uris":{"android":"levelo://app?vid=91f02502-2c08-47d7-a567-f561313705e3","ios":"levelo://app?vid=91f02502-2c08-47d7-a567-f561313705e3"},"vehicle_type_id":"4","last_reported":1701108569,"current_range_meters":24800,"station_id":"ce4bgup2rcd13ifvqcn0","pricing_plan_id":"free"},{"bike_id":"c8c62127-74c2-4ee6-9903-219398b54605","system_id":"levelo_inurba_marseille","lat":43.304606,"lon":5.379026,"is_reserved":false,"is_disabled":false,"rental_uris":{"android":"levelo://app?vid=c8c62127-74c2-4ee6-9903-219398b54605","ios":"levelo://app?vid=c8c62127-74c2-4ee6-9903-219398b54605"},"vehicle_type_id":"4","last_reported":1701108569,"current_range_meters":25200,"station_id":"ce4bgup2rcd13ifvqcn0","pricing_plan_id":"free"},{"bike_id":"e17a7de5-ebd4-42fc-8860-6e511f77b829","system_id":"levelo_inurba_marseille","lat":43.32513,"lon":5.361766,"is_reserved":false,"is_disabled":false,"rental_uris":{"android":"levelo://app?vid=e17a7de5-ebd4-42fc-8860-6e511f77b829","ios":"levelo://app?vid=e17a7de5-ebd4-42fc-8860-6e511f77b829"},"vehicle_type_id":"4","last_reported":1701108569,"current_range_meters":27200,"station_id":"","pricing_plan_id":"free"},{"bike_id":"cd625c63-11cd-40b2-aa3d-5ce0f9cc9b3a","system_id":"levelo_inurba_marseille","lat":43.299222,"lon":5.365554,"is_reserved":false,"is_disabled":false,"rental_uris":{"android":"levelo://app?vid=cd625c63-11cd-40b2-aa3d-5ce0f9cc9b3a","ios":"levelo://app?vid=cd625c63-11cd-40b2-aa3d-5ce0f9cc9b3a"},"vehicle_type_id":"4","last_reported":1701108569,"current_range_meters":10000,"station_id":"ce4bgm92rcd13ifvqbr0","pricing_plan_id":"free"},{"bike_id":"8c029cae-57fa-481b-9679-2aa288e46727","system_id":"levelo_inurba_marseille","lat":43.30209,"lon":5.37969,"is_reserved":false,"is_disabled":false,"rental_uris":{"android":"levelo://app?vid=8c029cae-57fa-481b-9679-2aa288e46727","ios":"levelo://app?vid=8c029cae-57fa-481b-9679-2aa288e46727"},"vehicle_type_id":"4","last_reported":1701108569,"current_range_meters":1200,"station_id":"","pricing_plan_id":"free"},{"bike_id":"35d17bd9-a3c4-47ea-96a3-a9a37b243ab9","system_id":"levelo_inurba_marseille","lat":43.32731,"lon":5.36701,"is_reserved":false,"is_disabled":false,"rental_uris":{"android":"levelo://app?vid=35d17bd9-a3c4-47ea-96a3-a9a37b243ab9","ios":"levelo://app?vid=35d17bd9-a3c4-47ea-96a3-a9a37b243ab9"},"vehicle_type_id":"4","last_reported":1701108569,"current_range_meters":22000,"station_id":"ce4bhs92rcd13ifvqi0g","pricing_plan_id":"free"},{"bike_id":"11f191bd-ea5a-448f-843f-86bc088a433b","system_id":"levelo_inurba_marseille","lat":43.298433,"lon":5.362774,"is_reserved":false,"is_disabled":false,"rental_uris":{"android":"levelo://app?vid=11f191bd-ea5a-448f-843f-86bc088a433b","ios":"levelo://app?vid=11f191bd-ea5a-448f-843f-86bc088a433b"},"vehicle_type_id":"4","last_reported":1701108569,"current_range_meters":20400,"station_id":"ce4bgpp2rcd13ifvqc3g","pricing_plan_id":"free"},{"bike_id":"ea81c7a7-10cd-4f6b-b0a5-a3d91306bc0f","system_id":"levelo_inurba_marseille","lat":43.322872,"lon":5.382756,"is_reserved":false,"is_disabled":false,"rental_uris":{"android":"levelo://app?vid=ea81c7a7-10cd-4f6b-b0a5-a3d91306bc0f","ios":"levelo://app?vid=ea81c7a7-10cd-4f6b-b0a5-a3d91306bc0f"},"vehicle_type_id":"4","last_reported":1701108569,"current_range_meters":29600,"station_id":"ce4bhr12rcd13ifvqhqg","pricing_plan_id":"free"},{"bike_id":"371df41f-a79d-48b4-8414-6abf20f829fe","system_id":"levelo_inurba_marseille","lat":43.297163,"lon":5.365866,"is_reserved":false,"is_disabled":false,"rental_uris":{"android":"levelo://app?vid=371df41f-a79d-48b4-8414-6abf20f829fe","ios":"levelo://app?vid=371df41f-a79d-48b4-8414-6abf20f829fe"},"vehicle_type_id":"4","last_reported":1701108569,"current_range_meters":10800,"station_id":"ce4bgn12rcd13ifvqbt0","pricing_plan_id":"free"},{"bike_id":"9dfc1be4-40e0-479e-8a23-39504815e756","system_id":"levelo_inurba_marseille","lat":43.324104,"lon":5.383304,"is_reserved":false,"is_disabled":false,"rental_uris":{"android":"levelo://app?vid=9dfc1be4-40e0-479e-8a23-39504815e756","ios":"levelo://app?vid=9dfc1be4-40e0-479e-8a23-39504815e756"},"vehicle_type_id":"4","last_reported":1701108569,"current_range_meters":31200,"station_id":"","pricing_plan_id":"free"},{"bike_id":"4c95beac-a5ce-4bfa-b22f-3c47a7c86e4e","system_id":"levelo_inurba_marseille","lat":43.295888,"lon":5.36778,"is_reserved":false,"is_disabled":false,"rental_uris":{"android":"levelo://app?vid=4c95beac-a5ce-4bfa-b22f-3c47a7c86e4e","ios":"levelo://app?vid=4c95beac-a5ce-4bfa-b22f-3c47a7c86e4e"},"vehicle_type_id":"4","last_reported":1701108569,"current_range_meters":22800,"station_id":"ce4bgph2rcd13ifvqc2g","pricing_plan_id":"free"},{"bike_id":"20f11b35-7d46-459f-b04a-a38f0ec73368","system_id":"levelo_inurba_marseille","lat":43.304278,"lon":5.388868,"is_reserved":false,"is_disabled":false,"rental_uris":{"android":"levelo://app?vid=20f11b35-7d46-459f-b04a-a38f0ec73368","ios":"levelo://app?vid=20f11b35-7d46-459f-b04a-a38f0ec73368"},"vehicle_type_id":"4","last_reported":1701108569,"current_range_meters":4000,"station_id":"ce4bgk12rcd13ifvqbi0","pricing_plan_id":"free"},{"bike_id":"7936ce62-2a40-43c5-9741-ffd5c494b8bd","system_id":"levelo_inurba_marseille","lat":43.295748,"lon":5.37522,"is_reserved":false,"is_disabled":false,"rental_uris":{"android":"levelo://app?vid=7936ce62-2a40-43c5-9741-ffd5c494b8bd","ios":"levelo://app?vid=7936ce62-2a40-43c5-9741-ffd5c494b8bd"},"vehicle_type_id":"4","last_reported":1701108569,"current_range_meters":8000,"station_id":"ce4bgh92rcd13ifvqb50","pricing_plan_id":"free"},{"bike_id":"a7b5bbd3-e3fb-4be9-9522-741a4e57c891","system_id":"levelo_inurba_marseille","lat":43.296263,"lon":5.377094,"is_reserved":false,"is_disabled":false,"rental_uris":{"android":"levelo://app?vid=a7b5bbd3-e3fb-4be9-9522-741a4e57c891","ios":"levelo://app?vid=a7b5bbd3-e3fb-4be9-9522-741a4e57c891"},"vehicle_type_id":"4","last_reported":1701108569,"current_range_meters":11200,"station_id":"ce4bgi92rcd13ifvqb90","pricing_plan_id":"free"},{"bike_id":"e852097f-a61b-4fce-9144-6a257523b944","system_id":"levelo_inurba_marseille","lat":43.296263,"lon":5.377094,"is_reserved":false,"is_disabled":false,"rental_uris":{"android":"levelo://app?vid=e852097f-a61b-4fce-9144-6a257523b944","ios":"levelo://app?vid=e852097f-a61b-4fce-9144-6a257523b944"},"vehicle_type_id":"4","last_reported":1701108569,"current_range_meters":20400,"station_id":"ce4bgi92rcd13ifvqb90","pricing_plan_id":"free"},{"bike_id":"595f6ec2-7e6c-4a9a-a8ef-c1bd165a44e5","system_id":"levelo_inurba_marseille","lat":43.29273,"lon":5.36845,"is_reserved":false,"is_disabled":false,"rental_uris":{"android":"levelo://app?vid=595f6ec2-7e6c-4a9a-a8ef-c1bd165a44e5","ios":"levelo://app?vid=595f6ec2-7e6c-4a9a-a8ef-c1bd165a44e5"},"vehicle_type_id":"4","last_reported":1701108569,"current_range_meters":29200,"station_id":"ce4bhbp2rcd13ifvqesg","pricing_plan_id":"free"},{"bike_id":"52f484ac-3aac-4575-8625-2e78ab026f3a","system_id":"levelo_inurba_marseille","lat":43.303002,"lon":5.392142,"is_reserved":false,"is_disabled":false,"rental_uris":{"android":"levelo://app?vid=52f484ac-3aac-4575-8625-2e78ab026f3a","ios":"levelo://app?vid=52f484ac-3aac-4575-8625-2e78ab026f3a"},"vehicle_type_id":"4","last_reported":1701108569,"current_range_meters":16400,"station_id":"ce4bgkh2rcd13ifvqbk0","pricing_plan_id":"free"},{"bike_id":"d92b55c8-b7b9-4d76-806d-c6e3a4e28ceb","system_id":"levelo_inurba_marseille","lat":43.302992,"lon":5.392136,"is_reserved":false,"is_disabled":false,"rental_uris":{"android":"levelo://app?vid=d92b55c8-b7b9-4d76-806d-c6e3a4e28ceb","ios":"levelo://app?vid=d92b55c8-b7b9-4d76-806d-c6e3a4e28ceb"},"vehicle_type_id":"4","last_reported":1701108569,"current_range_meters":30400,"station_id":"ce4bgkh2rcd13ifvqbk0","pricing_plan_id":"free"},{"bike_id":"5cad7bf0-140a-4ed8-a50e-724ca993c9f7","system_id":"levelo_inurba_marseille","lat":43.292311,"lon":5.360731,"is_reserved":false,"is_disabled":false,"rental_uris":{"android":"levelo://app?vid=5cad7bf0-140a-4ed8-a50e-724ca993c9f7","ios":"levelo://app?vid=5cad7bf0-140a-4ed8-a50e-724ca993c9f7"},"vehicle_type_id":"4","last_reported":1701108569,"current_range_meters":24000,"station_id":"ce4bhbh2rcd13ifvqeqg","pricing_plan_id":"free"},{"bike_id":"0a450734-9e9c-476b-926a-554e1d794c3d","system_id":"levelo_inurba_marseille","lat":43.30085,"lon":5.390856,"is_reserved":false,"is_disabled":false,"rental_uris":{"android":"levelo://app?vid=0a450734-9e9c-476b-926a-554e1d794c3d","ios":"levelo://app?vid=0a450734-9e9c-476b-926a-554e1d794c3d"},"vehicle_type_id":"4","last_reported":1701108569,"current_range_meters":22000,"station_id":"ce4bh192rcd13ifvqdb0","pricing_plan_id":"free"},{"bike_id":"98fab98a-0cb5-490e-9a43-6916ec92ac04","system_id":"levelo_inurba_marseille","lat":43.29209,"lon":5.36057,"is_reserved":false,"is_disabled":false,"rental_uris":{"android":"levelo://app?vid=98fab98a-0cb5-490e-9a43-6916ec92ac04","ios":"levelo://app?vid=98fab98a-0cb5-490e-9a43-6916ec92ac04"},"vehicle_type_id":"4","last_reported":1701108569,"current_range_meters":25200,"station_id":"ce4bhbh2rcd13ifvqeqg","pricing_plan_id":"free"},{"bike_id":"4bedd189-fbb4-408d-9416-170c63aebc2b","system_id":"levelo_inurba_marseille","lat":43.292663,"lon":5.376394,"is_reserved":false,"is_disabled":false,"rental_uris":{"android":"levelo://app?vid=4bedd189-fbb4-408d-9416-170c63aebc2b","ios":"levelo://app?vid=4bedd189-fbb4-408d-9416-170c63aebc2b"},"vehicle_type_id":"4","last_reported":1701108569,"current_range_meters":17200,"station_id":"ce4bgi12rcd13ifvqb80","pricing_plan_id":"free"},{"bike_id":"bda056b3-917b-460f-9d43-b61ea9eec687","system_id":"levelo_inurba_marseille","lat":43.29172,"lon":5.37142,"is_reserved":false,"is_disabled":false,"rental_uris":{"android":"levelo://app?vid=bda056b3-917b-460f-9d43-b61ea9eec687","ios":"levelo://app?vid=bda056b3-917b-460f-9d43-b61ea9eec687"},"vehicle_type_id":"4","last_reported":1701108569,"current_range_meters":20400,"station_id":"ce4bha92rcd13ifvqeh0","pricing_plan_id":"free"},{"bike_id":"f2e7533f-807d-4008-803e-979b23a6f127","system_id":"levelo_inurba_marseille","lat":43.2988,"lon":5.38913,"is_reserved":false,"is_disabled":false,"rental_uris":{"android":"levelo://app?vid=f2e7533f-807d-4008-803e-979b23a6f127","ios":"levelo://app?vid=f2e7533f-807d-4008-803e-979b23a6f127"},"vehicle_type_id":"4","last_reported":1701108569,"current_range_meters":31200,"station_id":"ce4bh392rcd13ifvqdl0","pricing_plan_id":"free"},{"bike_id":"89980c2f-4693-45ea-9702-44d467fccff0","system_id":"levelo_inurba_marseille","lat":43.291671,"lon":5.371575,"is_reserved":false,"is_disabled":false,"rental_uris":{"android":"levelo://app?vid=89980c2f-4693-45ea-9702-44d467fccff0","ios":"levelo://app?vid=89980c2f-4693-45ea-9702-44d467fccff0"},"vehicle_type_id":"4","last_reported":1701108569,"current_range_meters":16000,"station_id":"ce4bha92rcd13ifvqeh0","pricing_plan_id":"free"},{"bike_id":"20004e16-1ca4-432a-a09f-ad1c3246a7b7","system_id":"levelo_inurba_marseille","lat":43.31327,"lon":5.39686,"is_reserved":false,"is_disabled":false,"rental_uris":{"android":"levelo://app?vid=20004e16-1ca4-432a-a09f-ad1c3246a7b7","ios":"levelo://app?vid=20004e16-1ca4-432a-a09f-ad1c3246a7b7"},"vehicle_type_id":"4","last_reported":1701108569,"current_range_meters":16800,"station_id":"ce4bgvp2rcd13ifvqcu0","pricing_plan_id":"free"},{"bike_id":"f3934805-c0e0-415f-b35a-cb5bdad1d6d3","system_id":"levelo_inurba_marseille","lat":43.313291,"lon":5.396838,"is_reserved":false,"is_disabled":false,"rental_uris":{"android":"levelo://app?vid=f3934805-c0e0-415f-b35a-cb5bdad1d6d3","ios":"levelo://app?vid=f3934805-c0e0-415f-b35a-cb5bdad1d6d3"},"vehicle_type_id":"4","last_reported":1701108569,"current_range_meters":26000,"station_id":"ce4bgvp2rcd13ifvqcu0","pricing_plan_id":"free"},{"bike_id":"56ad2269-85c7-4d30-be00-ea7f396034d5","system_id":"levelo_inurba_marseille","lat":43.31326,"lon":5.3969,"is_reserved":false,"is_disabled":false,"rental_uris":{"android":"levelo://app?vid=56ad2269-85c7-4d30-be00-ea7f396034d5","ios":"levelo://app?vid=56ad2269-85c7-4d30-be00-ea7f396034d5"},"vehicle_type_id":"4","last_reported":1701108569,"current_range_meters":21200,"station_id":"ce4bgvp2rcd13ifvqcu0","pricing_plan_id":"free"},{"bike_id":"b48b002f-1e3c-4e4d-a819-b8e715f48508","system_id":"levelo_inurba_marseille","lat":43.291994,"lon":5.357886,"is_reserved":false,"is_disabled":false,"rental_uris":{"android":"levelo://app?vid=b48b002f-1e3c-4e4d-a819-b8e715f48508","ios":"levelo://app?vid=b48b002f-1e3c-4e4d-a819-b8e715f48508"},"vehicle_type_id":"4","last_reported":1701108569,"current_range_meters":11200,"station_id":"ce4bhb12rcd13ifvqel0","pricing_plan_id":"free"},{"bike_id":"2a6850eb-2089-4877-9908-de660ffef1b6","system_id":"levelo_inurba_marseille","lat":43.309047,"lon":5.396551,"is_reserved":false,"is_disabled":false,"rental_uris":{"android":"levelo://app?vid=2a6850eb-2089-4877-9908-de660ffef1b6","ios":"levelo://app?vid=2a6850eb-2089-4877-9908-de660ffef1b6"},"vehicle_type_id":"4","last_reported":1701108569,"current_range_meters":1200,"station_id":"ce4bh012rcd13ifvqcv0","pricing_plan_id":"free"},{"bike_id":"8a8b21be-317e-404a-9ae0-26afc7ed1e7c","system_id":"levelo_inurba_marseille","lat":43.29529,"lon":5.385581,"is_reserved":false,"is_disabled":false,"rental_uris":{"android":"levelo://app?vid=8a8b21be-317e-404a-9ae0-26afc7ed1e7c","ios":"levelo://app?vid=8a8b21be-317e-404a-9ae0-26afc7ed1e7c"},"vehicle_type_id":"4","last_reported":1701108569,"current_range_meters":0,"station_id":"ce4bgih2rcd13ifvqba0","pricing_plan_id":"free"},{"bike_id":"357971e6-da39-4d13-8931-335254bafefe","system_id":"levelo_inurba_marseille","lat":43.302008,"lon":5.394694,"is_reserved":false,"is_disabled":false,"rental_uris":{"android":"levelo://app?vid=357971e6-da39-4d13-8931-335254bafefe","ios":"levelo://app?vid=357971e6-da39-4d13-8931-335254bafefe"},"vehicle_type_id":"4","last_reported":1701108569,"current_range_meters":23200,"station_id":"ce4bh0p2rcd13ifvqd70","pricing_plan_id":"free"},{"bike_id":"11a768d4-a6a6-4c06-8cdf-fd2ed9132ad1","system_id":"levelo_inurba_marseille","lat":43.29032,"lon":5.35918,"is_reserved":false,"is_disabled":false,"rental_uris":{"android":"levelo://app?vid=11a768d4-a6a6-4c06-8cdf-fd2ed9132ad1","ios":"levelo://app?vid=11a768d4-a6a6-4c06-8cdf-fd2ed9132ad1"},"vehicle_type_id":"4","last_reported":1701108569,"current_range_meters":18800,"station_id":"ce4bha92rcd13ifvqeg0","pricing_plan_id":"free"},{"bike_id":"17e8b8d4-18cd-4d69-8699-1dfa0e457dd6","system_id":"levelo_inurba_marseille","lat":43.290327,"lon":5.375711,"is_reserved":false,"is_disabled":false,"rental_uris":{"android":"levelo://app?vid=17e8b8d4-18cd-4d69-8699-1dfa0e457dd6","ios":"levelo://app?vid=17e8b8d4-18cd-4d69-8699-1dfa0e457dd6"},"vehicle_type_id":"4","last_reported":1701108569,"current_range_meters":20400,"station_id":"ce4bh692rcd13ifvqe90","pricing_plan_id":"free"},{"bike_id":"8416c6c4-80d5-4805-85c4-80d611dafe18","system_id":"levelo_inurba_marseille","lat":43.294153,"lon":5.386305,"is_reserved":false,"is_disabled":false,"rental_uris":{"android":"levelo://app?vid=8416c6c4-80d5-4805-85c4-80d611dafe18","ios":"levelo://app?vid=8416c6c4-80d5-4805-85c4-80d611dafe18"},"vehicle_type_id":"4","last_reported":1701108569,"current_range_meters":3600,"station_id":"ce4bh2h2rcd13ifvqdh0","pricing_plan_id":"free"},{"bike_id":"dca78d66-97f1-40fe-8f3c-4ddfb7ab81b2","system_id":"levelo_inurba_marseille","lat":43.290327,"lon":5.375711,"is_reserved":false,"is_disabled":false,"rental_uris":{"android":"levelo://app?vid=dca78d66-97f1-40fe-8f3c-4ddfb7ab81b2","ios":"levelo://app?vid=dca78d66-97f1-40fe-8f3c-4ddfb7ab81b2"},"vehicle_type_id":"4","last_reported":1701108569,"current_range_meters":18000,"station_id":"ce4bh692rcd13ifvqe90","pricing_plan_id":"free"},{"bike_id":"2f03a08d-7204-4c4b-bcc0-ce9a6aff8726","system_id":"levelo_inurba_marseille","lat":43.289184,"lon":5.366408,"is_reserved":false,"is_disabled":false,"rental_uris":{"android":"levelo://app?vid=2f03a08d-7204-4c4b-bcc0-ce9a6aff8726","ios":"levelo://app?vid=2f03a08d-7204-4c4b-bcc0-ce9a6aff8726"},"vehicle_type_id":"4","last_reported":1701108569,"current_range_meters":23600,"station_id":"ce4bhap2rcd13ifvqek0","pricing_plan_id":"free"},{"bike_id":"32908b4e-885b-4afb-b099-268ea5c641de","system_id":"levelo_inurba_marseille","lat":43.294162,"lon":5.386292,"is_reserved":false,"is_disabled":false,"rental_uris":{"android":"levelo://app?vid=32908b4e-885b-4afb-b099-268ea5c641de","ios":"levelo://app?vid=32908b4e-885b-4afb-b099-268ea5c641de"},"vehicle_type_id":"4","last_reported":1701108569,"current_range_meters":1200,"station_id":"ce4bh2h2rcd13ifvqdh0","pricing_plan_id":"free"},{"bike_id":"03fb1237-85ac-47ed-a536-e95fa7402d13","system_id":"levelo_inurba_marseille","lat":43.289184,"lon":5.366408,"is_reserved":false,"is_disabled":false,"rental_uris":{"android":"levelo://app?vid=03fb1237-85ac-47ed-a536-e95fa7402d13","ios":"levelo://app?vid=03fb1237-85ac-47ed-a536-e95fa7402d13"},"vehicle_type_id":"4","last_reported":1701108569,"current_range_meters":17600,"station_id":"ce4bhap2rcd13ifvqek0","pricing_plan_id":"free"},{"bike_id":"65537db9-1ff1-4cdd-828f-28f36d467f8d","system_id":"levelo_inurba_marseille","lat":43.28941,"lon":5.36408,"is_reserved":false,"is_disabled":false,"rental_uris":{"android":"levelo://app?vid=65537db9-1ff1-4cdd-828f-28f36d467f8d","ios":"levelo://app?vid=65537db9-1ff1-4cdd-828f-28f36d467f8d"},"vehicle_type_id":"4","last_reported":1701108569,"current_range_meters":0,"station_id":"ce4bhc92rcd13ifvqetg","pricing_plan_id":"free"},{"bike_id":"c692a9f9-3ced-4ded-9280-da1450f4adde","system_id":"levelo_inurba_marseille","lat":43.289468,"lon":5.363719,"is_reserved":false,"is_disabled":false,"rental_uris":{"android":"levelo://app?vid=c692a9f9-3ced-4ded-9280-da1450f4adde","ios":"levelo://app?vid=c692a9f9-3ced-4ded-9280-da1450f4adde"},"vehicle_type_id":"4","last_reported":1701108569,"current_range_meters":19600,"station_id":"ce4bhc92rcd13ifvqetg","pricing_plan_id":"free"},{"bike_id":"54014d91-8d14-4a72-b476-641e5deac1be","system_id":"levelo_inurba_marseille","lat":43.292644,"lon":5.384257,"is_reserved":false,"is_disabled":false,"rental_uris":{"android":"levelo://app?vid=54014d91-8d14-4a72-b476-641e5deac1be","ios":"levelo://app?vid=54014d91-8d14-4a72-b476-641e5deac1be"},"vehicle_type_id":"4","last_reported":1701108569,"current_range_meters":9200,"station_id":"ce4bh692rcd13ifvqea0","pricing_plan_id":"free"},{"bike_id":"c5ab491b-058b-4dff-8555-d52c47fa9cb9","system_id":"levelo_inurba_marseille","lat":43.292642,"lon":5.384254,"is_reserved":false,"is_disabled":false,"rental_uris":{"android":"levelo://app?vid=c5ab491b-058b-4dff-8555-d52c47fa9cb9","ios":"levelo://app?vid=c5ab491b-058b-4dff-8555-d52c47fa9cb9"},"vehicle_type_id":"4","last_reported":1701108569,"current_range_meters":16000,"station_id":"ce4bh692rcd13ifvqea0","pricing_plan_id":"free"},{"bike_id":"0e8b74c5-db88-4ede-90fd-1c86c15e2e8f","system_id":"levelo_inurba_marseille","lat":43.33039,"lon":5.38919,"is_reserved":false,"is_disabled":false,"rental_uris":{"android":"levelo://app?vid=0e8b74c5-db88-4ede-90fd-1c86c15e2e8f","ios":"levelo://app?vid=0e8b74c5-db88-4ede-90fd-1c86c15e2e8f"},"vehicle_type_id":"4","last_reported":1701108569,"current_range_meters":14000,"station_id":"ce4bhr92rcd13ifvqhrg","pricing_plan_id":"free"},{"bike_id":"84e610df-6148-4568-90f8-90022ce32403","system_id":"levelo_inurba_marseille","lat":43.290104,"lon":5.356111,"is_reserved":false,"is_disabled":false,"rental_uris":{"android":"levelo://app?vid=84e610df-6148-4568-90f8-90022ce32403","ios":"levelo://app?vid=84e610df-6148-4568-90f8-90022ce32403"},"vehicle_type_id":"4","last_reported":1701108569,"current_range_meters":17200,"station_id":"ce4bhb92rcd13ifvqen0","pricing_plan_id":"free"},{"bike_id":"f5004e47-9c4b-4712-b33c-43f5fbd8542d","system_id":"levelo_inurba_marseille","lat":43.290995,"lon":5.381361,"is_reserved":false,"is_disabled":false,"rental_uris":{"android":"levelo://app?vid=f5004e47-9c4b-4712-b33c-43f5fbd8542d","ios":"levelo://app?vid=f5004e47-9c4b-4712-b33c-43f5fbd8542d"},"vehicle_type_id":"4","last_reported":1701108569,"current_range_meters":26000,"station_id":"ce4bh512rcd13ifvqe2g","pricing_plan_id":"free"},{"bike_id":"5420457c-df53-4dfa-99d3-c9cfe53e81ab","system_id":"levelo_inurba_marseille","lat":43.295169,"lon":5.390426,"is_reserved":false,"is_disabled":false,"rental_uris":{"android":"levelo://app?vid=5420457c-df53-4dfa-99d3-c9cfe53e81ab","ios":"levelo://app?vid=5420457c-df53-4dfa-99d3-c9cfe53e81ab"},"vehicle_type_id":"4","last_reported":1701108569,"current_range_meters":20400,"station_id":"ce4bh3p2rcd13ifvqdp0","pricing_plan_id":"free"},{"bike_id":"ac7422dd-0446-4f47-9dd4-184763ecc50c","system_id":"levelo_inurba_marseille","lat":43.295169,"lon":5.390426,"is_reserved":false,"is_disabled":false,"rental_uris":{"android":"levelo://app?vid=ac7422dd-0446-4f47-9dd4-184763ecc50c","ios":"levelo://app?vid=ac7422dd-0446-4f47-9dd4-184763ecc50c"},"vehicle_type_id":"4","last_reported":1701108569,"current_range_meters":31200,"station_id":"ce4bh3p2rcd13ifvqdp0","pricing_plan_id":"free"},{"bike_id":"063a576a-44dd-4d13-81c5-09e2b63d7b0f","system_id":"levelo_inurba_marseille","lat":43.2901,"lon":5.381269,"is_reserved":false,"is_disabled":false,"rental_uris":{"android":"levelo://app?vid=063a576a-44dd-4d13-81c5-09e2b63d7b0f","ios":"levelo://app?vid=063a576a-44dd-4d13-81c5-09e2b63d7b0f"},"vehicle_type_id":"4","last_reported":1701108569,"current_range_meters":9600,"station_id":"ce4bh4p2rcd13ifvqe1g","pricing_plan_id":"free"},{"bike_id":"d9df0937-be13-4d6c-964d-69e0bab2521c","system_id":"levelo_inurba_marseille","lat":43.28856,"lon":5.358371,"is_reserved":false,"is_disabled":false,"rental_uris":{"android":"levelo://app?vid=d9df0937-be13-4d6c-964d-69e0bab2521c","ios":"levelo://app?vid=d9df0937-be13-4d6c-964d-69e0bab2521c"},"vehicle_type_id":"4","last_reported":1701108569,"current_range_meters":26800,"station_id":"ce4bhb12rcd13ifvqem0","pricing_plan_id":"free"},{"bike_id":"3ebc615c-f9c9-48c3-b19f-ac3f67fcf827","system_id":"levelo_inurba_marseille","lat":43.28856,"lon":5.358371,"is_reserved":false,"is_disabled":false,"rental_uris":{"android":"levelo://app?vid=3ebc615c-f9c9-48c3-b19f-ac3f67fcf827","ios":"levelo://app?vid=3ebc615c-f9c9-48c3-b19f-ac3f67fcf827"},"vehicle_type_id":"4","last_reported":1701108569,"current_range_meters":29600,"station_id":"ce4bhb12rcd13ifvqem0","pricing_plan_id":"free"},{"bike_id":"3189f36d-eef8-493a-9360-ba220aab2c25","system_id":"levelo_inurba_marseille","lat":43.312609,"lon":5.401662,"is_reserved":false,"is_disabled":false,"rental_uris":{"android":"levelo://app?vid=3189f36d-eef8-493a-9360-ba220aab2c25","ios":"levelo://app?vid=3189f36d-eef8-493a-9360-ba220aab2c25"},"vehicle_type_id":"4","last_reported":1701108569,"current_range_meters":24000,"station_id":"ce4bh092rcd13ifvqd30","pricing_plan_id":"free"},{"bike_id":"1affd046-af12-41fb-ade5-939f7e0100fb","system_id":"levelo_inurba_marseille","lat":43.312609,"lon":5.401662,"is_reserved":false,"is_disabled":false,"rental_uris":{"android":"levelo://app?vid=1affd046-af12-41fb-ade5-939f7e0100fb","ios":"levelo://app?vid=1affd046-af12-41fb-ade5-939f7e0100fb"},"vehicle_type_id":"4","last_reported":1701108569,"current_range_meters":8000,"station_id":"ce4bh092rcd13ifvqd30","pricing_plan_id":"free"},{"bike_id":"c37771e0-f2a7-4bc8-bdba-bd1a64dfaaed","system_id":"levelo_inurba_marseille","lat":43.309371,"lon":5.401449,"is_reserved":false,"is_disabled":false,"rental_uris":{"android":"levelo://app?vid=c37771e0-f2a7-4bc8-bdba-bd1a64dfaaed","ios":"levelo://app?vid=c37771e0-f2a7-4bc8-bdba-bd1a64dfaaed"},"vehicle_type_id":"4","last_reported":1701108569,"current_range_meters":16000,"station_id":"ce4bgvp2rcd13ifvqct0","pricing_plan_id":"free"},{"bike_id":"349b1c7b-0e3e-49e7-b144-744ff1b4e9f7","system_id":"levelo_inurba_marseille","lat":43.30921,"lon":5.40145,"is_reserved":false,"is_disabled":false,"rental_uris":{"android":"levelo://app?vid=349b1c7b-0e3e-49e7-b144-744ff1b4e9f7","ios":"levelo://app?vid=349b1c7b-0e3e-49e7-b144-744ff1b4e9f7"},"vehicle_type_id":"4","last_reported":1701108569,"current_range_meters":19600,"station_id":"ce4bgvp2rcd13ifvqct0","pricing_plan_id":"free"},{"bike_id":"68729ae4-aceb-4538-b1a6-5bec2301d76a","system_id":"levelo_inurba_marseille","lat":43.30137,"lon":5.39844,"is_reserved":false,"is_disabled":false,"rental_uris":{"android":"levelo://app?vid=68729ae4-aceb-4538-b1a6-5bec2301d76a","ios":"levelo://app?vid=68729ae4-aceb-4538-b1a6-5bec2301d76a"},"vehicle_type_id":"4","last_reported":1701108569,"current_range_meters":18000,"station_id":"ce4bh0h2rcd13ifvqd40","pricing_plan_id":"free"},{"bike_id":"41c1d74a-3295-4843-9009-7741350478f7","system_id":"levelo_inurba_marseille","lat":43.301117,"lon":5.398795,"is_reserved":false,"is_disabled":false,"rental_uris":{"android":"levelo://app?vid=41c1d74a-3295-4843-9009-7741350478f7","ios":"levelo://app?vid=41c1d74a-3295-4843-9009-7741350478f7"},"vehicle_type_id":"4","last_reported":1701108569,"current_range_meters":24800,"station_id":"ce4bh0h2rcd13ifvqd40","pricing_plan_id":"free"},{"bike_id":"de212aa1-8a68-43d3-9427-f7b4fd309029","system_id":"levelo_inurba_marseille","lat":43.301117,"lon":5.398795,"is_reserved":false,"is_disabled":false,"rental_uris":{"android":"levelo://app?vid=de212aa1-8a68-43d3-9427-f7b4fd309029","ios":"levelo://app?vid=de212aa1-8a68-43d3-9427-f7b4fd309029"},"vehicle_type_id":"4","last_reported":1701108569,"current_range_meters":4400,"station_id":"ce4bh0h2rcd13ifvqd40","pricing_plan_id":"free"},{"bike_id":"cf3b36af-2c00-4833-a3dd-afc17ed25d2f","system_id":"levelo_inurba_marseille","lat":43.30626,"lon":5.40172,"is_reserved":false,"is_disabled":false,"rental_uris":{"android":"levelo://app?vid=cf3b36af-2c00-4833-a3dd-afc17ed25d2f","ios":"levelo://app?vid=cf3b36af-2c00-4833-a3dd-afc17ed25d2f"},"vehicle_type_id":"4","last_reported":1701108569,"current_range_meters":25200,"station_id":"","pricing_plan_id":"free"},{"bike_id":"50593010-36a6-4629-a990-14a7f1f00855","system_id":"levelo_inurba_marseille","lat":43.298681,"lon":5.397225,"is_reserved":false,"is_disabled":false,"rental_uris":{"android":"levelo://app?vid=50593010-36a6-4629-a990-14a7f1f00855","ios":"levelo://app?vid=50593010-36a6-4629-a990-14a7f1f00855"},"vehicle_type_id":"4","last_reported":1701108569,"current_range_meters":20400,"station_id":"ce4bh0h2rcd13ifvqd50","pricing_plan_id":"free"},{"bike_id":"09ffa2f6-fcec-47c3-8367-28c3660a197c","system_id":"levelo_inurba_marseille","lat":43.286593,"lon":5.363346,"is_reserved":false,"is_disabled":false,"rental_uris":{"android":"levelo://app?vid=09ffa2f6-fcec-47c3-8367-28c3660a197c","ios":"levelo://app?vid=09ffa2f6-fcec-47c3-8367-28c3660a197c"},"vehicle_type_id":"4","last_reported":1701108569,"current_range_meters":21200,"station_id":"ce4bhah2rcd13ifvqej0","pricing_plan_id":"free"},{"bike_id":"2a27f955-612d-4a87-8913-c0b4960386d0","system_id":"levelo_inurba_marseille","lat":43.286593,"lon":5.363346,"is_reserved":false,"is_disabled":false,"rental_uris":{"android":"levelo://app?vid=2a27f955-612d-4a87-8913-c0b4960386d0","ios":"levelo://app?vid=2a27f955-612d-4a87-8913-c0b4960386d0"},"vehicle_type_id":"4","last_reported":1701108569,"current_range_meters":2800,"station_id":"ce4bhah2rcd13ifvqej0","pricing_plan_id":"free"},{"bike_id":"3c752a6e-e13e-479f-bcf6-f73b36d861bb","system_id":"levelo_inurba_marseille","lat":43.286961,"lon":5.373785,"is_reserved":false,"is_disabled":false,"rental_uris":{"android":"levelo://app?vid=3c752a6e-e13e-479f-bcf6-f73b36d861bb","ios":"levelo://app?vid=3c752a6e-e13e-479f-bcf6-f73b36d861bb"},"vehicle_type_id":"4","last_reported":1701108569,"current_range_meters":18800,"station_id":"ce4bh3p2rcd13ifvqdq0","pricing_plan_id":"free"},{"bike_id":"7ce9b15f-6c16-45dc-aa95-26ea1be6a293","system_id":"levelo_inurba_marseille","lat":43.2866,"lon":5.3636,"is_reserved":false,"is_disabled":false,"rental_uris":{"android":"levelo://app?vid=7ce9b15f-6c16-45dc-aa95-26ea1be6a293","ios":"levelo://app?vid=7ce9b15f-6c16-45dc-aa95-26ea1be6a293"},"vehicle_type_id":"4","last_reported":1701108569,"current_range_meters":9600,"station_id":"ce4bhah2rcd13ifvqej0","pricing_plan_id":"free"},{"bike_id":"b86167c9-7a0c-443f-8b9c-0b048ed5ec36","system_id":"levelo_inurba_marseille","lat":43.286593,"lon":5.363346,"is_reserved":false,"is_disabled":false,"rental_uris":{"android":"levelo://app?vid=b86167c9-7a0c-443f-8b9c-0b048ed5ec36","ios":"levelo://app?vid=b86167c9-7a0c-443f-8b9c-0b048ed5ec36"},"vehicle_type_id":"4","last_reported":1701108569,"current_range_meters":12800,"station_id":"ce4bhah2rcd13ifvqej0","pricing_plan_id":"free"},{"bike_id":"4d058f73-9b9c-4190-b2f9-f042d44bed83","system_id":"levelo_inurba_marseille","lat":43.298681,"lon":5.397225,"is_reserved":false,"is_disabled":false,"rental_uris":{"android":"levelo://app?vid=4d058f73-9b9c-4190-b2f9-f042d44bed83","ios":"levelo://app?vid=4d058f73-9b9c-4190-b2f9-f042d44bed83"},"vehicle_type_id":"4","last_reported":1701108569,"current_range_meters":21200,"station_id":"ce4bh0h2rcd13ifvqd50","pricing_plan_id":"free"},{"bike_id":"a9cd2a57-d713-4b2e-b9dc-64039e67db4e","system_id":"levelo_inurba_marseille","lat":43.295194,"lon":5.39397,"is_reserved":false,"is_disabled":false,"rental_uris":{"android":"levelo://app?vid=a9cd2a57-d713-4b2e-b9dc-64039e67db4e","ios":"levelo://app?vid=a9cd2a57-d713-4b2e-b9dc-64039e67db4e"},"vehicle_type_id":"4","last_reported":1701108569,"current_range_meters":18000,"station_id":"ce4bh292rcd13ifvqdf0","pricing_plan_id":"free"},{"bike_id":"1c26fc50-dd1f-418c-8ce3-326ebb971a48","system_id":"levelo_inurba_marseille","lat":43.295194,"lon":5.39397,"is_reserved":false,"is_disabled":false,"rental_uris":{"android":"levelo://app?vid=1c26fc50-dd1f-418c-8ce3-326ebb971a48","ios":"levelo://app?vid=1c26fc50-dd1f-418c-8ce3-326ebb971a48"},"vehicle_type_id":"4","last_reported":1701108569,"current_range_meters":4800,"station_id":"ce4bh292rcd13ifvqdf0","pricing_plan_id":"free"},{"bike_id":"1b6dd3d4-04aa-4de9-94eb-fb812a388b09","system_id":"levelo_inurba_marseille","lat":43.29028,"lon":5.38659,"is_reserved":false,"is_disabled":false,"rental_uris":{"android":"levelo://app?vid=1b6dd3d4-04aa-4de9-94eb-fb812a388b09","ios":"levelo://app?vid=1b6dd3d4-04aa-4de9-94eb-fb812a388b09"},"vehicle_type_id":"4","last_reported":1701108569,"current_range_meters":4000,"station_id":"","pricing_plan_id":"free"},{"bike_id":"15e6465f-0b6e-4233-aa8b-e230108a9a5e","system_id":"levelo_inurba_marseille","lat":43.302759,"lon":5.400793,"is_reserved":false,"is_disabled":false,"rental_uris":{"android":"levelo://app?vid=15e6465f-0b6e-4233-aa8b-e230108a9a5e","ios":"levelo://app?vid=15e6465f-0b6e-4233-aa8b-e230108a9a5e"},"vehicle_type_id":"4","last_reported":1701108569,"current_range_meters":18000,"station_id":"ce4bgvh2rcd13ifvqcs0","pricing_plan_id":"free"},{"bike_id":"ecd91e79-28a6-47f4-86b4-1c36f19e5bf8","system_id":"levelo_inurba_marseille","lat":43.302759,"lon":5.400793,"is_reserved":false,"is_disabled":false,"rental_uris":{"android":"levelo://app?vid=ecd91e79-28a6-47f4-86b4-1c36f19e5bf8","ios":"levelo://app?vid=ecd91e79-28a6-47f4-86b4-1c36f19e5bf8"},"vehicle_type_id":"4","last_reported":1701108569,"current_range_meters":20000,"station_id":"ce4bgvh2rcd13ifvqcs0","pricing_plan_id":"free"},{"bike_id":"93f4995e-6c0f-41df-bb89-3431ce842c8e","system_id":"levelo_inurba_marseille","lat":43.302759,"lon":5.400793,"is_reserved":false,"is_disabled":false,"rental_uris":{"android":"levelo://app?vid=93f4995e-6c0f-41df-bb89-3431ce842c8e","ios":"levelo://app?vid=93f4995e-6c0f-41df-bb89-3431ce842c8e"},"vehicle_type_id":"4","last_reported":1701108569,"current_range_meters":20000,"station_id":"ce4bgvh2rcd13ifvqcs0","pricing_plan_id":"free"},{"bike_id":"ea39f322-29cc-4f35-9c1e-b9823005d452","system_id":"levelo_inurba_marseille","lat":43.287184,"lon":5.37937,"is_reserved":false,"is_disabled":false,"rental_uris":{"android":"levelo://app?vid=ea39f322-29cc-4f35-9c1e-b9823005d452","ios":"levelo://app?vid=ea39f322-29cc-4f35-9c1e-b9823005d452"},"vehicle_type_id":"4","last_reported":1701108569,"current_range_meters":24000,"station_id":"ce4bh9p2rcd13ifvqec0","pricing_plan_id":"free"},{"bike_id":"d050aa9c-f4e8-4896-a7e3-efe6e511e041","system_id":"levelo_inurba_marseille","lat":43.287184,"lon":5.37937,"is_reserved":false,"is_disabled":false,"rental_uris":{"android":"levelo://app?vid=d050aa9c-f4e8-4896-a7e3-efe6e511e041","ios":"levelo://app?vid=d050aa9c-f4e8-4896-a7e3-efe6e511e041"},"vehicle_type_id":"4","last_reported":1701108569,"current_range_meters":22000,"station_id":"ce4bh9p2rcd13ifvqec0","pricing_plan_id":"free"},{"bike_id":"c975c58e-5a26-499c-8e1c-dc6d538d56fa","system_id":"levelo_inurba_marseille","lat":43.287185,"lon":5.379373,"is_reserved":false,"is_disabled":false,"rental_uris":{"android":"levelo://app?vid=c975c58e-5a26-499c-8e1c-dc6d538d56fa","ios":"levelo://app?vid=c975c58e-5a26-499c-8e1c-dc6d538d56fa"},"vehicle_type_id":"4","last_reported":1701108569,"current_range_meters":5600,"station_id":"ce4bh9p2rcd13ifvqec0","pricing_plan_id":"free"},{"bike_id":"e9a2ae38-b440-4f73-b018-6b2042388f60","system_id":"levelo_inurba_marseille","lat":43.287185,"lon":5.379373,"is_reserved":false,"is_disabled":false,"rental_uris":{"android":"levelo://app?vid=e9a2ae38-b440-4f73-b018-6b2042388f60","ios":"levelo://app?vid=e9a2ae38-b440-4f73-b018-6b2042388f60"},"vehicle_type_id":"4","last_reported":1701108569,"current_range_meters":24800,"station_id":"ce4bh9p2rcd13ifvqec0","pricing_plan_id":"free"},{"bike_id":"f3a6dd6c-4505-4f97-b3c3-58048fdcea8d","system_id":"levelo_inurba_marseille","lat":43.31645,"lon":5.40437,"is_reserved":false,"is_disabled":false,"rental_uris":{"android":"levelo://app?vid=f3a6dd6c-4505-4f97-b3c3-58048fdcea8d","ios":"levelo://app?vid=f3a6dd6c-4505-4f97-b3c3-58048fdcea8d"},"vehicle_type_id":"4","last_reported":1701108569,"current_range_meters":0,"station_id":"ce4bh012rcd13ifvqd00","pricing_plan_id":"free"},{"bike_id":"705253a5-7691-4cdb-867b-1d001d8eb530","system_id":"levelo_inurba_marseille","lat":43.291994,"lon":5.392907,"is_reserved":false,"is_disabled":false,"rental_uris":{"android":"levelo://app?vid=705253a5-7691-4cdb-867b-1d001d8eb530","ios":"levelo://app?vid=705253a5-7691-4cdb-867b-1d001d8eb530"},"vehicle_type_id":"4","last_reported":1701108569,"current_range_meters":21200,"station_id":"ce4bh192rcd13ifvqdd0","pricing_plan_id":"free"},{"bike_id":"10889358-5e19-486c-b30c-593c612bde27","system_id":"levelo_inurba_marseille","lat":43.29189,"lon":5.39317,"is_reserved":false,"is_disabled":false,"rental_uris":{"android":"levelo://app?vid=10889358-5e19-486c-b30c-593c612bde27","ios":"levelo://app?vid=10889358-5e19-486c-b30c-593c612bde27"},"vehicle_type_id":"4","last_reported":1701108569,"current_range_meters":31200,"station_id":"ce4bh192rcd13ifvqdd0","pricing_plan_id":"free"},{"bike_id":"63866e8d-f7a1-438a-aaa2-3ffef2a6d95c","system_id":"levelo_inurba_marseille","lat":43.29193,"lon":5.39325,"is_reserved":false,"is_disabled":false,"rental_uris":{"android":"levelo://app?vid=63866e8d-f7a1-438a-aaa2-3ffef2a6d95c","ios":"levelo://app?vid=63866e8d-f7a1-438a-aaa2-3ffef2a6d95c"},"vehicle_type_id":"4","last_reported":1701108569,"current_range_meters":31200,"station_id":"ce4bh192rcd13ifvqdd0","pricing_plan_id":"free"},{"bike_id":"133469e0-6899-4538-83db-9fc816004c1a","system_id":"levelo_inurba_marseille","lat":43.31604,"lon":5.40585,"is_reserved":false,"is_disabled":false,"rental_uris":{"android":"levelo://app?vid=133469e0-6899-4538-83db-9fc816004c1a","ios":"levelo://app?vid=133469e0-6899-4538-83db-9fc816004c1a"},"vehicle_type_id":"4","last_reported":1701108569,"current_range_meters":20800,"station_id":"","pricing_plan_id":"free"},{"bike_id":"fdfc44ee-48d9-4c8c-99e0-fa5e6a889c82","system_id":"levelo_inurba_marseille","lat":43.284538,"lon":5.358657,"is_reserved":false,"is_disabled":false,"rental_uris":{"android":"levelo://app?vid=fdfc44ee-48d9-4c8c-99e0-fa5e6a889c82","ios":"levelo://app?vid=fdfc44ee-48d9-4c8c-99e0-fa5e6a889c82"},"vehicle_type_id":"4","last_reported":1701108569,"current_range_meters":26400,"station_id":"ce4bhah2rcd13ifvqei0","pricing_plan_id":"free"},{"bike_id":"4af40f77-f710-4071-be3c-2d0d395effca","system_id":"levelo_inurba_marseille","lat":43.284534,"lon":5.358662,"is_reserved":false,"is_disabled":false,"rental_uris":{"android":"levelo://app?vid=4af40f77-f710-4071-be3c-2d0d395effca","ios":"levelo://app?vid=4af40f77-f710-4071-be3c-2d0d395effca"},"vehicle_type_id":"4","last_reported":1701108569,"current_range_meters":25600,"station_id":"ce4bhah2rcd13ifvqei0","pricing_plan_id":"free"},{"bike_id":"b24e4fcc-b02a-4c1f-b7f9-7210a389fca7","system_id":"levelo_inurba_marseille","lat":43.284563,"lon":5.358813,"is_reserved":false,"is_disabled":false,"rental_uris":{"android":"levelo://app?vid=b24e4fcc-b02a-4c1f-b7f9-7210a389fca7","ios":"levelo://app?vid=b24e4fcc-b02a-4c1f-b7f9-7210a389fca7"},"vehicle_type_id":"4","last_reported":1701108569,"current_range_meters":20400,"station_id":"ce4bhah2rcd13ifvqei0","pricing_plan_id":"free"},{"bike_id":"a8ba2928-d559-4c6f-ae67-6fa53dfae0b8","system_id":"levelo_inurba_marseille","lat":43.294314,"lon":5.397498,"is_reserved":false,"is_disabled":false,"rental_uris":{"android":"levelo://app?vid=a8ba2928-d559-4c6f-ae67-6fa53dfae0b8","ios":"levelo://app?vid=a8ba2928-d559-4c6f-ae67-6fa53dfae0b8"},"vehicle_type_id":"4","last_reported":1701108569,"current_range_meters":800,"station_id":"ce4bh3h2rcd13ifvqdo0","pricing_plan_id":"free"},{"bike_id":"9d0bb117-a268-4548-a1b0-306a1665aeb0","system_id":"levelo_inurba_marseille","lat":43.285848,"lon":5.350787,"is_reserved":false,"is_disabled":false,"rental_uris":{"android":"levelo://app?vid=9d0bb117-a268-4548-a1b0-306a1665aeb0","ios":"levelo://app?vid=9d0bb117-a268-4548-a1b0-306a1665aeb0"},"vehicle_type_id":"4","last_reported":1701108569,"current_range_meters":9600,"station_id":"ce4bhch2rcd13ifvqeug","pricing_plan_id":"free"},{"bike_id":"c2b59919-4a58-4ef8-9c49-1240b5fdbcf3","system_id":"levelo_inurba_marseille","lat":43.283998,"lon":5.375062,"is_reserved":false,"is_disabled":false,"rental_uris":{"android":"levelo://app?vid=c2b59919-4a58-4ef8-9c49-1240b5fdbcf3","ios":"levelo://app?vid=c2b59919-4a58-4ef8-9c49-1240b5fdbcf3"},"vehicle_type_id":"4","last_reported":1701108569,"current_range_meters":0,"station_id":"ce4bh412rcd13ifvqds0","pricing_plan_id":"free"},{"bike_id":"775ab042-b15c-492f-a566-979b8a723bec","system_id":"levelo_inurba_marseille","lat":43.283998,"lon":5.375062,"is_reserved":false,"is_disabled":false,"rental_uris":{"android":"levelo://app?vid=775ab042-b15c-492f-a566-979b8a723bec","ios":"levelo://app?vid=775ab042-b15c-492f-a566-979b8a723bec"},"vehicle_type_id":"4","last_reported":1701108569,"current_range_meters":6400,"station_id":"ce4bh412rcd13ifvqds0","pricing_plan_id":"free"},{"bike_id":"2ef6a675-4e3f-4bc8-b5af-6dd2de7be8d7","system_id":"levelo_inurba_marseille","lat":43.283998,"lon":5.375062,"is_reserved":false,"is_disabled":false,"rental_uris":{"android":"levelo://app?vid=2ef6a675-4e3f-4bc8-b5af-6dd2de7be8d7","ios":"levelo://app?vid=2ef6a675-4e3f-4bc8-b5af-6dd2de7be8d7"},"vehicle_type_id":"4","last_reported":1701108569,"current_range_meters":0,"station_id":"ce4bh412rcd13ifvqds0","pricing_plan_id":"free"},{"bike_id":"f9bdcbdb-3059-4cb1-bef8-50087075152d","system_id":"levelo_inurba_marseille","lat":43.295713,"lon":5.399639,"is_reserved":false,"is_disabled":false,"rental_uris":{"android":"levelo://app?vid=f9bdcbdb-3059-4cb1-bef8-50087075152d","ios":"levelo://app?vid=f9bdcbdb-3059-4cb1-bef8-50087075152d"},"vehicle_type_id":"4","last_reported":1701108569,"current_range_meters":31200,"station_id":"ce4bh312rcd13ifvqdj0","pricing_plan_id":"free"},{"bike_id":"8b34ab95-f030-4180-911e-13b303ea8383","system_id":"levelo_inurba_marseille","lat":43.29571,"lon":5.3999,"is_reserved":false,"is_disabled":false,"rental_uris":{"android":"levelo://app?vid=8b34ab95-f030-4180-911e-13b303ea8383","ios":"levelo://app?vid=8b34ab95-f030-4180-911e-13b303ea8383"},"vehicle_type_id":"4","last_reported":1701108569,"current_range_meters":2800,"station_id":"ce4bh312rcd13ifvqdj0","pricing_plan_id":"free"},{"bike_id":"548ba8ad-49ca-4ef6-864a-d49ba46587bf","system_id":"levelo_inurba_marseille","lat":43.28681,"lon":5.38655,"is_reserved":false,"is_disabled":false,"rental_uris":{"android":"levelo://app?vid=548ba8ad-49ca-4ef6-864a-d49ba46587bf","ios":"levelo://app?vid=548ba8ad-49ca-4ef6-864a-d49ba46587bf"},"vehicle_type_id":"4","last_reported":1701108569,"current_range_meters":20000,"station_id":"ce4bh492rcd13ifvqdug","pricing_plan_id":"free"},{"bike_id":"a351cab0-10a9-4df4-953c-4fd50466a12b","system_id":"levelo_inurba_marseille","lat":43.3239,"lon":5.4049,"is_reserved":false,"is_disabled":false,"rental_uris":{"android":"levelo://app?vid=a351cab0-10a9-4df4-953c-4fd50466a12b","ios":"levelo://app?vid=a351cab0-10a9-4df4-953c-4fd50466a12b"},"vehicle_type_id":"4","last_reported":1701108569,"current_range_meters":6000,"station_id":"ce4bhr92rcd13ifvqhrg","pricing_plan_id":"free"},{"bike_id":"e0e52f23-91d4-4d0c-9c9a-10b0e96b988b","system_id":"levelo_inurba_marseille","lat":43.319179,"lon":5.407725,"is_reserved":false,"is_disabled":false,"rental_uris":{"android":"levelo://app?vid=e0e52f23-91d4-4d0c-9c9a-10b0e96b988b","ios":"levelo://app?vid=e0e52f23-91d4-4d0c-9c9a-10b0e96b988b"},"vehicle_type_id":"4","last_reported":1701108569,"current_range_meters":5200,"station_id":"ce4bhq12rcd13ifvqhig","pricing_plan_id":"free"},{"bike_id":"abe3b4b9-3c23-4bdf-aa21-bedfad5eaea6","system_id":"levelo_inurba_marseille","lat":43.33717,"lon":5.391857,"is_reserved":false,"is_disabled":false,"rental_uris":{"android":"levelo://app?vid=abe3b4b9-3c23-4bdf-aa21-bedfad5eaea6","ios":"levelo://app?vid=abe3b4b9-3c23-4bdf-aa21-bedfad5eaea6"},"vehicle_type_id":"4","last_reported":1701108569,"current_range_meters":30400,"station_id":"ce4bhr92rcd13ifvqhsg","pricing_plan_id":"free"},{"bike_id":"2ec5961f-1b4b-4587-a7b0-f9177d2b9fbd","system_id":"levelo_inurba_marseille","lat":43.323464,"lon":5.406297,"is_reserved":false,"is_disabled":false,"rental_uris":{"android":"levelo://app?vid=2ec5961f-1b4b-4587-a7b0-f9177d2b9fbd","ios":"levelo://app?vid=2ec5961f-1b4b-4587-a7b0-f9177d2b9fbd"},"vehicle_type_id":"4","last_reported":1701108569,"current_range_meters":26000,"station_id":"ce4bhq92rcd13ifvqhjg","pricing_plan_id":"free"},{"bike_id":"6e5fc2ab-e680-4453-a607-400458212688","system_id":"levelo_inurba_marseille","lat":43.323464,"lon":5.406297,"is_reserved":false,"is_disabled":false,"rental_uris":{"android":"levelo://app?vid=6e5fc2ab-e680-4453-a607-400458212688","ios":"levelo://app?vid=6e5fc2ab-e680-4453-a607-400458212688"},"vehicle_type_id":"4","last_reported":1701108569,"current_range_meters":18400,"station_id":"ce4bhq92rcd13ifvqhjg","pricing_plan_id":"free"},{"bike_id":"d4076b03-297c-4a79-82eb-49232187dbab","system_id":"levelo_inurba_marseille","lat":43.284793,"lon":5.384113,"is_reserved":false,"is_disabled":false,"rental_uris":{"android":"levelo://app?vid=d4076b03-297c-4a79-82eb-49232187dbab","ios":"levelo://app?vid=d4076b03-297c-4a79-82eb-49232187dbab"},"vehicle_type_id":"4","last_reported":1701108569,"current_range_meters":18000,"station_id":"ce4bh512rcd13ifvqe3g","pricing_plan_id":"free"},{"bike_id":"7635af8f-2101-4856-842d-969da8eada51","system_id":"levelo_inurba_marseille","lat":43.28857,"lon":5.393173,"is_reserved":false,"is_disabled":false,"rental_uris":{"android":"levelo://app?vid=7635af8f-2101-4856-842d-969da8eada51","ios":"levelo://app?vid=7635af8f-2101-4856-842d-969da8eada51"},"vehicle_type_id":"4","last_reported":1701108569,"current_range_meters":21200,"station_id":"ce4bh2p2rcd13ifvqdi0","pricing_plan_id":"free"},{"bike_id":"9804551d-b424-4e61-94a0-eb06ffd9bdae","system_id":"levelo_inurba_marseille","lat":43.283494,"lon":5.380945,"is_reserved":false,"is_disabled":false,"rental_uris":{"android":"levelo://app?vid=9804551d-b424-4e61-94a0-eb06ffd9bdae","ios":"levelo://app?vid=9804551d-b424-4e61-94a0-eb06ffd9bdae"},"vehicle_type_id":"4","last_reported":1701108569,"current_range_meters":10800,"station_id":"ce4bh412rcd13ifvqdr0","pricing_plan_id":"free"},{"bike_id":"f327c25b-b2b1-4eb7-a181-1a4c476aa4c3","system_id":"levelo_inurba_marseille","lat":43.283494,"lon":5.380945,"is_reserved":false,"is_disabled":false,"rental_uris":{"android":"levelo://app?vid=f327c25b-b2b1-4eb7-a181-1a4c476aa4c3","ios":"levelo://app?vid=f327c25b-b2b1-4eb7-a181-1a4c476aa4c3"},"vehicle_type_id":"4","last_reported":1701108569,"current_range_meters":14800,"station_id":"ce4bh412rcd13ifvqdr0","pricing_plan_id":"free"},{"bike_id":"e059e81d-22eb-4a07-9861-8b445aaf6a70","system_id":"levelo_inurba_marseille","lat":43.283498,"lon":5.380948,"is_reserved":false,"is_disabled":false,"rental_uris":{"android":"levelo://app?vid=e059e81d-22eb-4a07-9861-8b445aaf6a70","ios":"levelo://app?vid=e059e81d-22eb-4a07-9861-8b445aaf6a70"},"vehicle_type_id":"4","last_reported":1701108569,"current_range_meters":0,"station_id":"ce4bh412rcd13ifvqdr0","pricing_plan_id":"free"},{"bike_id":"eb37201b-e663-444b-87f9-ba30b8816fed","system_id":"levelo_inurba_marseille","lat":43.284087,"lon":5.349863,"is_reserved":false,"is_disabled":false,"rental_uris":{"android":"levelo://app?vid=eb37201b-e663-444b-87f9-ba30b8816fed","ios":"levelo://app?vid=eb37201b-e663-444b-87f9-ba30b8816fed"},"vehicle_type_id":"4","last_reported":1701108569,"current_range_meters":25200,"station_id":"ce4bhbh2rcd13ifvqepg","pricing_plan_id":"free"},{"bike_id":"e2284003-4e46-4e0a-93e7-73d05c3666d9","system_id":"levelo_inurba_marseille","lat":43.33508,"lon":5.397755,"is_reserved":false,"is_disabled":false,"rental_uris":{"android":"levelo://app?vid=e2284003-4e46-4e0a-93e7-73d05c3666d9","ios":"levelo://app?vid=e2284003-4e46-4e0a-93e7-73d05c3666d9"},"vehicle_type_id":"4","last_reported":1701108569,"current_range_meters":14000,"station_id":"","pricing_plan_id":"free"},{"bike_id":"c5e3ea19-5fa6-4db6-806a-32a6c3a12f95","system_id":"levelo_inurba_marseille","lat":43.283502,"lon":5.386471,"is_reserved":false,"is_disabled":false,"rental_uris":{"android":"levelo://app?vid=c5e3ea19-5fa6-4db6-806a-32a6c3a12f95","ios":"levelo://app?vid=c5e3ea19-5fa6-4db6-806a-32a6c3a12f95"},"vehicle_type_id":"4","last_reported":1701108569,"current_range_meters":18800,"station_id":"ce4bh492rcd13ifvqdvg","pricing_plan_id":"free"},{"bike_id":"d8d966f3-5b51-48e3-8ef6-dfbed029c249","system_id":"levelo_inurba_marseille","lat":43.283502,"lon":5.386471,"is_reserved":false,"is_disabled":false,"rental_uris":{"android":"levelo://app?vid=d8d966f3-5b51-48e3-8ef6-dfbed029c249","ios":"levelo://app?vid=d8d966f3-5b51-48e3-8ef6-dfbed029c249"},"vehicle_type_id":"4","last_reported":1701108569,"current_range_meters":24400,"station_id":"ce4bh492rcd13ifvqdvg","pricing_plan_id":"free"},{"bike_id":"e12be531-30cb-4462-8615-816361900865","system_id":"levelo_inurba_marseille","lat":43.283502,"lon":5.386471,"is_reserved":false,"is_disabled":false,"rental_uris":{"android":"levelo://app?vid=e12be531-30cb-4462-8615-816361900865","ios":"levelo://app?vid=e12be531-30cb-4462-8615-816361900865"},"vehicle_type_id":"4","last_reported":1701108569,"current_range_meters":400,"station_id":"ce4bh492rcd13ifvqdvg","pricing_plan_id":"free"},{"bike_id":"9e07e8fe-965a-40fb-9830-1fc88919689d","system_id":"levelo_inurba_marseille","lat":43.283502,"lon":5.386471,"is_reserved":false,"is_disabled":false,"rental_uris":{"android":"levelo://app?vid=9e07e8fe-965a-40fb-9830-1fc88919689d","ios":"levelo://app?vid=9e07e8fe-965a-40fb-9830-1fc88919689d"},"vehicle_type_id":"4","last_reported":1701108569,"current_range_meters":14400,"station_id":"ce4bh492rcd13ifvqdvg","pricing_plan_id":"free"},{"bike_id":"5db1d8e2-4372-4622-813a-9229011e936b","system_id":"levelo_inurba_marseille","lat":43.282754,"lon":5.350519,"is_reserved":false,"is_disabled":false,"rental_uris":{"android":"levelo://app?vid=5db1d8e2-4372-4622-813a-9229011e936b","ios":"levelo://app?vid=5db1d8e2-4372-4622-813a-9229011e936b"},"vehicle_type_id":"4","last_reported":1701108569,"current_range_meters":5200,"station_id":"ce4bhbp2rcd13ifvqerg","pricing_plan_id":"free"},{"bike_id":"ed086d46-24a9-4c21-a767-73dc772ba6f6","system_id":"levelo_inurba_marseille","lat":43.282744,"lon":5.350533,"is_reserved":false,"is_disabled":false,"rental_uris":{"android":"levelo://app?vid=ed086d46-24a9-4c21-a767-73dc772ba6f6","ios":"levelo://app?vid=ed086d46-24a9-4c21-a767-73dc772ba6f6"},"vehicle_type_id":"4","last_reported":1701108569,"current_range_meters":30000,"station_id":"ce4bhbp2rcd13ifvqerg","pricing_plan_id":"free"},{"bike_id":"190df295-f81a-4b41-9349-5a5c25e04f62","system_id":"levelo_inurba_marseille","lat":43.28038,"lon":5.36943,"is_reserved":false,"is_disabled":false,"rental_uris":{"android":"levelo://app?vid=190df295-f81a-4b41-9349-5a5c25e04f62","ios":"levelo://app?vid=190df295-f81a-4b41-9349-5a5c25e04f62"},"vehicle_type_id":"4","last_reported":1701108569,"current_range_meters":5200,"station_id":"ce4bha12rcd13ifvqef0","pricing_plan_id":"free"},{"bike_id":"2d884891-2722-4f44-8072-8fada83a090e","system_id":"levelo_inurba_marseille","lat":43.28039,"lon":5.369297,"is_reserved":false,"is_disabled":false,"rental_uris":{"android":"levelo://app?vid=2d884891-2722-4f44-8072-8fada83a090e","ios":"levelo://app?vid=2d884891-2722-4f44-8072-8fada83a090e"},"vehicle_type_id":"4","last_reported":1701108569,"current_range_meters":26800,"station_id":"ce4bha12rcd13ifvqef0","pricing_plan_id":"free"},{"bike_id":"1eb89771-3748-426e-b742-242381863b21","system_id":"levelo_inurba_marseille","lat":43.284462,"lon":5.392121,"is_reserved":false,"is_disabled":false,"rental_uris":{"android":"levelo://app?vid=1eb89771-3748-426e-b742-242381863b21","ios":"levelo://app?vid=1eb89771-3748-426e-b742-242381863b21"},"vehicle_type_id":"4","last_reported":1701108569,"current_range_meters":4800,"station_id":"ce4bhoh2rcd13ifvqh5g","pricing_plan_id":"free"},{"bike_id":"6526cad1-2f4b-4db1-8d6b-ce04bc407b31","system_id":"levelo_inurba_marseille","lat":43.346897,"lon":5.37683,"is_reserved":false,"is_disabled":false,"rental_uris":{"android":"levelo://app?vid=6526cad1-2f4b-4db1-8d6b-ce04bc407b31","ios":"levelo://app?vid=6526cad1-2f4b-4db1-8d6b-ce04bc407b31"},"vehicle_type_id":"4","last_reported":1701108569,"current_range_meters":0,"station_id":"","pricing_plan_id":"free"},{"bike_id":"1017fae1-3a99-4e08-8702-5b9ae7b74582","system_id":"levelo_inurba_marseille","lat":43.320045,"lon":5.415046,"is_reserved":false,"is_disabled":false,"rental_uris":{"android":"levelo://app?vid=1017fae1-3a99-4e08-8702-5b9ae7b74582","ios":"levelo://app?vid=1017fae1-3a99-4e08-8702-5b9ae7b74582"},"vehicle_type_id":"4","last_reported":1701108569,"current_range_meters":22000,"station_id":"ce4bhq92rcd13ifvqhkg","pricing_plan_id":"free"},{"bike_id":"69f29ead-eddb-48d2-949b-ba37ce89072d","system_id":"levelo_inurba_marseille","lat":43.292571,"lon":5.409107,"is_reserved":false,"is_disabled":false,"rental_uris":{"android":"levelo://app?vid=69f29ead-eddb-48d2-949b-ba37ce89072d","ios":"levelo://app?vid=69f29ead-eddb-48d2-949b-ba37ce89072d"},"vehicle_type_id":"4","last_reported":1701108569,"current_range_meters":25200,"station_id":"ce4bh192rcd13ifvqdc0","pricing_plan_id":"free"},{"bike_id":"5c9cc44d-5101-485d-b981-1ad13a603c33","system_id":"levelo_inurba_marseille","lat":43.29252,"lon":5.40913,"is_reserved":false,"is_disabled":false,"rental_uris":{"android":"levelo://app?vid=5c9cc44d-5101-485d-b981-1ad13a603c33","ios":"levelo://app?vid=5c9cc44d-5101-485d-b981-1ad13a603c33"},"vehicle_type_id":"4","last_reported":1701108569,"current_range_meters":0,"station_id":"ce4bh192rcd13ifvqdc0","pricing_plan_id":"free"},{"bike_id":"521e0e2e-a8d2-4d18-8079-009c449dd225","system_id":"levelo_inurba_marseille","lat":43.29277,"lon":5.409953,"is_reserved":false,"is_disabled":false,"rental_uris":{"android":"levelo://app?vid=521e0e2e-a8d2-4d18-8079-009c449dd225","ios":"levelo://app?vid=521e0e2e-a8d2-4d18-8079-009c449dd225"},"vehicle_type_id":"4","last_reported":1701108569,"current_range_meters":4000,"station_id":"","pricing_plan_id":"free"},{"bike_id":"ec92845f-ab02-4bca-a27f-27b194c0a533","system_id":"levelo_inurba_marseille","lat":43.293673,"lon":5.412643,"is_reserved":false,"is_disabled":false,"rental_uris":{"android":"levelo://app?vid=ec92845f-ab02-4bca-a27f-27b194c0a533","ios":"levelo://app?vid=ec92845f-ab02-4bca-a27f-27b194c0a533"},"vehicle_type_id":"4","last_reported":1701108569,"current_range_meters":16400,"station_id":"","pricing_plan_id":"free"},{"bike_id":"44087013-9d8f-488c-9025-5d33d053b6d3","system_id":"levelo_inurba_marseille","lat":43.280784,"lon":5.396622,"is_reserved":false,"is_disabled":false,"rental_uris":{"android":"levelo://app?vid=44087013-9d8f-488c-9025-5d33d053b6d3","ios":"levelo://app?vid=44087013-9d8f-488c-9025-5d33d053b6d3"},"vehicle_type_id":"4","last_reported":1701108569,"current_range_meters":18000,"station_id":"ce4bho12rcd13ifvqh2g","pricing_plan_id":"free"},{"bike_id":"be9690c5-c7a1-4c76-a31f-e0ecc29f7955","system_id":"levelo_inurba_marseille","lat":43.28082,"lon":5.39662,"is_reserved":false,"is_disabled":false,"rental_uris":{"android":"levelo://app?vid=be9690c5-c7a1-4c76-a31f-e0ecc29f7955","ios":"levelo://app?vid=be9690c5-c7a1-4c76-a31f-e0ecc29f7955"},"vehicle_type_id":"4","last_reported":1701108569,"current_range_meters":12800,"station_id":"ce4bho12rcd13ifvqh2g","pricing_plan_id":"free"},{"bike_id":"65a6bc97-46ab-4be9-93d6-3f5986a84f2d","system_id":"levelo_inurba_marseille","lat":43.278399,"lon":5.392139,"is_reserved":false,"is_disabled":false,"rental_uris":{"android":"levelo://app?vid=65a6bc97-46ab-4be9-93d6-3f5986a84f2d","ios":"levelo://app?vid=65a6bc97-46ab-4be9-93d6-3f5986a84f2d"},"vehicle_type_id":"4","last_reported":1701108569,"current_range_meters":16000,"station_id":"ce4bhjp2rcd13ifvqga0","pricing_plan_id":"free"},{"bike_id":"40f6d377-528e-4074-806e-ae08fe5a0e27","system_id":"levelo_inurba_marseille","lat":43.273613,"lon":5.362705,"is_reserved":false,"is_disabled":false,"rental_uris":{"android":"levelo://app?vid=40f6d377-528e-4074-806e-ae08fe5a0e27","ios":"levelo://app?vid=40f6d377-528e-4074-806e-ae08fe5a0e27"},"vehicle_type_id":"4","last_reported":1701108569,"current_range_meters":8000,"station_id":"ce4bhbh2rcd13ifvqeo0","pricing_plan_id":"free"},{"bike_id":"43a0b753-fb47-4881-91d9-d29a0815f06e","system_id":"levelo_inurba_marseille","lat":43.273609,"lon":5.362708,"is_reserved":false,"is_disabled":false,"rental_uris":{"android":"levelo://app?vid=43a0b753-fb47-4881-91d9-d29a0815f06e","ios":"levelo://app?vid=43a0b753-fb47-4881-91d9-d29a0815f06e"},"vehicle_type_id":"4","last_reported":1701108569,"current_range_meters":30000,"station_id":"ce4bhbh2rcd13ifvqeo0","pricing_plan_id":"free"},{"bike_id":"3d955af7-b7d1-4f39-8a2f-4096fce89c61","system_id":"levelo_inurba_marseille","lat":43.273609,"lon":5.362708,"is_reserved":false,"is_disabled":false,"rental_uris":{"android":"levelo://app?vid=3d955af7-b7d1-4f39-8a2f-4096fce89c61","ios":"levelo://app?vid=3d955af7-b7d1-4f39-8a2f-4096fce89c61"},"vehicle_type_id":"4","last_reported":1701108569,"current_range_meters":25600,"station_id":"ce4bhbh2rcd13ifvqeo0","pricing_plan_id":"free"},{"bike_id":"4b3eb43b-0894-419c-9ad9-fefbdcf37865","system_id":"levelo_inurba_marseille","lat":43.276769,"lon":5.388787,"is_reserved":false,"is_disabled":false,"rental_uris":{"android":"levelo://app?vid=4b3eb43b-0894-419c-9ad9-fefbdcf37865","ios":"levelo://app?vid=4b3eb43b-0894-419c-9ad9-fefbdcf37865"},"vehicle_type_id":"4","last_reported":1701108569,"current_range_meters":21600,"station_id":"ce4bhi12rcd13ifvqfo0","pricing_plan_id":"free"},{"bike_id":"874ab4ab-584f-442a-8fe7-88712031c91a","system_id":"levelo_inurba_marseille","lat":43.276771,"lon":5.388799,"is_reserved":false,"is_disabled":false,"rental_uris":{"android":"levelo://app?vid=874ab4ab-584f-442a-8fe7-88712031c91a","ios":"levelo://app?vid=874ab4ab-584f-442a-8fe7-88712031c91a"},"vehicle_type_id":"4","last_reported":1701108569,"current_range_meters":21200,"station_id":"ce4bhi12rcd13ifvqfo0","pricing_plan_id":"free"},{"bike_id":"93d2e195-48fb-4653-8a69-e206dff22f91","system_id":"levelo_inurba_marseille","lat":43.279952,"lon":5.400085,"is_reserved":false,"is_disabled":false,"rental_uris":{"android":"levelo://app?vid=93d2e195-48fb-4653-8a69-e206dff22f91","ios":"levelo://app?vid=93d2e195-48fb-4653-8a69-e206dff22f91"},"vehicle_type_id":"4","last_reported":1701108569,"current_range_meters":16800,"station_id":"ce4bho92rcd13ifvqh4g","pricing_plan_id":"free"},{"bike_id":"382c1fe5-7b5a-4eed-b40d-e2096003697f","system_id":"levelo_inurba_marseille","lat":43.279952,"lon":5.400085,"is_reserved":false,"is_disabled":false,"rental_uris":{"android":"levelo://app?vid=382c1fe5-7b5a-4eed-b40d-e2096003697f","ios":"levelo://app?vid=382c1fe5-7b5a-4eed-b40d-e2096003697f"},"vehicle_type_id":"4","last_reported":1701108569,"current_range_meters":21200,"station_id":"ce4bho92rcd13ifvqh4g","pricing_plan_id":"free"},{"bike_id":"c31df56f-605c-4142-95b4-92ca47b7dfb8","system_id":"levelo_inurba_marseille","lat":43.27989,"lon":5.4001,"is_reserved":false,"is_disabled":false,"rental_uris":{"android":"levelo://app?vid=c31df56f-605c-4142-95b4-92ca47b7dfb8","ios":"levelo://app?vid=c31df56f-605c-4142-95b4-92ca47b7dfb8"},"vehicle_type_id":"4","last_reported":1701108569,"current_range_meters":15600,"station_id":"ce4bho92rcd13ifvqh4g","pricing_plan_id":"free"},{"bike_id":"89b9a57b-3c62-4bcd-a510-245ba6546272","system_id":"levelo_inurba_marseille","lat":43.317121,"lon":5.423936,"is_reserved":false,"is_disabled":false,"rental_uris":{"android":"levelo://app?vid=89b9a57b-3c62-4bcd-a510-245ba6546272","ios":"levelo://app?vid=89b9a57b-3c62-4bcd-a510-245ba6546272"},"vehicle_type_id":"4","last_reported":1701108569,"current_range_meters":400,"station_id":"ce4bhp92rcd13ifvqhbg","pricing_plan_id":"free"},{"bike_id":"460d5063-5d7a-4405-ba58-f7ba9110acb2","system_id":"levelo_inurba_marseille","lat":43.31718,"lon":5.42403,"is_reserved":false,"is_disabled":false,"rental_uris":{"android":"levelo://app?vid=460d5063-5d7a-4405-ba58-f7ba9110acb2","ios":"levelo://app?vid=460d5063-5d7a-4405-ba58-f7ba9110acb2"},"vehicle_type_id":"4","last_reported":1701108569,"current_range_meters":7600,"station_id":"ce4bhp92rcd13ifvqhbg","pricing_plan_id":"free"},{"bike_id":"177119fa-77bc-4b45-9076-05ca3e223bc7","system_id":"levelo_inurba_marseille","lat":43.340804,"lon":5.410219,"is_reserved":false,"is_disabled":false,"rental_uris":{"android":"levelo://app?vid=177119fa-77bc-4b45-9076-05ca3e223bc7","ios":"levelo://app?vid=177119fa-77bc-4b45-9076-05ca3e223bc7"},"vehicle_type_id":"4","last_reported":1701108569,"current_range_meters":26000,"station_id":"ce4bhqh2rcd13ifvqhlg","pricing_plan_id":"free"},{"bike_id":"7252e64b-f353-45fd-91ec-9b97b9c45b74","system_id":"levelo_inurba_marseille","lat":43.273129,"lon":5.390725,"is_reserved":false,"is_disabled":false,"rental_uris":{"android":"levelo://app?vid=7252e64b-f353-45fd-91ec-9b97b9c45b74","ios":"levelo://app?vid=7252e64b-f353-45fd-91ec-9b97b9c45b74"},"vehicle_type_id":"4","last_reported":1701108569,"current_range_meters":18800,"station_id":"ce4bhgp2rcd13ifvqfe0","pricing_plan_id":"free"},{"bike_id":"76c54cc3-5f25-4fd7-a417-9afa50fb9df9","system_id":"levelo_inurba_marseille","lat":43.295523,"lon":5.422926,"is_reserved":false,"is_disabled":false,"rental_uris":{"android":"levelo://app?vid=76c54cc3-5f25-4fd7-a417-9afa50fb9df9","ios":"levelo://app?vid=76c54cc3-5f25-4fd7-a417-9afa50fb9df9"},"vehicle_type_id":"4","last_reported":1701108569,"current_range_meters":15200,"station_id":"ce4bhph2rcd13ifvqhdg","pricing_plan_id":"free"},{"bike_id":"fccf1799-4473-414c-9389-9b30b0508c40","system_id":"levelo_inurba_marseille","lat":43.295523,"lon":5.422926,"is_reserved":false,"is_disabled":false,"rental_uris":{"android":"levelo://app?vid=fccf1799-4473-414c-9389-9b30b0508c40","ios":"levelo://app?vid=fccf1799-4473-414c-9389-9b30b0508c40"},"vehicle_type_id":"4","last_reported":1701108569,"current_range_meters":20400,"station_id":"ce4bhph2rcd13ifvqhdg","pricing_plan_id":"free"},{"bike_id":"b5345938-438d-49b4-a969-d1562d2f1280","system_id":"levelo_inurba_marseille","lat":43.295523,"lon":5.422926,"is_reserved":false,"is_disabled":false,"rental_uris":{"android":"levelo://app?vid=b5345938-438d-49b4-a969-d1562d2f1280","ios":"levelo://app?vid=b5345938-438d-49b4-a969-d1562d2f1280"},"vehicle_type_id":"4","last_reported":1701108569,"current_range_meters":28800,"station_id":"ce4bhph2rcd13ifvqhdg","pricing_plan_id":"free"},{"bike_id":"6b00c00a-acab-4a0b-825e-4b6c2ea383bc","system_id":"levelo_inurba_marseille","lat":43.295523,"lon":5.422926,"is_reserved":false,"is_disabled":false,"rental_uris":{"android":"levelo://app?vid=6b00c00a-acab-4a0b-825e-4b6c2ea383bc","ios":"levelo://app?vid=6b00c00a-acab-4a0b-825e-4b6c2ea383bc"},"vehicle_type_id":"4","last_reported":1701108569,"current_range_meters":28800,"station_id":"ce4bhph2rcd13ifvqhdg","pricing_plan_id":"free"},{"bike_id":"487e8935-2222-4e65-8507-6d483307a42a","system_id":"levelo_inurba_marseille","lat":43.295511,"lon":5.422926,"is_reserved":false,"is_disabled":false,"rental_uris":{"android":"levelo://app?vid=487e8935-2222-4e65-8507-6d483307a42a","ios":"levelo://app?vid=487e8935-2222-4e65-8507-6d483307a42a"},"vehicle_type_id":"4","last_reported":1701108569,"current_range_meters":31600,"station_id":"ce4bhph2rcd13ifvqhdg","pricing_plan_id":"free"},{"bike_id":"60d68696-e37a-4397-b24a-012f516bc63c","system_id":"levelo_inurba_marseille","lat":43.295523,"lon":5.422926,"is_reserved":false,"is_disabled":false,"rental_uris":{"android":"levelo://app?vid=60d68696-e37a-4397-b24a-012f516bc63c","ios":"levelo://app?vid=60d68696-e37a-4397-b24a-012f516bc63c"},"vehicle_type_id":"4","last_reported":1701108569,"current_range_meters":17600,"station_id":"ce4bhph2rcd13ifvqhdg","pricing_plan_id":"free"},{"bike_id":"08fe44e4-201e-4497-b2af-1597ca570ac3","system_id":"levelo_inurba_marseille","lat":43.295511,"lon":5.422926,"is_reserved":false,"is_disabled":false,"rental_uris":{"android":"levelo://app?vid=08fe44e4-201e-4497-b2af-1597ca570ac3","ios":"levelo://app?vid=08fe44e4-201e-4497-b2af-1597ca570ac3"},"vehicle_type_id":"4","last_reported":1701108569,"current_range_meters":22400,"station_id":"ce4bhph2rcd13ifvqhdg","pricing_plan_id":"free"},{"bike_id":"fe1a0da7-ac78-4623-9b9d-9ec231e567e0","system_id":"levelo_inurba_marseille","lat":43.29549,"lon":5.42289,"is_reserved":false,"is_disabled":false,"rental_uris":{"android":"levelo://app?vid=fe1a0da7-ac78-4623-9b9d-9ec231e567e0","ios":"levelo://app?vid=fe1a0da7-ac78-4623-9b9d-9ec231e567e0"},"vehicle_type_id":"4","last_reported":1701108569,"current_range_meters":24400,"station_id":"ce4bhph2rcd13ifvqhdg","pricing_plan_id":"free"},{"bike_id":"73eeb136-9ad5-41a6-a459-fb0ef87f8779","system_id":"levelo_inurba_marseille","lat":43.295523,"lon":5.422926,"is_reserved":false,"is_disabled":false,"rental_uris":{"android":"levelo://app?vid=73eeb136-9ad5-41a6-a459-fb0ef87f8779","ios":"levelo://app?vid=73eeb136-9ad5-41a6-a459-fb0ef87f8779"},"vehicle_type_id":"4","last_reported":1701108569,"current_range_meters":4000,"station_id":"ce4bhph2rcd13ifvqhdg","pricing_plan_id":"free"},{"bike_id":"96661c5e-90e7-498e-8229-323d527ddcf5","system_id":"levelo_inurba_marseille","lat":43.295523,"lon":5.422926,"is_reserved":false,"is_disabled":false,"rental_uris":{"android":"levelo://app?vid=96661c5e-90e7-498e-8229-323d527ddcf5","ios":"levelo://app?vid=96661c5e-90e7-498e-8229-323d527ddcf5"},"vehicle_type_id":"4","last_reported":1701108569,"current_range_meters":20800,"station_id":"ce4bhph2rcd13ifvqhdg","pricing_plan_id":"free"},{"bike_id":"4c605ca3-481c-41f4-97f4-419aa29ab2ca","system_id":"levelo_inurba_marseille","lat":43.295523,"lon":5.422926,"is_reserved":false,"is_disabled":false,"rental_uris":{"android":"levelo://app?vid=4c605ca3-481c-41f4-97f4-419aa29ab2ca","ios":"levelo://app?vid=4c605ca3-481c-41f4-97f4-419aa29ab2ca"},"vehicle_type_id":"4","last_reported":1701108569,"current_range_meters":2800,"station_id":"ce4bhph2rcd13ifvqhdg","pricing_plan_id":"free"},{"bike_id":"62cfa572-51d4-4a04-9e45-ea785883caeb","system_id":"levelo_inurba_marseille","lat":43.27207,"lon":5.39264,"is_reserved":false,"is_disabled":false,"rental_uris":{"android":"levelo://app?vid=62cfa572-51d4-4a04-9e45-ea785883caeb","ios":"levelo://app?vid=62cfa572-51d4-4a04-9e45-ea785883caeb"},"vehicle_type_id":"4","last_reported":1701108569,"current_range_meters":14400,"station_id":"","pricing_plan_id":"free"},{"bike_id":"c0da9d5f-85f3-4852-83d6-346997b768b7","system_id":"levelo_inurba_marseille","lat":43.278128,"lon":5.407195,"is_reserved":false,"is_disabled":false,"rental_uris":{"android":"levelo://app?vid=c0da9d5f-85f3-4852-83d6-346997b768b7","ios":"levelo://app?vid=c0da9d5f-85f3-4852-83d6-346997b768b7"},"vehicle_type_id":"4","last_reported":1701108569,"current_range_meters":20400,"station_id":"ce4bhnh2rcd13ifvqgtg","pricing_plan_id":"free"},{"bike_id":"188c32b2-1d8f-475d-b7f4-8c6771ba8f12","system_id":"levelo_inurba_marseille","lat":43.278128,"lon":5.407195,"is_reserved":false,"is_disabled":false,"rental_uris":{"android":"levelo://app?vid=188c32b2-1d8f-475d-b7f4-8c6771ba8f12","ios":"levelo://app?vid=188c32b2-1d8f-475d-b7f4-8c6771ba8f12"},"vehicle_type_id":"4","last_reported":1701108569,"current_range_meters":0,"station_id":"ce4bhnh2rcd13ifvqgtg","pricing_plan_id":"free"},{"bike_id":"a406769d-10f5-467c-8ed6-5951f6adcf7e","system_id":"levelo_inurba_marseille","lat":43.278128,"lon":5.407195,"is_reserved":false,"is_disabled":false,"rental_uris":{"android":"levelo://app?vid=a406769d-10f5-467c-8ed6-5951f6adcf7e","ios":"levelo://app?vid=a406769d-10f5-467c-8ed6-5951f6adcf7e"},"vehicle_type_id":"4","last_reported":1701108569,"current_range_meters":25600,"station_id":"ce4bhnh2rcd13ifvqgtg","pricing_plan_id":"free"},{"bike_id":"27a9352f-d5db-4486-b9b9-85b4251d0b33","system_id":"levelo_inurba_marseille","lat":43.278128,"lon":5.407195,"is_reserved":false,"is_disabled":false,"rental_uris":{"android":"levelo://app?vid=27a9352f-d5db-4486-b9b9-85b4251d0b33","ios":"levelo://app?vid=27a9352f-d5db-4486-b9b9-85b4251d0b33"},"vehicle_type_id":"4","last_reported":1701108569,"current_range_meters":1200,"station_id":"ce4bhnh2rcd13ifvqgtg","pricing_plan_id":"free"},{"bike_id":"9efe761d-4b17-4e3f-a49f-4e76c8ea96ba","system_id":"levelo_inurba_marseille","lat":43.26913,"lon":5.38639,"is_reserved":false,"is_disabled":false,"rental_uris":{"android":"levelo://app?vid=9efe761d-4b17-4e3f-a49f-4e76c8ea96ba","ios":"levelo://app?vid=9efe761d-4b17-4e3f-a49f-4e76c8ea96ba"},"vehicle_type_id":"4","last_reported":1701108569,"current_range_meters":20800,"station_id":"ce4bhh92rcd13ifvqfh0","pricing_plan_id":"free"},{"bike_id":"c8268e82-32de-476d-b43b-a0fe479b442d","system_id":"levelo_inurba_marseille","lat":43.27912,"lon":5.41222,"is_reserved":false,"is_disabled":false,"rental_uris":{"android":"levelo://app?vid=c8268e82-32de-476d-b43b-a0fe479b442d","ios":"levelo://app?vid=c8268e82-32de-476d-b43b-a0fe479b442d"},"vehicle_type_id":"4","last_reported":1701108569,"current_range_meters":12000,"station_id":"","pricing_plan_id":"free"},{"bike_id":"037156c7-a88c-4596-a3d5-0d4f249b58d0","system_id":"levelo_inurba_marseille","lat":43.26553,"lon":5.37284,"is_reserved":false,"is_disabled":false,"rental_uris":{"android":"levelo://app?vid=037156c7-a88c-4596-a3d5-0d4f249b58d0","ios":"levelo://app?vid=037156c7-a88c-4596-a3d5-0d4f249b58d0"},"vehicle_type_id":"4","last_reported":1701108569,"current_range_meters":22000,"station_id":"ce4bhg12rcd13ifvqf70","pricing_plan_id":"free"},{"bike_id":"de1df4ee-4ac8-4bf2-95a0-4a7efb35acd0","system_id":"levelo_inurba_marseille","lat":43.265714,"lon":5.372891,"is_reserved":false,"is_disabled":false,"rental_uris":{"android":"levelo://app?vid=de1df4ee-4ac8-4bf2-95a0-4a7efb35acd0","ios":"levelo://app?vid=de1df4ee-4ac8-4bf2-95a0-4a7efb35acd0"},"vehicle_type_id":"4","last_reported":1701108569,"current_range_meters":27600,"station_id":"ce4bhg12rcd13ifvqf70","pricing_plan_id":"free"},{"bike_id":"f23d8119-b478-4639-98c5-6883279f9f84","system_id":"levelo_inurba_marseille","lat":43.32592,"lon":5.43067,"is_reserved":false,"is_disabled":false,"rental_uris":{"android":"levelo://app?vid=f23d8119-b478-4639-98c5-6883279f9f84","ios":"levelo://app?vid=f23d8119-b478-4639-98c5-6883279f9f84"},"vehicle_type_id":"4","last_reported":1701108569,"current_range_meters":18400,"station_id":"","pricing_plan_id":"free"},{"bike_id":"ed30d6a1-b23a-49e5-9c83-5546be72a734","system_id":"levelo_inurba_marseille","lat":43.3259,"lon":5.43075,"is_reserved":false,"is_disabled":false,"rental_uris":{"android":"levelo://app?vid=ed30d6a1-b23a-49e5-9c83-5546be72a734","ios":"levelo://app?vid=ed30d6a1-b23a-49e5-9c83-5546be72a734"},"vehicle_type_id":"4","last_reported":1701108569,"current_range_meters":13200,"station_id":"","pricing_plan_id":"free"},{"bike_id":"d67469ee-5362-4610-a163-fe05ae3cf4f7","system_id":"levelo_inurba_marseille","lat":43.32604,"lon":5.430817,"is_reserved":false,"is_disabled":false,"rental_uris":{"android":"levelo://app?vid=d67469ee-5362-4610-a163-fe05ae3cf4f7","ios":"levelo://app?vid=d67469ee-5362-4610-a163-fe05ae3cf4f7"},"vehicle_type_id":"4","last_reported":1701108569,"current_range_meters":1600,"station_id":"","pricing_plan_id":"free"},{"bike_id":"5986dab0-7b77-4674-8135-17288066df9b","system_id":"levelo_inurba_marseille","lat":43.27541,"lon":5.40951,"is_reserved":false,"is_disabled":false,"rental_uris":{"android":"levelo://app?vid=5986dab0-7b77-4674-8135-17288066df9b","ios":"levelo://app?vid=5986dab0-7b77-4674-8135-17288066df9b"},"vehicle_type_id":"4","last_reported":1701108569,"current_range_meters":17200,"station_id":"","pricing_plan_id":"free"},{"bike_id":"dc9fbdde-209d-4988-b4be-9e12ebeed7ca","system_id":"levelo_inurba_marseille","lat":43.27996,"lon":5.416624,"is_reserved":false,"is_disabled":false,"rental_uris":{"android":"levelo://app?vid=dc9fbdde-209d-4988-b4be-9e12ebeed7ca","ios":"levelo://app?vid=dc9fbdde-209d-4988-b4be-9e12ebeed7ca"},"vehicle_type_id":"4","last_reported":1701108569,"current_range_meters":29200,"station_id":"ce4bho12rcd13ifvqh1g","pricing_plan_id":"free"},{"bike_id":"90cbab28-a875-4d11-98d3-9d382568c5c8","system_id":"levelo_inurba_marseille","lat":43.27996,"lon":5.416624,"is_reserved":false,"is_disabled":false,"rental_uris":{"android":"levelo://app?vid=90cbab28-a875-4d11-98d3-9d382568c5c8","ios":"levelo://app?vid=90cbab28-a875-4d11-98d3-9d382568c5c8"},"vehicle_type_id":"4","last_reported":1701108569,"current_range_meters":28800,"station_id":"ce4bho12rcd13ifvqh1g","pricing_plan_id":"free"},{"bike_id":"30d35fd9-577d-48c4-bdfc-b7ddd33caf53","system_id":"levelo_inurba_marseille","lat":43.27996,"lon":5.416624,"is_reserved":false,"is_disabled":false,"rental_uris":{"android":"levelo://app?vid=30d35fd9-577d-48c4-bdfc-b7ddd33caf53","ios":"levelo://app?vid=30d35fd9-577d-48c4-bdfc-b7ddd33caf53"},"vehicle_type_id":"4","last_reported":1701108569,"current_range_meters":1600,"station_id":"ce4bho12rcd13ifvqh1g","pricing_plan_id":"free"},{"bike_id":"c2229057-ec27-497c-8d35-ceed3ea34f96","system_id":"levelo_inurba_marseille","lat":43.27996,"lon":5.416624,"is_reserved":false,"is_disabled":false,"rental_uris":{"android":"levelo://app?vid=c2229057-ec27-497c-8d35-ceed3ea34f96","ios":"levelo://app?vid=c2229057-ec27-497c-8d35-ceed3ea34f96"},"vehicle_type_id":"4","last_reported":1701108569,"current_range_meters":15200,"station_id":"ce4bho12rcd13ifvqh1g","pricing_plan_id":"free"},{"bike_id":"e8280a5d-65d2-4392-ae53-64433d891c1b","system_id":"levelo_inurba_marseille","lat":43.265714,"lon":5.372891,"is_reserved":false,"is_disabled":false,"rental_uris":{"android":"levelo://app?vid=e8280a5d-65d2-4392-ae53-64433d891c1b","ios":"levelo://app?vid=e8280a5d-65d2-4392-ae53-64433d891c1b"},"vehicle_type_id":"4","last_reported":1701108569,"current_range_meters":9600,"station_id":"ce4bhg12rcd13ifvqf70","pricing_plan_id":"free"},{"bike_id":"9737f357-836f-4ff6-91c4-0cabe7a2235e","system_id":"levelo_inurba_marseille","lat":43.265714,"lon":5.372891,"is_reserved":false,"is_disabled":false,"rental_uris":{"android":"levelo://app?vid=9737f357-836f-4ff6-91c4-0cabe7a2235e","ios":"levelo://app?vid=9737f357-836f-4ff6-91c4-0cabe7a2235e"},"vehicle_type_id":"4","last_reported":1701108569,"current_range_meters":2800,"station_id":"ce4bhg12rcd13ifvqf70","pricing_plan_id":"free"},{"bike_id":"5ae7a082-1d7f-4fa6-a8de-6b9a5a376833","system_id":"levelo_inurba_marseille","lat":43.267966,"lon":5.393976,"is_reserved":false,"is_disabled":false,"rental_uris":{"android":"levelo://app?vid=5ae7a082-1d7f-4fa6-a8de-6b9a5a376833","ios":"levelo://app?vid=5ae7a082-1d7f-4fa6-a8de-6b9a5a376833"},"vehicle_type_id":"4","last_reported":1701108569,"current_range_meters":4400,"station_id":"ce4bhh12rcd13ifvqfg0","pricing_plan_id":"free"},{"bike_id":"88846dd4-c9b6-4bf9-80ca-db03b3cf5288","system_id":"levelo_inurba_marseille","lat":43.267966,"lon":5.393976,"is_reserved":false,"is_disabled":false,"rental_uris":{"android":"levelo://app?vid=88846dd4-c9b6-4bf9-80ca-db03b3cf5288","ios":"levelo://app?vid=88846dd4-c9b6-4bf9-80ca-db03b3cf5288"},"vehicle_type_id":"4","last_reported":1701108569,"current_range_meters":0,"station_id":"ce4bhh12rcd13ifvqfg0","pricing_plan_id":"free"},{"bike_id":"df6285bc-f1db-462c-a2dc-81443bdad91f","system_id":"levelo_inurba_marseille","lat":43.308051,"lon":5.43527,"is_reserved":false,"is_disabled":false,"rental_uris":{"android":"levelo://app?vid=df6285bc-f1db-462c-a2dc-81443bdad91f","ios":"levelo://app?vid=df6285bc-f1db-462c-a2dc-81443bdad91f"},"vehicle_type_id":"4","last_reported":1701108569,"current_range_meters":9200,"station_id":"ce4bhph2rcd13ifvqheg","pricing_plan_id":"free"},{"bike_id":"8b74d3bd-d40e-4453-992f-9b4deed5beb4","system_id":"levelo_inurba_marseille","lat":43.308051,"lon":5.43527,"is_reserved":false,"is_disabled":false,"rental_uris":{"android":"levelo://app?vid=8b74d3bd-d40e-4453-992f-9b4deed5beb4","ios":"levelo://app?vid=8b74d3bd-d40e-4453-992f-9b4deed5beb4"},"vehicle_type_id":"4","last_reported":1701108569,"current_range_meters":29600,"station_id":"ce4bhph2rcd13ifvqheg","pricing_plan_id":"free"},{"bike_id":"21a12cfe-8b71-447a-bf18-9d00e9ddca64","system_id":"levelo_inurba_marseille","lat":43.26949,"lon":5.40262,"is_reserved":false,"is_disabled":false,"rental_uris":{"android":"levelo://app?vid=21a12cfe-8b71-447a-bf18-9d00e9ddca64","ios":"levelo://app?vid=21a12cfe-8b71-447a-bf18-9d00e9ddca64"},"vehicle_type_id":"4","last_reported":1701108569,"current_range_meters":4400,"station_id":"cjm6bp8fraef2m0cb0m0","pricing_plan_id":"free"},{"bike_id":"0eaf64f4-1a11-4d04-b220-e2950015f4a2","system_id":"levelo_inurba_marseille","lat":43.261782,"lon":5.374515,"is_reserved":false,"is_disabled":false,"rental_uris":{"android":"levelo://app?vid=0eaf64f4-1a11-4d04-b220-e2950015f4a2","ios":"levelo://app?vid=0eaf64f4-1a11-4d04-b220-e2950015f4a2"},"vehicle_type_id":"4","last_reported":1701108569,"current_range_meters":23200,"station_id":"ce4bhgp2rcd13ifvqfc0","pricing_plan_id":"free"},{"bike_id":"85c6e9a7-ab6f-4be9-adbc-94f5a0a272b5","system_id":"levelo_inurba_marseille","lat":43.317104,"lon":5.436818,"is_reserved":false,"is_disabled":false,"rental_uris":{"android":"levelo://app?vid=85c6e9a7-ab6f-4be9-adbc-94f5a0a272b5","ios":"levelo://app?vid=85c6e9a7-ab6f-4be9-adbc-94f5a0a272b5"},"vehicle_type_id":"4","last_reported":1701108569,"current_range_meters":9200,"station_id":"ce4bhp92rcd13ifvqhcg","pricing_plan_id":"free"},{"bike_id":"d2e989fa-38dc-43b1-ba08-12ab74122c34","system_id":"levelo_inurba_marseille","lat":43.27185,"lon":5.40995,"is_reserved":false,"is_disabled":false,"rental_uris":{"android":"levelo://app?vid=d2e989fa-38dc-43b1-ba08-12ab74122c34","ios":"levelo://app?vid=d2e989fa-38dc-43b1-ba08-12ab74122c34"},"vehicle_type_id":"4","last_reported":1701108569,"current_range_meters":12000,"station_id":"ce4bhl12rcd13ifvqgf0","pricing_plan_id":"free"},{"bike_id":"9f033ebe-ea07-4954-98b6-077312aefefb","system_id":"levelo_inurba_marseille","lat":43.262012,"lon":5.379307,"is_reserved":false,"is_disabled":false,"rental_uris":{"android":"levelo://app?vid=9f033ebe-ea07-4954-98b6-077312aefefb","ios":"levelo://app?vid=9f033ebe-ea07-4954-98b6-077312aefefb"},"vehicle_type_id":"4","last_reported":1701108569,"current_range_meters":13200,"station_id":"ce4bhjp2rcd13ifvqg90","pricing_plan_id":"free"},{"bike_id":"3865e87c-590e-474f-b570-8a1ace950d6b","system_id":"levelo_inurba_marseille","lat":43.298768,"lon":5.43643,"is_reserved":false,"is_disabled":false,"rental_uris":{"android":"levelo://app?vid=3865e87c-590e-474f-b570-8a1ace950d6b","ios":"levelo://app?vid=3865e87c-590e-474f-b570-8a1ace950d6b"},"vehicle_type_id":"4","last_reported":1701108569,"current_range_meters":28800,"station_id":"ce4bhpp2rcd13ifvqhfg","pricing_plan_id":"free"},{"bike_id":"9713bde9-c9a7-4d76-bb95-dac32047e32a","system_id":"levelo_inurba_marseille","lat":43.298768,"lon":5.43643,"is_reserved":false,"is_disabled":false,"rental_uris":{"android":"levelo://app?vid=9713bde9-c9a7-4d76-bb95-dac32047e32a","ios":"levelo://app?vid=9713bde9-c9a7-4d76-bb95-dac32047e32a"},"vehicle_type_id":"4","last_reported":1701108569,"current_range_meters":30400,"station_id":"ce4bhpp2rcd13ifvqhfg","pricing_plan_id":"free"},{"bike_id":"3e469c88-1717-4aca-bd5e-1ec315470d14","system_id":"levelo_inurba_marseille","lat":43.298768,"lon":5.43643,"is_reserved":false,"is_disabled":false,"rental_uris":{"android":"levelo://app?vid=3e469c88-1717-4aca-bd5e-1ec315470d14","ios":"levelo://app?vid=3e469c88-1717-4aca-bd5e-1ec315470d14"},"vehicle_type_id":"4","last_reported":1701108569,"current_range_meters":16400,"station_id":"ce4bhpp2rcd13ifvqhfg","pricing_plan_id":"free"},{"bike_id":"7c5a83ac-336c-4b91-a5ea-82b3c6d6127d","system_id":"levelo_inurba_marseille","lat":43.298768,"lon":5.43643,"is_reserved":false,"is_disabled":false,"rental_uris":{"android":"levelo://app?vid=7c5a83ac-336c-4b91-a5ea-82b3c6d6127d","ios":"levelo://app?vid=7c5a83ac-336c-4b91-a5ea-82b3c6d6127d"},"vehicle_type_id":"4","last_reported":1701108569,"current_range_meters":31600,"station_id":"ce4bhpp2rcd13ifvqhfg","pricing_plan_id":"free"},{"bike_id":"f4f2e1d5-dafa-412d-9b3a-3611814786ce","system_id":"levelo_inurba_marseille","lat":43.298768,"lon":5.43643,"is_reserved":false,"is_disabled":false,"rental_uris":{"android":"levelo://app?vid=f4f2e1d5-dafa-412d-9b3a-3611814786ce","ios":"levelo://app?vid=f4f2e1d5-dafa-412d-9b3a-3611814786ce"},"vehicle_type_id":"4","last_reported":1701108569,"current_range_meters":31600,"station_id":"ce4bhpp2rcd13ifvqhfg","pricing_plan_id":"free"},{"bike_id":"df86183c-2087-436f-9bdd-29ed82a32076","system_id":"levelo_inurba_marseille","lat":43.298768,"lon":5.43643,"is_reserved":false,"is_disabled":false,"rental_uris":{"android":"levelo://app?vid=df86183c-2087-436f-9bdd-29ed82a32076","ios":"levelo://app?vid=df86183c-2087-436f-9bdd-29ed82a32076"},"vehicle_type_id":"4","last_reported":1701108569,"current_range_meters":30400,"station_id":"ce4bhpp2rcd13ifvqhfg","pricing_plan_id":"free"},{"bike_id":"66c5017d-9747-4fe3-95ee-d539317d6c18","system_id":"levelo_inurba_marseille","lat":43.26028,"lon":5.37556,"is_reserved":false,"is_disabled":false,"rental_uris":{"android":"levelo://app?vid=66c5017d-9747-4fe3-95ee-d539317d6c18","ios":"levelo://app?vid=66c5017d-9747-4fe3-95ee-d539317d6c18"},"vehicle_type_id":"4","last_reported":1701108569,"current_range_meters":25200,"station_id":"ce4bhgh2rcd13ifvqfa0","pricing_plan_id":"free"},{"bike_id":"06fc9a2b-9345-4cf4-8396-06ed84bee3f7","system_id":"levelo_inurba_marseille","lat":43.281548,"lon":5.42643,"is_reserved":false,"is_disabled":false,"rental_uris":{"android":"levelo://app?vid=06fc9a2b-9345-4cf4-8396-06ed84bee3f7","ios":"levelo://app?vid=06fc9a2b-9345-4cf4-8396-06ed84bee3f7"},"vehicle_type_id":"4","last_reported":1701108569,"current_range_meters":6400,"station_id":"ce4bhnh2rcd13ifvqgug","pricing_plan_id":"free"},{"bike_id":"fcf01b88-51f8-4b2c-8a55-f12e65c5fa81","system_id":"levelo_inurba_marseille","lat":43.260909,"lon":5.397591,"is_reserved":false,"is_disabled":false,"rental_uris":{"android":"levelo://app?vid=fcf01b88-51f8-4b2c-8a55-f12e65c5fa81","ios":"levelo://app?vid=fcf01b88-51f8-4b2c-8a55-f12e65c5fa81"},"vehicle_type_id":"4","last_reported":1701108569,"current_range_meters":24400,"station_id":"ce4bhi12rcd13ifvqfq0","pricing_plan_id":"free"},{"bike_id":"bd92cc5c-6126-4310-8081-c4396553c92c","system_id":"levelo_inurba_marseille","lat":43.260909,"lon":5.397591,"is_reserved":false,"is_disabled":false,"rental_uris":{"android":"levelo://app?vid=bd92cc5c-6126-4310-8081-c4396553c92c","ios":"levelo://app?vid=bd92cc5c-6126-4310-8081-c4396553c92c"},"vehicle_type_id":"4","last_reported":1701108569,"current_range_meters":13600,"station_id":"ce4bhi12rcd13ifvqfq0","pricing_plan_id":"free"},{"bike_id":"83692309-39ad-4cc5-9433-ca2f07923b96","system_id":"levelo_inurba_marseille","lat":43.275028,"lon":5.424534,"is_reserved":false,"is_disabled":false,"rental_uris":{"android":"levelo://app?vid=83692309-39ad-4cc5-9433-ca2f07923b96","ios":"levelo://app?vid=83692309-39ad-4cc5-9433-ca2f07923b96"},"vehicle_type_id":"4","last_reported":1701108569,"current_range_meters":21200,"station_id":"ce4bhn92rcd13ifvqgrg","pricing_plan_id":"free"},{"bike_id":"c85f7616-3a9e-47a4-ae16-28a03e51ab4f","system_id":"levelo_inurba_marseille","lat":43.28929,"lon":5.438754,"is_reserved":false,"is_disabled":false,"rental_uris":{"android":"levelo://app?vid=c85f7616-3a9e-47a4-ae16-28a03e51ab4f","ios":"levelo://app?vid=c85f7616-3a9e-47a4-ae16-28a03e51ab4f"},"vehicle_type_id":"4","last_reported":1701108569,"current_range_meters":6800,"station_id":"","pricing_plan_id":"free"},{"bike_id":"f2258489-4689-48e8-8691-86831a761064","system_id":"levelo_inurba_marseille","lat":43.2558,"lon":5.38232,"is_reserved":false,"is_disabled":false,"rental_uris":{"android":"levelo://app?vid=f2258489-4689-48e8-8691-86831a761064","ios":"levelo://app?vid=f2258489-4689-48e8-8691-86831a761064"},"vehicle_type_id":"4","last_reported":1701108569,"current_range_meters":16000,"station_id":"ce4bhih2rcd13ifvqfs0","pricing_plan_id":"free"},{"bike_id":"688681b5-8ff9-40fc-9c7c-d63348c0853c","system_id":"levelo_inurba_marseille","lat":43.255756,"lon":5.382303,"is_reserved":false,"is_disabled":false,"rental_uris":{"android":"levelo://app?vid=688681b5-8ff9-40fc-9c7c-d63348c0853c","ios":"levelo://app?vid=688681b5-8ff9-40fc-9c7c-d63348c0853c"},"vehicle_type_id":"4","last_reported":1701108569,"current_range_meters":9600,"station_id":"ce4bhih2rcd13ifvqfs0","pricing_plan_id":"free"},{"bike_id":"a200de64-5a83-4c5c-9a4a-37358ef876c4","system_id":"levelo_inurba_marseille","lat":43.25823,"lon":5.39434,"is_reserved":false,"is_disabled":false,"rental_uris":{"android":"levelo://app?vid=a200de64-5a83-4c5c-9a4a-37358ef876c4","ios":"levelo://app?vid=a200de64-5a83-4c5c-9a4a-37358ef876c4"},"vehicle_type_id":"4","last_reported":1701108569,"current_range_meters":3600,"station_id":"ce4bhip2rcd13ifvqft0","pricing_plan_id":"free"},{"bike_id":"f25cdbe0-8b09-4a82-b897-96ba77055f6a","system_id":"levelo_inurba_marseille","lat":43.255756,"lon":5.382303,"is_reserved":false,"is_disabled":false,"rental_uris":{"android":"levelo://app?vid=f25cdbe0-8b09-4a82-b897-96ba77055f6a","ios":"levelo://app?vid=f25cdbe0-8b09-4a82-b897-96ba77055f6a"},"vehicle_type_id":"4","last_reported":1701108569,"current_range_meters":0,"station_id":"ce4bhih2rcd13ifvqfs0","pricing_plan_id":"free"},{"bike_id":"332a50f6-1b90-4009-8e73-eec3c21151db","system_id":"levelo_inurba_marseille","lat":43.25576,"lon":5.38228,"is_reserved":false,"is_disabled":false,"rental_uris":{"android":"levelo://app?vid=332a50f6-1b90-4009-8e73-eec3c21151db","ios":"levelo://app?vid=332a50f6-1b90-4009-8e73-eec3c21151db"},"vehicle_type_id":"4","last_reported":1701108569,"current_range_meters":4400,"station_id":"ce4bhih2rcd13ifvqfs0","pricing_plan_id":"free"},{"bike_id":"c51a160c-b4eb-4891-a118-a98d656b5f38","system_id":"levelo_inurba_marseille","lat":43.258658,"lon":5.398935,"is_reserved":false,"is_disabled":false,"rental_uris":{"android":"levelo://app?vid=c51a160c-b4eb-4891-a118-a98d656b5f38","ios":"levelo://app?vid=c51a160c-b4eb-4891-a118-a98d656b5f38"},"vehicle_type_id":"4","last_reported":1701108569,"current_range_meters":7200,"station_id":"ce4bhl92rcd13ifvqghg","pricing_plan_id":"free"},{"bike_id":"ddbbeed2-d25d-4b09-9d29-0e6c73a12821","system_id":"levelo_inurba_marseille","lat":43.250009,"lon":5.389195,"is_reserved":false,"is_disabled":false,"rental_uris":{"android":"levelo://app?vid=ddbbeed2-d25d-4b09-9d29-0e6c73a12821","ios":"levelo://app?vid=ddbbeed2-d25d-4b09-9d29-0e6c73a12821"},"vehicle_type_id":"4","last_reported":1701108569,"current_range_meters":1200,"station_id":"ce4bhgp2rcd13ifvqfd0","pricing_plan_id":"free"},{"bike_id":"b7c63160-ae28-40ef-a3a9-a6f97125d231","system_id":"levelo_inurba_marseille","lat":43.2479,"lon":5.374457,"is_reserved":false,"is_disabled":false,"rental_uris":{"android":"levelo://app?vid=b7c63160-ae28-40ef-a3a9-a6f97125d231","ios":"levelo://app?vid=b7c63160-ae28-40ef-a3a9-a6f97125d231"},"vehicle_type_id":"4","last_reported":1701108569,"current_range_meters":24000,"station_id":"ce4bhgh2rcd13ifvqfb0","pricing_plan_id":"free"},{"bike_id":"df917515-e70d-4df1-a930-e1df6680151e","system_id":"levelo_inurba_marseille","lat":43.2479,"lon":5.374457,"is_reserved":false,"is_disabled":false,"rental_uris":{"android":"levelo://app?vid=df917515-e70d-4df1-a930-e1df6680151e","ios":"levelo://app?vid=df917515-e70d-4df1-a930-e1df6680151e"},"vehicle_type_id":"4","last_reported":1701108569,"current_range_meters":18800,"station_id":"ce4bhgh2rcd13ifvqfb0","pricing_plan_id":"free"},{"bike_id":"4c0c3118-7eaa-4ebd-8d87-d449bea3e021","system_id":"levelo_inurba_marseille","lat":43.250897,"lon":5.395161,"is_reserved":false,"is_disabled":false,"rental_uris":{"android":"levelo://app?vid=4c0c3118-7eaa-4ebd-8d87-d449bea3e021","ios":"levelo://app?vid=4c0c3118-7eaa-4ebd-8d87-d449bea3e021"},"vehicle_type_id":"4","last_reported":1701108569,"current_range_meters":19600,"station_id":"ce4bhm12rcd13ifvqgkg","pricing_plan_id":"free"},{"bike_id":"6ec47fb9-7f4c-4d8b-8761-810cb9b0e8e3","system_id":"levelo_inurba_marseille","lat":43.250966,"lon":5.395186,"is_reserved":false,"is_disabled":false,"rental_uris":{"android":"levelo://app?vid=6ec47fb9-7f4c-4d8b-8761-810cb9b0e8e3","ios":"levelo://app?vid=6ec47fb9-7f4c-4d8b-8761-810cb9b0e8e3"},"vehicle_type_id":"4","last_reported":1701108569,"current_range_meters":27600,"station_id":"ce4bhm12rcd13ifvqgkg","pricing_plan_id":"free"},{"bike_id":"b9b097f8-16b5-43eb-9279-36c5a2a9e44e","system_id":"levelo_inurba_marseille","lat":43.250966,"lon":5.395186,"is_reserved":false,"is_disabled":false,"rental_uris":{"android":"levelo://app?vid=b9b097f8-16b5-43eb-9279-36c5a2a9e44e","ios":"levelo://app?vid=b9b097f8-16b5-43eb-9279-36c5a2a9e44e"},"vehicle_type_id":"4","last_reported":1701108569,"current_range_meters":13200,"station_id":"ce4bhm12rcd13ifvqgkg","pricing_plan_id":"free"},{"bike_id":"2cd5e60d-de20-4bd8-b7ce-b351e0cc1848","system_id":"levelo_inurba_marseille","lat":43.24693,"lon":5.382096,"is_reserved":false,"is_disabled":false,"rental_uris":{"android":"levelo://app?vid=2cd5e60d-de20-4bd8-b7ce-b351e0cc1848","ios":"levelo://app?vid=2cd5e60d-de20-4bd8-b7ce-b351e0cc1848"},"vehicle_type_id":"4","last_reported":1701108569,"current_range_meters":2400,"station_id":"ce4bhih2rcd13ifvqfr0","pricing_plan_id":"free"},{"bike_id":"fa7d1495-7ca5-42ec-a26f-bc2f8cbfc660","system_id":"levelo_inurba_marseille","lat":43.25102,"lon":5.403214,"is_reserved":false,"is_disabled":false,"rental_uris":{"android":"levelo://app?vid=fa7d1495-7ca5-42ec-a26f-bc2f8cbfc660","ios":"levelo://app?vid=fa7d1495-7ca5-42ec-a26f-bc2f8cbfc660"},"vehicle_type_id":"4","last_reported":1701108569,"current_range_meters":17200,"station_id":"ce4bhlh2rcd13ifvqgig","pricing_plan_id":"free"},