{"last_updated":1737706344,"ttl":60,"version":"2.2","data":{"bikes":[{"bike_id":"71025e83-daff-40eb-8f70-b8e1fc9300fb","system_id":"levelo_inurba_marseille","lat":43.22926,"lon":5.35385,"is_reserved":false,"is_disabled":false,"rental_uris":{"android":"levelo://app?vid=71025e83-daff-40eb-8f70-b8e1fc9300fb","ios":"levelo://app?vid=71025e83-daff-40eb-8f70-b8e1fc9300fb"},"vehicle_type_id":"4","last_reported":1737706344,"current_range_meters":37600,"station_id":"cpo3532slgdg3j2ikp40","pricing_plan_id":"cebpf4jnsgd1na2vs0mg"},{"bike_id":"3394e2ef-8e91-4dc9-b46e-4d71fc5de055","system_id":"levelo_inurba_marseille","lat":43.29534,"lon":5.39051,"is_reserved":false,"is_disabled":false,"rental_uris":{"android":"levelo://app?vid=3394e2ef-8e91-4dc9-b46e-4d71fc5de055","ios":"levelo://app?vid=3394e2ef-8e91-4dc9-b46e-4d71fc5de055"},"vehicle_type_id":"4","last_reported":1737706344,"current_range_meters":38800,"station_id":"ce4bh3p2rcd13ifvqdp0","pricing_plan_id":"cebpf4jnsgd1na2vs0mg"},{"bike_id":"8ed5147f-ff24-4b56-b5b5-4ca60e756417","system_id":"levelo_inurba_marseille","lat":43.29044,"lon":5.40006,"is_reserved":false,"is_disabled":false,"rental_uris":{"android":"levelo://app?vid=8ed5147f-ff24-4b56-b5b5-4ca60e756417","ios":"levelo://app?vid=8ed5147f-ff24-4b56-b5b5-4ca60e756417"},"vehicle_type_id":"4","last_reported":1737706344,"current_range_meters":28400,"station_id":"ce4bh392rcd13ifvqdm0","pricing_plan_id":"cebpf4jnsgd1na2vs0mg"},{"bike_id":"9c7eaa63-fad9-42a1-ac6c-648c1755a7f5","system_id":"levelo_inurba_marseille","lat":43.30084,"lon":5.37288,"is_reserved":false,"is_disabled":false,"rental_uris":{"android":"levelo://app?vid=9c7eaa63-fad9-42a1-ac6c-648c1755a7f5","ios":"levelo://app?vid=9c7eaa63-fad9-42a1-ac6c-648c1755a7f5"},"vehicle_type_id":"4","last_reported":1737706344,"current_range_meters":32400,"station_id":"","pricing_plan_id":"cebpf4jnsgd1na2vs0mg"},{"bike_id":"3beb6337-d249-43a8-bc99-1aaf517c2a4b","system_id":"levelo_inurba_marseille","lat":43.30208,"lon":5.39462,"is_reserved":false,"is_disabled":false,"rental_uris":{"android":"levelo://app?vid=3beb6337-d249-43a8-bc99-1aaf517c2a4b","ios":"levelo://app?vid=3beb6337-d249-43a8-bc99-1aaf517c2a4b"},"vehicle_type_id":"4","last_reported":1737706344,"current_range_meters":28000,"station_id":"ce4bh0p2rcd13ifvqd70","pricing_plan_id":"cebpf4jnsgd1na2vs0mg"},{"bike_id":"f18bd97a-88a7-4285-bcf6-6f0395aed5d8","system_id":"levelo_inurba_marseille","lat":43.29523,"lon":5.39039,"is_reserved":false,"is_disabled":false,"rental_uris":{"android":"levelo://app?vid=f18bd97a-88a7-4285-bcf6-6f0395aed5d8","ios":"levelo://app?vid=f18bd97a-88a7-4285-bcf6-6f0395aed5d8"},"vehicle_type_id":"4","last_reported":1737706344,"current_range_meters":38000,"station_id":"ce4bh3p2rcd13ifvqdp0","pricing_plan_id":"cebpf4jnsgd1na2vs0mg"},{"bike_id":"88bc6d52-a61d-497c-9a21-003afc3443d5","system_id":"levelo_inurba_marseille","lat":43.30149,"lon":5.37403,"is_reserved":false,"is_disabled":false,"rental_uris":{"android":"levelo://app?vid=88bc6d52-a61d-497c-9a21-003afc3443d5","ios":"levelo://app?vid=88bc6d52-a61d-497c-9a21-003afc3443d5"},"vehicle_type_id":"4","last_reported":1737706344,"current_range_meters":18000,"station_id":"ce4bgs92rcd13ifvqcc0","pricing_plan_id":"cebpf4jnsgd1na2vs0mg"},{"bike_id":"07b3636a-6565-4267-bb7f-3bdd825e382a","system_id":"levelo_inurba_marseille","lat":43.28706,"lon":5.40005,"is_reserved":false,"is_disabled":true,"rental_uris":{"android":"levelo://app?vid=07b3636a-6565-4267-bb7f-3bdd825e382a","ios":"levelo://app?vid=07b3636a-6565-4267-bb7f-3bdd825e382a"},"vehicle_type_id":"4","last_reported":1737706344,"current_range_meters":1200,"station_id":"ce4bho92rcd13ifvqh3g","pricing_plan_id":"cebpf4jnsgd1na2vs0mg"},{"bike_id":"2a8b0b62-764f-4e50-8390-5767b443e17a","system_id":"levelo_inurba_marseille","lat":43.31746,"lon":5.39025,"is_reserved":false,"is_disabled":false,"rental_uris":{"android":"levelo://app?vid=2a8b0b62-764f-4e50-8390-5767b443e17a","ios":"levelo://app?vid=2a8b0b62-764f-4e50-8390-5767b443e17a"},"vehicle_type_id":"4","last_reported":1737706344,"current_range_meters":28800,"station_id":"ce4bhqp2rcd13ifvqhng","pricing_plan_id":"cebpf4jnsgd1na2vs0mg"},{"bike_id":"06a620cd-3153-4982-8565-5e86e982bb89","system_id":"levelo_inurba_marseille","lat":43.30469,"lon":5.37915,"is_reserved":false,"is_disabled":false,"rental_uris":{"android":"levelo://app?vid=06a620cd-3153-4982-8565-5e86e982bb89","ios":"levelo://app?vid=06a620cd-3153-4982-8565-5e86e982bb89"},"vehicle_type_id":"4","last_reported":1737706344,"current_range_meters":36400,"station_id":"ce4bgup2rcd13ifvqcn0","pricing_plan_id":"cebpf4jnsgd1na2vs0mg"},{"bike_id":"eb97554e-9784-452b-b85e-e8331efd4fe5","system_id":"levelo_inurba_marseille","lat":43.31338,"lon":5.36725,"is_reserved":false,"is_disabled":true,"rental_uris":{"android":"levelo://app?vid=eb97554e-9784-452b-b85e-e8331efd4fe5","ios":"levelo://app?vid=eb97554e-9784-452b-b85e-e8331efd4fe5"},"vehicle_type_id":"4","last_reported":1737706344,"current_range_meters":0,"station_id":"ce4bgr92rcd13ifvqc6g","pricing_plan_id":"cebpf4jnsgd1na2vs0mg"},{"bike_id":"cb0ff26d-12db-4f4f-8a1e-edf0f3766303","system_id":"levelo_inurba_marseille","lat":43.3122,"lon":5.36851,"is_reserved":false,"is_disabled":false,"rental_uris":{"android":"levelo://app?vid=cb0ff26d-12db-4f4f-8a1e-edf0f3766303","ios":"levelo://app?vid=cb0ff26d-12db-4f4f-8a1e-edf0f3766303"},"vehicle_type_id":"4","last_reported":1737706344,"current_range_meters":4000,"station_id":"ce4bgl92rcd13ifvqbq0","pricing_plan_id":"cebpf4jnsgd1na2vs0mg"},{"bike_id":"506a044b-9622-4a12-ae21-167e8f083126","system_id":"levelo_inurba_marseille","lat":43.32475,"lon":5.3658,"is_reserved":false,"is_disabled":false,"rental_uris":{"android":"levelo://app?vid=506a044b-9622-4a12-ae21-167e8f083126","ios":"levelo://app?vid=506a044b-9622-4a12-ae21-167e8f083126"},"vehicle_type_id":"4","last_reported":1737706344,"current_range_meters":5600,"station_id":"ce4bhs12rcd13ifvqhvg","pricing_plan_id":"cebpf4jnsgd1na2vs0mg"},{"bike_id":"9cc0c7ef-0803-47e3-9731-691efc00014c","system_id":"levelo_inurba_marseille","lat":43.24807,"lon":5.37461,"is_reserved":false,"is_disabled":false,"rental_uris":{"android":"levelo://app?vid=9cc0c7ef-0803-47e3-9731-691efc00014c","ios":"levelo://app?vid=9cc0c7ef-0803-47e3-9731-691efc00014c"},"vehicle_type_id":"4","last_reported":1737706344,"current_range_meters":6400,"station_id":"ce4bhgh2rcd13ifvqfb0","pricing_plan_id":"cebpf4jnsgd1na2vs0mg"},{"bike_id":"652ff0cc-8d87-46b0-add0-73b63008eda4","system_id":"levelo_inurba_marseille","lat":43.32538,"lon":5.41428,"is_reserved":false,"is_disabled":false,"rental_uris":{"android":"levelo://app?vid=652ff0cc-8d87-46b0-add0-73b63008eda4","ios":"levelo://app?vid=652ff0cc-8d87-46b0-add0-73b63008eda4"},"vehicle_type_id":"4","last_reported":1737706344,"current_range_meters":32000,"station_id":"ce4bhq12rcd13ifvqhhg","pricing_plan_id":"cebpf4jnsgd1na2vs0mg"},{"bike_id":"1ad2827f-c927-47ad-afee-69d833ea9818","system_id":"levelo_inurba_marseille","lat":43.29172,"lon":5.3716,"is_reserved":false,"is_disabled":false,"rental_uris":{"android":"levelo://app?vid=1ad2827f-c927-47ad-afee-69d833ea9818","ios":"levelo://app?vid=1ad2827f-c927-47ad-afee-69d833ea9818"},"vehicle_type_id":"4","last_reported":1737706344,"current_range_meters":17600,"station_id":"ce4bha92rcd13ifvqeh0","pricing_plan_id":"cebpf4jnsgd1na2vs0mg"},{"bike_id":"fa235921-264c-45fa-9486-36940e44284c","system_id":"levelo_inurba_marseille","lat":43.25569,"lon":5.38248,"is_reserved":false,"is_disabled":false,"rental_uris":{"android":"levelo://app?vid=fa235921-264c-45fa-9486-36940e44284c","ios":"levelo://app?vid=fa235921-264c-45fa-9486-36940e44284c"},"vehicle_type_id":"4","last_reported":1737706344,"current_range_meters":39200,"station_id":"ce4bhih2rcd13ifvqfs0","pricing_plan_id":"cebpf4jnsgd1na2vs0mg"},{"bike_id":"b2d18654-c549-4f43-9593-2c68495e6f4c","system_id":"levelo_inurba_marseille","lat":43.30939,"lon":5.39046,"is_reserved":false,"is_disabled":false,"rental_uris":{"android":"levelo://app?vid=b2d18654-c549-4f43-9593-2c68495e6f4c","ios":"levelo://app?vid=b2d18654-c549-4f43-9593-2c68495e6f4c"},"vehicle_type_id":"4","last_reported":1737706344,"current_range_meters":39200,"station_id":"ce4bgup2rcd13ifvqco0","pricing_plan_id":"cebpf4jnsgd1na2vs0mg"},{"bike_id":"72485749-ca8d-4ac9-af66-3197eb4b12f8","system_id":"levelo_inurba_marseille","lat":43.30944,"lon":5.39036,"is_reserved":false,"is_disabled":true,"rental_uris":{"android":"levelo://app?vid=72485749-ca8d-4ac9-af66-3197eb4b12f8","ios":"levelo://app?vid=72485749-ca8d-4ac9-af66-3197eb4b12f8"},"vehicle_type_id":"4","last_reported":1737706344,"current_range_meters":2000,"station_id":"ce4bgup2rcd13ifvqco0","pricing_plan_id":"cebpf4jnsgd1na2vs0mg"},{"bike_id":"59e599e2-aa0c-47e0-b327-0676fd03ab57","system_id":"levelo_inurba_marseille","lat":43.24168,"lon":5.36397,"is_reserved":false,"is_disabled":false,"rental_uris":{"android":"levelo://app?vid=59e599e2-aa0c-47e0-b327-0676fd03ab57","ios":"levelo://app?vid=59e599e2-aa0c-47e0-b327-0676fd03ab57"},"vehicle_type_id":"4","last_reported":1737706344,"current_range_meters":24400,"station_id":"cpo36qri1sfpv3e86is0","pricing_plan_id":"cebpf4jnsgd1na2vs0mg"},{"bike_id":"92b3decb-59dd-4101-8352-6c13befcb0ee","system_id":"levelo_inurba_marseille","lat":43.25718,"lon":5.41117,"is_reserved":false,"is_disabled":false,"rental_uris":{"android":"levelo://app?vid=92b3decb-59dd-4101-8352-6c13befcb0ee","ios":"levelo://app?vid=92b3decb-59dd-4101-8352-6c13befcb0ee"},"vehicle_type_id":"4","last_reported":1737706344,"current_range_meters":8800,"station_id":"ce4bhkp2rcd13ifvqgd0","pricing_plan_id":"cebpf4jnsgd1na2vs0mg"},{"bike_id":"1472ea52-8fc9-449d-8cdc-fb5de31126e2","system_id":"levelo_inurba_marseille","lat":43.32455,"lon":5.36576,"is_reserved":false,"is_disabled":false,"rental_uris":{"android":"levelo://app?vid=1472ea52-8fc9-449d-8cdc-fb5de31126e2","ios":"levelo://app?vid=1472ea52-8fc9-449d-8cdc-fb5de31126e2"},"vehicle_type_id":"4","last_reported":1737706344,"current_range_meters":27200,"station_id":"ce4bhs12rcd13ifvqhvg","pricing_plan_id":"cebpf4jnsgd1na2vs0mg"},{"bike_id":"a7096c56-ee6c-4caa-8cc5-7bc6b6306671","system_id":"levelo_inurba_marseille","lat":43.31375,"lon":5.36675,"is_reserved":false,"is_disabled":false,"rental_uris":{"android":"levelo://app?vid=a7096c56-ee6c-4caa-8cc5-7bc6b6306671","ios":"levelo://app?vid=a7096c56-ee6c-4caa-8cc5-7bc6b6306671"},"vehicle_type_id":"4","last_reported":1737706344,"current_range_meters":27600,"station_id":"ce4bgr92rcd13ifvqc6g","pricing_plan_id":"cebpf4jnsgd1na2vs0mg"},{"bike_id":"056ed343-b9c5-4ee1-9000-c71459c47098","system_id":"levelo_inurba_marseille","lat":43.3172,"lon":5.40466,"is_reserved":false,"is_disabled":false,"rental_uris":{"android":"levelo://app?vid=056ed343-b9c5-4ee1-9000-c71459c47098","ios":"levelo://app?vid=056ed343-b9c5-4ee1-9000-c71459c47098"},"vehicle_type_id":"4","last_reported":1737706344,"current_range_meters":33200,"station_id":"ce4bh012rcd13ifvqd00","pricing_plan_id":"cebpf4jnsgd1na2vs0mg"},{"bike_id":"afbae454-2b72-48a8-8e00-8f7ad9c55d77","system_id":"levelo_inurba_marseille","lat":43.3015,"lon":5.38087,"is_reserved":false,"is_disabled":true,"rental_uris":{"android":"levelo://app?vid=afbae454-2b72-48a8-8e00-8f7ad9c55d77","ios":"levelo://app?vid=afbae454-2b72-48a8-8e00-8f7ad9c55d77"},"vehicle_type_id":"4","last_reported":1737706344,"current_range_meters":26800,"station_id":"ce4bgjp2rcd13ifvqbh0","pricing_plan_id":"cebpf4jnsgd1na2vs0mg"},{"bike_id":"545d0c7e-8955-4a7d-89ad-8eb345691954","system_id":"levelo_inurba_marseille","lat":43.26184,"lon":5.3747,"is_reserved":false,"is_disabled":false,"rental_uris":{"android":"levelo://app?vid=545d0c7e-8955-4a7d-89ad-8eb345691954","ios":"levelo://app?vid=545d0c7e-8955-4a7d-89ad-8eb345691954"},"vehicle_type_id":"4","last_reported":1737706344,"current_range_meters":3600,"station_id":"ce4bhgp2rcd13ifvqfc0","pricing_plan_id":"cebpf4jnsgd1na2vs0mg"},{"bike_id":"d8e8b75f-a794-4d72-85e8-ae788703f778","system_id":"levelo_inurba_marseille","lat":43.30527,"lon":5.36721,"is_reserved":false,"is_disabled":false,"rental_uris":{"android":"levelo://app?vid=d8e8b75f-a794-4d72-85e8-ae788703f778","ios":"levelo://app?vid=d8e8b75f-a794-4d72-85e8-ae788703f778"},"vehicle_type_id":"4","last_reported":1737706344,"current_range_meters":32400,"station_id":"ce4bgrp2rcd13ifvqc9g","pricing_plan_id":"cebpf4jnsgd1na2vs0mg"},{"bike_id":"800072cb-ee31-4842-9e83-7d0a3b152503","system_id":"levelo_inurba_marseille","lat":43.27491,"lon":5.42464,"is_reserved":false,"is_disabled":false,"rental_uris":{"android":"levelo://app?vid=800072cb-ee31-4842-9e83-7d0a3b152503","ios":"levelo://app?vid=800072cb-ee31-4842-9e83-7d0a3b152503"},"vehicle_type_id":"4","last_reported":1737706344,"current_range_meters":27600,"station_id":"ce4bhn92rcd13ifvqgrg","pricing_plan_id":"cebpf4jnsgd1na2vs0mg"},{"bike_id":"0aaa049d-0f24-4e97-8f12-c04bc7a90c66","system_id":"levelo_inurba_marseille","lat":43.30859,"lon":5.39647,"is_reserved":false,"is_disabled":false,"rental_uris":{"android":"levelo://app?vid=0aaa049d-0f24-4e97-8f12-c04bc7a90c66","ios":"levelo://app?vid=0aaa049d-0f24-4e97-8f12-c04bc7a90c66"},"vehicle_type_id":"4","last_reported":1737706344,"current_range_meters":38800,"station_id":"","pricing_plan_id":"cebpf4jnsgd1na2vs0mg"},{"bike_id":"d633a65e-3110-4788-a0b1-0858259a2448","system_id":"levelo_inurba_marseille","lat":43.2781,"lon":5.40708,"is_reserved":false,"is_disabled":false,"rental_uris":{"android":"levelo://app?vid=d633a65e-3110-4788-a0b1-0858259a2448","ios":"levelo://app?vid=d633a65e-3110-4788-a0b1-0858259a2448"},"vehicle_type_id":"4","last_reported":1737706344,"current_range_meters":29600,"station_id":"ce4bhnh2rcd13ifvqgtg","pricing_plan_id":"cebpf4jnsgd1na2vs0mg"},{"bike_id":"6ef9b078-758c-484c-88ff-72c3a69da2c0","system_id":"levelo_inurba_marseille","lat":43.33612,"lon":5.41038,"is_reserved":false,"is_disabled":false,"rental_uris":{"android":"levelo://app?vid=6ef9b078-758c-484c-88ff-72c3a69da2c0","ios":"levelo://app?vid=6ef9b078-758c-484c-88ff-72c3a69da2c0"},"vehicle_type_id":"4","last_reported":1737706344,"current_range_meters":4800,"station_id":"ce4bhqh2rcd13ifvqhmg","pricing_plan_id":"cebpf4jnsgd1na2vs0mg"},{"bike_id":"80aa88f4-1abc-4e65-b1ce-21deee9bad13","system_id":"levelo_inurba_marseille","lat":43.30953,"lon":5.39018,"is_reserved":false,"is_disabled":false,"rental_uris":{"android":"levelo://app?vid=80aa88f4-1abc-4e65-b1ce-21deee9bad13","ios":"levelo://app?vid=80aa88f4-1abc-4e65-b1ce-21deee9bad13"},"vehicle_type_id":"4","last_reported":1737706344,"current_range_meters":30800,"station_id":"ce4bgup2rcd13ifvqco0","pricing_plan_id":"cebpf4jnsgd1na2vs0mg"},{"bike_id":"41070246-a130-4f17-9795-3d083309507a","system_id":"levelo_inurba_marseille","lat":43.25853,"lon":5.39912,"is_reserved":false,"is_disabled":false,"rental_uris":{"android":"levelo://app?vid=41070246-a130-4f17-9795-3d083309507a","ios":"levelo://app?vid=41070246-a130-4f17-9795-3d083309507a"},"vehicle_type_id":"4","last_reported":1737706344,"current_range_meters":20400,"station_id":"ce4bhl92rcd13ifvqghg","pricing_plan_id":"cebpf4jnsgd1na2vs0mg"},{"bike_id":"20fd9b95-fa1e-4176-bded-bb9737cd3dab","system_id":"levelo_inurba_marseille","lat":43.29199,"lon":5.35795,"is_reserved":false,"is_disabled":false,"rental_uris":{"android":"levelo://app?vid=20fd9b95-fa1e-4176-bded-bb9737cd3dab","ios":"levelo://app?vid=20fd9b95-fa1e-4176-bded-bb9737cd3dab"},"vehicle_type_id":"4","last_reported":1737706344,"current_range_meters":39200,"station_id":"ce4bhb12rcd13ifvqel0","pricing_plan_id":"cebpf4jnsgd1na2vs0mg"},{"bike_id":"14140d64-11c8-4900-a91d-fbf7f942ec95","system_id":"levelo_inurba_marseille","lat":43.27554,"lon":5.38423,"is_reserved":false,"is_disabled":true,"rental_uris":{"android":"levelo://app?vid=14140d64-11c8-4900-a91d-fbf7f942ec95","ios":"levelo://app?vid=14140d64-11c8-4900-a91d-fbf7f942ec95"},"vehicle_type_id":"4","last_reported":1737706344,"current_range_meters":20400,"station_id":"ce4bhh92rcd13ifvqfi0","pricing_plan_id":"cebpf4jnsgd1na2vs0mg"},{"bike_id":"13145640-31d5-45b9-bbc5-b237e555f374","system_id":"levelo_inurba_marseille","lat":43.27972,"lon":5.38754,"is_reserved":false,"is_disabled":false,"rental_uris":{"android":"levelo://app?vid=13145640-31d5-45b9-bbc5-b237e555f374","ios":"levelo://app?vid=13145640-31d5-45b9-bbc5-b237e555f374"},"vehicle_type_id":"4","last_reported":1737706344,"current_range_meters":26800,"station_id":"ce4bhg12rcd13ifvqf80","pricing_plan_id":"cebpf4jnsgd1na2vs0mg"},{"bike_id":"5bdbe150-9b84-4e55-bac6-cff13ce5d19f","system_id":"levelo_inurba_marseille","lat":43.30604,"lon":5.36595,"is_reserved":false,"is_disabled":false,"rental_uris":{"android":"levelo://app?vid=5bdbe150-9b84-4e55-bac6-cff13ce5d19f","ios":"levelo://app?vid=5bdbe150-9b84-4e55-bac6-cff13ce5d19f"},"vehicle_type_id":"4","last_reported":1737706344,"current_range_meters":20400,"station_id":"ce4bgrp2rcd13ifvqc9g","pricing_plan_id":"cebpf4jnsgd1na2vs0mg"},{"bike_id":"48036354-23c1-4722-8659-5207acc83023","system_id":"levelo_inurba_marseille","lat":43.29278,"lon":5.36847,"is_reserved":false,"is_disabled":false,"rental_uris":{"android":"levelo://app?vid=48036354-23c1-4722-8659-5207acc83023","ios":"levelo://app?vid=48036354-23c1-4722-8659-5207acc83023"},"vehicle_type_id":"4","last_reported":1737706344,"current_range_meters":35200,"station_id":"ce4bhbp2rcd13ifvqesg","pricing_plan_id":"cebpf4jnsgd1na2vs0mg"},{"bike_id":"651de9ba-34f8-4bea-93ad-15a01c05be45","system_id":"levelo_inurba_marseille","lat":43.321082,"lon":5.36778,"is_reserved":false,"is_disabled":false,"rental_uris":{"android":"levelo://app?vid=651de9ba-34f8-4bea-93ad-15a01c05be45","ios":"levelo://app?vid=651de9ba-34f8-4bea-93ad-15a01c05be45"},"vehicle_type_id":"4","last_reported":1737706344,"current_range_meters":32000,"station_id":"ce4bhrh2rcd13ifvqhug","pricing_plan_id":"cebpf4jnsgd1na2vs0mg"},{"bike_id":"2b5f67dd-f0e0-4724-bc4a-a13b0862ca51","system_id":"levelo_inurba_marseille","lat":43.29887,"lon":5.38123,"is_reserved":false,"is_disabled":true,"rental_uris":{"android":"levelo://app?vid=2b5f67dd-f0e0-4724-bc4a-a13b0862ca51","ios":"levelo://app?vid=2b5f67dd-f0e0-4724-bc4a-a13b0862ca51"},"vehicle_type_id":"4","last_reported":1737706344,"current_range_meters":400,"station_id":"ce4bgj12rcd13ifvqbc0","pricing_plan_id":"cebpf4jnsgd1na2vs0mg"},{"bike_id":"df919f89-fed5-4c37-ad82-a346d39144e4","system_id":"levelo_inurba_marseille","lat":43.31329,"lon":5.39683,"is_reserved":false,"is_disabled":false,"rental_uris":{"android":"levelo://app?vid=df919f89-fed5-4c37-ad82-a346d39144e4","ios":"levelo://app?vid=df919f89-fed5-4c37-ad82-a346d39144e4"},"vehicle_type_id":"4","last_reported":1737706344,"current_range_meters":38800,"station_id":"ce4bgvp2rcd13ifvqcu0","pricing_plan_id":"cebpf4jnsgd1na2vs0mg"},{"bike_id":"df17b08c-c0a8-4101-b954-a8ea48a23f87","system_id":"levelo_inurba_marseille","lat":43.32538,"lon":5.41457,"is_reserved":false,"is_disabled":false,"rental_uris":{"android":"levelo://app?vid=df17b08c-c0a8-4101-b954-a8ea48a23f87","ios":"levelo://app?vid=df17b08c-c0a8-4101-b954-a8ea48a23f87"},"vehicle_type_id":"4","last_reported":1737706344,"current_range_meters":17600,"station_id":"ce4bhq12rcd13ifvqhhg","pricing_plan_id":"cebpf4jnsgd1na2vs0mg"},{"bike_id":"bd193e3c-7cf2-4b31-9301-23f18093f62b","system_id":"levelo_inurba_marseille","lat":43.30203,"lon":5.38965,"is_reserved":false,"is_disabled":false,"rental_uris":{"android":"levelo://app?vid=bd193e3c-7cf2-4b31-9301-23f18093f62b","ios":"levelo://app?vid=bd193e3c-7cf2-4b31-9301-23f18093f62b"},"vehicle_type_id":"4","last_reported":1737706344,"current_range_meters":23200,"station_id":"ce4bhh12rcd13ifvqfg0","pricing_plan_id":"cebpf4jnsgd1na2vs0mg"},{"bike_id":"545ed6e3-0d7c-44d7-afc3-19d942ccdead","system_id":"levelo_inurba_marseille","lat":43.28272,"lon":5.35093,"is_reserved":false,"is_disabled":false,"rental_uris":{"android":"levelo://app?vid=545ed6e3-0d7c-44d7-afc3-19d942ccdead","ios":"levelo://app?vid=545ed6e3-0d7c-44d7-afc3-19d942ccdead"},"vehicle_type_id":"4","last_reported":1737706344,"current_range_meters":24000,"station_id":"ce4bhbp2rcd13ifvqerg","pricing_plan_id":"cebpf4jnsgd1na2vs0mg"},{"bike_id":"0af6d497-19c9-433b-9557-19fa7238658c","system_id":"levelo_inurba_marseille","lat":43.27966,"lon":5.38724,"is_reserved":false,"is_disabled":true,"rental_uris":{"android":"levelo://app?vid=0af6d497-19c9-433b-9557-19fa7238658c","ios":"levelo://app?vid=0af6d497-19c9-433b-9557-19fa7238658c"},"vehicle_type_id":"4","last_reported":1737706344,"current_range_meters":36400,"station_id":"ce4bhg12rcd13ifvqf80","pricing_plan_id":"cebpf4jnsgd1na2vs0mg"},{"bike_id":"69abbcdd-97d9-4ecd-bd13-96e1514099da","system_id":"levelo_inurba_marseille","lat":43.30467,"lon":5.37913,"is_reserved":false,"is_disabled":false,"rental_uris":{"android":"levelo://app?vid=69abbcdd-97d9-4ecd-bd13-96e1514099da","ios":"levelo://app?vid=69abbcdd-97d9-4ecd-bd13-96e1514099da"},"vehicle_type_id":"4","last_reported":1737706344,"current_range_meters":31200,"station_id":"ce4bgup2rcd13ifvqcn0","pricing_plan_id":"cebpf4jnsgd1na2vs0mg"},{"bike_id":"781e08dd-496a-4d9a-ad41-4d4f4314f24b","system_id":"levelo_inurba_marseille","lat":43.31702,"lon":5.37774,"is_reserved":false,"is_disabled":false,"rental_uris":{"android":"levelo://app?vid=781e08dd-496a-4d9a-ad41-4d4f4314f24b","ios":"levelo://app?vid=781e08dd-496a-4d9a-ad41-4d4f4314f24b"},"vehicle_type_id":"4","last_reported":1737706344,"current_range_meters":36800,"station_id":"ce4bgth2rcd13ifvqch0","pricing_plan_id":"cebpf4jnsgd1na2vs0mg"},{"bike_id":"82d8b810-9ccc-4f2c-a9c2-2d5485c4133b","system_id":"levelo_inurba_marseille","lat":43.3094,"lon":5.39092,"is_reserved":false,"is_disabled":false,"rental_uris":{"android":"levelo://app?vid=82d8b810-9ccc-4f2c-a9c2-2d5485c4133b","ios":"levelo://app?vid=82d8b810-9ccc-4f2c-a9c2-2d5485c4133b"},"vehicle_type_id":"4","last_reported":1737706344,"current_range_meters":11200,"station_id":"ce4bgup2rcd13ifvqco0","pricing_plan_id":"cebpf4jnsgd1na2vs0mg"},{"bike_id":"f74a82c9-5e54-4bd6-8eac-1181a9e04273","system_id":"levelo_inurba_marseille","lat":43.24166,"lon":5.36393,"is_reserved":false,"is_disabled":false,"rental_uris":{"android":"levelo://app?vid=f74a82c9-5e54-4bd6-8eac-1181a9e04273","ios":"levelo://app?vid=f74a82c9-5e54-4bd6-8eac-1181a9e04273"},"vehicle_type_id":"4","last_reported":1737706344,"current_range_meters":6800,"station_id":"cpo36qri1sfpv3e86is0","pricing_plan_id":"cebpf4jnsgd1na2vs0mg"},{"bike_id":"cddfddb2-750c-4eb5-81cb-d5e65f4765d7","system_id":"levelo_inurba_marseille","lat":43.24681,"lon":5.42452,"is_reserved":false,"is_disabled":true,"rental_uris":{"android":"levelo://app?vid=cddfddb2-750c-4eb5-81cb-d5e65f4765d7","ios":"levelo://app?vid=cddfddb2-750c-4eb5-81cb-d5e65f4765d7"},"vehicle_type_id":"4","last_reported":1737706344,"current_range_meters":0,"station_id":"","pricing_plan_id":"cebpf4jnsgd1na2vs0mg"},{"bike_id":"5f53a322-1a51-470c-bb92-23ccdfd5d7ca","system_id":"levelo_inurba_marseille","lat":43.25581,"lon":5.38239,"is_reserved":false,"is_disabled":false,"rental_uris":{"android":"levelo://app?vid=5f53a322-1a51-470c-bb92-23ccdfd5d7ca","ios":"levelo://app?vid=5f53a322-1a51-470c-bb92-23ccdfd5d7ca"},"vehicle_type_id":"4","last_reported":1737706344,"current_range_meters":20800,"station_id":"ce4bhih2rcd13ifvqfs0","pricing_plan_id":"cebpf4jnsgd1na2vs0mg"},{"bike_id":"5e75dd30-ab3b-44d3-8dcb-cb5fd4a0eb65","system_id":"levelo_inurba_marseille","lat":43.24627,"lon":5.38895,"is_reserved":false,"is_disabled":false,"rental_uris":{"android":"levelo://app?vid=5e75dd30-ab3b-44d3-8dcb-cb5fd4a0eb65","ios":"levelo://app?vid=5e75dd30-ab3b-44d3-8dcb-cb5fd4a0eb65"},"vehicle_type_id":"4","last_reported":1737706344,"current_range_meters":35600,"station_id":"ce4bhg12rcd13ifvqf60","pricing_plan_id":"cebpf4jnsgd1na2vs0mg"},{"bike_id":"adefa9e5-3f06-445b-ad30-81e9294b30ba","system_id":"levelo_inurba_marseille","lat":43.29843,"lon":5.36274,"is_reserved":false,"is_disabled":false,"rental_uris":{"android":"levelo://app?vid=adefa9e5-3f06-445b-ad30-81e9294b30ba","ios":"levelo://app?vid=adefa9e5-3f06-445b-ad30-81e9294b30ba"},"vehicle_type_id":"4","last_reported":1737706344,"current_range_meters":28400,"station_id":"ce4bgpp2rcd13ifvqc3g","pricing_plan_id":"cebpf4jnsgd1na2vs0mg"},{"bike_id":"9842fa31-dd86-411e-bc01-7bd2634d5bd4","system_id":"levelo_inurba_marseille","lat":43.30309,"lon":5.3692,"is_reserved":false,"is_disabled":false,"rental_uris":{"android":"levelo://app?vid=9842fa31-dd86-411e-bc01-7bd2634d5bd4","ios":"levelo://app?vid=9842fa31-dd86-411e-bc01-7bd2634d5bd4"},"vehicle_type_id":"4","last_reported":1737706344,"current_range_meters":26800,"station_id":"ce4bgqh2rcd13ifvqc5g","pricing_plan_id":"cebpf4jnsgd1na2vs0mg"},{"bike_id":"1f4cc9a1-a6f1-42ee-8f62-d3fd1b2849a6","system_id":"levelo_inurba_marseille","lat":43.23189,"lon":5.39979,"is_reserved":false,"is_disabled":false,"rental_uris":{"android":"levelo://app?vid=1f4cc9a1-a6f1-42ee-8f62-d3fd1b2849a6","ios":"levelo://app?vid=1f4cc9a1-a6f1-42ee-8f62-d3fd1b2849a6"},"vehicle_type_id":"4","last_reported":1737706344,"current_range_meters":5600,"station_id":"ce4bhn12rcd13ifvqgqg","pricing_plan_id":"cebpf4jnsgd1na2vs0mg"},{"bike_id":"92c1a6af-3380-4e04-bec9-7eeb2f93c937","system_id":"levelo_inurba_marseille","lat":43.27488,"lon":5.42468,"is_reserved":false,"is_disabled":false,"rental_uris":{"android":"levelo://app?vid=92c1a6af-3380-4e04-bec9-7eeb2f93c937","ios":"levelo://app?vid=92c1a6af-3380-4e04-bec9-7eeb2f93c937"},"vehicle_type_id":"4","last_reported":1737706344,"current_range_meters":35200,"station_id":"ce4bhn92rcd13ifvqgrg","pricing_plan_id":"cebpf4jnsgd1na2vs0mg"},{"bike_id":"70028081-a6eb-4063-9c3e-108b4f1fc959","system_id":"levelo_inurba_marseille","lat":43.30472,"lon":5.37907,"is_reserved":false,"is_disabled":false,"rental_uris":{"android":"levelo://app?vid=70028081-a6eb-4063-9c3e-108b4f1fc959","ios":"levelo://app?vid=70028081-a6eb-4063-9c3e-108b4f1fc959"},"vehicle_type_id":"4","last_reported":1737706344,"current_range_meters":20000,"station_id":"ce4bgup2rcd13ifvqcn0","pricing_plan_id":"cebpf4jnsgd1na2vs0mg"},{"bike_id":"9838cc78-2b53-49d3-ae13-82df62c4fd64","system_id":"levelo_inurba_marseille","lat":43.28435,"lon":5.40935,"is_reserved":false,"is_disabled":true,"rental_uris":{"android":"levelo://app?vid=9838cc78-2b53-49d3-ae13-82df62c4fd64","ios":"levelo://app?vid=9838cc78-2b53-49d3-ae13-82df62c4fd64"},"vehicle_type_id":"4","last_reported":1737706344,"current_range_meters":1600,"station_id":"","pricing_plan_id":"cebpf4jnsgd1na2vs0mg"},{"bike_id":"70f4baca-3d50-4fff-8ed7-e04bde78ff10","system_id":"levelo_inurba_marseille","lat":43.262,"lon":5.37932,"is_reserved":false,"is_disabled":false,"rental_uris":{"android":"levelo://app?vid=70f4baca-3d50-4fff-8ed7-e04bde78ff10","ios":"levelo://app?vid=70f4baca-3d50-4fff-8ed7-e04bde78ff10"},"vehicle_type_id":"4","last_reported":1737706344,"current_range_meters":39200,"station_id":"ce4bhjp2rcd13ifvqg90","pricing_plan_id":"cebpf4jnsgd1na2vs0mg"},{"bike_id":"d18ba9c4-301e-4334-ab8c-9102f5285b2b","system_id":"levelo_inurba_marseille","lat":43.27496,"lon":5.42457,"is_reserved":false,"is_disabled":false,"rental_uris":{"android":"levelo://app?vid=d18ba9c4-301e-4334-ab8c-9102f5285b2b","ios":"levelo://app?vid=d18ba9c4-301e-4334-ab8c-9102f5285b2b"},"vehicle_type_id":"4","last_reported":1737706344,"current_range_meters":24800,"station_id":"ce4bhn92rcd13ifvqgrg","pricing_plan_id":"cebpf4jnsgd1na2vs0mg"},{"bike_id":"f7e9a264-e55e-41ea-b5bd-d15a2b2c80ac","system_id":"levelo_inurba_marseille","lat":43.29307,"lon":5.3718,"is_reserved":false,"is_disabled":false,"rental_uris":{"android":"levelo://app?vid=f7e9a264-e55e-41ea-b5bd-d15a2b2c80ac","ios":"levelo://app?vid=f7e9a264-e55e-41ea-b5bd-d15a2b2c80ac"},"vehicle_type_id":"4","last_reported":1737706344,"current_range_meters":16000,"station_id":"ce4bgh92rcd13ifvqb40","pricing_plan_id":"cebpf4jnsgd1na2vs0mg"},{"bike_id":"bf096a89-ee72-4f37-85bd-7b3cf9f0cb41","system_id":"levelo_inurba_marseille","lat":43.31928,"lon":5.37907,"is_reserved":false,"is_disabled":false,"rental_uris":{"android":"levelo://app?vid=bf096a89-ee72-4f37-85bd-7b3cf9f0cb41","ios":"levelo://app?vid=bf096a89-ee72-4f37-85bd-7b3cf9f0cb41"},"vehicle_type_id":"4","last_reported":1737706344,"current_range_meters":36000,"station_id":"","pricing_plan_id":"cebpf4jnsgd1na2vs0mg"},{"bike_id":"7c3bd0e2-676e-4ed4-93b1-815c7a4e0973","system_id":"levelo_inurba_marseille","lat":43.24074,"lon":5.37747,"is_reserved":false,"is_disabled":true,"rental_uris":{"android":"levelo://app?vid=7c3bd0e2-676e-4ed4-93b1-815c7a4e0973","ios":"levelo://app?vid=7c3bd0e2-676e-4ed4-93b1-815c7a4e0973"},"vehicle_type_id":"4","last_reported":1737706344,"current_range_meters":2000,"station_id":"ce4bhnp2rcd13ifvqgvg","pricing_plan_id":"cebpf4jnsgd1na2vs0mg"},{"bike_id":"c6608aa1-12d7-485e-b6e9-50f10fb23e1a","system_id":"levelo_inurba_marseille","lat":43.28955,"lon":5.37853,"is_reserved":false,"is_disabled":false,"rental_uris":{"android":"levelo://app?vid=c6608aa1-12d7-485e-b6e9-50f10fb23e1a","ios":"levelo://app?vid=c6608aa1-12d7-485e-b6e9-50f10fb23e1a"},"vehicle_type_id":"4","last_reported":1737706344,"current_range_meters":27600,"station_id":"ce4bh9p2rcd13ifvqed0","pricing_plan_id":"cebpf4jnsgd1na2vs0mg"},{"bike_id":"634d56c1-a2c0-4178-97ec-f77ccc52b51c","system_id":"levelo_inurba_marseille","lat":43.231923,"lon":5.399739,"is_reserved":false,"is_disabled":false,"rental_uris":{"android":"levelo://app?vid=634d56c1-a2c0-4178-97ec-f77ccc52b51c","ios":"levelo://app?vid=634d56c1-a2c0-4178-97ec-f77ccc52b51c"},"vehicle_type_id":"4","last_reported":1737706344,"current_range_meters":32000,"station_id":"ce4bhn12rcd13ifvqgqg","pricing_plan_id":"cebpf4jnsgd1na2vs0mg"},{"bike_id":"f7770a36-5a1c-4d0c-b873-623db0bb27c4","system_id":"levelo_inurba_marseille","lat":43.30907,"lon":5.36796,"is_reserved":false,"is_disabled":false,"rental_uris":{"android":"levelo://app?vid=f7770a36-5a1c-4d0c-b873-623db0bb27c4","ios":"levelo://app?vid=f7770a36-5a1c-4d0c-b873-623db0bb27c4"},"vehicle_type_id":"4","last_reported":1737706344,"current_range_meters":38800,"station_id":"ce4bgn92rcd13ifvqbvg","pricing_plan_id":"cebpf4jnsgd1na2vs0mg"},{"bike_id":"43c2b797-a38a-43fd-aa2a-449e0417b563","system_id":"levelo_inurba_marseille","lat":43.31275,"lon":5.40173,"is_reserved":false,"is_disabled":false,"rental_uris":{"android":"levelo://app?vid=43c2b797-a38a-43fd-aa2a-449e0417b563","ios":"levelo://app?vid=43c2b797-a38a-43fd-aa2a-449e0417b563"},"vehicle_type_id":"4","last_reported":1737706344,"current_range_meters":38800,"station_id":"ce4bh092rcd13ifvqd30","pricing_plan_id":"cebpf4jnsgd1na2vs0mg"},{"bike_id":"308e358e-cb1f-4b62-8103-eeb5731f0b2e","system_id":"levelo_inurba_marseille","lat":43.29522,"lon":5.37505,"is_reserved":false,"is_disabled":false,"rental_uris":{"android":"levelo://app?vid=308e358e-cb1f-4b62-8103-eeb5731f0b2e","ios":"levelo://app?vid=308e358e-cb1f-4b62-8103-eeb5731f0b2e"},"vehicle_type_id":"4","last_reported":1737706344,"current_range_meters":36000,"station_id":"ce4bgkp2rcd13ifvqbmg","pricing_plan_id":"cebpf4jnsgd1na2vs0mg"},{"bike_id":"ca086e44-bf3e-42cf-9cdd-4fb5146d5c95","system_id":"levelo_inurba_marseille","lat":43.30458,"lon":5.37908,"is_reserved":false,"is_disabled":false,"rental_uris":{"android":"levelo://app?vid=ca086e44-bf3e-42cf-9cdd-4fb5146d5c95","ios":"levelo://app?vid=ca086e44-bf3e-42cf-9cdd-4fb5146d5c95"},"vehicle_type_id":"4","last_reported":1737706344,"current_range_meters":38800,"station_id":"ce4bgup2rcd13ifvqcn0","pricing_plan_id":"cebpf4jnsgd1na2vs0mg"},{"bike_id":"bf232eb6-ff63-4ac8-9eb0-5e3d769ec9cd","system_id":"levelo_inurba_marseille","lat":43.313549,"lon":5.367123,"is_reserved":false,"is_disabled":false,"rental_uris":{"android":"levelo://app?vid=bf232eb6-ff63-4ac8-9eb0-5e3d769ec9cd","ios":"levelo://app?vid=bf232eb6-ff63-4ac8-9eb0-5e3d769ec9cd"},"vehicle_type_id":"4","last_reported":1737706344,"current_range_meters":33200,"station_id":"ce4bgr92rcd13ifvqc6g","pricing_plan_id":"cebpf4jnsgd1na2vs0mg"},{"bike_id":"823f5e62-6792-4b71-9479-360bc5d7ee1c","system_id":"levelo_inurba_marseille","lat":43.29239,"lon":5.36088,"is_reserved":false,"is_disabled":false,"rental_uris":{"android":"levelo://app?vid=823f5e62-6792-4b71-9479-360bc5d7ee1c","ios":"levelo://app?vid=823f5e62-6792-4b71-9479-360bc5d7ee1c"},"vehicle_type_id":"4","last_reported":1737706344,"current_range_meters":30000,"station_id":"ce4bhbh2rcd13ifvqeqg","pricing_plan_id":"cebpf4jnsgd1na2vs0mg"},{"bike_id":"ad287a01-ade7-476c-a87f-d359846cb4aa","system_id":"levelo_inurba_marseille","lat":43.32033,"lon":5.41555,"is_reserved":false,"is_disabled":false,"rental_uris":{"android":"levelo://app?vid=ad287a01-ade7-476c-a87f-d359846cb4aa","ios":"levelo://app?vid=ad287a01-ade7-476c-a87f-d359846cb4aa"},"vehicle_type_id":"4","last_reported":1737706344,"current_range_meters":3200,"station_id":"ce4bhq92rcd13ifvqhkg","pricing_plan_id":"cebpf4jnsgd1na2vs0mg"},{"bike_id":"b9dcfac4-f40a-4f26-89ed-d733bf6be422","system_id":"levelo_inurba_marseille","lat":43.30355,"lon":5.41903,"is_reserved":false,"is_disabled":false,"rental_uris":{"android":"levelo://app?vid=b9dcfac4-f40a-4f26-89ed-d733bf6be422","ios":"levelo://app?vid=b9dcfac4-f40a-4f26-89ed-d733bf6be422"},"vehicle_type_id":"4","last_reported":1737706344,"current_range_meters":19600,"station_id":"ce4bhop2rcd13ifvqh7g","pricing_plan_id":"cebpf4jnsgd1na2vs0mg"},{"bike_id":"b1350c89-a295-42ef-b3a2-f01d5d977dd1","system_id":"levelo_inurba_marseille","lat":43.30142,"lon":5.38076,"is_reserved":false,"is_disabled":false,"rental_uris":{"android":"levelo://app?vid=b1350c89-a295-42ef-b3a2-f01d5d977dd1","ios":"levelo://app?vid=b1350c89-a295-42ef-b3a2-f01d5d977dd1"},"vehicle_type_id":"4","last_reported":1737706344,"current_range_meters":17600,"station_id":"ce4bgjp2rcd13ifvqbh0","pricing_plan_id":"cebpf4jnsgd1na2vs0mg"},{"bike_id":"050bd42b-0fa4-4ea3-8a02-3c1196960ece","system_id":"levelo_inurba_marseille","lat":43.3167,"lon":5.37393,"is_reserved":false,"is_disabled":false,"rental_uris":{"android":"levelo://app?vid=050bd42b-0fa4-4ea3-8a02-3c1196960ece","ios":"levelo://app?vid=050bd42b-0fa4-4ea3-8a02-3c1196960ece"},"vehicle_type_id":"4","last_reported":1737706344,"current_range_meters":24400,"station_id":"","pricing_plan_id":"cebpf4jnsgd1na2vs0mg"},{"bike_id":"b8e3f34c-b1e0-40d9-833b-11a6b0e6c9c6","system_id":"levelo_inurba_marseille","lat":43.27495,"lon":5.42473,"is_reserved":false,"is_disabled":false,"rental_uris":{"android":"levelo://app?vid=b8e3f34c-b1e0-40d9-833b-11a6b0e6c9c6","ios":"levelo://app?vid=b8e3f34c-b1e0-40d9-833b-11a6b0e6c9c6"},"vehicle_type_id":"4","last_reported":1737706344,"current_range_meters":32400,"station_id":"ce4bhn92rcd13ifvqgrg","pricing_plan_id":"cebpf4jnsgd1na2vs0mg"},{"bike_id":"e3d72c5b-33fb-4d8e-8eae-71ee161e14bd","system_id":"levelo_inurba_marseille","lat":43.30924,"lon":5.36831,"is_reserved":false,"is_disabled":false,"rental_uris":{"android":"levelo://app?vid=e3d72c5b-33fb-4d8e-8eae-71ee161e14bd","ios":"levelo://app?vid=e3d72c5b-33fb-4d8e-8eae-71ee161e14bd"},"vehicle_type_id":"4","last_reported":1737706344,"current_range_meters":24000,"station_id":"ce4bgn92rcd13ifvqbvg","pricing_plan_id":"cebpf4jnsgd1na2vs0mg"},{"bike_id":"0ad149d9-6e33-405d-aa3c-5e42e0c0ed7d","system_id":"levelo_inurba_marseille","lat":43.28145,"lon":5.42659,"is_reserved":false,"is_disabled":false,"rental_uris":{"android":"levelo://app?vid=0ad149d9-6e33-405d-aa3c-5e42e0c0ed7d","ios":"levelo://app?vid=0ad149d9-6e33-405d-aa3c-5e42e0c0ed7d"},"vehicle_type_id":"4","last_reported":1737706344,"current_range_meters":33200,"station_id":"ce4bhnh2rcd13ifvqgug","pricing_plan_id":"cebpf4jnsgd1na2vs0mg"},{"bike_id":"2f4fa984-4c44-4974-abb6-1d4b539de1f0","system_id":"levelo_inurba_marseille","lat":43.286793,"lon":5.386637,"is_reserved":false,"is_disabled":true,"rental_uris":{"android":"levelo://app?vid=2f4fa984-4c44-4974-abb6-1d4b539de1f0","ios":"levelo://app?vid=2f4fa984-4c44-4974-abb6-1d4b539de1f0"},"vehicle_type_id":"4","last_reported":1737706344,"current_range_meters":32800,"station_id":"ce4bh492rcd13ifvqdug","pricing_plan_id":"cebpf4jnsgd1na2vs0mg"},{"bike_id":"347dd29e-9a9e-4a37-8ddd-6e2050aaff03","system_id":"levelo_inurba_marseille","lat":43.33726,"lon":5.39188,"is_reserved":false,"is_disabled":false,"rental_uris":{"android":"levelo://app?vid=347dd29e-9a9e-4a37-8ddd-6e2050aaff03","ios":"levelo://app?vid=347dd29e-9a9e-4a37-8ddd-6e2050aaff03"},"vehicle_type_id":"4","last_reported":1737706344,"current_range_meters":38800,"station_id":"ce4bhr92rcd13ifvqhsg","pricing_plan_id":"cebpf4jnsgd1na2vs0mg"},{"bike_id":"e171ea3d-34a7-4bed-9418-eb3dcd6fd5da","system_id":"levelo_inurba_marseille","lat":43.30163,"lon":5.3814,"is_reserved":false,"is_disabled":true,"rental_uris":{"android":"levelo://app?vid=e171ea3d-34a7-4bed-9418-eb3dcd6fd5da","ios":"levelo://app?vid=e171ea3d-34a7-4bed-9418-eb3dcd6fd5da"},"vehicle_type_id":"4","last_reported":1737706344,"current_range_meters":0,"station_id":"ce4bgjp2rcd13ifvqbh0","pricing_plan_id":"cebpf4jnsgd1na2vs0mg"},{"bike_id":"69ae49c8-dae4-483c-a6fa-9d4961c23e96","system_id":"levelo_inurba_marseille","lat":43.25826,"lon":5.39432,"is_reserved":false,"is_disabled":false,"rental_uris":{"android":"levelo://app?vid=69ae49c8-dae4-483c-a6fa-9d4961c23e96","ios":"levelo://app?vid=69ae49c8-dae4-483c-a6fa-9d4961c23e96"},"vehicle_type_id":"4","last_reported":1737706344,"current_range_meters":22800,"station_id":"ce4bhip2rcd13ifvqft0","pricing_plan_id":"cebpf4jnsgd1na2vs0mg"},{"bike_id":"d7dbec56-3cb4-42dd-970e-b1e8e7b8f352","system_id":"levelo_inurba_marseille","lat":43.26679,"lon":5.38268,"is_reserved":false,"is_disabled":false,"rental_uris":{"android":"levelo://app?vid=d7dbec56-3cb4-42dd-970e-b1e8e7b8f352","ios":"levelo://app?vid=d7dbec56-3cb4-42dd-970e-b1e8e7b8f352"},"vehicle_type_id":"4","last_reported":1737706344,"current_range_meters":39200,"station_id":"ce4bhg92rcd13ifvqf90","pricing_plan_id":"cebpf4jnsgd1na2vs0mg"},{"bike_id":"71052cee-d40f-4b38-b6a6-8986bdc4eada","system_id":"levelo_inurba_marseille","lat":43.30869,"lon":5.37188,"is_reserved":false,"is_disabled":false,"rental_uris":{"android":"levelo://app?vid=71052cee-d40f-4b38-b6a6-8986bdc4eada","ios":"levelo://app?vid=71052cee-d40f-4b38-b6a6-8986bdc4eada"},"vehicle_type_id":"4","last_reported":1737706344,"current_range_meters":12800,"station_id":"ce4bguh2rcd13ifvqckg","pricing_plan_id":"cebpf4jnsgd1na2vs0mg"},{"bike_id":"0f29d1f4-f2e5-4e89-bd55-62e38b10dc53","system_id":"levelo_inurba_marseille","lat":43.2826,"lon":5.35089,"is_reserved":false,"is_disabled":false,"rental_uris":{"android":"levelo://app?vid=0f29d1f4-f2e5-4e89-bd55-62e38b10dc53","ios":"levelo://app?vid=0f29d1f4-f2e5-4e89-bd55-62e38b10dc53"},"vehicle_type_id":"4","last_reported":1737706344,"current_range_meters":8400,"station_id":"ce4bhbp2rcd13ifvqerg","pricing_plan_id":"cebpf4jnsgd1na2vs0mg"},{"bike_id":"fc4e4c1b-bfb9-4093-ab86-a90b3b9e08bc","system_id":"levelo_inurba_marseille","lat":43.3047,"lon":5.37926,"is_reserved":false,"is_disabled":false,"rental_uris":{"android":"levelo://app?vid=fc4e4c1b-bfb9-4093-ab86-a90b3b9e08bc","ios":"levelo://app?vid=fc4e4c1b-bfb9-4093-ab86-a90b3b9e08bc"},"vehicle_type_id":"4","last_reported":1737706344,"current_range_meters":28000,"station_id":"ce4bgup2rcd13ifvqcn0","pricing_plan_id":"cebpf4jnsgd1na2vs0mg"},{"bike_id":"90b8a1b1-ad54-458d-9362-f5197bbdf048","system_id":"levelo_inurba_marseille","lat":43.22919,"lon":5.35384,"is_reserved":false,"is_disabled":false,"rental_uris":{"android":"levelo://app?vid=90b8a1b1-ad54-458d-9362-f5197bbdf048","ios":"levelo://app?vid=90b8a1b1-ad54-458d-9362-f5197bbdf048"},"vehicle_type_id":"4","last_reported":1737706344,"current_range_meters":38400,"station_id":"cpo3532slgdg3j2ikp40","pricing_plan_id":"cebpf4jnsgd1na2vs0mg"},{"bike_id":"1c66e932-63ee-4c4b-a135-c1271c7dcb5e","system_id":"levelo_inurba_marseille","lat":43.26198,"lon":5.37933,"is_reserved":false,"is_disabled":false,"rental_uris":{"android":"levelo://app?vid=1c66e932-63ee-4c4b-a135-c1271c7dcb5e","ios":"levelo://app?vid=1c66e932-63ee-4c4b-a135-c1271c7dcb5e"},"vehicle_type_id":"4","last_reported":1737706344,"current_range_meters":17600,"station_id":"ce4bhjp2rcd13ifvqg90","pricing_plan_id":"cebpf4jnsgd1na2vs0mg"},{"bike_id":"82563645-5192-4988-a48b-2e9d9ff2508a","system_id":"levelo_inurba_marseille","lat":43.26191,"lon":5.37446,"is_reserved":false,"is_disabled":false,"rental_uris":{"android":"levelo://app?vid=82563645-5192-4988-a48b-2e9d9ff2508a","ios":"levelo://app?vid=82563645-5192-4988-a48b-2e9d9ff2508a"},"vehicle_type_id":"4","last_reported":1737706344,"current_range_meters":26000,"station_id":"ce4bhgp2rcd13ifvqfc0","pricing_plan_id":"cebpf4jnsgd1na2vs0mg"},{"bike_id":"957c5c39-c969-433b-b7aa-8c4e22652ec2","system_id":"levelo_inurba_marseille","lat":43.26948,"lon":5.38639,"is_reserved":false,"is_disabled":false,"rental_uris":{"android":"levelo://app?vid=957c5c39-c969-433b-b7aa-8c4e22652ec2","ios":"levelo://app?vid=957c5c39-c969-433b-b7aa-8c4e22652ec2"},"vehicle_type_id":"4","last_reported":1737706344,"current_range_meters":38800,"station_id":"ce4bhh92rcd13ifvqfh0","pricing_plan_id":"cebpf4jnsgd1na2vs0mg"},{"bike_id":"750f8951-c735-4fbb-8352-4d4326ecc358","system_id":"levelo_inurba_marseille","lat":43.33608,"lon":5.41028,"is_reserved":false,"is_disabled":false,"rental_uris":{"android":"levelo://app?vid=750f8951-c735-4fbb-8352-4d4326ecc358","ios":"levelo://app?vid=750f8951-c735-4fbb-8352-4d4326ecc358"},"vehicle_type_id":"4","last_reported":1737706344,"current_range_meters":23200,"station_id":"ce4bhqh2rcd13ifvqhmg","pricing_plan_id":"cebpf4jnsgd1na2vs0mg"},{"bike_id":"892132d6-6b6c-4d5b-9184-ef22870ce55b","system_id":"levelo_inurba_marseille","lat":43.27493,"lon":5.42454,"is_reserved":false,"is_disabled":false,"rental_uris":{"android":"levelo://app?vid=892132d6-6b6c-4d5b-9184-ef22870ce55b","ios":"levelo://app?vid=892132d6-6b6c-4d5b-9184-ef22870ce55b"},"vehicle_type_id":"4","last_reported":1737706344,"current_range_meters":38800,"station_id":"ce4bhn92rcd13ifvqgrg","pricing_plan_id":"cebpf4jnsgd1na2vs0mg"},{"bike_id":"8ab741be-bc39-4d58-99b5-1e8799530b00","system_id":"levelo_inurba_marseille","lat":43.29787,"lon":5.38076,"is_reserved":false,"is_disabled":false,"rental_uris":{"android":"levelo://app?vid=8ab741be-bc39-4d58-99b5-1e8799530b00","ios":"levelo://app?vid=8ab741be-bc39-4d58-99b5-1e8799530b00"},"vehicle_type_id":"4","last_reported":1737706344,"current_range_meters":38000,"station_id":"ce4bgip2rcd13ifvqbb0","pricing_plan_id":"cebpf4jnsgd1na2vs0mg"},{"bike_id":"a36d67d9-1b22-4bc4-b448-593bdb6036f2","system_id":"levelo_inurba_marseille","lat":43.27832,"lon":5.40723,"is_reserved":false,"is_disabled":false,"rental_uris":{"android":"levelo://app?vid=a36d67d9-1b22-4bc4-b448-593bdb6036f2","ios":"levelo://app?vid=a36d67d9-1b22-4bc4-b448-593bdb6036f2"},"vehicle_type_id":"4","last_reported":1737706344,"current_range_meters":36000,"station_id":"ce4bhnh2rcd13ifvqgtg","pricing_plan_id":"cebpf4jnsgd1na2vs0mg"},{"bike_id":"62069f6c-3dd9-4b79-9f44-941214b1a57f","system_id":"levelo_inurba_marseille","lat":43.299437,"lon":5.365334,"is_reserved":false,"is_disabled":false,"rental_uris":{"android":"levelo://app?vid=62069f6c-3dd9-4b79-9f44-941214b1a57f","ios":"levelo://app?vid=62069f6c-3dd9-4b79-9f44-941214b1a57f"},"vehicle_type_id":"4","last_reported":1737706344,"current_range_meters":37600,"station_id":"ce4bgm92rcd13ifvqbr0","pricing_plan_id":"cebpf4jnsgd1na2vs0mg"},{"bike_id":"beaaeb30-654c-48c6-9aa9-42162560a9b4","system_id":"levelo_inurba_marseille","lat":43.2695,"lon":5.38632,"is_reserved":false,"is_disabled":false,"rental_uris":{"android":"levelo://app?vid=beaaeb30-654c-48c6-9aa9-42162560a9b4","ios":"levelo://app?vid=beaaeb30-654c-48c6-9aa9-42162560a9b4"},"vehicle_type_id":"4","last_reported":1737706344,"current_range_meters":39200,"station_id":"ce4bhh92rcd13ifvqfh0","pricing_plan_id":"cebpf4jnsgd1na2vs0mg"},{"bike_id":"ce90fea6-ff2a-4d0b-bd4f-45ced0acf4c0","system_id":"levelo_inurba_marseille","lat":43.32346,"lon":5.36741,"is_reserved":false,"is_disabled":false,"rental_uris":{"android":"levelo://app?vid=ce90fea6-ff2a-4d0b-bd4f-45ced0acf4c0","ios":"levelo://app?vid=ce90fea6-ff2a-4d0b-bd4f-45ced0acf4c0"},"vehicle_type_id":"4","last_reported":1737706344,"current_range_meters":8400,"station_id":"ce4bhsh2rcd13ifvqi2g","pricing_plan_id":"cebpf4jnsgd1na2vs0mg"},{"bike_id":"ab13439f-1c4b-4b83-ac72-9f4e6d1f64cb","system_id":"levelo_inurba_marseille","lat":43.31251,"lon":5.37988,"is_reserved":false,"is_disabled":true,"rental_uris":{"android":"levelo://app?vid=ab13439f-1c4b-4b83-ac72-9f4e6d1f64cb","ios":"levelo://app?vid=ab13439f-1c4b-4b83-ac72-9f4e6d1f64cb"},"vehicle_type_id":"4","last_reported":1737706344,"current_range_meters":8000,"station_id":"","pricing_plan_id":"cebpf4jnsgd1na2vs0mg"},{"bike_id":"431299a0-21ec-4f6a-93fe-0d0fe6e96565","system_id":"levelo_inurba_marseille","lat":43.30308,"lon":5.36908,"is_reserved":false,"is_disabled":false,"rental_uris":{"android":"levelo://app?vid=431299a0-21ec-4f6a-93fe-0d0fe6e96565","ios":"levelo://app?vid=431299a0-21ec-4f6a-93fe-0d0fe6e96565"},"vehicle_type_id":"4","last_reported":1737706344,"current_range_meters":38800,"station_id":"ce4bgqh2rcd13ifvqc5g","pricing_plan_id":"cebpf4jnsgd1na2vs0mg"},{"bike_id":"02394dc5-85af-47df-a8e1-31c154c9e2cc","system_id":"levelo_inurba_marseille","lat":43.23185,"lon":5.39984,"is_reserved":false,"is_disabled":false,"rental_uris":{"android":"levelo://app?vid=02394dc5-85af-47df-a8e1-31c154c9e2cc","ios":"levelo://app?vid=02394dc5-85af-47df-a8e1-31c154c9e2cc"},"vehicle_type_id":"4","last_reported":1737706344,"current_range_meters":37600,"station_id":"ce4bhn12rcd13ifvqgqg","pricing_plan_id":"cebpf4jnsgd1na2vs0mg"},{"bike_id":"6836cb80-c910-4fb2-9935-b64b51e2d3f6","system_id":"levelo_inurba_marseille","lat":43.28352,"lon":5.38109,"is_reserved":false,"is_disabled":false,"rental_uris":{"android":"levelo://app?vid=6836cb80-c910-4fb2-9935-b64b51e2d3f6","ios":"levelo://app?vid=6836cb80-c910-4fb2-9935-b64b51e2d3f6"},"vehicle_type_id":"4","last_reported":1737706344,"current_range_meters":24800,"station_id":"ce4bh412rcd13ifvqdr0","pricing_plan_id":"cebpf4jnsgd1na2vs0mg"},{"bike_id":"882afe9e-c71c-45eb-a6f1-743114e17806","system_id":"levelo_inurba_marseille","lat":43.30462,"lon":5.37901,"is_reserved":false,"is_disabled":false,"rental_uris":{"android":"levelo://app?vid=882afe9e-c71c-45eb-a6f1-743114e17806","ios":"levelo://app?vid=882afe9e-c71c-45eb-a6f1-743114e17806"},"vehicle_type_id":"4","last_reported":1737706344,"current_range_meters":5600,"station_id":"ce4bgup2rcd13ifvqcn0","pricing_plan_id":"cebpf4jnsgd1na2vs0mg"},{"bike_id":"0d3f5817-39fa-40d7-ab9d-35c01033f435","system_id":"levelo_inurba_marseille","lat":43.26223,"lon":5.4045,"is_reserved":false,"is_disabled":true,"rental_uris":{"android":"levelo://app?vid=0d3f5817-39fa-40d7-ab9d-35c01033f435","ios":"levelo://app?vid=0d3f5817-39fa-40d7-ab9d-35c01033f435"},"vehicle_type_id":"4","last_reported":1737706344,"current_range_meters":0,"station_id":"","pricing_plan_id":"cebpf4jnsgd1na2vs0mg"},{"bike_id":"adf37ecb-7a79-450c-982d-303eae1f41ff","system_id":"levelo_inurba_marseille","lat":43.26684,"lon":5.38263,"is_reserved":false,"is_disabled":false,"rental_uris":{"android":"levelo://app?vid=adf37ecb-7a79-450c-982d-303eae1f41ff","ios":"levelo://app?vid=adf37ecb-7a79-450c-982d-303eae1f41ff"},"vehicle_type_id":"4","last_reported":1737706344,"current_range_meters":37600,"station_id":"ce4bhg92rcd13ifvqf90","pricing_plan_id":"cebpf4jnsgd1na2vs0mg"},{"bike_id":"78b03264-0c2d-45b5-9b0a-cf7cc454c0c6","system_id":"levelo_inurba_marseille","lat":43.32474,"lon":5.36586,"is_reserved":false,"is_disabled":false,"rental_uris":{"android":"levelo://app?vid=78b03264-0c2d-45b5-9b0a-cf7cc454c0c6","ios":"levelo://app?vid=78b03264-0c2d-45b5-9b0a-cf7cc454c0c6"},"vehicle_type_id":"4","last_reported":1737706344,"current_range_meters":37600,"station_id":"ce4bhs12rcd13ifvqhvg","pricing_plan_id":"cebpf4jnsgd1na2vs0mg"},{"bike_id":"c03a76c6-793f-4d79-a0b9-60022f52fc84","system_id":"levelo_inurba_marseille","lat":43.24402,"lon":5.37043,"is_reserved":false,"is_disabled":false,"rental_uris":{"android":"levelo://app?vid=c03a76c6-793f-4d79-a0b9-60022f52fc84","ios":"levelo://app?vid=c03a76c6-793f-4d79-a0b9-60022f52fc84"},"vehicle_type_id":"4","last_reported":1737706344,"current_range_meters":8400,"station_id":"ce4bhhh2rcd13ifvqfk0","pricing_plan_id":"cebpf4jnsgd1na2vs0mg"},{"bike_id":"6c4cccf7-41c9-46ed-a849-58513dcefd65","system_id":"levelo_inurba_marseille","lat":43.22911,"lon":5.35403,"is_reserved":false,"is_disabled":false,"rental_uris":{"android":"levelo://app?vid=6c4cccf7-41c9-46ed-a849-58513dcefd65","ios":"levelo://app?vid=6c4cccf7-41c9-46ed-a849-58513dcefd65"},"vehicle_type_id":"4","last_reported":1737706344,"current_range_meters":38800,"station_id":"cpo3532slgdg3j2ikp40","pricing_plan_id":"cebpf4jnsgd1na2vs0mg"},{"bike_id":"efcccd97-a21c-4651-bca9-251bfff03385","system_id":"levelo_inurba_marseille","lat":43.29222,"lon":5.36075,"is_reserved":false,"is_disabled":false,"rental_uris":{"android":"levelo://app?vid=efcccd97-a21c-4651-bca9-251bfff03385","ios":"levelo://app?vid=efcccd97-a21c-4651-bca9-251bfff03385"},"vehicle_type_id":"4","last_reported":1737706344,"current_range_meters":27600,"station_id":"ce4bhbh2rcd13ifvqeqg","pricing_plan_id":"cebpf4jnsgd1na2vs0mg"},{"bike_id":"3beff9af-9a53-4d7b-865c-9c933dd4db6d","system_id":"levelo_inurba_marseille","lat":43.30947,"lon":5.3904,"is_reserved":false,"is_disabled":false,"rental_uris":{"android":"levelo://app?vid=3beff9af-9a53-4d7b-865c-9c933dd4db6d","ios":"levelo://app?vid=3beff9af-9a53-4d7b-865c-9c933dd4db6d"},"vehicle_type_id":"4","last_reported":1737706344,"current_range_meters":34800,"station_id":"ce4bgup2rcd13ifvqco0","pricing_plan_id":"cebpf4jnsgd1na2vs0mg"},{"bike_id":"ce8f1cb6-0493-4046-a4eb-2ab4d191046d","system_id":"levelo_inurba_marseille","lat":43.323597,"lon":5.388848,"is_reserved":false,"is_disabled":false,"rental_uris":{"android":"levelo://app?vid=ce8f1cb6-0493-4046-a4eb-2ab4d191046d","ios":"levelo://app?vid=ce8f1cb6-0493-4046-a4eb-2ab4d191046d"},"vehicle_type_id":"4","last_reported":1737706344,"current_range_meters":37600,"station_id":"ce4bhqp2rcd13ifvqhog","pricing_plan_id":"cebpf4jnsgd1na2vs0mg"},{"bike_id":"9dc65c9c-f924-41aa-a20d-9133d906e331","system_id":"levelo_inurba_marseille","lat":43.2894,"lon":5.3964,"is_reserved":false,"is_disabled":true,"rental_uris":{"android":"levelo://app?vid=9dc65c9c-f924-41aa-a20d-9133d906e331","ios":"levelo://app?vid=9dc65c9c-f924-41aa-a20d-9133d906e331"},"vehicle_type_id":"4","last_reported":1737706344,"current_range_meters":36400,"station_id":"ce4bh3h2rcd13ifvqdn0","pricing_plan_id":"cebpf4jnsgd1na2vs0mg"},{"bike_id":"d90fa84e-7c68-41a7-ad7b-dfeefc6268f3","system_id":"levelo_inurba_marseille","lat":43.3031,"lon":5.39213,"is_reserved":false,"is_disabled":true,"rental_uris":{"android":"levelo://app?vid=d90fa84e-7c68-41a7-ad7b-dfeefc6268f3","ios":"levelo://app?vid=d90fa84e-7c68-41a7-ad7b-dfeefc6268f3"},"vehicle_type_id":"4","last_reported":1737706344,"current_range_meters":0,"station_id":"ce4bgkh2rcd13ifvqbk0","pricing_plan_id":"cebpf4jnsgd1na2vs0mg"},{"bike_id":"91a93a6a-90c2-4b55-8bfa-a5975747e452","system_id":"levelo_inurba_marseille","lat":43.23188,"lon":5.39983,"is_reserved":false,"is_disabled":false,"rental_uris":{"android":"levelo://app?vid=91a93a6a-90c2-4b55-8bfa-a5975747e452","ios":"levelo://app?vid=91a93a6a-90c2-4b55-8bfa-a5975747e452"},"vehicle_type_id":"4","last_reported":1737706344,"current_range_meters":24400,"station_id":"ce4bhn12rcd13ifvqgqg","pricing_plan_id":"cebpf4jnsgd1na2vs0mg"},{"bike_id":"85a3042a-99ef-4a57-92d9-e9fccf7a3989","system_id":"levelo_inurba_marseille","lat":43.30465,"lon":5.3791,"is_reserved":false,"is_disabled":false,"rental_uris":{"android":"levelo://app?vid=85a3042a-99ef-4a57-92d9-e9fccf7a3989","ios":"levelo://app?vid=85a3042a-99ef-4a57-92d9-e9fccf7a3989"},"vehicle_type_id":"4","last_reported":1737706344,"current_range_meters":34800,"station_id":"ce4bgup2rcd13ifvqcn0","pricing_plan_id":"cebpf4jnsgd1na2vs0mg"},{"bike_id":"0572ee18-9ce6-4821-b6ce-f1102dd178ef","system_id":"levelo_inurba_marseille","lat":43.32482,"lon":5.36553,"is_reserved":false,"is_disabled":false,"rental_uris":{"android":"levelo://app?vid=0572ee18-9ce6-4821-b6ce-f1102dd178ef","ios":"levelo://app?vid=0572ee18-9ce6-4821-b6ce-f1102dd178ef"},"vehicle_type_id":"4","last_reported":1737706344,"current_range_meters":38400,"station_id":"ce4bhs12rcd13ifvqhvg","pricing_plan_id":"cebpf4jnsgd1na2vs0mg"},{"bike_id":"85c4b304-0a15-4fc1-b75d-cfc16b5afe60","system_id":"levelo_inurba_marseille","lat":43.2293,"lon":5.35391,"is_reserved":false,"is_disabled":false,"rental_uris":{"android":"levelo://app?vid=85c4b304-0a15-4fc1-b75d-cfc16b5afe60","ios":"levelo://app?vid=85c4b304-0a15-4fc1-b75d-cfc16b5afe60"},"vehicle_type_id":"4","last_reported":1737706344,"current_range_meters":38800,"station_id":"cpo3532slgdg3j2ikp40","pricing_plan_id":"cebpf4jnsgd1na2vs0mg"},{"bike_id":"2b9c0f13-1dd3-4779-9c6a-3f68333e7c09","system_id":"levelo_inurba_marseille","lat":43.27942,"lon":5.3899,"is_reserved":false,"is_disabled":true,"rental_uris":{"android":"levelo://app?vid=2b9c0f13-1dd3-4779-9c6a-3f68333e7c09","ios":"levelo://app?vid=2b9c0f13-1dd3-4779-9c6a-3f68333e7c09"},"vehicle_type_id":"4","last_reported":1737706344,"current_range_meters":400,"station_id":"","pricing_plan_id":"cebpf4jnsgd1na2vs0mg"},{"bike_id":"f7f20ea8-ac89-40b3-bd17-c73f31722701","system_id":"levelo_inurba_marseille","lat":43.29906,"lon":5.43656,"is_reserved":false,"is_disabled":false,"rental_uris":{"android":"levelo://app?vid=f7f20ea8-ac89-40b3-bd17-c73f31722701","ios":"levelo://app?vid=f7f20ea8-ac89-40b3-bd17-c73f31722701"},"vehicle_type_id":"4","last_reported":1737706344,"current_range_meters":38800,"station_id":"ce4bhpp2rcd13ifvqhfg","pricing_plan_id":"cebpf4jnsgd1na2vs0mg"},{"bike_id":"fb1048b7-e565-4e07-b82a-5f5a5712ce1d","system_id":"levelo_inurba_marseille","lat":43.32099,"lon":5.36791,"is_reserved":false,"is_disabled":false,"rental_uris":{"android":"levelo://app?vid=fb1048b7-e565-4e07-b82a-5f5a5712ce1d","ios":"levelo://app?vid=fb1048b7-e565-4e07-b82a-5f5a5712ce1d"},"vehicle_type_id":"4","last_reported":1737706344,"current_range_meters":38400,"station_id":"ce4bhrh2rcd13ifvqhug","pricing_plan_id":"cebpf4jnsgd1na2vs0mg"},{"bike_id":"9399f45c-6cc4-4e81-8348-de9a24ee6a48","system_id":"levelo_inurba_marseille","lat":43.29216,"lon":5.36074,"is_reserved":false,"is_disabled":true,"rental_uris":{"android":"levelo://app?vid=9399f45c-6cc4-4e81-8348-de9a24ee6a48","ios":"levelo://app?vid=9399f45c-6cc4-4e81-8348-de9a24ee6a48"},"vehicle_type_id":"4","last_reported":1737706344,"current_range_meters":0,"station_id":"ce4bhbh2rcd13ifvqeqg","pricing_plan_id":"cebpf4jnsgd1na2vs0mg"},{"bike_id":"2aeb1fe7-2455-4a37-a484-bbbf324c7cf2","system_id":"levelo_inurba_marseille","lat":43.3208,"lon":5.36802,"is_reserved":false,"is_disabled":false,"rental_uris":{"android":"levelo://app?vid=2aeb1fe7-2455-4a37-a484-bbbf324c7cf2","ios":"levelo://app?vid=2aeb1fe7-2455-4a37-a484-bbbf324c7cf2"},"vehicle_type_id":"4","last_reported":1737706344,"current_range_meters":8000,"station_id":"ce4bhrh2rcd13ifvqhug","pricing_plan_id":"cebpf4jnsgd1na2vs0mg"},{"bike_id":"328db5a7-81ca-4512-9a66-fc91e9d79237","system_id":"levelo_inurba_marseille","lat":43.30599,"lon":5.39355,"is_reserved":false,"is_disabled":false,"rental_uris":{"android":"levelo://app?vid=328db5a7-81ca-4512-9a66-fc91e9d79237","ios":"levelo://app?vid=328db5a7-81ca-4512-9a66-fc91e9d79237"},"vehicle_type_id":"4","last_reported":1737706344,"current_range_meters":29600,"station_id":"ce4bh0p2rcd13ifvqd80","pricing_plan_id":"cebpf4jnsgd1na2vs0mg"},{"bike_id":"5cbeeb31-e0c7-4911-9873-3974a5f601e5","system_id":"levelo_inurba_marseille","lat":43.2749,"lon":5.42462,"is_reserved":false,"is_disabled":false,"rental_uris":{"android":"levelo://app?vid=5cbeeb31-e0c7-4911-9873-3974a5f601e5","ios":"levelo://app?vid=5cbeeb31-e0c7-4911-9873-3974a5f601e5"},"vehicle_type_id":"4","last_reported":1737706344,"current_range_meters":36800,"station_id":"ce4bhn92rcd13ifvqgrg","pricing_plan_id":"cebpf4jnsgd1na2vs0mg"},{"bike_id":"22a8a904-8441-45c7-a6ea-d57599e2198b","system_id":"levelo_inurba_marseille","lat":43.26945,"lon":5.40258,"is_reserved":false,"is_disabled":false,"rental_uris":{"android":"levelo://app?vid=22a8a904-8441-45c7-a6ea-d57599e2198b","ios":"levelo://app?vid=22a8a904-8441-45c7-a6ea-d57599e2198b"},"vehicle_type_id":"4","last_reported":1737706344,"current_range_meters":37600,"station_id":"cjm6bp8fraef2m0cb0m0","pricing_plan_id":"cebpf4jnsgd1na2vs0mg"},{"bike_id":"4328057e-3d27-4d78-9b16-28e37f2e44c2","system_id":"levelo_inurba_marseille","lat":43.2656,"lon":5.39011,"is_reserved":false,"is_disabled":false,"rental_uris":{"android":"levelo://app?vid=4328057e-3d27-4d78-9b16-28e37f2e44c2","ios":"levelo://app?vid=4328057e-3d27-4d78-9b16-28e37f2e44c2"},"vehicle_type_id":"4","last_reported":1737706344,"current_range_meters":34800,"station_id":"ce4bhe12rcd13ifvqf30","pricing_plan_id":"cebpf4jnsgd1na2vs0mg"},{"bike_id":"1607e2d7-f06a-4aee-932d-22a0eae40532","system_id":"levelo_inurba_marseille","lat":43.30928,"lon":5.40146,"is_reserved":false,"is_disabled":false,"rental_uris":{"android":"levelo://app?vid=1607e2d7-f06a-4aee-932d-22a0eae40532","ios":"levelo://app?vid=1607e2d7-f06a-4aee-932d-22a0eae40532"},"vehicle_type_id":"4","last_reported":1737706344,"current_range_meters":26000,"station_id":"ce4bgvp2rcd13ifvqct0","pricing_plan_id":"cebpf4jnsgd1na2vs0mg"},{"bike_id":"3e40302e-344f-404b-ba1e-ee841ffe8e36","system_id":"levelo_inurba_marseille","lat":43.30495,"lon":5.37858,"is_reserved":false,"is_disabled":false,"rental_uris":{"android":"levelo://app?vid=3e40302e-344f-404b-ba1e-ee841ffe8e36","ios":"levelo://app?vid=3e40302e-344f-404b-ba1e-ee841ffe8e36"},"vehicle_type_id":"4","last_reported":1737706344,"current_range_meters":22000,"station_id":"","pricing_plan_id":"cebpf4jnsgd1na2vs0mg"},{"bike_id":"7a55f28a-5a5b-4ca4-9825-dee123c17d08","system_id":"levelo_inurba_marseille","lat":43.32104,"lon":5.36773,"is_reserved":false,"is_disabled":false,"rental_uris":{"android":"levelo://app?vid=7a55f28a-5a5b-4ca4-9825-dee123c17d08","ios":"levelo://app?vid=7a55f28a-5a5b-4ca4-9825-dee123c17d08"},"vehicle_type_id":"4","last_reported":1737706344,"current_range_meters":37600,"station_id":"ce4bhrh2rcd13ifvqhug","pricing_plan_id":"cebpf4jnsgd1na2vs0mg"},{"bike_id":"3911a4bb-1600-4577-8b5c-0d5c231af3f8","system_id":"levelo_inurba_marseille","lat":43.27619,"lon":5.36111,"is_reserved":false,"is_disabled":false,"rental_uris":{"android":"levelo://app?vid=3911a4bb-1600-4577-8b5c-0d5c231af3f8","ios":"levelo://app?vid=3911a4bb-1600-4577-8b5c-0d5c231af3f8"},"vehicle_type_id":"4","last_reported":1737706344,"current_range_meters":34800,"station_id":"ce4bgj92rcd13ifvqbe0","pricing_plan_id":"cebpf4jnsgd1na2vs0mg"},{"bike_id":"f724a66b-1250-4401-a00a-2a7cf2111a59","system_id":"levelo_inurba_marseille","lat":43.29023,"lon":5.39968,"is_reserved":false,"is_disabled":false,"rental_uris":{"android":"levelo://app?vid=f724a66b-1250-4401-a00a-2a7cf2111a59","ios":"levelo://app?vid=f724a66b-1250-4401-a00a-2a7cf2111a59"},"vehicle_type_id":"4","last_reported":1737706344,"current_range_meters":36800,"station_id":"ce4bh392rcd13ifvqdm0","pricing_plan_id":"cebpf4jnsgd1na2vs0mg"},{"bike_id":"7ae57d4a-987c-4a94-bf67-7089b41c8d83","system_id":"levelo_inurba_marseille","lat":43.27612,"lon":5.36109,"is_reserved":false,"is_disabled":false,"rental_uris":{"android":"levelo://app?vid=7ae57d4a-987c-4a94-bf67-7089b41c8d83","ios":"levelo://app?vid=7ae57d4a-987c-4a94-bf67-7089b41c8d83"},"vehicle_type_id":"4","last_reported":1737706344,"current_range_meters":38400,"station_id":"ce4bgj92rcd13ifvqbe0","pricing_plan_id":"cebpf4jnsgd1na2vs0mg"},{"bike_id":"30179832-5a65-44ae-a5a5-1af37f487ed1","system_id":"levelo_inurba_marseille","lat":43.31502,"lon":5.37321,"is_reserved":false,"is_disabled":false,"rental_uris":{"android":"levelo://app?vid=30179832-5a65-44ae-a5a5-1af37f487ed1","ios":"levelo://app?vid=30179832-5a65-44ae-a5a5-1af37f487ed1"},"vehicle_type_id":"4","last_reported":1737706344,"current_range_meters":38800,"station_id":"ce4bgt12rcd13ifvqcd0","pricing_plan_id":"cebpf4jnsgd1na2vs0mg"},{"bike_id":"14460ec0-8ab7-4599-bc0f-7184ba5cd83d","system_id":"levelo_inurba_marseille","lat":43.30464,"lon":5.37905,"is_reserved":false,"is_disabled":false,"rental_uris":{"android":"levelo://app?vid=14460ec0-8ab7-4599-bc0f-7184ba5cd83d","ios":"levelo://app?vid=14460ec0-8ab7-4599-bc0f-7184ba5cd83d"},"vehicle_type_id":"4","last_reported":1737706344,"current_range_meters":20800,"station_id":"ce4bgup2rcd13ifvqcn0","pricing_plan_id":"cebpf4jnsgd1na2vs0mg"},{"bike_id":"a9d5e1db-41a7-4c05-bdc9-54e576288f5a","system_id":"levelo_inurba_marseille","lat":43.30951,"lon":5.39053,"is_reserved":false,"is_disabled":false,"rental_uris":{"android":"levelo://app?vid=a9d5e1db-41a7-4c05-bdc9-54e576288f5a","ios":"levelo://app?vid=a9d5e1db-41a7-4c05-bdc9-54e576288f5a"},"vehicle_type_id":"4","last_reported":1737706344,"current_range_meters":39200,"station_id":"ce4bgup2rcd13ifvqco0","pricing_plan_id":"cebpf4jnsgd1na2vs0mg"},{"bike_id":"df8b68b0-a61c-401e-bc1c-616ed6cec7e0","system_id":"levelo_inurba_marseille","lat":43.26955,"lon":5.38688,"is_reserved":false,"is_disabled":true,"rental_uris":{"android":"levelo://app?vid=df8b68b0-a61c-401e-bc1c-616ed6cec7e0","ios":"levelo://app?vid=df8b68b0-a61c-401e-bc1c-616ed6cec7e0"},"vehicle_type_id":"4","last_reported":1737706344,"current_range_meters":38800,"station_id":"ce4bhh92rcd13ifvqfh0","pricing_plan_id":"cebpf4jnsgd1na2vs0mg"},{"bike_id":"35614ed7-a0df-4792-bca2-a1978fcd9fab","system_id":"levelo_inurba_marseille","lat":43.30786,"lon":5.43531,"is_reserved":false,"is_disabled":false,"rental_uris":{"android":"levelo://app?vid=35614ed7-a0df-4792-bca2-a1978fcd9fab","ios":"levelo://app?vid=35614ed7-a0df-4792-bca2-a1978fcd9fab"},"vehicle_type_id":"4","last_reported":1737706344,"current_range_meters":38800,"station_id":"ce4bhph2rcd13ifvqheg","pricing_plan_id":"cebpf4jnsgd1na2vs0mg"},{"bike_id":"28c8c0d8-4bb2-40c7-97a3-48d0cd1d316d","system_id":"levelo_inurba_marseille","lat":43.26681,"lon":5.38266,"is_reserved":false,"is_disabled":false,"rental_uris":{"android":"levelo://app?vid=28c8c0d8-4bb2-40c7-97a3-48d0cd1d316d","ios":"levelo://app?vid=28c8c0d8-4bb2-40c7-97a3-48d0cd1d316d"},"vehicle_type_id":"4","last_reported":1737706344,"current_range_meters":3600,"station_id":"ce4bhg92rcd13ifvqf90","pricing_plan_id":"cebpf4jnsgd1na2vs0mg"},{"bike_id":"8661b5e3-5c50-41b5-9990-f6cea7332865","system_id":"levelo_inurba_marseille","lat":43.29193,"lon":5.35801,"is_reserved":false,"is_disabled":false,"rental_uris":{"android":"levelo://app?vid=8661b5e3-5c50-41b5-9990-f6cea7332865","ios":"levelo://app?vid=8661b5e3-5c50-41b5-9990-f6cea7332865"},"vehicle_type_id":"4","last_reported":1737706344,"current_range_meters":37600,"station_id":"ce4bhb12rcd13ifvqel0","pricing_plan_id":"cebpf4jnsgd1na2vs0mg"},{"bike_id":"a266c422-6416-4128-b88c-6e17bf750b3b","system_id":"levelo_inurba_marseille","lat":43.25579,"lon":5.38239,"is_reserved":false,"is_disabled":false,"rental_uris":{"android":"levelo://app?vid=a266c422-6416-4128-b88c-6e17bf750b3b","ios":"levelo://app?vid=a266c422-6416-4128-b88c-6e17bf750b3b"},"vehicle_type_id":"4","last_reported":1737706344,"current_range_meters":16000,"station_id":"ce4bhih2rcd13ifvqfs0","pricing_plan_id":"cebpf4jnsgd1na2vs0mg"},{"bike_id":"f5d74a25-b51b-4f81-844d-c97343c27f1b","system_id":"levelo_inurba_marseille","lat":43.3376,"lon":5.37465,"is_reserved":false,"is_disabled":false,"rental_uris":{"android":"levelo://app?vid=f5d74a25-b51b-4f81-844d-c97343c27f1b","ios":"levelo://app?vid=f5d74a25-b51b-4f81-844d-c97343c27f1b"},"vehicle_type_id":"4","last_reported":1737706344,"current_range_meters":38800,"station_id":"","pricing_plan_id":"cebpf4jnsgd1na2vs0mg"},{"bike_id":"165dfcb7-3c6f-4306-af4c-0f90d59fd5a9","system_id":"levelo_inurba_marseille","lat":43.29287,"lon":5.37468,"is_reserved":false,"is_disabled":false,"rental_uris":{"android":"levelo://app?vid=165dfcb7-3c6f-4306-af4c-0f90d59fd5a9","ios":"levelo://app?vid=165dfcb7-3c6f-4306-af4c-0f90d59fd5a9"},"vehicle_type_id":"4","last_reported":1737706344,"current_range_meters":25600,"station_id":"ce4bgi12rcd13ifvqb70","pricing_plan_id":"cebpf4jnsgd1na2vs0mg"},{"bike_id":"bf49bae2-9c26-4641-9558-b17e1f3df312","system_id":"levelo_inurba_marseille","lat":43.23186,"lon":5.399776,"is_reserved":false,"is_disabled":false,"rental_uris":{"android":"levelo://app?vid=bf49bae2-9c26-4641-9558-b17e1f3df312","ios":"levelo://app?vid=bf49bae2-9c26-4641-9558-b17e1f3df312"},"vehicle_type_id":"4","last_reported":1737706344,"current_range_meters":38400,"station_id":"ce4bhn12rcd13ifvqgqg","pricing_plan_id":"cebpf4jnsgd1na2vs0mg"},{"bike_id":"51f092b8-b7f4-4a0c-adcf-40af6cc2c85e","system_id":"levelo_inurba_marseille","lat":43.25939,"lon":5.40903,"is_reserved":false,"is_disabled":false,"rental_uris":{"android":"levelo://app?vid=51f092b8-b7f4-4a0c-adcf-40af6cc2c85e","ios":"levelo://app?vid=51f092b8-b7f4-4a0c-adcf-40af6cc2c85e"},"vehicle_type_id":"4","last_reported":1737706344,"current_range_meters":1200,"station_id":"ce4bhm92rcd13ifvqglg","pricing_plan_id":"cebpf4jnsgd1na2vs0mg"},{"bike_id":"12c5ac8e-919d-454f-85fc-cf7404dddae7","system_id":"levelo_inurba_marseille","lat":43.29576,"lon":5.37522,"is_reserved":false,"is_disabled":false,"rental_uris":{"android":"levelo://app?vid=12c5ac8e-919d-454f-85fc-cf7404dddae7","ios":"levelo://app?vid=12c5ac8e-919d-454f-85fc-cf7404dddae7"},"vehicle_type_id":"4","last_reported":1737706344,"current_range_meters":14400,"station_id":"ce4bgh92rcd13ifvqb50","pricing_plan_id":"cebpf4jnsgd1na2vs0mg"},{"bike_id":"8189d985-ab91-4ff1-bb9d-2f862a50adc2","system_id":"levelo_inurba_marseille","lat":43.31698,"lon":5.40465,"is_reserved":false,"is_disabled":false,"rental_uris":{"android":"levelo://app?vid=8189d985-ab91-4ff1-bb9d-2f862a50adc2","ios":"levelo://app?vid=8189d985-ab91-4ff1-bb9d-2f862a50adc2"},"vehicle_type_id":"4","last_reported":1737706344,"current_range_meters":28000,"station_id":"ce4bh012rcd13ifvqd00","pricing_plan_id":"cebpf4jnsgd1na2vs0mg"},{"bike_id":"e5e4df67-dd0f-4661-9c3e-b4021a64b458","system_id":"levelo_inurba_marseille","lat":43.26948,"lon":5.38629,"is_reserved":false,"is_disabled":false,"rental_uris":{"android":"levelo://app?vid=e5e4df67-dd0f-4661-9c3e-b4021a64b458","ios":"levelo://app?vid=e5e4df67-dd0f-4661-9c3e-b4021a64b458"},"vehicle_type_id":"4","last_reported":1737706344,"current_range_meters":12000,"station_id":"ce4bhh92rcd13ifvqfh0","pricing_plan_id":"cebpf4jnsgd1na2vs0mg"},{"bike_id":"f7852742-3e4a-4e8d-a086-6b6a0282c38c","system_id":"levelo_inurba_marseille","lat":43.30462,"lon":5.37907,"is_reserved":false,"is_disabled":false,"rental_uris":{"android":"levelo://app?vid=f7852742-3e4a-4e8d-a086-6b6a0282c38c","ios":"levelo://app?vid=f7852742-3e4a-4e8d-a086-6b6a0282c38c"},"vehicle_type_id":"4","last_reported":1737706344,"current_range_meters":30000,"station_id":"ce4bgup2rcd13ifvqcn0","pricing_plan_id":"cebpf4jnsgd1na2vs0mg"},{"bike_id":"f23f0288-a55c-4862-a419-072a2b3fb42e","system_id":"levelo_inurba_marseille","lat":43.30944,"lon":5.3904,"is_reserved":false,"is_disabled":false,"rental_uris":{"android":"levelo://app?vid=f23f0288-a55c-4862-a419-072a2b3fb42e","ios":"levelo://app?vid=f23f0288-a55c-4862-a419-072a2b3fb42e"},"vehicle_type_id":"4","last_reported":1737706344,"current_range_meters":36000,"station_id":"ce4bgup2rcd13ifvqco0","pricing_plan_id":"cebpf4jnsgd1na2vs0mg"},{"bike_id":"c54405f6-19ca-4898-9c27-b06f2510a17d","system_id":"levelo_inurba_marseille","lat":43.29223,"lon":5.36078,"is_reserved":false,"is_disabled":false,"rental_uris":{"android":"levelo://app?vid=c54405f6-19ca-4898-9c27-b06f2510a17d","ios":"levelo://app?vid=c54405f6-19ca-4898-9c27-b06f2510a17d"},"vehicle_type_id":"4","last_reported":1737706344,"current_range_meters":36000,"station_id":"ce4bhbh2rcd13ifvqeqg","pricing_plan_id":"cebpf4jnsgd1na2vs0mg"},{"bike_id":"90562b19-8802-4e76-a682-f90dad6ec469","system_id":"levelo_inurba_marseille","lat":43.29527,"lon":5.38565,"is_reserved":false,"is_disabled":true,"rental_uris":{"android":"levelo://app?vid=90562b19-8802-4e76-a682-f90dad6ec469","ios":"levelo://app?vid=90562b19-8802-4e76-a682-f90dad6ec469"},"vehicle_type_id":"4","last_reported":1737706344,"current_range_meters":0,"station_id":"ce4bgih2rcd13ifvqba0","pricing_plan_id":"cebpf4jnsgd1na2vs0mg"},{"bike_id":"9863b7f9-4316-4322-9f6c-3cc66b0448e2","system_id":"levelo_inurba_marseille","lat":43.279439,"lon":5.389008,"is_reserved":false,"is_disabled":true,"rental_uris":{"android":"levelo://app?vid=9863b7f9-4316-4322-9f6c-3cc66b0448e2","ios":"levelo://app?vid=9863b7f9-4316-4322-9f6c-3cc66b0448e2"},"vehicle_type_id":"4","last_reported":1737706344,"current_range_meters":20800,"station_id":"","pricing_plan_id":"cebpf4jnsgd1na2vs0mg"},{"bike_id":"515009cc-b3f4-4acf-a2a8-bd750478eee4","system_id":"levelo_inurba_marseille","lat":43.26951,"lon":5.38628,"is_reserved":false,"is_disabled":false,"rental_uris":{"android":"levelo://app?vid=515009cc-b3f4-4acf-a2a8-bd750478eee4","ios":"levelo://app?vid=515009cc-b3f4-4acf-a2a8-bd750478eee4"},"vehicle_type_id":"4","last_reported":1737706344,"current_range_meters":17200,"station_id":"ce4bhh92rcd13ifvqfh0","pricing_plan_id":"cebpf4jnsgd1na2vs0mg"},{"bike_id":"0e1ddc8e-bc6b-41fa-8056-10e281ad6582","system_id":"levelo_inurba_marseille","lat":43.29526,"lon":5.3905,"is_reserved":false,"is_disabled":false,"rental_uris":{"android":"levelo://app?vid=0e1ddc8e-bc6b-41fa-8056-10e281ad6582","ios":"levelo://app?vid=0e1ddc8e-bc6b-41fa-8056-10e281ad6582"},"vehicle_type_id":"4","last_reported":1737706344,"current_range_meters":38800,"station_id":"ce4bh3p2rcd13ifvqdp0","pricing_plan_id":"cebpf4jnsgd1na2vs0mg"},{"bike_id":"ab927040-bfc3-4782-b1b3-ffbf9d71bc34","system_id":"levelo_inurba_marseille","lat":43.26695,"lon":5.38249,"is_reserved":false,"is_disabled":true,"rental_uris":{"android":"levelo://app?vid=ab927040-bfc3-4782-b1b3-ffbf9d71bc34","ios":"levelo://app?vid=ab927040-bfc3-4782-b1b3-ffbf9d71bc34"},"vehicle_type_id":"4","last_reported":1737706344,"current_range_meters":38000,"station_id":"ce4bhg92rcd13ifvqf90","pricing_plan_id":"cebpf4jnsgd1na2vs0mg"},{"bike_id":"7a7891be-86e6-45e2-8242-bb1a7546d25c","system_id":"levelo_inurba_marseille","lat":43.29911,"lon":5.37472,"is_reserved":false,"is_disabled":true,"rental_uris":{"android":"levelo://app?vid=7a7891be-86e6-45e2-8242-bb1a7546d25c","ios":"levelo://app?vid=7a7891be-86e6-45e2-8242-bb1a7546d25c"},"vehicle_type_id":"4","last_reported":1737706344,"current_range_meters":23200,"station_id":"ce4bgjh2rcd13ifvqbg0","pricing_plan_id":"cebpf4jnsgd1na2vs0mg"},{"bike_id":"9e2d13b9-d1b0-4762-93f4-a7dd29fa0c55","system_id":"levelo_inurba_marseille","lat":43.29239,"lon":5.36053,"is_reserved":false,"is_disabled":false,"rental_uris":{"android":"levelo://app?vid=9e2d13b9-d1b0-4762-93f4-a7dd29fa0c55","ios":"levelo://app?vid=9e2d13b9-d1b0-4762-93f4-a7dd29fa0c55"},"vehicle_type_id":"4","last_reported":1737706344,"current_range_meters":24000,"station_id":"ce4bhbh2rcd13ifvqeqg","pricing_plan_id":"cebpf4jnsgd1na2vs0mg"},{"bike_id":"e11d5e25-e272-47e7-bd8a-065bf108edeb","system_id":"levelo_inurba_marseille","lat":43.29229,"lon":5.38442,"is_reserved":false,"is_disabled":true,"rental_uris":{"android":"levelo://app?vid=e11d5e25-e272-47e7-bd8a-065bf108edeb","ios":"levelo://app?vid=e11d5e25-e272-47e7-bd8a-065bf108edeb"},"vehicle_type_id":"4","last_reported":1737706344,"current_range_meters":15200,"station_id":"ce4bh692rcd13ifvqea0","pricing_plan_id":"cebpf4jnsgd1na2vs0mg"},{"bike_id":"dbf11543-05de-42a8-83a2-bbcaf2289574","system_id":"levelo_inurba_marseille","lat":43.32422,"lon":5.36576,"is_reserved":false,"is_disabled":false,"rental_uris":{"android":"levelo://app?vid=dbf11543-05de-42a8-83a2-bbcaf2289574","ios":"levelo://app?vid=dbf11543-05de-42a8-83a2-bbcaf2289574"},"vehicle_type_id":"4","last_reported":1737706344,"current_range_meters":9600,"station_id":"","pricing_plan_id":"cebpf4jnsgd1na2vs0mg"},{"bike_id":"eb82a4fa-b45d-4357-8410-47675bcbc568","system_id":"levelo_inurba_marseille","lat":43.294447,"lon":5.375319,"is_reserved":false,"is_disabled":false,"rental_uris":{"android":"levelo://app?vid=eb82a4fa-b45d-4357-8410-47675bcbc568","ios":"levelo://app?vid=eb82a4fa-b45d-4357-8410-47675bcbc568"},"vehicle_type_id":"4","last_reported":1737706344,"current_range_meters":17200,"station_id":"ce4bgph2rcd13ifvqc2g","pricing_plan_id":"cebpf4jnsgd1na2vs0mg"},{"bike_id":"cd1f5e55-0fa6-49f6-90a2-da79313bdf51","system_id":"levelo_inurba_marseille","lat":43.30592,"lon":5.3936,"is_reserved":false,"is_disabled":false,"rental_uris":{"android":"levelo://app?vid=cd1f5e55-0fa6-49f6-90a2-da79313bdf51","ios":"levelo://app?vid=cd1f5e55-0fa6-49f6-90a2-da79313bdf51"},"vehicle_type_id":"4","last_reported":1737706344,"current_range_meters":27200,"station_id":"ce4bh0p2rcd13ifvqd80","pricing_plan_id":"cebpf4jnsgd1na2vs0mg"},{"bike_id":"a3881af1-edcb-4e46-88ef-a22c71e2506d","system_id":"levelo_inurba_marseille","lat":43.29993,"lon":5.37129,"is_reserved":false,"is_disabled":true,"rental_uris":{"android":"levelo://app?vid=a3881af1-edcb-4e46-88ef-a22c71e2506d","ios":"levelo://app?vid=a3881af1-edcb-4e46-88ef-a22c71e2506d"},"vehicle_type_id":"4","last_reported":1737706344,"current_range_meters":0,"station_id":"ce4bgr92rcd13ifvqc7g","pricing_plan_id":"cebpf4jnsgd1na2vs0mg"},{"bike_id":"3dd51c49-b180-4a4a-bf01-19b9b855e8ef","system_id":"levelo_inurba_marseille","lat":43.29606,"lon":5.38102,"is_reserved":false,"is_disabled":false,"rental_uris":{"android":"levelo://app?vid=3dd51c49-b180-4a4a-bf01-19b9b855e8ef","ios":"levelo://app?vid=3dd51c49-b180-4a4a-bf01-19b9b855e8ef"},"vehicle_type_id":"4","last_reported":1737706344,"current_range_meters":34000,"station_id":"ce4bgl12rcd13ifvqbo0","pricing_plan_id":"cebpf4jnsgd1na2vs0mg"},{"bike_id":"c400706d-11d8-4109-af7f-04e1a2259d9b","system_id":"levelo_inurba_marseille","lat":43.29895,"lon":5.43657,"is_reserved":false,"is_disabled":false,"rental_uris":{"android":"levelo://app?vid=c400706d-11d8-4109-af7f-04e1a2259d9b","ios":"levelo://app?vid=c400706d-11d8-4109-af7f-04e1a2259d9b"},"vehicle_type_id":"4","last_reported":1737706344,"current_range_meters":6800,"station_id":"ce4bhpp2rcd13ifvqhfg","pricing_plan_id":"cebpf4jnsgd1na2vs0mg"},{"bike_id":"e65017eb-8f52-4183-a9ec-6e2784f34809","system_id":"levelo_inurba_marseille","lat":43.3046,"lon":5.37901,"is_reserved":false,"is_disabled":true,"rental_uris":{"android":"levelo://app?vid=e65017eb-8f52-4183-a9ec-6e2784f34809","ios":"levelo://app?vid=e65017eb-8f52-4183-a9ec-6e2784f34809"},"vehicle_type_id":"4","last_reported":1737706344,"current_range_meters":1200,"station_id":"ce4bgup2rcd13ifvqcn0","pricing_plan_id":"cebpf4jnsgd1na2vs0mg"},{"bike_id":"e294958b-705b-4df3-b6a6-d3d4f512d203","system_id":"levelo_inurba_marseille","lat":43.24117,"lon":5.36982,"is_reserved":false,"is_disabled":false,"rental_uris":{"android":"levelo://app?vid=e294958b-705b-4df3-b6a6-d3d4f512d203","ios":"levelo://app?vid=e294958b-705b-4df3-b6a6-d3d4f512d203"},"vehicle_type_id":"4","last_reported":1737706344,"current_range_meters":19200,"station_id":"","pricing_plan_id":"cebpf4jnsgd1na2vs0mg"},{"bike_id":"c3ccfefb-c1f2-459b-aeea-f7492233dca7","system_id":"levelo_inurba_marseille","lat":43.25938,"lon":5.40903,"is_reserved":false,"is_disabled":false,"rental_uris":{"android":"levelo://app?vid=c3ccfefb-c1f2-459b-aeea-f7492233dca7","ios":"levelo://app?vid=c3ccfefb-c1f2-459b-aeea-f7492233dca7"},"vehicle_type_id":"4","last_reported":1737706344,"current_range_meters":36800,"station_id":"ce4bhm92rcd13ifvqglg","pricing_plan_id":"cebpf4jnsgd1na2vs0mg"},{"bike_id":"97f6a575-d7f1-4244-a895-8f4ff54fffa8","system_id":"levelo_inurba_marseille","lat":43.2974,"lon":5.37716,"is_reserved":false,"is_disabled":false,"rental_uris":{"android":"levelo://app?vid=97f6a575-d7f1-4244-a895-8f4ff54fffa8","ios":"levelo://app?vid=97f6a575-d7f1-4244-a895-8f4ff54fffa8"},"vehicle_type_id":"4","last_reported":1737706344,"current_range_meters":35200,"station_id":"ce4bgkh2rcd13ifvqbl0","pricing_plan_id":"cebpf4jnsgd1na2vs0mg"},{"bike_id":"7c78a755-c7f5-4f07-a96b-621451d47948","system_id":"levelo_inurba_marseille","lat":43.29898,"lon":5.43669,"is_reserved":false,"is_disabled":false,"rental_uris":{"android":"levelo://app?vid=7c78a755-c7f5-4f07-a96b-621451d47948","ios":"levelo://app?vid=7c78a755-c7f5-4f07-a96b-621451d47948"},"vehicle_type_id":"4","last_reported":1737706344,"current_range_meters":8400,"station_id":"ce4bhpp2rcd13ifvqhfg","pricing_plan_id":"cebpf4jnsgd1na2vs0mg"},{"bike_id":"929e1263-245f-492d-83ee-f9f1b1535256","system_id":"levelo_inurba_marseille","lat":43.30885,"lon":5.37198,"is_reserved":false,"is_disabled":false,"rental_uris":{"android":"levelo://app?vid=929e1263-245f-492d-83ee-f9f1b1535256","ios":"levelo://app?vid=929e1263-245f-492d-83ee-f9f1b1535256"},"vehicle_type_id":"4","last_reported":1737706344,"current_range_meters":22400,"station_id":"ce4bguh2rcd13ifvqckg","pricing_plan_id":"cebpf4jnsgd1na2vs0mg"},{"bike_id":"7610bd40-27eb-48ba-8532-89715990a4fa","system_id":"levelo_inurba_marseille","lat":43.292509,"lon":5.4091,"is_reserved":false,"is_disabled":true,"rental_uris":{"android":"levelo://app?vid=7610bd40-27eb-48ba-8532-89715990a4fa","ios":"levelo://app?vid=7610bd40-27eb-48ba-8532-89715990a4fa"},"vehicle_type_id":"4","last_reported":1737706344,"current_range_meters":1200,"station_id":"ce4bh192rcd13ifvqdc0","pricing_plan_id":"cebpf4jnsgd1na2vs0mg"},{"bike_id":"52e3375d-f2b1-471c-bdfe-8428c026fbdc","system_id":"levelo_inurba_marseille","lat":43.29269,"lon":5.38444,"is_reserved":false,"is_disabled":true,"rental_uris":{"android":"levelo://app?vid=52e3375d-f2b1-471c-bdfe-8428c026fbdc","ios":"levelo://app?vid=52e3375d-f2b1-471c-bdfe-8428c026fbdc"},"vehicle_type_id":"4","last_reported":1737706344,"current_range_meters":38800,"station_id":"ce4bh692rcd13ifvqea0","pricing_plan_id":"cebpf4jnsgd1na2vs0mg"},{"bike_id":"b01fce57-63c8-454c-9252-5518a237155b","system_id":"levelo_inurba_marseille","lat":43.23178,"lon":5.4005,"is_reserved":false,"is_disabled":false,"rental_uris":{"android":"levelo://app?vid=b01fce57-63c8-454c-9252-5518a237155b","ios":"levelo://app?vid=b01fce57-63c8-454c-9252-5518a237155b"},"vehicle_type_id":"4","last_reported":1737706344,"current_range_meters":16400,"station_id":"ce4bhn12rcd13ifvqgqg","pricing_plan_id":"cebpf4jnsgd1na2vs0mg"},{"bike_id":"46a2a8bc-9817-4dc6-833b-4a71727103e0","system_id":"levelo_inurba_marseille","lat":43.2904,"lon":5.39937,"is_reserved":false,"is_disabled":true,"rental_uris":{"android":"levelo://app?vid=46a2a8bc-9817-4dc6-833b-4a71727103e0","ios":"levelo://app?vid=46a2a8bc-9817-4dc6-833b-4a71727103e0"},"vehicle_type_id":"4","last_reported":1737706344,"current_range_meters":2000,"station_id":"ce4bh392rcd13ifvqdm0","pricing_plan_id":"cebpf4jnsgd1na2vs0mg"},{"bike_id":"e04c4b31-ecb0-4b69-bf85-31c7466d3d2b","system_id":"levelo_inurba_marseille","lat":43.27492,"lon":5.42457,"is_reserved":false,"is_disabled":false,"rental_uris":{"android":"levelo://app?vid=e04c4b31-ecb0-4b69-bf85-31c7466d3d2b","ios":"levelo://app?vid=e04c4b31-ecb0-4b69-bf85-31c7466d3d2b"},"vehicle_type_id":"4","last_reported":1737706344,"current_range_meters":30000,"station_id":"ce4bhn92rcd13ifvqgrg","pricing_plan_id":"cebpf4jnsgd1na2vs0mg"},{"bike_id":"e426de33-2156-4fa2-9e5f-e60ca8256c6d","system_id":"levelo_inurba_marseille","lat":43.27675,"lon":5.38879,"is_reserved":false,"is_disabled":false,"rental_uris":{"android":"levelo://app?vid=e426de33-2156-4fa2-9e5f-e60ca8256c6d","ios":"levelo://app?vid=e426de33-2156-4fa2-9e5f-e60ca8256c6d"},"vehicle_type_id":"4","last_reported":1737706344,"current_range_meters":22000,"station_id":"ce4bhi12rcd13ifvqfo0","pricing_plan_id":"cebpf4jnsgd1na2vs0mg"},{"bike_id":"567813ca-0bbb-40e0-81d2-b8df9d925870","system_id":"levelo_inurba_marseille","lat":43.27835,"lon":5.39206,"is_reserved":false,"is_disabled":false,"rental_uris":{"android":"levelo://app?vid=567813ca-0bbb-40e0-81d2-b8df9d925870","ios":"levelo://app?vid=567813ca-0bbb-40e0-81d2-b8df9d925870"},"vehicle_type_id":"4","last_reported":1737706344,"current_range_meters":39200,"station_id":"ce4bhjp2rcd13ifvqga0","pricing_plan_id":"cebpf4jnsgd1na2vs0mg"},{"bike_id":"e834d110-9757-4aa5-8921-77cbfa7c7c6e","system_id":"levelo_inurba_marseille","lat":43.285646,"lon":5.394934,"is_reserved":false,"is_disabled":true,"rental_uris":{"android":"levelo://app?vid=e834d110-9757-4aa5-8921-77cbfa7c7c6e","ios":"levelo://app?vid=e834d110-9757-4aa5-8921-77cbfa7c7c6e"},"vehicle_type_id":"4","last_reported":1737706344,"current_range_meters":38800,"station_id":"ce4bh292rcd13ifvqdg0","pricing_plan_id":"cebpf4jnsgd1na2vs0mg"},{"bike_id":"4193fc48-384c-4cc7-8a16-5c5208672efb","system_id":"levelo_inurba_marseille","lat":43.2406,"lon":5.37767,"is_reserved":false,"is_disabled":false,"rental_uris":{"android":"levelo://app?vid=4193fc48-384c-4cc7-8a16-5c5208672efb","ios":"levelo://app?vid=4193fc48-384c-4cc7-8a16-5c5208672efb"},"vehicle_type_id":"4","last_reported":1737706344,"current_range_meters":24800,"station_id":"ce4bhnp2rcd13ifvqgvg","pricing_plan_id":"cebpf4jnsgd1na2vs0mg"},{"bike_id":"081657f6-c21c-4852-a889-d92a07a93b77","system_id":"levelo_inurba_marseille","lat":43.33779,"lon":5.37424,"is_reserved":false,"is_disabled":false,"rental_uris":{"android":"levelo://app?vid=081657f6-c21c-4852-a889-d92a07a93b77","ios":"levelo://app?vid=081657f6-c21c-4852-a889-d92a07a93b77"},"vehicle_type_id":"4","last_reported":1737706344,"current_range_meters":27200,"station_id":"","pricing_plan_id":"cebpf4jnsgd1na2vs0mg"},{"bike_id":"696d6de7-180b-4863-8ddf-07f6ac9c6466","system_id":"levelo_inurba_marseille","lat":43.27487,"lon":5.42469,"is_reserved":false,"is_disabled":true,"rental_uris":{"android":"levelo://app?vid=696d6de7-180b-4863-8ddf-07f6ac9c6466","ios":"levelo://app?vid=696d6de7-180b-4863-8ddf-07f6ac9c6466"},"vehicle_type_id":"4","last_reported":1737706344,"current_range_meters":25600,"station_id":"ce4bhn92rcd13ifvqgrg","pricing_plan_id":"cebpf4jnsgd1na2vs0mg"},{"bike_id":"cf2395c4-7f22-48ff-a002-b5925f09d3ba","system_id":"levelo_inurba_marseille","lat":43.30883,"lon":5.36833,"is_reserved":false,"is_disabled":false,"rental_uris":{"android":"levelo://app?vid=cf2395c4-7f22-48ff-a002-b5925f09d3ba","ios":"levelo://app?vid=cf2395c4-7f22-48ff-a002-b5925f09d3ba"},"vehicle_type_id":"4","last_reported":1737706344,"current_range_meters":38000,"station_id":"ce4bgn92rcd13ifvqbvg","pricing_plan_id":"cebpf4jnsgd1na2vs0mg"},{"bike_id":"8091da5a-cc04-462d-bb09-ae380ca5e4ce","system_id":"levelo_inurba_marseille","lat":43.23179,"lon":5.39981,"is_reserved":false,"is_disabled":false,"rental_uris":{"android":"levelo://app?vid=8091da5a-cc04-462d-bb09-ae380ca5e4ce","ios":"levelo://app?vid=8091da5a-cc04-462d-bb09-ae380ca5e4ce"},"vehicle_type_id":"4","last_reported":1737706344,"current_range_meters":8000,"station_id":"ce4bhn12rcd13ifvqgqg","pricing_plan_id":"cebpf4jnsgd1na2vs0mg"},{"bike_id":"a33b274c-21ae-4303-b7be-9ae00bb12c0a","system_id":"levelo_inurba_marseille","lat":43.29271,"lon":5.40121,"is_reserved":false,"is_disabled":true,"rental_uris":{"android":"levelo://app?vid=a33b274c-21ae-4303-b7be-9ae00bb12c0a","ios":"levelo://app?vid=a33b274c-21ae-4303-b7be-9ae00bb12c0a"},"vehicle_type_id":"4","last_reported":1737706344,"current_range_meters":7200,"station_id":"ce4bh312rcd13ifvqdk0","pricing_plan_id":"cebpf4jnsgd1na2vs0mg"},{"bike_id":"690de51c-c5a3-4f54-bfd3-61e961c6956e","system_id":"levelo_inurba_marseille","lat":43.29302,"lon":5.37471,"is_reserved":false,"is_disabled":false,"rental_uris":{"android":"levelo://app?vid=690de51c-c5a3-4f54-bfd3-61e961c6956e","ios":"levelo://app?vid=690de51c-c5a3-4f54-bfd3-61e961c6956e"},"vehicle_type_id":"4","last_reported":1737706344,"current_range_meters":34800,"station_id":"ce4bgi12rcd13ifvqb70","pricing_plan_id":"cebpf4jnsgd1na2vs0mg"},{"bike_id":"142126ac-6c9b-4492-b37e-c956feb198af","system_id":"levelo_inurba_marseille","lat":43.26952,"lon":5.38637,"is_reserved":false,"is_disabled":false,"rental_uris":{"android":"levelo://app?vid=142126ac-6c9b-4492-b37e-c956feb198af","ios":"levelo://app?vid=142126ac-6c9b-4492-b37e-c956feb198af"},"vehicle_type_id":"4","last_reported":1737706344,"current_range_meters":22400,"station_id":"ce4bhh92rcd13ifvqfh0","pricing_plan_id":"cebpf4jnsgd1na2vs0mg"},{"bike_id":"bd28a8d1-43a3-411b-8e89-e91fc33f5dc5","system_id":"levelo_inurba_marseille","lat":43.25,"lon":5.38939,"is_reserved":false,"is_disabled":false,"rental_uris":{"android":"levelo://app?vid=bd28a8d1-43a3-411b-8e89-e91fc33f5dc5","ios":"levelo://app?vid=bd28a8d1-43a3-411b-8e89-e91fc33f5dc5"},"vehicle_type_id":"4","last_reported":1737706344,"current_range_meters":30400,"station_id":"ce4bhgp2rcd13ifvqfd0","pricing_plan_id":"cebpf4jnsgd1na2vs0mg"},{"bike_id":"4065662d-885f-4acf-ae71-f2cd999fc11e","system_id":"levelo_inurba_marseille","lat":43.29303,"lon":5.37461,"is_reserved":false,"is_disabled":false,"rental_uris":{"android":"levelo://app?vid=4065662d-885f-4acf-ae71-f2cd999fc11e","ios":"levelo://app?vid=4065662d-885f-4acf-ae71-f2cd999fc11e"},"vehicle_type_id":"4","last_reported":1737706344,"current_range_meters":27600,"station_id":"ce4bgi12rcd13ifvqb70","pricing_plan_id":"cebpf4jnsgd1na2vs0mg"},{"bike_id":"51b693ec-6376-489f-b989-9f78de29a1f3","system_id":"levelo_inurba_marseille","lat":43.2416,"lon":5.36402,"is_reserved":false,"is_disabled":false,"rental_uris":{"android":"levelo://app?vid=51b693ec-6376-489f-b989-9f78de29a1f3","ios":"levelo://app?vid=51b693ec-6376-489f-b989-9f78de29a1f3"},"vehicle_type_id":"4","last_reported":1737706344,"current_range_meters":18800,"station_id":"cpo36qri1sfpv3e86is0","pricing_plan_id":"cebpf4jnsgd1na2vs0mg"},{"bike_id":"fa6415c6-150b-448b-9709-3aca739af766","system_id":"levelo_inurba_marseille","lat":43.30459,"lon":5.37923,"is_reserved":false,"is_disabled":false,"rental_uris":{"android":"levelo://app?vid=fa6415c6-150b-448b-9709-3aca739af766","ios":"levelo://app?vid=fa6415c6-150b-448b-9709-3aca739af766"},"vehicle_type_id":"4","last_reported":1737706344,"current_range_meters":35200,"station_id":"ce4bgup2rcd13ifvqcn0","pricing_plan_id":"cebpf4jnsgd1na2vs0mg"},{"bike_id":"de6fd782-7134-4e64-b9c3-cc2cfbe12552","system_id":"levelo_inurba_marseille","lat":43.311039,"lon":5.3881,"is_reserved":false,"is_disabled":false,"rental_uris":{"android":"levelo://app?vid=de6fd782-7134-4e64-b9c3-cc2cfbe12552","ios":"levelo://app?vid=de6fd782-7134-4e64-b9c3-cc2cfbe12552"},"vehicle_type_id":"4","last_reported":1737706344,"current_range_meters":33200,"station_id":"","pricing_plan_id":"cebpf4jnsgd1na2vs0mg"},{"bike_id":"13ff516e-16cf-4543-8540-9030b8b296b4","system_id":"levelo_inurba_marseille","lat":43.231861,"lon":5.355523,"is_reserved":false,"is_disabled":false,"rental_uris":{"android":"levelo://app?vid=13ff516e-16cf-4543-8540-9030b8b296b4","ios":"levelo://app?vid=13ff516e-16cf-4543-8540-9030b8b296b4"},"vehicle_type_id":"4","last_reported":1737706344,"current_range_meters":26000,"station_id":"ce4bhu92rcd13ifvqi70","pricing_plan_id":"cebpf4jnsgd1na2vs0mg"},{"bike_id":"38f1bf28-96e2-4929-83f0-f14ae15b6051","system_id":"levelo_inurba_marseille","lat":43.31072,"lon":5.42426,"is_reserved":false,"is_disabled":false,"rental_uris":{"android":"levelo://app?vid=38f1bf28-96e2-4929-83f0-f14ae15b6051","ios":"levelo://app?vid=38f1bf28-96e2-4929-83f0-f14ae15b6051"},"vehicle_type_id":"4","last_reported":1737706344,"current_range_meters":5600,"station_id":"ce4bhp92rcd13ifvqhag","pricing_plan_id":"cebpf4jnsgd1na2vs0mg"},{"bike_id":"7d7398a8-7c71-4d45-bd72-1d46447c6082","system_id":"levelo_inurba_marseille","lat":43.26951,"lon":5.38638,"is_reserved":false,"is_disabled":false,"rental_uris":{"android":"levelo://app?vid=7d7398a8-7c71-4d45-bd72-1d46447c6082","ios":"levelo://app?vid=7d7398a8-7c71-4d45-bd72-1d46447c6082"},"vehicle_type_id":"4","last_reported":1737706344,"current_range_meters":28000,"station_id":"ce4bhh92rcd13ifvqfh0","pricing_plan_id":"cebpf4jnsgd1na2vs0mg"},{"bike_id":"8a151ccc-edf6-40ab-a6a3-42b4ac96f698","system_id":"levelo_inurba_marseille","lat":43.28266,"lon":5.3508,"is_reserved":false,"is_disabled":true,"rental_uris":{"android":"levelo://app?vid=8a151ccc-edf6-40ab-a6a3-42b4ac96f698","ios":"levelo://app?vid=8a151ccc-edf6-40ab-a6a3-42b4ac96f698"},"vehicle_type_id":"4","last_reported":1737706344,"current_range_meters":24800,"station_id":"ce4bhbp2rcd13ifvqerg","pricing_plan_id":"cebpf4jnsgd1na2vs0mg"},{"bike_id":"5971ad5e-a484-4d3d-bdf2-2b149d5328ab","system_id":"levelo_inurba_marseille","lat":43.29033,"lon":5.39989,"is_reserved":false,"is_disabled":false,"rental_uris":{"android":"levelo://app?vid=5971ad5e-a484-4d3d-bdf2-2b149d5328ab","ios":"levelo://app?vid=5971ad5e-a484-4d3d-bdf2-2b149d5328ab"},"vehicle_type_id":"4","last_reported":1737706344,"current_range_meters":38800,"station_id":"ce4bh392rcd13ifvqdm0","pricing_plan_id":"cebpf4jnsgd1na2vs0mg"},{"bike_id":"7f0b73c5-af9a-4c10-9ae6-a4a4e527bef1","system_id":"levelo_inurba_marseille","lat":43.2558,"lon":5.38256,"is_reserved":false,"is_disabled":false,"rental_uris":{"android":"levelo://app?vid=7f0b73c5-af9a-4c10-9ae6-a4a4e527bef1","ios":"levelo://app?vid=7f0b73c5-af9a-4c10-9ae6-a4a4e527bef1"},"vehicle_type_id":"4","last_reported":1737706344,"current_range_meters":27200,"station_id":"ce4bhih2rcd13ifvqfs0","pricing_plan_id":"cebpf4jnsgd1na2vs0mg"},{"bike_id":"d793b4cd-3d60-4b4b-8463-8a0e0497ff20","system_id":"levelo_inurba_marseille","lat":43.31085,"lon":5.42437,"is_reserved":false,"is_disabled":false,"rental_uris":{"android":"levelo://app?vid=d793b4cd-3d60-4b4b-8463-8a0e0497ff20","ios":"levelo://app?vid=d793b4cd-3d60-4b4b-8463-8a0e0497ff20"},"vehicle_type_id":"4","last_reported":1737706344,"current_range_meters":12000,"station_id":"ce4bhp92rcd13ifvqhag","pricing_plan_id":"cebpf4jnsgd1na2vs0mg"},{"bike_id":"c07ffe20-21f2-4b01-b153-b7e93fc6ba8d","system_id":"levelo_inurba_marseille","lat":43.3172,"lon":5.42395,"is_reserved":false,"is_disabled":false,"rental_uris":{"android":"levelo://app?vid=c07ffe20-21f2-4b01-b153-b7e93fc6ba8d","ios":"levelo://app?vid=c07ffe20-21f2-4b01-b153-b7e93fc6ba8d"},"vehicle_type_id":"4","last_reported":1737706344,"current_range_meters":2800,"station_id":"ce4bhp92rcd13ifvqhbg","pricing_plan_id":"cebpf4jnsgd1na2vs0mg"},{"bike_id":"68451555-5a88-4674-bd18-041a4508c6ed","system_id":"levelo_inurba_marseille","lat":43.26788,"lon":5.39415,"is_reserved":false,"is_disabled":false,"rental_uris":{"android":"levelo://app?vid=68451555-5a88-4674-bd18-041a4508c6ed","ios":"levelo://app?vid=68451555-5a88-4674-bd18-041a4508c6ed"},"vehicle_type_id":"4","last_reported":1737706344,"current_range_meters":20400,"station_id":"ce4bhh12rcd13ifvqfg0","pricing_plan_id":"cebpf4jnsgd1na2vs0mg"},{"bike_id":"74ed1421-f7d8-456d-9d89-3a20f0b34c65","system_id":"levelo_inurba_marseille","lat":43.3033,"lon":5.40432,"is_reserved":false,"is_disabled":false,"rental_uris":{"android":"levelo://app?vid=74ed1421-f7d8-456d-9d89-3a20f0b34c65","ios":"levelo://app?vid=74ed1421-f7d8-456d-9d89-3a20f0b34c65"},"vehicle_type_id":"4","last_reported":1737706344,"current_range_meters":22000,"station_id":"ce4bh012rcd13ifvqd10","pricing_plan_id":"cebpf4jnsgd1na2vs0mg"},{"bike_id":"0b8a5dea-f7ae-4594-9efe-761d02ed2427","system_id":"levelo_inurba_marseille","lat":43.29574,"lon":5.3751,"is_reserved":false,"is_disabled":false,"rental_uris":{"android":"levelo://app?vid=0b8a5dea-f7ae-4594-9efe-761d02ed2427","ios":"levelo://app?vid=0b8a5dea-f7ae-4594-9efe-761d02ed2427"},"vehicle_type_id":"4","last_reported":1737706344,"current_range_meters":38800,"station_id":"ce4bgh92rcd13ifvqb50","pricing_plan_id":"cebpf4jnsgd1na2vs0mg"},{"bike_id":"50a77586-14ce-482c-8c10-f31af62a7f74","system_id":"levelo_inurba_marseille","lat":43.30269,"lon":5.3691,"is_reserved":false,"is_disabled":false,"rental_uris":{"android":"levelo://app?vid=50a77586-14ce-482c-8c10-f31af62a7f74","ios":"levelo://app?vid=50a77586-14ce-482c-8c10-f31af62a7f74"},"vehicle_type_id":"4","last_reported":1737706344,"current_range_meters":36800,"station_id":"ce4bgqh2rcd13ifvqc5g","pricing_plan_id":"cebpf4jnsgd1na2vs0mg"},{"bike_id":"ad3aee71-beb9-4a1e-9722-9b20ae8392f1","system_id":"levelo_inurba_marseille","lat":43.32045,"lon":5.41542,"is_reserved":false,"is_disabled":false,"rental_uris":{"android":"levelo://app?vid=ad3aee71-beb9-4a1e-9722-9b20ae8392f1","ios":"levelo://app?vid=ad3aee71-beb9-4a1e-9722-9b20ae8392f1"},"vehicle_type_id":"4","last_reported":1737706344,"current_range_meters":19200,"station_id":"ce4bhq92rcd13ifvqhkg","pricing_plan_id":"cebpf4jnsgd1na2vs0mg"},{"bike_id":"39858c81-8325-44e8-9131-89a2dd3d90ef","system_id":"levelo_inurba_marseille","lat":43.29708,"lon":5.37706,"is_reserved":false,"is_disabled":false,"rental_uris":{"android":"levelo://app?vid=39858c81-8325-44e8-9131-89a2dd3d90ef","ios":"levelo://app?vid=39858c81-8325-44e8-9131-89a2dd3d90ef"},"vehicle_type_id":"4","last_reported":1737706344,"current_range_meters":11600,"station_id":"ce4bgkh2rcd13ifvqbl0","pricing_plan_id":"cebpf4jnsgd1na2vs0mg"},{"bike_id":"5e97af20-8afc-41e0-9f59-c3eb3474cd31","system_id":"levelo_inurba_marseille","lat":43.290434,"lon":5.399454,"is_reserved":false,"is_disabled":false,"rental_uris":{"android":"levelo://app?vid=5e97af20-8afc-41e0-9f59-c3eb3474cd31","ios":"levelo://app?vid=5e97af20-8afc-41e0-9f59-c3eb3474cd31"},"vehicle_type_id":"4","last_reported":1737706344,"current_range_meters":36000,"station_id":"ce4bh392rcd13ifvqdm0","pricing_plan_id":"cebpf4jnsgd1na2vs0mg"},{"bike_id":"421d447e-f137-48f8-b50a-3cef6ba73d00","system_id":"levelo_inurba_marseille","lat":43.32341,"lon":5.36741,"is_reserved":false,"is_disabled":false,"rental_uris":{"android":"levelo://app?vid=421d447e-f137-48f8-b50a-3cef6ba73d00","ios":"levelo://app?vid=421d447e-f137-48f8-b50a-3cef6ba73d00"},"vehicle_type_id":"4","last_reported":1737706344,"current_range_meters":10000,"station_id":"ce4bhsh2rcd13ifvqi2g","pricing_plan_id":"cebpf4jnsgd1na2vs0mg"},{"bike_id":"0f9bfae7-1c43-4246-8664-da7b03a3025f","system_id":"levelo_inurba_marseille","lat":43.29301,"lon":5.3716,"is_reserved":false,"is_disabled":false,"rental_uris":{"android":"levelo://app?vid=0f9bfae7-1c43-4246-8664-da7b03a3025f","ios":"levelo://app?vid=0f9bfae7-1c43-4246-8664-da7b03a3025f"},"vehicle_type_id":"4","last_reported":1737706344,"current_range_meters":11200,"station_id":"ce4bgh92rcd13ifvqb40","pricing_plan_id":"cebpf4jnsgd1na2vs0mg"},{"bike_id":"f38f63fd-8f6f-4b91-9c49-8b65f256ffe9","system_id":"levelo_inurba_marseille","lat":43.29855,"lon":5.36283,"is_reserved":false,"is_disabled":true,"rental_uris":{"android":"levelo://app?vid=f38f63fd-8f6f-4b91-9c49-8b65f256ffe9","ios":"levelo://app?vid=f38f63fd-8f6f-4b91-9c49-8b65f256ffe9"},"vehicle_type_id":"4","last_reported":1737706344,"current_range_meters":36800,"station_id":"ce4bgpp2rcd13ifvqc3g","pricing_plan_id":"cebpf4jnsgd1na2vs0mg"},{"bike_id":"8ad30b62-98f5-456f-99ad-9f3cc737a952","system_id":"levelo_inurba_marseille","lat":43.30965,"lon":5.39009,"is_reserved":false,"is_disabled":false,"rental_uris":{"android":"levelo://app?vid=8ad30b62-98f5-456f-99ad-9f3cc737a952","ios":"levelo://app?vid=8ad30b62-98f5-456f-99ad-9f3cc737a952"},"vehicle_type_id":"4","last_reported":1737706344,"current_range_meters":10800,"station_id":"ce4bgup2rcd13ifvqco0","pricing_plan_id":"cebpf4jnsgd1na2vs0mg"},{"bike_id":"75495e7c-20bd-4569-84c6-35df34ab244d","system_id":"levelo_inurba_marseille","lat":43.2989,"lon":5.43676,"is_reserved":false,"is_disabled":true,"rental_uris":{"android":"levelo://app?vid=75495e7c-20bd-4569-84c6-35df34ab244d","ios":"levelo://app?vid=75495e7c-20bd-4569-84c6-35df34ab244d"},"vehicle_type_id":"4","last_reported":1737706344,"current_range_meters":0,"station_id":"ce4bhpp2rcd13ifvqhfg","pricing_plan_id":"cebpf4jnsgd1na2vs0mg"},{"bike_id":"02db2a21-4ac1-4df6-b318-a872f6f69430","system_id":"levelo_inurba_marseille","lat":43.29374,"lon":5.37863,"is_reserved":false,"is_disabled":false,"rental_uris":{"android":"levelo://app?vid=02db2a21-4ac1-4df6-b318-a872f6f69430","ios":"levelo://app?vid=02db2a21-4ac1-4df6-b318-a872f6f69430"},"vehicle_type_id":"4","last_reported":1737706344,"current_range_meters":34000,"station_id":"ce4bgjh2rcd13ifvqbf0","pricing_plan_id":"cebpf4jnsgd1na2vs0mg"},{"bike_id":"67107f9b-9a76-4404-a94d-c70aeafdbcaa","system_id":"levelo_inurba_marseille","lat":43.3054,"lon":5.3843,"is_reserved":false,"is_disabled":false,"rental_uris":{"android":"levelo://app?vid=67107f9b-9a76-4404-a94d-c70aeafdbcaa","ios":"levelo://app?vid=67107f9b-9a76-4404-a94d-c70aeafdbcaa"},"vehicle_type_id":"4","last_reported":1737706344,"current_range_meters":38800,"station_id":"ce4bgg92rcd13ifvqb30","pricing_plan_id":"cebpf4jnsgd1na2vs0mg"},{"bike_id":"2693e099-578a-4462-b03c-cb6a658dc0f3","system_id":"levelo_inurba_marseille","lat":43.29888,"lon":5.43672,"is_reserved":false,"is_disabled":false,"rental_uris":{"android":"levelo://app?vid=2693e099-578a-4462-b03c-cb6a658dc0f3","ios":"levelo://app?vid=2693e099-578a-4462-b03c-cb6a658dc0f3"},"vehicle_type_id":"4","last_reported":1737706344,"current_range_meters":39200,"station_id":"ce4bhpp2rcd13ifvqhfg","pricing_plan_id":"cebpf4jnsgd1na2vs0mg"},{"bike_id":"f15a3926-03ea-4c4b-9f1b-6e7324acfe94","system_id":"levelo_inurba_marseille","lat":43.28733,"lon":5.37668,"is_reserved":false,"is_disabled":true,"rental_uris":{"android":"levelo://app?vid=f15a3926-03ea-4c4b-9f1b-6e7324acfe94","ios":"levelo://app?vid=f15a3926-03ea-4c4b-9f1b-6e7324acfe94"},"vehicle_type_id":"4","last_reported":1737706344,"current_range_meters":8000,"station_id":"","pricing_plan_id":"cebpf4jnsgd1na2vs0mg"},{"bike_id":"699b6387-ff7d-4935-a6d8-a8b530735722","system_id":"levelo_inurba_marseille","lat":43.28929,"lon":5.36412,"is_reserved":false,"is_disabled":true,"rental_uris":{"android":"levelo://app?vid=699b6387-ff7d-4935-a6d8-a8b530735722","ios":"levelo://app?vid=699b6387-ff7d-4935-a6d8-a8b530735722"},"vehicle_type_id":"4","last_reported":1737706344,"current_range_meters":17600,"station_id":"ce4bhc92rcd13ifvqetg","pricing_plan_id":"cebpf4jnsgd1na2vs0mg"},{"bike_id":"0683b8fa-bf66-4a85-b23f-305b1ef8e2c5","system_id":"levelo_inurba_marseille","lat":43.29888,"lon":5.437,"is_reserved":false,"is_disabled":false,"rental_uris":{"android":"levelo://app?vid=0683b8fa-bf66-4a85-b23f-305b1ef8e2c5","ios":"levelo://app?vid=0683b8fa-bf66-4a85-b23f-305b1ef8e2c5"},"vehicle_type_id":"4","last_reported":1737706344,"current_range_meters":4400,"station_id":"ce4bhpp2rcd13ifvqhfg","pricing_plan_id":"cebpf4jnsgd1na2vs0mg"},{"bike_id":"6724d907-def9-40c0-b439-a702b1be2699","system_id":"levelo_inurba_marseille","lat":43.31338,"lon":5.36724,"is_reserved":false,"is_disabled":false,"rental_uris":{"android":"levelo://app?vid=6724d907-def9-40c0-b439-a702b1be2699","ios":"levelo://app?vid=6724d907-def9-40c0-b439-a702b1be2699"},"vehicle_type_id":"4","last_reported":1737706344,"current_range_meters":20000,"station_id":"ce4bgr92rcd13ifvqc6g","pricing_plan_id":"cebpf4jnsgd1na2vs0mg"},{"bike_id":"ba477364-8ad4-41f9-989b-3ee98f1820a4","system_id":"levelo_inurba_marseille","lat":43.27325,"lon":5.39097,"is_reserved":false,"is_disabled":true,"rental_uris":{"android":"levelo://app?vid=ba477364-8ad4-41f9-989b-3ee98f1820a4","ios":"levelo://app?vid=ba477364-8ad4-41f9-989b-3ee98f1820a4"},"vehicle_type_id":"4","last_reported":1737706344,"current_range_meters":25200,"station_id":"ce4bhgp2rcd13ifvqfe0","pricing_plan_id":"cebpf4jnsgd1na2vs0mg"},{"bike_id":"b6ca3529-f0a9-4cc1-850c-4700b77cbd8e","system_id":"levelo_inurba_marseille","lat":43.29042,"lon":5.3759,"is_reserved":false,"is_disabled":false,"rental_uris":{"android":"levelo://app?vid=b6ca3529-f0a9-4cc1-850c-4700b77cbd8e","ios":"levelo://app?vid=b6ca3529-f0a9-4cc1-850c-4700b77cbd8e"},"vehicle_type_id":"4","last_reported":1737706344,"current_range_meters":38000,"station_id":"ce4bh692rcd13ifvqe90","pricing_plan_id":"cebpf4jnsgd1na2vs0mg"},{"bike_id":"b90c3fb6-4797-4e4e-905f-d6142e373c2b","system_id":"levelo_inurba_marseille","lat":43.26941,"lon":5.40253,"is_reserved":false,"is_disabled":false,"rental_uris":{"android":"levelo://app?vid=b90c3fb6-4797-4e4e-905f-d6142e373c2b","ios":"levelo://app?vid=b90c3fb6-4797-4e4e-905f-d6142e373c2b"},