{"last_updated":1730646521,"ttl":60,"version":"2.2","data":{"bikes":[{"bike_id":"daa5500f-6039-4d77-bf02-00710b3acec6","system_id":"levelo_inurba_marseille","lat":43.25931,"lon":5.40907,"is_reserved":false,"is_disabled":false,"rental_uris":{"android":"levelo://app?vid=daa5500f-6039-4d77-bf02-00710b3acec6","ios":"levelo://app?vid=daa5500f-6039-4d77-bf02-00710b3acec6"},"vehicle_type_id":"4","last_reported":1730646522,"current_range_meters":4000,"station_id":"ce4bhm92rcd13ifvqglg","pricing_plan_id":"cebpf4jnsgd1na2vs0mg"},{"bike_id":"6cbd1f1c-6b16-4d80-9553-48e6e23849ac","system_id":"levelo_inurba_marseille","lat":43.28815,"lon":5.41093,"is_reserved":false,"is_disabled":false,"rental_uris":{"android":"levelo://app?vid=6cbd1f1c-6b16-4d80-9553-48e6e23849ac","ios":"levelo://app?vid=6cbd1f1c-6b16-4d80-9553-48e6e23849ac"},"vehicle_type_id":"4","last_reported":1730646522,"current_range_meters":4000,"station_id":"ce4bgvh2rcd13ifvqcs0","pricing_plan_id":"cebpf4jnsgd1na2vs0mg"},{"bike_id":"8c2cc48d-9ab8-4fc0-82ef-7cafd31d7aa7","system_id":"levelo_inurba_marseille","lat":43.32473,"lon":5.36563,"is_reserved":false,"is_disabled":false,"rental_uris":{"android":"levelo://app?vid=8c2cc48d-9ab8-4fc0-82ef-7cafd31d7aa7","ios":"levelo://app?vid=8c2cc48d-9ab8-4fc0-82ef-7cafd31d7aa7"},"vehicle_type_id":"4","last_reported":1730646522,"current_range_meters":18000,"station_id":"ce4bhs12rcd13ifvqhvg","pricing_plan_id":"cebpf4jnsgd1na2vs0mg"},{"bike_id":"84254659-2dee-4aa5-8185-6dbc5d2f0da7","system_id":"levelo_inurba_marseille","lat":43.2396,"lon":5.36625,"is_reserved":false,"is_disabled":false,"rental_uris":{"android":"levelo://app?vid=84254659-2dee-4aa5-8185-6dbc5d2f0da7","ios":"levelo://app?vid=84254659-2dee-4aa5-8185-6dbc5d2f0da7"},"vehicle_type_id":"4","last_reported":1730646522,"current_range_meters":12400,"station_id":"ce4bhi12rcd13ifvqfp0","pricing_plan_id":"cebpf4jnsgd1na2vs0mg"},{"bike_id":"799f6378-895a-49b0-9e89-f7b40aa73b6a","system_id":"levelo_inurba_marseille","lat":43.26552,"lon":5.37289,"is_reserved":false,"is_disabled":false,"rental_uris":{"android":"levelo://app?vid=799f6378-895a-49b0-9e89-f7b40aa73b6a","ios":"levelo://app?vid=799f6378-895a-49b0-9e89-f7b40aa73b6a"},"vehicle_type_id":"4","last_reported":1730646522,"current_range_meters":38000,"station_id":"ce4bhg12rcd13ifvqf70","pricing_plan_id":"cebpf4jnsgd1na2vs0mg"},{"bike_id":"f09a2e3e-a687-4ccb-9ce7-accc19389448","system_id":"levelo_inurba_marseille","lat":43.23959,"lon":5.36635,"is_reserved":false,"is_disabled":false,"rental_uris":{"android":"levelo://app?vid=f09a2e3e-a687-4ccb-9ce7-accc19389448","ios":"levelo://app?vid=f09a2e3e-a687-4ccb-9ce7-accc19389448"},"vehicle_type_id":"4","last_reported":1730646522,"current_range_meters":38800,"station_id":"ce4bhi12rcd13ifvqfp0","pricing_plan_id":"cebpf4jnsgd1na2vs0mg"},{"bike_id":"92a0073c-20f6-4c2f-a53a-1975e2f6500a","system_id":"levelo_inurba_marseille","lat":43.23064,"lon":5.35497,"is_reserved":false,"is_disabled":false,"rental_uris":{"android":"levelo://app?vid=92a0073c-20f6-4c2f-a53a-1975e2f6500a","ios":"levelo://app?vid=92a0073c-20f6-4c2f-a53a-1975e2f6500a"},"vehicle_type_id":"4","last_reported":1730646522,"current_range_meters":14400,"station_id":"cpo3342slgdg3j2ifvpg","pricing_plan_id":"cebpf4jnsgd1na2vs0mg"},{"bike_id":"4a7fc2b8-1796-4c4e-a92c-ac60a62e7d7a","system_id":"levelo_inurba_marseille","lat":43.28616,"lon":5.351,"is_reserved":false,"is_disabled":false,"rental_uris":{"android":"levelo://app?vid=4a7fc2b8-1796-4c4e-a92c-ac60a62e7d7a","ios":"levelo://app?vid=4a7fc2b8-1796-4c4e-a92c-ac60a62e7d7a"},"vehicle_type_id":"4","last_reported":1730646522,"current_range_meters":36400,"station_id":"ce4bhch2rcd13ifvqeug","pricing_plan_id":"cebpf4jnsgd1na2vs0mg"},{"bike_id":"cc125771-aee1-4ad2-93df-dc49f9b2d265","system_id":"levelo_inurba_marseille","lat":43.23958,"lon":5.36636,"is_reserved":false,"is_disabled":false,"rental_uris":{"android":"levelo://app?vid=cc125771-aee1-4ad2-93df-dc49f9b2d265","ios":"levelo://app?vid=cc125771-aee1-4ad2-93df-dc49f9b2d265"},"vehicle_type_id":"4","last_reported":1730646522,"current_range_meters":36400,"station_id":"ce4bhi12rcd13ifvqfp0","pricing_plan_id":"cebpf4jnsgd1na2vs0mg"},{"bike_id":"5818a6ac-2d40-4bf0-a920-aefa2e8a89fa","system_id":"levelo_inurba_marseille","lat":43.26484,"lon":5.39554,"is_reserved":false,"is_disabled":false,"rental_uris":{"android":"levelo://app?vid=5818a6ac-2d40-4bf0-a920-aefa2e8a89fa","ios":"levelo://app?vid=5818a6ac-2d40-4bf0-a920-aefa2e8a89fa"},"vehicle_type_id":"4","last_reported":1730646522,"current_range_meters":24000,"station_id":"ce4bhi12rcd13ifvqfq0","pricing_plan_id":"cebpf4jnsgd1na2vs0mg"},{"bike_id":"61356c6b-1241-4ee2-a6f1-920efe897ab4","system_id":"levelo_inurba_marseille","lat":43.24391,"lon":5.37059,"is_reserved":false,"is_disabled":false,"rental_uris":{"android":"levelo://app?vid=61356c6b-1241-4ee2-a6f1-920efe897ab4","ios":"levelo://app?vid=61356c6b-1241-4ee2-a6f1-920efe897ab4"},"vehicle_type_id":"4","last_reported":1730646522,"current_range_meters":6000,"station_id":"ce4bhhh2rcd13ifvqfk0","pricing_plan_id":"cebpf4jnsgd1na2vs0mg"},{"bike_id":"806cb1ad-7afb-41f7-b84a-942f6644d720","system_id":"levelo_inurba_marseille","lat":43.30167,"lon":5.36806,"is_reserved":false,"is_disabled":false,"rental_uris":{"android":"levelo://app?vid=806cb1ad-7afb-41f7-b84a-942f6644d720","ios":"levelo://app?vid=806cb1ad-7afb-41f7-b84a-942f6644d720"},"vehicle_type_id":"4","last_reported":1730646522,"current_range_meters":10000,"station_id":"ce4bh0h2rcd13ifvqd50","pricing_plan_id":"cebpf4jnsgd1na2vs0mg"},{"bike_id":"3c330f08-508b-4866-b688-f0374209e3dc","system_id":"levelo_inurba_marseille","lat":43.2511,"lon":5.40312,"is_reserved":false,"is_disabled":false,"rental_uris":{"android":"levelo://app?vid=3c330f08-508b-4866-b688-f0374209e3dc","ios":"levelo://app?vid=3c330f08-508b-4866-b688-f0374209e3dc"},"vehicle_type_id":"4","last_reported":1730646522,"current_range_meters":37600,"station_id":"ce4bhlh2rcd13ifvqgig","pricing_plan_id":"cebpf4jnsgd1na2vs0mg"},{"bike_id":"4147bbfb-4b14-4aca-b782-8ec6c0473609","system_id":"levelo_inurba_marseille","lat":43.23586,"lon":5.40344,"is_reserved":false,"is_disabled":false,"rental_uris":{"android":"levelo://app?vid=4147bbfb-4b14-4aca-b782-8ec6c0473609","ios":"levelo://app?vid=4147bbfb-4b14-4aca-b782-8ec6c0473609"},"vehicle_type_id":"4","last_reported":1730646522,"current_range_meters":20800,"station_id":"","pricing_plan_id":"cebpf4jnsgd1na2vs0mg"},{"bike_id":"22e0687f-e2cc-4582-8141-7137fc3d70c2","system_id":"levelo_inurba_marseille","lat":43.24805,"lon":5.37464,"is_reserved":false,"is_disabled":false,"rental_uris":{"android":"levelo://app?vid=22e0687f-e2cc-4582-8141-7137fc3d70c2","ios":"levelo://app?vid=22e0687f-e2cc-4582-8141-7137fc3d70c2"},"vehicle_type_id":"4","last_reported":1730646522,"current_range_meters":18800,"station_id":"ce4bhgh2rcd13ifvqfb0","pricing_plan_id":"cebpf4jnsgd1na2vs0mg"},{"bike_id":"768ab267-68c0-4d75-ab7e-f70793be3c63","system_id":"levelo_inurba_marseille","lat":43.28608,"lon":5.35104,"is_reserved":false,"is_disabled":false,"rental_uris":{"android":"levelo://app?vid=768ab267-68c0-4d75-ab7e-f70793be3c63","ios":"levelo://app?vid=768ab267-68c0-4d75-ab7e-f70793be3c63"},"vehicle_type_id":"4","last_reported":1730646522,"current_range_meters":37600,"station_id":"ce4bhch2rcd13ifvqeug","pricing_plan_id":"cebpf4jnsgd1na2vs0mg"},{"bike_id":"eeda0a49-c95e-447a-b118-263faeb6a58f","system_id":"levelo_inurba_marseille","lat":43.3145,"lon":5.37381,"is_reserved":false,"is_disabled":false,"rental_uris":{"android":"levelo://app?vid=eeda0a49-c95e-447a-b118-263faeb6a58f","ios":"levelo://app?vid=eeda0a49-c95e-447a-b118-263faeb6a58f"},"vehicle_type_id":"4","last_reported":1730646522,"current_range_meters":14800,"station_id":"","pricing_plan_id":"cebpf4jnsgd1na2vs0mg"},{"bike_id":"19a6d47e-53d7-42cf-9934-34fc3fd9053c","system_id":"levelo_inurba_marseille","lat":43.32287,"lon":5.38269,"is_reserved":false,"is_disabled":false,"rental_uris":{"android":"levelo://app?vid=19a6d47e-53d7-42cf-9934-34fc3fd9053c","ios":"levelo://app?vid=19a6d47e-53d7-42cf-9934-34fc3fd9053c"},"vehicle_type_id":"4","last_reported":1730646522,"current_range_meters":33600,"station_id":"ce4bhr12rcd13ifvqhqg","pricing_plan_id":"cebpf4jnsgd1na2vs0mg"},{"bike_id":"03626d68-29d4-42ed-aab6-c9aeea97b430","system_id":"levelo_inurba_marseille","lat":43.32034,"lon":5.41564,"is_reserved":false,"is_disabled":false,"rental_uris":{"android":"levelo://app?vid=03626d68-29d4-42ed-aab6-c9aeea97b430","ios":"levelo://app?vid=03626d68-29d4-42ed-aab6-c9aeea97b430"},"vehicle_type_id":"4","last_reported":1730646522,"current_range_meters":3200,"station_id":"ce4bhq92rcd13ifvqhkg","pricing_plan_id":"cebpf4jnsgd1na2vs0mg"},{"bike_id":"fbb69f4b-3dc6-4e69-8496-70ed995da3c8","system_id":"levelo_inurba_marseille","lat":43.28416,"lon":5.34996,"is_reserved":false,"is_disabled":false,"rental_uris":{"android":"levelo://app?vid=fbb69f4b-3dc6-4e69-8496-70ed995da3c8","ios":"levelo://app?vid=fbb69f4b-3dc6-4e69-8496-70ed995da3c8"},"vehicle_type_id":"4","last_reported":1730646522,"current_range_meters":39200,"station_id":"ce4bhbh2rcd13ifvqepg","pricing_plan_id":"cebpf4jnsgd1na2vs0mg"},{"bike_id":"c9e22a39-c83d-4d72-b835-4eba40c8b8cf","system_id":"levelo_inurba_marseille","lat":43.28403,"lon":5.34992,"is_reserved":false,"is_disabled":false,"rental_uris":{"android":"levelo://app?vid=c9e22a39-c83d-4d72-b835-4eba40c8b8cf","ios":"levelo://app?vid=c9e22a39-c83d-4d72-b835-4eba40c8b8cf"},"vehicle_type_id":"4","last_reported":1730646522,"current_range_meters":20800,"station_id":"ce4bhbh2rcd13ifvqepg","pricing_plan_id":"cebpf4jnsgd1na2vs0mg"},{"bike_id":"94695984-795b-426f-a281-91058c3e7918","system_id":"levelo_inurba_marseille","lat":43.2319,"lon":5.35551,"is_reserved":false,"is_disabled":false,"rental_uris":{"android":"levelo://app?vid=94695984-795b-426f-a281-91058c3e7918","ios":"levelo://app?vid=94695984-795b-426f-a281-91058c3e7918"},"vehicle_type_id":"4","last_reported":1730646522,"current_range_meters":38800,"station_id":"ce4bhu92rcd13ifvqi70","pricing_plan_id":"cebpf4jnsgd1na2vs0mg"},{"bike_id":"598535da-1e32-42e0-bd65-4ba25549dd70","system_id":"levelo_inurba_marseille","lat":43.31459,"lon":5.3737,"is_reserved":false,"is_disabled":false,"rental_uris":{"android":"levelo://app?vid=598535da-1e32-42e0-bd65-4ba25549dd70","ios":"levelo://app?vid=598535da-1e32-42e0-bd65-4ba25549dd70"},"vehicle_type_id":"4","last_reported":1730646522,"current_range_meters":30000,"station_id":"","pricing_plan_id":"cebpf4jnsgd1na2vs0mg"},{"bike_id":"2378f453-72a7-4eb2-ab3b-946285d406fd","system_id":"levelo_inurba_marseille","lat":43.29212,"lon":5.37745,"is_reserved":false,"is_disabled":false,"rental_uris":{"android":"levelo://app?vid=2378f453-72a7-4eb2-ab3b-946285d406fd","ios":"levelo://app?vid=2378f453-72a7-4eb2-ab3b-946285d406fd"},"vehicle_type_id":"4","last_reported":1730646522,"current_range_meters":12800,"station_id":"ce4bgi12rcd13ifvqb70","pricing_plan_id":"cebpf4jnsgd1na2vs0mg"},{"bike_id":"2fd7996a-a856-43b8-9100-f65959ddb1b9","system_id":"levelo_inurba_marseille","lat":43.28467,"lon":5.35897,"is_reserved":false,"is_disabled":false,"rental_uris":{"android":"levelo://app?vid=2fd7996a-a856-43b8-9100-f65959ddb1b9","ios":"levelo://app?vid=2fd7996a-a856-43b8-9100-f65959ddb1b9"},"vehicle_type_id":"4","last_reported":1730646522,"current_range_meters":2800,"station_id":"ce4bhah2rcd13ifvqei0","pricing_plan_id":"cebpf4jnsgd1na2vs0mg"},{"bike_id":"8e526b37-6c7f-4eb0-b6c1-598a862ea86d","system_id":"levelo_inurba_marseille","lat":43.27069,"lon":5.42287,"is_reserved":false,"is_disabled":false,"rental_uris":{"android":"levelo://app?vid=8e526b37-6c7f-4eb0-b6c1-598a862ea86d","ios":"levelo://app?vid=8e526b37-6c7f-4eb0-b6c1-598a862ea86d"},"vehicle_type_id":"4","last_reported":1730646522,"current_range_meters":24400,"station_id":"ce4bhk92rcd13ifvqgb0","pricing_plan_id":"cebpf4jnsgd1na2vs0mg"},{"bike_id":"7f6f0238-5304-4d40-b3fc-318b49abc989","system_id":"levelo_inurba_marseille","lat":43.28416,"lon":5.34986,"is_reserved":false,"is_disabled":false,"rental_uris":{"android":"levelo://app?vid=7f6f0238-5304-4d40-b3fc-318b49abc989","ios":"levelo://app?vid=7f6f0238-5304-4d40-b3fc-318b49abc989"},"vehicle_type_id":"4","last_reported":1730646522,"current_range_meters":38800,"station_id":"ce4bhbh2rcd13ifvqepg","pricing_plan_id":"cebpf4jnsgd1na2vs0mg"},{"bike_id":"a1ec2dcd-2526-4b25-98b6-5aab15754bd3","system_id":"levelo_inurba_marseille","lat":43.24386,"lon":5.37066,"is_reserved":false,"is_disabled":false,"rental_uris":{"android":"levelo://app?vid=a1ec2dcd-2526-4b25-98b6-5aab15754bd3","ios":"levelo://app?vid=a1ec2dcd-2526-4b25-98b6-5aab15754bd3"},"vehicle_type_id":"4","last_reported":1730646522,"current_range_meters":33600,"station_id":"ce4bhhh2rcd13ifvqfk0","pricing_plan_id":"cebpf4jnsgd1na2vs0mg"},{"bike_id":"d6e9ba07-8ec2-4b9a-bba8-91760d5204ec","system_id":"levelo_inurba_marseille","lat":43.28421,"lon":5.34992,"is_reserved":false,"is_disabled":false,"rental_uris":{"android":"levelo://app?vid=d6e9ba07-8ec2-4b9a-bba8-91760d5204ec","ios":"levelo://app?vid=d6e9ba07-8ec2-4b9a-bba8-91760d5204ec"},"vehicle_type_id":"4","last_reported":1730646522,"current_range_meters":28400,"station_id":"ce4bhbh2rcd13ifvqepg","pricing_plan_id":"cebpf4jnsgd1na2vs0mg"},{"bike_id":"c8893d8e-f81f-4744-85fb-448d69741653","system_id":"levelo_inurba_marseille","lat":43.276063,"lon":5.36106,"is_reserved":false,"is_disabled":false,"rental_uris":{"android":"levelo://app?vid=c8893d8e-f81f-4744-85fb-448d69741653","ios":"levelo://app?vid=c8893d8e-f81f-4744-85fb-448d69741653"},"vehicle_type_id":"4","last_reported":1730646522,"current_range_meters":16800,"station_id":"ce4bgj92rcd13ifvqbe0","pricing_plan_id":"cebpf4jnsgd1na2vs0mg"},{"bike_id":"252cc6c4-e8ab-456f-bbbb-e033c72460ee","system_id":"levelo_inurba_marseille","lat":43.29253,"lon":5.4092,"is_reserved":false,"is_disabled":false,"rental_uris":{"android":"levelo://app?vid=252cc6c4-e8ab-456f-bbbb-e033c72460ee","ios":"levelo://app?vid=252cc6c4-e8ab-456f-bbbb-e033c72460ee"},"vehicle_type_id":"4","last_reported":1730646522,"current_range_meters":32800,"station_id":"ce4bh192rcd13ifvqdc0","pricing_plan_id":"cebpf4jnsgd1na2vs0mg"},{"bike_id":"0c0e9036-82c0-4ae7-8f06-f2a0e4e21cf1","system_id":"levelo_inurba_marseille","lat":43.27372,"lon":5.36267,"is_reserved":false,"is_disabled":false,"rental_uris":{"android":"levelo://app?vid=0c0e9036-82c0-4ae7-8f06-f2a0e4e21cf1","ios":"levelo://app?vid=0c0e9036-82c0-4ae7-8f06-f2a0e4e21cf1"},"vehicle_type_id":"4","last_reported":1730646522,"current_range_meters":33200,"station_id":"ce4bhbh2rcd13ifvqeo0","pricing_plan_id":"cebpf4jnsgd1na2vs0mg"},{"bike_id":"dcda6d62-942d-4cfc-b0c3-e7315a082712","system_id":"levelo_inurba_marseille","lat":43.2781,"lon":5.40711,"is_reserved":false,"is_disabled":false,"rental_uris":{"android":"levelo://app?vid=dcda6d62-942d-4cfc-b0c3-e7315a082712","ios":"levelo://app?vid=dcda6d62-942d-4cfc-b0c3-e7315a082712"},"vehicle_type_id":"4","last_reported":1730646522,"current_range_meters":36800,"station_id":"ce4bhnh2rcd13ifvqgtg","pricing_plan_id":"cebpf4jnsgd1na2vs0mg"},{"bike_id":"75576e24-6890-4288-9aa5-db2804891d6f","system_id":"levelo_inurba_marseille","lat":43.26937,"lon":5.40254,"is_reserved":false,"is_disabled":false,"rental_uris":{"android":"levelo://app?vid=75576e24-6890-4288-9aa5-db2804891d6f","ios":"levelo://app?vid=75576e24-6890-4288-9aa5-db2804891d6f"},"vehicle_type_id":"4","last_reported":1730646522,"current_range_meters":38000,"station_id":"cjm6bp8fraef2m0cb0m0","pricing_plan_id":"cebpf4jnsgd1na2vs0mg"},{"bike_id":"54337fac-085e-4782-bad6-db9a84abd2e2","system_id":"levelo_inurba_marseille","lat":43.31706,"lon":5.37745,"is_reserved":false,"is_disabled":false,"rental_uris":{"android":"levelo://app?vid=54337fac-085e-4782-bad6-db9a84abd2e2","ios":"levelo://app?vid=54337fac-085e-4782-bad6-db9a84abd2e2"},"vehicle_type_id":"4","last_reported":1730646522,"current_range_meters":38800,"station_id":"ce4bgth2rcd13ifvqch0","pricing_plan_id":"cebpf4jnsgd1na2vs0mg"},{"bike_id":"253e3beb-a620-4d15-9c80-28e16e4ced39","system_id":"levelo_inurba_marseille","lat":43.31529,"lon":5.38038,"is_reserved":false,"is_disabled":false,"rental_uris":{"android":"levelo://app?vid=253e3beb-a620-4d15-9c80-28e16e4ced39","ios":"levelo://app?vid=253e3beb-a620-4d15-9c80-28e16e4ced39"},"vehicle_type_id":"4","last_reported":1730646522,"current_range_meters":38000,"station_id":"ce4bhsp2rcd13ifvqi50","pricing_plan_id":"cebpf4jnsgd1na2vs0mg"},{"bike_id":"cda5f93c-0207-4cff-b440-432d192f42a1","system_id":"levelo_inurba_marseille","lat":43.2481,"lon":5.37461,"is_reserved":false,"is_disabled":false,"rental_uris":{"android":"levelo://app?vid=cda5f93c-0207-4cff-b440-432d192f42a1","ios":"levelo://app?vid=cda5f93c-0207-4cff-b440-432d192f42a1"},"vehicle_type_id":"4","last_reported":1730646522,"current_range_meters":2000,"station_id":"ce4bhgh2rcd13ifvqfb0","pricing_plan_id":"cebpf4jnsgd1na2vs0mg"},{"bike_id":"a9e32352-0ca8-4535-87fc-d3cfff86084b","system_id":"levelo_inurba_marseille","lat":43.32477,"lon":5.36562,"is_reserved":false,"is_disabled":false,"rental_uris":{"android":"levelo://app?vid=a9e32352-0ca8-4535-87fc-d3cfff86084b","ios":"levelo://app?vid=a9e32352-0ca8-4535-87fc-d3cfff86084b"},"vehicle_type_id":"4","last_reported":1730646522,"current_range_meters":31200,"station_id":"ce4bhs12rcd13ifvqhvg","pricing_plan_id":"cebpf4jnsgd1na2vs0mg"},{"bike_id":"933e88ac-d979-43a7-a64b-221565f81a6f","system_id":"levelo_inurba_marseille","lat":43.23955,"lon":5.36629,"is_reserved":false,"is_disabled":false,"rental_uris":{"android":"levelo://app?vid=933e88ac-d979-43a7-a64b-221565f81a6f","ios":"levelo://app?vid=933e88ac-d979-43a7-a64b-221565f81a6f"},"vehicle_type_id":"4","last_reported":1730646522,"current_range_meters":37600,"station_id":"ce4bhi12rcd13ifvqfp0","pricing_plan_id":"cebpf4jnsgd1na2vs0mg"},{"bike_id":"05ce730c-be4d-41f9-bdc3-24a9557532bc","system_id":"levelo_inurba_marseille","lat":43.28421,"lon":5.34983,"is_reserved":false,"is_disabled":false,"rental_uris":{"android":"levelo://app?vid=05ce730c-be4d-41f9-bdc3-24a9557532bc","ios":"levelo://app?vid=05ce730c-be4d-41f9-bdc3-24a9557532bc"},"vehicle_type_id":"4","last_reported":1730646522,"current_range_meters":38800,"station_id":"ce4bhbh2rcd13ifvqepg","pricing_plan_id":"cebpf4jnsgd1na2vs0mg"},{"bike_id":"9871620c-a3ac-4995-b682-c70b76b9c645","system_id":"levelo_inurba_marseille","lat":43.23063,"lon":5.3549,"is_reserved":false,"is_disabled":false,"rental_uris":{"android":"levelo://app?vid=9871620c-a3ac-4995-b682-c70b76b9c645","ios":"levelo://app?vid=9871620c-a3ac-4995-b682-c70b76b9c645"},"vehicle_type_id":"4","last_reported":1730646522,"current_range_meters":8000,"station_id":"cpo3342slgdg3j2ifvpg","pricing_plan_id":"cebpf4jnsgd1na2vs0mg"},{"bike_id":"dc8726f3-d735-4639-ab63-e27a358f515b","system_id":"levelo_inurba_marseille","lat":43.23155,"lon":5.43706,"is_reserved":false,"is_disabled":false,"rental_uris":{"android":"levelo://app?vid=dc8726f3-d735-4639-ab63-e27a358f515b","ios":"levelo://app?vid=dc8726f3-d735-4639-ab63-e27a358f515b"},"vehicle_type_id":"4","last_reported":1730646522,"current_range_meters":8400,"station_id":"ce4bhmp2rcd13ifvqgog","pricing_plan_id":"cebpf4jnsgd1na2vs0mg"},{"bike_id":"f3c4bc0c-b831-4637-b4cf-4f464f200afe","system_id":"levelo_inurba_marseille","lat":43.298408,"lon":5.362815,"is_reserved":false,"is_disabled":false,"rental_uris":{"android":"levelo://app?vid=f3c4bc0c-b831-4637-b4cf-4f464f200afe","ios":"levelo://app?vid=f3c4bc0c-b831-4637-b4cf-4f464f200afe"},"vehicle_type_id":"4","last_reported":1730646522,"current_range_meters":12800,"station_id":"ce4bgpp2rcd13ifvqc3g","pricing_plan_id":"cebpf4jnsgd1na2vs0mg"},{"bike_id":"465cd947-2ba6-439b-bdb5-2b996bda7c19","system_id":"levelo_inurba_marseille","lat":43.2306,"lon":5.35501,"is_reserved":false,"is_disabled":false,"rental_uris":{"android":"levelo://app?vid=465cd947-2ba6-439b-bdb5-2b996bda7c19","ios":"levelo://app?vid=465cd947-2ba6-439b-bdb5-2b996bda7c19"},"vehicle_type_id":"4","last_reported":1730646522,"current_range_meters":2000,"station_id":"cpo3342slgdg3j2ifvpg","pricing_plan_id":"cebpf4jnsgd1na2vs0mg"},{"bike_id":"edfdb860-42dc-435b-bd84-6131d3205c36","system_id":"levelo_inurba_marseille","lat":43.27071,"lon":5.4228,"is_reserved":false,"is_disabled":false,"rental_uris":{"android":"levelo://app?vid=edfdb860-42dc-435b-bd84-6131d3205c36","ios":"levelo://app?vid=edfdb860-42dc-435b-bd84-6131d3205c36"},"vehicle_type_id":"4","last_reported":1730646522,"current_range_meters":10000,"station_id":"ce4bhk92rcd13ifvqgb0","pricing_plan_id":"cebpf4jnsgd1na2vs0mg"},{"bike_id":"1e86610f-421e-4bcb-8e1b-7520bf2cf2c6","system_id":"levelo_inurba_marseille","lat":43.28153,"lon":5.42637,"is_reserved":false,"is_disabled":false,"rental_uris":{"android":"levelo://app?vid=1e86610f-421e-4bcb-8e1b-7520bf2cf2c6","ios":"levelo://app?vid=1e86610f-421e-4bcb-8e1b-7520bf2cf2c6"},"vehicle_type_id":"4","last_reported":1730646522,"current_range_meters":5600,"station_id":"ce4bhnh2rcd13ifvqgug","pricing_plan_id":"cebpf4jnsgd1na2vs0mg"},{"bike_id":"bd823d02-3fe6-4a7d-8fbd-7652f62524a0","system_id":"levelo_inurba_marseille","lat":43.25579,"lon":5.38229,"is_reserved":false,"is_disabled":false,"rental_uris":{"android":"levelo://app?vid=bd823d02-3fe6-4a7d-8fbd-7652f62524a0","ios":"levelo://app?vid=bd823d02-3fe6-4a7d-8fbd-7652f62524a0"},"vehicle_type_id":"4","last_reported":1730646522,"current_range_meters":19200,"station_id":"ce4bhih2rcd13ifvqfs0","pricing_plan_id":"cebpf4jnsgd1na2vs0mg"},{"bike_id":"ef11cc93-f30b-4864-9c47-a06ba98b6168","system_id":"levelo_inurba_marseille","lat":43.24387,"lon":5.37058,"is_reserved":false,"is_disabled":false,"rental_uris":{"android":"levelo://app?vid=ef11cc93-f30b-4864-9c47-a06ba98b6168","ios":"levelo://app?vid=ef11cc93-f30b-4864-9c47-a06ba98b6168"},"vehicle_type_id":"4","last_reported":1730646522,"current_range_meters":34000,"station_id":"ce4bhhh2rcd13ifvqfk0","pricing_plan_id":"cebpf4jnsgd1na2vs0mg"},{"bike_id":"ca1b5efc-c25e-4578-8ed4-153e1091bba7","system_id":"levelo_inurba_marseille","lat":43.25857,"lon":5.39909,"is_reserved":false,"is_disabled":false,"rental_uris":{"android":"levelo://app?vid=ca1b5efc-c25e-4578-8ed4-153e1091bba7","ios":"levelo://app?vid=ca1b5efc-c25e-4578-8ed4-153e1091bba7"},"vehicle_type_id":"4","last_reported":1730646522,"current_range_meters":16400,"station_id":"ce4bhl92rcd13ifvqghg","pricing_plan_id":"cebpf4jnsgd1na2vs0mg"},{"bike_id":"e6002474-a723-4dab-a717-6c9989dad2b8","system_id":"levelo_inurba_marseille","lat":43.24163,"lon":5.36408,"is_reserved":false,"is_disabled":false,"rental_uris":{"android":"levelo://app?vid=e6002474-a723-4dab-a717-6c9989dad2b8","ios":"levelo://app?vid=e6002474-a723-4dab-a717-6c9989dad2b8"},"vehicle_type_id":"4","last_reported":1730646522,"current_range_meters":30800,"station_id":"cpo36qri1sfpv3e86is0","pricing_plan_id":"cebpf4jnsgd1na2vs0mg"},{"bike_id":"c91d8c06-c02f-4920-a43d-9b39c1810e40","system_id":"levelo_inurba_marseille","lat":43.2706,"lon":5.40262,"is_reserved":false,"is_disabled":false,"rental_uris":{"android":"levelo://app?vid=c91d8c06-c02f-4920-a43d-9b39c1810e40","ios":"levelo://app?vid=c91d8c06-c02f-4920-a43d-9b39c1810e40"},"vehicle_type_id":"4","last_reported":1730646522,"current_range_meters":17200,"station_id":"ce4bhk92rcd13ifvqgc0","pricing_plan_id":"cebpf4jnsgd1na2vs0mg"},{"bike_id":"b2c3185a-c70b-46f2-8daa-fac99790bb9a","system_id":"levelo_inurba_marseille","lat":43.30797,"lon":5.38164,"is_reserved":false,"is_disabled":false,"rental_uris":{"android":"levelo://app?vid=b2c3185a-c70b-46f2-8daa-fac99790bb9a","ios":"levelo://app?vid=b2c3185a-c70b-46f2-8daa-fac99790bb9a"},"vehicle_type_id":"4","last_reported":1730646522,"current_range_meters":38800,"station_id":"ce4bgt12rcd13ifvqce0","pricing_plan_id":"cebpf4jnsgd1na2vs0mg"},{"bike_id":"20562bd5-b9e0-4d40-8216-3becb81cf62e","system_id":"levelo_inurba_marseille","lat":43.28676,"lon":5.3867,"is_reserved":false,"is_disabled":false,"rental_uris":{"android":"levelo://app?vid=20562bd5-b9e0-4d40-8216-3becb81cf62e","ios":"levelo://app?vid=20562bd5-b9e0-4d40-8216-3becb81cf62e"},"vehicle_type_id":"4","last_reported":1730646522,"current_range_meters":7200,"station_id":"ce4bh492rcd13ifvqdug","pricing_plan_id":"cebpf4jnsgd1na2vs0mg"},{"bike_id":"12e2a17d-b267-46ea-b046-7d399d7c3544","system_id":"levelo_inurba_marseille","lat":43.337185,"lon":5.39182,"is_reserved":false,"is_disabled":false,"rental_uris":{"android":"levelo://app?vid=12e2a17d-b267-46ea-b046-7d399d7c3544","ios":"levelo://app?vid=12e2a17d-b267-46ea-b046-7d399d7c3544"},"vehicle_type_id":"4","last_reported":1730646522,"current_range_meters":17200,"station_id":"ce4bhr92rcd13ifvqhsg","pricing_plan_id":"cebpf4jnsgd1na2vs0mg"},{"bike_id":"e7c8b43a-3a5e-4337-a905-4c51ad2d8c6e","system_id":"levelo_inurba_marseille","lat":43.28467,"lon":5.38418,"is_reserved":false,"is_disabled":false,"rental_uris":{"android":"levelo://app?vid=e7c8b43a-3a5e-4337-a905-4c51ad2d8c6e","ios":"levelo://app?vid=e7c8b43a-3a5e-4337-a905-4c51ad2d8c6e"},"vehicle_type_id":"4","last_reported":1730646522,"current_range_meters":38800,"station_id":"ce4bh512rcd13ifvqe3g","pricing_plan_id":"cebpf4jnsgd1na2vs0mg"},{"bike_id":"50c61d10-796e-41ff-8615-d9fb252ecb98","system_id":"levelo_inurba_marseille","lat":43.23955,"lon":5.36633,"is_reserved":false,"is_disabled":false,"rental_uris":{"android":"levelo://app?vid=50c61d10-796e-41ff-8615-d9fb252ecb98","ios":"levelo://app?vid=50c61d10-796e-41ff-8615-d9fb252ecb98"},"vehicle_type_id":"4","last_reported":1730646522,"current_range_meters":33200,"station_id":"ce4bhi12rcd13ifvqfp0","pricing_plan_id":"cebpf4jnsgd1na2vs0mg"},{"bike_id":"2460fff7-ac6f-4e52-a680-4f2497b8da8f","system_id":"levelo_inurba_marseille","lat":43.2841,"lon":5.3498,"is_reserved":false,"is_disabled":false,"rental_uris":{"android":"levelo://app?vid=2460fff7-ac6f-4e52-a680-4f2497b8da8f","ios":"levelo://app?vid=2460fff7-ac6f-4e52-a680-4f2497b8da8f"},"vehicle_type_id":"4","last_reported":1730646522,"current_range_meters":28000,"station_id":"ce4bhbh2rcd13ifvqepg","pricing_plan_id":"cebpf4jnsgd1na2vs0mg"},{"bike_id":"d4472d20-9c4b-4c70-ad00-3a005519a429","system_id":"levelo_inurba_marseille","lat":43.35412,"lon":5.35713,"is_reserved":false,"is_disabled":false,"rental_uris":{"android":"levelo://app?vid=d4472d20-9c4b-4c70-ad00-3a005519a429","ios":"levelo://app?vid=d4472d20-9c4b-4c70-ad00-3a005519a429"},"vehicle_type_id":"4","last_reported":1730646522,"current_range_meters":14800,"station_id":"","pricing_plan_id":"cebpf4jnsgd1na2vs0mg"},{"bike_id":"6338020e-474a-4c99-b365-eea26fe54739","system_id":"levelo_inurba_marseille","lat":43.32286,"lon":5.38281,"is_reserved":false,"is_disabled":false,"rental_uris":{"android":"levelo://app?vid=6338020e-474a-4c99-b365-eea26fe54739","ios":"levelo://app?vid=6338020e-474a-4c99-b365-eea26fe54739"},"vehicle_type_id":"4","last_reported":1730646522,"current_range_meters":38800,"station_id":"ce4bhr12rcd13ifvqhqg","pricing_plan_id":"cebpf4jnsgd1na2vs0mg"},{"bike_id":"a9a6c491-49a0-4baf-99f2-b015402e65b3","system_id":"levelo_inurba_marseille","lat":43.2438,"lon":5.37053,"is_reserved":false,"is_disabled":false,"rental_uris":{"android":"levelo://app?vid=a9a6c491-49a0-4baf-99f2-b015402e65b3","ios":"levelo://app?vid=a9a6c491-49a0-4baf-99f2-b015402e65b3"},"vehicle_type_id":"4","last_reported":1730646522,"current_range_meters":37600,"station_id":"ce4bhhh2rcd13ifvqfk0","pricing_plan_id":"cebpf4jnsgd1na2vs0mg"},{"bike_id":"0048c33a-c941-4e66-9852-6d913529bdbb","system_id":"levelo_inurba_marseille","lat":43.30944,"lon":5.39035,"is_reserved":false,"is_disabled":false,"rental_uris":{"android":"levelo://app?vid=0048c33a-c941-4e66-9852-6d913529bdbb","ios":"levelo://app?vid=0048c33a-c941-4e66-9852-6d913529bdbb"},"vehicle_type_id":"4","last_reported":1730646522,"current_range_meters":9600,"station_id":"ce4bgup2rcd13ifvqco0","pricing_plan_id":"cebpf4jnsgd1na2vs0mg"},{"bike_id":"4d838921-ecf0-47e9-891e-f3ee5c37121f","system_id":"levelo_inurba_marseille","lat":43.28271,"lon":5.35077,"is_reserved":false,"is_disabled":false,"rental_uris":{"android":"levelo://app?vid=4d838921-ecf0-47e9-891e-f3ee5c37121f","ios":"levelo://app?vid=4d838921-ecf0-47e9-891e-f3ee5c37121f"},"vehicle_type_id":"4","last_reported":1730646522,"current_range_meters":34000,"station_id":"ce4bhbp2rcd13ifvqerg","pricing_plan_id":"cebpf4jnsgd1na2vs0mg"},{"bike_id":"f8833f7b-49c8-440c-b671-beb72799bdec","system_id":"levelo_inurba_marseille","lat":43.24976,"lon":5.37519,"is_reserved":false,"is_disabled":false,"rental_uris":{"android":"levelo://app?vid=f8833f7b-49c8-440c-b671-beb72799bdec","ios":"levelo://app?vid=f8833f7b-49c8-440c-b671-beb72799bdec"},"vehicle_type_id":"4","last_reported":1730646522,"current_range_meters":30400,"station_id":"","pricing_plan_id":"cebpf4jnsgd1na2vs0mg"},{"bike_id":"8e2c05be-bb63-4667-bbf2-08bd24c66ea1","system_id":"levelo_inurba_marseille","lat":43.24173,"lon":5.36409,"is_reserved":false,"is_disabled":false,"rental_uris":{"android":"levelo://app?vid=8e2c05be-bb63-4667-bbf2-08bd24c66ea1","ios":"levelo://app?vid=8e2c05be-bb63-4667-bbf2-08bd24c66ea1"},"vehicle_type_id":"4","last_reported":1730646522,"current_range_meters":16400,"station_id":"cpo36qri1sfpv3e86is0","pricing_plan_id":"cebpf4jnsgd1na2vs0mg"},{"bike_id":"ae8d22e1-1fd6-494f-8f55-901a06b1bc58","system_id":"levelo_inurba_marseille","lat":43.26565,"lon":5.39014,"is_reserved":false,"is_disabled":false,"rental_uris":{"android":"levelo://app?vid=ae8d22e1-1fd6-494f-8f55-901a06b1bc58","ios":"levelo://app?vid=ae8d22e1-1fd6-494f-8f55-901a06b1bc58"},"vehicle_type_id":"4","last_reported":1730646522,"current_range_meters":18800,"station_id":"ce4bhe12rcd13ifvqf30","pricing_plan_id":"cebpf4jnsgd1na2vs0mg"},{"bike_id":"354dd88c-edab-4638-9792-03b23ea139cc","system_id":"levelo_inurba_marseille","lat":43.3136,"lon":5.38491,"is_reserved":false,"is_disabled":false,"rental_uris":{"android":"levelo://app?vid=354dd88c-edab-4638-9792-03b23ea139cc","ios":"levelo://app?vid=354dd88c-edab-4638-9792-03b23ea139cc"},"vehicle_type_id":"4","last_reported":1730646522,"current_range_meters":32400,"station_id":"ce4bgt92rcd13ifvqcf0","pricing_plan_id":"cebpf4jnsgd1na2vs0mg"},{"bike_id":"5bdeb517-1a4b-4c75-910b-1f223b816670","system_id":"levelo_inurba_marseille","lat":43.32477,"lon":5.36561,"is_reserved":false,"is_disabled":false,"rental_uris":{"android":"levelo://app?vid=5bdeb517-1a4b-4c75-910b-1f223b816670","ios":"levelo://app?vid=5bdeb517-1a4b-4c75-910b-1f223b816670"},"vehicle_type_id":"4","last_reported":1730646522,"current_range_meters":38000,"station_id":"ce4bhs12rcd13ifvqhvg","pricing_plan_id":"cebpf4jnsgd1na2vs0mg"},{"bike_id":"294b7b6b-131e-4b82-bb18-47558565833b","system_id":"levelo_inurba_marseille","lat":43.287018,"lon":5.351926,"is_reserved":false,"is_disabled":false,"rental_uris":{"android":"levelo://app?vid=294b7b6b-131e-4b82-bb18-47558565833b","ios":"levelo://app?vid=294b7b6b-131e-4b82-bb18-47558565833b"},"vehicle_type_id":"4","last_reported":1730646522,"current_range_meters":21600,"station_id":"ce4bhnh2rcd13ifvqgug","pricing_plan_id":"cebpf4jnsgd1na2vs0mg"},{"bike_id":"654fc38f-ec4a-4c1e-a6c4-4fcafbcbb283","system_id":"levelo_inurba_marseille","lat":43.2902,"lon":5.38135,"is_reserved":false,"is_disabled":false,"rental_uris":{"android":"levelo://app?vid=654fc38f-ec4a-4c1e-a6c4-4fcafbcbb283","ios":"levelo://app?vid=654fc38f-ec4a-4c1e-a6c4-4fcafbcbb283"},"vehicle_type_id":"4","last_reported":1730646522,"current_range_meters":18000,"station_id":"ce4bh4p2rcd13ifvqe1g","pricing_plan_id":"cebpf4jnsgd1na2vs0mg"},{"bike_id":"1ddde7ff-3953-4942-bfab-1d2712b93546","system_id":"levelo_inurba_marseille","lat":43.317123,"lon":5.377528,"is_reserved":false,"is_disabled":false,"rental_uris":{"android":"levelo://app?vid=1ddde7ff-3953-4942-bfab-1d2712b93546","ios":"levelo://app?vid=1ddde7ff-3953-4942-bfab-1d2712b93546"},"vehicle_type_id":"4","last_reported":1730646522,"current_range_meters":38800,"station_id":"ce4bgth2rcd13ifvqch0","pricing_plan_id":"cebpf4jnsgd1na2vs0mg"},{"bike_id":"f8f71e32-8514-489b-978c-262f1ad81a47","system_id":"levelo_inurba_marseille","lat":43.24546,"lon":5.39524,"is_reserved":false,"is_disabled":false,"rental_uris":{"android":"levelo://app?vid=f8f71e32-8514-489b-978c-262f1ad81a47","ios":"levelo://app?vid=f8f71e32-8514-489b-978c-262f1ad81a47"},"vehicle_type_id":"4","last_reported":1730646522,"current_range_meters":38800,"station_id":"ce4bhlp2rcd13ifvqgjg","pricing_plan_id":"cebpf4jnsgd1na2vs0mg"},{"bike_id":"44642f4d-6acc-46fe-bd97-7c50fc803f39","system_id":"levelo_inurba_marseille","lat":43.32107,"lon":5.36782,"is_reserved":false,"is_disabled":false,"rental_uris":{"android":"levelo://app?vid=44642f4d-6acc-46fe-bd97-7c50fc803f39","ios":"levelo://app?vid=44642f4d-6acc-46fe-bd97-7c50fc803f39"},"vehicle_type_id":"4","last_reported":1730646522,"current_range_meters":8800,"station_id":"ce4bhrh2rcd13ifvqhug","pricing_plan_id":"cebpf4jnsgd1na2vs0mg"},{"bike_id":"18402065-9e87-476b-95ad-30853de181a0","system_id":"levelo_inurba_marseille","lat":43.32455,"lon":5.45543,"is_reserved":false,"is_disabled":false,"rental_uris":{"android":"levelo://app?vid=18402065-9e87-476b-95ad-30853de181a0","ios":"levelo://app?vid=18402065-9e87-476b-95ad-30853de181a0"},"vehicle_type_id":"4","last_reported":1730646522,"current_range_meters":3200,"station_id":"","pricing_plan_id":"cebpf4jnsgd1na2vs0mg"},{"bike_id":"0795f4cf-259d-417a-8820-3a6b012ae7cb","system_id":"levelo_inurba_marseille","lat":43.23197,"lon":5.35551,"is_reserved":false,"is_disabled":false,"rental_uris":{"android":"levelo://app?vid=0795f4cf-259d-417a-8820-3a6b012ae7cb","ios":"levelo://app?vid=0795f4cf-259d-417a-8820-3a6b012ae7cb"},"vehicle_type_id":"4","last_reported":1730646522,"current_range_meters":28400,"station_id":"ce4bhu92rcd13ifvqi70","pricing_plan_id":"cebpf4jnsgd1na2vs0mg"},{"bike_id":"db921470-9dec-4480-9fb8-c92054c3debc","system_id":"levelo_inurba_marseille","lat":43.24806,"lon":5.37459,"is_reserved":false,"is_disabled":false,"rental_uris":{"android":"levelo://app?vid=db921470-9dec-4480-9fb8-c92054c3debc","ios":"levelo://app?vid=db921470-9dec-4480-9fb8-c92054c3debc"},"vehicle_type_id":"4","last_reported":1730646522,"current_range_meters":6000,"station_id":"ce4bhgh2rcd13ifvqfb0","pricing_plan_id":"cebpf4jnsgd1na2vs0mg"},{"bike_id":"5a98aa4c-fb3e-4b94-bbf4-81045c1c5828","system_id":"levelo_inurba_marseille","lat":43.28412,"lon":5.34997,"is_reserved":false,"is_disabled":false,"rental_uris":{"android":"levelo://app?vid=5a98aa4c-fb3e-4b94-bbf4-81045c1c5828","ios":"levelo://app?vid=5a98aa4c-fb3e-4b94-bbf4-81045c1c5828"},"vehicle_type_id":"4","last_reported":1730646522,"current_range_meters":22400,"station_id":"ce4bhbh2rcd13ifvqepg","pricing_plan_id":"cebpf4jnsgd1na2vs0mg"},{"bike_id":"50632108-f40a-4c8a-a3f8-b1cfd8b5a55c","system_id":"levelo_inurba_marseille","lat":43.27818,"lon":5.4072,"is_reserved":false,"is_disabled":false,"rental_uris":{"android":"levelo://app?vid=50632108-f40a-4c8a-a3f8-b1cfd8b5a55c","ios":"levelo://app?vid=50632108-f40a-4c8a-a3f8-b1cfd8b5a55c"},"vehicle_type_id":"4","last_reported":1730646522,"current_range_meters":19200,"station_id":"ce4bhnh2rcd13ifvqgtg","pricing_plan_id":"cebpf4jnsgd1na2vs0mg"},{"bike_id":"751eec01-23b0-49aa-a2a3-e2d658155f8b","system_id":"levelo_inurba_marseille","lat":43.27166,"lon":5.4099,"is_reserved":false,"is_disabled":false,"rental_uris":{"android":"levelo://app?vid=751eec01-23b0-49aa-a2a3-e2d658155f8b","ios":"levelo://app?vid=751eec01-23b0-49aa-a2a3-e2d658155f8b"},"vehicle_type_id":"4","last_reported":1730646522,"current_range_meters":38800,"station_id":"ce4bhl12rcd13ifvqgf0","pricing_plan_id":"cebpf4jnsgd1na2vs0mg"},{"bike_id":"c7a6a60a-ebc3-43dc-847c-5817f23f3b49","system_id":"levelo_inurba_marseille","lat":43.25723,"lon":5.41108,"is_reserved":false,"is_disabled":false,"rental_uris":{"android":"levelo://app?vid=c7a6a60a-ebc3-43dc-847c-5817f23f3b49","ios":"levelo://app?vid=c7a6a60a-ebc3-43dc-847c-5817f23f3b49"},"vehicle_type_id":"4","last_reported":1730646522,"current_range_meters":3600,"station_id":"ce4bhkp2rcd13ifvqgd0","pricing_plan_id":"cebpf4jnsgd1na2vs0mg"},{"bike_id":"d5541a12-439a-4845-841b-6ce96c9850ba","system_id":"levelo_inurba_marseille","lat":43.24805,"lon":5.37452,"is_reserved":false,"is_disabled":false,"rental_uris":{"android":"levelo://app?vid=d5541a12-439a-4845-841b-6ce96c9850ba","ios":"levelo://app?vid=d5541a12-439a-4845-841b-6ce96c9850ba"},"vehicle_type_id":"4","last_reported":1730646522,"current_range_meters":16400,"station_id":"ce4bhgh2rcd13ifvqfb0","pricing_plan_id":"cebpf4jnsgd1na2vs0mg"},{"bike_id":"54d74636-1266-4b47-a86c-88f2ea564ba0","system_id":"levelo_inurba_marseille","lat":43.25492,"lon":5.37649,"is_reserved":false,"is_disabled":false,"rental_uris":{"android":"levelo://app?vid=54d74636-1266-4b47-a86c-88f2ea564ba0","ios":"levelo://app?vid=54d74636-1266-4b47-a86c-88f2ea564ba0"},"vehicle_type_id":"4","last_reported":1730646522,"current_range_meters":4000,"station_id":"ce4bhh12rcd13ifvqff0","pricing_plan_id":"cebpf4jnsgd1na2vs0mg"},{"bike_id":"447ba1a0-36db-4fd1-bfdc-2efe1729cb2e","system_id":"levelo_inurba_marseille","lat":43.24808,"lon":5.3746,"is_reserved":false,"is_disabled":false,"rental_uris":{"android":"levelo://app?vid=447ba1a0-36db-4fd1-bfdc-2efe1729cb2e","ios":"levelo://app?vid=447ba1a0-36db-4fd1-bfdc-2efe1729cb2e"},"vehicle_type_id":"4","last_reported":1730646522,"current_range_meters":39200,"station_id":"ce4bhgh2rcd13ifvqfb0","pricing_plan_id":"cebpf4jnsgd1na2vs0mg"},{"bike_id":"1cabbeb2-44e1-4279-a840-6957acdae304","system_id":"levelo_inurba_marseille","lat":43.27619,"lon":5.36117,"is_reserved":false,"is_disabled":false,"rental_uris":{"android":"levelo://app?vid=1cabbeb2-44e1-4279-a840-6957acdae304","ios":"levelo://app?vid=1cabbeb2-44e1-4279-a840-6957acdae304"},"vehicle_type_id":"4","last_reported":1730646522,"current_range_meters":38800,"station_id":"ce4bgj92rcd13ifvqbe0","pricing_plan_id":"cebpf4jnsgd1na2vs0mg"},{"bike_id":"3de79b57-7daf-468c-b183-8c3c9299d270","system_id":"levelo_inurba_marseille","lat":43.28412,"lon":5.34989,"is_reserved":false,"is_disabled":false,"rental_uris":{"android":"levelo://app?vid=3de79b57-7daf-468c-b183-8c3c9299d270","ios":"levelo://app?vid=3de79b57-7daf-468c-b183-8c3c9299d270"},"vehicle_type_id":"4","last_reported":1730646522,"current_range_meters":28000,"station_id":"ce4bhbh2rcd13ifvqepg","pricing_plan_id":"cebpf4jnsgd1na2vs0mg"},{"bike_id":"96841145-a99c-4589-96b8-beaaab134d22","system_id":"levelo_inurba_marseille","lat":43.28011,"lon":5.40009,"is_reserved":false,"is_disabled":false,"rental_uris":{"android":"levelo://app?vid=96841145-a99c-4589-96b8-beaaab134d22","ios":"levelo://app?vid=96841145-a99c-4589-96b8-beaaab134d22"},"vehicle_type_id":"4","last_reported":1730646522,"current_range_meters":38800,"station_id":"ce4bho92rcd13ifvqh4g","pricing_plan_id":"cebpf4jnsgd1na2vs0mg"},{"bike_id":"d625a0cc-91ed-46ca-a8f2-0bc62ce12c55","system_id":"levelo_inurba_marseille","lat":43.30416,"lon":5.39262,"is_reserved":false,"is_disabled":false,"rental_uris":{"android":"levelo://app?vid=d625a0cc-91ed-46ca-a8f2-0bc62ce12c55","ios":"levelo://app?vid=d625a0cc-91ed-46ca-a8f2-0bc62ce12c55"},"vehicle_type_id":"4","last_reported":1730646522,"current_range_meters":10000,"station_id":"ce4bh0p2rcd13ifvqd80","pricing_plan_id":"cebpf4jnsgd1na2vs0mg"},{"bike_id":"e4aa7f36-b0fe-47e3-9ec1-0dd54baac1d5","system_id":"levelo_inurba_marseille","lat":43.23197,"lon":5.35552,"is_reserved":false,"is_disabled":false,"rental_uris":{"android":"levelo://app?vid=e4aa7f36-b0fe-47e3-9ec1-0dd54baac1d5","ios":"levelo://app?vid=e4aa7f36-b0fe-47e3-9ec1-0dd54baac1d5"},"vehicle_type_id":"4","last_reported":1730646522,"current_range_meters":35600,"station_id":"ce4bhu92rcd13ifvqi70","pricing_plan_id":"cebpf4jnsgd1na2vs0mg"},{"bike_id":"7f6d8e6f-2518-41f6-b941-98ab3950125e","system_id":"levelo_inurba_marseille","lat":43.28715,"lon":5.37935,"is_reserved":false,"is_disabled":false,"rental_uris":{"android":"levelo://app?vid=7f6d8e6f-2518-41f6-b941-98ab3950125e","ios":"levelo://app?vid=7f6d8e6f-2518-41f6-b941-98ab3950125e"},"vehicle_type_id":"4","last_reported":1730646522,"current_range_meters":38000,"station_id":"ce4bh9p2rcd13ifvqec0","pricing_plan_id":"cebpf4jnsgd1na2vs0mg"},{"bike_id":"5ae81d9e-173a-4c1c-9338-aa1a47612023","system_id":"levelo_inurba_marseille","lat":43.31042,"lon":5.38375,"is_reserved":false,"is_disabled":false,"rental_uris":{"android":"levelo://app?vid=5ae81d9e-173a-4c1c-9338-aa1a47612023","ios":"levelo://app?vid=5ae81d9e-173a-4c1c-9338-aa1a47612023"},"vehicle_type_id":"4","last_reported":1730646522,"current_range_meters":28800,"station_id":"ce4bgv92rcd13ifvqcr0","pricing_plan_id":"cebpf4jnsgd1na2vs0mg"},{"bike_id":"1da54a2a-a2b9-469c-bcc3-4599706d447b","system_id":"levelo_inurba_marseille","lat":43.23195,"lon":5.35551,"is_reserved":false,"is_disabled":false,"rental_uris":{"android":"levelo://app?vid=1da54a2a-a2b9-469c-bcc3-4599706d447b","ios":"levelo://app?vid=1da54a2a-a2b9-469c-bcc3-4599706d447b"},"vehicle_type_id":"4","last_reported":1730646522,"current_range_meters":31200,"station_id":"ce4bhu92rcd13ifvqi70","pricing_plan_id":"cebpf4jnsgd1na2vs0mg"},{"bike_id":"9fcdbbfe-31d6-4b8b-9f2c-15a9ab23cfbd","system_id":"levelo_inurba_marseille","lat":43.3414,"lon":5.40905,"is_reserved":false,"is_disabled":false,"rental_uris":{"android":"levelo://app?vid=9fcdbbfe-31d6-4b8b-9f2c-15a9ab23cfbd","ios":"levelo://app?vid=9fcdbbfe-31d6-4b8b-9f2c-15a9ab23cfbd"},"vehicle_type_id":"4","last_reported":1730646522,"current_range_meters":18800,"station_id":"ce4bhqh2rcd13ifvqhlg","pricing_plan_id":"cebpf4jnsgd1na2vs0mg"},{"bike_id":"cb3f2d6b-3035-4a65-b489-017e87db6da8","system_id":"levelo_inurba_marseille","lat":43.298419,"lon":5.362641,"is_reserved":false,"is_disabled":false,"rental_uris":{"android":"levelo://app?vid=cb3f2d6b-3035-4a65-b489-017e87db6da8","ios":"levelo://app?vid=cb3f2d6b-3035-4a65-b489-017e87db6da8"},"vehicle_type_id":"4","last_reported":1730646522,"current_range_meters":14800,"station_id":"ce4bgn92rcd13ifvqbvg","pricing_plan_id":"cebpf4jnsgd1na2vs0mg"},{"bike_id":"c99ff149-2d20-444b-ac06-4258191e7a5b","system_id":"levelo_inurba_marseille","lat":43.29182,"lon":5.35774,"is_reserved":false,"is_disabled":false,"rental_uris":{"android":"levelo://app?vid=c99ff149-2d20-444b-ac06-4258191e7a5b","ios":"levelo://app?vid=c99ff149-2d20-444b-ac06-4258191e7a5b"},"vehicle_type_id":"4","last_reported":1730646522,"current_range_meters":4400,"station_id":"ce4bhb12rcd13ifvqel0","pricing_plan_id":"cebpf4jnsgd1na2vs0mg"},{"bike_id":"1b80601b-8be3-4b0b-bcc4-eebb89de1629","system_id":"levelo_inurba_marseille","lat":43.25824,"lon":5.39431,"is_reserved":false,"is_disabled":false,"rental_uris":{"android":"levelo://app?vid=1b80601b-8be3-4b0b-bcc4-eebb89de1629","ios":"levelo://app?vid=1b80601b-8be3-4b0b-bcc4-eebb89de1629"},"vehicle_type_id":"4","last_reported":1730646522,"current_range_meters":35200,"station_id":"ce4bhip2rcd13ifvqft0","pricing_plan_id":"cebpf4jnsgd1na2vs0mg"},{"bike_id":"cb260b96-8c2f-480d-ae38-1fe9d868e6c9","system_id":"levelo_inurba_marseille","lat":43.24175,"lon":5.36392,"is_reserved":false,"is_disabled":false,"rental_uris":{"android":"levelo://app?vid=cb260b96-8c2f-480d-ae38-1fe9d868e6c9","ios":"levelo://app?vid=cb260b96-8c2f-480d-ae38-1fe9d868e6c9"},"vehicle_type_id":"4","last_reported":1730646522,"current_range_meters":12000,"station_id":"cpo36qri1sfpv3e86is0","pricing_plan_id":"cebpf4jnsgd1na2vs0mg"},{"bike_id":"76bbb358-ce07-45ef-bb42-123c6aa2c4f1","system_id":"levelo_inurba_marseille","lat":43.28421,"lon":5.35006,"is_reserved":false,"is_disabled":false,"rental_uris":{"android":"levelo://app?vid=76bbb358-ce07-45ef-bb42-123c6aa2c4f1","ios":"levelo://app?vid=76bbb358-ce07-45ef-bb42-123c6aa2c4f1"},"vehicle_type_id":"4","last_reported":1730646522,"current_range_meters":35600,"station_id":"ce4bhbh2rcd13ifvqepg","pricing_plan_id":"cebpf4jnsgd1na2vs0mg"},{"bike_id":"ea16dcf0-c487-46de-8792-a524571c7d70","system_id":"levelo_inurba_marseille","lat":43.24801,"lon":5.37456,"is_reserved":false,"is_disabled":false,"rental_uris":{"android":"levelo://app?vid=ea16dcf0-c487-46de-8792-a524571c7d70","ios":"levelo://app?vid=ea16dcf0-c487-46de-8792-a524571c7d70"},"vehicle_type_id":"4","last_reported":1730646522,"current_range_meters":24400,"station_id":"ce4bhgh2rcd13ifvqfb0","pricing_plan_id":"cebpf4jnsgd1na2vs0mg"},{"bike_id":"581392ef-bf00-4538-9de0-6e66c216240f","system_id":"levelo_inurba_marseille","lat":43.2464,"lon":5.38897,"is_reserved":false,"is_disabled":false,"rental_uris":{"android":"levelo://app?vid=581392ef-bf00-4538-9de0-6e66c216240f","ios":"levelo://app?vid=581392ef-bf00-4538-9de0-6e66c216240f"},"vehicle_type_id":"4","last_reported":1730646522,"current_range_meters":35600,"station_id":"ce4bhg12rcd13ifvqf60","pricing_plan_id":"cebpf4jnsgd1na2vs0mg"},{"bike_id":"8c67d340-801d-46e5-b910-2f8aff3ff078","system_id":"levelo_inurba_marseille","lat":43.33318,"lon":5.37073,"is_reserved":false,"is_disabled":false,"rental_uris":{"android":"levelo://app?vid=8c67d340-801d-46e5-b910-2f8aff3ff078","ios":"levelo://app?vid=8c67d340-801d-46e5-b910-2f8aff3ff078"},"vehicle_type_id":"4","last_reported":1730646522,"current_range_meters":6000,"station_id":"","pricing_plan_id":"cebpf4jnsgd1na2vs0mg"},{"bike_id":"c68bb139-1a56-4459-8789-8562476ab9cf","system_id":"levelo_inurba_marseille","lat":43.27486,"lon":5.42459,"is_reserved":false,"is_disabled":false,"rental_uris":{"android":"levelo://app?vid=c68bb139-1a56-4459-8789-8562476ab9cf","ios":"levelo://app?vid=c68bb139-1a56-4459-8789-8562476ab9cf"},"vehicle_type_id":"4","last_reported":1730646522,"current_range_meters":17200,"station_id":"ce4bhn92rcd13ifvqgrg","pricing_plan_id":"cebpf4jnsgd1na2vs0mg"},{"bike_id":"921069e2-e506-477e-8730-9e0ff76dae61","system_id":"levelo_inurba_marseille","lat":43.2407,"lon":5.37759,"is_reserved":false,"is_disabled":false,"rental_uris":{"android":"levelo://app?vid=921069e2-e506-477e-8730-9e0ff76dae61","ios":"levelo://app?vid=921069e2-e506-477e-8730-9e0ff76dae61"},"vehicle_type_id":"4","last_reported":1730646522,"current_range_meters":36400,"station_id":"ce4bhnp2rcd13ifvqgvg","pricing_plan_id":"cebpf4jnsgd1na2vs0mg"},{"bike_id":"79f5032c-4427-40bb-bbad-7f35acb21ebc","system_id":"levelo_inurba_marseille","lat":43.32287,"lon":5.3828,"is_reserved":false,"is_disabled":false,"rental_uris":{"android":"levelo://app?vid=79f5032c-4427-40bb-bbad-7f35acb21ebc","ios":"levelo://app?vid=79f5032c-4427-40bb-bbad-7f35acb21ebc"},"vehicle_type_id":"4","last_reported":1730646522,"current_range_meters":16800,"station_id":"ce4bhr12rcd13ifvqhqg","pricing_plan_id":"cebpf4jnsgd1na2vs0mg"},{"bike_id":"010941e6-0273-4239-95dd-9c4b6bcd2ed1","system_id":"levelo_inurba_marseille","lat":43.26201,"lon":5.37931,"is_reserved":false,"is_disabled":false,"rental_uris":{"android":"levelo://app?vid=010941e6-0273-4239-95dd-9c4b6bcd2ed1","ios":"levelo://app?vid=010941e6-0273-4239-95dd-9c4b6bcd2ed1"},"vehicle_type_id":"4","last_reported":1730646522,"current_range_meters":16400,"station_id":"ce4bhjp2rcd13ifvqg90","pricing_plan_id":"cebpf4jnsgd1na2vs0mg"},{"bike_id":"9f5aef3a-009f-4ac6-a71e-cc08e8d86915","system_id":"levelo_inurba_marseille","lat":43.28414,"lon":5.34984,"is_reserved":false,"is_disabled":false,"rental_uris":{"android":"levelo://app?vid=9f5aef3a-009f-4ac6-a71e-cc08e8d86915","ios":"levelo://app?vid=9f5aef3a-009f-4ac6-a71e-cc08e8d86915"},"vehicle_type_id":"4","last_reported":1730646522,"current_range_meters":4000,"station_id":"ce4bhbh2rcd13ifvqepg","pricing_plan_id":"cebpf4jnsgd1na2vs0mg"},{"bike_id":"6a53c1a2-cc82-432b-bfb9-0057c5162611","system_id":"levelo_inurba_marseille","lat":43.28464,"lon":5.35898,"is_reserved":false,"is_disabled":false,"rental_uris":{"android":"levelo://app?vid=6a53c1a2-cc82-432b-bfb9-0057c5162611","ios":"levelo://app?vid=6a53c1a2-cc82-432b-bfb9-0057c5162611"},"vehicle_type_id":"4","last_reported":1730646522,"current_range_meters":36800,"station_id":"ce4bhah2rcd13ifvqei0","pricing_plan_id":"cebpf4jnsgd1na2vs0mg"},{"bike_id":"f138e776-1ec3-4faf-bdec-6cd18a511ee8","system_id":"levelo_inurba_marseille","lat":43.28424,"lon":5.34992,"is_reserved":false,"is_disabled":false,"rental_uris":{"android":"levelo://app?vid=f138e776-1ec3-4faf-bdec-6cd18a511ee8","ios":"levelo://app?vid=f138e776-1ec3-4faf-bdec-6cd18a511ee8"},"vehicle_type_id":"4","last_reported":1730646522,"current_range_meters":12800,"station_id":"ce4bhbh2rcd13ifvqepg","pricing_plan_id":"cebpf4jnsgd1na2vs0mg"},{"bike_id":"6fb2dfbd-71bf-45fb-9ce7-048649da959e","system_id":"levelo_inurba_marseille","lat":43.24386,"lon":5.37066,"is_reserved":false,"is_disabled":false,"rental_uris":{"android":"levelo://app?vid=6fb2dfbd-71bf-45fb-9ce7-048649da959e","ios":"levelo://app?vid=6fb2dfbd-71bf-45fb-9ce7-048649da959e"},"vehicle_type_id":"4","last_reported":1730646522,"current_range_meters":27600,"station_id":"ce4bhhh2rcd13ifvqfk0","pricing_plan_id":"cebpf4jnsgd1na2vs0mg"},{"bike_id":"fa9e6bfe-937a-4cbb-883b-0de597b7ca1c","system_id":"levelo_inurba_marseille","lat":43.27375,"lon":5.36263,"is_reserved":false,"is_disabled":false,"rental_uris":{"android":"levelo://app?vid=fa9e6bfe-937a-4cbb-883b-0de597b7ca1c","ios":"levelo://app?vid=fa9e6bfe-937a-4cbb-883b-0de597b7ca1c"},"vehicle_type_id":"4","last_reported":1730646522,"current_range_meters":6800,"station_id":"ce4bhbh2rcd13ifvqeo0","pricing_plan_id":"cebpf4jnsgd1na2vs0mg"},{"bike_id":"d5324ca5-5a3a-4892-bb8c-7dbf331e6ea6","system_id":"levelo_inurba_marseille","lat":43.324783,"lon":5.365647,"is_reserved":false,"is_disabled":false,"rental_uris":{"android":"levelo://app?vid=d5324ca5-5a3a-4892-bb8c-7dbf331e6ea6","ios":"levelo://app?vid=d5324ca5-5a3a-4892-bb8c-7dbf331e6ea6"},"vehicle_type_id":"4","last_reported":1730646522,"current_range_meters":38800,"station_id":"ce4bhs12rcd13ifvqhvg","pricing_plan_id":"cebpf4jnsgd1na2vs0mg"},{"bike_id":"556381b4-a0a1-458d-8b69-d2ef453f19a5","system_id":"levelo_inurba_marseille","lat":43.26496,"lon":5.39535,"is_reserved":false,"is_disabled":false,"rental_uris":{"android":"levelo://app?vid=556381b4-a0a1-458d-8b69-d2ef453f19a5","ios":"levelo://app?vid=556381b4-a0a1-458d-8b69-d2ef453f19a5"},"vehicle_type_id":"4","last_reported":1730646522,"current_range_meters":14000,"station_id":"ce4bhi12rcd13ifvqfq0","pricing_plan_id":"cebpf4jnsgd1na2vs0mg"},{"bike_id":"ef1ce493-c382-4d77-9fb3-68d569db48ae","system_id":"levelo_inurba_marseille","lat":43.28411,"lon":5.34988,"is_reserved":false,"is_disabled":false,"rental_uris":{"android":"levelo://app?vid=ef1ce493-c382-4d77-9fb3-68d569db48ae","ios":"levelo://app?vid=ef1ce493-c382-4d77-9fb3-68d569db48ae"},"vehicle_type_id":"4","last_reported":1730646522,"current_range_meters":38800,"station_id":"ce4bhbh2rcd13ifvqepg","pricing_plan_id":"cebpf4jnsgd1na2vs0mg"},{"bike_id":"7b8934ab-1a6b-4c2d-b5fa-40771c000556","system_id":"levelo_inurba_marseille","lat":43.27071,"lon":5.42273,"is_reserved":false,"is_disabled":false,"rental_uris":{"android":"levelo://app?vid=7b8934ab-1a6b-4c2d-b5fa-40771c000556","ios":"levelo://app?vid=7b8934ab-1a6b-4c2d-b5fa-40771c000556"},"vehicle_type_id":"4","last_reported":1730646522,"current_range_meters":22800,"station_id":"ce4bhk92rcd13ifvqgb0","pricing_plan_id":"cebpf4jnsgd1na2vs0mg"},{"bike_id":"832b60bc-0d06-41a3-b29c-3ff7d0f476e1","system_id":"levelo_inurba_marseille","lat":43.231921,"lon":5.355508,"is_reserved":false,"is_disabled":false,"rental_uris":{"android":"levelo://app?vid=832b60bc-0d06-41a3-b29c-3ff7d0f476e1","ios":"levelo://app?vid=832b60bc-0d06-41a3-b29c-3ff7d0f476e1"},"vehicle_type_id":"4","last_reported":1730646522,"current_range_meters":38800,"station_id":"ce4bhu92rcd13ifvqi70","pricing_plan_id":"cebpf4jnsgd1na2vs0mg"},{"bike_id":"7580d83e-3d7c-46be-82b1-25f013a114af","system_id":"levelo_inurba_marseille","lat":43.32284,"lon":5.38272,"is_reserved":false,"is_disabled":false,"rental_uris":{"android":"levelo://app?vid=7580d83e-3d7c-46be-82b1-25f013a114af","ios":"levelo://app?vid=7580d83e-3d7c-46be-82b1-25f013a114af"},"vehicle_type_id":"4","last_reported":1730646522,"current_range_meters":24400,"station_id":"ce4bhr12rcd13ifvqhqg","pricing_plan_id":"cebpf4jnsgd1na2vs0mg"},{"bike_id":"04b55f9a-b28b-4505-a7ac-dbe57ec6aab8","system_id":"levelo_inurba_marseille","lat":43.2306,"lon":5.35499,"is_reserved":false,"is_disabled":false,"rental_uris":{"android":"levelo://app?vid=04b55f9a-b28b-4505-a7ac-dbe57ec6aab8","ios":"levelo://app?vid=04b55f9a-b28b-4505-a7ac-dbe57ec6aab8"},"vehicle_type_id":"4","last_reported":1730646522,"current_range_meters":24800,"station_id":"cpo3342slgdg3j2ifvpg","pricing_plan_id":"cebpf4jnsgd1na2vs0mg"},{"bike_id":"c36500d8-3c1b-40b4-b412-de69c457b9cb","system_id":"levelo_inurba_marseille","lat":43.27399,"lon":5.42054,"is_reserved":false,"is_disabled":false,"rental_uris":{"android":"levelo://app?vid=c36500d8-3c1b-40b4-b412-de69c457b9cb","ios":"levelo://app?vid=c36500d8-3c1b-40b4-b412-de69c457b9cb"},"vehicle_type_id":"4","last_reported":1730646522,"current_range_meters":6800,"station_id":"","pricing_plan_id":"cebpf4jnsgd1na2vs0mg"},{"bike_id":"7c44afb0-8a13-44de-b0ba-7366b1e2dc4d","system_id":"levelo_inurba_marseille","lat":43.2919,"lon":5.39331,"is_reserved":false,"is_disabled":false,"rental_uris":{"android":"levelo://app?vid=7c44afb0-8a13-44de-b0ba-7366b1e2dc4d","ios":"levelo://app?vid=7c44afb0-8a13-44de-b0ba-7366b1e2dc4d"},"vehicle_type_id":"4","last_reported":1730646522,"current_range_meters":22000,"station_id":"ce4bh192rcd13ifvqdd0","pricing_plan_id":"cebpf4jnsgd1na2vs0mg"},{"bike_id":"61b5c281-8ce6-4a4d-9201-7286f862d85c","system_id":"levelo_inurba_marseille","lat":43.28418,"lon":5.3498,"is_reserved":false,"is_disabled":false,"rental_uris":{"android":"levelo://app?vid=61b5c281-8ce6-4a4d-9201-7286f862d85c","ios":"levelo://app?vid=61b5c281-8ce6-4a4d-9201-7286f862d85c"},"vehicle_type_id":"4","last_reported":1730646522,"current_range_meters":22800,"station_id":"ce4bhbh2rcd13ifvqepg","pricing_plan_id":"cebpf4jnsgd1na2vs0mg"},{"bike_id":"fda91d6a-6bb5-4446-a57f-eeb6d9f6accf","system_id":"levelo_inurba_marseille","lat":43.299652,"lon":5.371763,"is_reserved":false,"is_disabled":false,"rental_uris":{"android":"levelo://app?vid=fda91d6a-6bb5-4446-a57f-eeb6d9f6accf","ios":"levelo://app?vid=fda91d6a-6bb5-4446-a57f-eeb6d9f6accf"},"vehicle_type_id":"4","last_reported":1730646522,"current_range_meters":6800,"station_id":"ce4bgr92rcd13ifvqc7g","pricing_plan_id":"cebpf4jnsgd1na2vs0mg"},{"bike_id":"c5240f36-8240-4ee5-8a5b-f6352f14c639","system_id":"levelo_inurba_marseille","lat":43.24804,"lon":5.37454,"is_reserved":false,"is_disabled":false,"rental_uris":{"android":"levelo://app?vid=c5240f36-8240-4ee5-8a5b-f6352f14c639","ios":"levelo://app?vid=c5240f36-8240-4ee5-8a5b-f6352f14c639"},"vehicle_type_id":"4","last_reported":1730646522,"current_range_meters":39200,"station_id":"ce4bhgh2rcd13ifvqfb0","pricing_plan_id":"cebpf4jnsgd1na2vs0mg"},{"bike_id":"1e185788-9907-4bdb-b6af-00236c99911a","system_id":"levelo_inurba_marseille","lat":43.27069,"lon":5.42277,"is_reserved":false,"is_disabled":false,"rental_uris":{"android":"levelo://app?vid=1e185788-9907-4bdb-b6af-00236c99911a","ios":"levelo://app?vid=1e185788-9907-4bdb-b6af-00236c99911a"},"vehicle_type_id":"4","last_reported":1730646522,"current_range_meters":20400,"station_id":"ce4bhk92rcd13ifvqgb0","pricing_plan_id":"cebpf4jnsgd1na2vs0mg"},{"bike_id":"ccb56e58-0143-4968-bdba-c41bfab26b44","system_id":"levelo_inurba_marseille","lat":43.28415,"lon":5.34997,"is_reserved":false,"is_disabled":false,"rental_uris":{"android":"levelo://app?vid=ccb56e58-0143-4968-bdba-c41bfab26b44","ios":"levelo://app?vid=ccb56e58-0143-4968-bdba-c41bfab26b44"},"vehicle_type_id":"4","last_reported":1730646522,"current_range_meters":25600,"station_id":"ce4bhbh2rcd13ifvqepg","pricing_plan_id":"cebpf4jnsgd1na2vs0mg"},{"bike_id":"a74efa88-6c90-438c-bccc-2459efee4b41","system_id":"levelo_inurba_marseille","lat":43.303043,"lon":5.36898,"is_reserved":false,"is_disabled":false,"rental_uris":{"android":"levelo://app?vid=a74efa88-6c90-438c-bccc-2459efee4b41","ios":"levelo://app?vid=a74efa88-6c90-438c-bccc-2459efee4b41"},"vehicle_type_id":"4","last_reported":1730646522,"current_range_meters":38000,"station_id":"ce4bgqh2rcd13ifvqc5g","pricing_plan_id":"cebpf4jnsgd1na2vs0mg"},{"bike_id":"625a09b0-a673-40e7-ba1c-b45fde80dd90","system_id":"levelo_inurba_marseille","lat":43.2841,"lon":5.34999,"is_reserved":false,"is_disabled":false,"rental_uris":{"android":"levelo://app?vid=625a09b0-a673-40e7-ba1c-b45fde80dd90","ios":"levelo://app?vid=625a09b0-a673-40e7-ba1c-b45fde80dd90"},"vehicle_type_id":"4","last_reported":1730646522,"current_range_meters":14400,"station_id":"ce4bgi12rcd13ifvqb70","pricing_plan_id":"cebpf4jnsgd1na2vs0mg"},{"bike_id":"318bdcdb-57f8-4898-9e24-373e9ac64999","system_id":"levelo_inurba_marseille","lat":43.28419,"lon":5.34988,"is_reserved":false,"is_disabled":false,"rental_uris":{"android":"levelo://app?vid=318bdcdb-57f8-4898-9e24-373e9ac64999","ios":"levelo://app?vid=318bdcdb-57f8-4898-9e24-373e9ac64999"},"vehicle_type_id":"4","last_reported":1730646522,"current_range_meters":17600,"station_id":"ce4bhbh2rcd13ifvqepg","pricing_plan_id":"cebpf4jnsgd1na2vs0mg"},{"bike_id":"5e7aef04-5f8f-4931-b686-969187b73c69","system_id":"levelo_inurba_marseille","lat":43.27365,"lon":5.3625,"is_reserved":false,"is_disabled":false,"rental_uris":{"android":"levelo://app?vid=5e7aef04-5f8f-4931-b686-969187b73c69","ios":"levelo://app?vid=5e7aef04-5f8f-4931-b686-969187b73c69"},"vehicle_type_id":"4","last_reported":1730646522,"current_range_meters":38800,"station_id":"ce4bhbh2rcd13ifvqeo0","pricing_plan_id":"cebpf4jnsgd1na2vs0mg"},{"bike_id":"1c95f745-5f81-4a0c-b09c-a7070626774c","system_id":"levelo_inurba_marseille","lat":43.30434,"lon":5.38894,"is_reserved":false,"is_disabled":false,"rental_uris":{"android":"levelo://app?vid=1c95f745-5f81-4a0c-b09c-a7070626774c","ios":"levelo://app?vid=1c95f745-5f81-4a0c-b09c-a7070626774c"},"vehicle_type_id":"4","last_reported":1730646522,"current_range_meters":38800,"station_id":"ce4bgk12rcd13ifvqbi0","pricing_plan_id":"cebpf4jnsgd1na2vs0mg"},{"bike_id":"e58a7f11-e52b-43fc-8dea-1d541b1bd09b","system_id":"levelo_inurba_marseille","lat":43.28003,"lon":5.40012,"is_reserved":false,"is_disabled":false,"rental_uris":{"android":"levelo://app?vid=e58a7f11-e52b-43fc-8dea-1d541b1bd09b","ios":"levelo://app?vid=e58a7f11-e52b-43fc-8dea-1d541b1bd09b"},"vehicle_type_id":"4","last_reported":1730646522,"current_range_meters":6400,"station_id":"ce4bho92rcd13ifvqh4g","pricing_plan_id":"cebpf4jnsgd1na2vs0mg"},{"bike_id":"703d7dd8-0365-47a0-a481-77de45e1abb9","system_id":"levelo_inurba_marseille","lat":43.24167,"lon":5.36398,"is_reserved":false,"is_disabled":false,"rental_uris":{"android":"levelo://app?vid=703d7dd8-0365-47a0-a481-77de45e1abb9","ios":"levelo://app?vid=703d7dd8-0365-47a0-a481-77de45e1abb9"},"vehicle_type_id":"4","last_reported":1730646522,"current_range_meters":38800,"station_id":"cpo36qri1sfpv3e86is0","pricing_plan_id":"cebpf4jnsgd1na2vs0mg"},{"bike_id":"d4501869-ea3e-4900-90fb-64180be91a0b","system_id":"levelo_inurba_marseille","lat":43.25581,"lon":5.38227,"is_reserved":false,"is_disabled":false,"rental_uris":{"android":"levelo://app?vid=d4501869-ea3e-4900-90fb-64180be91a0b","ios":"levelo://app?vid=d4501869-ea3e-4900-90fb-64180be91a0b"},"vehicle_type_id":"4","last_reported":1730646522,"current_range_meters":20000,"station_id":"ce4bhih2rcd13ifvqfs0","pricing_plan_id":"cebpf4jnsgd1na2vs0mg"},{"bike_id":"9c78edfe-c2f8-4861-91ab-ee91f6563476","system_id":"levelo_inurba_marseille","lat":43.30145,"lon":5.38079,"is_reserved":false,"is_disabled":false,"rental_uris":{"android":"levelo://app?vid=9c78edfe-c2f8-4861-91ab-ee91f6563476","ios":"levelo://app?vid=9c78edfe-c2f8-4861-91ab-ee91f6563476"},"vehicle_type_id":"4","last_reported":1730646522,"current_range_meters":36000,"station_id":"ce4bgjp2rcd13ifvqbh0","pricing_plan_id":"cebpf4jnsgd1na2vs0mg"},{"bike_id":"45a9d9a7-83a5-4e18-b464-0249954955c8","system_id":"levelo_inurba_marseille","lat":43.23151,"lon":5.43698,"is_reserved":false,"is_disabled":false,"rental_uris":{"android":"levelo://app?vid=45a9d9a7-83a5-4e18-b464-0249954955c8","ios":"levelo://app?vid=45a9d9a7-83a5-4e18-b464-0249954955c8"},"vehicle_type_id":"4","last_reported":1730646522,"current_range_meters":36800,"station_id":"ce4bhmp2rcd13ifvqgog","pricing_plan_id":"cebpf4jnsgd1na2vs0mg"},{"bike_id":"4a956f0c-3665-471b-ab66-f31f5cac3b19","system_id":"levelo_inurba_marseille","lat":43.25103,"lon":5.40326,"is_reserved":false,"is_disabled":false,"rental_uris":{"android":"levelo://app?vid=4a956f0c-3665-471b-ab66-f31f5cac3b19","ios":"levelo://app?vid=4a956f0c-3665-471b-ab66-f31f5cac3b19"},"vehicle_type_id":"4","last_reported":1730646522,"current_range_meters":25200,"station_id":"ce4bhlh2rcd13ifvqgig","pricing_plan_id":"cebpf4jnsgd1na2vs0mg"},{"bike_id":"29468ae0-ee69-4ebc-a41e-153ef32f5e40","system_id":"levelo_inurba_marseille","lat":43.29685,"lon":5.37299,"is_reserved":false,"is_disabled":false,"rental_uris":{"android":"levelo://app?vid=29468ae0-ee69-4ebc-a41e-153ef32f5e40","ios":"levelo://app?vid=29468ae0-ee69-4ebc-a41e-153ef32f5e40"},"vehicle_type_id":"4","last_reported":1730646522,"current_range_meters":36400,"station_id":"ce4bgk12rcd13ifvqbj0","pricing_plan_id":"cebpf4jnsgd1na2vs0mg"},{"bike_id":"d623d16f-b9c3-4cf9-9d1e-bacff3cc4008","system_id":"levelo_inurba_marseille","lat":43.23192,"lon":5.35566,"is_reserved":false,"is_disabled":false,"rental_uris":{"android":"levelo://app?vid=d623d16f-b9c3-4cf9-9d1e-bacff3cc4008","ios":"levelo://app?vid=d623d16f-b9c3-4cf9-9d1e-bacff3cc4008"},"vehicle_type_id":"4","last_reported":1730646522,"current_range_meters":38800,"station_id":"ce4bhu92rcd13ifvqi70","pricing_plan_id":"cebpf4jnsgd1na2vs0mg"},{"bike_id":"c886ee5c-96a6-42bb-b9d3-aafabf19a4ae","system_id":"levelo_inurba_marseille","lat":43.24652,"lon":5.388882,"is_reserved":false,"is_disabled":false,"rental_uris":{"android":"levelo://app?vid=c886ee5c-96a6-42bb-b9d3-aafabf19a4ae","ios":"levelo://app?vid=c886ee5c-96a6-42bb-b9d3-aafabf19a4ae"},"vehicle_type_id":"4","last_reported":1730646522,"current_range_meters":26800,"station_id":"ce4bhg12rcd13ifvqf60","pricing_plan_id":"cebpf4jnsgd1na2vs0mg"},{"bike_id":"4549687f-f986-4750-85fb-e6b533b2c4a8","system_id":"levelo_inurba_marseille","lat":43.23054,"lon":5.35494,"is_reserved":false,"is_disabled":false,"rental_uris":{"android":"levelo://app?vid=4549687f-f986-4750-85fb-e6b533b2c4a8","ios":"levelo://app?vid=4549687f-f986-4750-85fb-e6b533b2c4a8"},"vehicle_type_id":"4","last_reported":1730646522,"current_range_meters":6800,"station_id":"cpo3342slgdg3j2ifvpg","pricing_plan_id":"cebpf4jnsgd1na2vs0mg"},{"bike_id":"bd63f88a-7bc9-4b39-8ec1-e4bf01f032ca","system_id":"levelo_inurba_marseille","lat":43.30306,"lon":5.39211,"is_reserved":false,"is_disabled":false,"rental_uris":{"android":"levelo://app?vid=bd63f88a-7bc9-4b39-8ec1-e4bf01f032ca","ios":"levelo://app?vid=bd63f88a-7bc9-4b39-8ec1-e4bf01f032ca"},"vehicle_type_id":"4","last_reported":1730646522,"current_range_meters":23200,"station_id":"ce4bgkh2rcd13ifvqbk0","pricing_plan_id":"cebpf4jnsgd1na2vs0mg"},{"bike_id":"daee8039-07f3-4303-95ee-cb0bf85b041d","system_id":"levelo_inurba_marseille","lat":43.30949,"lon":5.39025,"is_reserved":false,"is_disabled":false,"rental_uris":{"android":"levelo://app?vid=daee8039-07f3-4303-95ee-cb0bf85b041d","ios":"levelo://app?vid=daee8039-07f3-4303-95ee-cb0bf85b041d"},"vehicle_type_id":"4","last_reported":1730646522,"current_range_meters":38800,"station_id":"ce4bgup2rcd13ifvqco0","pricing_plan_id":"cebpf4jnsgd1na2vs0mg"},{"bike_id":"504b44e5-79f1-4dd6-a1b7-0d93ed2ed25f","system_id":"levelo_inurba_marseille","lat":43.28402,"lon":5.37528,"is_reserved":false,"is_disabled":false,"rental_uris":{"android":"levelo://app?vid=504b44e5-79f1-4dd6-a1b7-0d93ed2ed25f","ios":"levelo://app?vid=504b44e5-79f1-4dd6-a1b7-0d93ed2ed25f"},"vehicle_type_id":"4","last_reported":1730646522,"current_range_meters":25600,"station_id":"ce4bh412rcd13ifvqds0","pricing_plan_id":"cebpf4jnsgd1na2vs0mg"},{"bike_id":"4b79be66-2124-4f77-91a6-a46e5c2ebd05","system_id":"levelo_inurba_marseille","lat":43.28418,"lon":5.34978,"is_reserved":false,"is_disabled":false,"rental_uris":{"android":"levelo://app?vid=4b79be66-2124-4f77-91a6-a46e5c2ebd05","ios":"levelo://app?vid=4b79be66-2124-4f77-91a6-a46e5c2ebd05"},"vehicle_type_id":"4","last_reported":1730646522,"current_range_meters":4400,"station_id":"ce4bhbh2rcd13ifvqepg","pricing_plan_id":"cebpf4jnsgd1na2vs0mg"},{"bike_id":"6915b584-85be-4103-b769-35073f31532e","system_id":"levelo_inurba_marseille","lat":43.2737,"lon":5.36262,"is_reserved":false,"is_disabled":false,"rental_uris":{"android":"levelo://app?vid=6915b584-85be-4103-b769-35073f31532e","ios":"levelo://app?vid=6915b584-85be-4103-b769-35073f31532e"},"vehicle_type_id":"4","last_reported":1730646522,"current_range_meters":38800,"station_id":"ce4bhbh2rcd13ifvqeo0","pricing_plan_id":"cebpf4jnsgd1na2vs0mg"},{"bike_id":"5bc64015-5047-43ef-9fe9-209ecbb459c9","system_id":"levelo_inurba_marseille","lat":43.23194,"lon":5.35558,"is_reserved":false,"is_disabled":false,"rental_uris":{"android":"levelo://app?vid=5bc64015-5047-43ef-9fe9-209ecbb459c9","ios":"levelo://app?vid=5bc64015-5047-43ef-9fe9-209ecbb459c9"},"vehicle_type_id":"4","last_reported":1730646522,"current_range_meters":30000,"station_id":"ce4bhu92rcd13ifvqi70","pricing_plan_id":"cebpf4jnsgd1na2vs0mg"},{"bike_id":"8a9bbd41-3c71-4f47-b2e6-c897d7309d46","system_id":"levelo_inurba_marseille","lat":43.28406,"lon":5.34989,"is_reserved":false,"is_disabled":false,"rental_uris":{"android":"levelo://app?vid=8a9bbd41-3c71-4f47-b2e6-c897d7309d46","ios":"levelo://app?vid=8a9bbd41-3c71-4f47-b2e6-c897d7309d46"},"vehicle_type_id":"4","last_reported":1730646522,"current_range_meters":39200,"station_id":"ce4bhbh2rcd13ifvqepg","pricing_plan_id":"cebpf4jnsgd1na2vs0mg"},{"bike_id":"80a7ab33-83ac-40e0-ac33-df44f5c9dcd7","system_id":"levelo_inurba_marseille","lat":43.34139,"lon":5.409,"is_reserved":false,"is_disabled":false,"rental_uris":{"android":"levelo://app?vid=80a7ab33-83ac-40e0-ac33-df44f5c9dcd7","ios":"levelo://app?vid=80a7ab33-83ac-40e0-ac33-df44f5c9dcd7"},"vehicle_type_id":"4","last_reported":1730646522,"current_range_meters":33600,"station_id":"ce4bhqh2rcd13ifvqhlg","pricing_plan_id":"cebpf4jnsgd1na2vs0mg"},{"bike_id":"5063b31e-668f-4f17-acf1-d5b4ff4b9c3c","system_id":"levelo_inurba_marseille","lat":43.23066,"lon":5.35488,"is_reserved":false,"is_disabled":false,"rental_uris":{"android":"levelo://app?vid=5063b31e-668f-4f17-acf1-d5b4ff4b9c3c","ios":"levelo://app?vid=5063b31e-668f-4f17-acf1-d5b4ff4b9c3c"},"vehicle_type_id":"4","last_reported":1730646522,"current_range_meters":24800,"station_id":"cpo3342slgdg3j2ifvpg","pricing_plan_id":"cebpf4jnsgd1na2vs0mg"},{"bike_id":"d60329fb-4a36-4119-b144-ca92e5c4b619","system_id":"levelo_inurba_marseille","lat":43.29363,"lon":5.37841,"is_reserved":false,"is_disabled":false,"rental_uris":{"android":"levelo://app?vid=d60329fb-4a36-4119-b144-ca92e5c4b619","ios":"levelo://app?vid=d60329fb-4a36-4119-b144-ca92e5c4b619"},"vehicle_type_id":"4","last_reported":1730646522,"current_range_meters":31200,"station_id":"ce4bgjh2rcd13ifvqbf0","pricing_plan_id":"cebpf4jnsgd1na2vs0mg"},{"bike_id":"3e9b85d7-96fb-4b65-9acd-5723483a3709","system_id":"levelo_inurba_marseille","lat":43.3171,"lon":5.3775,"is_reserved":false,"is_disabled":false,"rental_uris":{"android":"levelo://app?vid=3e9b85d7-96fb-4b65-9acd-5723483a3709","ios":"levelo://app?vid=3e9b85d7-96fb-4b65-9acd-5723483a3709"},"vehicle_type_id":"4","last_reported":1730646522,"current_range_meters":38800,"station_id":"ce4bgth2rcd13ifvqch0","pricing_plan_id":"cebpf4jnsgd1na2vs0mg"},{"bike_id":"ad6b9979-2833-497c-ae59-5afeb88a87ce","system_id":"levelo_inurba_marseille","lat":43.32362,"lon":5.36768,"is_reserved":false,"is_disabled":false,"rental_uris":{"android":"levelo://app?vid=ad6b9979-2833-497c-ae59-5afeb88a87ce","ios":"levelo://app?vid=ad6b9979-2833-497c-ae59-5afeb88a87ce"},"vehicle_type_id":"4","last_reported":1730646522,"current_range_meters":6000,"station_id":"ce4bhsh2rcd13ifvqi2g","pricing_plan_id":"cebpf4jnsgd1na2vs0mg"},{"bike_id":"098ae06c-001e-4a29-abc9-8e0fea1ef37f","system_id":"levelo_inurba_marseille","lat":43.29197,"lon":5.3581,"is_reserved":false,"is_disabled":false,"rental_uris":{"android":"levelo://app?vid=098ae06c-001e-4a29-abc9-8e0fea1ef37f","ios":"levelo://app?vid=098ae06c-001e-4a29-abc9-8e0fea1ef37f"},"vehicle_type_id":"4","last_reported":1730646522,"current_range_meters":34000,"station_id":"ce4bhb12rcd13ifvqel0","pricing_plan_id":"cebpf4jnsgd1na2vs0mg"},{"bike_id":"fd90bf8a-a8fd-442b-9df8-59f91e3552fc","system_id":"levelo_inurba_marseille","lat":43.28269,"lon":5.35073,"is_reserved":false,"is_disabled":false,"rental_uris":{"android":"levelo://app?vid=fd90bf8a-a8fd-442b-9df8-59f91e3552fc","ios":"levelo://app?vid=fd90bf8a-a8fd-442b-9df8-59f91e3552fc"},"vehicle_type_id":"4","last_reported":1730646522,"current_range_meters":9200,"station_id":"ce4bhbp2rcd13ifvqerg","pricing_plan_id":"cebpf4jnsgd1na2vs0mg"},{"bike_id":"b7ab46d7-2c01-4011-bf10-4ecce7ec6413","system_id":"levelo_inurba_marseille","lat":43.28567,"lon":5.39498,"is_reserved":false,"is_disabled":false,"rental_uris":{"android":"levelo://app?vid=b7ab46d7-2c01-4011-bf10-4ecce7ec6413","ios":"levelo://app?vid=b7ab46d7-2c01-4011-bf10-4ecce7ec6413"},"vehicle_type_id":"4","last_reported":1730646522,"current_range_meters":38000,"station_id":"ce4bh292rcd13ifvqdg0","pricing_plan_id":"cebpf4jnsgd1na2vs0mg"},{"bike_id":"961fed6a-9ca5-4fa1-b23d-1e879b60bfa3","system_id":"levelo_inurba_marseille","lat":43.28261,"lon":5.3507,"is_reserved":false,"is_disabled":false,"rental_uris":{"android":"levelo://app?vid=961fed6a-9ca5-4fa1-b23d-1e879b60bfa3","ios":"levelo://app?vid=961fed6a-9ca5-4fa1-b23d-1e879b60bfa3"},"vehicle_type_id":"4","last_reported":1730646522,"current_range_meters":18000,"station_id":"ce4bhbp2rcd13ifvqerg","pricing_plan_id":"cebpf4jnsgd1na2vs0mg"},{"bike_id":"92bc432d-2cef-4b20-81b9-b4caa977d30d","system_id":"levelo_inurba_marseille","lat":43.23061,"lon":5.3549,"is_reserved":false,"is_disabled":false,"rental_uris":{"android":"levelo://app?vid=92bc432d-2cef-4b20-81b9-b4caa977d30d","ios":"levelo://app?vid=92bc432d-2cef-4b20-81b9-b4caa977d30d"},"vehicle_type_id":"4","last_reported":1730646522,"current_range_meters":18800,"station_id":"cpo3342slgdg3j2ifvpg","pricing_plan_id":"cebpf4jnsgd1na2vs0mg"},{"bike_id":"73b8545d-4982-4838-bf7d-3271b8d0a217","system_id":"levelo_inurba_marseille","lat":43.24165,"lon":5.36395,"is_reserved":false,"is_disabled":false,"rental_uris":{"android":"levelo://app?vid=73b8545d-4982-4838-bf7d-3271b8d0a217","ios":"levelo://app?vid=73b8545d-4982-4838-bf7d-3271b8d0a217"},"vehicle_type_id":"4","last_reported":1730646522,"current_range_meters":30400,"station_id":"cpo36qri1sfpv3e86is0","pricing_plan_id":"cebpf4jnsgd1na2vs0mg"},{"bike_id":"22277462-ea58-4946-ba2c-ef08f6cd7659","system_id":"levelo_inurba_marseille","lat":43.2797,"lon":5.4105,"is_reserved":false,"is_disabled":false,"rental_uris":{"android":"levelo://app?vid=22277462-ea58-4946-ba2c-ef08f6cd7659","ios":"levelo://app?vid=22277462-ea58-4946-ba2c-ef08f6cd7659"},"vehicle_type_id":"4","last_reported":1730646522,"current_range_meters":16400,"station_id":"","pricing_plan_id":"cebpf4jnsgd1na2vs0mg"},{"bike_id":"0d600896-793a-4170-a27f-0f9efe7015a8","system_id":"levelo_inurba_marseille","lat":43.27073,"lon":5.4228,"is_reserved":false,"is_disabled":false,"rental_uris":{"android":"levelo://app?vid=0d600896-793a-4170-a27f-0f9efe7015a8","ios":"levelo://app?vid=0d600896-793a-4170-a27f-0f9efe7015a8"},"vehicle_type_id":"4","last_reported":1730646522,"current_range_meters":22800,"station_id":"ce4bhk92rcd13ifvqgb0","pricing_plan_id":"cebpf4jnsgd1na2vs0mg"},{"bike_id":"c07332d5-f871-4d7c-9894-5a99fdbe9ec1","system_id":"levelo_inurba_marseille","lat":43.25085,"lon":5.3953,"is_reserved":false,"is_disabled":false,"rental_uris":{"android":"levelo://app?vid=c07332d5-f871-4d7c-9894-5a99fdbe9ec1","ios":"levelo://app?vid=c07332d5-f871-4d7c-9894-5a99fdbe9ec1"},"vehicle_type_id":"4","last_reported":1730646522,"current_range_meters":28400,"station_id":"ce4bhm12rcd13ifvqgkg","pricing_plan_id":"cebpf4jnsgd1na2vs0mg"},{"bike_id":"4e27fbb9-a647-4837-b379-2dd2462e58ae","system_id":"levelo_inurba_marseille","lat":43.22926,"lon":5.35377,"is_reserved":false,"is_disabled":false,"rental_uris":{"android":"levelo://app?vid=4e27fbb9-a647-4837-b379-2dd2462e58ae","ios":"levelo://app?vid=4e27fbb9-a647-4837-b379-2dd2462e58ae"},"vehicle_type_id":"4","last_reported":1730646522,"current_range_meters":38800,"station_id":"cpo3532slgdg3j2ikp40","pricing_plan_id":"cebpf4jnsgd1na2vs0mg"},{"bike_id":"5de11953-b7ac-4c6f-8a69-113a84a9e457","system_id":"levelo_inurba_marseille","lat":43.28718,"lon":5.36086,"is_reserved":false,"is_disabled":false,"rental_uris":{"android":"levelo://app?vid=5de11953-b7ac-4c6f-8a69-113a84a9e457","ios":"levelo://app?vid=5de11953-b7ac-4c6f-8a69-113a84a9e457"},"vehicle_type_id":"4","last_reported":1730646522,"current_range_meters":31200,"station_id":"cki0cbj6b192h4jlfktg","pricing_plan_id":"cebpf4jnsgd1na2vs0mg"},{"bike_id":"b4e371c2-90b5-4961-aeb6-a4da54bbdbcf","system_id":"levelo_inurba_marseille","lat":43.2466,"lon":5.38162,"is_reserved":false,"is_disabled":false,"rental_uris":{"android":"levelo://app?vid=b4e371c2-90b5-4961-aeb6-a4da54bbdbcf","ios":"levelo://app?vid=b4e371c2-90b5-4961-aeb6-a4da54bbdbcf"},"vehicle_type_id":"4","last_reported":1730646522,"current_range_meters":9600,"station_id":"ce4bhih2rcd13ifvqfr0","pricing_plan_id":"cebpf4jnsgd1na2vs0mg"},{"bike_id":"807469a2-81d0-40a4-bf41-581af620ef86","system_id":"levelo_inurba_marseille","lat":43.27383,"lon":5.36259,"is_reserved":false,"is_disabled":false,"rental_uris":{"android":"levelo://app?vid=807469a2-81d0-40a4-bf41-581af620ef86","ios":"levelo://app?vid=807469a2-81d0-40a4-bf41-581af620ef86"},"vehicle_type_id":"4","last_reported":1730646522,"current_range_meters":20000,"station_id":"ce4bhbh2rcd13ifvqeo0","pricing_plan_id":"cebpf4jnsgd1na2vs0mg"},{"bike_id":"9ae5611f-b235-427b-a3ef-70794a5f464b","system_id":"levelo_inurba_marseille","lat":43.28401,"lon":5.34987,"is_reserved":false,"is_disabled":false,"rental_uris":{"android":"levelo://app?vid=9ae5611f-b235-427b-a3ef-70794a5f464b","ios":"levelo://app?vid=9ae5611f-b235-427b-a3ef-70794a5f464b"},"vehicle_type_id":"4","last_reported":1730646522,"current_range_meters":38800,"station_id":"ce4bhbh2rcd13ifvqepg","pricing_plan_id":"cebpf4jnsgd1na2vs0mg"},{"bike_id":"58e7b314-77c5-4411-b74c-8276142971a5","system_id":"levelo_inurba_marseille","lat":43.31993,"lon":5.3815,"is_reserved":false,"is_disabled":false,"rental_uris":{"android":"levelo://app?vid=58e7b314-77c5-4411-b74c-8276142971a5","ios":"levelo://app?vid=58e7b314-77c5-4411-b74c-8276142971a5"},"vehicle_type_id":"4","last_reported":1730646522,"current_range_meters":32800,"station_id":"ce4bhr12rcd13ifvqhpg","pricing_plan_id":"cebpf4jnsgd1na2vs0mg"},{"bike_id":"4df3a78e-d605-4d37-a1ab-b5a2aa960272","system_id":"levelo_inurba_marseille","lat":43.28598,"lon":5.37073,"is_reserved":false,"is_disabled":false,"rental_uris":{"android":"levelo://app?vid=4df3a78e-d605-4d37-a1ab-b5a2aa960272","ios":"levelo://app?vid=4df3a78e-d605-4d37-a1ab-b5a2aa960272"},"vehicle_type_id":"4","last_reported":1730646522,"current_range_meters":38800,"station_id":"ce4bht12rcd13ifvqi60","pricing_plan_id":"cebpf4jnsgd1na2vs0mg"},{"bike_id":"1754da09-84bb-4663-ab48-d407b99ea522","system_id":"levelo_inurba_marseille","lat":43.2826,"lon":5.35072,"is_reserved":false,"is_disabled":false,"rental_uris":{"android":"levelo://app?vid=1754da09-84bb-4663-ab48-d407b99ea522","ios":"levelo://app?vid=1754da09-84bb-4663-ab48-d407b99ea522"},"vehicle_type_id":"4","last_reported":1730646522,"current_range_meters":19600,"station_id":"ce4bhbp2rcd13ifvqerg","pricing_plan_id":"cebpf4jnsgd1na2vs0mg"},{"bike_id":"f4d8f69a-9a51-4aec-bbfa-47d5afa76b4b","system_id":"levelo_inurba_marseille","lat":43.25,"lon":5.38925,"is_reserved":false,"is_disabled":false,"rental_uris":{"android":"levelo://app?vid=f4d8f69a-9a51-4aec-bbfa-47d5afa76b4b","ios":"levelo://app?vid=f4d8f69a-9a51-4aec-bbfa-47d5afa76b4b"},"vehicle_type_id":"4","last_reported":1730646522,"current_range_meters":17600,"station_id":"ce4bhgp2rcd13ifvqfd0","pricing_plan_id":"cebpf4jnsgd1na2vs0mg"},{"bike_id":"aa71cd7d-5c8f-45b0-bfad-65c2a2038acf","system_id":"levelo_inurba_marseille","lat":43.31996,"lon":5.38151,"is_reserved":false,"is_disabled":false,"rental_uris":{"android":"levelo://app?vid=aa71cd7d-5c8f-45b0-bfad-65c2a2038acf","ios":"levelo://app?vid=aa71cd7d-5c8f-45b0-bfad-65c2a2038acf"},"vehicle_type_id":"4","last_reported":1730646522,"current_range_meters":36800,"station_id":"ce4bhr12rcd13ifvqhpg","pricing_plan_id":"cebpf4jnsgd1na2vs0mg"},{"bike_id":"d3fedb30-0c97-4e65-8c1c-4bfd87e57895","system_id":"levelo_inurba_marseille","lat":43.24797,"lon":5.37449,"is_reserved":false,"is_disabled":false,"rental_uris":{"android":"levelo://app?vid=d3fedb30-0c97-4e65-8c1c-4bfd87e57895","ios":"levelo://app?vid=d3fedb30-0c97-4e65-8c1c-4bfd87e57895"},"vehicle_type_id":"4","last_reported":1730646522,"current_range_meters":21600,"station_id":"ce4bhgh2rcd13ifvqfb0","pricing_plan_id":"cebpf4jnsgd1na2vs0mg"},{"bike_id":"79fe43ac-5211-470a-9df7-2c440e3c0e66","system_id":"levelo_inurba_marseille","lat":43.28468,"lon":5.3841,"is_reserved":false,"is_disabled":false,"rental_uris":{"android":"levelo://app?vid=79fe43ac-5211-470a-9df7-2c440e3c0e66","ios":"levelo://app?vid=79fe43ac-5211-470a-9df7-2c440e3c0e66"},"vehicle_type_id":"4","last_reported":1730646522,"current_range_meters":38800,"station_id":"ce4bh512rcd13ifvqe3g","pricing_plan_id":"cebpf4jnsgd1na2vs0mg"},{"bike_id":"0c523561-c190-44ae-a283-124c72729911","system_id":"levelo_inurba_marseille","lat":43.27806,"lon":5.40715,"is_reserved":false,"is_disabled":false,"rental_uris":{"android":"levelo://app?vid=0c523561-c190-44ae-a283-124c72729911","ios":"levelo://app?vid=0c523561-c190-44ae-a283-124c72729911"},"vehicle_type_id":"4","last_reported":1730646522,"current_range_meters":32800,"station_id":"ce4bhnh2rcd13ifvqgtg","pricing_plan_id":"cebpf4jnsgd1na2vs0mg"},{"bike_id":"9d60ab59-6eef-4315-b0ac-c2909ceaacbe","system_id":"levelo_inurba_marseille","lat":43.27377,"lon":5.36263,"is_reserved":false,"is_disabled":false,"rental_uris":{"android":"levelo://app?vid=9d60ab59-6eef-4315-b0ac-c2909ceaacbe","ios":"levelo://app?vid=9d60ab59-6eef-4315-b0ac-c2909ceaacbe"},"vehicle_type_id":"4","last_reported":1730646522,"current_range_meters":38800,"station_id":"ce4bhbh2rcd13ifvqeo0","pricing_plan_id":"cebpf4jnsgd1na2vs0mg"},{"bike_id":"4cb824b1-c54d-4a10-94cc-38b9d72f5d08","system_id":"levelo_inurba_marseille","lat":43.27563,"lon":5.38426,"is_reserved":false,"is_disabled":false,"rental_uris":{"android":"levelo://app?vid=4cb824b1-c54d-4a10-94cc-38b9d72f5d08","ios":"levelo://app?vid=4cb824b1-c54d-4a10-94cc-38b9d72f5d08"},"vehicle_type_id":"4","last_reported":1730646522,"current_range_meters":38800,"station_id":"ce4bhh92rcd13ifvqfi0","pricing_plan_id":"cebpf4jnsgd1na2vs0mg"},{"bike_id":"bd799327-1808-45ef-960b-d4bc67cebc5e","system_id":"levelo_inurba_marseille","lat":43.33723,"lon":5.39194,"is_reserved":false,"is_disabled":false,"rental_uris":{"android":"levelo://app?vid=bd799327-1808-45ef-960b-d4bc67cebc5e","ios":"levelo://app?vid=bd799327-1808-45ef-960b-d4bc67cebc5e"},"vehicle_type_id":"4","last_reported":1730646522,"current_range_meters":18000,"station_id":"ce4bhr92rcd13ifvqhsg","pricing_plan_id":"cebpf4jnsgd1na2vs0mg"},{"bike_id":"91cb7a9d-5beb-4d32-b1e4-b436d76e1b61","system_id":"levelo_inurba_marseille","lat":43.29787,"lon":5.38098,"is_reserved":false,"is_disabled":false,"rental_uris":{"android":"levelo://app?vid=91cb7a9d-5beb-4d32-b1e4-b436d76e1b61","ios":"levelo://app?vid=91cb7a9d-5beb-4d32-b1e4-b436d76e1b61"},"vehicle_type_id":"4","last_reported":1730646522,"current_range_meters":27200,"station_id":"ce4bgip2rcd13ifvqbb0","pricing_plan_id":"cebpf4jnsgd1na2vs0mg"},{"bike_id":"cf8c8e64-114a-4df2-b066-c1ed9853330c","system_id":"levelo_inurba_marseille","lat":43.27173,"lon":5.41,"is_reserved":false,"is_disabled":false,"rental_uris":{"android":"levelo://app?vid=cf8c8e64-114a-4df2-b066-c1ed9853330c","ios":"levelo://app?vid=cf8c8e64-114a-4df2-b066-c1ed9853330c"},"vehicle_type_id":"4","last_reported":1730646522,"current_range_meters":12000,"station_id":"ce4bhl12rcd13ifvqgf0","pricing_plan_id":"cebpf4jnsgd1na2vs0mg"},{"bike_id":"e48ecbd0-47f1-4d8e-86c5-c647a9ec1b6b","system_id":"levelo_inurba_marseille","lat":43.31769,"lon":5.3902,"is_reserved":false,"is_disabled":false,"rental_uris":{"android":"levelo://app?vid=e48ecbd0-47f1-4d8e-86c5-c647a9ec1b6b","ios":"levelo://app?vid=e48ecbd0-47f1-4d8e-86c5-c647a9ec1b6b"},"vehicle_type_id":"4","last_reported":1730646522,"current_range_meters":12000,"station_id":"ce4bhqp2rcd13ifvqhng","pricing_plan_id":"cebpf4jnsgd1na2vs0mg"},{"bike_id":"e9d168bf-1600-44e9-a642-3e8a51b100ad","system_id":"levelo_inurba_marseille","lat":43.284,"lon":5.34994,"is_reserved":false,"is_disabled":false,"rental_uris":{"android":"levelo://app?vid=e9d168bf-1600-44e9-a642-3e8a51b100ad","ios":"levelo://app?vid=e9d168bf-1600-44e9-a642-3e8a51b100ad"},"vehicle_type_id":"4","last_reported":1730646522,"current_range_meters":37600,"station_id":"ce4bhbh2rcd13ifvqepg","pricing_plan_id":"cebpf4jnsgd1na2vs0mg"},{"bike_id":"cfa5fa1b-b403-4534-9d38-b5bbd3ae03d9","system_id":"levelo_inurba_marseille","lat":43.35557,"lon":5.35819,"is_reserved":false,"is_disabled":false,"rental_uris":{"android":"levelo://app?vid=cfa5fa1b-b403-4534-9d38-b5bbd3ae03d9","ios":"levelo://app?vid=cfa5fa1b-b403-4534-9d38-b5bbd3ae03d9"},"vehicle_type_id":"4","last_reported":1730646522,"current_range_meters":6800,"station_id":"","pricing_plan_id":"cebpf4jnsgd1na2vs0mg"},{"bike_id":"5dc2bc3e-2e2c-43a4-9524-1358ef68c498","system_id":"levelo_inurba_marseille","lat":43.28267,"lon":5.3507,"is_reserved":false,"is_disabled":false,"rental_uris":{"android":"levelo://app?vid=5dc2bc3e-2e2c-43a4-9524-1358ef68c498","ios":"levelo://app?vid=5dc2bc3e-2e2c-43a4-9524-1358ef68c498"},"vehicle_type_id":"4","last_reported":1730646522,"current_range_meters":35600,"station_id":"ce4bhbp2rcd13ifvqerg","pricing_plan_id":"cebpf4jnsgd1na2vs0mg"},{"bike_id":"f8c70cfd-00ed-469a-b340-d406af737119","system_id":"levelo_inurba_marseille","lat":43.23181,"lon":5.39986,"is_reserved":false,"is_disabled":false,"rental_uris":{"android":"levelo://app?vid=f8c70cfd-00ed-469a-b340-d406af737119","ios":"levelo://app?vid=f8c70cfd-00ed-469a-b340-d406af737119"},"vehicle_type_id":"4","last_reported":1730646522,"current_range_meters":38000,"station_id":"ce4bhn12rcd13ifvqgqg","pricing_plan_id":"cebpf4jnsgd1na2vs0mg"},{"bike_id":"0d04c3a6-1a21-4d33-8e79-c4374f2f9c39","system_id":"levelo_inurba_marseille","lat":43.23962,"lon":5.36643,"is_reserved":false,"is_disabled":false,"rental_uris":{"android":"levelo://app?vid=0d04c3a6-1a21-4d33-8e79-c4374f2f9c39","ios":"levelo://app?vid=0d04c3a6-1a21-4d33-8e79-c4374f2f9c39"},"vehicle_type_id":"4","last_reported":1730646522,"current_range_meters":38800,"station_id":"ce4bhi12rcd13ifvqfp0","pricing_plan_id":"cebpf4jnsgd1na2vs0mg"},{"bike_id":"cc063a4e-c43c-438f-af67-1b38df9f6174","system_id":"levelo_inurba_marseille","lat":43.29547,"lon":5.42285,"is_reserved":false,"is_disabled":false,"rental_uris":{"android":"levelo://app?vid=cc063a4e-c43c-438f-af67-1b38df9f6174","ios":"levelo://app?vid=cc063a4e-c43c-438f-af67-1b38df9f6174"},"vehicle_type_id":"4","last_reported":1730646522,"current_range_meters":38800,"station_id":"ce4bhph2rcd13ifvqhdg","pricing_plan_id":"cebpf4jnsgd1na2vs0mg"},{"bike_id":"b9a33553-3f6c-4201-9239-8e5cd9472697","system_id":"levelo_inurba_marseille","lat":43.32477,"lon":5.3656,"is_reserved":false,"is_disabled":false,"rental_uris":{"android":"levelo://app?vid=b9a33553-3f6c-4201-9239-8e5cd9472697","ios":"levelo://app?vid=b9a33553-3f6c-4201-9239-8e5cd9472697"},"vehicle_type_id":"4","last_reported":1730646522,"current_range_meters":38800,"station_id":"ce4bhs12rcd13ifvqhvg","pricing_plan_id":"cebpf4jnsgd1na2vs0mg"},{"bike_id":"7c4ea151-b34a-4f9d-98ba-40b4e9945160","system_id":"levelo_inurba_marseille","lat":43.27614,"lon":5.36111,"is_reserved":false,"is_disabled":false,"rental_uris":{"android":"levelo://app?vid=7c4ea151-b34a-4f9d-98ba-40b4e9945160","ios":"levelo://app?vid=7c4ea151-b34a-4f9d-98ba-40b4e9945160"},"vehicle_type_id":"4","last_reported":1730646522,"current_range_meters":24800,"station_id":"ce4bgj92rcd13ifvqbe0","pricing_plan_id":"cebpf4jnsgd1na2vs0mg"},{"bike_id":"16bf58ef-c6b4-42d8-b563-07b504ea9514","system_id":"levelo_inurba_marseille","lat":43.25721,"lon":5.41115,"is_reserved":false,"is_disabled":false,"rental_uris":{"android":"levelo://app?vid=16bf58ef-c6b4-42d8-b563-07b504ea9514","ios":"levelo://app?vid=16bf58ef-c6b4-42d8-b563-07b504ea9514"},"vehicle_type_id":"4","last_reported":1730646522,"current_range_meters":28000,"station_id":"ce4bhkp2rcd13ifvqgd0","pricing_plan_id":"cebpf4jnsgd1na2vs0mg"},{"bike_id":"829eb535-300e-48f7-adf4-b502d13ca525","system_id":"levelo_inurba_marseille","lat":43.27071,"lon":5.42278,"is_reserved":false,"is_disabled":false,"rental_uris":{"android":"levelo://app?vid=829eb535-300e-48f7-adf4-b502d13ca525","ios":"levelo://app?vid=829eb535-300e-48f7-adf4-b502d13ca525"},"vehicle_type_id":"4","last_reported":1730646522,"current_range_meters":20800,"station_id":"ce4bhk92rcd13ifvqgb0","pricing_plan_id":"cebpf4jnsgd1na2vs0mg"},{"bike_id":"7954d7b0-b07a-4c44-bf0b-81469cf4f2c8","system_id":"levelo_inurba_marseille","lat":43.24802,"lon":5.37455,"is_reserved":false,"is_disabled":false,"rental_uris":{"android":"levelo://app?vid=7954d7b0-b07a-4c44-bf0b-81469cf4f2c8","ios":"levelo://app?vid=7954d7b0-b07a-4c44-bf0b-81469cf4f2c8"},"vehicle_type_id":"4","last_reported":1730646522,"current_range_meters":6400,"station_id":"ce4bhgh2rcd13ifvqfb0","pricing_plan_id":"cebpf4jnsgd1na2vs0mg"},{"bike_id":"e0c7f542-dc76-463c-8d0e-ea098ec1a67e","system_id":"levelo_inurba_marseille","lat":43.26755,"lon":5.40767,"is_reserved":false,"is_disabled":false,"rental_uris":{"android":"levelo://app?vid=e0c7f542-dc76-463c-8d0e-ea098ec1a67e","ios":"levelo://app?vid=e0c7f542-dc76-463c-8d0e-ea098ec1a67e"},"vehicle_type_id":"4","last_reported":1730646522,"current_range_meters":6000,"station_id":"","pricing_plan_id":"cebpf4jnsgd1na2vs0mg"},{"bike_id":"2643b229-e0f2-4f0a-b362-8722a427c656","system_id":"levelo_inurba_marseille","lat":43.23149,"lon":5.437,"is_reserved":false,"is_disabled":false,"rental_uris":{"android":"levelo://app?vid=2643b229-e0f2-4f0a-b362-8722a427c656","ios":"levelo://app?vid=2643b229-e0f2-4f0a-b362-8722a427c656"},"vehicle_type_id":"4","last_reported":1730646522,"current_range_meters":35200,"station_id":"ce4bhmp2rcd13ifvqgog","pricing_plan_id":"cebpf4jnsgd1na2vs0mg"},{"bike_id":"a96f2455-7393-4fad-a96a-8d97c98c8309","system_id":"levelo_inurba_marseille","lat":43.24161,"lon":5.36398,"is_reserved":false,"is_disabled":false,"rental_uris":{"android":"levelo://app?vid=a96f2455-7393-4fad-a96a-8d97c98c8309","ios":"levelo://app?vid=a96f2455-7393-4fad-a96a-8d97c98c8309"},"vehicle_type_id":"4","last_reported":1730646522,"current_range_meters":11200,"station_id":"cpo36qri1sfpv3e86is0","pricing_plan_id":"cebpf4jnsgd1na2vs0mg"},{"bike_id":"978e43ce-e8d8-46c4-a013-c6639a47a539","system_id":"levelo_inurba_marseille","lat":43.33023,"lon":5.39038,"is_reserved":false,"is_disabled":false,"rental_uris":{"android":"levelo://app?vid=978e43ce-e8d8-46c4-a013-c6639a47a539","ios":"levelo://app?vid=978e43ce-e8d8-46c4-a013-c6639a47a539"},"vehicle_type_id":"4","last_reported":1730646522,"current_range_meters":38800,"station_id":"ce4bhr92rcd13ifvqhrg","pricing_plan_id":"cebpf4jnsgd1na2vs0mg"},{"bike_id":"708d03c7-bb19-4d39-9831-b1a7278a7fed","system_id":"levelo_inurba_marseille","lat":43.31706,"lon":5.37754,"is_reserved":false,"is_disabled":false,"rental_uris":{"android":"levelo://app?vid=708d03c7-bb19-4d39-9831-b1a7278a7fed","ios":"levelo://app?vid=708d03c7-bb19-4d39-9831-b1a7278a7fed"},"vehicle_type_id":"4","last_reported":1730646522,"current_range_meters":28400,"station_id":"ce4bgth2rcd13ifvqch0","pricing_plan_id":"cebpf4jnsgd1na2vs0mg"},{"bike_id":"befdd913-b7bc-4977-aa51-c7a679db6a72","system_id":"levelo_inurba_marseille","lat":43.31997,"lon":5.38162,"is_reserved":false,"is_disabled":false,"rental_uris":{"android":"levelo://app?vid=befdd913-b7bc-4977-aa51-c7a679db6a72","ios":"levelo://app?vid=befdd913-b7bc-4977-aa51-c7a679db6a72"},"vehicle_type_id":"4","last_reported":1730646522,"current_range_meters":27200,"station_id":"ce4bhr12rcd13ifvqhpg","pricing_plan_id":"cebpf4jnsgd1na2vs0mg"},{"bike_id":"5e9557e8-eff7-4be8-86ab-8649beb418f0","system_id":"levelo_inurba_marseille","lat":43.27672,"lon":5.38876,"is_reserved":false,"is_disabled":false,"rental_uris":{"android":"levelo://app?vid=5e9557e8-eff7-4be8-86ab-8649beb418f0","ios":"levelo://app?vid=5e9557e8-eff7-4be8-86ab-8649beb418f0"},"vehicle_type_id":"4","last_reported":1730646522,"current_range_meters":4000,"station_id":"ce4bhi12rcd13ifvqfo0","pricing_plan_id":"cebpf4jnsgd1na2vs0mg"},{"bike_id":"01127ec8-4a81-4dc6-9219-0ac079ce94b2","system_id":"levelo_inurba_marseille","lat":43.2396,"lon":5.36643,"is_reserved":false,"is_disabled":false,"rental_uris":{"android":"levelo://app?vid=01127ec8-4a81-4dc6-9219-0ac079ce94b2","ios":"levelo://app?vid=01127ec8-4a81-4dc6-9219-0ac079ce94b2"},"vehicle_type_id":"4","last_reported":1730646522,"current_range_meters":22000,"station_id":"ce4bhi12rcd13ifvqfp0","pricing_plan_id":"cebpf4jnsgd1na2vs0mg"},{"bike_id":"d0940cd3-59d8-462a-b442-6de605d237c4","system_id":"levelo_inurba_marseille","lat":43.24167,"lon":5.36389,"is_reserved":false,"is_disabled":false,"rental_uris":{"android":"levelo://app?vid=d0940cd3-59d8-462a-b442-6de605d237c4","ios":"levelo://app?vid=d0940cd3-59d8-462a-b442-6de605d237c4"},"vehicle_type_id":"4","last_reported":1730646522,"current_range_meters":38800,"station_id":"cpo36qri1sfpv3e86is0","pricing_plan_id":"cebpf4jnsgd1na2vs0mg"},{"bike_id":"728afe6e-5dad-4b03-8ffc-72391bb0aeef","system_id":"levelo_inurba_marseille","lat":43.33022,"lon":5.39041,"is_reserved":false,"is_disabled":false,"rental_uris":{"android":"levelo://app?vid=728afe6e-5dad-4b03-8ffc-72391bb0aeef","ios":"levelo://app?vid=728afe6e-5dad-4b03-8ffc-72391bb0aeef"},"vehicle_type_id":"4","last_reported":1730646522,"current_range_meters":38800,"station_id":"ce4bhr92rcd13ifvqhrg","pricing_plan_id":"cebpf4jnsgd1na2vs0mg"},{"bike_id":"10b841c5-60e9-4a48-a01f-9360d20fb933","system_id":"levelo_inurba_marseille","lat":43.28415,"lon":5.34992,"is_reserved":false,"is_disabled":false,"rental_uris":{"android":"levelo://app?vid=10b841c5-60e9-4a48-a01f-9360d20fb933","ios":"levelo://app?vid=10b841c5-60e9-4a48-a01f-9360d20fb933"},"vehicle_type_id":"4","last_reported":1730646522,"current_range_meters":39200,"station_id":"ce4bhbh2rcd13ifvqepg","pricing_plan_id":"cebpf4jnsgd1na2vs0mg"},{"bike_id":"85376c6b-4f0d-45f7-827e-515cc3a2bf01","system_id":"levelo_inurba_marseille","lat":43.28612,"lon":5.35108,"is_reserved":false,"is_disabled":false,"rental_uris":{"android":"levelo://app?vid=85376c6b-4f0d-45f7-827e-515cc3a2bf01","ios":"levelo://app?vid=85376c6b-4f0d-45f7-827e-515cc3a2bf01"},"vehicle_type_id":"4","last_reported":1730646522,"current_range_meters":5600,"station_id":"ce4bhch2rcd13ifvqeug","pricing_plan_id":"cebpf4jnsgd1na2vs0mg"},{"bike_id":"8016eb79-99b4-44bd-ac05-7846f44e83e0","system_id":"levelo_inurba_marseille","lat":43.33715,"lon":5.39183,"is_reserved":false,"is_disabled":false,"rental_uris":{"android":"levelo://app?vid=8016eb79-99b4-44bd-ac05-7846f44e83e0","ios":"levelo://app?vid=8016eb79-99b4-44bd-ac05-7846f44e83e0"},"vehicle_type_id":"4","last_reported":1730646522,"current_range_meters":18000,"station_id":"ce4bhr92rcd13ifvqhsg","pricing_plan_id":"cebpf4jnsgd1na2vs0mg"},{"bike_id":"0ed3edd9-c5cd-4a8b-9d97-e59222601059","system_id":"levelo_inurba_marseille","lat":43.2962,"lon":5.41912,"is_reserved":false,"is_disabled":false,"rental_uris":{"android":"levelo://app?vid=0ed3edd9-c5cd-4a8b-9d97-e59222601059","ios":"levelo://app?vid=0ed3edd9-c5cd-4a8b-9d97-e59222601059"},"vehicle_type_id":"4","last_reported":1730646522,"current_range_meters":24800,"station_id":"","pricing_plan_id":"cebpf4jnsgd1na2vs0mg"},{"bike_id":"09c4e025-0035-4b02-9331-e4c6e4b55438","system_id":"levelo_inurba_marseille","lat":43.30361,"lon":5.39151,"is_reserved":false,"is_disabled":false,"rental_uris":{"android":"levelo://app?vid=09c4e025-0035-4b02-9331-e4c6e4b55438","ios":"levelo://app?vid=09c4e025-0035-4b02-9331-e4c6e4b55438"},"vehicle_type_id":"4","last_reported":1730646522,"current_range_meters":32800,"station_id":"","pricing_plan_id":"cebpf4jnsgd1na2vs0mg"},{"bike_id":"114213d8-4b27-4108-b5b1-db607b729bcf","system_id":"levelo_inurba_marseille","lat":43.31122,"lon":5.37782,"is_reserved":false,"is_disabled":false,"rental_uris":{"android":"levelo://app?vid=114213d8-4b27-4108-b5b1-db607b729bcf","ios":"levelo://app?vid=114213d8-4b27-4108-b5b1-db607b729bcf"},"vehicle_type_id":"4","last_reported":1730646522,"current_range_meters":18000,"station_id":"ce4bgt92rcd13ifvqcg0","pricing_plan_id":"cebpf4jnsgd1na2vs0mg"},{"bike_id":"ce01ced4-4058-4bf4-93bb-12c4d3b9156c","system_id":"levelo_inurba_marseille","lat":43.25496,"lon":5.3765,"is_reserved":false,"is_disabled":false,"rental_uris":{"android":"levelo://app?vid=ce01ced4-4058-4bf4-93bb-12c4d3b9156c","ios":"levelo://app?vid=ce01ced4-4058-4bf4-93bb-12c4d3b9156c"},"vehicle_type_id":"4","last_reported":1730646522,"current_range_meters":24400,"station_id":"ce4bhh12rcd13ifvqff0","pricing_plan_id":"cebpf4jnsgd1na2vs0mg"},{"bike_id":"4ef003ad-aa41-4b9d-9653-6f5519f4df5c","system_id":"levelo_inurba_marseille","lat":43.28405,"lon":5.34985,"is_reserved":false,"is_disabled":false,"rental_uris":{"android":"levelo://app?vid=4ef003ad-aa41-4b9d-9653-6f5519f4df5c","ios":"levelo://app?vid=4ef003ad-aa41-4b9d-9653-6f5519f4df5c"},"vehicle_type_id":"4","last_reported":1730646522,"current_range_meters":32000,"station_id":"ce4bhbh2rcd13ifvqepg","pricing_plan_id":"cebpf4jnsgd1na2vs0mg"},{"bike_id":"967a10fc-13b6-4ccd-8b32-6a498d44a944","system_id":"levelo_inurba_marseille","lat":43.28616,"lon":5.35109,"is_reserved":false,"is_disabled":false,"rental_uris":{"android":"levelo://app?vid=967a10fc-13b6-4ccd-8b32-6a498d44a944","ios":"levelo://app?vid=967a10fc-13b6-4ccd-8b32-6a498d44a944"},"vehicle_type_id":"4","last_reported":1730646522,"current_range_meters":3600,"station_id":"ce4bhch2rcd13ifvqeug","pricing_plan_id":"cebpf4jnsgd1na2vs0mg"},{"bike_id":"d82ae023-bfef-4363-8935-7d53c46d465a","system_id":"levelo_inurba_marseille","lat":43.25721,"lon":5.41113,"is_reserved":false,"is_disabled":false,"rental_uris":{"android":"levelo://app?vid=d82ae023-bfef-4363-8935-7d53c46d465a","ios":"levelo://app?vid=d82ae023-bfef-4363-8935-7d53c46d465a"},"vehicle_type_id":"4","last_reported":1730646522,"current_range_meters":7200,"station_id":"ce4bhkp2rcd13ifvqgd0","pricing_plan_id":"cebpf4jnsgd1na2vs0mg"},{"bike_id":"c2f749d4-3dfa-4906-8cd1-cd3aecf71008","system_id":"levelo_inurba_marseille","lat":43.28073,"lon":5.39657,"is_reserved":false,"is_disabled":false,"rental_uris":{"android":"levelo://app?vid=c2f749d4-3dfa-4906-8cd1-cd3aecf71008","ios":"levelo://app?vid=c2f749d4-3dfa-4906-8cd1-cd3aecf71008"},"vehicle_type_id":"4","last_reported":1730646522,"current_range_meters":39200,"station_id":"ce4bho12rcd13ifvqh2g","pricing_plan_id":"cebpf4jnsgd1na2vs0mg"},{"bike_id":"d2d26cbb-df03-4bc6-9b8c-d5daae8715f7","system_id":"levelo_inurba_marseille","lat":43.23059,"lon":5.35491,"is_reserved":false,"is_disabled":false,"rental_uris":{"android":"levelo://app?vid=d2d26cbb-df03-4bc6-9b8c-d5daae8715f7","ios":"levelo://app?vid=d2d26cbb-df03-4bc6-9b8c-d5daae8715f7"},"vehicle_type_id":"4","last_reported":1730646522,"current_range_meters":15200,"station_id":"cpo3342slgdg3j2ifvpg","pricing_plan_id":"cebpf4jnsgd1na2vs0mg"},{"bike_id":"039ef3da-2487-4964-a8bf-82b28501ebf3","system_id":"levelo_inurba_marseille","lat":43.26937,"lon":5.40257,"is_reserved":false,"is_disabled":false,"rental_uris":{"android":"levelo://app?vid=039ef3da-2487-4964-a8bf-82b28501ebf3","ios":"levelo://app?vid=039ef3da-2487-4964-a8bf-82b28501ebf3"},"vehicle_type_id":"4","last_reported":1730646522,"current_range_meters":28800,"station_id":"cjm6bp8fraef2m0cb0m0","pricing_plan_id":"cebpf4jnsgd1na2vs0mg"},{"bike_id":"45bdb8a8-d496-4ce9-835f-784af1aecfaa","system_id":"levelo_inurba_marseille","lat":43.31538,"lon":5.38043,"is_reserved":false,"is_disabled":false,"rental_uris":{"android":"levelo://app?vid=45bdb8a8-d496-4ce9-835f-784af1aecfaa","ios":"levelo://app?vid=45bdb8a8-d496-4ce9-835f-784af1aecfaa"},"vehicle_type_id":"4","last_reported":1730646522,"current_range_meters":23200,"station_id":"ce4bhsp2rcd13ifvqi50","pricing_plan_id":"cebpf4jnsgd1na2vs0mg"},{"bike_id":"11c0a122-75ed-4c23-a26f-6d2b4d97c473","system_id":"levelo_inurba_marseille","lat":43.25115,"lon":5.40318,"is_reserved":false,"is_disabled":false,"rental_uris":{"android":"levelo://app?vid=11c0a122-75ed-4c23-a26f-6d2b4d97c473","ios":"levelo://app?vid=11c0a122-75ed-4c23-a26f-6d2b4d97c473"},"vehicle_type_id":"4","last_reported":1730646522,"current_range_meters":12400,"station_id":"ce4bhlh2rcd13ifvqgig","pricing_plan_id":"cebpf4jnsgd1na2vs0mg"},{"bike_id":"f6246492-cf78-4161-9cc1-96b491c72279","system_id":"levelo_inurba_marseille","lat":43.2804,"lon":5.36945,"is_reserved":false,"is_disabled":false,"rental_uris":{"android":"levelo://app?vid=f6246492-cf78-4161-9cc1-96b491c72279","ios":"levelo://app?vid=f6246492-cf78-4161-9cc1-96b491c72279"},"vehicle_type_id":"4","last_reported":1730646522,"current_range_meters":5600,"station_id":"ce4bha12rcd13ifvqef0","pricing_plan_id":"cebpf4jnsgd1na2vs0mg"},{"bike_id":"8b7be611-ccd8-40c7-905d-ea2535a17c35","system_id":"levelo_inurba_marseille","lat":43.3078,"lon":5.376577,"is_reserved":false,"is_disabled":false,"rental_uris":{"android":"levelo://app?vid=8b7be611-ccd8-40c7-905d-ea2535a17c35","ios":"levelo://app?vid=8b7be611-ccd8-40c7-905d-ea2535a17c35"},"vehicle_type_id":"4","last_reported":1730646522,"current_range_meters":32800,"station_id":"ce4bgv92rcd13ifvqcq0","pricing_plan_id":"cebpf4jnsgd1na2vs0mg"},{"bike_id":"20790144-d2ef-486d-990a-798428725c2a","system_id":"levelo_inurba_marseille","lat":43.29734,"lon":5.37684,"is_reserved":false,"is_disabled":false,"rental_uris":{"android":"levelo://app?vid=20790144-d2ef-486d-990a-798428725c2a","ios":"levelo://app?vid=20790144-d2ef-486d-990a-798428725c2a"},"vehicle_type_id":"4","last_reported":1730646522,"current_range_meters":14800,"station_id":"ce4bgkh2rcd13ifvqbl0","pricing_plan_id":"cebpf4jnsgd1na2vs0mg"},{"bike_id":"63a357af-ece5-4cd8-9355-93d91b33c71a","system_id":"levelo_inurba_marseille","lat":43.29997,"lon":5.36935,"is_reserved":false,"is_disabled":false,"rental_uris":{"android":"levelo://app?vid=63a357af-ece5-4cd8-9355-93d91b33c71a","ios":"levelo://app?vid=63a357af-ece5-4cd8-9355-93d91b33c71a"},"vehicle_type_id":"4","last_reported":1730646522,"current_range_meters":10000,"station_id":"","pricing_plan_id":"cebpf4jnsgd1na2vs0mg"},{"bike_id":"f100800f-5b52-4a1c-b58f-2b9ee453562e","system_id":"levelo_inurba_marseille","lat":43.29606,"lon":5.37755,"is_reserved":false,"is_disabled":false,"rental_uris":{"android":"levelo://app?vid=f100800f-5b52-4a1c-b58f-2b9ee453562e","ios":"levelo://app?vid=f100800f-5b52-4a1c-b58f-2b9ee453562e"},"vehicle_type_id":"4","last_reported":1730646522,"current_range_meters":28800,"station_id":"ce4bgi92rcd13ifvqb90","pricing_plan_id":"cebpf4jnsgd1na2vs0mg"},{"bike_id":"db21e849-8d13-48e1-821a-115902ca9b3c","system_id":"levelo_inurba_marseille","lat":43.30882,"lon":5.36838,"is_reserved":false,"is_disabled":false,"rental_uris":{"android":"levelo://app?vid=db21e849-8d13-48e1-821a-115902ca9b3c","ios":"levelo://app?vid=db21e849-8d13-48e1-821a-115902ca9b3c"},"vehicle_type_id":"4","last_reported":1730646522,"current_range_meters":17200,"station_id":"ce4bgn92rcd13ifvqbvg","pricing_plan_id":"cebpf4jnsgd1na2vs0mg"},