{"last_updated":1732471950,"ttl":60,"version":"2.2","data":{"bikes":[{"bike_id":"d9df8239-4976-4070-b26b-e224a7ef0fff","system_id":"levelo_inurba_marseille","lat":43.31154,"lon":5.36945,"is_reserved":false,"is_disabled":true,"rental_uris":{"android":"levelo://app?vid=d9df8239-4976-4070-b26b-e224a7ef0fff","ios":"levelo://app?vid=d9df8239-4976-4070-b26b-e224a7ef0fff"},"vehicle_type_id":"4","last_reported":1732471950,"current_range_meters":0,"station_id":"","pricing_plan_id":"cebpf4jnsgd1na2vs0mg"},{"bike_id":"249e4342-6363-48a9-a3a4-dad53f8c30a8","system_id":"levelo_inurba_marseille","lat":43.30285,"lon":5.37705,"is_reserved":false,"is_disabled":false,"rental_uris":{"android":"levelo://app?vid=249e4342-6363-48a9-a3a4-dad53f8c30a8","ios":"levelo://app?vid=249e4342-6363-48a9-a3a4-dad53f8c30a8"},"vehicle_type_id":"4","last_reported":1732471950,"current_range_meters":38800,"station_id":"ce4bguh2rcd13ifvqcj0","pricing_plan_id":"cebpf4jnsgd1na2vs0mg"},{"bike_id":"77a6b4d3-f225-40ca-b115-e0b015ca37be","system_id":"levelo_inurba_marseille","lat":43.28155,"lon":5.42643,"is_reserved":false,"is_disabled":true,"rental_uris":{"android":"levelo://app?vid=77a6b4d3-f225-40ca-b115-e0b015ca37be","ios":"levelo://app?vid=77a6b4d3-f225-40ca-b115-e0b015ca37be"},"vehicle_type_id":"4","last_reported":1732471950,"current_range_meters":0,"station_id":"ce4bhnh2rcd13ifvqgug","pricing_plan_id":"cebpf4jnsgd1na2vs0mg"},{"bike_id":"ef404ebd-a261-4d27-b4c5-78e76e13fc6e","system_id":"levelo_inurba_marseille","lat":43.29263,"lon":5.38431,"is_reserved":false,"is_disabled":false,"rental_uris":{"android":"levelo://app?vid=ef404ebd-a261-4d27-b4c5-78e76e13fc6e","ios":"levelo://app?vid=ef404ebd-a261-4d27-b4c5-78e76e13fc6e"},"vehicle_type_id":"4","last_reported":1732471950,"current_range_meters":27200,"station_id":"ce4bh692rcd13ifvqea0","pricing_plan_id":"cebpf4jnsgd1na2vs0mg"},{"bike_id":"6926623e-2fe0-455b-9bee-6506d940ff70","system_id":"levelo_inurba_marseille","lat":43.25575,"lon":5.38229,"is_reserved":false,"is_disabled":false,"rental_uris":{"android":"levelo://app?vid=6926623e-2fe0-455b-9bee-6506d940ff70","ios":"levelo://app?vid=6926623e-2fe0-455b-9bee-6506d940ff70"},"vehicle_type_id":"4","last_reported":1732471950,"current_range_meters":8800,"station_id":"ce4bhih2rcd13ifvqfs0","pricing_plan_id":"cebpf4jnsgd1na2vs0mg"},{"bike_id":"61523ac5-be94-4db1-a936-520815f81c3d","system_id":"levelo_inurba_marseille","lat":43.32361,"lon":5.38894,"is_reserved":false,"is_disabled":false,"rental_uris":{"android":"levelo://app?vid=61523ac5-be94-4db1-a936-520815f81c3d","ios":"levelo://app?vid=61523ac5-be94-4db1-a936-520815f81c3d"},"vehicle_type_id":"4","last_reported":1732471950,"current_range_meters":13600,"station_id":"ce4bhqp2rcd13ifvqhog","pricing_plan_id":"cebpf4jnsgd1na2vs0mg"},{"bike_id":"187bd365-d9bd-4fe2-96a5-e40a70ff542d","system_id":"levelo_inurba_marseille","lat":43.28566,"lon":5.39503,"is_reserved":false,"is_disabled":false,"rental_uris":{"android":"levelo://app?vid=187bd365-d9bd-4fe2-96a5-e40a70ff542d","ios":"levelo://app?vid=187bd365-d9bd-4fe2-96a5-e40a70ff542d"},"vehicle_type_id":"4","last_reported":1732471950,"current_range_meters":28000,"station_id":"ce4bh292rcd13ifvqdg0","pricing_plan_id":"cebpf4jnsgd1na2vs0mg"},{"bike_id":"5d5d0f9f-6d04-4277-bcae-0927568487e7","system_id":"levelo_inurba_marseille","lat":43.30801,"lon":5.3813,"is_reserved":false,"is_disabled":true,"rental_uris":{"android":"levelo://app?vid=5d5d0f9f-6d04-4277-bcae-0927568487e7","ios":"levelo://app?vid=5d5d0f9f-6d04-4277-bcae-0927568487e7"},"vehicle_type_id":"4","last_reported":1732471950,"current_range_meters":34000,"station_id":"ce4bgt12rcd13ifvqce0","pricing_plan_id":"cebpf4jnsgd1na2vs0mg"},{"bike_id":"de1f4f14-8b90-486a-a09e-2a956da66e44","system_id":"levelo_inurba_marseille","lat":43.29251,"lon":5.38445,"is_reserved":false,"is_disabled":false,"rental_uris":{"android":"levelo://app?vid=de1f4f14-8b90-486a-a09e-2a956da66e44","ios":"levelo://app?vid=de1f4f14-8b90-486a-a09e-2a956da66e44"},"vehicle_type_id":"4","last_reported":1732471950,"current_range_meters":16800,"station_id":"ce4bh692rcd13ifvqea0","pricing_plan_id":"cebpf4jnsgd1na2vs0mg"},{"bike_id":"dfdf02f3-dec5-466c-b3c0-98ee7bf502ab","system_id":"levelo_inurba_marseille","lat":43.27918,"lon":5.3958,"is_reserved":false,"is_disabled":false,"rental_uris":{"android":"levelo://app?vid=dfdf02f3-dec5-466c-b3c0-98ee7bf502ab","ios":"levelo://app?vid=dfdf02f3-dec5-466c-b3c0-98ee7bf502ab"},"vehicle_type_id":"4","last_reported":1732471950,"current_range_meters":5600,"station_id":"ce4bhf92rcd13ifvqf40","pricing_plan_id":"cebpf4jnsgd1na2vs0mg"},{"bike_id":"d4a8d056-dde8-45a2-9002-27751ca1259a","system_id":"levelo_inurba_marseille","lat":43.27205,"lon":5.39197,"is_reserved":false,"is_disabled":true,"rental_uris":{"android":"levelo://app?vid=d4a8d056-dde8-45a2-9002-27751ca1259a","ios":"levelo://app?vid=d4a8d056-dde8-45a2-9002-27751ca1259a"},"vehicle_type_id":"4","last_reported":1732471950,"current_range_meters":11600,"station_id":"ce4bhhp2rcd13ifvqfm0","pricing_plan_id":"cebpf4jnsgd1na2vs0mg"},{"bike_id":"153bca45-6bef-47d1-b940-615df979e83b","system_id":"levelo_inurba_marseille","lat":43.29703,"lon":5.37703,"is_reserved":false,"is_disabled":true,"rental_uris":{"android":"levelo://app?vid=153bca45-6bef-47d1-b940-615df979e83b","ios":"levelo://app?vid=153bca45-6bef-47d1-b940-615df979e83b"},"vehicle_type_id":"4","last_reported":1732471950,"current_range_meters":0,"station_id":"ce4bgkh2rcd13ifvqbl0","pricing_plan_id":"cebpf4jnsgd1na2vs0mg"},{"bike_id":"7c4f50d3-762c-4a8f-896e-1470cd966eec","system_id":"levelo_inurba_marseille","lat":43.29522,"lon":5.38535,"is_reserved":false,"is_disabled":false,"rental_uris":{"android":"levelo://app?vid=7c4f50d3-762c-4a8f-896e-1470cd966eec","ios":"levelo://app?vid=7c4f50d3-762c-4a8f-896e-1470cd966eec"},"vehicle_type_id":"4","last_reported":1732471950,"current_range_meters":39200,"station_id":"ce4bgih2rcd13ifvqba0","pricing_plan_id":"cebpf4jnsgd1na2vs0mg"},{"bike_id":"1d480d76-bb73-4781-930a-16c68fdce680","system_id":"levelo_inurba_marseille","lat":43.25581,"lon":5.38234,"is_reserved":false,"is_disabled":false,"rental_uris":{"android":"levelo://app?vid=1d480d76-bb73-4781-930a-16c68fdce680","ios":"levelo://app?vid=1d480d76-bb73-4781-930a-16c68fdce680"},"vehicle_type_id":"4","last_reported":1732471950,"current_range_meters":34000,"station_id":"ce4bhih2rcd13ifvqfs0","pricing_plan_id":"cebpf4jnsgd1na2vs0mg"},{"bike_id":"fcf28019-63c5-4387-8d9e-ebdeea067df7","system_id":"levelo_inurba_marseille","lat":43.33022,"lon":5.39043,"is_reserved":false,"is_disabled":false,"rental_uris":{"android":"levelo://app?vid=fcf28019-63c5-4387-8d9e-ebdeea067df7","ios":"levelo://app?vid=fcf28019-63c5-4387-8d9e-ebdeea067df7"},"vehicle_type_id":"4","last_reported":1732471950,"current_range_meters":8000,"station_id":"ce4bhr92rcd13ifvqhrg","pricing_plan_id":"cebpf4jnsgd1na2vs0mg"},{"bike_id":"46d0d386-63f9-4599-9c6b-4ff5c0288886","system_id":"levelo_inurba_marseille","lat":43.28666,"lon":5.36338,"is_reserved":false,"is_disabled":false,"rental_uris":{"android":"levelo://app?vid=46d0d386-63f9-4599-9c6b-4ff5c0288886","ios":"levelo://app?vid=46d0d386-63f9-4599-9c6b-4ff5c0288886"},"vehicle_type_id":"4","last_reported":1732471950,"current_range_meters":16800,"station_id":"ce4bhah2rcd13ifvqej0","pricing_plan_id":"cebpf4jnsgd1na2vs0mg"},{"bike_id":"f194ce90-013c-4fc7-8be7-5bad56e3b52c","system_id":"levelo_inurba_marseille","lat":43.24074,"lon":5.37757,"is_reserved":false,"is_disabled":false,"rental_uris":{"android":"levelo://app?vid=f194ce90-013c-4fc7-8be7-5bad56e3b52c","ios":"levelo://app?vid=f194ce90-013c-4fc7-8be7-5bad56e3b52c"},"vehicle_type_id":"4","last_reported":1732471950,"current_range_meters":18800,"station_id":"ce4bhnp2rcd13ifvqgvg","pricing_plan_id":"cebpf4jnsgd1na2vs0mg"},{"bike_id":"30585094-ecfe-43ac-ae36-000c4a5ab426","system_id":"levelo_inurba_marseille","lat":43.30963,"lon":5.39038,"is_reserved":false,"is_disabled":true,"rental_uris":{"android":"levelo://app?vid=30585094-ecfe-43ac-ae36-000c4a5ab426","ios":"levelo://app?vid=30585094-ecfe-43ac-ae36-000c4a5ab426"},"vehicle_type_id":"4","last_reported":1732471950,"current_range_meters":21600,"station_id":"ce4bgup2rcd13ifvqco0","pricing_plan_id":"cebpf4jnsgd1na2vs0mg"},{"bike_id":"5f84fccb-6473-45c7-b4bf-9ab64c8af504","system_id":"levelo_inurba_marseille","lat":43.2511,"lon":5.4032,"is_reserved":false,"is_disabled":false,"rental_uris":{"android":"levelo://app?vid=5f84fccb-6473-45c7-b4bf-9ab64c8af504","ios":"levelo://app?vid=5f84fccb-6473-45c7-b4bf-9ab64c8af504"},"vehicle_type_id":"4","last_reported":1732471950,"current_range_meters":36000,"station_id":"ce4bhlh2rcd13ifvqgig","pricing_plan_id":"cebpf4jnsgd1na2vs0mg"},{"bike_id":"f908a2f3-badf-43de-bb57-351253b0ef25","system_id":"levelo_inurba_marseille","lat":43.2491,"lon":5.39684,"is_reserved":false,"is_disabled":true,"rental_uris":{"android":"levelo://app?vid=f908a2f3-badf-43de-bb57-351253b0ef25","ios":"levelo://app?vid=f908a2f3-badf-43de-bb57-351253b0ef25"},"vehicle_type_id":"4","last_reported":1732471950,"current_range_meters":0,"station_id":"ce4bhgp2rcd13ifvqfd0","pricing_plan_id":"cebpf4jnsgd1na2vs0mg"},{"bike_id":"48c65e97-1516-4538-82d5-5272854a7544","system_id":"levelo_inurba_marseille","lat":43.32488,"lon":5.36574,"is_reserved":false,"is_disabled":false,"rental_uris":{"android":"levelo://app?vid=48c65e97-1516-4538-82d5-5272854a7544","ios":"levelo://app?vid=48c65e97-1516-4538-82d5-5272854a7544"},"vehicle_type_id":"4","last_reported":1732471950,"current_range_meters":10000,"station_id":"ce4bhs12rcd13ifvqhvg","pricing_plan_id":"cebpf4jnsgd1na2vs0mg"},{"bike_id":"384ba50e-3dc5-4035-9991-574199bbdacc","system_id":"levelo_inurba_marseille","lat":43.2511,"lon":5.40321,"is_reserved":false,"is_disabled":false,"rental_uris":{"android":"levelo://app?vid=384ba50e-3dc5-4035-9991-574199bbdacc","ios":"levelo://app?vid=384ba50e-3dc5-4035-9991-574199bbdacc"},"vehicle_type_id":"4","last_reported":1732471950,"current_range_meters":30000,"station_id":"ce4bhlh2rcd13ifvqgig","pricing_plan_id":"cebpf4jnsgd1na2vs0mg"},{"bike_id":"82fa7035-fe1f-472c-b71f-0671816c63f8","system_id":"levelo_inurba_marseille","lat":43.30257,"lon":5.40072,"is_reserved":false,"is_disabled":false,"rental_uris":{"android":"levelo://app?vid=82fa7035-fe1f-472c-b71f-0671816c63f8","ios":"levelo://app?vid=82fa7035-fe1f-472c-b71f-0671816c63f8"},"vehicle_type_id":"4","last_reported":1732471950,"current_range_meters":6800,"station_id":"ce4bgvh2rcd13ifvqcs0","pricing_plan_id":"cebpf4jnsgd1na2vs0mg"},{"bike_id":"efa12b00-49b6-4085-b62c-84b7c0766a16","system_id":"levelo_inurba_marseille","lat":43.27496,"lon":5.42449,"is_reserved":false,"is_disabled":false,"rental_uris":{"android":"levelo://app?vid=efa12b00-49b6-4085-b62c-84b7c0766a16","ios":"levelo://app?vid=efa12b00-49b6-4085-b62c-84b7c0766a16"},"vehicle_type_id":"4","last_reported":1732471950,"current_range_meters":20000,"station_id":"ce4bhn92rcd13ifvqgrg","pricing_plan_id":"cebpf4jnsgd1na2vs0mg"},{"bike_id":"e55d71d0-970e-4e17-ba14-4482cf574a53","system_id":"levelo_inurba_marseille","lat":43.29643,"lon":5.36875,"is_reserved":false,"is_disabled":false,"rental_uris":{"android":"levelo://app?vid=e55d71d0-970e-4e17-ba14-4482cf574a53","ios":"levelo://app?vid=e55d71d0-970e-4e17-ba14-4482cf574a53"},"vehicle_type_id":"4","last_reported":1732471950,"current_range_meters":36800,"station_id":"","pricing_plan_id":"cebpf4jnsgd1na2vs0mg"},{"bike_id":"d688c108-a6a9-4beb-97d5-07c2c015e253","system_id":"levelo_inurba_marseille","lat":43.29993,"lon":5.37173,"is_reserved":false,"is_disabled":false,"rental_uris":{"android":"levelo://app?vid=d688c108-a6a9-4beb-97d5-07c2c015e253","ios":"levelo://app?vid=d688c108-a6a9-4beb-97d5-07c2c015e253"},"vehicle_type_id":"4","last_reported":1732471950,"current_range_meters":9600,"station_id":"ce4bgr92rcd13ifvqc7g","pricing_plan_id":"cebpf4jnsgd1na2vs0mg"},{"bike_id":"9c184e11-e0cf-462e-8640-0314aa16e61a","system_id":"levelo_inurba_marseille","lat":43.24661,"lon":5.38158,"is_reserved":false,"is_disabled":false,"rental_uris":{"android":"levelo://app?vid=9c184e11-e0cf-462e-8640-0314aa16e61a","ios":"levelo://app?vid=9c184e11-e0cf-462e-8640-0314aa16e61a"},"vehicle_type_id":"4","last_reported":1732471950,"current_range_meters":20800,"station_id":"ce4bhih2rcd13ifvqfr0","pricing_plan_id":"cebpf4jnsgd1na2vs0mg"},{"bike_id":"9f5a0e7a-8624-42ea-bdfa-88751bb19ddb","system_id":"levelo_inurba_marseille","lat":43.27945,"lon":5.40985,"is_reserved":false,"is_disabled":false,"rental_uris":{"android":"levelo://app?vid=9f5a0e7a-8624-42ea-bdfa-88751bb19ddb","ios":"levelo://app?vid=9f5a0e7a-8624-42ea-bdfa-88751bb19ddb"},"vehicle_type_id":"4","last_reported":1732471950,"current_range_meters":6400,"station_id":"ce4bhnp2rcd13ifvqh0g","pricing_plan_id":"cebpf4jnsgd1na2vs0mg"},{"bike_id":"3756a542-79c4-4bb1-8289-8e53487e7469","system_id":"levelo_inurba_marseille","lat":43.29419,"lon":5.38614,"is_reserved":false,"is_disabled":false,"rental_uris":{"android":"levelo://app?vid=3756a542-79c4-4bb1-8289-8e53487e7469","ios":"levelo://app?vid=3756a542-79c4-4bb1-8289-8e53487e7469"},"vehicle_type_id":"4","last_reported":1732471950,"current_range_meters":33200,"station_id":"ce4bh2h2rcd13ifvqdh0","pricing_plan_id":"cebpf4jnsgd1na2vs0mg"},{"bike_id":"f37340bf-4c78-4bca-854e-b10fd38cd44c","system_id":"levelo_inurba_marseille","lat":43.29931,"lon":5.36536,"is_reserved":false,"is_disabled":false,"rental_uris":{"android":"levelo://app?vid=f37340bf-4c78-4bca-854e-b10fd38cd44c","ios":"levelo://app?vid=f37340bf-4c78-4bca-854e-b10fd38cd44c"},"vehicle_type_id":"4","last_reported":1732471950,"current_range_meters":38800,"station_id":"ce4bgm92rcd13ifvqbr0","pricing_plan_id":"cebpf4jnsgd1na2vs0mg"},{"bike_id":"6a2df70c-4e94-45ba-b67d-45bd465ca49d","system_id":"levelo_inurba_marseille","lat":43.29203,"lon":5.39311,"is_reserved":false,"is_disabled":true,"rental_uris":{"android":"levelo://app?vid=6a2df70c-4e94-45ba-b67d-45bd465ca49d","ios":"levelo://app?vid=6a2df70c-4e94-45ba-b67d-45bd465ca49d"},"vehicle_type_id":"4","last_reported":1732471950,"current_range_meters":29600,"station_id":"ce4bh192rcd13ifvqdd0","pricing_plan_id":"cebpf4jnsgd1na2vs0mg"},{"bike_id":"f0c9b009-6e7d-4316-96af-3036572d9258","system_id":"levelo_inurba_marseille","lat":43.29526,"lon":5.375,"is_reserved":false,"is_disabled":true,"rental_uris":{"android":"levelo://app?vid=f0c9b009-6e7d-4316-96af-3036572d9258","ios":"levelo://app?vid=f0c9b009-6e7d-4316-96af-3036572d9258"},"vehicle_type_id":"4","last_reported":1732471950,"current_range_meters":29600,"station_id":"ce4bgkp2rcd13ifvqbmg","pricing_plan_id":"cebpf4jnsgd1na2vs0mg"},{"bike_id":"ec10fbd2-fc57-4853-94ca-2fece32c3a84","system_id":"levelo_inurba_marseille","lat":43.28729,"lon":5.36092,"is_reserved":false,"is_disabled":false,"rental_uris":{"android":"levelo://app?vid=ec10fbd2-fc57-4853-94ca-2fece32c3a84","ios":"levelo://app?vid=ec10fbd2-fc57-4853-94ca-2fece32c3a84"},"vehicle_type_id":"4","last_reported":1732471950,"current_range_meters":27200,"station_id":"cki0cbj6b192h4jlfktg","pricing_plan_id":"cebpf4jnsgd1na2vs0mg"},{"bike_id":"b2b158d0-8028-4675-9f9a-048f08fcfa95","system_id":"levelo_inurba_marseille","lat":43.27873,"lon":5.38013,"is_reserved":false,"is_disabled":false,"rental_uris":{"android":"levelo://app?vid=b2b158d0-8028-4675-9f9a-048f08fcfa95","ios":"levelo://app?vid=b2b158d0-8028-4675-9f9a-048f08fcfa95"},"vehicle_type_id":"4","last_reported":1732471950,"current_range_meters":39200,"station_id":"ce4bhf92rcd13ifvqf50","pricing_plan_id":"cebpf4jnsgd1na2vs0mg"},{"bike_id":"ff3594ee-f948-4832-9680-599cfdacc368","system_id":"levelo_inurba_marseille","lat":43.27187,"lon":5.40995,"is_reserved":false,"is_disabled":false,"rental_uris":{"android":"levelo://app?vid=ff3594ee-f948-4832-9680-599cfdacc368","ios":"levelo://app?vid=ff3594ee-f948-4832-9680-599cfdacc368"},"vehicle_type_id":"4","last_reported":1732471950,"current_range_meters":32000,"station_id":"ce4bhl12rcd13ifvqgf0","pricing_plan_id":"cebpf4jnsgd1na2vs0mg"},{"bike_id":"565a0b0b-afe1-4da1-b2e2-0df8233591e4","system_id":"levelo_inurba_marseille","lat":43.2511,"lon":5.40328,"is_reserved":false,"is_disabled":true,"rental_uris":{"android":"levelo://app?vid=565a0b0b-afe1-4da1-b2e2-0df8233591e4","ios":"levelo://app?vid=565a0b0b-afe1-4da1-b2e2-0df8233591e4"},"vehicle_type_id":"4","last_reported":1732471950,"current_range_meters":14000,"station_id":"ce4bhlh2rcd13ifvqgig","pricing_plan_id":"cebpf4jnsgd1na2vs0mg"},{"bike_id":"fc725f4c-1e4f-435f-9397-00fe87f3f213","system_id":"levelo_inurba_marseille","lat":43.31278,"lon":5.40171,"is_reserved":false,"is_disabled":false,"rental_uris":{"android":"levelo://app?vid=fc725f4c-1e4f-435f-9397-00fe87f3f213","ios":"levelo://app?vid=fc725f4c-1e4f-435f-9397-00fe87f3f213"},"vehicle_type_id":"4","last_reported":1732471950,"current_range_meters":9200,"station_id":"ce4bh092rcd13ifvqd30","pricing_plan_id":"cebpf4jnsgd1na2vs0mg"},{"bike_id":"1e126baa-22b4-4cf7-a05e-1c0611873009","system_id":"levelo_inurba_marseille","lat":43.311192,"lon":5.377708,"is_reserved":false,"is_disabled":true,"rental_uris":{"android":"levelo://app?vid=1e126baa-22b4-4cf7-a05e-1c0611873009","ios":"levelo://app?vid=1e126baa-22b4-4cf7-a05e-1c0611873009"},"vehicle_type_id":"4","last_reported":1732471950,"current_range_meters":2000,"station_id":"","pricing_plan_id":"cebpf4jnsgd1na2vs0mg"},{"bike_id":"856c5296-7fea-42cc-be09-a6b9a37c0b30","system_id":"levelo_inurba_marseille","lat":43.27377,"lon":5.36249,"is_reserved":false,"is_disabled":true,"rental_uris":{"android":"levelo://app?vid=856c5296-7fea-42cc-be09-a6b9a37c0b30","ios":"levelo://app?vid=856c5296-7fea-42cc-be09-a6b9a37c0b30"},"vehicle_type_id":"4","last_reported":1732471950,"current_range_meters":0,"station_id":"ce4bhbh2rcd13ifvqeo0","pricing_plan_id":"cebpf4jnsgd1na2vs0mg"},{"bike_id":"4acfba0d-0d1b-436f-b509-52e30732ec64","system_id":"levelo_inurba_marseille","lat":43.23195,"lon":5.35558,"is_reserved":false,"is_disabled":false,"rental_uris":{"android":"levelo://app?vid=4acfba0d-0d1b-436f-b509-52e30732ec64","ios":"levelo://app?vid=4acfba0d-0d1b-436f-b509-52e30732ec64"},"vehicle_type_id":"4","last_reported":1732471950,"current_range_meters":38800,"station_id":"ce4bhu92rcd13ifvqi70","pricing_plan_id":"cebpf4jnsgd1na2vs0mg"},{"bike_id":"bbfe90e1-a850-4c35-972f-e8dec08d736b","system_id":"levelo_inurba_marseille","lat":43.28711,"lon":5.3792,"is_reserved":false,"is_disabled":false,"rental_uris":{"android":"levelo://app?vid=bbfe90e1-a850-4c35-972f-e8dec08d736b","ios":"levelo://app?vid=bbfe90e1-a850-4c35-972f-e8dec08d736b"},"vehicle_type_id":"4","last_reported":1732471950,"current_range_meters":36800,"station_id":"ce4bh9p2rcd13ifvqec0","pricing_plan_id":"cebpf4jnsgd1na2vs0mg"},{"bike_id":"1d840dae-dbe8-46f4-bebd-7bdde2669885","system_id":"levelo_inurba_marseille","lat":43.27495,"lon":5.42448,"is_reserved":false,"is_disabled":false,"rental_uris":{"android":"levelo://app?vid=1d840dae-dbe8-46f4-bebd-7bdde2669885","ios":"levelo://app?vid=1d840dae-dbe8-46f4-bebd-7bdde2669885"},"vehicle_type_id":"4","last_reported":1732471950,"current_range_meters":21600,"station_id":"ce4bhn92rcd13ifvqgrg","pricing_plan_id":"cebpf4jnsgd1na2vs0mg"},{"bike_id":"9a122f92-8d1b-4a84-9637-aeed9243668f","system_id":"levelo_inurba_marseille","lat":43.28938,"lon":5.3663,"is_reserved":false,"is_disabled":true,"rental_uris":{"android":"levelo://app?vid=9a122f92-8d1b-4a84-9637-aeed9243668f","ios":"levelo://app?vid=9a122f92-8d1b-4a84-9637-aeed9243668f"},"vehicle_type_id":"4","last_reported":1732471950,"current_range_meters":0,"station_id":"ce4bhap2rcd13ifvqek0","pricing_plan_id":"cebpf4jnsgd1na2vs0mg"},{"bike_id":"3b8826b5-f7c4-4de1-8e11-8a84df333144","system_id":"levelo_inurba_marseille","lat":43.24072,"lon":5.3776,"is_reserved":false,"is_disabled":false,"rental_uris":{"android":"levelo://app?vid=3b8826b5-f7c4-4de1-8e11-8a84df333144","ios":"levelo://app?vid=3b8826b5-f7c4-4de1-8e11-8a84df333144"},"vehicle_type_id":"4","last_reported":1732471950,"current_range_meters":17200,"station_id":"ce4bhnp2rcd13ifvqgvg","pricing_plan_id":"cebpf4jnsgd1na2vs0mg"},{"bike_id":"1fd0b3c7-ec23-4c6c-ad9b-7abf4499d2ba","system_id":"levelo_inurba_marseille","lat":43.29701,"lon":5.36609,"is_reserved":false,"is_disabled":false,"rental_uris":{"android":"levelo://app?vid=1fd0b3c7-ec23-4c6c-ad9b-7abf4499d2ba","ios":"levelo://app?vid=1fd0b3c7-ec23-4c6c-ad9b-7abf4499d2ba"},"vehicle_type_id":"4","last_reported":1732471950,"current_range_meters":2800,"station_id":"ce4bgn12rcd13ifvqbt0","pricing_plan_id":"cebpf4jnsgd1na2vs0mg"},{"bike_id":"38a28ee5-a9ad-4f3b-afe8-1dbfbc2cee8a","system_id":"levelo_inurba_marseille","lat":43.29606,"lon":5.37728,"is_reserved":false,"is_disabled":false,"rental_uris":{"android":"levelo://app?vid=38a28ee5-a9ad-4f3b-afe8-1dbfbc2cee8a","ios":"levelo://app?vid=38a28ee5-a9ad-4f3b-afe8-1dbfbc2cee8a"},"vehicle_type_id":"4","last_reported":1732471950,"current_range_meters":26800,"station_id":"ce4bgi92rcd13ifvqb90","pricing_plan_id":"cebpf4jnsgd1na2vs0mg"},{"bike_id":"0bff4688-540e-4e2c-808d-c9347a358a4f","system_id":"levelo_inurba_marseille","lat":43.27676,"lon":5.38912,"is_reserved":false,"is_disabled":true,"rental_uris":{"android":"levelo://app?vid=0bff4688-540e-4e2c-808d-c9347a358a4f","ios":"levelo://app?vid=0bff4688-540e-4e2c-808d-c9347a358a4f"},"vehicle_type_id":"4","last_reported":1732471950,"current_range_meters":38800,"station_id":"ce4bhi12rcd13ifvqfo0","pricing_plan_id":"cebpf4jnsgd1na2vs0mg"},{"bike_id":"4a63d884-9b6b-48b3-9563-0ed2343de991","system_id":"levelo_inurba_marseille","lat":43.30114,"lon":5.39845,"is_reserved":false,"is_disabled":true,"rental_uris":{"android":"levelo://app?vid=4a63d884-9b6b-48b3-9563-0ed2343de991","ios":"levelo://app?vid=4a63d884-9b6b-48b3-9563-0ed2343de991"},"vehicle_type_id":"4","last_reported":1732471950,"current_range_meters":0,"station_id":"ce4bh0h2rcd13ifvqd40","pricing_plan_id":"cebpf4jnsgd1na2vs0mg"},{"bike_id":"18c679e3-8ac0-42cd-b7ee-e2f10901f60c","system_id":"levelo_inurba_marseille","lat":43.29047,"lon":5.37559,"is_reserved":false,"is_disabled":false,"rental_uris":{"android":"levelo://app?vid=18c679e3-8ac0-42cd-b7ee-e2f10901f60c","ios":"levelo://app?vid=18c679e3-8ac0-42cd-b7ee-e2f10901f60c"},"vehicle_type_id":"4","last_reported":1732471950,"current_range_meters":38800,"station_id":"ce4bh692rcd13ifvqe90","pricing_plan_id":"cebpf4jnsgd1na2vs0mg"},{"bike_id":"461247bd-e596-420c-8ccd-e1034b971e50","system_id":"levelo_inurba_marseille","lat":43.29181,"lon":5.3931,"is_reserved":false,"is_disabled":false,"rental_uris":{"android":"levelo://app?vid=461247bd-e596-420c-8ccd-e1034b971e50","ios":"levelo://app?vid=461247bd-e596-420c-8ccd-e1034b971e50"},"vehicle_type_id":"4","last_reported":1732471950,"current_range_meters":6800,"station_id":"ce4bh192rcd13ifvqdd0","pricing_plan_id":"cebpf4jnsgd1na2vs0mg"},{"bike_id":"02c642a5-6396-49e4-a325-d580d2a79370","system_id":"levelo_inurba_marseille","lat":43.26193,"lon":5.37448,"is_reserved":false,"is_disabled":true,"rental_uris":{"android":"levelo://app?vid=02c642a5-6396-49e4-a325-d580d2a79370","ios":"levelo://app?vid=02c642a5-6396-49e4-a325-d580d2a79370"},"vehicle_type_id":"4","last_reported":1732471950,"current_range_meters":0,"station_id":"ce4bhgp2rcd13ifvqfc0","pricing_plan_id":"cebpf4jnsgd1na2vs0mg"},{"bike_id":"348c507a-0710-4663-8d82-f2a675894ac0","system_id":"levelo_inurba_marseille","lat":43.28095,"lon":5.37839,"is_reserved":false,"is_disabled":false,"rental_uris":{"android":"levelo://app?vid=348c507a-0710-4663-8d82-f2a675894ac0","ios":"levelo://app?vid=348c507a-0710-4663-8d82-f2a675894ac0"},"vehicle_type_id":"4","last_reported":1732471950,"current_range_meters":8800,"station_id":"ce4bha12rcd13ifvqee0","pricing_plan_id":"cebpf4jnsgd1na2vs0mg"},{"bike_id":"6097d543-3b59-4123-a341-ea6a41bbd308","system_id":"levelo_inurba_marseille","lat":43.29424,"lon":5.39747,"is_reserved":false,"is_disabled":true,"rental_uris":{"android":"levelo://app?vid=6097d543-3b59-4123-a341-ea6a41bbd308","ios":"levelo://app?vid=6097d543-3b59-4123-a341-ea6a41bbd308"},"vehicle_type_id":"4","last_reported":1732471950,"current_range_meters":1200,"station_id":"ce4bh3h2rcd13ifvqdo0","pricing_plan_id":"cebpf4jnsgd1na2vs0mg"},{"bike_id":"c44be2ca-d29c-4055-a595-144cb499e948","system_id":"levelo_inurba_marseille","lat":43.27206,"lon":5.39193,"is_reserved":false,"is_disabled":true,"rental_uris":{"android":"levelo://app?vid=c44be2ca-d29c-4055-a595-144cb499e948","ios":"levelo://app?vid=c44be2ca-d29c-4055-a595-144cb499e948"},"vehicle_type_id":"4","last_reported":1732471950,"current_range_meters":12800,"station_id":"ce4bhhp2rcd13ifvqfm0","pricing_plan_id":"cebpf4jnsgd1na2vs0mg"},{"bike_id":"0683c1a2-309a-4553-9826-fd4c27fcaab8","system_id":"levelo_inurba_marseille","lat":43.31487,"lon":5.37297,"is_reserved":false,"is_disabled":false,"rental_uris":{"android":"levelo://app?vid=0683c1a2-309a-4553-9826-fd4c27fcaab8","ios":"levelo://app?vid=0683c1a2-309a-4553-9826-fd4c27fcaab8"},"vehicle_type_id":"4","last_reported":1732471950,"current_range_meters":38800,"station_id":"ce4bgt12rcd13ifvqcd0","pricing_plan_id":"cebpf4jnsgd1na2vs0mg"},{"bike_id":"4614c3ce-fa32-4b49-800d-cf02516d6ab9","system_id":"levelo_inurba_marseille","lat":43.32381,"lon":5.3897,"is_reserved":false,"is_disabled":false,"rental_uris":{"android":"levelo://app?vid=4614c3ce-fa32-4b49-800d-cf02516d6ab9","ios":"levelo://app?vid=4614c3ce-fa32-4b49-800d-cf02516d6ab9"},"vehicle_type_id":"4","last_reported":1732471950,"current_range_meters":18800,"station_id":"","pricing_plan_id":"cebpf4jnsgd1na2vs0mg"},{"bike_id":"835b00c2-64c0-4cbe-82bb-c78dd70919e3","system_id":"levelo_inurba_marseille","lat":43.27968,"lon":5.40795,"is_reserved":false,"is_disabled":false,"rental_uris":{"android":"levelo://app?vid=835b00c2-64c0-4cbe-82bb-c78dd70919e3","ios":"levelo://app?vid=835b00c2-64c0-4cbe-82bb-c78dd70919e3"},"vehicle_type_id":"4","last_reported":1732471950,"current_range_meters":10000,"station_id":"","pricing_plan_id":"cebpf4jnsgd1na2vs0mg"},{"bike_id":"fd0e3340-543f-4c8a-8c34-222130852a29","system_id":"levelo_inurba_marseille","lat":43.27962,"lon":5.38734,"is_reserved":false,"is_disabled":true,"rental_uris":{"android":"levelo://app?vid=fd0e3340-543f-4c8a-8c34-222130852a29","ios":"levelo://app?vid=fd0e3340-543f-4c8a-8c34-222130852a29"},"vehicle_type_id":"4","last_reported":1732471950,"current_range_meters":15200,"station_id":"ce4bhg12rcd13ifvqf80","pricing_plan_id":"cebpf4jnsgd1na2vs0mg"},{"bike_id":"e662b885-15c0-4344-8409-692fa14b9dbc","system_id":"levelo_inurba_marseille","lat":43.27487,"lon":5.4245,"is_reserved":false,"is_disabled":false,"rental_uris":{"android":"levelo://app?vid=e662b885-15c0-4344-8409-692fa14b9dbc","ios":"levelo://app?vid=e662b885-15c0-4344-8409-692fa14b9dbc"},"vehicle_type_id":"4","last_reported":1732471950,"current_range_meters":39200,"station_id":"ce4bhn92rcd13ifvqgrg","pricing_plan_id":"cebpf4jnsgd1na2vs0mg"},{"bike_id":"3052f395-47f4-4f6b-af2e-a3967e74787a","system_id":"levelo_inurba_marseille","lat":43.31368,"lon":5.37109,"is_reserved":false,"is_disabled":false,"rental_uris":{"android":"levelo://app?vid=3052f395-47f4-4f6b-af2e-a3967e74787a","ios":"levelo://app?vid=3052f395-47f4-4f6b-af2e-a3967e74787a"},"vehicle_type_id":"4","last_reported":1732471950,"current_range_meters":27600,"station_id":"","pricing_plan_id":"cebpf4jnsgd1na2vs0mg"},{"bike_id":"5c8055e5-a368-4312-8157-243ebc733ac9","system_id":"levelo_inurba_marseille","lat":43.30613,"lon":5.39373,"is_reserved":false,"is_disabled":true,"rental_uris":{"android":"levelo://app?vid=5c8055e5-a368-4312-8157-243ebc733ac9","ios":"levelo://app?vid=5c8055e5-a368-4312-8157-243ebc733ac9"},"vehicle_type_id":"4","last_reported":1732471950,"current_range_meters":21600,"station_id":"ce4bh0p2rcd13ifvqd80","pricing_plan_id":"cebpf4jnsgd1na2vs0mg"},{"bike_id":"64b056fd-ebd1-4884-8ca1-120d81be7f94","system_id":"levelo_inurba_marseille","lat":43.30788,"lon":5.3765,"is_reserved":false,"is_disabled":false,"rental_uris":{"android":"levelo://app?vid=64b056fd-ebd1-4884-8ca1-120d81be7f94","ios":"levelo://app?vid=64b056fd-ebd1-4884-8ca1-120d81be7f94"},"vehicle_type_id":"4","last_reported":1732471950,"current_range_meters":38800,"station_id":"ce4bgv92rcd13ifvqcq0","pricing_plan_id":"cebpf4jnsgd1na2vs0mg"},{"bike_id":"a63f026b-964a-429c-9110-87bd719c2c3a","system_id":"levelo_inurba_marseille","lat":43.2929,"lon":5.37447,"is_reserved":false,"is_disabled":true,"rental_uris":{"android":"levelo://app?vid=a63f026b-964a-429c-9110-87bd719c2c3a","ios":"levelo://app?vid=a63f026b-964a-429c-9110-87bd719c2c3a"},"vehicle_type_id":"4","last_reported":1732471950,"current_range_meters":35200,"station_id":"ce4bgi12rcd13ifvqb70","pricing_plan_id":"cebpf4jnsgd1na2vs0mg"},{"bike_id":"600b3470-1dde-43ce-962b-7a6284b20990","system_id":"levelo_inurba_marseille","lat":43.2319,"lon":5.35553,"is_reserved":false,"is_disabled":true,"rental_uris":{"android":"levelo://app?vid=600b3470-1dde-43ce-962b-7a6284b20990","ios":"levelo://app?vid=600b3470-1dde-43ce-962b-7a6284b20990"},"vehicle_type_id":"4","last_reported":1732471950,"current_range_meters":25600,"station_id":"ce4bhu92rcd13ifvqi70","pricing_plan_id":"cebpf4jnsgd1na2vs0mg"},{"bike_id":"08117995-990e-4451-96a5-afc9c181642a","system_id":"levelo_inurba_marseille","lat":43.28611,"lon":5.35101,"is_reserved":false,"is_disabled":true,"rental_uris":{"android":"levelo://app?vid=08117995-990e-4451-96a5-afc9c181642a","ios":"levelo://app?vid=08117995-990e-4451-96a5-afc9c181642a"},"vehicle_type_id":"4","last_reported":1732471950,"current_range_meters":26800,"station_id":"ce4bhch2rcd13ifvqeug","pricing_plan_id":"cebpf4jnsgd1na2vs0mg"},{"bike_id":"2e4dcd85-8c14-4b37-8914-e8aafee7ebb6","system_id":"levelo_inurba_marseille","lat":43.28101,"lon":5.37836,"is_reserved":false,"is_disabled":false,"rental_uris":{"android":"levelo://app?vid=2e4dcd85-8c14-4b37-8914-e8aafee7ebb6","ios":"levelo://app?vid=2e4dcd85-8c14-4b37-8914-e8aafee7ebb6"},"vehicle_type_id":"4","last_reported":1732471950,"current_range_meters":32800,"station_id":"ce4bha12rcd13ifvqee0","pricing_plan_id":"cebpf4jnsgd1na2vs0mg"},{"bike_id":"cecac3c2-9f7e-4ec5-ab3a-ace6c0ee28df","system_id":"levelo_inurba_marseille","lat":43.29252,"lon":5.38445,"is_reserved":false,"is_disabled":false,"rental_uris":{"android":"levelo://app?vid=cecac3c2-9f7e-4ec5-ab3a-ace6c0ee28df","ios":"levelo://app?vid=cecac3c2-9f7e-4ec5-ab3a-ace6c0ee28df"},"vehicle_type_id":"4","last_reported":1732471950,"current_range_meters":38800,"station_id":"ce4bh692rcd13ifvqea0","pricing_plan_id":"cebpf4jnsgd1na2vs0mg"},{"bike_id":"4cf68192-498e-49a8-b866-19367c604fb3","system_id":"levelo_inurba_marseille","lat":43.29582,"lon":5.399966,"is_reserved":false,"is_disabled":true,"rental_uris":{"android":"levelo://app?vid=4cf68192-498e-49a8-b866-19367c604fb3","ios":"levelo://app?vid=4cf68192-498e-49a8-b866-19367c604fb3"},"vehicle_type_id":"4","last_reported":1732471950,"current_range_meters":34000,"station_id":"ce4bh312rcd13ifvqdj0","pricing_plan_id":"cebpf4jnsgd1na2vs0mg"},{"bike_id":"61148eb3-27a7-40ff-99ba-d69849ce10eb","system_id":"levelo_inurba_marseille","lat":43.24547,"lon":5.39524,"is_reserved":false,"is_disabled":false,"rental_uris":{"android":"levelo://app?vid=61148eb3-27a7-40ff-99ba-d69849ce10eb","ios":"levelo://app?vid=61148eb3-27a7-40ff-99ba-d69849ce10eb"},"vehicle_type_id":"4","last_reported":1732471950,"current_range_meters":38800,"station_id":"ce4bhlp2rcd13ifvqgjg","pricing_plan_id":"cebpf4jnsgd1na2vs0mg"},{"bike_id":"8ed8ec36-b5ef-4406-b128-8834df241f73","system_id":"levelo_inurba_marseille","lat":43.29261,"lon":5.38439,"is_reserved":false,"is_disabled":false,"rental_uris":{"android":"levelo://app?vid=8ed8ec36-b5ef-4406-b128-8834df241f73","ios":"levelo://app?vid=8ed8ec36-b5ef-4406-b128-8834df241f73"},"vehicle_type_id":"4","last_reported":1732471950,"current_range_meters":27600,"station_id":"ce4bh692rcd13ifvqea0","pricing_plan_id":"cebpf4jnsgd1na2vs0mg"},{"bike_id":"ca02d328-d839-4e70-af56-7457c1142138","system_id":"levelo_inurba_marseille","lat":43.29255,"lon":5.38445,"is_reserved":false,"is_disabled":false,"rental_uris":{"android":"levelo://app?vid=ca02d328-d839-4e70-af56-7457c1142138","ios":"levelo://app?vid=ca02d328-d839-4e70-af56-7457c1142138"},"vehicle_type_id":"4","last_reported":1732471950,"current_range_meters":11600,"station_id":"ce4bh692rcd13ifvqea0","pricing_plan_id":"cebpf4jnsgd1na2vs0mg"},{"bike_id":"c0e12142-bd57-42cd-b3f5-a384eec187e3","system_id":"levelo_inurba_marseille","lat":43.32046,"lon":5.41535,"is_reserved":false,"is_disabled":false,"rental_uris":{"android":"levelo://app?vid=c0e12142-bd57-42cd-b3f5-a384eec187e3","ios":"levelo://app?vid=c0e12142-bd57-42cd-b3f5-a384eec187e3"},"vehicle_type_id":"4","last_reported":1732471950,"current_range_meters":38000,"station_id":"ce4bhq92rcd13ifvqhkg","pricing_plan_id":"cebpf4jnsgd1na2vs0mg"},{"bike_id":"6ba8b0cb-d0b7-4eb6-841a-324ada20959f","system_id":"levelo_inurba_marseille","lat":43.24997,"lon":5.3893,"is_reserved":false,"is_disabled":false,"rental_uris":{"android":"levelo://app?vid=6ba8b0cb-d0b7-4eb6-841a-324ada20959f","ios":"levelo://app?vid=6ba8b0cb-d0b7-4eb6-841a-324ada20959f"},"vehicle_type_id":"4","last_reported":1732471950,"current_range_meters":14000,"station_id":"ce4bhgp2rcd13ifvqfd0","pricing_plan_id":"cebpf4jnsgd1na2vs0mg"},{"bike_id":"d45a47b2-ca48-400a-a0f2-e9257eea941d","system_id":"levelo_inurba_marseille","lat":43.29027,"lon":5.38637,"is_reserved":false,"is_disabled":false,"rental_uris":{"android":"levelo://app?vid=d45a47b2-ca48-400a-a0f2-e9257eea941d","ios":"levelo://app?vid=d45a47b2-ca48-400a-a0f2-e9257eea941d"},"vehicle_type_id":"4","last_reported":1732471950,"current_range_meters":39200,"station_id":"ce4bh4p2rcd13ifvqe0g","pricing_plan_id":"cebpf4jnsgd1na2vs0mg"},{"bike_id":"734ff0c4-f245-4197-8036-be5e222d76fd","system_id":"levelo_inurba_marseille","lat":43.28996,"lon":5.42589,"is_reserved":false,"is_disabled":true,"rental_uris":{"android":"levelo://app?vid=734ff0c4-f245-4197-8036-be5e222d76fd","ios":"levelo://app?vid=734ff0c4-f245-4197-8036-be5e222d76fd"},"vehicle_type_id":"4","last_reported":1732471950,"current_range_meters":0,"station_id":"","pricing_plan_id":"cebpf4jnsgd1na2vs0mg"},{"bike_id":"31e8cf73-3755-4d23-8e13-6fb3e4e82277","system_id":"levelo_inurba_marseille","lat":43.29779,"lon":5.38102,"is_reserved":false,"is_disabled":true,"rental_uris":{"android":"levelo://app?vid=31e8cf73-3755-4d23-8e13-6fb3e4e82277","ios":"levelo://app?vid=31e8cf73-3755-4d23-8e13-6fb3e4e82277"},"vehicle_type_id":"4","last_reported":1732471950,"current_range_meters":28000,"station_id":"ce4bgip2rcd13ifvqbb0","pricing_plan_id":"cebpf4jnsgd1na2vs0mg"},{"bike_id":"68bb9eac-db7e-46c7-8a80-a291905cfcd1","system_id":"levelo_inurba_marseille","lat":43.28929,"lon":5.36627,"is_reserved":false,"is_disabled":false,"rental_uris":{"android":"levelo://app?vid=68bb9eac-db7e-46c7-8a80-a291905cfcd1","ios":"levelo://app?vid=68bb9eac-db7e-46c7-8a80-a291905cfcd1"},"vehicle_type_id":"4","last_reported":1732471950,"current_range_meters":39200,"station_id":"ce4bhap2rcd13ifvqek0","pricing_plan_id":"cebpf4jnsgd1na2vs0mg"},{"bike_id":"dacdbb8c-36c3-4436-be99-eacdd17eabef","system_id":"levelo_inurba_marseille","lat":43.26793,"lon":5.39424,"is_reserved":false,"is_disabled":false,"rental_uris":{"android":"levelo://app?vid=dacdbb8c-36c3-4436-be99-eacdd17eabef","ios":"levelo://app?vid=dacdbb8c-36c3-4436-be99-eacdd17eabef"},"vehicle_type_id":"4","last_reported":1732471950,"current_range_meters":11600,"station_id":"ce4bhh12rcd13ifvqfg0","pricing_plan_id":"cebpf4jnsgd1na2vs0mg"},{"bike_id":"ea9b26bf-75b5-4b90-8c39-9b2d7140fa4c","system_id":"levelo_inurba_marseille","lat":43.27813,"lon":5.40713,"is_reserved":false,"is_disabled":true,"rental_uris":{"android":"levelo://app?vid=ea9b26bf-75b5-4b90-8c39-9b2d7140fa4c","ios":"levelo://app?vid=ea9b26bf-75b5-4b90-8c39-9b2d7140fa4c"},"vehicle_type_id":"4","last_reported":1732471950,"current_range_meters":800,"station_id":"ce4bhnh2rcd13ifvqgtg","pricing_plan_id":"cebpf4jnsgd1na2vs0mg"},{"bike_id":"07b44118-2689-4ebf-a436-8546a552c939","system_id":"levelo_inurba_marseille","lat":43.28987,"lon":5.36782,"is_reserved":false,"is_disabled":true,"rental_uris":{"android":"levelo://app?vid=07b44118-2689-4ebf-a436-8546a552c939","ios":"levelo://app?vid=07b44118-2689-4ebf-a436-8546a552c939"},"vehicle_type_id":"4","last_reported":1732471950,"current_range_meters":2000,"station_id":"ce4bhap2rcd13ifvqek0","pricing_plan_id":"cebpf4jnsgd1na2vs0mg"},{"bike_id":"294eeb79-af1b-495a-909f-216801ae6b41","system_id":"levelo_inurba_marseille","lat":43.337444,"lon":5.374475,"is_reserved":false,"is_disabled":true,"rental_uris":{"android":"levelo://app?vid=294eeb79-af1b-495a-909f-216801ae6b41","ios":"levelo://app?vid=294eeb79-af1b-495a-909f-216801ae6b41"},"vehicle_type_id":"4","last_reported":1732471950,"current_range_meters":0,"station_id":"","pricing_plan_id":"cebpf4jnsgd1na2vs0mg"},{"bike_id":"03b58117-a07e-491f-a227-0cb86c4b44b0","system_id":"levelo_inurba_marseille","lat":43.29798,"lon":5.40403,"is_reserved":false,"is_disabled":false,"rental_uris":{"android":"levelo://app?vid=03b58117-a07e-491f-a227-0cb86c4b44b0","ios":"levelo://app?vid=03b58117-a07e-491f-a227-0cb86c4b44b0"},"vehicle_type_id":"4","last_reported":1732471950,"current_range_meters":3200,"station_id":"ce4bh112rcd13ifvqd90","pricing_plan_id":"cebpf4jnsgd1na2vs0mg"},{"bike_id":"40800856-a54b-429b-b0f8-c44b579dcaba","system_id":"levelo_inurba_marseille","lat":43.23965,"lon":5.36628,"is_reserved":false,"is_disabled":false,"rental_uris":{"android":"levelo://app?vid=40800856-a54b-429b-b0f8-c44b579dcaba","ios":"levelo://app?vid=40800856-a54b-429b-b0f8-c44b579dcaba"},"vehicle_type_id":"4","last_reported":1732471950,"current_range_meters":34000,"station_id":"ce4bhi12rcd13ifvqfp0","pricing_plan_id":"cebpf4jnsgd1na2vs0mg"},{"bike_id":"c0299046-c95c-4bcd-bc32-eb6d185f1ea9","system_id":"levelo_inurba_marseille","lat":43.29568,"lon":5.37501,"is_reserved":false,"is_disabled":true,"rental_uris":{"android":"levelo://app?vid=c0299046-c95c-4bcd-bc32-eb6d185f1ea9","ios":"levelo://app?vid=c0299046-c95c-4bcd-bc32-eb6d185f1ea9"},"vehicle_type_id":"4","last_reported":1732471950,"current_range_meters":37600,"station_id":"ce4bgh92rcd13ifvqb50","pricing_plan_id":"cebpf4jnsgd1na2vs0mg"},{"bike_id":"13d3a56b-18f6-4ef3-b963-de5f98b56151","system_id":"levelo_inurba_marseille","lat":43.27072,"lon":5.42279,"is_reserved":false,"is_disabled":false,"rental_uris":{"android":"levelo://app?vid=13d3a56b-18f6-4ef3-b963-de5f98b56151","ios":"levelo://app?vid=13d3a56b-18f6-4ef3-b963-de5f98b56151"},"vehicle_type_id":"4","last_reported":1732471950,"current_range_meters":26800,"station_id":"ce4bhk92rcd13ifvqgb0","pricing_plan_id":"cebpf4jnsgd1na2vs0mg"},{"bike_id":"13d6e289-8f28-4c19-b777-fa6cc6fed671","system_id":"levelo_inurba_marseille","lat":43.27955,"lon":5.38711,"is_reserved":false,"is_disabled":false,"rental_uris":{"android":"levelo://app?vid=13d6e289-8f28-4c19-b777-fa6cc6fed671","ios":"levelo://app?vid=13d6e289-8f28-4c19-b777-fa6cc6fed671"},"vehicle_type_id":"4","last_reported":1732471950,"current_range_meters":38400,"station_id":"ce4bhg12rcd13ifvqf80","pricing_plan_id":"cebpf4jnsgd1na2vs0mg"},{"bike_id":"0f59b736-62d2-4a1e-b06d-6534aa83062c","system_id":"levelo_inurba_marseille","lat":43.25001,"lon":5.38932,"is_reserved":false,"is_disabled":false,"rental_uris":{"android":"levelo://app?vid=0f59b736-62d2-4a1e-b06d-6534aa83062c","ios":"levelo://app?vid=0f59b736-62d2-4a1e-b06d-6534aa83062c"},"vehicle_type_id":"4","last_reported":1732471950,"current_range_meters":38800,"station_id":"ce4bhgp2rcd13ifvqfd0","pricing_plan_id":"cebpf4jnsgd1na2vs0mg"},{"bike_id":"777b7fed-d395-4c97-b504-dee7c3479d4f","system_id":"levelo_inurba_marseille","lat":43.29836,"lon":5.3785,"is_reserved":false,"is_disabled":true,"rental_uris":{"android":"levelo://app?vid=777b7fed-d395-4c97-b504-dee7c3479d4f","ios":"levelo://app?vid=777b7fed-d395-4c97-b504-dee7c3479d4f"},"vehicle_type_id":"4","last_reported":1732471950,"current_range_meters":0,"station_id":"","pricing_plan_id":"cebpf4jnsgd1na2vs0mg"},{"bike_id":"cd78312a-142a-42d0-92e1-dbc654bf8bb4","system_id":"levelo_inurba_marseille","lat":43.24181,"lon":5.39723,"is_reserved":false,"is_disabled":true,"rental_uris":{"android":"levelo://app?vid=cd78312a-142a-42d0-92e1-dbc654bf8bb4","ios":"levelo://app?vid=cd78312a-142a-42d0-92e1-dbc654bf8bb4"},"vehicle_type_id":"4","last_reported":1732471950,"current_range_meters":8400,"station_id":"ce4bhn12rcd13ifvqgpg","pricing_plan_id":"cebpf4jnsgd1na2vs0mg"},{"bike_id":"a9f21b49-1588-47f4-88b2-16090cf0bd4e","system_id":"levelo_inurba_marseille","lat":43.29522,"lon":5.38534,"is_reserved":false,"is_disabled":false,"rental_uris":{"android":"levelo://app?vid=a9f21b49-1588-47f4-88b2-16090cf0bd4e","ios":"levelo://app?vid=a9f21b49-1588-47f4-88b2-16090cf0bd4e"},"vehicle_type_id":"4","last_reported":1732471950,"current_range_meters":39200,"station_id":"ce4bgih2rcd13ifvqba0","pricing_plan_id":"cebpf4jnsgd1na2vs0mg"},{"bike_id":"2b930fbc-d1c5-4e6e-b771-26da81254d66","system_id":"levelo_inurba_marseille","lat":43.27813,"lon":5.40713,"is_reserved":false,"is_disabled":false,"rental_uris":{"android":"levelo://app?vid=2b930fbc-d1c5-4e6e-b771-26da81254d66","ios":"levelo://app?vid=2b930fbc-d1c5-4e6e-b771-26da81254d66"},"vehicle_type_id":"4","last_reported":1732471950,"current_range_meters":8000,"station_id":"ce4bhnh2rcd13ifvqgtg","pricing_plan_id":"cebpf4jnsgd1na2vs0mg"},{"bike_id":"0528efc5-9302-43d3-9cdb-b967c09c58e8","system_id":"levelo_inurba_marseille","lat":43.2781,"lon":5.40709,"is_reserved":false,"is_disabled":false,"rental_uris":{"android":"levelo://app?vid=0528efc5-9302-43d3-9cdb-b967c09c58e8","ios":"levelo://app?vid=0528efc5-9302-43d3-9cdb-b967c09c58e8"},"vehicle_type_id":"4","last_reported":1732471950,"current_range_meters":27200,"station_id":"ce4bhnh2rcd13ifvqgtg","pricing_plan_id":"cebpf4jnsgd1na2vs0mg"},{"bike_id":"43f6da94-5cf1-446e-9b8d-b4c4e86bf027","system_id":"levelo_inurba_marseille","lat":43.26191,"lon":5.37454,"is_reserved":false,"is_disabled":true,"rental_uris":{"android":"levelo://app?vid=43f6da94-5cf1-446e-9b8d-b4c4e86bf027","ios":"levelo://app?vid=43f6da94-5cf1-446e-9b8d-b4c4e86bf027"},"vehicle_type_id":"4","last_reported":1732471950,"current_range_meters":6800,"station_id":"ce4bhgp2rcd13ifvqfc0","pricing_plan_id":"cebpf4jnsgd1na2vs0mg"},{"bike_id":"dd5ab154-647e-4dfa-88f1-0f781c7552f5","system_id":"levelo_inurba_marseille","lat":43.25581,"lon":5.38245,"is_reserved":false,"is_disabled":false,"rental_uris":{"android":"levelo://app?vid=dd5ab154-647e-4dfa-88f1-0f781c7552f5","ios":"levelo://app?vid=dd5ab154-647e-4dfa-88f1-0f781c7552f5"},"vehicle_type_id":"4","last_reported":1732471950,"current_range_meters":24800,"station_id":"ce4bhih2rcd13ifvqfs0","pricing_plan_id":"cebpf4jnsgd1na2vs0mg"},{"bike_id":"3050ffba-ca6d-48eb-b786-8601165c43dd","system_id":"levelo_inurba_marseille","lat":43.26952,"lon":5.38643,"is_reserved":false,"is_disabled":false,"rental_uris":{"android":"levelo://app?vid=3050ffba-ca6d-48eb-b786-8601165c43dd","ios":"levelo://app?vid=3050ffba-ca6d-48eb-b786-8601165c43dd"},"vehicle_type_id":"4","last_reported":1732471950,"current_range_meters":28400,"station_id":"ce4bhh92rcd13ifvqfh0","pricing_plan_id":"cebpf4jnsgd1na2vs0mg"},{"bike_id":"994195f6-b5da-4158-a5b5-8b38baad32b0","system_id":"levelo_inurba_marseille","lat":43.33729,"lon":5.39191,"is_reserved":false,"is_disabled":false,"rental_uris":{"android":"levelo://app?vid=994195f6-b5da-4158-a5b5-8b38baad32b0","ios":"levelo://app?vid=994195f6-b5da-4158-a5b5-8b38baad32b0"},"vehicle_type_id":"4","last_reported":1732471950,"current_range_meters":27200,"station_id":"ce4bhr92rcd13ifvqhsg","pricing_plan_id":"cebpf4jnsgd1na2vs0mg"},{"bike_id":"7c2f19f3-5373-4c2a-87bb-e1fd3ef39822","system_id":"levelo_inurba_marseille","lat":43.26558,"lon":5.39012,"is_reserved":false,"is_disabled":true,"rental_uris":{"android":"levelo://app?vid=7c2f19f3-5373-4c2a-87bb-e1fd3ef39822","ios":"levelo://app?vid=7c2f19f3-5373-4c2a-87bb-e1fd3ef39822"},"vehicle_type_id":"4","last_reported":1732471950,"current_range_meters":18000,"station_id":"ce4bhe12rcd13ifvqf30","pricing_plan_id":"cebpf4jnsgd1na2vs0mg"},{"bike_id":"36ef9a42-f4d8-45f5-adc2-b51fb9b962d0","system_id":"levelo_inurba_marseille","lat":43.34145,"lon":5.40903,"is_reserved":false,"is_disabled":false,"rental_uris":{"android":"levelo://app?vid=36ef9a42-f4d8-45f5-adc2-b51fb9b962d0","ios":"levelo://app?vid=36ef9a42-f4d8-45f5-adc2-b51fb9b962d0"},"vehicle_type_id":"4","last_reported":1732471950,"current_range_meters":39200,"station_id":"ce4bhqh2rcd13ifvqhlg","pricing_plan_id":"cebpf4jnsgd1na2vs0mg"},{"bike_id":"24fc129a-3a98-4f25-9554-234fc3a2dc8d","system_id":"levelo_inurba_marseille","lat":43.30418,"lon":5.41284,"is_reserved":false,"is_disabled":true,"rental_uris":{"android":"levelo://app?vid=24fc129a-3a98-4f25-9554-234fc3a2dc8d","ios":"levelo://app?vid=24fc129a-3a98-4f25-9554-234fc3a2dc8d"},"vehicle_type_id":"4","last_reported":1732471950,"current_range_meters":28400,"station_id":"ce4bhop2rcd13ifvqh8g","pricing_plan_id":"cebpf4jnsgd1na2vs0mg"},{"bike_id":"a3202fc1-85cb-42ee-bead-37756f81ff0f","system_id":"levelo_inurba_marseille","lat":43.30562,"lon":5.38366,"is_reserved":false,"is_disabled":true,"rental_uris":{"android":"levelo://app?vid=a3202fc1-85cb-42ee-bead-37756f81ff0f","ios":"levelo://app?vid=a3202fc1-85cb-42ee-bead-37756f81ff0f"},"vehicle_type_id":"4","last_reported":1732471950,"current_range_meters":24000,"station_id":"ce4bgg92rcd13ifvqb30","pricing_plan_id":"cebpf4jnsgd1na2vs0mg"},{"bike_id":"49f79cac-ca79-4c42-bf21-48e3ea6f7c50","system_id":"levelo_inurba_marseille","lat":43.29084,"lon":5.3815,"is_reserved":false,"is_disabled":false,"rental_uris":{"android":"levelo://app?vid=49f79cac-ca79-4c42-bf21-48e3ea6f7c50","ios":"levelo://app?vid=49f79cac-ca79-4c42-bf21-48e3ea6f7c50"},"vehicle_type_id":"4","last_reported":1732471950,"current_range_meters":38800,"station_id":"ce4bh512rcd13ifvqe2g","pricing_plan_id":"cebpf4jnsgd1na2vs0mg"},{"bike_id":"b9b987ad-5f4f-4526-9191-24ecd7b02b3d","system_id":"levelo_inurba_marseille","lat":43.28336,"lon":5.38093,"is_reserved":false,"is_disabled":false,"rental_uris":{"android":"levelo://app?vid=b9b987ad-5f4f-4526-9191-24ecd7b02b3d","ios":"levelo://app?vid=b9b987ad-5f4f-4526-9191-24ecd7b02b3d"},"vehicle_type_id":"4","last_reported":1732471950,"current_range_meters":24000,"station_id":"ce4bh412rcd13ifvqdr0","pricing_plan_id":"cebpf4jnsgd1na2vs0mg"},{"bike_id":"5d9127b2-409a-4e00-b212-9b69c1248067","system_id":"levelo_inurba_marseille","lat":43.26202,"lon":5.37917,"is_reserved":false,"is_disabled":false,"rental_uris":{"android":"levelo://app?vid=5d9127b2-409a-4e00-b212-9b69c1248067","ios":"levelo://app?vid=5d9127b2-409a-4e00-b212-9b69c1248067"},"vehicle_type_id":"4","last_reported":1732471950,"current_range_meters":11600,"station_id":"ce4bhjp2rcd13ifvqg90","pricing_plan_id":"cebpf4jnsgd1na2vs0mg"},{"bike_id":"76aeaff2-0b27-4305-a556-7151360fabbc","system_id":"levelo_inurba_marseille","lat":43.29004,"lon":5.35602,"is_reserved":false,"is_disabled":false,"rental_uris":{"android":"levelo://app?vid=76aeaff2-0b27-4305-a556-7151360fabbc","ios":"levelo://app?vid=76aeaff2-0b27-4305-a556-7151360fabbc"},"vehicle_type_id":"4","last_reported":1732471950,"current_range_meters":16000,"station_id":"ce4bhb92rcd13ifvqen0","pricing_plan_id":"cebpf4jnsgd1na2vs0mg"},{"bike_id":"a60093c4-ea3a-451e-bdb1-b6bfad6860c4","system_id":"levelo_inurba_marseille","lat":43.29262,"lon":5.38439,"is_reserved":false,"is_disabled":false,"rental_uris":{"android":"levelo://app?vid=a60093c4-ea3a-451e-bdb1-b6bfad6860c4","ios":"levelo://app?vid=a60093c4-ea3a-451e-bdb1-b6bfad6860c4"},"vehicle_type_id":"4","last_reported":1732471950,"current_range_meters":38800,"station_id":"ce4bh692rcd13ifvqea0","pricing_plan_id":"cebpf4jnsgd1na2vs0mg"},{"bike_id":"28d59ff9-3594-47bc-8f14-ae01b6935378","system_id":"levelo_inurba_marseille","lat":43.28701,"lon":5.37384,"is_reserved":false,"is_disabled":false,"rental_uris":{"android":"levelo://app?vid=28d59ff9-3594-47bc-8f14-ae01b6935378","ios":"levelo://app?vid=28d59ff9-3594-47bc-8f14-ae01b6935378"},"vehicle_type_id":"4","last_reported":1732471950,"current_range_meters":13600,"station_id":"ce4bh3p2rcd13ifvqdq0","pricing_plan_id":"cebpf4jnsgd1na2vs0mg"},{"bike_id":"f8b957eb-ac36-4e56-96cf-7474e1d53753","system_id":"levelo_inurba_marseille","lat":43.2466,"lon":5.38166,"is_reserved":false,"is_disabled":false,"rental_uris":{"android":"levelo://app?vid=f8b957eb-ac36-4e56-96cf-7474e1d53753","ios":"levelo://app?vid=f8b957eb-ac36-4e56-96cf-7474e1d53753"},"vehicle_type_id":"4","last_reported":1732471950,"current_range_meters":15200,"station_id":"ce4bhih2rcd13ifvqfr0","pricing_plan_id":"cebpf4jnsgd1na2vs0mg"},{"bike_id":"59d3eeea-dcb0-4059-b148-4872add55462","system_id":"levelo_inurba_marseille","lat":43.30499,"lon":5.38388,"is_reserved":false,"is_disabled":false,"rental_uris":{"android":"levelo://app?vid=59d3eeea-dcb0-4059-b148-4872add55462","ios":"levelo://app?vid=59d3eeea-dcb0-4059-b148-4872add55462"},"vehicle_type_id":"4","last_reported":1732471950,"current_range_meters":6800,"station_id":"ce4bgg92rcd13ifvqb30","pricing_plan_id":"cebpf4jnsgd1na2vs0mg"},{"bike_id":"faddc5bf-9308-4490-a929-f5be12fd1597","system_id":"levelo_inurba_marseille","lat":43.25582,"lon":5.38239,"is_reserved":false,"is_disabled":false,"rental_uris":{"android":"levelo://app?vid=faddc5bf-9308-4490-a929-f5be12fd1597","ios":"levelo://app?vid=faddc5bf-9308-4490-a929-f5be12fd1597"},"vehicle_type_id":"4","last_reported":1732471950,"current_range_meters":18000,"station_id":"ce4bhih2rcd13ifvqfs0","pricing_plan_id":"cebpf4jnsgd1na2vs0mg"},{"bike_id":"1126b6d5-59b7-4947-b8bf-d10f71d908b9","system_id":"levelo_inurba_marseille","lat":43.303202,"lon":5.401169,"is_reserved":false,"is_disabled":false,"rental_uris":{"android":"levelo://app?vid=1126b6d5-59b7-4947-b8bf-d10f71d908b9","ios":"levelo://app?vid=1126b6d5-59b7-4947-b8bf-d10f71d908b9"},"vehicle_type_id":"4","last_reported":1732471950,"current_range_meters":13600,"station_id":"ce4bh2p2rcd13ifvqdi0","pricing_plan_id":"cebpf4jnsgd1na2vs0mg"},{"bike_id":"36296f5c-0176-4be0-97c8-7930cda9c369","system_id":"levelo_inurba_marseille","lat":43.32107,"lon":5.36773,"is_reserved":false,"is_disabled":false,"rental_uris":{"android":"levelo://app?vid=36296f5c-0176-4be0-97c8-7930cda9c369","ios":"levelo://app?vid=36296f5c-0176-4be0-97c8-7930cda9c369"},"vehicle_type_id":"4","last_reported":1732471950,"current_range_meters":30000,"station_id":"ce4bhrh2rcd13ifvqhug","pricing_plan_id":"cebpf4jnsgd1na2vs0mg"},{"bike_id":"6831c6e1-59c9-4a64-9896-cb47e2d0cd2f","system_id":"levelo_inurba_marseille","lat":43.26787,"lon":5.39409,"is_reserved":false,"is_disabled":false,"rental_uris":{"android":"levelo://app?vid=6831c6e1-59c9-4a64-9896-cb47e2d0cd2f","ios":"levelo://app?vid=6831c6e1-59c9-4a64-9896-cb47e2d0cd2f"},"vehicle_type_id":"4","last_reported":1732471950,"current_range_meters":8800,"station_id":"ce4bhh12rcd13ifvqfg0","pricing_plan_id":"cebpf4jnsgd1na2vs0mg"},{"bike_id":"3749f547-26de-49f3-8704-9a5a504b68f5","system_id":"levelo_inurba_marseille","lat":43.25579,"lon":5.38236,"is_reserved":false,"is_disabled":false,"rental_uris":{"android":"levelo://app?vid=3749f547-26de-49f3-8704-9a5a504b68f5","ios":"levelo://app?vid=3749f547-26de-49f3-8704-9a5a504b68f5"},"vehicle_type_id":"4","last_reported":1732471950,"current_range_meters":34800,"station_id":"ce4bhih2rcd13ifvqfs0","pricing_plan_id":"cebpf4jnsgd1na2vs0mg"},{"bike_id":"d2a52b58-fabe-4a57-94ba-464e41b85800","system_id":"levelo_inurba_marseille","lat":43.30091,"lon":5.37414,"is_reserved":false,"is_disabled":true,"rental_uris":{"android":"levelo://app?vid=d2a52b58-fabe-4a57-94ba-464e41b85800","ios":"levelo://app?vid=d2a52b58-fabe-4a57-94ba-464e41b85800"},"vehicle_type_id":"4","last_reported":1732471950,"current_range_meters":24800,"station_id":"","pricing_plan_id":"cebpf4jnsgd1na2vs0mg"},{"bike_id":"2c7b52f3-21ef-4c25-bda8-89360016bfcc","system_id":"levelo_inurba_marseille","lat":43.26951,"lon":5.3864,"is_reserved":false,"is_disabled":false,"rental_uris":{"android":"levelo://app?vid=2c7b52f3-21ef-4c25-bda8-89360016bfcc","ios":"levelo://app?vid=2c7b52f3-21ef-4c25-bda8-89360016bfcc"},"vehicle_type_id":"4","last_reported":1732471950,"current_range_meters":36800,"station_id":"ce4bhh92rcd13ifvqfh0","pricing_plan_id":"cebpf4jnsgd1na2vs0mg"},{"bike_id":"50b19cb2-c4bd-4d3e-9fe4-22e30fc6851b","system_id":"levelo_inurba_marseille","lat":43.31537,"lon":5.3803,"is_reserved":false,"is_disabled":true,"rental_uris":{"android":"levelo://app?vid=50b19cb2-c4bd-4d3e-9fe4-22e30fc6851b","ios":"levelo://app?vid=50b19cb2-c4bd-4d3e-9fe4-22e30fc6851b"},"vehicle_type_id":"4","last_reported":1732471950,"current_range_meters":36000,"station_id":"ce4bhsp2rcd13ifvqi50","pricing_plan_id":"cebpf4jnsgd1na2vs0mg"},{"bike_id":"610ce38b-9a7e-4bb0-aafc-e750a9ee8d6d","system_id":"levelo_inurba_marseille","lat":43.29419,"lon":5.3862,"is_reserved":false,"is_disabled":false,"rental_uris":{"android":"levelo://app?vid=610ce38b-9a7e-4bb0-aafc-e750a9ee8d6d","ios":"levelo://app?vid=610ce38b-9a7e-4bb0-aafc-e750a9ee8d6d"},"vehicle_type_id":"4","last_reported":1732471950,"current_range_meters":39200,"station_id":"ce4bh2h2rcd13ifvqdh0","pricing_plan_id":"cebpf4jnsgd1na2vs0mg"},{"bike_id":"0d20fc4b-a422-4dbd-aa45-a0b15f77d16d","system_id":"levelo_inurba_marseille","lat":43.29582,"lon":5.37502,"is_reserved":false,"is_disabled":false,"rental_uris":{"android":"levelo://app?vid=0d20fc4b-a422-4dbd-aa45-a0b15f77d16d","ios":"levelo://app?vid=0d20fc4b-a422-4dbd-aa45-a0b15f77d16d"},"vehicle_type_id":"4","last_reported":1732471950,"current_range_meters":16000,"station_id":"ce4bgh92rcd13ifvqb50","pricing_plan_id":"cebpf4jnsgd1na2vs0mg"},{"bike_id":"7e438134-db2f-4a93-8937-41f719af6d2c","system_id":"levelo_inurba_marseille","lat":43.26681,"lon":5.3827,"is_reserved":false,"is_disabled":false,"rental_uris":{"android":"levelo://app?vid=7e438134-db2f-4a93-8937-41f719af6d2c","ios":"levelo://app?vid=7e438134-db2f-4a93-8937-41f719af6d2c"},"vehicle_type_id":"4","last_reported":1732471950,"current_range_meters":38800,"station_id":"ce4bhg92rcd13ifvqf90","pricing_plan_id":"cebpf4jnsgd1na2vs0mg"},{"bike_id":"a3bbfbc0-1c5c-4437-9a5f-15f39af39c82","system_id":"levelo_inurba_marseille","lat":43.24663,"lon":5.38161,"is_reserved":false,"is_disabled":true,"rental_uris":{"android":"levelo://app?vid=a3bbfbc0-1c5c-4437-9a5f-15f39af39c82","ios":"levelo://app?vid=a3bbfbc0-1c5c-4437-9a5f-15f39af39c82"},"vehicle_type_id":"4","last_reported":1732471950,"current_range_meters":1200,"station_id":"ce4bhih2rcd13ifvqfr0","pricing_plan_id":"cebpf4jnsgd1na2vs0mg"},{"bike_id":"a7895596-3c28-4f96-ac9f-4b103e564673","system_id":"levelo_inurba_marseille","lat":43.27051,"lon":5.40262,"is_reserved":false,"is_disabled":true,"rental_uris":{"android":"levelo://app?vid=a7895596-3c28-4f96-ac9f-4b103e564673","ios":"levelo://app?vid=a7895596-3c28-4f96-ac9f-4b103e564673"},"vehicle_type_id":"4","last_reported":1732471950,"current_range_meters":0,"station_id":"ce4bhk92rcd13ifvqgc0","pricing_plan_id":"cebpf4jnsgd1na2vs0mg"},{"bike_id":"66d70828-b14f-4541-8984-1f382e380cdf","system_id":"levelo_inurba_marseille","lat":43.27321,"lon":5.39091,"is_reserved":false,"is_disabled":true,"rental_uris":{"android":"levelo://app?vid=66d70828-b14f-4541-8984-1f382e380cdf","ios":"levelo://app?vid=66d70828-b14f-4541-8984-1f382e380cdf"},"vehicle_type_id":"4","last_reported":1732471950,"current_range_meters":38800,"station_id":"ce4bhgp2rcd13ifvqfe0","pricing_plan_id":"cebpf4jnsgd1na2vs0mg"},{"bike_id":"dd3b09fe-b71a-401a-b299-a88383f47f1c","system_id":"levelo_inurba_marseille","lat":43.337444,"lon":5.374475,"is_reserved":false,"is_disabled":false,"rental_uris":{"android":"levelo://app?vid=dd3b09fe-b71a-401a-b299-a88383f47f1c","ios":"levelo://app?vid=dd3b09fe-b71a-401a-b299-a88383f47f1c"},"vehicle_type_id":"4","last_reported":1732471950,"current_range_meters":30000,"station_id":"","pricing_plan_id":"cebpf4jnsgd1na2vs0mg"},{"bike_id":"b0f390fe-f074-44e1-82a8-52d6615e9359","system_id":"levelo_inurba_marseille","lat":43.22908,"lon":5.35365,"is_reserved":false,"is_disabled":false,"rental_uris":{"android":"levelo://app?vid=b0f390fe-f074-44e1-82a8-52d6615e9359","ios":"levelo://app?vid=b0f390fe-f074-44e1-82a8-52d6615e9359"},"vehicle_type_id":"4","last_reported":1732471950,"current_range_meters":38400,"station_id":"cpo3532slgdg3j2ikp40","pricing_plan_id":"cebpf4jnsgd1na2vs0mg"},{"bike_id":"de5a9aa8-c532-4c45-a448-0a340119b30f","system_id":"levelo_inurba_marseille","lat":43.31755,"lon":5.39008,"is_reserved":false,"is_disabled":false,"rental_uris":{"android":"levelo://app?vid=de5a9aa8-c532-4c45-a448-0a340119b30f","ios":"levelo://app?vid=de5a9aa8-c532-4c45-a448-0a340119b30f"},"vehicle_type_id":"4","last_reported":1732471950,"current_range_meters":22000,"station_id":"ce4bhqp2rcd13ifvqhng","pricing_plan_id":"cebpf4jnsgd1na2vs0mg"},{"bike_id":"47c41cf3-e016-44ed-af78-c2174f07c59f","system_id":"levelo_inurba_marseille","lat":43.29022,"lon":5.38621,"is_reserved":false,"is_disabled":true,"rental_uris":{"android":"levelo://app?vid=47c41cf3-e016-44ed-af78-c2174f07c59f","ios":"levelo://app?vid=47c41cf3-e016-44ed-af78-c2174f07c59f"},"vehicle_type_id":"4","last_reported":1732471950,"current_range_meters":3600,"station_id":"ce4bh4p2rcd13ifvqe0g","pricing_plan_id":"cebpf4jnsgd1na2vs0mg"},{"bike_id":"e383b112-1410-4264-b94a-176e15562c56","system_id":"levelo_inurba_marseille","lat":43.2909,"lon":5.38135,"is_reserved":false,"is_disabled":false,"rental_uris":{"android":"levelo://app?vid=e383b112-1410-4264-b94a-176e15562c56","ios":"levelo://app?vid=e383b112-1410-4264-b94a-176e15562c56"},"vehicle_type_id":"4","last_reported":1732471950,"current_range_meters":38400,"station_id":"ce4bh512rcd13ifvqe2g","pricing_plan_id":"cebpf4jnsgd1na2vs0mg"},{"bike_id":"d0a80896-8636-4792-9af3-24219cd67423","system_id":"levelo_inurba_marseille","lat":43.27178,"lon":5.40993,"is_reserved":false,"is_disabled":false,"rental_uris":{"android":"levelo://app?vid=d0a80896-8636-4792-9af3-24219cd67423","ios":"levelo://app?vid=d0a80896-8636-4792-9af3-24219cd67423"},"vehicle_type_id":"4","last_reported":1732471950,"current_range_meters":17200,"station_id":"ce4bhl12rcd13ifvqgf0","pricing_plan_id":"cebpf4jnsgd1na2vs0mg"},{"bike_id":"161e38bf-a19b-40d2-b01b-7f9b6509f997","system_id":"levelo_inurba_marseille","lat":43.29874,"lon":5.38156,"is_reserved":false,"is_disabled":false,"rental_uris":{"android":"levelo://app?vid=161e38bf-a19b-40d2-b01b-7f9b6509f997","ios":"levelo://app?vid=161e38bf-a19b-40d2-b01b-7f9b6509f997"},"vehicle_type_id":"4","last_reported":1732471950,"current_range_meters":28000,"station_id":"ce4bgj12rcd13ifvqbc0","pricing_plan_id":"cebpf4jnsgd1na2vs0mg"},{"bike_id":"49aa43a0-18c2-4d1a-af22-9c62b48c9a8b","system_id":"levelo_inurba_marseille","lat":43.28844,"lon":5.39315,"is_reserved":false,"is_disabled":false,"rental_uris":{"android":"levelo://app?vid=49aa43a0-18c2-4d1a-af22-9c62b48c9a8b","ios":"levelo://app?vid=49aa43a0-18c2-4d1a-af22-9c62b48c9a8b"},"vehicle_type_id":"4","last_reported":1732471950,"current_range_meters":18800,"station_id":"ce4bh2p2rcd13ifvqdi0","pricing_plan_id":"cebpf4jnsgd1na2vs0mg"},{"bike_id":"3f99f7d8-5bd5-4774-975d-6b45717f58a3","system_id":"levelo_inurba_marseille","lat":43.3032,"lon":5.40428,"is_reserved":false,"is_disabled":true,"rental_uris":{"android":"levelo://app?vid=3f99f7d8-5bd5-4774-975d-6b45717f58a3","ios":"levelo://app?vid=3f99f7d8-5bd5-4774-975d-6b45717f58a3"},"vehicle_type_id":"4","last_reported":1732471950,"current_range_meters":400,"station_id":"ce4bh012rcd13ifvqd10","pricing_plan_id":"cebpf4jnsgd1na2vs0mg"},{"bike_id":"17ba6615-9f08-440e-93e9-f8f4f3600fcd","system_id":"levelo_inurba_marseille","lat":43.30535,"lon":5.36532,"is_reserved":false,"is_disabled":true,"rental_uris":{"android":"levelo://app?vid=17ba6615-9f08-440e-93e9-f8f4f3600fcd","ios":"levelo://app?vid=17ba6615-9f08-440e-93e9-f8f4f3600fcd"},"vehicle_type_id":"4","last_reported":1732471950,"current_range_meters":0,"station_id":"ce4bgs12rcd13ifvqcag","pricing_plan_id":"cebpf4jnsgd1na2vs0mg"},{"bike_id":"cbc2167d-639d-4b33-b914-3ad6f36f2868","system_id":"levelo_inurba_marseille","lat":43.22926,"lon":5.35376,"is_reserved":false,"is_disabled":false,"rental_uris":{"android":"levelo://app?vid=cbc2167d-639d-4b33-b914-3ad6f36f2868","ios":"levelo://app?vid=cbc2167d-639d-4b33-b914-3ad6f36f2868"},"vehicle_type_id":"4","last_reported":1732471950,"current_range_meters":35200,"station_id":"cpo3532slgdg3j2ikp40","pricing_plan_id":"cebpf4jnsgd1na2vs0mg"},{"bike_id":"3b76b434-c07f-48ef-bce6-5339bda9953e","system_id":"levelo_inurba_marseille","lat":43.28445,"lon":5.39183,"is_reserved":false,"is_disabled":false,"rental_uris":{"android":"levelo://app?vid=3b76b434-c07f-48ef-bce6-5339bda9953e","ios":"levelo://app?vid=3b76b434-c07f-48ef-bce6-5339bda9953e"},"vehicle_type_id":"4","last_reported":1732471950,"current_range_meters":38000,"station_id":"ce4bhoh2rcd13ifvqh5g","pricing_plan_id":"cebpf4jnsgd1na2vs0mg"},{"bike_id":"b27cab72-0c2b-403a-acee-6b24bfdee133","system_id":"levelo_inurba_marseille","lat":43.29193,"lon":5.39308,"is_reserved":false,"is_disabled":false,"rental_uris":{"android":"levelo://app?vid=b27cab72-0c2b-403a-acee-6b24bfdee133","ios":"levelo://app?vid=b27cab72-0c2b-403a-acee-6b24bfdee133"},"vehicle_type_id":"4","last_reported":1732471950,"current_range_meters":28400,"station_id":"ce4bh192rcd13ifvqdd0","pricing_plan_id":"cebpf4jnsgd1na2vs0mg"},{"bike_id":"971a190e-c4ac-4280-ad9a-11fb9c9ed0db","system_id":"levelo_inurba_marseille","lat":43.29253,"lon":5.4091,"is_reserved":false,"is_disabled":false,"rental_uris":{"android":"levelo://app?vid=971a190e-c4ac-4280-ad9a-11fb9c9ed0db","ios":"levelo://app?vid=971a190e-c4ac-4280-ad9a-11fb9c9ed0db"},"vehicle_type_id":"4","last_reported":1732471950,"current_range_meters":28000,"station_id":"ce4bh192rcd13ifvqdc0","pricing_plan_id":"cebpf4jnsgd1na2vs0mg"},{"bike_id":"1a5dfa7a-1d4a-4735-b35d-631116c77557","system_id":"levelo_inurba_marseille","lat":43.3172,"lon":5.42397,"is_reserved":false,"is_disabled":false,"rental_uris":{"android":"levelo://app?vid=1a5dfa7a-1d4a-4735-b35d-631116c77557","ios":"levelo://app?vid=1a5dfa7a-1d4a-4735-b35d-631116c77557"},"vehicle_type_id":"4","last_reported":1732471950,"current_range_meters":37600,"station_id":"ce4bhp92rcd13ifvqhbg","pricing_plan_id":"cebpf4jnsgd1na2vs0mg"},{"bike_id":"635f2088-37d7-4c7e-b140-3292398be605","system_id":"levelo_inurba_marseille","lat":43.24812,"lon":5.37457,"is_reserved":false,"is_disabled":false,"rental_uris":{"android":"levelo://app?vid=635f2088-37d7-4c7e-b140-3292398be605","ios":"levelo://app?vid=635f2088-37d7-4c7e-b140-3292398be605"},"vehicle_type_id":"4","last_reported":1732471950,"current_range_meters":34800,"station_id":"ce4bhgh2rcd13ifvqfb0","pricing_plan_id":"cebpf4jnsgd1na2vs0mg"},{"bike_id":"94ea0621-f4a7-439d-a447-d0137de72d2c","system_id":"levelo_inurba_marseille","lat":43.26809,"lon":5.40275,"is_reserved":false,"is_disabled":false,"rental_uris":{"android":"levelo://app?vid=94ea0621-f4a7-439d-a447-d0137de72d2c","ios":"levelo://app?vid=94ea0621-f4a7-439d-a447-d0137de72d2c"},"vehicle_type_id":"4","last_reported":1732471950,"current_range_meters":14400,"station_id":"ce501612rcd8frsf0b60","pricing_plan_id":"cebpf4jnsgd1na2vs0mg"},{"bike_id":"525a6fec-12b6-4b10-b3ff-4afa7f2fbcff","system_id":"levelo_inurba_marseille","lat":43.29025,"lon":5.38658,"is_reserved":false,"is_disabled":false,"rental_uris":{"android":"levelo://app?vid=525a6fec-12b6-4b10-b3ff-4afa7f2fbcff","ios":"levelo://app?vid=525a6fec-12b6-4b10-b3ff-4afa7f2fbcff"},"vehicle_type_id":"4","last_reported":1732471950,"current_range_meters":20800,"station_id":"ce4bh4p2rcd13ifvqe0g","pricing_plan_id":"cebpf4jnsgd1na2vs0mg"},{"bike_id":"46aecb4d-ca23-4cd2-b4ac-2aedc6d37aaa","system_id":"levelo_inurba_marseille","lat":43.30423,"lon":5.36858,"is_reserved":false,"is_disabled":false,"rental_uris":{"android":"levelo://app?vid=46aecb4d-ca23-4cd2-b4ac-2aedc6d37aaa","ios":"levelo://app?vid=46aecb4d-ca23-4cd2-b4ac-2aedc6d37aaa"},"vehicle_type_id":"4","last_reported":1732471950,"current_range_meters":8800,"station_id":"","pricing_plan_id":"cebpf4jnsgd1na2vs0mg"},{"bike_id":"65974952-ec7c-4bbb-ad2f-860ae2030f6d","system_id":"levelo_inurba_marseille","lat":43.29358,"lon":5.37844,"is_reserved":false,"is_disabled":false,"rental_uris":{"android":"levelo://app?vid=65974952-ec7c-4bbb-ad2f-860ae2030f6d","ios":"levelo://app?vid=65974952-ec7c-4bbb-ad2f-860ae2030f6d"},"vehicle_type_id":"4","last_reported":1732471950,"current_range_meters":38400,"station_id":"ce4bgjh2rcd13ifvqbf0","pricing_plan_id":"cebpf4jnsgd1na2vs0mg"},{"bike_id":"2671fb8a-3452-46fd-bec4-bd169133378c","system_id":"levelo_inurba_marseille","lat":43.26685,"lon":5.38269,"is_reserved":false,"is_disabled":true,"rental_uris":{"android":"levelo://app?vid=2671fb8a-3452-46fd-bec4-bd169133378c","ios":"levelo://app?vid=2671fb8a-3452-46fd-bec4-bd169133378c"},"vehicle_type_id":"4","last_reported":1732471950,"current_range_meters":38800,"station_id":"ce4bhg92rcd13ifvqf90","pricing_plan_id":"cebpf4jnsgd1na2vs0mg"},{"bike_id":"0ced8fa4-08de-482f-aa76-85fe16fd1ba7","system_id":"levelo_inurba_marseille","lat":43.29524,"lon":5.39044,"is_reserved":false,"is_disabled":false,"rental_uris":{"android":"levelo://app?vid=0ced8fa4-08de-482f-aa76-85fe16fd1ba7","ios":"levelo://app?vid=0ced8fa4-08de-482f-aa76-85fe16fd1ba7"},"vehicle_type_id":"4","last_reported":1732471950,"current_range_meters":33600,"station_id":"ce4bh3p2rcd13ifvqdp0","pricing_plan_id":"cebpf4jnsgd1na2vs0mg"},{"bike_id":"65179681-8047-461b-8083-7ad0a534f941","system_id":"levelo_inurba_marseille","lat":43.28678,"lon":5.3867,"is_reserved":false,"is_disabled":false,"rental_uris":{"android":"levelo://app?vid=65179681-8047-461b-8083-7ad0a534f941","ios":"levelo://app?vid=65179681-8047-461b-8083-7ad0a534f941"},"vehicle_type_id":"4","last_reported":1732471950,"current_range_meters":26000,"station_id":"ce4bh492rcd13ifvqdug","pricing_plan_id":"cebpf4jnsgd1na2vs0mg"},{"bike_id":"28f8ecf8-a7ae-4a32-aa4f-609e03eada5d","system_id":"levelo_inurba_marseille","lat":43.29523,"lon":5.38539,"is_reserved":false,"is_disabled":true,"rental_uris":{"android":"levelo://app?vid=28f8ecf8-a7ae-4a32-aa4f-609e03eada5d","ios":"levelo://app?vid=28f8ecf8-a7ae-4a32-aa4f-609e03eada5d"},"vehicle_type_id":"4","last_reported":1732471950,"current_range_meters":38000,"station_id":"ce4bgih2rcd13ifvqba0","pricing_plan_id":"cebpf4jnsgd1na2vs0mg"},{"bike_id":"aec29aec-8858-4631-afc6-0b6495dda1be","system_id":"levelo_inurba_marseille","lat":43.28361,"lon":5.38105,"is_reserved":false,"is_disabled":false,"rental_uris":{"android":"levelo://app?vid=aec29aec-8858-4631-afc6-0b6495dda1be","ios":"levelo://app?vid=aec29aec-8858-4631-afc6-0b6495dda1be"},"vehicle_type_id":"4","last_reported":1732471950,"current_range_meters":22000,"station_id":"ce4bh412rcd13ifvqdr0","pricing_plan_id":"cebpf4jnsgd1na2vs0mg"},{"bike_id":"858b65e1-94fc-4151-a71e-8b168cb19dcb","system_id":"levelo_inurba_marseille","lat":43.32249,"lon":5.39241,"is_reserved":false,"is_disabled":true,"rental_uris":{"android":"levelo://app?vid=858b65e1-94fc-4151-a71e-8b168cb19dcb","ios":"levelo://app?vid=858b65e1-94fc-4151-a71e-8b168cb19dcb"},"vehicle_type_id":"4","last_reported":1732471950,"current_range_meters":6000,"station_id":"","pricing_plan_id":"cebpf4jnsgd1na2vs0mg"},{"bike_id":"25fe417d-7ca2-436f-8f12-5c22fe0583d6","system_id":"levelo_inurba_marseille","lat":43.29031,"lon":5.38624,"is_reserved":false,"is_disabled":false,"rental_uris":{"android":"levelo://app?vid=25fe417d-7ca2-436f-8f12-5c22fe0583d6","ios":"levelo://app?vid=25fe417d-7ca2-436f-8f12-5c22fe0583d6"},"vehicle_type_id":"4","last_reported":1732471950,"current_range_meters":11200,"station_id":"ce4bh4p2rcd13ifvqe0g","pricing_plan_id":"cebpf4jnsgd1na2vs0mg"},{"bike_id":"133c0635-6ac4-49a6-b3b8-4ad5dda949c5","system_id":"levelo_inurba_marseille","lat":43.31686,"lon":5.37741,"is_reserved":false,"is_disabled":true,"rental_uris":{"android":"levelo://app?vid=133c0635-6ac4-49a6-b3b8-4ad5dda949c5","ios":"levelo://app?vid=133c0635-6ac4-49a6-b3b8-4ad5dda949c5"},"vehicle_type_id":"4","last_reported":1732471950,"current_range_meters":37600,"station_id":"ce4bgth2rcd13ifvqch0","pricing_plan_id":"cebpf4jnsgd1na2vs0mg"},{"bike_id":"5b1848fc-624c-4c51-aee9-b2940f85a2d8","system_id":"levelo_inurba_marseille","lat":43.31704,"lon":5.37758,"is_reserved":false,"is_disabled":false,"rental_uris":{"android":"levelo://app?vid=5b1848fc-624c-4c51-aee9-b2940f85a2d8","ios":"levelo://app?vid=5b1848fc-624c-4c51-aee9-b2940f85a2d8"},"vehicle_type_id":"4","last_reported":1732471950,"current_range_meters":38800,"station_id":"ce4bgth2rcd13ifvqch0","pricing_plan_id":"cebpf4jnsgd1na2vs0mg"},{"bike_id":"1f7a2424-c270-4472-84c7-0f6ba57bbbb4","system_id":"levelo_inurba_marseille","lat":43.31376,"lon":5.38476,"is_reserved":false,"is_disabled":true,"rental_uris":{"android":"levelo://app?vid=1f7a2424-c270-4472-84c7-0f6ba57bbbb4","ios":"levelo://app?vid=1f7a2424-c270-4472-84c7-0f6ba57bbbb4"},"vehicle_type_id":"4","last_reported":1732471950,"current_range_meters":7200,"station_id":"ce4bgt92rcd13ifvqcf0","pricing_plan_id":"cebpf4jnsgd1na2vs0mg"},{"bike_id":"72bd035c-1ca6-47d6-a90c-e060d6f1f853","system_id":"levelo_inurba_marseille","lat":43.29361,"lon":5.37861,"is_reserved":false,"is_disabled":false,"rental_uris":{"android":"levelo://app?vid=72bd035c-1ca6-47d6-a90c-e060d6f1f853","ios":"levelo://app?vid=72bd035c-1ca6-47d6-a90c-e060d6f1f853"},"vehicle_type_id":"4","last_reported":1732471950,"current_range_meters":38000,"station_id":"ce4bgjh2rcd13ifvqbf0","pricing_plan_id":"cebpf4jnsgd1na2vs0mg"},{"bike_id":"890ceff7-9bd1-4363-9716-427976dbddef","system_id":"levelo_inurba_marseille","lat":43.27209,"lon":5.39191,"is_reserved":false,"is_disabled":true,"rental_uris":{"android":"levelo://app?vid=890ceff7-9bd1-4363-9716-427976dbddef","ios":"levelo://app?vid=890ceff7-9bd1-4363-9716-427976dbddef"},"vehicle_type_id":"4","last_reported":1732471950,"current_range_meters":400,"station_id":"ce4bhhp2rcd13ifvqfm0","pricing_plan_id":"cebpf4jnsgd1na2vs0mg"},{"bike_id":"552ae1f9-34eb-4d70-a19b-3616d3661778","system_id":"levelo_inurba_marseille","lat":43.3372,"lon":5.39179,"is_reserved":false,"is_disabled":false,"rental_uris":{"android":"levelo://app?vid=552ae1f9-34eb-4d70-a19b-3616d3661778","ios":"levelo://app?vid=552ae1f9-34eb-4d70-a19b-3616d3661778"},"vehicle_type_id":"4","last_reported":1732471950,"current_range_meters":14000,"station_id":"ce4bhr92rcd13ifvqhsg","pricing_plan_id":"cebpf4jnsgd1na2vs0mg"},{"bike_id":"f7f3756c-1ec7-4782-9c87-6273f87b6774","system_id":"levelo_inurba_marseille","lat":43.337444,"lon":5.374475,"is_reserved":false,"is_disabled":true,"rental_uris":{"android":"levelo://app?vid=f7f3756c-1ec7-4782-9c87-6273f87b6774","ios":"levelo://app?vid=f7f3756c-1ec7-4782-9c87-6273f87b6774"},"vehicle_type_id":"4","last_reported":1732471950,"current_range_meters":27600,"station_id":"","pricing_plan_id":"cebpf4jnsgd1na2vs0mg"},{"bike_id":"740f162e-a0c7-4af9-899d-283ea1409dc6","system_id":"levelo_inurba_marseille","lat":43.26932,"lon":5.3892,"is_reserved":false,"is_disabled":true,"rental_uris":{"android":"levelo://app?vid=740f162e-a0c7-4af9-899d-283ea1409dc6","ios":"levelo://app?vid=740f162e-a0c7-4af9-899d-283ea1409dc6"},"vehicle_type_id":"4","last_reported":1732471950,"current_range_meters":29600,"station_id":"ce4bhhh2rcd13ifvqfl0","pricing_plan_id":"cebpf4jnsgd1na2vs0mg"},{"bike_id":"d8d94634-4ac1-4f5f-8651-7a99e522961a","system_id":"levelo_inurba_marseille","lat":43.26206,"lon":5.40119,"is_reserved":false,"is_disabled":false,"rental_uris":{"android":"levelo://app?vid=d8d94634-4ac1-4f5f-8651-7a99e522961a","ios":"levelo://app?vid=d8d94634-4ac1-4f5f-8651-7a99e522961a"},"vehicle_type_id":"4","last_reported":1732471950,"current_range_meters":28000,"station_id":"","pricing_plan_id":"cebpf4jnsgd1na2vs0mg"},{"bike_id":"d15ec145-5b46-4f26-a88f-38b32ce00010","system_id":"levelo_inurba_marseille","lat":43.29029,"lon":5.38643,"is_reserved":false,"is_disabled":true,"rental_uris":{"android":"levelo://app?vid=d15ec145-5b46-4f26-a88f-38b32ce00010","ios":"levelo://app?vid=d15ec145-5b46-4f26-a88f-38b32ce00010"},"vehicle_type_id":"4","last_reported":1732471950,"current_range_meters":800,"station_id":"ce4bh4p2rcd13ifvqe0g","pricing_plan_id":"cebpf4jnsgd1na2vs0mg"},{"bike_id":"4d7bdc63-911c-4686-ae29-ea5461fb3d3f","system_id":"levelo_inurba_marseille","lat":43.28155,"lon":5.42639,"is_reserved":false,"is_disabled":false,"rental_uris":{"android":"levelo://app?vid=4d7bdc63-911c-4686-ae29-ea5461fb3d3f","ios":"levelo://app?vid=4d7bdc63-911c-4686-ae29-ea5461fb3d3f"},"vehicle_type_id":"4","last_reported":1732471950,"current_range_meters":3600,"station_id":"ce4bhnh2rcd13ifvqgug","pricing_plan_id":"cebpf4jnsgd1na2vs0mg"},{"bike_id":"48a45360-2eed-4466-a07c-843be0c2e6ea","system_id":"levelo_inurba_marseille","lat":43.29607,"lon":5.37722,"is_reserved":false,"is_disabled":true,"rental_uris":{"android":"levelo://app?vid=48a45360-2eed-4466-a07c-843be0c2e6ea","ios":"levelo://app?vid=48a45360-2eed-4466-a07c-843be0c2e6ea"},"vehicle_type_id":"4","last_reported":1732471950,"current_range_meters":0,"station_id":"ce4bgi92rcd13ifvqb90","pricing_plan_id":"cebpf4jnsgd1na2vs0mg"},{"bike_id":"c99f82a6-1e75-4069-adf7-8d3dd61d2d09","system_id":"levelo_inurba_marseille","lat":43.29899,"lon":5.43652,"is_reserved":false,"is_disabled":false,"rental_uris":{"android":"levelo://app?vid=c99f82a6-1e75-4069-adf7-8d3dd61d2d09","ios":"levelo://app?vid=c99f82a6-1e75-4069-adf7-8d3dd61d2d09"},"vehicle_type_id":"4","last_reported":1732471950,"current_range_meters":15200,"station_id":"ce4bhpp2rcd13ifvqhfg","pricing_plan_id":"cebpf4jnsgd1na2vs0mg"},{"bike_id":"96fef04f-f424-4b1e-a003-fc645e04ed3a","system_id":"levelo_inurba_marseille","lat":43.27375,"lon":5.36264,"is_reserved":false,"is_disabled":true,"rental_uris":{"android":"levelo://app?vid=96fef04f-f424-4b1e-a003-fc645e04ed3a","ios":"levelo://app?vid=96fef04f-f424-4b1e-a003-fc645e04ed3a"},"vehicle_type_id":"4","last_reported":1732471950,"current_range_meters":30400,"station_id":"ce4bhbh2rcd13ifvqeo0","pricing_plan_id":"cebpf4jnsgd1na2vs0mg"},{"bike_id":"b7b61d62-d3cf-45c0-ae9e-f05215122577","system_id":"levelo_inurba_marseille","lat":43.30927,"lon":5.40146,"is_reserved":false,"is_disabled":true,"rental_uris":{"android":"levelo://app?vid=b7b61d62-d3cf-45c0-ae9e-f05215122577","ios":"levelo://app?vid=b7b61d62-d3cf-45c0-ae9e-f05215122577"},"vehicle_type_id":"4","last_reported":1732471950,"current_range_meters":0,"station_id":"ce4bgvp2rcd13ifvqct0","pricing_plan_id":"cebpf4jnsgd1na2vs0mg"},{"bike_id":"92aaf2ae-6395-4985-bda4-652f2001ddbe","system_id":"levelo_inurba_marseille","lat":43.27561,"lon":5.38417,"is_reserved":false,"is_disabled":false,"rental_uris":{"android":"levelo://app?vid=92aaf2ae-6395-4985-bda4-652f2001ddbe","ios":"levelo://app?vid=92aaf2ae-6395-4985-bda4-652f2001ddbe"},"vehicle_type_id":"4","last_reported":1732471950,"current_range_meters":40000,"station_id":"ce4bhh92rcd13ifvqfi0","pricing_plan_id":"cebpf4jnsgd1na2vs0mg"},{"bike_id":"7f89b812-16cb-4135-bc5f-efa2b244ec26","system_id":"levelo_inurba_marseille","lat":43.2655,"lon":5.37288,"is_reserved":false,"is_disabled":true,"rental_uris":{"android":"levelo://app?vid=7f89b812-16cb-4135-bc5f-efa2b244ec26","ios":"levelo://app?vid=7f89b812-16cb-4135-bc5f-efa2b244ec26"},"vehicle_type_id":"4","last_reported":1732471950,"current_range_meters":39200,"station_id":"ce4bhg12rcd13ifvqf70","pricing_plan_id":"cebpf4jnsgd1na2vs0mg"},{"bike_id":"86ec5835-1e76-4455-9969-54b44bba3755","system_id":"levelo_inurba_marseille","lat":43.3249,"lon":5.36557,"is_reserved":false,"is_disabled":false,"rental_uris":{"android":"levelo://app?vid=86ec5835-1e76-4455-9969-54b44bba3755","ios":"levelo://app?vid=86ec5835-1e76-4455-9969-54b44bba3755"},"vehicle_type_id":"4","last_reported":1732471950,"current_range_meters":28400,"station_id":"ce4bhs12rcd13ifvqhvg","pricing_plan_id":"cebpf4jnsgd1na2vs0mg"},{"bike_id":"0ed83b47-52ec-43b9-b2f6-22975bee1154","system_id":"levelo_inurba_marseille","lat":43.27529,"lon":5.38399,"is_reserved":false,"is_disabled":false,"rental_uris":{"android":"levelo://app?vid=0ed83b47-52ec-43b9-b2f6-22975bee1154","ios":"levelo://app?vid=0ed83b47-52ec-43b9-b2f6-22975bee1154"},"vehicle_type_id":"4","last_reported":1732471950,"current_range_meters":38800,"station_id":"ce4bhh92rcd13ifvqfi0","pricing_plan_id":"cebpf4jnsgd1na2vs0mg"},{"bike_id":"0d07a7bb-22de-45f5-ad7a-30b38714da0f","system_id":"levelo_inurba_marseille","lat":43.29617,"lon":5.37727,"is_reserved":false,"is_disabled":false,"rental_uris":{"android":"levelo://app?vid=0d07a7bb-22de-45f5-ad7a-30b38714da0f","ios":"levelo://app?vid=0d07a7bb-22de-45f5-ad7a-30b38714da0f"},"vehicle_type_id":"4","last_reported":1732471950,"current_range_meters":32400,"station_id":"ce4bgi92rcd13ifvqb90","pricing_plan_id":"cebpf4jnsgd1na2vs0mg"},{"bike_id":"63e5c75a-30c8-4be5-8ec8-448fdf89dbb8","system_id":"levelo_inurba_marseille","lat":43.23065,"lon":5.35489,"is_reserved":false,"is_disabled":false,"rental_uris":{"android":"levelo://app?vid=63e5c75a-30c8-4be5-8ec8-448fdf89dbb8","ios":"levelo://app?vid=63e5c75a-30c8-4be5-8ec8-448fdf89dbb8"},"vehicle_type_id":"4","last_reported":1732471950,"current_range_meters":38800,"station_id":"cpo3342slgdg3j2ifvpg","pricing_plan_id":"cebpf4jnsgd1na2vs0mg"},{"bike_id":"cd8f5861-257e-45e4-97b1-d267fecf32b5","system_id":"levelo_inurba_marseille","lat":43.29775,"lon":5.39332,"is_reserved":false,"is_disabled":true,"rental_uris":{"android":"levelo://app?vid=cd8f5861-257e-45e4-97b1-d267fecf32b5","ios":"levelo://app?vid=cd8f5861-257e-45e4-97b1-d267fecf32b5"},"vehicle_type_id":"4","last_reported":1732471950,"current_range_meters":0,"station_id":"chh1huq6cuj3fo74tm60","pricing_plan_id":"cebpf4jnsgd1na2vs0mg"},{"bike_id":"1e193d09-2cb0-4798-8e19-b0516f3ebb8e","system_id":"levelo_inurba_marseille","lat":43.28171,"lon":5.42639,"is_reserved":false,"is_disabled":false,"rental_uris":{"android":"levelo://app?vid=1e193d09-2cb0-4798-8e19-b0516f3ebb8e","ios":"levelo://app?vid=1e193d09-2cb0-4798-8e19-b0516f3ebb8e"},"vehicle_type_id":"4","last_reported":1732471950,"current_range_meters":18800,"station_id":"ce4bhnh2rcd13ifvqgug","pricing_plan_id":"cebpf4jnsgd1na2vs0mg"},{"bike_id":"d9511c65-c897-4fa5-8eab-bc1ed0e9b27c","system_id":"levelo_inurba_marseille","lat":43.28105,"lon":5.37835,"is_reserved":false,"is_disabled":false,"rental_uris":{"android":"levelo://app?vid=d9511c65-c897-4fa5-8eab-bc1ed0e9b27c","ios":"levelo://app?vid=d9511c65-c897-4fa5-8eab-bc1ed0e9b27c"},"vehicle_type_id":"4","last_reported":1732471950,"current_range_meters":25600,"station_id":"ce4bha12rcd13ifvqee0","pricing_plan_id":"cebpf4jnsgd1na2vs0mg"},{"bike_id":"0f22f840-4bd2-413b-a326-5e9bb8c6febb","system_id":"levelo_inurba_marseille","lat":43.2816,"lon":5.42647,"is_reserved":false,"is_disabled":false,"rental_uris":{"android":"levelo://app?vid=0f22f840-4bd2-413b-a326-5e9bb8c6febb","ios":"levelo://app?vid=0f22f840-4bd2-413b-a326-5e9bb8c6febb"},"vehicle_type_id":"4","last_reported":1732471950,"current_range_meters":22400,"station_id":"ce4bhnh2rcd13ifvqgug","pricing_plan_id":"cebpf4jnsgd1na2vs0mg"},{"bike_id":"319287df-687a-4519-8559-afdae3b3272f","system_id":"levelo_inurba_marseille","lat":43.29781,"lon":5.381,"is_reserved":false,"is_disabled":true,"rental_uris":{"android":"levelo://app?vid=319287df-687a-4519-8559-afdae3b3272f","ios":"levelo://app?vid=319287df-687a-4519-8559-afdae3b3272f"},"vehicle_type_id":"4","last_reported":1732471950,"current_range_meters":33200,"station_id":"ce4bgip2rcd13ifvqbb0","pricing_plan_id":"cebpf4jnsgd1na2vs0mg"},{"bike_id":"bca3fd95-577b-4655-a940-7281cdb56793","system_id":"levelo_inurba_marseille","lat":43.28037,"lon":5.36942,"is_reserved":false,"is_disabled":true,"rental_uris":{"android":"levelo://app?vid=bca3fd95-577b-4655-a940-7281cdb56793","ios":"levelo://app?vid=bca3fd95-577b-4655-a940-7281cdb56793"},"vehicle_type_id":"4","last_reported":1732471950,"current_range_meters":34000,"station_id":"ce4bha12rcd13ifvqef0","pricing_plan_id":"cebpf4jnsgd1na2vs0mg"},{"bike_id":"e5951ee3-4a5a-4ebb-b469-096c5188dfa3","system_id":"levelo_inurba_marseille","lat":43.23189,"lon":5.3556,"is_reserved":false,"is_disabled":false,"rental_uris":{"android":"levelo://app?vid=e5951ee3-4a5a-4ebb-b469-096c5188dfa3","ios":"levelo://app?vid=e5951ee3-4a5a-4ebb-b469-096c5188dfa3"},"vehicle_type_id":"4","last_reported":1732471950,"current_range_meters":16800,"station_id":"ce4bhu92rcd13ifvqi70","pricing_plan_id":"cebpf4jnsgd1na2vs0mg"},{"bike_id":"78d70be0-6d5e-4344-8fed-a0464165be55","system_id":"levelo_inurba_marseille","lat":43.30208,"lon":5.39464,"is_reserved":false,"is_disabled":false,"rental_uris":{"android":"levelo://app?vid=78d70be0-6d5e-4344-8fed-a0464165be55","ios":"levelo://app?vid=78d70be0-6d5e-4344-8fed-a0464165be55"},"vehicle_type_id":"4","last_reported":1732471950,"current_range_meters":33600,"station_id":"ce4bh0p2rcd13ifvqd70","pricing_plan_id":"cebpf4jnsgd1na2vs0mg"},{"bike_id":"1c7ab5f6-957f-480f-9a55-f63d84fcde3d","system_id":"levelo_inurba_marseille","lat":43.29531,"lon":5.37497,"is_reserved":false,"is_disabled":false,"rental_uris":{"android":"levelo://app?vid=1c7ab5f6-957f-480f-9a55-f63d84fcde3d","ios":"levelo://app?vid=1c7ab5f6-957f-480f-9a55-f63d84fcde3d"},"vehicle_type_id":"4","last_reported":1732471950,"current_range_meters":33200,"station_id":"ce4bgkp2rcd13ifvqbmg","pricing_plan_id":"cebpf4jnsgd1na2vs0mg"},{"bike_id":"faf5578c-0192-4498-85b2-0cb319dbdd62","system_id":"levelo_inurba_marseille","lat":43.29877,"lon":5.39736,"is_reserved":false,"is_disabled":false,"rental_uris":{"android":"levelo://app?vid=faf5578c-0192-4498-85b2-0cb319dbdd62","ios":"levelo://app?vid=faf5578c-0192-4498-85b2-0cb319dbdd62"},"vehicle_type_id":"4","last_reported":1732471950,"current_range_meters":33200,"station_id":"ce4bh0h2rcd13ifvqd50","pricing_plan_id":"cebpf4jnsgd1na2vs0mg"},{"bike_id":"d85e084d-091a-43ad-b2d8-ff222e9c8bd8","system_id":"levelo_inurba_marseille","lat":43.29414,"lon":5.38605,"is_reserved":false,"is_disabled":false,"rental_uris":{"android":"levelo://app?vid=d85e084d-091a-43ad-b2d8-ff222e9c8bd8","ios":"levelo://app?vid=d85e084d-091a-43ad-b2d8-ff222e9c8bd8"},"vehicle_type_id":"4","last_reported":1732471950,"current_range_meters":38800,"station_id":"ce4bh2h2rcd13ifvqdh0","pricing_plan_id":"cebpf4jnsgd1na2vs0mg"},{"bike_id":"978c963c-a29f-42ab-8acf-3d1fb642644d","system_id":"levelo_inurba_marseille","lat":43.27424,"lon":5.39414,"is_reserved":false,"is_disabled":false,"rental_uris":{"android":"levelo://app?vid=978c963c-a29f-42ab-8acf-3d1fb642644d","ios":"levelo://app?vid=978c963c-a29f-42ab-8acf-3d1fb642644d"},"vehicle_type_id":"4","last_reported":1732471950,"current_range_meters":38800,"station_id":"ce4bhdp2rcd13ifvqf20","pricing_plan_id":"cebpf4jnsgd1na2vs0mg"},{"bike_id":"81a37cae-e9cf-459f-9399-7a89da6edc9b","system_id":"levelo_inurba_marseille","lat":43.3036,"lon":5.45123,"is_reserved":false,"is_disabled":false,"rental_uris":{"android":"levelo://app?vid=81a37cae-e9cf-459f-9399-7a89da6edc9b","ios":"levelo://app?vid=81a37cae-e9cf-459f-9399-7a89da6edc9b"},"vehicle_type_id":"4","last_reported":1732471950,"current_range_meters":13600,"station_id":"","pricing_plan_id":"cebpf4jnsgd1na2vs0mg"},{"bike_id":"6c948e9c-d5b3-4fe5-a918-1bd2f7c83b02","system_id":"levelo_inurba_marseille","lat":43.32114,"lon":5.36781,"is_reserved":false,"is_disabled":false,"rental_uris":{"android":"levelo://app?vid=6c948e9c-d5b3-4fe5-a918-1bd2f7c83b02","ios":"levelo://app?vid=6c948e9c-d5b3-4fe5-a918-1bd2f7c83b02"},"vehicle_type_id":"4","last_reported":1732471950,"current_range_meters":27600,"station_id":"ce4bhrh2rcd13ifvqhug","pricing_plan_id":"cebpf4jnsgd1na2vs0mg"},{"bike_id":"9e620abf-d324-4f99-84fc-d67e71109f2a","system_id":"levelo_inurba_marseille","lat":43.31077,"lon":5.42435,"is_reserved":false,"is_disabled":true,"rental_uris":{"android":"levelo://app?vid=9e620abf-d324-4f99-84fc-d67e71109f2a","ios":"levelo://app?vid=9e620abf-d324-4f99-84fc-d67e71109f2a"},"vehicle_type_id":"4","last_reported":1732471950,"current_range_meters":0,"station_id":"ce4bhp92rcd13ifvqhag","pricing_plan_id":"cebpf4jnsgd1na2vs0mg"},{"bike_id":"9388a7ff-9c5c-4c26-9899-39b2408cf7e3","system_id":"levelo_inurba_marseille","lat":43.31025,"lon":5.38342,"is_reserved":false,"is_disabled":true,"rental_uris":{"android":"levelo://app?vid=9388a7ff-9c5c-4c26-9899-39b2408cf7e3","ios":"levelo://app?vid=9388a7ff-9c5c-4c26-9899-39b2408cf7e3"},"vehicle_type_id":"4","last_reported":1732471950,"current_range_meters":0,"station_id":"","pricing_plan_id":"cebpf4jnsgd1na2vs0mg"},{"bike_id":"4315e719-13c8-4627-b719-cf60c43504e7","system_id":"levelo_inurba_marseille","lat":43.26956,"lon":5.38634,"is_reserved":false,"is_disabled":false,"rental_uris":{"android":"levelo://app?vid=4315e719-13c8-4627-b719-cf60c43504e7","ios":"levelo://app?vid=4315e719-13c8-4627-b719-cf60c43504e7"},"vehicle_type_id":"4","last_reported":1732471950,"current_range_meters":10000,"station_id":"ce4bhh92rcd13ifvqfh0","pricing_plan_id":"cebpf4jnsgd1na2vs0mg"},{"bike_id":"623efcdd-d051-4505-909d-c52e6c52245f","system_id":"levelo_inurba_marseille","lat":43.32369,"lon":5.38884,"is_reserved":false,"is_disabled":true,"rental_uris":{"android":"levelo://app?vid=623efcdd-d051-4505-909d-c52e6c52245f","ios":"levelo://app?vid=623efcdd-d051-4505-909d-c52e6c52245f"},"vehicle_type_id":"4","last_reported":1732471950,"current_range_meters":8000,"station_id":"ce4bhqp2rcd13ifvqhog","pricing_plan_id":"cebpf4jnsgd1na2vs0mg"},{"bike_id":"c3becaae-f371-445e-a6ba-ef2637fa5b00","system_id":"levelo_inurba_marseille","lat":43.31877,"lon":5.40739,"is_reserved":false,"is_disabled":false,"rental_uris":{"android":"levelo://app?vid=c3becaae-f371-445e-a6ba-ef2637fa5b00","ios":"levelo://app?vid=c3becaae-f371-445e-a6ba-ef2637fa5b00"},"vehicle_type_id":"4","last_reported":1732471950,"current_range_meters":10000,"station_id":"ce4bhq12rcd13ifvqhig","pricing_plan_id":"cebpf4jnsgd1na2vs0mg"},{"bike_id":"e21bb65c-40a6-49c9-8a12-5c973287c62b","system_id":"levelo_inurba_marseille","lat":43.2834,"lon":5.38096,"is_reserved":false,"is_disabled":false,"rental_uris":{"android":"levelo://app?vid=e21bb65c-40a6-49c9-8a12-5c973287c62b","ios":"levelo://app?vid=e21bb65c-40a6-49c9-8a12-5c973287c62b"},"vehicle_type_id":"4","last_reported":1732471950,"current_range_meters":36000,"station_id":"ce4bh412rcd13ifvqdr0","pricing_plan_id":"cebpf4jnsgd1na2vs0mg"},{"bike_id":"190e644e-217c-4284-9c74-b8b60071f667","system_id":"levelo_inurba_marseille","lat":43.32061,"lon":5.41557,"is_reserved":false,"is_disabled":false,"rental_uris":{"android":"levelo://app?vid=190e644e-217c-4284-9c74-b8b60071f667","ios":"levelo://app?vid=190e644e-217c-4284-9c74-b8b60071f667"},"vehicle_type_id":"4","last_reported":1732471950,"current_range_meters":37600,"station_id":"ce4bhq92rcd13ifvqhkg","pricing_plan_id":"cebpf4jnsgd1na2vs0mg"},{"bike_id":"5c53cfbd-2547-413a-b79a-f8cc3b1ca992","system_id":"levelo_inurba_marseille","lat":43.32118,"lon":5.36777,"is_reserved":false,"is_disabled":false,"rental_uris":{"android":"levelo://app?vid=5c53cfbd-2547-413a-b79a-f8cc3b1ca992","ios":"levelo://app?vid=5c53cfbd-2547-413a-b79a-f8cc3b1ca992"},"vehicle_type_id":"4","last_reported":1732471950,"current_range_meters":38800,"station_id":"ce4bhrh2rcd13ifvqhug","pricing_plan_id":"cebpf4jnsgd1na2vs0mg"},{"bike_id":"210a35fe-4338-4232-95a7-7fea277b2632","system_id":"levelo_inurba_marseille","lat":43.24068,"lon":5.37767,"is_reserved":false,"is_disabled":false,"rental_uris":{"android":"levelo://app?vid=210a35fe-4338-4232-95a7-7fea277b2632","ios":"levelo://app?vid=210a35fe-4338-4232-95a7-7fea277b2632"},"vehicle_type_id":"4","last_reported":1732471950,"current_range_meters":32400,"station_id":"ce4bhnp2rcd13ifvqgvg","pricing_plan_id":"cebpf4jnsgd1na2vs0mg"},{"bike_id":"867b69fe-6938-4a42-817b-a3ddd8b05068","system_id":"levelo_inurba_marseille","lat":43.30214,"lon":5.39471,"is_reserved":false,"is_disabled":true,"rental_uris":{"android":"levelo://app?vid=867b69fe-6938-4a42-817b-a3ddd8b05068","ios":"levelo://app?vid=867b69fe-6938-4a42-817b-a3ddd8b05068"},"vehicle_type_id":"4","last_reported":1732471950,"current_range_meters":0,"station_id":"ce4bh0p2rcd13ifvqd70","pricing_plan_id":"cebpf4jnsgd1na2vs0mg"},{"bike_id":"04b9c9cb-be15-44a7-9bdc-6d22ca715c34","system_id":"levelo_inurba_marseille","lat":43.337199,"lon":5.391776,"is_reserved":false,"is_disabled":false,"rental_uris":{"android":"levelo://app?vid=04b9c9cb-be15-44a7-9bdc-6d22ca715c34","ios":"levelo://app?vid=04b9c9cb-be15-44a7-9bdc-6d22ca715c34"},"vehicle_type_id":"4","last_reported":1732471950,"current_range_meters":24800,"station_id":"ce4bhr92rcd13ifvqhsg","pricing_plan_id":"cebpf4jnsgd1na2vs0mg"},{"bike_id":"ee0ae878-8acd-42c2-8a69-6e3c56fa3a6f","system_id":"levelo_inurba_marseille","lat":43.27177,"lon":5.41001,"is_reserved":false,"is_disabled":false,"rental_uris":{"android":"levelo://app?vid=ee0ae878-8acd-42c2-8a69-6e3c56fa3a6f","ios":"levelo://app?vid=ee0ae878-8acd-42c2-8a69-6e3c56fa3a6f"},"vehicle_type_id":"4","last_reported":1732471950,"current_range_meters":24000,"station_id":"ce4bhl12rcd13ifvqgf0","pricing_plan_id":"cebpf4jnsgd1na2vs0mg"},{"bike_id":"1600827b-08cc-42ec-8166-641d92381647","system_id":"levelo_inurba_marseille","lat":43.34142,"lon":5.40903,"is_reserved":false,"is_disabled":false,"rental_uris":{"android":"levelo://app?vid=1600827b-08cc-42ec-8166-641d92381647","ios":"levelo://app?vid=1600827b-08cc-42ec-8166-641d92381647"},"vehicle_type_id":"4","last_reported":1732471950,"current_range_meters":11200,"station_id":"ce4bhqh2rcd13ifvqhlg","pricing_plan_id":"cebpf4jnsgd1na2vs0mg"},{"bike_id":"43ef1878-08c8-43ce-8a84-e0d20cc2548c","system_id":"levelo_inurba_marseille","lat":43.258125,"lon":5.408864,"is_reserved":false,"is_disabled":false,"rental_uris":{"android":"levelo://app?vid=43ef1878-08c8-43ce-8a84-e0d20cc2548c","ios":"levelo://app?vid=43ef1878-08c8-43ce-8a84-e0d20cc2548c"},"vehicle_type_id":"4","last_reported":1732471950,"current_range_meters":38800,"station_id":"ce4bhm92rcd13ifvqglg","pricing_plan_id":"cebpf4jnsgd1na2vs0mg"},{"bike_id":"47e7951f-9bba-42b2-be48-684ea462686e","system_id":"levelo_inurba_marseille","lat":43.30358,"lon":5.41888,"is_reserved":false,"is_disabled":false,"rental_uris":{"android":"levelo://app?vid=47e7951f-9bba-42b2-be48-684ea462686e","ios":"levelo://app?vid=47e7951f-9bba-42b2-be48-684ea462686e"},"vehicle_type_id":"4","last_reported":1732471950,"current_range_meters":38800,"station_id":"ce4bhop2rcd13ifvqh7g","pricing_plan_id":"cebpf4jnsgd1na2vs0mg"},{"bike_id":"56ca6b93-ca3d-4dfc-8e20-e35c24d8bd07","system_id":"levelo_inurba_marseille","lat":43.337444,"lon":5.374475,"is_reserved":false,"is_disabled":true,"rental_uris":{"android":"levelo://app?vid=56ca6b93-ca3d-4dfc-8e20-e35c24d8bd07","ios":"levelo://app?vid=56ca6b93-ca3d-4dfc-8e20-e35c24d8bd07"},"vehicle_type_id":"4","last_reported":1732471950,"current_range_meters":0,"station_id":"","pricing_plan_id":"cebpf4jnsgd1na2vs0mg"},{"bike_id":"5e5a8d9e-9326-4182-8852-548538371681","system_id":"levelo_inurba_marseille","lat":43.26485,"lon":5.39572,"is_reserved":false,"is_disabled":false,"rental_uris":{"android":"levelo://app?vid=5e5a8d9e-9326-4182-8852-548538371681","ios":"levelo://app?vid=5e5a8d9e-9326-4182-8852-548538371681"},"vehicle_type_id":"4","last_reported":1732471950,"current_range_meters":29600,"station_id":"ce4bhi12rcd13ifvqfq0","pricing_plan_id":"cebpf4jnsgd1na2vs0mg"},{"bike_id":"fc4e3e2e-faf4-4cbc-8fd8-119b18821073","system_id":"levelo_inurba_marseille","lat":43.25575,"lon":5.38237,"is_reserved":false,"is_disabled":true,"rental_uris":{"android":"levelo://app?vid=fc4e3e2e-faf4-4cbc-8fd8-119b18821073","ios":"levelo://app?vid=fc4e3e2e-faf4-4cbc-8fd8-119b18821073"},"vehicle_type_id":"4","last_reported":1732471950,"current_range_meters":10000,"station_id":"ce4bhih2rcd13ifvqfs0","pricing_plan_id":"cebpf4jnsgd1na2vs0mg"},{"bike_id":"89b60ab2-d6a6-4acf-aafc-578126cf416a","system_id":"levelo_inurba_marseille","lat":43.28271,"lon":5.35058,"is_reserved":false,"is_disabled":true,"rental_uris":{"android":"levelo://app?vid=89b60ab2-d6a6-4acf-aafc-578126cf416a","ios":"levelo://app?vid=89b60ab2-d6a6-4acf-aafc-578126cf416a"},"vehicle_type_id":"4","last_reported":1732471950,"current_range_meters":28800,"station_id":"ce4bhbp2rcd13ifvqerg","pricing_plan_id":"cebpf4jnsgd1na2vs0mg"},{"bike_id":"46ac22a8-6f10-4221-98a6-34eba5c97bfb","system_id":"levelo_inurba_marseille","lat":43.29195,"lon":5.3731,"is_reserved":false,"is_disabled":true,"rental_uris":{"android":"levelo://app?vid=46ac22a8-6f10-4221-98a6-34eba5c97bfb","ios":"levelo://app?vid=46ac22a8-6f10-4221-98a6-34eba5c97bfb"},"vehicle_type_id":"4","last_reported":1732471950,"current_range_meters":0,"station_id":"","pricing_plan_id":"cebpf4jnsgd1na2vs0mg"},{"bike_id":"5846e7ee-045c-466d-b02c-9cd3eadc9db6","system_id":"levelo_inurba_marseille","lat":43.29188,"lon":5.35811,"is_reserved":false,"is_disabled":true,"rental_uris":{"android":"levelo://app?vid=5846e7ee-045c-466d-b02c-9cd3eadc9db6","ios":"levelo://app?vid=5846e7ee-045c-466d-b02c-9cd3eadc9db6"},"vehicle_type_id":"4","last_reported":1732471950,"current_range_meters":38800,"station_id":"ce4bhb12rcd13ifvqel0","pricing_plan_id":"cebpf4jnsgd1na2vs0mg"},{"bike_id":"662ccc3f-986a-42db-9229-d2c694648892","system_id":"levelo_inurba_marseille","lat":43.26028,"lon":5.3755,"is_reserved":false,"is_disabled":true,"rental_uris":{"android":"levelo://app?vid=662ccc3f-986a-42db-9229-d2c694648892","ios":"levelo://app?vid=662ccc3f-986a-42db-9229-d2c694648892"},"vehicle_type_id":"4","last_reported":1732471950,"current_range_meters":0,"station_id":"ce4bhgh2rcd13ifvqfa0","pricing_plan_id":"cebpf4jnsgd1na2vs0mg"},{"bike_id":"1cd0c7b0-c92d-4132-8484-9cb3a6e14c97","system_id":"levelo_inurba_marseille","lat":43.29795,"lon":5.39345,"is_reserved":false,"is_disabled":false,"rental_uris":{"android":"levelo://app?vid=1cd0c7b0-c92d-4132-8484-9cb3a6e14c97","ios":"levelo://app?vid=1cd0c7b0-c92d-4132-8484-9cb3a6e14c97"},"vehicle_type_id":"4","last_reported":1732471950,"current_range_meters":34000,"station_id":"chh1huq6cuj3fo74tm60","pricing_plan_id":"cebpf4jnsgd1na2vs0mg"},{"bike_id":"43746d86-8a13-4845-9faf-ae69b548d714","system_id":"levelo_inurba_marseille","lat":43.2943,"lon":5.37933,"is_reserved":false,"is_disabled":true,"rental_uris":{"android":"levelo://app?vid=43746d86-8a13-4845-9faf-ae69b548d714","ios":"levelo://app?vid=43746d86-8a13-4845-9faf-ae69b548d714"},"vehicle_type_id":"4","last_reported":1732471950,"current_range_meters":0,"station_id":"","pricing_plan_id":"cebpf4jnsgd1na2vs0mg"},{"bike_id":"32bc60be-995d-4952-b349-25ea7c2c5013","system_id":"levelo_inurba_marseille","lat":43.2317,"lon":5.39992,"is_reserved":false,"is_disabled":false,"rental_uris":{"android":"levelo://app?vid=32bc60be-995d-4952-b349-25ea7c2c5013","ios":"levelo://app?vid=32bc60be-995d-4952-b349-25ea7c2c5013"},"vehicle_type_id":"4","last_reported":1732471950,"current_range_meters":38800,"station_id":"ce4bhn12rcd13ifvqgqg","pricing_plan_id":"cebpf4jnsgd1na2vs0mg"},{"bike_id":"7317920e-5975-4c67-a891-63736e89f140","system_id":"levelo_inurba_marseille","lat":43.29274,"lon":5.36786,"is_reserved":false,"is_disabled":false,"rental_uris":{"android":"levelo://app?vid=7317920e-5975-4c67-a891-63736e89f140","ios":"levelo://app?vid=7317920e-5975-4c67-a891-63736e89f140"},"vehicle_type_id":"4","last_reported":1732471950,"current_range_meters":27200,"station_id":"","pricing_plan_id":"cebpf4jnsgd1na2vs0mg"},{"bike_id":"d19f742b-a416-49ce-b1f8-7b447f699f8b","system_id":"levelo_inurba_marseille","lat":43.31336,"lon":5.39693,"is_reserved":false,"is_disabled":false,"rental_uris":{"android":"levelo://app?vid=d19f742b-a416-49ce-b1f8-7b447f699f8b","ios":"levelo://app?vid=d19f742b-a416-49ce-b1f8-7b447f699f8b"},"vehicle_type_id":"4","last_reported":1732471950,"current_range_meters":25600,"station_id":"ce4bgvp2rcd13ifvqcu0","pricing_plan_id":"cebpf4jnsgd1na2vs0mg"},{"bike_id":"a2b09865-004d-45eb-b301-cf3640220a72","system_id":"levelo_inurba_marseille","lat":43.296027,"lon":5.381072,"is_reserved":false,"is_disabled":true,"rental_uris":{"android":"levelo://app?vid=a2b09865-004d-45eb-b301-cf3640220a72","ios":"levelo://app?vid=a2b09865-004d-45eb-b301-cf3640220a72"},"vehicle_type_id":"4","last_reported":1732471950,"current_range_meters":0,"station_id":"ce4bgl12rcd13ifvqbo0","pricing_plan_id":"cebpf4jnsgd1na2vs0mg"},{"bike_id":"9a381770-ea0f-4030-b5f3-9abb1ee72069","system_id":"levelo_inurba_marseille","lat":43.31092,"lon":5.42426,"is_reserved":false,"is_disabled":false,"rental_uris":{"android":"levelo://app?vid=9a381770-ea0f-4030-b5f3-9abb1ee72069","ios":"levelo://app?vid=9a381770-ea0f-4030-b5f3-9abb1ee72069"},"vehicle_type_id":"4","last_reported":1732471950,"current_range_meters":38800,"station_id":"ce4bhp92rcd13ifvqhag","pricing_plan_id":"cebpf4jnsgd1na2vs0mg"},{"bike_id":"eebf2cb5-e9f9-4194-8963-cee36b329bff","system_id":"levelo_inurba_marseille","lat":43.27179,"lon":5.40998,"is_reserved":false,"is_disabled":false,"rental_uris":{"android":"levelo://app?vid=eebf2cb5-e9f9-4194-8963-cee36b329bff","ios":"levelo://app?vid=eebf2cb5-e9f9-4194-8963-cee36b329bff"},"vehicle_type_id":"4","last_reported":1732471950,"current_range_meters":10000,"station_id":"ce4bhl12rcd13ifvqgf0","pricing_plan_id":"cebpf4jnsgd1na2vs0mg"},{"bike_id":"f7f29097-34a0-4fd3-9ee7-8abdc6d41ad7","system_id":"levelo_inurba_marseille","lat":43.27201,"lon":5.39199,"is_reserved":false,"is_disabled":true,"rental_uris":{"android":"levelo://app?vid=f7f29097-34a0-4fd3-9ee7-8abdc6d41ad7","ios":"levelo://app?vid=f7f29097-34a0-4fd3-9ee7-8abdc6d41ad7"},"vehicle_type_id":"4","last_reported":1732471950,"current_range_meters":0,"station_id":"ce4bhhp2rcd13ifvqfm0","pricing_plan_id":"cebpf4jnsgd1na2vs0mg"},{"bike_id":"8f1d6e37-5a85-4901-bfc4-e08c8386322f","system_id":"levelo_inurba_marseille","lat":43.30211,"lon":5.3946,"is_reserved":false,"is_disabled":false,"rental_uris":{"android":"levelo://app?vid=8f1d6e37-5a85-4901-bfc4-e08c8386322f","ios":"levelo://app?vid=8f1d6e37-5a85-4901-bfc4-e08c8386322f"},"vehicle_type_id":"4","last_reported":1732471950,"current_range_meters":36000,"station_id":"","pricing_plan_id":"cebpf4jnsgd1na2vs0mg"},{"bike_id":"3a18c13e-5a45-4d5d-b459-789819a031a5","system_id":"levelo_inurba_marseille","lat":43.28409,"lon":5.37525,"is_reserved":false,"is_disabled":false,"rental_uris":{"android":"levelo://app?vid=3a18c13e-5a45-4d5d-b459-789819a031a5","ios":"levelo://app?vid=3a18c13e-5a45-4d5d-b459-789819a031a5"},"vehicle_type_id":"4","last_reported":1732471950,"current_range_meters":35600,"station_id":"ce4bh412rcd13ifvqds0","pricing_plan_id":"cebpf4jnsgd1na2vs0mg"},{"bike_id":"6d31f772-bcf0-47fe-8b98-fad5c1a27925","system_id":"levelo_inurba_marseille","lat":43.24071,"lon":5.37764,"is_reserved":false,"is_disabled":false,"rental_uris":{"android":"levelo://app?vid=6d31f772-bcf0-47fe-8b98-fad5c1a27925","ios":"levelo://app?vid=6d31f772-bcf0-47fe-8b98-fad5c1a27925"},"vehicle_type_id":"4","last_reported":1732471950,"current_range_meters":39200,"station_id":"ce4bhnp2rcd13ifvqgvg","pricing_plan_id":"cebpf4jnsgd1na2vs0mg"},{"bike_id":"bd128ecb-ac49-465b-9441-293d10144c16","system_id":"levelo_inurba_marseille","lat":43.29206,"lon":5.3932,"is_reserved":false,"is_disabled":false,"rental_uris":{"android":"levelo://app?vid=bd128ecb-ac49-465b-9441-293d10144c16","ios":"levelo://app?vid=bd128ecb-ac49-465b-9441-293d10144c16"},"vehicle_type_id":"4","last_reported":1732471950,"current_range_meters":36800,"station_id":"ce4bh192rcd13ifvqdd0","pricing_plan_id":"cebpf4jnsgd1na2vs0mg"},{"bike_id":"0280a01a-6d00-4639-9251-0ee9ee63735a","system_id":"levelo_inurba_marseille","lat":43.29261,"lon":5.36837,"is_reserved":false,"is_disabled":true,"rental_uris":{"android":"levelo://app?vid=0280a01a-6d00-4639-9251-0ee9ee63735a","ios":"levelo://app?vid=0280a01a-6d00-4639-9251-0ee9ee63735a"},"vehicle_type_id":"4","last_reported":1732471950,"current_range_meters":30400,"station_id":"ce4bhbp2rcd13ifvqesg","pricing_plan_id":"cebpf4jnsgd1na2vs0mg"},