{"last_updated":1752772282,"ttl":60,"version":"2.2","data":{"bikes":[{"bike_id":"53b742a7-31ae-4272-9bba-7740339e2a2f","system_id":"levelo_inurba_marseille","lat":43.33747,"lon":5.37463,"is_reserved":false,"is_disabled":false,"rental_uris":{"android":"levelo://app?vid=53b742a7-31ae-4272-9bba-7740339e2a2f","ios":"levelo://app?vid=53b742a7-31ae-4272-9bba-7740339e2a2f"},"vehicle_type_id":"1","last_reported":1752772282,"current_range_meters":24000,"station_id":"","pricing_plan_id":"cebpf4jnsgd1na2vs0mg"},{"bike_id":"d98ef30e-38a0-41ef-a00a-304afa979a1e","system_id":"levelo_inurba_marseille","lat":43.29901,"lon":5.43677,"is_reserved":false,"is_disabled":false,"rental_uris":{"android":"levelo://app?vid=d98ef30e-38a0-41ef-a00a-304afa979a1e","ios":"levelo://app?vid=d98ef30e-38a0-41ef-a00a-304afa979a1e"},"vehicle_type_id":"4","last_reported":1752772282,"current_range_meters":2800,"station_id":"ce4bhpp2rcd13ifvqhfg","pricing_plan_id":"cebpf4jnsgd1na2vs0mg"},{"bike_id":"bb9f49ea-1e89-49e5-b33e-d9eb304dbf6e","system_id":"levelo_inurba_marseille","lat":43.30369,"lon":5.42484,"is_reserved":false,"is_disabled":false,"rental_uris":{"android":"levelo://app?vid=bb9f49ea-1e89-49e5-b33e-d9eb304dbf6e","ios":"levelo://app?vid=bb9f49ea-1e89-49e5-b33e-d9eb304dbf6e"},"vehicle_type_id":"4","last_reported":1752772282,"current_range_meters":2800,"station_id":"ce4bhoh2rcd13ifvqh6g","pricing_plan_id":"cebpf4jnsgd1na2vs0mg"},{"bike_id":"05a0d25b-fc32-4df5-a79e-6330aaba7d18","system_id":"levelo_inurba_marseille","lat":43.23153,"lon":5.43712,"is_reserved":false,"is_disabled":false,"rental_uris":{"android":"levelo://app?vid=05a0d25b-fc32-4df5-a79e-6330aaba7d18","ios":"levelo://app?vid=05a0d25b-fc32-4df5-a79e-6330aaba7d18"},"vehicle_type_id":"4","last_reported":1752772282,"current_range_meters":2800,"station_id":"ce4bhmp2rcd13ifvqgog","pricing_plan_id":"cebpf4jnsgd1na2vs0mg"},{"bike_id":"6b87bd01-1b07-46f0-a221-534552c2ed59","system_id":"levelo_inurba_marseille","lat":43.28256,"lon":5.35064,"is_reserved":false,"is_disabled":false,"rental_uris":{"android":"levelo://app?vid=6b87bd01-1b07-46f0-a221-534552c2ed59","ios":"levelo://app?vid=6b87bd01-1b07-46f0-a221-534552c2ed59"},"vehicle_type_id":"4","last_reported":1752772282,"current_range_meters":2800,"station_id":"ce4bhbp2rcd13ifvqerg","pricing_plan_id":"cebpf4jnsgd1na2vs0mg"},{"bike_id":"fcc5eaf8-102d-4b54-b47b-2552fb6c02de","system_id":"levelo_inurba_marseille","lat":43.30153,"lon":5.39847,"is_reserved":false,"is_disabled":false,"rental_uris":{"android":"levelo://app?vid=fcc5eaf8-102d-4b54-b47b-2552fb6c02de","ios":"levelo://app?vid=fcc5eaf8-102d-4b54-b47b-2552fb6c02de"},"vehicle_type_id":"4","last_reported":1752772282,"current_range_meters":2800,"station_id":"ce4bh0h2rcd13ifvqd40","pricing_plan_id":"cebpf4jnsgd1na2vs0mg"},{"bike_id":"0448ad58-ec99-4b61-94c3-75a36fa6b646","system_id":"levelo_inurba_marseille","lat":43.26029,"lon":5.37545,"is_reserved":false,"is_disabled":false,"rental_uris":{"android":"levelo://app?vid=0448ad58-ec99-4b61-94c3-75a36fa6b646","ios":"levelo://app?vid=0448ad58-ec99-4b61-94c3-75a36fa6b646"},"vehicle_type_id":"4","last_reported":1752772282,"current_range_meters":2000,"station_id":"ce4bhgh2rcd13ifvqfa0","pricing_plan_id":"cebpf4jnsgd1na2vs0mg"},{"bike_id":"15c94951-9137-4d24-9e56-e6110e30bec0","system_id":"levelo_inurba_marseille","lat":43.30537,"lon":5.36693,"is_reserved":false,"is_disabled":false,"rental_uris":{"android":"levelo://app?vid=15c94951-9137-4d24-9e56-e6110e30bec0","ios":"levelo://app?vid=15c94951-9137-4d24-9e56-e6110e30bec0"},"vehicle_type_id":"4","last_reported":1752772282,"current_range_meters":2800,"station_id":"ce4bgrp2rcd13ifvqc9g","pricing_plan_id":"cebpf4jnsgd1na2vs0mg"},{"bike_id":"840323d3-b768-4e6e-bcb6-aee199fce771","system_id":"levelo_inurba_marseille","lat":43.297868,"lon":5.381333,"is_reserved":false,"is_disabled":false,"rental_uris":{"android":"levelo://app?vid=840323d3-b768-4e6e-bcb6-aee199fce771","ios":"levelo://app?vid=840323d3-b768-4e6e-bcb6-aee199fce771"},"vehicle_type_id":"4","last_reported":1752772282,"current_range_meters":3600,"station_id":"ce4bgip2rcd13ifvqbb0","pricing_plan_id":"cebpf4jnsgd1na2vs0mg"},{"bike_id":"6d2aab09-b409-4b63-91db-933628696d6f","system_id":"levelo_inurba_marseille","lat":43.254963,"lon":5.376473,"is_reserved":false,"is_disabled":false,"rental_uris":{"android":"levelo://app?vid=6d2aab09-b409-4b63-91db-933628696d6f","ios":"levelo://app?vid=6d2aab09-b409-4b63-91db-933628696d6f"},"vehicle_type_id":"4","last_reported":1752772282,"current_range_meters":3600,"station_id":"ce4bhh12rcd13ifvqff0","pricing_plan_id":"cebpf4jnsgd1na2vs0mg"},{"bike_id":"080b0f22-14dd-4044-a18f-ee7f74366cea","system_id":"levelo_inurba_marseille","lat":43.32007,"lon":5.38113,"is_reserved":false,"is_disabled":true,"rental_uris":{"android":"levelo://app?vid=080b0f22-14dd-4044-a18f-ee7f74366cea","ios":"levelo://app?vid=080b0f22-14dd-4044-a18f-ee7f74366cea"},"vehicle_type_id":"4","last_reported":1752772282,"current_range_meters":3600,"station_id":"ce4bhr12rcd13ifvqhpg","pricing_plan_id":"cebpf4jnsgd1na2vs0mg"},{"bike_id":"5cdab934-6682-4dbc-b54b-250e6cdd95d4","system_id":"levelo_inurba_marseille","lat":43.271606,"lon":5.409122,"is_reserved":false,"is_disabled":false,"rental_uris":{"android":"levelo://app?vid=5cdab934-6682-4dbc-b54b-250e6cdd95d4","ios":"levelo://app?vid=5cdab934-6682-4dbc-b54b-250e6cdd95d4"},"vehicle_type_id":"4","last_reported":1752772282,"current_range_meters":3600,"station_id":"ce4bhl12rcd13ifvqgf0","pricing_plan_id":"cebpf4jnsgd1na2vs0mg"},{"bike_id":"e49528d4-610b-45da-85e7-c213f9ad9d86","system_id":"levelo_inurba_marseille","lat":43.267854,"lon":5.394154,"is_reserved":false,"is_disabled":false,"rental_uris":{"android":"levelo://app?vid=e49528d4-610b-45da-85e7-c213f9ad9d86","ios":"levelo://app?vid=e49528d4-610b-45da-85e7-c213f9ad9d86"},"vehicle_type_id":"4","last_reported":1752772282,"current_range_meters":4000,"station_id":"ce4bhh12rcd13ifvqfg0","pricing_plan_id":"cebpf4jnsgd1na2vs0mg"},{"bike_id":"523a9e76-57f2-42d0-87fe-8dfe7b3885c8","system_id":"levelo_inurba_marseille","lat":43.24808,"lon":5.37455,"is_reserved":false,"is_disabled":false,"rental_uris":{"android":"levelo://app?vid=523a9e76-57f2-42d0-87fe-8dfe7b3885c8","ios":"levelo://app?vid=523a9e76-57f2-42d0-87fe-8dfe7b3885c8"},"vehicle_type_id":"4","last_reported":1752772282,"current_range_meters":4400,"station_id":"ce4bhgh2rcd13ifvqfb0","pricing_plan_id":"cebpf4jnsgd1na2vs0mg"},{"bike_id":"402e20e9-e8ce-46cc-8ad2-581eb970d6dd","system_id":"levelo_inurba_marseille","lat":43.27182,"lon":5.39109,"is_reserved":false,"is_disabled":false,"rental_uris":{"android":"levelo://app?vid=402e20e9-e8ce-46cc-8ad2-581eb970d6dd","ios":"levelo://app?vid=402e20e9-e8ce-46cc-8ad2-581eb970d6dd"},"vehicle_type_id":"4","last_reported":1752772282,"current_range_meters":4400,"station_id":"","pricing_plan_id":"cebpf4jnsgd1na2vs0mg"},{"bike_id":"e926eae5-f91c-4ad0-bfa7-10762465b436","system_id":"levelo_inurba_marseille","lat":43.28664,"lon":5.36344,"is_reserved":false,"is_disabled":false,"rental_uris":{"android":"levelo://app?vid=e926eae5-f91c-4ad0-bfa7-10762465b436","ios":"levelo://app?vid=e926eae5-f91c-4ad0-bfa7-10762465b436"},"vehicle_type_id":"4","last_reported":1752772282,"current_range_meters":4400,"station_id":"ce4bhah2rcd13ifvqej0","pricing_plan_id":"cebpf4jnsgd1na2vs0mg"},{"bike_id":"bd0f6660-5747-4c7c-9cf7-9ac35ffdf07f","system_id":"levelo_inurba_marseille","lat":43.28421,"lon":5.34972,"is_reserved":false,"is_disabled":false,"rental_uris":{"android":"levelo://app?vid=bd0f6660-5747-4c7c-9cf7-9ac35ffdf07f","ios":"levelo://app?vid=bd0f6660-5747-4c7c-9cf7-9ac35ffdf07f"},"vehicle_type_id":"4","last_reported":1752772282,"current_range_meters":4400,"station_id":"ce4bhbh2rcd13ifvqepg","pricing_plan_id":"cebpf4jnsgd1na2vs0mg"},{"bike_id":"7777b2c5-2d5e-4ffe-beae-c720d6ae86f5","system_id":"levelo_inurba_marseille","lat":43.241736,"lon":5.397417,"is_reserved":false,"is_disabled":false,"rental_uris":{"android":"levelo://app?vid=7777b2c5-2d5e-4ffe-beae-c720d6ae86f5","ios":"levelo://app?vid=7777b2c5-2d5e-4ffe-beae-c720d6ae86f5"},"vehicle_type_id":"4","last_reported":1752772282,"current_range_meters":4800,"station_id":"ce4bhn12rcd13ifvqgpg","pricing_plan_id":"cebpf4jnsgd1na2vs0mg"},{"bike_id":"1a553d56-e99f-46ac-a8ae-e873d0e032bb","system_id":"levelo_inurba_marseille","lat":43.319086,"lon":5.408119,"is_reserved":false,"is_disabled":false,"rental_uris":{"android":"levelo://app?vid=1a553d56-e99f-46ac-a8ae-e873d0e032bb","ios":"levelo://app?vid=1a553d56-e99f-46ac-a8ae-e873d0e032bb"},"vehicle_type_id":"4","last_reported":1752772282,"current_range_meters":5600,"station_id":"ce4bhq12rcd13ifvqhig","pricing_plan_id":"cebpf4jnsgd1na2vs0mg"},{"bike_id":"d84a96b1-f8e7-4ca5-b670-a94d77088258","system_id":"levelo_inurba_marseille","lat":43.26206,"lon":5.37438,"is_reserved":false,"is_disabled":false,"rental_uris":{"android":"levelo://app?vid=d84a96b1-f8e7-4ca5-b670-a94d77088258","ios":"levelo://app?vid=d84a96b1-f8e7-4ca5-b670-a94d77088258"},"vehicle_type_id":"4","last_reported":1752772282,"current_range_meters":5600,"station_id":"ce4bhgp2rcd13ifvqfc0","pricing_plan_id":"cebpf4jnsgd1na2vs0mg"},{"bike_id":"c6f5a523-e443-4f8c-99c4-01e11ce39fd8","system_id":"levelo_inurba_marseille","lat":43.2762,"lon":5.36101,"is_reserved":false,"is_disabled":false,"rental_uris":{"android":"levelo://app?vid=c6f5a523-e443-4f8c-99c4-01e11ce39fd8","ios":"levelo://app?vid=c6f5a523-e443-4f8c-99c4-01e11ce39fd8"},"vehicle_type_id":"4","last_reported":1752772282,"current_range_meters":5600,"station_id":"ce4bgj92rcd13ifvqbe0","pricing_plan_id":"cebpf4jnsgd1na2vs0mg"},{"bike_id":"c6860e44-f322-4d5d-95ff-fca031e6e5f3","system_id":"levelo_inurba_marseille","lat":43.301502,"lon":5.374488,"is_reserved":false,"is_disabled":false,"rental_uris":{"android":"levelo://app?vid=c6860e44-f322-4d5d-95ff-fca031e6e5f3","ios":"levelo://app?vid=c6860e44-f322-4d5d-95ff-fca031e6e5f3"},"vehicle_type_id":"4","last_reported":1752772282,"current_range_meters":6000,"station_id":"ce4bgs92rcd13ifvqcc0","pricing_plan_id":"cebpf4jnsgd1na2vs0mg"},{"bike_id":"9eb11d44-370d-464b-b78f-5461a3b04cc3","system_id":"levelo_inurba_marseille","lat":43.31077,"lon":5.383437,"is_reserved":false,"is_disabled":true,"rental_uris":{"android":"levelo://app?vid=9eb11d44-370d-464b-b78f-5461a3b04cc3","ios":"levelo://app?vid=9eb11d44-370d-464b-b78f-5461a3b04cc3"},"vehicle_type_id":"4","last_reported":1752772282,"current_range_meters":6400,"station_id":"ce4bgv92rcd13ifvqcr0","pricing_plan_id":"cebpf4jnsgd1na2vs0mg"},{"bike_id":"729c86d0-c308-4e92-adc9-783adef688d8","system_id":"levelo_inurba_marseille","lat":43.25496,"lon":5.37647,"is_reserved":false,"is_disabled":false,"rental_uris":{"android":"levelo://app?vid=729c86d0-c308-4e92-adc9-783adef688d8","ios":"levelo://app?vid=729c86d0-c308-4e92-adc9-783adef688d8"},"vehicle_type_id":"4","last_reported":1752772282,"current_range_meters":6400,"station_id":"ce4bhh12rcd13ifvqff0","pricing_plan_id":"cebpf4jnsgd1na2vs0mg"},{"bike_id":"c804a3f7-d014-4bdb-9bc0-45c6d6d42bc6","system_id":"levelo_inurba_marseille","lat":43.283978,"lon":5.375191,"is_reserved":false,"is_disabled":false,"rental_uris":{"android":"levelo://app?vid=c804a3f7-d014-4bdb-9bc0-45c6d6d42bc6","ios":"levelo://app?vid=c804a3f7-d014-4bdb-9bc0-45c6d6d42bc6"},"vehicle_type_id":"4","last_reported":1752772282,"current_range_meters":6000,"station_id":"ce4bh412rcd13ifvqds0","pricing_plan_id":"cebpf4jnsgd1na2vs0mg"},{"bike_id":"294ebb07-72bf-486e-bd73-1d69438ac164","system_id":"levelo_inurba_marseille","lat":43.225054,"lon":5.347869,"is_reserved":false,"is_disabled":false,"rental_uris":{"android":"levelo://app?vid=294ebb07-72bf-486e-bd73-1d69438ac164","ios":"levelo://app?vid=294ebb07-72bf-486e-bd73-1d69438ac164"},"vehicle_type_id":"4","last_reported":1752772282,"current_range_meters":6800,"station_id":"st_cvj5dfep6f1abm77gieg","pricing_plan_id":"cebpf4jnsgd1na2vs0mg"},{"bike_id":"86b495a5-5560-487b-93e6-83367a7da326","system_id":"levelo_inurba_marseille","lat":43.2658,"lon":5.39017,"is_reserved":false,"is_disabled":false,"rental_uris":{"android":"levelo://app?vid=86b495a5-5560-487b-93e6-83367a7da326","ios":"levelo://app?vid=86b495a5-5560-487b-93e6-83367a7da326"},"vehicle_type_id":"4","last_reported":1752772282,"current_range_meters":6800,"station_id":"ce4bhe12rcd13ifvqf30","pricing_plan_id":"cebpf4jnsgd1na2vs0mg"},{"bike_id":"9718860f-9b65-43a8-82f1-01651bdbd442","system_id":"levelo_inurba_marseille","lat":43.25581,"lon":5.38227,"is_reserved":false,"is_disabled":false,"rental_uris":{"android":"levelo://app?vid=9718860f-9b65-43a8-82f1-01651bdbd442","ios":"levelo://app?vid=9718860f-9b65-43a8-82f1-01651bdbd442"},"vehicle_type_id":"4","last_reported":1752772282,"current_range_meters":6400,"station_id":"ce4bhih2rcd13ifvqfs0","pricing_plan_id":"cebpf4jnsgd1na2vs0mg"},{"bike_id":"32627d37-b78c-4fbf-ab57-26935c14d3f3","system_id":"levelo_inurba_marseille","lat":43.28277,"lon":5.35054,"is_reserved":false,"is_disabled":false,"rental_uris":{"android":"levelo://app?vid=32627d37-b78c-4fbf-ab57-26935c14d3f3","ios":"levelo://app?vid=32627d37-b78c-4fbf-ab57-26935c14d3f3"},"vehicle_type_id":"4","last_reported":1752772282,"current_range_meters":7200,"station_id":"ce4bhbp2rcd13ifvqerg","pricing_plan_id":"cebpf4jnsgd1na2vs0mg"},{"bike_id":"2caa1fc1-e184-415d-91e2-5fe84f0832f1","system_id":"levelo_inurba_marseille","lat":43.23178,"lon":5.39986,"is_reserved":false,"is_disabled":false,"rental_uris":{"android":"levelo://app?vid=2caa1fc1-e184-415d-91e2-5fe84f0832f1","ios":"levelo://app?vid=2caa1fc1-e184-415d-91e2-5fe84f0832f1"},"vehicle_type_id":"4","last_reported":1752772282,"current_range_meters":6800,"station_id":"ce4bhn12rcd13ifvqgqg","pricing_plan_id":"cebpf4jnsgd1na2vs0mg"},{"bike_id":"ee35316c-fd47-4f9d-a3e6-2a125968e1eb","system_id":"levelo_inurba_marseille","lat":43.296033,"lon":5.381011,"is_reserved":false,"is_disabled":false,"rental_uris":{"android":"levelo://app?vid=ee35316c-fd47-4f9d-a3e6-2a125968e1eb","ios":"levelo://app?vid=ee35316c-fd47-4f9d-a3e6-2a125968e1eb"},"vehicle_type_id":"4","last_reported":1752772282,"current_range_meters":7200,"station_id":"ce4bgg92rcd13ifvqb30","pricing_plan_id":"cebpf4jnsgd1na2vs0mg"},{"bike_id":"8ea485f9-f6d8-42aa-afd7-82edee9edcc3","system_id":"levelo_inurba_marseille","lat":43.29975,"lon":5.37181,"is_reserved":false,"is_disabled":false,"rental_uris":{"android":"levelo://app?vid=8ea485f9-f6d8-42aa-afd7-82edee9edcc3","ios":"levelo://app?vid=8ea485f9-f6d8-42aa-afd7-82edee9edcc3"},"vehicle_type_id":"4","last_reported":1752772282,"current_range_meters":7200,"station_id":"ce4bgr92rcd13ifvqc7g","pricing_plan_id":"cebpf4jnsgd1na2vs0mg"},{"bike_id":"d5bab089-e2c1-4740-9ba6-7671645dda0a","system_id":"levelo_inurba_marseille","lat":43.299352,"lon":5.365645,"is_reserved":false,"is_disabled":false,"rental_uris":{"android":"levelo://app?vid=d5bab089-e2c1-4740-9ba6-7671645dda0a","ios":"levelo://app?vid=d5bab089-e2c1-4740-9ba6-7671645dda0a"},"vehicle_type_id":"4","last_reported":1752772282,"current_range_meters":7200,"station_id":"ce4bgm92rcd13ifvqbr0","pricing_plan_id":"cebpf4jnsgd1na2vs0mg"},{"bike_id":"1b9b5149-3cfd-4f6f-9bae-0fbacbd1b6ff","system_id":"levelo_inurba_marseille","lat":43.26029,"lon":5.37546,"is_reserved":false,"is_disabled":false,"rental_uris":{"android":"levelo://app?vid=1b9b5149-3cfd-4f6f-9bae-0fbacbd1b6ff","ios":"levelo://app?vid=1b9b5149-3cfd-4f6f-9bae-0fbacbd1b6ff"},"vehicle_type_id":"4","last_reported":1752772282,"current_range_meters":6800,"station_id":"ce4bhgh2rcd13ifvqfa0","pricing_plan_id":"cebpf4jnsgd1na2vs0mg"},{"bike_id":"68c537fb-db1c-4196-b06f-9de3c46bd68a","system_id":"levelo_inurba_marseille","lat":43.27379,"lon":5.36254,"is_reserved":false,"is_disabled":false,"rental_uris":{"android":"levelo://app?vid=68c537fb-db1c-4196-b06f-9de3c46bd68a","ios":"levelo://app?vid=68c537fb-db1c-4196-b06f-9de3c46bd68a"},"vehicle_type_id":"4","last_reported":1752772282,"current_range_meters":10000,"station_id":"ce4bhbh2rcd13ifvqeo0","pricing_plan_id":"cebpf4jnsgd1na2vs0mg"},{"bike_id":"c34f28fa-9abc-4edb-9e37-099c1b8fee12","system_id":"levelo_inurba_marseille","lat":43.28616,"lon":5.35107,"is_reserved":false,"is_disabled":false,"rental_uris":{"android":"levelo://app?vid=c34f28fa-9abc-4edb-9e37-099c1b8fee12","ios":"levelo://app?vid=c34f28fa-9abc-4edb-9e37-099c1b8fee12"},"vehicle_type_id":"4","last_reported":1752772282,"current_range_meters":8400,"station_id":"ce4bhch2rcd13ifvqeug","pricing_plan_id":"cebpf4jnsgd1na2vs0mg"},{"bike_id":"2de6251e-1f65-4d45-a173-1f2654f168b6","system_id":"levelo_inurba_marseille","lat":43.28261,"lon":5.35073,"is_reserved":false,"is_disabled":false,"rental_uris":{"android":"levelo://app?vid=2de6251e-1f65-4d45-a173-1f2654f168b6","ios":"levelo://app?vid=2de6251e-1f65-4d45-a173-1f2654f168b6"},"vehicle_type_id":"4","last_reported":1752772282,"current_range_meters":8000,"station_id":"ce4bhbp2rcd13ifvqerg","pricing_plan_id":"cebpf4jnsgd1na2vs0mg"},{"bike_id":"675a4573-a1f2-4f9d-b1bd-48fb0f00616c","system_id":"levelo_inurba_marseille","lat":43.28623,"lon":5.35091,"is_reserved":false,"is_disabled":false,"rental_uris":{"android":"levelo://app?vid=675a4573-a1f2-4f9d-b1bd-48fb0f00616c","ios":"levelo://app?vid=675a4573-a1f2-4f9d-b1bd-48fb0f00616c"},"vehicle_type_id":"4","last_reported":1752772282,"current_range_meters":8000,"station_id":"ce4bhch2rcd13ifvqeug","pricing_plan_id":"cebpf4jnsgd1na2vs0mg"},{"bike_id":"d7ddc893-7977-4476-915d-23fa1c03c2c2","system_id":"levelo_inurba_marseille","lat":43.30547,"lon":5.3842,"is_reserved":false,"is_disabled":false,"rental_uris":{"android":"levelo://app?vid=d7ddc893-7977-4476-915d-23fa1c03c2c2","ios":"levelo://app?vid=d7ddc893-7977-4476-915d-23fa1c03c2c2"},"vehicle_type_id":"4","last_reported":1752772282,"current_range_meters":8000,"station_id":"ce4bgg92rcd13ifvqb30","pricing_plan_id":"cebpf4jnsgd1na2vs0mg"},{"bike_id":"66c830c9-5e1f-4c60-a9fe-5298744ae8ed","system_id":"levelo_inurba_marseille","lat":43.28293,"lon":5.35068,"is_reserved":false,"is_disabled":false,"rental_uris":{"android":"levelo://app?vid=66c830c9-5e1f-4c60-a9fe-5298744ae8ed","ios":"levelo://app?vid=66c830c9-5e1f-4c60-a9fe-5298744ae8ed"},"vehicle_type_id":"4","last_reported":1752772282,"current_range_meters":8400,"station_id":"ce4bhbp2rcd13ifvqerg","pricing_plan_id":"cebpf4jnsgd1na2vs0mg"},{"bike_id":"021e38f4-3f1b-487b-9a24-139477a45c14","system_id":"levelo_inurba_marseille","lat":43.23196,"lon":5.35557,"is_reserved":false,"is_disabled":false,"rental_uris":{"android":"levelo://app?vid=021e38f4-3f1b-487b-9a24-139477a45c14","ios":"levelo://app?vid=021e38f4-3f1b-487b-9a24-139477a45c14"},"vehicle_type_id":"4","last_reported":1752772282,"current_range_meters":8400,"station_id":"ce4bhu92rcd13ifvqi70","pricing_plan_id":"cebpf4jnsgd1na2vs0mg"},{"bike_id":"afd37a65-b61c-4607-bd60-33ec3c3b80be","system_id":"levelo_inurba_marseille","lat":43.30889,"lon":5.39655,"is_reserved":false,"is_disabled":false,"rental_uris":{"android":"levelo://app?vid=afd37a65-b61c-4607-bd60-33ec3c3b80be","ios":"levelo://app?vid=afd37a65-b61c-4607-bd60-33ec3c3b80be"},"vehicle_type_id":"4","last_reported":1752772282,"current_range_meters":8800,"station_id":"ce4bh012rcd13ifvqcv0","pricing_plan_id":"cebpf4jnsgd1na2vs0mg"},{"bike_id":"82c54e73-c13c-4d64-b5a1-dafc135eff8f","system_id":"levelo_inurba_marseille","lat":43.29086,"lon":5.38138,"is_reserved":false,"is_disabled":false,"rental_uris":{"android":"levelo://app?vid=82c54e73-c13c-4d64-b5a1-dafc135eff8f","ios":"levelo://app?vid=82c54e73-c13c-4d64-b5a1-dafc135eff8f"},"vehicle_type_id":"4","last_reported":1752772282,"current_range_meters":8800,"station_id":"ce4bh512rcd13ifvqe2g","pricing_plan_id":"cebpf4jnsgd1na2vs0mg"},{"bike_id":"46a24046-e57b-4c56-bae0-853af3405ccd","system_id":"levelo_inurba_marseille","lat":43.29517,"lon":5.39397,"is_reserved":false,"is_disabled":false,"rental_uris":{"android":"levelo://app?vid=46a24046-e57b-4c56-bae0-853af3405ccd","ios":"levelo://app?vid=46a24046-e57b-4c56-bae0-853af3405ccd"},"vehicle_type_id":"4","last_reported":1752772282,"current_range_meters":8800,"station_id":"ce4bh292rcd13ifvqdf0","pricing_plan_id":"cebpf4jnsgd1na2vs0mg"},{"bike_id":"a4fd652b-34f8-4c68-a6e6-032a5cc5e418","system_id":"levelo_inurba_marseille","lat":43.312425,"lon":5.368274,"is_reserved":false,"is_disabled":true,"rental_uris":{"android":"levelo://app?vid=a4fd652b-34f8-4c68-a6e6-032a5cc5e418","ios":"levelo://app?vid=a4fd652b-34f8-4c68-a6e6-032a5cc5e418"},"vehicle_type_id":"4","last_reported":1752772282,"current_range_meters":9200,"station_id":"ce4bgl92rcd13ifvqbq0","pricing_plan_id":"cebpf4jnsgd1na2vs0mg"},{"bike_id":"7e24be83-98c9-43b2-b1ce-815612eb2f47","system_id":"levelo_inurba_marseille","lat":43.28158,"lon":5.426406,"is_reserved":false,"is_disabled":true,"rental_uris":{"android":"levelo://app?vid=7e24be83-98c9-43b2-b1ce-815612eb2f47","ios":"levelo://app?vid=7e24be83-98c9-43b2-b1ce-815612eb2f47"},"vehicle_type_id":"4","last_reported":1752772282,"current_range_meters":9200,"station_id":"ce4bhnh2rcd13ifvqgug","pricing_plan_id":"cebpf4jnsgd1na2vs0mg"},{"bike_id":"aa486e73-1d27-41ec-b417-f88dfd6c1e5e","system_id":"levelo_inurba_marseille","lat":43.29018,"lon":5.38608,"is_reserved":false,"is_disabled":true,"rental_uris":{"android":"levelo://app?vid=aa486e73-1d27-41ec-b417-f88dfd6c1e5e","ios":"levelo://app?vid=aa486e73-1d27-41ec-b417-f88dfd6c1e5e"},"vehicle_type_id":"4","last_reported":1752772282,"current_range_meters":9600,"station_id":"ce4bh4p2rcd13ifvqe0g","pricing_plan_id":"cebpf4jnsgd1na2vs0mg"},{"bike_id":"f95f0930-66b5-40ba-8d99-d87c3d55bceb","system_id":"levelo_inurba_marseille","lat":43.27374,"lon":5.36236,"is_reserved":false,"is_disabled":false,"rental_uris":{"android":"levelo://app?vid=f95f0930-66b5-40ba-8d99-d87c3d55bceb","ios":"levelo://app?vid=f95f0930-66b5-40ba-8d99-d87c3d55bceb"},"vehicle_type_id":"4","last_reported":1752772282,"current_range_meters":9600,"station_id":"ce4bhbh2rcd13ifvqeo0","pricing_plan_id":"cebpf4jnsgd1na2vs0mg"},{"bike_id":"e70ec833-5c65-41a0-a2f5-3df8d6459cab","system_id":"levelo_inurba_marseille","lat":43.295319,"lon":5.385432,"is_reserved":false,"is_disabled":false,"rental_uris":{"android":"levelo://app?vid=e70ec833-5c65-41a0-a2f5-3df8d6459cab","ios":"levelo://app?vid=e70ec833-5c65-41a0-a2f5-3df8d6459cab"},"vehicle_type_id":"4","last_reported":1752772282,"current_range_meters":9200,"station_id":"ce4bgih2rcd13ifvqba0","pricing_plan_id":"cebpf4jnsgd1na2vs0mg"},{"bike_id":"f9616ffe-dcca-4cc3-a2d9-c573312c1ff3","system_id":"levelo_inurba_marseille","lat":43.32051,"lon":5.41537,"is_reserved":false,"is_disabled":false,"rental_uris":{"android":"levelo://app?vid=f9616ffe-dcca-4cc3-a2d9-c573312c1ff3","ios":"levelo://app?vid=f9616ffe-dcca-4cc3-a2d9-c573312c1ff3"},"vehicle_type_id":"4","last_reported":1752772282,"current_range_meters":10000,"station_id":"ce4bhq92rcd13ifvqhkg","pricing_plan_id":"cebpf4jnsgd1na2vs0mg"},{"bike_id":"f4f48038-a333-4017-842c-0f937329017d","system_id":"levelo_inurba_marseille","lat":43.29186,"lon":5.35808,"is_reserved":false,"is_disabled":false,"rental_uris":{"android":"levelo://app?vid=f4f48038-a333-4017-842c-0f937329017d","ios":"levelo://app?vid=f4f48038-a333-4017-842c-0f937329017d"},"vehicle_type_id":"4","last_reported":1752772282,"current_range_meters":10000,"station_id":"ce4bhb12rcd13ifvqel0","pricing_plan_id":"cebpf4jnsgd1na2vs0mg"},{"bike_id":"4bc84343-d0df-44e9-b2a6-9bce2dc2257f","system_id":"levelo_inurba_marseille","lat":43.28622,"lon":5.35099,"is_reserved":false,"is_disabled":false,"rental_uris":{"android":"levelo://app?vid=4bc84343-d0df-44e9-b2a6-9bce2dc2257f","ios":"levelo://app?vid=4bc84343-d0df-44e9-b2a6-9bce2dc2257f"},"vehicle_type_id":"4","last_reported":1752772282,"current_range_meters":10000,"station_id":"ce4bhch2rcd13ifvqeug","pricing_plan_id":"cebpf4jnsgd1na2vs0mg"},{"bike_id":"492a419e-7fc3-43b7-b688-aee4d064f5a3","system_id":"levelo_inurba_marseille","lat":43.29303,"lon":5.37186,"is_reserved":false,"is_disabled":true,"rental_uris":{"android":"levelo://app?vid=492a419e-7fc3-43b7-b688-aee4d064f5a3","ios":"levelo://app?vid=492a419e-7fc3-43b7-b688-aee4d064f5a3"},"vehicle_type_id":"4","last_reported":1752772282,"current_range_meters":10000,"station_id":"ce4bgh92rcd13ifvqb40","pricing_plan_id":"cebpf4jnsgd1na2vs0mg"},{"bike_id":"9ff813f5-7ffe-477a-a652-434a34f03c1a","system_id":"levelo_inurba_marseille","lat":43.29256,"lon":5.38434,"is_reserved":false,"is_disabled":true,"rental_uris":{"android":"levelo://app?vid=9ff813f5-7ffe-477a-a652-434a34f03c1a","ios":"levelo://app?vid=9ff813f5-7ffe-477a-a652-434a34f03c1a"},"vehicle_type_id":"4","last_reported":1752772282,"current_range_meters":10000,"station_id":"ce4bh692rcd13ifvqea0","pricing_plan_id":"cebpf4jnsgd1na2vs0mg"},{"bike_id":"57239988-9161-49ce-a0a2-4581baf1b159","system_id":"levelo_inurba_marseille","lat":43.33789,"lon":5.37418,"is_reserved":false,"is_disabled":false,"rental_uris":{"android":"levelo://app?vid=57239988-9161-49ce-a0a2-4581baf1b159","ios":"levelo://app?vid=57239988-9161-49ce-a0a2-4581baf1b159"},"vehicle_type_id":"4","last_reported":1752772282,"current_range_meters":10000,"station_id":"","pricing_plan_id":"cebpf4jnsgd1na2vs0mg"},{"bike_id":"1710c77e-2ff2-4be8-9905-c3c12c348edd","system_id":"levelo_inurba_marseille","lat":43.28266,"lon":5.35063,"is_reserved":false,"is_disabled":false,"rental_uris":{"android":"levelo://app?vid=1710c77e-2ff2-4be8-9905-c3c12c348edd","ios":"levelo://app?vid=1710c77e-2ff2-4be8-9905-c3c12c348edd"},"vehicle_type_id":"4","last_reported":1752772282,"current_range_meters":10000,"station_id":"ce4bhbp2rcd13ifvqerg","pricing_plan_id":"cebpf4jnsgd1na2vs0mg"},{"bike_id":"d3c80a06-cbd1-4462-adc7-4349fbc7df97","system_id":"levelo_inurba_marseille","lat":43.24388,"lon":5.37056,"is_reserved":false,"is_disabled":false,"rental_uris":{"android":"levelo://app?vid=d3c80a06-cbd1-4462-adc7-4349fbc7df97","ios":"levelo://app?vid=d3c80a06-cbd1-4462-adc7-4349fbc7df97"},"vehicle_type_id":"4","last_reported":1752772282,"current_range_meters":10000,"station_id":"ce4bhhh2rcd13ifvqfk0","pricing_plan_id":"cebpf4jnsgd1na2vs0mg"},{"bike_id":"81f88721-00d0-431c-83bf-446e11578408","system_id":"levelo_inurba_marseille","lat":43.225044,"lon":5.347758,"is_reserved":false,"is_disabled":false,"rental_uris":{"android":"levelo://app?vid=81f88721-00d0-431c-83bf-446e11578408","ios":"levelo://app?vid=81f88721-00d0-431c-83bf-446e11578408"},"vehicle_type_id":"4","last_reported":1752772282,"current_range_meters":10000,"station_id":"st_cvj5dfep6f1abm77gieg","pricing_plan_id":"cebpf4jnsgd1na2vs0mg"},{"bike_id":"bb57342c-bd92-4bec-a3e7-ab4e55db4beb","system_id":"levelo_inurba_marseille","lat":43.32377,"lon":5.3888,"is_reserved":false,"is_disabled":false,"rental_uris":{"android":"levelo://app?vid=bb57342c-bd92-4bec-a3e7-ab4e55db4beb","ios":"levelo://app?vid=bb57342c-bd92-4bec-a3e7-ab4e55db4beb"},"vehicle_type_id":"4","last_reported":1752772282,"current_range_meters":10800,"station_id":"ce4bhqp2rcd13ifvqhog","pricing_plan_id":"cebpf4jnsgd1na2vs0mg"},{"bike_id":"13c675ef-4359-4a76-a67b-3e10838d4fce","system_id":"levelo_inurba_marseille","lat":43.3046,"lon":5.379,"is_reserved":false,"is_disabled":false,"rental_uris":{"android":"levelo://app?vid=13c675ef-4359-4a76-a67b-3e10838d4fce","ios":"levelo://app?vid=13c675ef-4359-4a76-a67b-3e10838d4fce"},"vehicle_type_id":"4","last_reported":1752772282,"current_range_meters":10800,"station_id":"ce4bgup2rcd13ifvqcn0","pricing_plan_id":"cebpf4jnsgd1na2vs0mg"},{"bike_id":"596ee07d-3733-4244-81e2-4973673809ed","system_id":"levelo_inurba_marseille","lat":43.30373,"lon":5.42486,"is_reserved":false,"is_disabled":false,"rental_uris":{"android":"levelo://app?vid=596ee07d-3733-4244-81e2-4973673809ed","ios":"levelo://app?vid=596ee07d-3733-4244-81e2-4973673809ed"},"vehicle_type_id":"4","last_reported":1752772282,"current_range_meters":10800,"station_id":"ce4bhoh2rcd13ifvqh6g","pricing_plan_id":"cebpf4jnsgd1na2vs0mg"},{"bike_id":"798cdd29-02f0-429c-bb55-4fda28696cd2","system_id":"levelo_inurba_marseille","lat":43.29014,"lon":5.3561,"is_reserved":false,"is_disabled":false,"rental_uris":{"android":"levelo://app?vid=798cdd29-02f0-429c-bb55-4fda28696cd2","ios":"levelo://app?vid=798cdd29-02f0-429c-bb55-4fda28696cd2"},"vehicle_type_id":"4","last_reported":1752772282,"current_range_meters":10800,"station_id":"ce4bhb92rcd13ifvqen0","pricing_plan_id":"cebpf4jnsgd1na2vs0mg"},{"bike_id":"90f54ea4-e306-4792-9966-1cc1bc24176c","system_id":"levelo_inurba_marseille","lat":43.264967,"lon":5.395447,"is_reserved":false,"is_disabled":true,"rental_uris":{"android":"levelo://app?vid=90f54ea4-e306-4792-9966-1cc1bc24176c","ios":"levelo://app?vid=90f54ea4-e306-4792-9966-1cc1bc24176c"},"vehicle_type_id":"4","last_reported":1752772282,"current_range_meters":10800,"station_id":"ce4bhi12rcd13ifvqfq0","pricing_plan_id":"cebpf4jnsgd1na2vs0mg"},{"bike_id":"6a69d0cc-faf8-4dc3-8ded-5ef811a5de8d","system_id":"levelo_inurba_marseille","lat":43.30736,"lon":5.42438,"is_reserved":false,"is_disabled":false,"rental_uris":{"android":"levelo://app?vid=6a69d0cc-faf8-4dc3-8ded-5ef811a5de8d","ios":"levelo://app?vid=6a69d0cc-faf8-4dc3-8ded-5ef811a5de8d"},"vehicle_type_id":"4","last_reported":1752772282,"current_range_meters":10800,"station_id":"st_cvj6ca6bvosntc0bfgr0","pricing_plan_id":"cebpf4jnsgd1na2vs0mg"},{"bike_id":"01d71d60-9182-43bc-9942-25f06d9ab245","system_id":"levelo_inurba_marseille","lat":43.3255,"lon":5.4147,"is_reserved":false,"is_disabled":false,"rental_uris":{"android":"levelo://app?vid=01d71d60-9182-43bc-9942-25f06d9ab245","ios":"levelo://app?vid=01d71d60-9182-43bc-9942-25f06d9ab245"},"vehicle_type_id":"4","last_reported":1752772282,"current_range_meters":11200,"station_id":"ce4bhq12rcd13ifvqhhg","pricing_plan_id":"cebpf4jnsgd1na2vs0mg"},{"bike_id":"46409999-4f99-4c39-81f9-426d024c6be5","system_id":"levelo_inurba_marseille","lat":43.31071,"lon":5.38351,"is_reserved":false,"is_disabled":false,"rental_uris":{"android":"levelo://app?vid=46409999-4f99-4c39-81f9-426d024c6be5","ios":"levelo://app?vid=46409999-4f99-4c39-81f9-426d024c6be5"},"vehicle_type_id":"4","last_reported":1752772282,"current_range_meters":11200,"station_id":"ce4bgv92rcd13ifvqcr0","pricing_plan_id":"cebpf4jnsgd1na2vs0mg"},{"bike_id":"4584073f-415a-4eae-8c7e-94f8aaa5f3e3","system_id":"levelo_inurba_marseille","lat":43.29866,"lon":5.39722,"is_reserved":false,"is_disabled":false,"rental_uris":{"android":"levelo://app?vid=4584073f-415a-4eae-8c7e-94f8aaa5f3e3","ios":"levelo://app?vid=4584073f-415a-4eae-8c7e-94f8aaa5f3e3"},"vehicle_type_id":"4","last_reported":1752772282,"current_range_meters":11200,"station_id":"ce4bh0h2rcd13ifvqd50","pricing_plan_id":"cebpf4jnsgd1na2vs0mg"},{"bike_id":"555bc53e-5286-4fb6-9154-af42b3fd9792","system_id":"levelo_inurba_marseille","lat":43.300701,"lon":5.372806,"is_reserved":false,"is_disabled":false,"rental_uris":{"android":"levelo://app?vid=555bc53e-5286-4fb6-9154-af42b3fd9792","ios":"levelo://app?vid=555bc53e-5286-4fb6-9154-af42b3fd9792"},"vehicle_type_id":"4","last_reported":1752772282,"current_range_meters":11200,"station_id":"","pricing_plan_id":"cebpf4jnsgd1na2vs0mg"},{"bike_id":"3f00bda9-4a79-4a85-a3b0-a9dbd42b270b","system_id":"levelo_inurba_marseille","lat":43.26496,"lon":5.39537,"is_reserved":false,"is_disabled":false,"rental_uris":{"android":"levelo://app?vid=3f00bda9-4a79-4a85-a3b0-a9dbd42b270b","ios":"levelo://app?vid=3f00bda9-4a79-4a85-a3b0-a9dbd42b270b"},"vehicle_type_id":"4","last_reported":1752772282,"current_range_meters":11200,"station_id":"ce4bhi12rcd13ifvqfq0","pricing_plan_id":"cebpf4jnsgd1na2vs0mg"},{"bike_id":"73bca0b0-4c74-4529-b2c1-e6eee305216b","system_id":"levelo_inurba_marseille","lat":43.229416,"lon":5.353778,"is_reserved":false,"is_disabled":false,"rental_uris":{"android":"levelo://app?vid=73bca0b0-4c74-4529-b2c1-e6eee305216b","ios":"levelo://app?vid=73bca0b0-4c74-4529-b2c1-e6eee305216b"},"vehicle_type_id":"4","last_reported":1752772282,"current_range_meters":11200,"station_id":"cpo3532slgdg3j2ikp40","pricing_plan_id":"cebpf4jnsgd1na2vs0mg"},{"bike_id":"6e70c5f7-64de-4756-b131-fb1939adce37","system_id":"levelo_inurba_marseille","lat":43.24391,"lon":5.37064,"is_reserved":false,"is_disabled":false,"rental_uris":{"android":"levelo://app?vid=6e70c5f7-64de-4756-b131-fb1939adce37","ios":"levelo://app?vid=6e70c5f7-64de-4756-b131-fb1939adce37"},"vehicle_type_id":"4","last_reported":1752772282,"current_range_meters":11200,"station_id":"ce4bhhh2rcd13ifvqfk0","pricing_plan_id":"cebpf4jnsgd1na2vs0mg"},{"bike_id":"a77f1322-4ae7-4366-83f6-cd41cf91bd02","system_id":"levelo_inurba_marseille","lat":43.25122,"lon":5.40319,"is_reserved":false,"is_disabled":false,"rental_uris":{"android":"levelo://app?vid=a77f1322-4ae7-4366-83f6-cd41cf91bd02","ios":"levelo://app?vid=a77f1322-4ae7-4366-83f6-cd41cf91bd02"},"vehicle_type_id":"4","last_reported":1752772282,"current_range_meters":11200,"station_id":"ce4bhlh2rcd13ifvqgig","pricing_plan_id":"cebpf4jnsgd1na2vs0mg"},{"bike_id":"d92f029d-bc02-40d2-8ff2-499eb46bbfce","system_id":"levelo_inurba_marseille","lat":43.24807,"lon":5.3745,"is_reserved":false,"is_disabled":false,"rental_uris":{"android":"levelo://app?vid=d92f029d-bc02-40d2-8ff2-499eb46bbfce","ios":"levelo://app?vid=d92f029d-bc02-40d2-8ff2-499eb46bbfce"},"vehicle_type_id":"4","last_reported":1752772282,"current_range_meters":11600,"station_id":"ce4bhgh2rcd13ifvqfb0","pricing_plan_id":"cebpf4jnsgd1na2vs0mg"},{"bike_id":"41ee9dcd-b187-4958-a82b-103d3d60828f","system_id":"levelo_inurba_marseille","lat":43.28618,"lon":5.35098,"is_reserved":false,"is_disabled":false,"rental_uris":{"android":"levelo://app?vid=41ee9dcd-b187-4958-a82b-103d3d60828f","ios":"levelo://app?vid=41ee9dcd-b187-4958-a82b-103d3d60828f"},"vehicle_type_id":"4","last_reported":1752772282,"current_range_meters":11600,"station_id":"ce4bhch2rcd13ifvqeug","pricing_plan_id":"cebpf4jnsgd1na2vs0mg"},{"bike_id":"ab7b3260-4103-4ac4-bcec-d863956d523a","system_id":"levelo_inurba_marseille","lat":43.28662,"lon":5.36344,"is_reserved":false,"is_disabled":false,"rental_uris":{"android":"levelo://app?vid=ab7b3260-4103-4ac4-bcec-d863956d523a","ios":"levelo://app?vid=ab7b3260-4103-4ac4-bcec-d863956d523a"},"vehicle_type_id":"4","last_reported":1752772282,"current_range_meters":12000,"station_id":"ce4bhah2rcd13ifvqej0","pricing_plan_id":"cebpf4jnsgd1na2vs0mg"},{"bike_id":"04d15a50-cb94-495c-969c-c09473f1fcda","system_id":"levelo_inurba_marseille","lat":43.296223,"lon":5.377025,"is_reserved":false,"is_disabled":false,"rental_uris":{"android":"levelo://app?vid=04d15a50-cb94-495c-969c-c09473f1fcda","ios":"levelo://app?vid=04d15a50-cb94-495c-969c-c09473f1fcda"},"vehicle_type_id":"4","last_reported":1752772282,"current_range_meters":12000,"station_id":"","pricing_plan_id":"cebpf4jnsgd1na2vs0mg"},{"bike_id":"182dd1a7-cd35-482b-9975-6eadae065c6e","system_id":"levelo_inurba_marseille","lat":43.29963,"lon":5.38496,"is_reserved":false,"is_disabled":false,"rental_uris":{"android":"levelo://app?vid=182dd1a7-cd35-482b-9975-6eadae065c6e","ios":"levelo://app?vid=182dd1a7-cd35-482b-9975-6eadae065c6e"},"vehicle_type_id":"4","last_reported":1752772282,"current_range_meters":12000,"station_id":"ce4bgj92rcd13ifvqbd0","pricing_plan_id":"cebpf4jnsgd1na2vs0mg"},{"bike_id":"096aa57d-11ea-4c48-b927-76920daaeb8b","system_id":"levelo_inurba_marseille","lat":43.29441,"lon":5.39747,"is_reserved":false,"is_disabled":false,"rental_uris":{"android":"levelo://app?vid=096aa57d-11ea-4c48-b927-76920daaeb8b","ios":"levelo://app?vid=096aa57d-11ea-4c48-b927-76920daaeb8b"},"vehicle_type_id":"4","last_reported":1752772282,"current_range_meters":12000,"station_id":"ce4bh3h2rcd13ifvqdo0","pricing_plan_id":"cebpf4jnsgd1na2vs0mg"},{"bike_id":"8900e705-65c2-469c-b21e-1d0a4391c964","system_id":"levelo_inurba_marseille","lat":43.23087,"lon":5.35467,"is_reserved":false,"is_disabled":false,"rental_uris":{"android":"levelo://app?vid=8900e705-65c2-469c-b21e-1d0a4391c964","ios":"levelo://app?vid=8900e705-65c2-469c-b21e-1d0a4391c964"},"vehicle_type_id":"4","last_reported":1752772282,"current_range_meters":12000,"station_id":"cpo3342slgdg3j2ifvpg","pricing_plan_id":"cebpf4jnsgd1na2vs0mg"},{"bike_id":"371848ef-50fb-4924-bd68-39eaf871d355","system_id":"levelo_inurba_marseille","lat":43.24391,"lon":5.37054,"is_reserved":false,"is_disabled":false,"rental_uris":{"android":"levelo://app?vid=371848ef-50fb-4924-bd68-39eaf871d355","ios":"levelo://app?vid=371848ef-50fb-4924-bd68-39eaf871d355"},"vehicle_type_id":"4","last_reported":1752772282,"current_range_meters":12000,"station_id":"ce4bhhh2rcd13ifvqfk0","pricing_plan_id":"cebpf4jnsgd1na2vs0mg"},{"bike_id":"4853dc4e-379f-452b-bc04-d34699ff270b","system_id":"levelo_inurba_marseille","lat":43.27367,"lon":5.36238,"is_reserved":false,"is_disabled":false,"rental_uris":{"android":"levelo://app?vid=4853dc4e-379f-452b-bc04-d34699ff270b","ios":"levelo://app?vid=4853dc4e-379f-452b-bc04-d34699ff270b"},"vehicle_type_id":"4","last_reported":1752772282,"current_range_meters":12000,"station_id":"ce4bhbh2rcd13ifvqeo0","pricing_plan_id":"cebpf4jnsgd1na2vs0mg"},{"bike_id":"1a1de22c-864f-4087-990e-227151d55abc","system_id":"levelo_inurba_marseille","lat":43.2121,"lon":5.35081,"is_reserved":false,"is_disabled":false,"rental_uris":{"android":"levelo://app?vid=1a1de22c-864f-4087-990e-227151d55abc","ios":"levelo://app?vid=1a1de22c-864f-4087-990e-227151d55abc"},"vehicle_type_id":"4","last_reported":1752772282,"current_range_meters":12400,"station_id":"st_cvj6sg6p6f1abm77japg","pricing_plan_id":"cebpf4jnsgd1na2vs0mg"},{"bike_id":"3444bdc6-514a-4ba6-9650-f9073305e33d","system_id":"levelo_inurba_marseille","lat":43.29682,"lon":5.3698,"is_reserved":false,"is_disabled":false,"rental_uris":{"android":"levelo://app?vid=3444bdc6-514a-4ba6-9650-f9073305e33d","ios":"levelo://app?vid=3444bdc6-514a-4ba6-9650-f9073305e33d"},"vehicle_type_id":"4","last_reported":1752772282,"current_range_meters":12400,"station_id":"","pricing_plan_id":"cebpf4jnsgd1na2vs0mg"},{"bike_id":"28bdec93-58f3-493b-8a1a-f6b0e908a57e","system_id":"levelo_inurba_marseille","lat":43.29283,"lon":5.40122,"is_reserved":false,"is_disabled":false,"rental_uris":{"android":"levelo://app?vid=28bdec93-58f3-493b-8a1a-f6b0e908a57e","ios":"levelo://app?vid=28bdec93-58f3-493b-8a1a-f6b0e908a57e"},"vehicle_type_id":"4","last_reported":1752772282,"current_range_meters":13600,"station_id":"ce4bh312rcd13ifvqdk0","pricing_plan_id":"cebpf4jnsgd1na2vs0mg"},{"bike_id":"7df8edfa-31f4-4a09-bed5-210e60d56f2b","system_id":"levelo_inurba_marseille","lat":43.28619,"lon":5.35101,"is_reserved":false,"is_disabled":false,"rental_uris":{"android":"levelo://app?vid=7df8edfa-31f4-4a09-bed5-210e60d56f2b","ios":"levelo://app?vid=7df8edfa-31f4-4a09-bed5-210e60d56f2b"},"vehicle_type_id":"4","last_reported":1752772282,"current_range_meters":12400,"station_id":"ce4bhch2rcd13ifvqeug","pricing_plan_id":"cebpf4jnsgd1na2vs0mg"},{"bike_id":"a7223ff8-19eb-451a-8bed-3d0dd4b19a2d","system_id":"levelo_inurba_marseille","lat":43.292791,"lon":5.368333,"is_reserved":false,"is_disabled":false,"rental_uris":{"android":"levelo://app?vid=a7223ff8-19eb-451a-8bed-3d0dd4b19a2d","ios":"levelo://app?vid=a7223ff8-19eb-451a-8bed-3d0dd4b19a2d"},"vehicle_type_id":"4","last_reported":1752772282,"current_range_meters":12400,"station_id":"ce4bhbp2rcd13ifvqesg","pricing_plan_id":"cebpf4jnsgd1na2vs0mg"},{"bike_id":"a6ad2597-d35f-40c2-9606-f75afa3aba4c","system_id":"levelo_inurba_marseille","lat":43.28294,"lon":5.35051,"is_reserved":false,"is_disabled":false,"rental_uris":{"android":"levelo://app?vid=a6ad2597-d35f-40c2-9606-f75afa3aba4c","ios":"levelo://app?vid=a6ad2597-d35f-40c2-9606-f75afa3aba4c"},"vehicle_type_id":"4","last_reported":1752772282,"current_range_meters":12400,"station_id":"ce4bhbp2rcd13ifvqerg","pricing_plan_id":"cebpf4jnsgd1na2vs0mg"},{"bike_id":"8d06c437-1695-43c4-b257-ce7b1f875ba5","system_id":"levelo_inurba_marseille","lat":43.24667,"lon":5.38161,"is_reserved":false,"is_disabled":false,"rental_uris":{"android":"levelo://app?vid=8d06c437-1695-43c4-b257-ce7b1f875ba5","ios":"levelo://app?vid=8d06c437-1695-43c4-b257-ce7b1f875ba5"},"vehicle_type_id":"4","last_reported":1752772282,"current_range_meters":12400,"station_id":"","pricing_plan_id":"cebpf4jnsgd1na2vs0mg"},{"bike_id":"28d27c17-e6ca-4cec-aec9-f1f6696b8a12","system_id":"levelo_inurba_marseille","lat":43.29883,"lon":5.43663,"is_reserved":false,"is_disabled":true,"rental_uris":{"android":"levelo://app?vid=28d27c17-e6ca-4cec-aec9-f1f6696b8a12","ios":"levelo://app?vid=28d27c17-e6ca-4cec-aec9-f1f6696b8a12"},"vehicle_type_id":"4","last_reported":1752772282,"current_range_meters":12400,"station_id":"ce4bhpp2rcd13ifvqhfg","pricing_plan_id":"cebpf4jnsgd1na2vs0mg"},{"bike_id":"457b0c00-3f1f-4919-9d50-e7f021e30cfa","system_id":"levelo_inurba_marseille","lat":43.21194,"lon":5.35066,"is_reserved":false,"is_disabled":false,"rental_uris":{"android":"levelo://app?vid=457b0c00-3f1f-4919-9d50-e7f021e30cfa","ios":"levelo://app?vid=457b0c00-3f1f-4919-9d50-e7f021e30cfa"},"vehicle_type_id":"4","last_reported":1752772282,"current_range_meters":12400,"station_id":"st_cvj6sg6p6f1abm77japg","pricing_plan_id":"cebpf4jnsgd1na2vs0mg"},{"bike_id":"07f5ae19-0925-43ef-aab4-48ec58bc62b9","system_id":"levelo_inurba_marseille","lat":43.31444,"lon":5.3743,"is_reserved":false,"is_disabled":false,"rental_uris":{"android":"levelo://app?vid=07f5ae19-0925-43ef-aab4-48ec58bc62b9","ios":"levelo://app?vid=07f5ae19-0925-43ef-aab4-48ec58bc62b9"},"vehicle_type_id":"4","last_reported":1752772282,"current_range_meters":12400,"station_id":"","pricing_plan_id":"cebpf4jnsgd1na2vs0mg"},{"bike_id":"715848db-1c38-4b6d-a8a1-0e43c19286fa","system_id":"levelo_inurba_marseille","lat":43.2558,"lon":5.3823,"is_reserved":false,"is_disabled":false,"rental_uris":{"android":"levelo://app?vid=715848db-1c38-4b6d-a8a1-0e43c19286fa","ios":"levelo://app?vid=715848db-1c38-4b6d-a8a1-0e43c19286fa"},"vehicle_type_id":"4","last_reported":1752772282,"current_range_meters":12800,"station_id":"ce4bhih2rcd13ifvqfs0","pricing_plan_id":"cebpf4jnsgd1na2vs0mg"},{"bike_id":"c2ba07b6-2037-462d-aca4-fc23bc490a58","system_id":"levelo_inurba_marseille","lat":43.28426,"lon":5.34981,"is_reserved":false,"is_disabled":false,"rental_uris":{"android":"levelo://app?vid=c2ba07b6-2037-462d-aca4-fc23bc490a58","ios":"levelo://app?vid=c2ba07b6-2037-462d-aca4-fc23bc490a58"},"vehicle_type_id":"4","last_reported":1752772282,"current_range_meters":12800,"station_id":"ce4bhbh2rcd13ifvqepg","pricing_plan_id":"cebpf4jnsgd1na2vs0mg"},{"bike_id":"c2946dcf-e055-4b6b-9e76-ddc67947be7f","system_id":"levelo_inurba_marseille","lat":43.28939,"lon":5.36623,"is_reserved":false,"is_disabled":false,"rental_uris":{"android":"levelo://app?vid=c2946dcf-e055-4b6b-9e76-ddc67947be7f","ios":"levelo://app?vid=c2946dcf-e055-4b6b-9e76-ddc67947be7f"},"vehicle_type_id":"4","last_reported":1752772282,"current_range_meters":12800,"station_id":"ce4bhap2rcd13ifvqek0","pricing_plan_id":"cebpf4jnsgd1na2vs0mg"},{"bike_id":"c0ac4b47-4376-46ed-9e6c-02fd7e715227","system_id":"levelo_inurba_marseille","lat":43.28282,"lon":5.35069,"is_reserved":false,"is_disabled":false,"rental_uris":{"android":"levelo://app?vid=c0ac4b47-4376-46ed-9e6c-02fd7e715227","ios":"levelo://app?vid=c0ac4b47-4376-46ed-9e6c-02fd7e715227"},"vehicle_type_id":"4","last_reported":1752772282,"current_range_meters":13600,"station_id":"ce4bhbp2rcd13ifvqerg","pricing_plan_id":"cebpf4jnsgd1na2vs0mg"},{"bike_id":"20455e39-143e-4b1a-8546-1a6cdc7bcf95","system_id":"levelo_inurba_marseille","lat":43.23981,"lon":5.36611,"is_reserved":false,"is_disabled":false,"rental_uris":{"android":"levelo://app?vid=20455e39-143e-4b1a-8546-1a6cdc7bcf95","ios":"levelo://app?vid=20455e39-143e-4b1a-8546-1a6cdc7bcf95"},"vehicle_type_id":"4","last_reported":1752772282,"current_range_meters":13600,"station_id":"ce4bhi12rcd13ifvqfp0","pricing_plan_id":"cebpf4jnsgd1na2vs0mg"},{"bike_id":"0714a563-de17-4c6e-b8c8-88cb39d88da1","system_id":"levelo_inurba_marseille","lat":43.244,"lon":5.37047,"is_reserved":false,"is_disabled":false,"rental_uris":{"android":"levelo://app?vid=0714a563-de17-4c6e-b8c8-88cb39d88da1","ios":"levelo://app?vid=0714a563-de17-4c6e-b8c8-88cb39d88da1"},"vehicle_type_id":"4","last_reported":1752772282,"current_range_meters":13600,"station_id":"ce4bhhh2rcd13ifvqfk0","pricing_plan_id":"cebpf4jnsgd1na2vs0mg"},{"bike_id":"61bae4cc-9a44-49c6-9f96-86027a644c6e","system_id":"levelo_inurba_marseille","lat":43.28255,"lon":5.350641,"is_reserved":false,"is_disabled":false,"rental_uris":{"android":"levelo://app?vid=61bae4cc-9a44-49c6-9f96-86027a644c6e","ios":"levelo://app?vid=61bae4cc-9a44-49c6-9f96-86027a644c6e"},"vehicle_type_id":"4","last_reported":1752772282,"current_range_meters":13600,"station_id":"ce4bhbp2rcd13ifvqerg","pricing_plan_id":"cebpf4jnsgd1na2vs0mg"},{"bike_id":"65060cdf-f47b-47b3-b4f1-0d73985c83b2","system_id":"levelo_inurba_marseille","lat":43.28265,"lon":5.35066,"is_reserved":false,"is_disabled":false,"rental_uris":{"android":"levelo://app?vid=65060cdf-f47b-47b3-b4f1-0d73985c83b2","ios":"levelo://app?vid=65060cdf-f47b-47b3-b4f1-0d73985c83b2"},"vehicle_type_id":"4","last_reported":1752772282,"current_range_meters":13600,"station_id":"ce4bhbp2rcd13ifvqerg","pricing_plan_id":"cebpf4jnsgd1na2vs0mg"},{"bike_id":"7b8240cc-6f3a-4013-b40a-ff37b2354d47","system_id":"levelo_inurba_marseille","lat":43.2926,"lon":5.38433,"is_reserved":false,"is_disabled":false,"rental_uris":{"android":"levelo://app?vid=7b8240cc-6f3a-4013-b40a-ff37b2354d47","ios":"levelo://app?vid=7b8240cc-6f3a-4013-b40a-ff37b2354d47"},"vehicle_type_id":"4","last_reported":1752772282,"current_range_meters":13600,"station_id":"ce4bh692rcd13ifvqea0","pricing_plan_id":"cebpf4jnsgd1na2vs0mg"},{"bike_id":"9ba7c9b8-6ad4-4587-b252-2982078c3aa9","system_id":"levelo_inurba_marseille","lat":43.29853,"lon":5.36285,"is_reserved":false,"is_disabled":false,"rental_uris":{"android":"levelo://app?vid=9ba7c9b8-6ad4-4587-b252-2982078c3aa9","ios":"levelo://app?vid=9ba7c9b8-6ad4-4587-b252-2982078c3aa9"},"vehicle_type_id":"4","last_reported":1752772282,"current_range_meters":13600,"station_id":"ce4bgpp2rcd13ifvqc3g","pricing_plan_id":"cebpf4jnsgd1na2vs0mg"},{"bike_id":"c7153d0d-b0ee-42bc-a848-698262317e0a","system_id":"levelo_inurba_marseille","lat":43.28484,"lon":5.38414,"is_reserved":false,"is_disabled":false,"rental_uris":{"android":"levelo://app?vid=c7153d0d-b0ee-42bc-a848-698262317e0a","ios":"levelo://app?vid=c7153d0d-b0ee-42bc-a848-698262317e0a"},"vehicle_type_id":"4","last_reported":1752772282,"current_range_meters":13600,"station_id":"ce4bh512rcd13ifvqe3g","pricing_plan_id":"cebpf4jnsgd1na2vs0mg"},{"bike_id":"c303be8a-04b5-403f-a92a-eac34b716859","system_id":"levelo_inurba_marseille","lat":43.22926,"lon":5.3537,"is_reserved":false,"is_disabled":false,"rental_uris":{"android":"levelo://app?vid=c303be8a-04b5-403f-a92a-eac34b716859","ios":"levelo://app?vid=c303be8a-04b5-403f-a92a-eac34b716859"},"vehicle_type_id":"4","last_reported":1752772282,"current_range_meters":13600,"station_id":"cpo3532slgdg3j2ikp40","pricing_plan_id":"cebpf4jnsgd1na2vs0mg"},{"bike_id":"fd07f785-948d-48e7-9c57-46cccfaa2b14","system_id":"levelo_inurba_marseille","lat":43.28425,"lon":5.34979,"is_reserved":false,"is_disabled":false,"rental_uris":{"android":"levelo://app?vid=fd07f785-948d-48e7-9c57-46cccfaa2b14","ios":"levelo://app?vid=fd07f785-948d-48e7-9c57-46cccfaa2b14"},"vehicle_type_id":"4","last_reported":1752772282,"current_range_meters":13600,"station_id":"ce4bhbh2rcd13ifvqepg","pricing_plan_id":"cebpf4jnsgd1na2vs0mg"},{"bike_id":"b1447f57-1a42-4d82-89eb-6191cd49d559","system_id":"levelo_inurba_marseille","lat":43.28116,"lon":5.37816,"is_reserved":false,"is_disabled":false,"rental_uris":{"android":"levelo://app?vid=b1447f57-1a42-4d82-89eb-6191cd49d559","ios":"levelo://app?vid=b1447f57-1a42-4d82-89eb-6191cd49d559"},"vehicle_type_id":"4","last_reported":1752772282,"current_range_meters":13600,"station_id":"ce4bha12rcd13ifvqee0","pricing_plan_id":"cebpf4jnsgd1na2vs0mg"},{"bike_id":"4c5977a5-77ed-4b1d-a883-2815ecde134e","system_id":"levelo_inurba_marseille","lat":43.31966,"lon":5.3753,"is_reserved":false,"is_disabled":false,"rental_uris":{"android":"levelo://app?vid=4c5977a5-77ed-4b1d-a883-2815ecde134e","ios":"levelo://app?vid=4c5977a5-77ed-4b1d-a883-2815ecde134e"},"vehicle_type_id":"4","last_reported":1752772282,"current_range_meters":13600,"station_id":"","pricing_plan_id":"cebpf4jnsgd1na2vs0mg"},{"bike_id":"d76a7520-3277-4586-9b27-6772c61f194a","system_id":"levelo_inurba_marseille","lat":43.24181,"lon":5.39729,"is_reserved":false,"is_disabled":false,"rental_uris":{"android":"levelo://app?vid=d76a7520-3277-4586-9b27-6772c61f194a","ios":"levelo://app?vid=d76a7520-3277-4586-9b27-6772c61f194a"},"vehicle_type_id":"4","last_reported":1752772282,"current_range_meters":13600,"station_id":"ce4bhn12rcd13ifvqgpg","pricing_plan_id":"cebpf4jnsgd1na2vs0mg"},{"bike_id":"c0aceaa8-3c07-4140-9b6e-199ae317a0c9","system_id":"levelo_inurba_marseille","lat":43.23174,"lon":5.39984,"is_reserved":false,"is_disabled":false,"rental_uris":{"android":"levelo://app?vid=c0aceaa8-3c07-4140-9b6e-199ae317a0c9","ios":"levelo://app?vid=c0aceaa8-3c07-4140-9b6e-199ae317a0c9"},"vehicle_type_id":"4","last_reported":1752772282,"current_range_meters":14000,"station_id":"ce4bhn12rcd13ifvqgqg","pricing_plan_id":"cebpf4jnsgd1na2vs0mg"},{"bike_id":"fef35cfc-273a-4405-a03a-eee223789a76","system_id":"levelo_inurba_marseille","lat":43.27059,"lon":5.40252,"is_reserved":false,"is_disabled":false,"rental_uris":{"android":"levelo://app?vid=fef35cfc-273a-4405-a03a-eee223789a76","ios":"levelo://app?vid=fef35cfc-273a-4405-a03a-eee223789a76"},"vehicle_type_id":"4","last_reported":1752772282,"current_range_meters":14000,"station_id":"ce4bhk92rcd13ifvqgc0","pricing_plan_id":"cebpf4jnsgd1na2vs0mg"},{"bike_id":"3e2535f8-7d7e-418e-8d9a-1404dd8a8196","system_id":"levelo_inurba_marseille","lat":43.29327,"lon":5.37198,"is_reserved":false,"is_disabled":true,"rental_uris":{"android":"levelo://app?vid=3e2535f8-7d7e-418e-8d9a-1404dd8a8196","ios":"levelo://app?vid=3e2535f8-7d7e-418e-8d9a-1404dd8a8196"},"vehicle_type_id":"4","last_reported":1752772282,"current_range_meters":14000,"station_id":"ce4bgh92rcd13ifvqb40","pricing_plan_id":"cebpf4jnsgd1na2vs0mg"},{"bike_id":"fb051388-bddd-4117-bccd-f4b08f9cbf7c","system_id":"levelo_inurba_marseille","lat":43.28277,"lon":5.35073,"is_reserved":false,"is_disabled":false,"rental_uris":{"android":"levelo://app?vid=fb051388-bddd-4117-bccd-f4b08f9cbf7c","ios":"levelo://app?vid=fb051388-bddd-4117-bccd-f4b08f9cbf7c"},"vehicle_type_id":"4","last_reported":1752772282,"current_range_meters":14000,"station_id":"ce4bhbp2rcd13ifvqerg","pricing_plan_id":"cebpf4jnsgd1na2vs0mg"},{"bike_id":"a94b4fa7-f6a9-4e56-a705-c21baf161b6a","system_id":"levelo_inurba_marseille","lat":43.31481,"lon":5.37309,"is_reserved":false,"is_disabled":false,"rental_uris":{"android":"levelo://app?vid=a94b4fa7-f6a9-4e56-a705-c21baf161b6a","ios":"levelo://app?vid=a94b4fa7-f6a9-4e56-a705-c21baf161b6a"},"vehicle_type_id":"4","last_reported":1752772282,"current_range_meters":14000,"station_id":"ce4bgt12rcd13ifvqcd0","pricing_plan_id":"cebpf4jnsgd1na2vs0mg"},{"bike_id":"fec0f980-3485-4095-b4d2-a568d83d7d17","system_id":"levelo_inurba_marseille","lat":43.2844,"lon":5.34989,"is_reserved":false,"is_disabled":false,"rental_uris":{"android":"levelo://app?vid=fec0f980-3485-4095-b4d2-a568d83d7d17","ios":"levelo://app?vid=fec0f980-3485-4095-b4d2-a568d83d7d17"},"vehicle_type_id":"4","last_reported":1752772282,"current_range_meters":14000,"station_id":"ce4bhbh2rcd13ifvqepg","pricing_plan_id":"cebpf4jnsgd1na2vs0mg"},{"bike_id":"8190b158-4f1a-4f58-a07b-5b1c4e7d71cb","system_id":"levelo_inurba_marseille","lat":43.292233,"lon":5.360429,"is_reserved":false,"is_disabled":false,"rental_uris":{"android":"levelo://app?vid=8190b158-4f1a-4f58-a07b-5b1c4e7d71cb","ios":"levelo://app?vid=8190b158-4f1a-4f58-a07b-5b1c4e7d71cb"},"vehicle_type_id":"4","last_reported":1752772282,"current_range_meters":14000,"station_id":"","pricing_plan_id":"cebpf4jnsgd1na2vs0mg"},{"bike_id":"73a4d7c1-357d-4c35-88bd-0f7481136d90","system_id":"levelo_inurba_marseille","lat":43.31268,"lon":5.40169,"is_reserved":false,"is_disabled":false,"rental_uris":{"android":"levelo://app?vid=73a4d7c1-357d-4c35-88bd-0f7481136d90","ios":"levelo://app?vid=73a4d7c1-357d-4c35-88bd-0f7481136d90"},"vehicle_type_id":"4","last_reported":1752772282,"current_range_meters":14000,"station_id":"ce4bh092rcd13ifvqd30","pricing_plan_id":"cebpf4jnsgd1na2vs0mg"},{"bike_id":"7dafb745-9c61-4dce-8469-3c87612d082c","system_id":"levelo_inurba_marseille","lat":43.29941,"lon":5.36541,"is_reserved":false,"is_disabled":false,"rental_uris":{"android":"levelo://app?vid=7dafb745-9c61-4dce-8469-3c87612d082c","ios":"levelo://app?vid=7dafb745-9c61-4dce-8469-3c87612d082c"},"vehicle_type_id":"4","last_reported":1752772282,"current_range_meters":14000,"station_id":"ce4bgm92rcd13ifvqbr0","pricing_plan_id":"cebpf4jnsgd1na2vs0mg"},{"bike_id":"d1e94785-07c9-4567-977b-a1d086ccac8d","system_id":"levelo_inurba_marseille","lat":43.29899,"lon":5.43676,"is_reserved":false,"is_disabled":false,"rental_uris":{"android":"levelo://app?vid=d1e94785-07c9-4567-977b-a1d086ccac8d","ios":"levelo://app?vid=d1e94785-07c9-4567-977b-a1d086ccac8d"},"vehicle_type_id":"4","last_reported":1752772282,"current_range_meters":14400,"station_id":"ce4bhpp2rcd13ifvqhfg","pricing_plan_id":"cebpf4jnsgd1na2vs0mg"},{"bike_id":"6d70d6d4-7776-4d1e-a307-46e9e54de733","system_id":"levelo_inurba_marseille","lat":43.29584,"lon":5.39948,"is_reserved":false,"is_disabled":true,"rental_uris":{"android":"levelo://app?vid=6d70d6d4-7776-4d1e-a307-46e9e54de733","ios":"levelo://app?vid=6d70d6d4-7776-4d1e-a307-46e9e54de733"},"vehicle_type_id":"4","last_reported":1752772282,"current_range_meters":14400,"station_id":"ce4bh312rcd13ifvqdj0","pricing_plan_id":"cebpf4jnsgd1na2vs0mg"},{"bike_id":"4c0a4d0a-fff3-4b5b-add7-bd84903b5ce9","system_id":"levelo_inurba_marseille","lat":43.29272,"lon":5.3845,"is_reserved":false,"is_disabled":false,"rental_uris":{"android":"levelo://app?vid=4c0a4d0a-fff3-4b5b-add7-bd84903b5ce9","ios":"levelo://app?vid=4c0a4d0a-fff3-4b5b-add7-bd84903b5ce9"},"vehicle_type_id":"4","last_reported":1752772282,"current_range_meters":14400,"station_id":"ce4bh692rcd13ifvqea0","pricing_plan_id":"cebpf4jnsgd1na2vs0mg"},{"bike_id":"4486547f-730b-4ba9-9b13-8689cb82582e","system_id":"levelo_inurba_marseille","lat":43.27062,"lon":5.40252,"is_reserved":false,"is_disabled":false,"rental_uris":{"android":"levelo://app?vid=4486547f-730b-4ba9-9b13-8689cb82582e","ios":"levelo://app?vid=4486547f-730b-4ba9-9b13-8689cb82582e"},"vehicle_type_id":"4","last_reported":1752772282,"current_range_meters":14400,"station_id":"ce4bhk92rcd13ifvqgc0","pricing_plan_id":"cebpf4jnsgd1na2vs0mg"},{"bike_id":"d442cd85-3a39-468d-a199-197ac54d2d0b","system_id":"levelo_inurba_marseille","lat":43.29598,"lon":5.3811,"is_reserved":false,"is_disabled":false,"rental_uris":{"android":"levelo://app?vid=d442cd85-3a39-468d-a199-197ac54d2d0b","ios":"levelo://app?vid=d442cd85-3a39-468d-a199-197ac54d2d0b"},"vehicle_type_id":"4","last_reported":1752772282,"current_range_meters":14400,"station_id":"ce4bgl12rcd13ifvqbo0","pricing_plan_id":"cebpf4jnsgd1na2vs0mg"},{"bike_id":"2ac93549-5c94-4228-8eea-782a21384d10","system_id":"levelo_inurba_marseille","lat":43.29634,"lon":5.37793,"is_reserved":false,"is_disabled":false,"rental_uris":{"android":"levelo://app?vid=2ac93549-5c94-4228-8eea-782a21384d10","ios":"levelo://app?vid=2ac93549-5c94-4228-8eea-782a21384d10"},"vehicle_type_id":"4","last_reported":1752772282,"current_range_meters":14400,"station_id":"","pricing_plan_id":"cebpf4jnsgd1na2vs0mg"},{"bike_id":"fd75f631-a93f-469d-bea7-4e480ab41eae","system_id":"levelo_inurba_marseille","lat":43.28274,"lon":5.35067,"is_reserved":false,"is_disabled":false,"rental_uris":{"android":"levelo://app?vid=fd75f631-a93f-469d-bea7-4e480ab41eae","ios":"levelo://app?vid=fd75f631-a93f-469d-bea7-4e480ab41eae"},"vehicle_type_id":"4","last_reported":1752772282,"current_range_meters":14400,"station_id":"ce4bhbp2rcd13ifvqerg","pricing_plan_id":"cebpf4jnsgd1na2vs0mg"},{"bike_id":"78274e74-ab73-4fa7-b1a3-d1a684863996","system_id":"levelo_inurba_marseille","lat":43.22538,"lon":5.34748,"is_reserved":false,"is_disabled":false,"rental_uris":{"android":"levelo://app?vid=78274e74-ab73-4fa7-b1a3-d1a684863996","ios":"levelo://app?vid=78274e74-ab73-4fa7-b1a3-d1a684863996"},"vehicle_type_id":"4","last_reported":1752772282,"current_range_meters":14400,"station_id":"","pricing_plan_id":"cebpf4jnsgd1na2vs0mg"},{"bike_id":"ce1fd741-dbe7-4789-b05b-280daffdb071","system_id":"levelo_inurba_marseille","lat":43.2668,"lon":5.38272,"is_reserved":false,"is_disabled":false,"rental_uris":{"android":"levelo://app?vid=ce1fd741-dbe7-4789-b05b-280daffdb071","ios":"levelo://app?vid=ce1fd741-dbe7-4789-b05b-280daffdb071"},"vehicle_type_id":"4","last_reported":1752772282,"current_range_meters":14800,"station_id":"ce4bhg92rcd13ifvqf90","pricing_plan_id":"cebpf4jnsgd1na2vs0mg"},{"bike_id":"cd6a98b6-78ee-44c4-8d63-bd1ba4fada59","system_id":"levelo_inurba_marseille","lat":43.32111,"lon":5.36766,"is_reserved":false,"is_disabled":false,"rental_uris":{"android":"levelo://app?vid=cd6a98b6-78ee-44c4-8d63-bd1ba4fada59","ios":"levelo://app?vid=cd6a98b6-78ee-44c4-8d63-bd1ba4fada59"},"vehicle_type_id":"4","last_reported":1752772282,"current_range_meters":14800,"station_id":"ce4bhrh2rcd13ifvqhug","pricing_plan_id":"cebpf4jnsgd1na2vs0mg"},{"bike_id":"b861e845-045e-4bb7-9260-06d3fafca4ef","system_id":"levelo_inurba_marseille","lat":43.29894,"lon":5.43657,"is_reserved":false,"is_disabled":false,"rental_uris":{"android":"levelo://app?vid=b861e845-045e-4bb7-9260-06d3fafca4ef","ios":"levelo://app?vid=b861e845-045e-4bb7-9260-06d3fafca4ef"},"vehicle_type_id":"4","last_reported":1752772282,"current_range_meters":14800,"station_id":"ce4bhpp2rcd13ifvqhfg","pricing_plan_id":"cebpf4jnsgd1na2vs0mg"},{"bike_id":"2c6e34ec-e4ad-4b55-908f-732bdcecdb2f","system_id":"levelo_inurba_marseille","lat":43.21204,"lon":5.3505,"is_reserved":false,"is_disabled":false,"rental_uris":{"android":"levelo://app?vid=2c6e34ec-e4ad-4b55-908f-732bdcecdb2f","ios":"levelo://app?vid=2c6e34ec-e4ad-4b55-908f-732bdcecdb2f"},"vehicle_type_id":"4","last_reported":1752772282,"current_range_meters":14800,"station_id":"st_cvj6sg6p6f1abm77japg","pricing_plan_id":"cebpf4jnsgd1na2vs0mg"},{"bike_id":"da891840-0cec-4ccc-961c-48903736c6fa","system_id":"levelo_inurba_marseille","lat":43.31139,"lon":5.37692,"is_reserved":false,"is_disabled":false,"rental_uris":{"android":"levelo://app?vid=da891840-0cec-4ccc-961c-48903736c6fa","ios":"levelo://app?vid=da891840-0cec-4ccc-961c-48903736c6fa"},"vehicle_type_id":"4","last_reported":1752772282,"current_range_meters":14800,"station_id":"","pricing_plan_id":"cebpf4jnsgd1na2vs0mg"},{"bike_id":"5983b9f0-2dbc-4cb0-9457-c9b8b90078c7","system_id":"levelo_inurba_marseille","lat":43.28275,"lon":5.35063,"is_reserved":false,"is_disabled":false,"rental_uris":{"android":"levelo://app?vid=5983b9f0-2dbc-4cb0-9457-c9b8b90078c7","ios":"levelo://app?vid=5983b9f0-2dbc-4cb0-9457-c9b8b90078c7"},"vehicle_type_id":"4","last_reported":1752772282,"current_range_meters":14800,"station_id":"ce4bhbp2rcd13ifvqerg","pricing_plan_id":"cebpf4jnsgd1na2vs0mg"},{"bike_id":"e555b545-304c-4dce-8496-1643c0f2600e","system_id":"levelo_inurba_marseille","lat":43.337444,"lon":5.374475,"is_reserved":false,"is_disabled":false,"rental_uris":{"android":"levelo://app?vid=e555b545-304c-4dce-8496-1643c0f2600e","ios":"levelo://app?vid=e555b545-304c-4dce-8496-1643c0f2600e"},"vehicle_type_id":"4","last_reported":1752772282,"current_range_meters":14800,"station_id":"","pricing_plan_id":"cebpf4jnsgd1na2vs0mg"},{"bike_id":"f7def945-7460-47a4-835c-065812d7faa0","system_id":"levelo_inurba_marseille","lat":43.28269,"lon":5.35073,"is_reserved":false,"is_disabled":false,"rental_uris":{"android":"levelo://app?vid=f7def945-7460-47a4-835c-065812d7faa0","ios":"levelo://app?vid=f7def945-7460-47a4-835c-065812d7faa0"},"vehicle_type_id":"4","last_reported":1752772282,"current_range_meters":14800,"station_id":"ce4bhbp2rcd13ifvqerg","pricing_plan_id":"cebpf4jnsgd1na2vs0mg"},{"bike_id":"92c21f52-6c8e-403f-ae8d-e67f1a0d7110","system_id":"levelo_inurba_marseille","lat":43.29009,"lon":5.35607,"is_reserved":false,"is_disabled":false,"rental_uris":{"android":"levelo://app?vid=92c21f52-6c8e-403f-ae8d-e67f1a0d7110","ios":"levelo://app?vid=92c21f52-6c8e-403f-ae8d-e67f1a0d7110"},"vehicle_type_id":"4","last_reported":1752772282,"current_range_meters":14800,"station_id":"ce4bhb92rcd13ifvqen0","pricing_plan_id":"cebpf4jnsgd1na2vs0mg"},{"bike_id":"a6ab6e7a-ee4d-482a-aba5-ed5a8fd7fdef","system_id":"levelo_inurba_marseille","lat":43.29583,"lon":5.36743,"is_reserved":false,"is_disabled":false,"rental_uris":{"android":"levelo://app?vid=a6ab6e7a-ee4d-482a-aba5-ed5a8fd7fdef","ios":"levelo://app?vid=a6ab6e7a-ee4d-482a-aba5-ed5a8fd7fdef"},"vehicle_type_id":"4","last_reported":1752772282,"current_range_meters":14800,"station_id":"ce4bgph2rcd13ifvqc2g","pricing_plan_id":"cebpf4jnsgd1na2vs0mg"},{"bike_id":"524f857b-7abb-4798-bc14-275f121daee5","system_id":"levelo_inurba_marseille","lat":43.28423,"lon":5.3498,"is_reserved":false,"is_disabled":false,"rental_uris":{"android":"levelo://app?vid=524f857b-7abb-4798-bc14-275f121daee5","ios":"levelo://app?vid=524f857b-7abb-4798-bc14-275f121daee5"},"vehicle_type_id":"4","last_reported":1752772282,"current_range_meters":15200,"station_id":"ce4bhbh2rcd13ifvqepg","pricing_plan_id":"cebpf4jnsgd1na2vs0mg"},{"bike_id":"75aa3ba1-4e40-4980-a67a-1f80c3c1b8f9","system_id":"levelo_inurba_marseille","lat":43.28415,"lon":5.37516,"is_reserved":false,"is_disabled":false,"rental_uris":{"android":"levelo://app?vid=75aa3ba1-4e40-4980-a67a-1f80c3c1b8f9","ios":"levelo://app?vid=75aa3ba1-4e40-4980-a67a-1f80c3c1b8f9"},"vehicle_type_id":"4","last_reported":1752772282,"current_range_meters":15200,"station_id":"ce4bh412rcd13ifvqds0","pricing_plan_id":"cebpf4jnsgd1na2vs0mg"},{"bike_id":"b3af22de-804c-4b6e-9abb-abf742899dd0","system_id":"levelo_inurba_marseille","lat":43.24178,"lon":5.36377,"is_reserved":false,"is_disabled":false,"rental_uris":{"android":"levelo://app?vid=b3af22de-804c-4b6e-9abb-abf742899dd0","ios":"levelo://app?vid=b3af22de-804c-4b6e-9abb-abf742899dd0"},"vehicle_type_id":"4","last_reported":1752772282,"current_range_meters":15200,"station_id":"cpo36qri1sfpv3e86is0","pricing_plan_id":"cebpf4jnsgd1na2vs0mg"},{"bike_id":"a0c3326b-a8c0-4041-b544-a572264292af","system_id":"levelo_inurba_marseille","lat":43.30817,"lon":5.38151,"is_reserved":false,"is_disabled":false,"rental_uris":{"android":"levelo://app?vid=a0c3326b-a8c0-4041-b544-a572264292af","ios":"levelo://app?vid=a0c3326b-a8c0-4041-b544-a572264292af"},"vehicle_type_id":"4","last_reported":1752772282,"current_range_meters":15200,"station_id":"ce4bgt12rcd13ifvqce0","pricing_plan_id":"cebpf4jnsgd1na2vs0mg"},{"bike_id":"ae28ea44-06e0-468d-b104-f45ecdf62a40","system_id":"levelo_inurba_marseille","lat":43.23207,"lon":5.35553,"is_reserved":false,"is_disabled":false,"rental_uris":{"android":"levelo://app?vid=ae28ea44-06e0-468d-b104-f45ecdf62a40","ios":"levelo://app?vid=ae28ea44-06e0-468d-b104-f45ecdf62a40"},"vehicle_type_id":"4","last_reported":1752772282,"current_range_meters":16000,"station_id":"ce4bhu92rcd13ifvqi70","pricing_plan_id":"cebpf4jnsgd1na2vs0mg"},{"bike_id":"9c837b99-081f-4caa-a8a3-7d6dc61e9d18","system_id":"levelo_inurba_marseille","lat":43.23064,"lon":5.3549,"is_reserved":false,"is_disabled":false,"rental_uris":{"android":"levelo://app?vid=9c837b99-081f-4caa-a8a3-7d6dc61e9d18","ios":"levelo://app?vid=9c837b99-081f-4caa-a8a3-7d6dc61e9d18"},"vehicle_type_id":"4","last_reported":1752772282,"current_range_meters":16000,"station_id":"cpo3342slgdg3j2ifvpg","pricing_plan_id":"cebpf4jnsgd1na2vs0mg"},{"bike_id":"08047682-4828-4af3-8084-134e8a9fbd3f","system_id":"levelo_inurba_marseille","lat":43.26816,"lon":5.40258,"is_reserved":false,"is_disabled":false,"rental_uris":{"android":"levelo://app?vid=08047682-4828-4af3-8084-134e8a9fbd3f","ios":"levelo://app?vid=08047682-4828-4af3-8084-134e8a9fbd3f"},"vehicle_type_id":"4","last_reported":1752772282,"current_range_meters":16000,"station_id":"ce501612rcd8frsf0b60","pricing_plan_id":"cebpf4jnsgd1na2vs0mg"},{"bike_id":"a092d05c-8017-44f5-ba8a-35792463d6a3","system_id":"levelo_inurba_marseille","lat":43.225341,"lon":5.347918,"is_reserved":false,"is_disabled":false,"rental_uris":{"android":"levelo://app?vid=a092d05c-8017-44f5-ba8a-35792463d6a3","ios":"levelo://app?vid=a092d05c-8017-44f5-ba8a-35792463d6a3"},"vehicle_type_id":"4","last_reported":1752772282,"current_range_meters":16000,"station_id":"","pricing_plan_id":"cebpf4jnsgd1na2vs0mg"},{"bike_id":"dfc42a2e-0f95-4db0-9ba3-0397d8138378","system_id":"levelo_inurba_marseille","lat":43.28612,"lon":5.3511,"is_reserved":false,"is_disabled":false,"rental_uris":{"android":"levelo://app?vid=dfc42a2e-0f95-4db0-9ba3-0397d8138378","ios":"levelo://app?vid=dfc42a2e-0f95-4db0-9ba3-0397d8138378"},"vehicle_type_id":"4","last_reported":1752772282,"current_range_meters":16000,"station_id":"ce4bhch2rcd13ifvqeug","pricing_plan_id":"cebpf4jnsgd1na2vs0mg"},{"bike_id":"214e6057-eeae-4fa3-a3cb-c3134c66b409","system_id":"levelo_inurba_marseille","lat":43.230656,"lon":5.354881,"is_reserved":false,"is_disabled":false,"rental_uris":{"android":"levelo://app?vid=214e6057-eeae-4fa3-a3cb-c3134c66b409","ios":"levelo://app?vid=214e6057-eeae-4fa3-a3cb-c3134c66b409"},"vehicle_type_id":"4","last_reported":1752772282,"current_range_meters":16000,"station_id":"cpo3342slgdg3j2ifvpg","pricing_plan_id":"cebpf4jnsgd1na2vs0mg"},{"bike_id":"e8cb4e49-c3c1-4673-b1a4-18e6b3cf113a","system_id":"levelo_inurba_marseille","lat":43.29788,"lon":5.3809,"is_reserved":false,"is_disabled":false,"rental_uris":{"android":"levelo://app?vid=e8cb4e49-c3c1-4673-b1a4-18e6b3cf113a","ios":"levelo://app?vid=e8cb4e49-c3c1-4673-b1a4-18e6b3cf113a"},"vehicle_type_id":"4","last_reported":1752772282,"current_range_meters":16000,"station_id":"ce4bgip2rcd13ifvqbb0","pricing_plan_id":"cebpf4jnsgd1na2vs0mg"},{"bike_id":"d418fe0e-eb2e-4d0f-a1ff-ba5be7ee4a5c","system_id":"levelo_inurba_marseille","lat":43.28635,"lon":5.35085,"is_reserved":false,"is_disabled":false,"rental_uris":{"android":"levelo://app?vid=d418fe0e-eb2e-4d0f-a1ff-ba5be7ee4a5c","ios":"levelo://app?vid=d418fe0e-eb2e-4d0f-a1ff-ba5be7ee4a5c"},"vehicle_type_id":"4","last_reported":1752772282,"current_range_meters":16000,"station_id":"ce4bhch2rcd13ifvqeug","pricing_plan_id":"cebpf4jnsgd1na2vs0mg"},{"bike_id":"0a0d6a1e-9764-49da-afe9-af83868d03a3","system_id":"levelo_inurba_marseille","lat":43.21194,"lon":5.3507,"is_reserved":false,"is_disabled":false,"rental_uris":{"android":"levelo://app?vid=0a0d6a1e-9764-49da-afe9-af83868d03a3","ios":"levelo://app?vid=0a0d6a1e-9764-49da-afe9-af83868d03a3"},"vehicle_type_id":"4","last_reported":1752772282,"current_range_meters":16000,"station_id":"st_cvj6sg6p6f1abm77japg","pricing_plan_id":"cebpf4jnsgd1na2vs0mg"},{"bike_id":"2272a1cb-30d4-47dd-bed5-39b01483f853","system_id":"levelo_inurba_marseille","lat":43.22925,"lon":5.35376,"is_reserved":false,"is_disabled":false,"rental_uris":{"android":"levelo://app?vid=2272a1cb-30d4-47dd-bed5-39b01483f853","ios":"levelo://app?vid=2272a1cb-30d4-47dd-bed5-39b01483f853"},"vehicle_type_id":"4","last_reported":1752772282,"current_range_meters":16000,"station_id":"cpo3532slgdg3j2ikp40","pricing_plan_id":"cebpf4jnsgd1na2vs0mg"},{"bike_id":"7e45c8a4-e7f1-477f-864e-3ae6f238ef5a","system_id":"levelo_inurba_marseille","lat":43.21196,"lon":5.35079,"is_reserved":false,"is_disabled":false,"rental_uris":{"android":"levelo://app?vid=7e45c8a4-e7f1-477f-864e-3ae6f238ef5a","ios":"levelo://app?vid=7e45c8a4-e7f1-477f-864e-3ae6f238ef5a"},"vehicle_type_id":"4","last_reported":1752772282,"current_range_meters":16000,"station_id":"st_cvj6sg6p6f1abm77japg","pricing_plan_id":"cebpf4jnsgd1na2vs0mg"},{"bike_id":"531dca68-8617-41b0-a6cd-abffc94e1d45","system_id":"levelo_inurba_marseille","lat":43.31241,"lon":5.37319,"is_reserved":false,"is_disabled":false,"rental_uris":{"android":"levelo://app?vid=531dca68-8617-41b0-a6cd-abffc94e1d45","ios":"levelo://app?vid=531dca68-8617-41b0-a6cd-abffc94e1d45"},"vehicle_type_id":"4","last_reported":1752772282,"current_range_meters":16000,"station_id":"","pricing_plan_id":"cebpf4jnsgd1na2vs0mg"},{"bike_id":"0fdd494b-39a8-4e92-9c31-734bc7a6580e","system_id":"levelo_inurba_marseille","lat":43.2848,"lon":5.38423,"is_reserved":false,"is_disabled":false,"rental_uris":{"android":"levelo://app?vid=0fdd494b-39a8-4e92-9c31-734bc7a6580e","ios":"levelo://app?vid=0fdd494b-39a8-4e92-9c31-734bc7a6580e"},"vehicle_type_id":"4","last_reported":1752772282,"current_range_meters":16400,"station_id":"ce4bh512rcd13ifvqe3g","pricing_plan_id":"cebpf4jnsgd1na2vs0mg"},{"bike_id":"cb8091b7-17f1-4f7d-a686-930f4e5d8fbb","system_id":"levelo_inurba_marseille","lat":43.308,"lon":5.38179,"is_reserved":false,"is_disabled":false,"rental_uris":{"android":"levelo://app?vid=cb8091b7-17f1-4f7d-a686-930f4e5d8fbb","ios":"levelo://app?vid=cb8091b7-17f1-4f7d-a686-930f4e5d8fbb"},"vehicle_type_id":"4","last_reported":1752772282,"current_range_meters":16400,"station_id":"ce4bgt12rcd13ifvqce0","pricing_plan_id":"cebpf4jnsgd1na2vs0mg"},{"bike_id":"31695fe3-ba1a-451d-a7a2-e6e81aefdddc","system_id":"levelo_inurba_marseille","lat":43.2862,"lon":5.35107,"is_reserved":false,"is_disabled":true,"rental_uris":{"android":"levelo://app?vid=31695fe3-ba1a-451d-a7a2-e6e81aefdddc","ios":"levelo://app?vid=31695fe3-ba1a-451d-a7a2-e6e81aefdddc"},"vehicle_type_id":"4","last_reported":1752772282,"current_range_meters":16400,"station_id":"ce4bhch2rcd13ifvqeug","pricing_plan_id":"cebpf4jnsgd1na2vs0mg"},{"bike_id":"e1bdd5b7-97aa-464b-8778-850b8f5d3325","system_id":"levelo_inurba_marseille","lat":43.24083,"lon":5.37756,"is_reserved":false,"is_disabled":false,"rental_uris":{"android":"levelo://app?vid=e1bdd5b7-97aa-464b-8778-850b8f5d3325","ios":"levelo://app?vid=e1bdd5b7-97aa-464b-8778-850b8f5d3325"},"vehicle_type_id":"4","last_reported":1752772282,"current_range_meters":16400,"station_id":"ce4bhnp2rcd13ifvqgvg","pricing_plan_id":"cebpf4jnsgd1na2vs0mg"},{"bike_id":"d0573d96-ddb4-4622-bd15-49483cac3810","system_id":"levelo_inurba_marseille","lat":43.258642,"lon":5.399028,"is_reserved":false,"is_disabled":true,"rental_uris":{"android":"levelo://app?vid=d0573d96-ddb4-4622-bd15-49483cac3810","ios":"levelo://app?vid=d0573d96-ddb4-4622-bd15-49483cac3810"},"vehicle_type_id":"4","last_reported":1752772282,"current_range_meters":16400,"station_id":"ce4bhl92rcd13ifvqghg","pricing_plan_id":"cebpf4jnsgd1na2vs0mg"},{"bike_id":"c3341e4c-276d-48cf-9580-c3f766d86c01","system_id":"levelo_inurba_marseille","lat":43.2862,"lon":5.35099,"is_reserved":false,"is_disabled":false,"rental_uris":{"android":"levelo://app?vid=c3341e4c-276d-48cf-9580-c3f766d86c01","ios":"levelo://app?vid=c3341e4c-276d-48cf-9580-c3f766d86c01"},"vehicle_type_id":"4","last_reported":1752772282,"current_range_meters":16400,"station_id":"ce4bhch2rcd13ifvqeug","pricing_plan_id":"cebpf4jnsgd1na2vs0mg"},{"bike_id":"aa48001e-d4fe-4d83-b9d9-a2f504d2897f","system_id":"levelo_inurba_marseille","lat":43.26684,"lon":5.38273,"is_reserved":false,"is_disabled":false,"rental_uris":{"android":"levelo://app?vid=aa48001e-d4fe-4d83-b9d9-a2f504d2897f","ios":"levelo://app?vid=aa48001e-d4fe-4d83-b9d9-a2f504d2897f"},"vehicle_type_id":"4","last_reported":1752772282,"current_range_meters":16400,"station_id":"ce4bhg92rcd13ifvqf90","pricing_plan_id":"cebpf4jnsgd1na2vs0mg"},{"bike_id":"f729b7da-8f63-4ac8-aca6-93bdded56137","system_id":"levelo_inurba_marseille","lat":43.30425,"lon":5.41284,"is_reserved":false,"is_disabled":false,"rental_uris":{"android":"levelo://app?vid=f729b7da-8f63-4ac8-aca6-93bdded56137","ios":"levelo://app?vid=f729b7da-8f63-4ac8-aca6-93bdded56137"},"vehicle_type_id":"4","last_reported":1752772282,"current_range_meters":16400,"station_id":"ce4bhop2rcd13ifvqh8g","pricing_plan_id":"cebpf4jnsgd1na2vs0mg"},{"bike_id":"297914b4-f29d-4efa-a16f-6b7800ec2454","system_id":"levelo_inurba_marseille","lat":43.28884,"lon":5.37137,"is_reserved":false,"is_disabled":false,"rental_uris":{"android":"levelo://app?vid=297914b4-f29d-4efa-a16f-6b7800ec2454","ios":"levelo://app?vid=297914b4-f29d-4efa-a16f-6b7800ec2454"},"vehicle_type_id":"4","last_reported":1752772282,"current_range_meters":16400,"station_id":"","pricing_plan_id":"cebpf4jnsgd1na2vs0mg"},{"bike_id":"f4c5a70d-c47a-44e3-8427-6ec8d53c8fe1","system_id":"levelo_inurba_marseille","lat":43.2826,"lon":5.35026,"is_reserved":false,"is_disabled":false,"rental_uris":{"android":"levelo://app?vid=f4c5a70d-c47a-44e3-8427-6ec8d53c8fe1","ios":"levelo://app?vid=f4c5a70d-c47a-44e3-8427-6ec8d53c8fe1"},"vehicle_type_id":"4","last_reported":1752772282,"current_range_meters":16400,"station_id":"ce4bhbp2rcd13ifvqerg","pricing_plan_id":"cebpf4jnsgd1na2vs0mg"},{"bike_id":"b2484387-3718-4326-9557-1904edeba370","system_id":"levelo_inurba_marseille","lat":43.27839,"lon":5.39196,"is_reserved":false,"is_disabled":false,"rental_uris":{"android":"levelo://app?vid=b2484387-3718-4326-9557-1904edeba370","ios":"levelo://app?vid=b2484387-3718-4326-9557-1904edeba370"},"vehicle_type_id":"4","last_reported":1752772282,"current_range_meters":15200,"station_id":"ce4bhjp2rcd13ifvqga0","pricing_plan_id":"cebpf4jnsgd1na2vs0mg"},{"bike_id":"b900d64b-35d4-4d6c-9be3-53917bd5ac56","system_id":"levelo_inurba_marseille","lat":43.28286,"lon":5.35065,"is_reserved":false,"is_disabled":false,"rental_uris":{"android":"levelo://app?vid=b900d64b-35d4-4d6c-9be3-53917bd5ac56","ios":"levelo://app?vid=b900d64b-35d4-4d6c-9be3-53917bd5ac56"},"vehicle_type_id":"4","last_reported":1752772282,"current_range_meters":16400,"station_id":"ce4bhbp2rcd13ifvqerg","pricing_plan_id":"cebpf4jnsgd1na2vs0mg"},{"bike_id":"ea8df781-3e64-40ab-8f51-de6912e7a4a5","system_id":"levelo_inurba_marseille","lat":43.26227,"lon":5.37426,"is_reserved":false,"is_disabled":false,"rental_uris":{"android":"levelo://app?vid=ea8df781-3e64-40ab-8f51-de6912e7a4a5","ios":"levelo://app?vid=ea8df781-3e64-40ab-8f51-de6912e7a4a5"},"vehicle_type_id":"4","last_reported":1752772282,"current_range_meters":16400,"station_id":"","pricing_plan_id":"cebpf4jnsgd1na2vs0mg"},{"bike_id":"060f18c0-b068-47eb-bf7b-84da14711ef1","system_id":"levelo_inurba_marseille","lat":43.29035,"lon":5.35614,"is_reserved":false,"is_disabled":false,"rental_uris":{"android":"levelo://app?vid=060f18c0-b068-47eb-bf7b-84da14711ef1","ios":"levelo://app?vid=060f18c0-b068-47eb-bf7b-84da14711ef1"},"vehicle_type_id":"4","last_reported":1752772282,"current_range_meters":16400,"station_id":"ce4bhb92rcd13ifvqen0","pricing_plan_id":"cebpf4jnsgd1na2vs0mg"},{"bike_id":"6be86623-c65c-4a0d-b3a4-c58891bfa931","system_id":"levelo_inurba_marseille","lat":43.22539,"lon":5.3477,"is_reserved":false,"is_disabled":false,"rental_uris":{"android":"levelo://app?vid=6be86623-c65c-4a0d-b3a4-c58891bfa931","ios":"levelo://app?vid=6be86623-c65c-4a0d-b3a4-c58891bfa931"},"vehicle_type_id":"4","last_reported":1752772282,"current_range_meters":16800,"station_id":"st_cvj5dfep6f1abm77gieg","pricing_plan_id":"cebpf4jnsgd1na2vs0mg"},{"bike_id":"f0ad3d26-7975-4172-92a8-669aa0c82fc6","system_id":"levelo_inurba_marseille","lat":43.239673,"lon":5.366397,"is_reserved":false,"is_disabled":false,"rental_uris":{"android":"levelo://app?vid=f0ad3d26-7975-4172-92a8-669aa0c82fc6","ios":"levelo://app?vid=f0ad3d26-7975-4172-92a8-669aa0c82fc6"},"vehicle_type_id":"4","last_reported":1752772282,"current_range_meters":16800,"station_id":"ce4bhi12rcd13ifvqfp0","pricing_plan_id":"cebpf4jnsgd1na2vs0mg"},{"bike_id":"b9c220fa-ce21-46e5-9c5b-52d91725030b","system_id":"levelo_inurba_marseille","lat":43.22936,"lon":5.35376,"is_reserved":false,"is_disabled":false,"rental_uris":{"android":"levelo://app?vid=b9c220fa-ce21-46e5-9c5b-52d91725030b","ios":"levelo://app?vid=b9c220fa-ce21-46e5-9c5b-52d91725030b"},"vehicle_type_id":"4","last_reported":1752772282,"current_range_meters":16800,"station_id":"cpo3532slgdg3j2ikp40","pricing_plan_id":"cebpf4jnsgd1na2vs0mg"},{"bike_id":"825c4350-88cb-4d0f-9e41-01807998b0ef","system_id":"levelo_inurba_marseille","lat":43.225272,"lon":5.347882,"is_reserved":false,"is_disabled":false,"rental_uris":{"android":"levelo://app?vid=825c4350-88cb-4d0f-9e41-01807998b0ef","ios":"levelo://app?vid=825c4350-88cb-4d0f-9e41-01807998b0ef"},"vehicle_type_id":"4","last_reported":1752772282,"current_range_meters":16800,"station_id":"st_cvj5dfep6f1abm77gieg","pricing_plan_id":"cebpf4jnsgd1na2vs0mg"},{"bike_id":"660d6db3-3d46-4bf1-a04a-db097cd3027d","system_id":"levelo_inurba_marseille","lat":43.28294,"lon":5.35053,"is_reserved":false,"is_disabled":false,"rental_uris":{"android":"levelo://app?vid=660d6db3-3d46-4bf1-a04a-db097cd3027d","ios":"levelo://app?vid=660d6db3-3d46-4bf1-a04a-db097cd3027d"},"vehicle_type_id":"4","last_reported":1752772282,"current_range_meters":16800,"station_id":"ce4bhbp2rcd13ifvqerg","pricing_plan_id":"cebpf4jnsgd1na2vs0mg"},{"bike_id":"e54582ed-ba92-4640-a97f-9e97144ce87f","system_id":"levelo_inurba_marseille","lat":43.32276,"lon":5.40659,"is_reserved":false,"is_disabled":false,"rental_uris":{"android":"levelo://app?vid=e54582ed-ba92-4640-a97f-9e97144ce87f","ios":"levelo://app?vid=e54582ed-ba92-4640-a97f-9e97144ce87f"},"vehicle_type_id":"4","last_reported":1752772282,"current_range_meters":16800,"station_id":"","pricing_plan_id":"cebpf4jnsgd1na2vs0mg"},{"bike_id":"f880ee96-c065-450a-a1a6-ccd8b757954c","system_id":"levelo_inurba_marseille","lat":43.28617,"lon":5.35107,"is_reserved":false,"is_disabled":false,"rental_uris":{"android":"levelo://app?vid=f880ee96-c065-450a-a1a6-ccd8b757954c","ios":"levelo://app?vid=f880ee96-c065-450a-a1a6-ccd8b757954c"},"vehicle_type_id":"4","last_reported":1752772282,"current_range_meters":16800,"station_id":"ce4bhch2rcd13ifvqeug","pricing_plan_id":"cebpf4jnsgd1na2vs0mg"},{"bike_id":"2f49c0bd-1fa3-4487-8922-9564c7b35ecb","system_id":"levelo_inurba_marseille","lat":43.27498,"lon":5.42459,"is_reserved":false,"is_disabled":false,"rental_uris":{"android":"levelo://app?vid=2f49c0bd-1fa3-4487-8922-9564c7b35ecb","ios":"levelo://app?vid=2f49c0bd-1fa3-4487-8922-9564c7b35ecb"},"vehicle_type_id":"4","last_reported":1752772282,"current_range_meters":16800,"station_id":"ce4bhn92rcd13ifvqgrg","pricing_plan_id":"cebpf4jnsgd1na2vs0mg"},{"bike_id":"2ded6291-a823-49b5-9bc5-1374dd62faea","system_id":"levelo_inurba_marseille","lat":43.2439,"lon":5.37055,"is_reserved":false,"is_disabled":false,"rental_uris":{"android":"levelo://app?vid=2ded6291-a823-49b5-9bc5-1374dd62faea","ios":"levelo://app?vid=2ded6291-a823-49b5-9bc5-1374dd62faea"},"vehicle_type_id":"4","last_reported":1752772282,"current_range_meters":16800,"station_id":"ce4bhhh2rcd13ifvqfk0","pricing_plan_id":"cebpf4jnsgd1na2vs0mg"},{"bike_id":"b5623f38-acf1-4e4a-9f40-dd52d10efb64","system_id":"levelo_inurba_marseille","lat":43.2901,"lon":5.35606,"is_reserved":false,"is_disabled":false,"rental_uris":{"android":"levelo://app?vid=b5623f38-acf1-4e4a-9f40-dd52d10efb64","ios":"levelo://app?vid=b5623f38-acf1-4e4a-9f40-dd52d10efb64"},"vehicle_type_id":"4","last_reported":1752772282,"current_range_meters":17200,"station_id":"ce4bhb92rcd13ifvqen0","pricing_plan_id":"cebpf4jnsgd1na2vs0mg"},{"bike_id":"dc5f5a9e-bdfb-495e-902a-909f8687d937","system_id":"levelo_inurba_marseille","lat":43.29384,"lon":5.43355,"is_reserved":false,"is_disabled":false,"rental_uris":{"android":"levelo://app?vid=dc5f5a9e-bdfb-495e-902a-909f8687d937","ios":"levelo://app?vid=dc5f5a9e-bdfb-495e-902a-909f8687d937"},"vehicle_type_id":"4","last_reported":1752772282,"current_range_meters":17200,"station_id":"","pricing_plan_id":"cebpf4jnsgd1na2vs0mg"},{"bike_id":"084eace8-045f-4012-9455-c501cad7ce10","system_id":"levelo_inurba_marseille","lat":43.22514,"lon":5.34775,"is_reserved":false,"is_disabled":false,"rental_uris":{"android":"levelo://app?vid=084eace8-045f-4012-9455-c501cad7ce10","ios":"levelo://app?vid=084eace8-045f-4012-9455-c501cad7ce10"},"vehicle_type_id":"4","last_reported":1752772282,"current_range_meters":17200,"station_id":"st_cvj5dfep6f1abm77gieg","pricing_plan_id":"cebpf4jnsgd1na2vs0mg"},{"bike_id":"ed822664-f978-4865-b4d3-8b7323601ddf","system_id":"levelo_inurba_marseille","lat":43.29828,"lon":5.39322,"is_reserved":false,"is_disabled":true,"rental_uris":{"android":"levelo://app?vid=ed822664-f978-4865-b4d3-8b7323601ddf","ios":"levelo://app?vid=ed822664-f978-4865-b4d3-8b7323601ddf"},"vehicle_type_id":"4","last_reported":1752772282,"current_range_meters":17200,"station_id":"chh1huq6cuj3fo74tm60","pricing_plan_id":"cebpf4jnsgd1na2vs0mg"},{"bike_id":"de58234c-ab03-426d-a473-6a6b5652d2f7","system_id":"levelo_inurba_marseille","lat":43.28276,"lon":5.35074,"is_reserved":false,"is_disabled":false,"rental_uris":{"android":"levelo://app?vid=de58234c-ab03-426d-a473-6a6b5652d2f7","ios":"levelo://app?vid=de58234c-ab03-426d-a473-6a6b5652d2f7"},"vehicle_type_id":"4","last_reported":1752772282,"current_range_meters":17200,"station_id":"ce4bhbp2rcd13ifvqerg","pricing_plan_id":"cebpf4jnsgd1na2vs0mg"},{"bike_id":"41ba12c0-b3bf-43fa-b2e1-e4adacd47cc6","system_id":"levelo_inurba_marseille","lat":43.22507,"lon":5.34773,"is_reserved":false,"is_disabled":false,"rental_uris":{"android":"levelo://app?vid=41ba12c0-b3bf-43fa-b2e1-e4adacd47cc6","ios":"levelo://app?vid=41ba12c0-b3bf-43fa-b2e1-e4adacd47cc6"},"vehicle_type_id":"4","last_reported":1752772282,"current_range_meters":17200,"station_id":"st_cvj5dfep6f1abm77gieg","pricing_plan_id":"cebpf4jnsgd1na2vs0mg"},{"bike_id":"5b4e5f0f-cac3-450a-9463-e6a77e2c277e","system_id":"levelo_inurba_marseille","lat":43.246423,"lon":5.388921,"is_reserved":false,"is_disabled":true,"rental_uris":{"android":"levelo://app?vid=5b4e5f0f-cac3-450a-9463-e6a77e2c277e","ios":"levelo://app?vid=5b4e5f0f-cac3-450a-9463-e6a77e2c277e"},"vehicle_type_id":"4","last_reported":1752772282,"current_range_meters":17200,"station_id":"ce4bhg12rcd13ifvqf60","pricing_plan_id":"cebpf4jnsgd1na2vs0mg"},{"bike_id":"be60c88c-1453-4626-be80-200258f79626","system_id":"levelo_inurba_marseille","lat":43.23191,"lon":5.3555,"is_reserved":false,"is_disabled":false,"rental_uris":{"android":"levelo://app?vid=be60c88c-1453-4626-be80-200258f79626","ios":"levelo://app?vid=be60c88c-1453-4626-be80-200258f79626"},"vehicle_type_id":"4","last_reported":1752772282,"current_range_meters":17200,"station_id":"ce4bhu92rcd13ifvqi70","pricing_plan_id":"cebpf4jnsgd1na2vs0mg"},{"bike_id":"8ad08c3e-43aa-4379-9df3-4d1fccb8bc0e","system_id":"levelo_inurba_marseille","lat":43.28395,"lon":5.3752,"is_reserved":false,"is_disabled":false,"rental_uris":{"android":"levelo://app?vid=8ad08c3e-43aa-4379-9df3-4d1fccb8bc0e","ios":"levelo://app?vid=8ad08c3e-43aa-4379-9df3-4d1fccb8bc0e"},"vehicle_type_id":"4","last_reported":1752772282,"current_range_meters":17600,"station_id":"ce4bh412rcd13ifvqds0","pricing_plan_id":"cebpf4jnsgd1na2vs0mg"},{"bike_id":"c6db0f6a-96fe-4e1d-8ded-c2ef38c9bab4","system_id":"levelo_inurba_marseille","lat":43.304183,"lon":5.412838,"is_reserved":false,"is_disabled":true,"rental_uris":{"android":"levelo://app?vid=c6db0f6a-96fe-4e1d-8ded-c2ef38c9bab4","ios":"levelo://app?vid=c6db0f6a-96fe-4e1d-8ded-c2ef38c9bab4"},"vehicle_type_id":"4","last_reported":1752772282,"current_range_meters":17600,"station_id":"ce4bhop2rcd13ifvqh8g","pricing_plan_id":"cebpf4jnsgd1na2vs0mg"},{"bike_id":"715485f6-4125-4423-80fd-2024c0a54a34","system_id":"levelo_inurba_marseille","lat":43.28286,"lon":5.35068,"is_reserved":false,"is_disabled":false,"rental_uris":{"android":"levelo://app?vid=715485f6-4125-4423-80fd-2024c0a54a34","ios":"levelo://app?vid=715485f6-4125-4423-80fd-2024c0a54a34"},"vehicle_type_id":"4","last_reported":1752772282,"current_range_meters":17600,"station_id":"ce4bhbp2rcd13ifvqerg","pricing_plan_id":"cebpf4jnsgd1na2vs0mg"},{"bike_id":"b1411f20-9712-40f9-a9cc-407b4e40f865","system_id":"levelo_inurba_marseille","lat":43.26822,"lon":5.41482,"is_reserved":false,"is_disabled":false,"rental_uris":{"android":"levelo://app?vid=b1411f20-9712-40f9-a9cc-407b4e40f865","ios":"levelo://app?vid=b1411f20-9712-40f9-a9cc-407b4e40f865"},"vehicle_type_id":"4","last_reported":1752772282,"current_range_meters":17600,"station_id":"","pricing_plan_id":"cebpf4jnsgd1na2vs0mg"},{"bike_id":"ea8239c6-d099-42a9-b54c-af65493c715d","system_id":"levelo_inurba_marseille","lat":43.28415,"lon":5.34963,"is_reserved":false,"is_disabled":false,"rental_uris":{"android":"levelo://app?vid=ea8239c6-d099-42a9-b54c-af65493c715d","ios":"levelo://app?vid=ea8239c6-d099-42a9-b54c-af65493c715d"},"vehicle_type_id":"4","last_reported":1752772282,"current_range_meters":17600,"station_id":"ce4bhbh2rcd13ifvqepg","pricing_plan_id":"cebpf4jnsgd1na2vs0mg"},{"bike_id":"0c18f940-d6eb-4845-9a52-5844666ea75f","system_id":"levelo_inurba_marseille","lat":43.29225,"lon":5.36051,"is_reserved":false,"is_disabled":false,"rental_uris":{"android":"levelo://app?vid=0c18f940-d6eb-4845-9a52-5844666ea75f","ios":"levelo://app?vid=0c18f940-d6eb-4845-9a52-5844666ea75f"},"vehicle_type_id":"4","last_reported":1752772282,"current_range_meters":17600,"station_id":"ce4bhbh2rcd13ifvqeqg","pricing_plan_id":"cebpf4jnsgd1na2vs0mg"},{"bike_id":"c2aed631-8827-4d93-b9a3-6ae1fc3041a3","system_id":"levelo_inurba_marseille","lat":43.29256,"lon":5.38427,"is_reserved":false,"is_disabled":false,"rental_uris":{"android":"levelo://app?vid=c2aed631-8827-4d93-b9a3-6ae1fc3041a3","ios":"levelo://app?vid=c2aed631-8827-4d93-b9a3-6ae1fc3041a3"},"vehicle_type_id":"4","last_reported":1752772282,"current_range_meters":17600,"station_id":"ce4bh692rcd13ifvqea0","pricing_plan_id":"cebpf4jnsgd1na2vs0mg"},{"bike_id":"cef49048-b159-45bf-be58-0853950d8a4d","system_id":"levelo_inurba_marseille","lat":43.28944,"lon":5.36402,"is_reserved":false,"is_disabled":false,"rental_uris":{"android":"levelo://app?vid=cef49048-b159-45bf-be58-0853950d8a4d","ios":"levelo://app?vid=cef49048-b159-45bf-be58-0853950d8a4d"},"vehicle_type_id":"4","last_reported":1752772282,"current_range_meters":17200,"station_id":"ce4bhc92rcd13ifvqetg","pricing_plan_id":"cebpf4jnsgd1na2vs0mg"},{"bike_id":"31dfe556-121d-4421-bbc0-d3748c3d4f27","system_id":"levelo_inurba_marseille","lat":43.25493,"lon":5.37646,"is_reserved":false,"is_disabled":false,"rental_uris":{"android":"levelo://app?vid=31dfe556-121d-4421-bbc0-d3748c3d4f27","ios":"levelo://app?vid=31dfe556-121d-4421-bbc0-d3748c3d4f27"},"vehicle_type_id":"4","last_reported":1752772282,"current_range_meters":17600,"station_id":"ce4bhh12rcd13ifvqff0","pricing_plan_id":"cebpf4jnsgd1na2vs0mg"},{"bike_id":"ea75efb2-ac36-4344-b925-58a5bd2f6327","system_id":"levelo_inurba_marseille","lat":43.271854,"lon":5.362776,"is_reserved":false,"is_disabled":false,"rental_uris":{"android":"levelo://app?vid=ea75efb2-ac36-4344-b925-58a5bd2f6327","ios":"levelo://app?vid=ea75efb2-ac36-4344-b925-58a5bd2f6327"},"vehicle_type_id":"4","last_reported":1752772282,"current_range_meters":17600,"station_id":"","pricing_plan_id":"cebpf4jnsgd1na2vs0mg"},{"bike_id":"80d49323-b2bc-495c-b986-048da130d48f","system_id":"levelo_inurba_marseille","lat":43.240775,"lon":5.377552,"is_reserved":false,"is_disabled":false,"rental_uris":{"android":"levelo://app?vid=80d49323-b2bc-495c-b986-048da130d48f","ios":"levelo://app?vid=80d49323-b2bc-495c-b986-048da130d48f"},"vehicle_type_id":"4","last_reported":1752772282,"current_range_meters":17600,"station_id":"ce4bhnp2rcd13ifvqgvg","pricing_plan_id":"cebpf4jnsgd1na2vs0mg"},{"bike_id":"21c28a41-5988-44fd-bd9c-8737f24b78b9","system_id":"levelo_inurba_marseille","lat":43.27227,"lon":5.40114,"is_reserved":false,"is_disabled":false,"rental_uris":{"android":"levelo://app?vid=21c28a41-5988-44fd-bd9c-8737f24b78b9","ios":"levelo://app?vid=21c28a41-5988-44fd-bd9c-8737f24b78b9"},"vehicle_type_id":"4","last_reported":1752772282,"current_range_meters":17600,"station_id":"","pricing_plan_id":"cebpf4jnsgd1na2vs0mg"},{"bike_id":"409515f8-3415-426d-b0c7-61f840c7c187","system_id":"levelo_inurba_marseille","lat":43.22483,"lon":5.34789,"is_reserved":false,"is_disabled":false,"rental_uris":{"android":"levelo://app?vid=409515f8-3415-426d-b0c7-61f840c7c187","ios":"levelo://app?vid=409515f8-3415-426d-b0c7-61f840c7c187"},"vehicle_type_id":"4","last_reported":1752772282,"current_range_meters":17600,"station_id":"st_cvj5dfep6f1abm77gieg","pricing_plan_id":"cebpf4jnsgd1na2vs0mg"},{"bike_id":"f99ff1e4-4111-475a-aa3e-cb902d081040","system_id":"levelo_inurba_marseille","lat":43.23198,"lon":5.35549,"is_reserved":false,"is_disabled":false,"rental_uris":{"android":"levelo://app?vid=f99ff1e4-4111-475a-aa3e-cb902d081040","ios":"levelo://app?vid=f99ff1e4-4111-475a-aa3e-cb902d081040"},"vehicle_type_id":"4","last_reported":1752772282,"current_range_meters":18000,"station_id":"ce4bhu92rcd13ifvqi70","pricing_plan_id":"cebpf4jnsgd1na2vs0mg"},{"bike_id":"af8e8423-c1f8-4d27-9f39-e1952ce554e9","system_id":"levelo_inurba_marseille","lat":43.2972,"lon":5.3788,"is_reserved":false,"is_disabled":false,"rental_uris":{"android":"levelo://app?vid=af8e8423-c1f8-4d27-9f39-e1952ce554e9","ios":"levelo://app?vid=af8e8423-c1f8-4d27-9f39-e1952ce554e9"},"vehicle_type_id":"4","last_reported":1752772282,"current_range_meters":18000,"station_id":"","pricing_plan_id":"cebpf4jnsgd1na2vs0mg"},{"bike_id":"4de3841d-dbae-4013-acd9-10f95566d8dd","system_id":"levelo_inurba_marseille","lat":43.25872,"lon":5.39895,"is_reserved":false,"is_disabled":false,"rental_uris":{"android":"levelo://app?vid=4de3841d-dbae-4013-acd9-10f95566d8dd","ios":"levelo://app?vid=4de3841d-dbae-4013-acd9-10f95566d8dd"},"vehicle_type_id":"4","last_reported":1752772282,"current_range_meters":18000,"station_id":"ce4bhl92rcd13ifvqghg","pricing_plan_id":"cebpf4jnsgd1na2vs0mg"},{"bike_id":"b97bdc68-8b25-4847-ba94-55002b8dde8c","system_id":"levelo_inurba_marseille","lat":43.28422,"lon":5.34982,"is_reserved":false,"is_disabled":false,"rental_uris":{"android":"levelo://app?vid=b97bdc68-8b25-4847-ba94-55002b8dde8c","ios":"levelo://app?vid=b97bdc68-8b25-4847-ba94-55002b8dde8c"},"vehicle_type_id":"4","last_reported":1752772282,"current_range_meters":18000,"station_id":"ce4bhbh2rcd13ifvqepg","pricing_plan_id":"cebpf4jnsgd1na2vs0mg"},{"bike_id":"dfd880d2-6eec-4da4-9fba-516edf934611","system_id":"levelo_inurba_marseille","lat":43.28858,"lon":5.35848,"is_reserved":false,"is_disabled":false,"rental_uris":{"android":"levelo://app?vid=dfd880d2-6eec-4da4-9fba-516edf934611","ios":"levelo://app?vid=dfd880d2-6eec-4da4-9fba-516edf934611"},"vehicle_type_id":"4","last_reported":1752772282,"current_range_meters":18000,"station_id":"ce4bhb12rcd13ifvqem0","pricing_plan_id":"cebpf4jnsgd1na2vs0mg"},{"bike_id":"ce40837d-3edf-4cc2-a747-2f8d4ee2c7fb","system_id":"levelo_inurba_marseille","lat":43.22522,"lon":5.34757,"is_reserved":false,"is_disabled":false,"rental_uris":{"android":"levelo://app?vid=ce40837d-3edf-4cc2-a747-2f8d4ee2c7fb","ios":"levelo://app?vid=ce40837d-3edf-4cc2-a747-2f8d4ee2c7fb"},"vehicle_type_id":"4","last_reported":1752772282,"current_range_meters":18000,"station_id":"st_cvj5dfep6f1abm77gieg","pricing_plan_id":"cebpf4jnsgd1na2vs0mg"},{"bike_id":"9e46aa88-7b19-47c3-b789-71b8902b53cb","system_id":"levelo_inurba_marseille","lat":43.281541,"lon":5.426455,"is_reserved":false,"is_disabled":false,"rental_uris":{"android":"levelo://app?vid=9e46aa88-7b19-47c3-b789-71b8902b53cb","ios":"levelo://app?vid=9e46aa88-7b19-47c3-b789-71b8902b53cb"},"vehicle_type_id":"4","last_reported":1752772282,"current_range_meters":18000,"station_id":"ce4bhnh2rcd13ifvqgug","pricing_plan_id":"cebpf4jnsgd1na2vs0mg"},{"bike_id":"66867a12-d88b-4820-bc2a-9a8726321e3c","system_id":"levelo_inurba_marseille","lat":43.295549,"lon":5.423009,"is_reserved":false,"is_disabled":false,"rental_uris":{"android":"levelo://app?vid=66867a12-d88b-4820-bc2a-9a8726321e3c","ios":"levelo://app?vid=66867a12-d88b-4820-bc2a-9a8726321e3c"},"vehicle_type_id":"4","last_reported":1752772282,"current_range_meters":18000,"station_id":"ce4bhph2rcd13ifvqhdg","pricing_plan_id":"cebpf4jnsgd1na2vs0mg"},{"bike_id":"00cb9e03-8028-497f-8c29-77cd4bf2e8d6","system_id":"levelo_inurba_marseille","lat":43.28613,"lon":5.351,"is_reserved":false,"is_disabled":true,"rental_uris":{"android":"levelo://app?vid=00cb9e03-8028-497f-8c29-77cd4bf2e8d6","ios":"levelo://app?vid=00cb9e03-8028-497f-8c29-77cd4bf2e8d6"},"vehicle_type_id":"4","last_reported":1752772282,"current_range_meters":18000,"station_id":"ce4bhch2rcd13ifvqeug","pricing_plan_id":"cebpf4jnsgd1na2vs0mg"},{"bike_id":"4f36cb10-0382-4e4c-b55c-be7f8ff92a0c","system_id":"levelo_inurba_marseille","lat":43.29263,"lon":5.38459,"is_reserved":false,"is_disabled":false,"rental_uris":{"android":"levelo://app?vid=4f36cb10-0382-4e4c-b55c-be7f8ff92a0c","ios":"levelo://app?vid=4f36cb10-0382-4e4c-b55c-be7f8ff92a0c"},"vehicle_type_id":"4","last_reported":1752772282,"current_range_meters":18000,"station_id":"ce4bh692rcd13ifvqea0","pricing_plan_id":"cebpf4jnsgd1na2vs0mg"},{"bike_id":"12717973-3258-43e4-91e2-6d6cc1b5725a","system_id":"levelo_inurba_marseille","lat":43.28916,"lon":5.38397,"is_reserved":false,"is_disabled":true,"rental_uris":{"android":"levelo://app?vid=12717973-3258-43e4-91e2-6d6cc1b5725a","ios":"levelo://app?vid=12717973-3258-43e4-91e2-6d6cc1b5725a"},"vehicle_type_id":"4","last_reported":1752772282,"current_range_meters":18000,"station_id":"ce4bh612rcd13ifvqe6g","pricing_plan_id":"cebpf4jnsgd1na2vs0mg"},{"bike_id":"1ac758f2-b855-4dbb-978e-946c363d72c6","system_id":"levelo_inurba_marseille","lat":43.28257,"lon":5.35042,"is_reserved":false,"is_disabled":false,"rental_uris":{"android":"levelo://app?vid=1ac758f2-b855-4dbb-978e-946c363d72c6","ios":"levelo://app?vid=1ac758f2-b855-4dbb-978e-946c363d72c6"},"vehicle_type_id":"4","last_reported":1752772282,"current_range_meters":18000,"station_id":"ce4bhbp2rcd13ifvqerg","pricing_plan_id":"cebpf4jnsgd1na2vs0mg"},{"bike_id":"962faf46-9640-4349-8b07-b9b62a022f71","system_id":"levelo_inurba_marseille","lat":43.29299,"lon":5.37463,"is_reserved":false,"is_disabled":false,"rental_uris":{"android":"levelo://app?vid=962faf46-9640-4349-8b07-b9b62a022f71","ios":"levelo://app?vid=962faf46-9640-4349-8b07-b9b62a022f71"},"vehicle_type_id":"4","last_reported":1752772282,"current_range_meters":18800,"station_id":"ce4bgi12rcd13ifvqb70","pricing_plan_id":"cebpf4jnsgd1na2vs0mg"},{"bike_id":"ac0ed4be-466c-4caa-b855-3c6bbe5a11b5","system_id":"levelo_inurba_marseille","lat":43.2675,"lon":5.372,"is_reserved":false,"is_disabled":false,"rental_uris":{"android":"levelo://app?vid=ac0ed4be-466c-4caa-b855-3c6bbe5a11b5","ios":"levelo://app?vid=ac0ed4be-466c-4caa-b855-3c6bbe5a11b5"},"vehicle_type_id":"4","last_reported":1752772282,"current_range_meters":18800,"station_id":"","pricing_plan_id":"cebpf4jnsgd1na2vs0mg"},{"bike_id":"01c4cad4-ab83-4c6c-bb99-def54328b75f","system_id":"levelo_inurba_marseille","lat":43.28627,"lon":5.35101,"is_reserved":false,"is_disabled":false,"rental_uris":{"android":"levelo://app?vid=01c4cad4-ab83-4c6c-bb99-def54328b75f","ios":"levelo://app?vid=01c4cad4-ab83-4c6c-bb99-def54328b75f"},"vehicle_type_id":"4","last_reported":1752772282,"current_range_meters":18800,"station_id":"ce4bhch2rcd13ifvqeug","pricing_plan_id":"cebpf4jnsgd1na2vs0mg"},{"bike_id":"6ab11f1c-8356-4972-a47f-a4e496bb3f20","system_id":"levelo_inurba_marseille","lat":43.28414,"lon":5.34995,"is_reserved":false,"is_disabled":false,"rental_uris":{"android":"levelo://app?vid=6ab11f1c-8356-4972-a47f-a4e496bb3f20","ios":"levelo://app?vid=6ab11f1c-8356-4972-a47f-a4e496bb3f20"},"vehicle_type_id":"4","last_reported":1752772282,"current_range_meters":18800,"station_id":"ce4bhbh2rcd13ifvqepg","pricing_plan_id":"cebpf4jnsgd1na2vs0mg"},{"bike_id":"7f2a2d9a-c3b7-4872-bb4d-dfb877b1bcc7","system_id":"levelo_inurba_marseille","lat":43.29526,"lon":5.37498,"is_reserved":false,"is_disabled":false,"rental_uris":{"android":"levelo://app?vid=7f2a2d9a-c3b7-4872-bb4d-dfb877b1bcc7","ios":"levelo://app?vid=7f2a2d9a-c3b7-4872-bb4d-dfb877b1bcc7"},"vehicle_type_id":"4","last_reported":1752772282,"current_range_meters":18800,"station_id":"ce4bgkp2rcd13ifvqbmg","pricing_plan_id":"cebpf4jnsgd1na2vs0mg"},{"bike_id":"1fa6e47a-247c-43f3-a2d5-2457ee6c5d39","system_id":"levelo_inurba_marseille","lat":43.21188,"lon":5.35061,"is_reserved":false,"is_disabled":false,"rental_uris":{"android":"levelo://app?vid=1fa6e47a-247c-43f3-a2d5-2457ee6c5d39","ios":"levelo://app?vid=1fa6e47a-247c-43f3-a2d5-2457ee6c5d39"},"vehicle_type_id":"4","last_reported":1752772282,"current_range_meters":18800,"station_id":"st_cvj6sg6p6f1abm77japg","pricing_plan_id":"cebpf4jnsgd1na2vs0mg"},{"bike_id":"32235b03-4886-4aa5-91e6-b09500f3082d","system_id":"levelo_inurba_marseille","lat":43.27496,"lon":5.42449,"is_reserved":false,"is_disabled":false,"rental_uris":{"android":"levelo://app?vid=32235b03-4886-4aa5-91e6-b09500f3082d","ios":"levelo://app?vid=32235b03-4886-4aa5-91e6-b09500f3082d"},"vehicle_type_id":"4","last_reported":1752772282,"current_range_meters":18800,"station_id":"ce4bhn92rcd13ifvqgrg","pricing_plan_id":"cebpf4jnsgd1na2vs0mg"},{"bike_id":"ce7bd25b-5213-4881-a28b-f582e6a1d712","system_id":"levelo_inurba_marseille","lat":43.31342,"lon":5.36693,"is_reserved":false,"is_disabled":true,"rental_uris":{"android":"levelo://app?vid=ce7bd25b-5213-4881-a28b-f582e6a1d712","ios":"levelo://app?vid=ce7bd25b-5213-4881-a28b-f582e6a1d712"},"vehicle_type_id":"4","last_reported":1752772282,"current_range_meters":18800,"station_id":"ce4bgr92rcd13ifvqc6g","pricing_plan_id":"cebpf4jnsgd1na2vs0mg"},{"bike_id":"d8eb8f2f-df0a-4c63-af99-112cd7385b86","system_id":"levelo_inurba_marseille","lat":43.28626,"lon":5.35095,"is_reserved":false,"is_disabled":false,"rental_uris":{"android":"levelo://app?vid=d8eb8f2f-df0a-4c63-af99-112cd7385b86","ios":"levelo://app?vid=d8eb8f2f-df0a-4c63-af99-112cd7385b86"},"vehicle_type_id":"4","last_reported":1752772282,"current_range_meters":18800,"station_id":"ce4bhch2rcd13ifvqeug","pricing_plan_id":"cebpf4jnsgd1na2vs0mg"},{"bike_id":"cfb52d04-9134-4c86-8269-771716b20f27","system_id":"levelo_inurba_marseille","lat":43.21178,"lon":5.35073,"is_reserved":false,"is_disabled":false,"rental_uris":{"android":"levelo://app?vid=cfb52d04-9134-4c86-8269-771716b20f27","ios":"levelo://app?vid=cfb52d04-9134-4c86-8269-771716b20f27"},"vehicle_type_id":"4","last_reported":1752772282,"current_range_meters":18800,"station_id":"st_cvj6sg6p6f1abm77japg","pricing_plan_id":"cebpf4jnsgd1na2vs0mg"},{"bike_id":"c83e5866-3057-41c7-b1dc-bfd42f8bcd2a","system_id":"levelo_inurba_marseille","lat":43.23151,"lon":5.43699,"is_reserved":false,"is_disabled":false,"rental_uris":{"android":"levelo://app?vid=c83e5866-3057-41c7-b1dc-bfd42f8bcd2a","ios":"levelo://app?vid=c83e5866-3057-41c7-b1dc-bfd42f8bcd2a"},"vehicle_type_id":"4","last_reported":1752772282,"current_range_meters":19200,"station_id":"ce4bhmp2rcd13ifvqgog","pricing_plan_id":"cebpf4jnsgd1na2vs0mg"},{"bike_id":"dca25fb2-a37a-4fc6-8c6f-deed49f767d0","system_id":"levelo_inurba_marseille","lat":43.28284,"lon":5.350727,"is_reserved":false,"is_disabled":false,"rental_uris":{"android":"levelo://app?vid=dca25fb2-a37a-4fc6-8c6f-deed49f767d0","ios":"levelo://app?vid=dca25fb2-a37a-4fc6-8c6f-deed49f767d0"},"vehicle_type_id":"4","last_reported":1752772282,"current_range_meters":19200,"station_id":"ce4bhbp2rcd13ifvqerg","pricing_plan_id":"cebpf4jnsgd1na2vs0mg"},{"bike_id":"55521325-732d-443e-b4d9-fe0f40b605c2","system_id":"levelo_inurba_marseille","lat":43.29194,"lon":5.35805,"is_reserved":false,"is_disabled":false,"rental_uris":{"android":"levelo://app?vid=55521325-732d-443e-b4d9-fe0f40b605c2","ios":"levelo://app?vid=55521325-732d-443e-b4d9-fe0f40b605c2"},"vehicle_type_id":"4","last_reported":1752772282,"current_range_meters":19200,"station_id":"ce4bhb12rcd13ifvqel0","pricing_plan_id":"cebpf4jnsgd1na2vs0mg"},{"bike_id":"f6c2a0af-81b6-4f39-848d-18a61692d1cd","system_id":"levelo_inurba_marseille","lat":43.30804,"lon":5.43526,"is_reserved":false,"is_disabled":false,"rental_uris":{"android":"levelo://app?vid=f6c2a0af-81b6-4f39-848d-18a61692d1cd","ios":"levelo://app?vid=f6c2a0af-81b6-4f39-848d-18a61692d1cd"},