{"last_updated":1773692854,"ttl":60,"version":"2.2","data":{"bikes":[{"bike_id":"6518c965-cd2e-4fe4-95a6-c36e2bf27446","system_id":"levelo_inurba_marseille","lat":43.25743,"lon":5.41127,"is_reserved":false,"is_disabled":false,"rental_uris":{"android":"levelo://app?vid=6518c965-cd2e-4fe4-95a6-c36e2bf27446","ios":"levelo://app?vid=6518c965-cd2e-4fe4-95a6-c36e2bf27446"},"vehicle_type_id":"4","last_reported":1773692855,"current_range_meters":28400,"station_id":"ce4bhkp2rcd13ifvqgd0","pricing_plan_id":"cebpf4jnsgd1na2vs0mg"},{"bike_id":"d3835fc1-12fd-4d13-b243-db3919338ea8","system_id":"levelo_inurba_marseille","lat":43.29624,"lon":5.37157,"is_reserved":false,"is_disabled":false,"rental_uris":{"android":"levelo://app?vid=d3835fc1-12fd-4d13-b243-db3919338ea8","ios":"levelo://app?vid=d3835fc1-12fd-4d13-b243-db3919338ea8"},"vehicle_type_id":"4","last_reported":1773692855,"current_range_meters":37600,"station_id":"ce4bgnh2rcd13ifvqc0g","pricing_plan_id":"cebpf4jnsgd1na2vs0mg"},{"bike_id":"113a10dd-0d0f-44e9-9da4-49a2b0168cba","system_id":"levelo_inurba_marseille","lat":43.28519,"lon":5.39,"is_reserved":false,"is_disabled":true,"rental_uris":{"android":"levelo://app?vid=113a10dd-0d0f-44e9-9da4-49a2b0168cba","ios":"levelo://app?vid=113a10dd-0d0f-44e9-9da4-49a2b0168cba"},"vehicle_type_id":"4","last_reported":1773692855,"current_range_meters":4000,"station_id":"","pricing_plan_id":"cebpf4jnsgd1na2vs0mg"},{"bike_id":"88d47c97-3520-4ec2-9d3c-cae16cd8aba2","system_id":"levelo_inurba_marseille","lat":43.29195,"lon":5.39291,"is_reserved":false,"is_disabled":false,"rental_uris":{"android":"levelo://app?vid=88d47c97-3520-4ec2-9d3c-cae16cd8aba2","ios":"levelo://app?vid=88d47c97-3520-4ec2-9d3c-cae16cd8aba2"},"vehicle_type_id":"4","last_reported":1773692855,"current_range_meters":8800,"station_id":"ce4bh192rcd13ifvqdd0","pricing_plan_id":"cebpf4jnsgd1na2vs0mg"},{"bike_id":"08f8c73c-68a9-4b86-a934-2c43844a09f8","system_id":"levelo_inurba_marseille","lat":43.29722,"lon":5.37672,"is_reserved":false,"is_disabled":false,"rental_uris":{"android":"levelo://app?vid=08f8c73c-68a9-4b86-a934-2c43844a09f8","ios":"levelo://app?vid=08f8c73c-68a9-4b86-a934-2c43844a09f8"},"vehicle_type_id":"4","last_reported":1773692855,"current_range_meters":14000,"station_id":"ce4bgkh2rcd13ifvqbl0","pricing_plan_id":"cebpf4jnsgd1na2vs0mg"},{"bike_id":"bb3d9a24-554c-4657-b447-159fce6d7933","system_id":"levelo_inurba_marseille","lat":43.24173,"lon":5.36396,"is_reserved":false,"is_disabled":false,"rental_uris":{"android":"levelo://app?vid=bb3d9a24-554c-4657-b447-159fce6d7933","ios":"levelo://app?vid=bb3d9a24-554c-4657-b447-159fce6d7933"},"vehicle_type_id":"4","last_reported":1773692855,"current_range_meters":32800,"station_id":"cpo36qri1sfpv3e86is0","pricing_plan_id":"cebpf4jnsgd1na2vs0mg"},{"bike_id":"a4800904-4ee6-4f7d-a00c-f334e8c30141","system_id":"levelo_inurba_marseille","lat":43.28468,"lon":5.48415,"is_reserved":false,"is_disabled":false,"rental_uris":{"android":"levelo://app?vid=a4800904-4ee6-4f7d-a00c-f334e8c30141","ios":"levelo://app?vid=a4800904-4ee6-4f7d-a00c-f334e8c30141"},"vehicle_type_id":"4","last_reported":1773692855,"current_range_meters":17600,"station_id":"","pricing_plan_id":"cebpf4jnsgd1na2vs0mg"},{"bike_id":"02ade925-0244-4220-8f65-2edd4a65fa5b","system_id":"levelo_inurba_marseille","lat":43.28414,"lon":5.34968,"is_reserved":false,"is_disabled":false,"rental_uris":{"android":"levelo://app?vid=02ade925-0244-4220-8f65-2edd4a65fa5b","ios":"levelo://app?vid=02ade925-0244-4220-8f65-2edd4a65fa5b"},"vehicle_type_id":"4","last_reported":1773692855,"current_range_meters":17600,"station_id":"ce4bhbh2rcd13ifvqepg","pricing_plan_id":"cebpf4jnsgd1na2vs0mg"},{"bike_id":"7392a7f1-ff12-4534-8b6a-2680737d14b4","system_id":"levelo_inurba_marseille","lat":43.30723,"lon":5.42449,"is_reserved":false,"is_disabled":false,"rental_uris":{"android":"levelo://app?vid=7392a7f1-ff12-4534-8b6a-2680737d14b4","ios":"levelo://app?vid=7392a7f1-ff12-4534-8b6a-2680737d14b4"},"vehicle_type_id":"4","last_reported":1773692855,"current_range_meters":18800,"station_id":"st_cvj6ca6bvosntc0bfgr0","pricing_plan_id":"cebpf4jnsgd1na2vs0mg"},{"bike_id":"d994d5ec-d178-420a-b0ae-17c155642701","system_id":"levelo_inurba_marseille","lat":43.27376,"lon":5.36253,"is_reserved":false,"is_disabled":false,"rental_uris":{"android":"levelo://app?vid=d994d5ec-d178-420a-b0ae-17c155642701","ios":"levelo://app?vid=d994d5ec-d178-420a-b0ae-17c155642701"},"vehicle_type_id":"4","last_reported":1773692855,"current_range_meters":33600,"station_id":"ce4bhbh2rcd13ifvqeo0","pricing_plan_id":"cebpf4jnsgd1na2vs0mg"},{"bike_id":"47fede0b-4428-4b86-b73c-47fb3b9dbad3","system_id":"levelo_inurba_marseille","lat":43.29279,"lon":5.38431,"is_reserved":false,"is_disabled":false,"rental_uris":{"android":"levelo://app?vid=47fede0b-4428-4b86-b73c-47fb3b9dbad3","ios":"levelo://app?vid=47fede0b-4428-4b86-b73c-47fb3b9dbad3"},"vehicle_type_id":"4","last_reported":1773692855,"current_range_meters":26800,"station_id":"ce4bh692rcd13ifvqea0","pricing_plan_id":"cebpf4jnsgd1na2vs0mg"},{"bike_id":"751680c6-6427-4d94-b52a-f111f95c25e7","system_id":"levelo_inurba_marseille","lat":43.30541,"lon":5.36537,"is_reserved":false,"is_disabled":false,"rental_uris":{"android":"levelo://app?vid=751680c6-6427-4d94-b52a-f111f95c25e7","ios":"levelo://app?vid=751680c6-6427-4d94-b52a-f111f95c25e7"},"vehicle_type_id":"4","last_reported":1773692855,"current_range_meters":18800,"station_id":"ce4bgs12rcd13ifvqcag","pricing_plan_id":"cebpf4jnsgd1na2vs0mg"},{"bike_id":"d91a831b-2608-458c-8f78-6a05f82faf05","system_id":"levelo_inurba_marseille","lat":43.27081,"lon":5.38302,"is_reserved":false,"is_disabled":false,"rental_uris":{"android":"levelo://app?vid=d91a831b-2608-458c-8f78-6a05f82faf05","ios":"levelo://app?vid=d91a831b-2608-458c-8f78-6a05f82faf05"},"vehicle_type_id":"4","last_reported":1773692855,"current_range_meters":28000,"station_id":"st_d3n2fo6cfp8s73cte1j0","pricing_plan_id":"cebpf4jnsgd1na2vs0mg"},{"bike_id":"f4d9aa10-781e-47f7-8eec-f64e5f2bee49","system_id":"levelo_inurba_marseille","lat":43.21761,"lon":5.34606,"is_reserved":false,"is_disabled":false,"rental_uris":{"android":"levelo://app?vid=f4d9aa10-781e-47f7-8eec-f64e5f2bee49","ios":"levelo://app?vid=f4d9aa10-781e-47f7-8eec-f64e5f2bee49"},"vehicle_type_id":"4","last_reported":1773692855,"current_range_meters":17600,"station_id":"st_cvj6r9ubvosntc0bgbag","pricing_plan_id":"cebpf4jnsgd1na2vs0mg"},{"bike_id":"85beb18e-e74e-48e4-a2b6-9d0949456ddd","system_id":"levelo_inurba_marseille","lat":43.2927,"lon":5.38421,"is_reserved":false,"is_disabled":false,"rental_uris":{"android":"levelo://app?vid=85beb18e-e74e-48e4-a2b6-9d0949456ddd","ios":"levelo://app?vid=85beb18e-e74e-48e4-a2b6-9d0949456ddd"},"vehicle_type_id":"4","last_reported":1773692855,"current_range_meters":11600,"station_id":"ce4bh692rcd13ifvqea0","pricing_plan_id":"cebpf4jnsgd1na2vs0mg"},{"bike_id":"43994947-b94f-4ec0-aebb-813c68533bf2","system_id":"levelo_inurba_marseille","lat":43.25112,"lon":5.4032,"is_reserved":false,"is_disabled":false,"rental_uris":{"android":"levelo://app?vid=43994947-b94f-4ec0-aebb-813c68533bf2","ios":"levelo://app?vid=43994947-b94f-4ec0-aebb-813c68533bf2"},"vehicle_type_id":"4","last_reported":1773692855,"current_range_meters":30400,"station_id":"ce4bhlh2rcd13ifvqgig","pricing_plan_id":"cebpf4jnsgd1na2vs0mg"},{"bike_id":"7b8cf1dc-261c-4856-8230-259f864fb147","system_id":"levelo_inurba_marseille","lat":43.27797,"lon":5.40784,"is_reserved":false,"is_disabled":false,"rental_uris":{"android":"levelo://app?vid=7b8cf1dc-261c-4856-8230-259f864fb147","ios":"levelo://app?vid=7b8cf1dc-261c-4856-8230-259f864fb147"},"vehicle_type_id":"4","last_reported":1773692855,"current_range_meters":17600,"station_id":"","pricing_plan_id":"cebpf4jnsgd1na2vs0mg"},{"bike_id":"b633c5a6-9e1e-45bd-a552-8ef5bf51b1af","system_id":"levelo_inurba_marseille","lat":43.27378,"lon":5.36263,"is_reserved":false,"is_disabled":false,"rental_uris":{"android":"levelo://app?vid=b633c5a6-9e1e-45bd-a552-8ef5bf51b1af","ios":"levelo://app?vid=b633c5a6-9e1e-45bd-a552-8ef5bf51b1af"},"vehicle_type_id":"4","last_reported":1773692855,"current_range_meters":39200,"station_id":"ce4bhbh2rcd13ifvqeo0","pricing_plan_id":"cebpf4jnsgd1na2vs0mg"},{"bike_id":"4996c82b-4f5c-4282-b123-76ec0a79e162","system_id":"levelo_inurba_marseille","lat":43.29757,"lon":5.37087,"is_reserved":false,"is_disabled":true,"rental_uris":{"android":"levelo://app?vid=4996c82b-4f5c-4282-b123-76ec0a79e162","ios":"levelo://app?vid=4996c82b-4f5c-4282-b123-76ec0a79e162"},"vehicle_type_id":"4","last_reported":1773692855,"current_range_meters":39200,"station_id":"ce4bgop2rcd13ifvqc1g","pricing_plan_id":"cebpf4jnsgd1na2vs0mg"},{"bike_id":"62555f48-39d4-4a1a-bb9e-02c0049e2efa","system_id":"levelo_inurba_marseille","lat":43.2618,"lon":5.37933,"is_reserved":false,"is_disabled":false,"rental_uris":{"android":"levelo://app?vid=62555f48-39d4-4a1a-bb9e-02c0049e2efa","ios":"levelo://app?vid=62555f48-39d4-4a1a-bb9e-02c0049e2efa"},"vehicle_type_id":"4","last_reported":1773692855,"current_range_meters":37600,"station_id":"ce4bhjp2rcd13ifvqg90","pricing_plan_id":"cebpf4jnsgd1na2vs0mg"},{"bike_id":"80804dce-9c24-4933-96dc-bbf82390f99c","system_id":"levelo_inurba_marseille","lat":43.27838,"lon":5.40701,"is_reserved":false,"is_disabled":false,"rental_uris":{"android":"levelo://app?vid=80804dce-9c24-4933-96dc-bbf82390f99c","ios":"levelo://app?vid=80804dce-9c24-4933-96dc-bbf82390f99c"},"vehicle_type_id":"4","last_reported":1773692855,"current_range_meters":3600,"station_id":"ce4bhnh2rcd13ifvqgtg","pricing_plan_id":"cebpf4jnsgd1na2vs0mg"},{"bike_id":"cb1440ae-c7a3-42f3-9fc5-af1339cbe62f","system_id":"levelo_inurba_marseille","lat":43.30796,"lon":5.3816,"is_reserved":false,"is_disabled":false,"rental_uris":{"android":"levelo://app?vid=cb1440ae-c7a3-42f3-9fc5-af1339cbe62f","ios":"levelo://app?vid=cb1440ae-c7a3-42f3-9fc5-af1339cbe62f"},"vehicle_type_id":"4","last_reported":1773692855,"current_range_meters":28000,"station_id":"ce4bgt12rcd13ifvqce0","pricing_plan_id":"cebpf4jnsgd1na2vs0mg"},{"bike_id":"71041dfb-20a0-407e-8975-a073540fb567","system_id":"levelo_inurba_marseille","lat":43.26944,"lon":5.38636,"is_reserved":false,"is_disabled":false,"rental_uris":{"android":"levelo://app?vid=71041dfb-20a0-407e-8975-a073540fb567","ios":"levelo://app?vid=71041dfb-20a0-407e-8975-a073540fb567"},"vehicle_type_id":"4","last_reported":1773692855,"current_range_meters":39200,"station_id":"ce4bhh92rcd13ifvqfh0","pricing_plan_id":"cebpf4jnsgd1na2vs0mg"},{"bike_id":"32e9fd38-c087-455c-b9e6-69cf1056d391","system_id":"levelo_inurba_marseille","lat":43.30554,"lon":5.38422,"is_reserved":false,"is_disabled":false,"rental_uris":{"android":"levelo://app?vid=32e9fd38-c087-455c-b9e6-69cf1056d391","ios":"levelo://app?vid=32e9fd38-c087-455c-b9e6-69cf1056d391"},"vehicle_type_id":"4","last_reported":1773692855,"current_range_meters":22800,"station_id":"ce4bgg92rcd13ifvqb30","pricing_plan_id":"cebpf4jnsgd1na2vs0mg"},{"bike_id":"40d9ecd7-7bd7-42dd-b997-1ecf0fe28202","system_id":"levelo_inurba_marseille","lat":43.29875,"lon":5.3897,"is_reserved":false,"is_disabled":true,"rental_uris":{"android":"levelo://app?vid=40d9ecd7-7bd7-42dd-b997-1ecf0fe28202","ios":"levelo://app?vid=40d9ecd7-7bd7-42dd-b997-1ecf0fe28202"},"vehicle_type_id":"4","last_reported":1773692855,"current_range_meters":800,"station_id":"ce4bh392rcd13ifvqdl0","pricing_plan_id":"cebpf4jnsgd1na2vs0mg"},{"bike_id":"53e1050d-9955-4d9d-baf5-509a48156809","system_id":"levelo_inurba_marseille","lat":43.21738,"lon":5.34625,"is_reserved":false,"is_disabled":false,"rental_uris":{"android":"levelo://app?vid=53e1050d-9955-4d9d-baf5-509a48156809","ios":"levelo://app?vid=53e1050d-9955-4d9d-baf5-509a48156809"},"vehicle_type_id":"4","last_reported":1773692855,"current_range_meters":9600,"station_id":"st_cvj6r9ubvosntc0bgbag","pricing_plan_id":"cebpf4jnsgd1na2vs0mg"},{"bike_id":"ce02fba5-788a-400b-aa88-15cb2a4ffa31","system_id":"levelo_inurba_marseille","lat":43.25476,"lon":5.37982,"is_reserved":false,"is_disabled":false,"rental_uris":{"android":"levelo://app?vid=ce02fba5-788a-400b-aa88-15cb2a4ffa31","ios":"levelo://app?vid=ce02fba5-788a-400b-aa88-15cb2a4ffa31"},"vehicle_type_id":"4","last_reported":1773692855,"current_range_meters":39200,"station_id":"","pricing_plan_id":"cebpf4jnsgd1na2vs0mg"},{"bike_id":"76f36d4f-2f4d-485a-819b-7dcd53a1646f","system_id":"levelo_inurba_marseille","lat":43.2985,"lon":5.36268,"is_reserved":false,"is_disabled":false,"rental_uris":{"android":"levelo://app?vid=76f36d4f-2f4d-485a-819b-7dcd53a1646f","ios":"levelo://app?vid=76f36d4f-2f4d-485a-819b-7dcd53a1646f"},"vehicle_type_id":"4","last_reported":1773692855,"current_range_meters":35200,"station_id":"ce4bgpp2rcd13ifvqc3g","pricing_plan_id":"cebpf4jnsgd1na2vs0mg"},{"bike_id":"b394f8b6-c5b3-435c-8b67-f425da846481","system_id":"levelo_inurba_marseille","lat":43.27386,"lon":5.36266,"is_reserved":false,"is_disabled":false,"rental_uris":{"android":"levelo://app?vid=b394f8b6-c5b3-435c-8b67-f425da846481","ios":"levelo://app?vid=b394f8b6-c5b3-435c-8b67-f425da846481"},"vehicle_type_id":"4","last_reported":1773692855,"current_range_meters":38400,"station_id":"ce4bhbh2rcd13ifvqeo0","pricing_plan_id":"cebpf4jnsgd1na2vs0mg"},{"bike_id":"e0be0683-139b-4109-9bd5-991ff3005ba1","system_id":"levelo_inurba_marseille","lat":43.2791,"lon":5.39596,"is_reserved":false,"is_disabled":false,"rental_uris":{"android":"levelo://app?vid=e0be0683-139b-4109-9bd5-991ff3005ba1","ios":"levelo://app?vid=e0be0683-139b-4109-9bd5-991ff3005ba1"},"vehicle_type_id":"4","last_reported":1773692855,"current_range_meters":38800,"station_id":"ce4bhf92rcd13ifvqf40","pricing_plan_id":"cebpf4jnsgd1na2vs0mg"},{"bike_id":"85f835cf-0a16-44d7-a32a-2ebbafd714f4","system_id":"levelo_inurba_marseille","lat":43.30328,"lon":5.40448,"is_reserved":false,"is_disabled":false,"rental_uris":{"android":"levelo://app?vid=85f835cf-0a16-44d7-a32a-2ebbafd714f4","ios":"levelo://app?vid=85f835cf-0a16-44d7-a32a-2ebbafd714f4"},"vehicle_type_id":"4","last_reported":1773692855,"current_range_meters":32800,"station_id":"ce4bh012rcd13ifvqd10","pricing_plan_id":"cebpf4jnsgd1na2vs0mg"},{"bike_id":"e93a91a2-0cc7-4dec-916f-90562205defc","system_id":"levelo_inurba_marseille","lat":43.2695,"lon":5.38644,"is_reserved":false,"is_disabled":false,"rental_uris":{"android":"levelo://app?vid=e93a91a2-0cc7-4dec-916f-90562205defc","ios":"levelo://app?vid=e93a91a2-0cc7-4dec-916f-90562205defc"},"vehicle_type_id":"4","last_reported":1773692855,"current_range_meters":28000,"station_id":"ce4bhh92rcd13ifvqfh0","pricing_plan_id":"cebpf4jnsgd1na2vs0mg"},{"bike_id":"37c3b722-fd67-405a-b361-5946c3e73c75","system_id":"levelo_inurba_marseille","lat":43.29557,"lon":5.42284,"is_reserved":false,"is_disabled":false,"rental_uris":{"android":"levelo://app?vid=37c3b722-fd67-405a-b361-5946c3e73c75","ios":"levelo://app?vid=37c3b722-fd67-405a-b361-5946c3e73c75"},"vehicle_type_id":"4","last_reported":1773692855,"current_range_meters":19200,"station_id":"ce4bhph2rcd13ifvqhdg","pricing_plan_id":"cebpf4jnsgd1na2vs0mg"},{"bike_id":"5692c245-cd94-4659-ace3-10d41a4514f9","system_id":"levelo_inurba_marseille","lat":43.29973,"lon":5.37177,"is_reserved":false,"is_disabled":false,"rental_uris":{"android":"levelo://app?vid=5692c245-cd94-4659-ace3-10d41a4514f9","ios":"levelo://app?vid=5692c245-cd94-4659-ace3-10d41a4514f9"},"vehicle_type_id":"4","last_reported":1773692855,"current_range_meters":16800,"station_id":"ce4bgr92rcd13ifvqc7g","pricing_plan_id":"cebpf4jnsgd1na2vs0mg"},{"bike_id":"5ab760e4-d24f-4765-88c8-af227ad2c127","system_id":"levelo_inurba_marseille","lat":43.28417,"lon":5.35,"is_reserved":false,"is_disabled":true,"rental_uris":{"android":"levelo://app?vid=5ab760e4-d24f-4765-88c8-af227ad2c127","ios":"levelo://app?vid=5ab760e4-d24f-4765-88c8-af227ad2c127"},"vehicle_type_id":"4","last_reported":1773692855,"current_range_meters":38800,"station_id":"ce4bhbh2rcd13ifvqepg","pricing_plan_id":"cebpf4jnsgd1na2vs0mg"},{"bike_id":"b7ecad09-aa27-4ab3-b8b0-e9341387e004","system_id":"levelo_inurba_marseille","lat":43.28563,"lon":5.39496,"is_reserved":false,"is_disabled":false,"rental_uris":{"android":"levelo://app?vid=b7ecad09-aa27-4ab3-b8b0-e9341387e004","ios":"levelo://app?vid=b7ecad09-aa27-4ab3-b8b0-e9341387e004"},"vehicle_type_id":"4","last_reported":1773692855,"current_range_meters":12000,"station_id":"ce4bh292rcd13ifvqdg0","pricing_plan_id":"cebpf4jnsgd1na2vs0mg"},{"bike_id":"4b647294-f3c7-459f-8a08-3995df6e5427","system_id":"levelo_inurba_marseille","lat":43.29584,"lon":5.38091,"is_reserved":false,"is_disabled":false,"rental_uris":{"android":"levelo://app?vid=4b647294-f3c7-459f-8a08-3995df6e5427","ios":"levelo://app?vid=4b647294-f3c7-459f-8a08-3995df6e5427"},"vehicle_type_id":"4","last_reported":1773692855,"current_range_meters":31200,"station_id":"ce4bgl12rcd13ifvqbo0","pricing_plan_id":"cebpf4jnsgd1na2vs0mg"},{"bike_id":"fb1e4480-cff0-4537-8a0a-0dd4c3c631d5","system_id":"levelo_inurba_marseille","lat":43.32041,"lon":5.41565,"is_reserved":false,"is_disabled":false,"rental_uris":{"android":"levelo://app?vid=fb1e4480-cff0-4537-8a0a-0dd4c3c631d5","ios":"levelo://app?vid=fb1e4480-cff0-4537-8a0a-0dd4c3c631d5"},"vehicle_type_id":"4","last_reported":1773692855,"current_range_meters":32800,"station_id":"ce4bhq92rcd13ifvqhkg","pricing_plan_id":"cebpf4jnsgd1na2vs0mg"},{"bike_id":"673469c2-d54f-4b4c-9099-35d90cf7c1ec","system_id":"levelo_inurba_marseille","lat":43.29519,"lon":5.39408,"is_reserved":false,"is_disabled":false,"rental_uris":{"android":"levelo://app?vid=673469c2-d54f-4b4c-9099-35d90cf7c1ec","ios":"levelo://app?vid=673469c2-d54f-4b4c-9099-35d90cf7c1ec"},"vehicle_type_id":"4","last_reported":1773692855,"current_range_meters":6800,"station_id":"ce4bh292rcd13ifvqdf0","pricing_plan_id":"cebpf4jnsgd1na2vs0mg"},{"bike_id":"e8665b6b-98bc-4520-acc5-6a439d4b7aca","system_id":"levelo_inurba_marseille","lat":43.29608,"lon":5.40658,"is_reserved":false,"is_disabled":true,"rental_uris":{"android":"levelo://app?vid=e8665b6b-98bc-4520-acc5-6a439d4b7aca","ios":"levelo://app?vid=e8665b6b-98bc-4520-acc5-6a439d4b7aca"},"vehicle_type_id":"4","last_reported":1773692855,"current_range_meters":0,"station_id":"","pricing_plan_id":"cebpf4jnsgd1na2vs0mg"},{"bike_id":"11584075-169f-4fdc-9c1c-44f049bb3d48","system_id":"levelo_inurba_marseille","lat":43.29816,"lon":5.40397,"is_reserved":false,"is_disabled":false,"rental_uris":{"android":"levelo://app?vid=11584075-169f-4fdc-9c1c-44f049bb3d48","ios":"levelo://app?vid=11584075-169f-4fdc-9c1c-44f049bb3d48"},"vehicle_type_id":"4","last_reported":1773692855,"current_range_meters":35200,"station_id":"ce4bh112rcd13ifvqd90","pricing_plan_id":"cebpf4jnsgd1na2vs0mg"},{"bike_id":"a9f3ef20-81a0-46d5-8dea-2826bbe2aa07","system_id":"levelo_inurba_marseille","lat":43.26372,"lon":5.41051,"is_reserved":false,"is_disabled":false,"rental_uris":{"android":"levelo://app?vid=a9f3ef20-81a0-46d5-8dea-2826bbe2aa07","ios":"levelo://app?vid=a9f3ef20-81a0-46d5-8dea-2826bbe2aa07"},"vehicle_type_id":"4","last_reported":1773692855,"current_range_meters":24800,"station_id":"st_d4e5ca6na9uc73bfl5fg","pricing_plan_id":"cebpf4jnsgd1na2vs0mg"},{"bike_id":"d3427ddc-3c23-49e2-b042-608566fe6faa","system_id":"levelo_inurba_marseille","lat":43.27811,"lon":5.40719,"is_reserved":false,"is_disabled":false,"rental_uris":{"android":"levelo://app?vid=d3427ddc-3c23-49e2-b042-608566fe6faa","ios":"levelo://app?vid=d3427ddc-3c23-49e2-b042-608566fe6faa"},"vehicle_type_id":"4","last_reported":1773692855,"current_range_meters":11600,"station_id":"ce4bhnh2rcd13ifvqgtg","pricing_plan_id":"cebpf4jnsgd1na2vs0mg"},{"bike_id":"d0a215fa-7999-4b18-98f7-507d8c06ca69","system_id":"levelo_inurba_marseille","lat":43.30858,"lon":5.38074,"is_reserved":false,"is_disabled":false,"rental_uris":{"android":"levelo://app?vid=d0a215fa-7999-4b18-98f7-507d8c06ca69","ios":"levelo://app?vid=d0a215fa-7999-4b18-98f7-507d8c06ca69"},"vehicle_type_id":"4","last_reported":1773692855,"current_range_meters":2800,"station_id":"","pricing_plan_id":"cebpf4jnsgd1na2vs0mg"},{"bike_id":"7c9d3cf6-4d05-4d3d-a0ca-9fd9ea563c4a","system_id":"levelo_inurba_marseille","lat":43.2862,"lon":5.3509,"is_reserved":false,"is_disabled":false,"rental_uris":{"android":"levelo://app?vid=7c9d3cf6-4d05-4d3d-a0ca-9fd9ea563c4a","ios":"levelo://app?vid=7c9d3cf6-4d05-4d3d-a0ca-9fd9ea563c4a"},"vehicle_type_id":"4","last_reported":1773692855,"current_range_meters":28800,"station_id":"ce4bhch2rcd13ifvqeug","pricing_plan_id":"cebpf4jnsgd1na2vs0mg"},{"bike_id":"b6d00a90-dddb-4e37-8678-cde7eb2c712f","system_id":"levelo_inurba_marseille","lat":43.23896,"lon":5.37455,"is_reserved":false,"is_disabled":true,"rental_uris":{"android":"levelo://app?vid=b6d00a90-dddb-4e37-8678-cde7eb2c712f","ios":"levelo://app?vid=b6d00a90-dddb-4e37-8678-cde7eb2c712f"},"vehicle_type_id":"4","last_reported":1773692855,"current_range_meters":0,"station_id":"","pricing_plan_id":"cebpf4jnsgd1na2vs0mg"},{"bike_id":"24354664-4452-49f8-b419-5e9815d9d99e","system_id":"levelo_inurba_marseille","lat":43.26205,"lon":5.37928,"is_reserved":false,"is_disabled":false,"rental_uris":{"android":"levelo://app?vid=24354664-4452-49f8-b419-5e9815d9d99e","ios":"levelo://app?vid=24354664-4452-49f8-b419-5e9815d9d99e"},"vehicle_type_id":"4","last_reported":1773692855,"current_range_meters":40000,"station_id":"ce4bhjp2rcd13ifvqg90","pricing_plan_id":"cebpf4jnsgd1na2vs0mg"},{"bike_id":"0ef10699-9737-4ab3-b434-7e2e7407a7a6","system_id":"levelo_inurba_marseille","lat":43.23223,"lon":5.35552,"is_reserved":false,"is_disabled":false,"rental_uris":{"android":"levelo://app?vid=0ef10699-9737-4ab3-b434-7e2e7407a7a6","ios":"levelo://app?vid=0ef10699-9737-4ab3-b434-7e2e7407a7a6"},"vehicle_type_id":"4","last_reported":1773692855,"current_range_meters":20000,"station_id":"ce4bhu92rcd13ifvqi70","pricing_plan_id":"cebpf4jnsgd1na2vs0mg"},{"bike_id":"4a5368c7-ef65-4b3c-83b2-a1f3a192e6ce","system_id":"levelo_inurba_marseille","lat":43.21755,"lon":5.34585,"is_reserved":false,"is_disabled":false,"rental_uris":{"android":"levelo://app?vid=4a5368c7-ef65-4b3c-83b2-a1f3a192e6ce","ios":"levelo://app?vid=4a5368c7-ef65-4b3c-83b2-a1f3a192e6ce"},"vehicle_type_id":"4","last_reported":1773692855,"current_range_meters":8800,"station_id":"st_cvj6r9ubvosntc0bgbag","pricing_plan_id":"cebpf4jnsgd1na2vs0mg"},{"bike_id":"47e35ef7-86c6-4f06-9df8-86f14071bcd1","system_id":"levelo_inurba_marseille","lat":43.30747,"lon":5.42436,"is_reserved":false,"is_disabled":false,"rental_uris":{"android":"levelo://app?vid=47e35ef7-86c6-4f06-9df8-86f14071bcd1","ios":"levelo://app?vid=47e35ef7-86c6-4f06-9df8-86f14071bcd1"},"vehicle_type_id":"4","last_reported":1773692855,"current_range_meters":38800,"station_id":"st_cvj6ca6bvosntc0bfgr0","pricing_plan_id":"cebpf4jnsgd1na2vs0mg"},{"bike_id":"1e19ade9-ba2f-4954-8df8-5ab903e0a9bb","system_id":"levelo_inurba_marseille","lat":43.2582,"lon":5.39439,"is_reserved":false,"is_disabled":false,"rental_uris":{"android":"levelo://app?vid=1e19ade9-ba2f-4954-8df8-5ab903e0a9bb","ios":"levelo://app?vid=1e19ade9-ba2f-4954-8df8-5ab903e0a9bb"},"vehicle_type_id":"4","last_reported":1773692855,"current_range_meters":33200,"station_id":"ce4bhip2rcd13ifvqft0","pricing_plan_id":"cebpf4jnsgd1na2vs0mg"},{"bike_id":"16f00587-5325-4afa-a39e-34e98e259e91","system_id":"levelo_inurba_marseille","lat":43.27071,"lon":5.38317,"is_reserved":false,"is_disabled":true,"rental_uris":{"android":"levelo://app?vid=16f00587-5325-4afa-a39e-34e98e259e91","ios":"levelo://app?vid=16f00587-5325-4afa-a39e-34e98e259e91"},"vehicle_type_id":"4","last_reported":1773692855,"current_range_meters":34800,"station_id":"st_d3n2fo6cfp8s73cte1j0","pricing_plan_id":"cebpf4jnsgd1na2vs0mg"},{"bike_id":"58b09b3a-69ae-4d4d-9eb4-baa85db521a0","system_id":"levelo_inurba_marseille","lat":43.30438,"lon":5.38911,"is_reserved":false,"is_disabled":true,"rental_uris":{"android":"levelo://app?vid=58b09b3a-69ae-4d4d-9eb4-baa85db521a0","ios":"levelo://app?vid=58b09b3a-69ae-4d4d-9eb4-baa85db521a0"},"vehicle_type_id":"4","last_reported":1773692855,"current_range_meters":800,"station_id":"ce4bgk12rcd13ifvqbi0","pricing_plan_id":"cebpf4jnsgd1na2vs0mg"},{"bike_id":"54d19bbf-d8ae-4923-8d8a-d55c82197198","system_id":"levelo_inurba_marseille","lat":43.29311,"lon":5.37181,"is_reserved":false,"is_disabled":false,"rental_uris":{"android":"levelo://app?vid=54d19bbf-d8ae-4923-8d8a-d55c82197198","ios":"levelo://app?vid=54d19bbf-d8ae-4923-8d8a-d55c82197198"},"vehicle_type_id":"4","last_reported":1773692855,"current_range_meters":9600,"station_id":"ce4bgh92rcd13ifvqb40","pricing_plan_id":"cebpf4jnsgd1na2vs0mg"},{"bike_id":"c285434b-bf50-4ce4-a15e-2e051d6f1bd1","system_id":"levelo_inurba_marseille","lat":43.30808,"lon":5.38141,"is_reserved":false,"is_disabled":false,"rental_uris":{"android":"levelo://app?vid=c285434b-bf50-4ce4-a15e-2e051d6f1bd1","ios":"levelo://app?vid=c285434b-bf50-4ce4-a15e-2e051d6f1bd1"},"vehicle_type_id":"4","last_reported":1773692855,"current_range_meters":28400,"station_id":"ce4bgt12rcd13ifvqce0","pricing_plan_id":"cebpf4jnsgd1na2vs0mg"},{"bike_id":"c9813e74-7a6d-4329-87aa-7b0bc5e5d8d0","system_id":"levelo_inurba_marseille","lat":43.25568,"lon":5.3825,"is_reserved":false,"is_disabled":false,"rental_uris":{"android":"levelo://app?vid=c9813e74-7a6d-4329-87aa-7b0bc5e5d8d0","ios":"levelo://app?vid=c9813e74-7a6d-4329-87aa-7b0bc5e5d8d0"},"vehicle_type_id":"4","last_reported":1773692855,"current_range_meters":27200,"station_id":"ce4bhih2rcd13ifvqfs0","pricing_plan_id":"cebpf4jnsgd1na2vs0mg"},{"bike_id":"4af38e72-2657-4c02-bc68-020431bf7c93","system_id":"levelo_inurba_marseille","lat":43.26373,"lon":5.41064,"is_reserved":false,"is_disabled":false,"rental_uris":{"android":"levelo://app?vid=4af38e72-2657-4c02-bc68-020431bf7c93","ios":"levelo://app?vid=4af38e72-2657-4c02-bc68-020431bf7c93"},"vehicle_type_id":"4","last_reported":1773692855,"current_range_meters":25600,"station_id":"st_d4e5ca6na9uc73bfl5fg","pricing_plan_id":"cebpf4jnsgd1na2vs0mg"},{"bike_id":"96666730-e447-4102-9cfa-e7c83146c343","system_id":"levelo_inurba_marseille","lat":43.33787,"lon":5.37456,"is_reserved":false,"is_disabled":false,"rental_uris":{"android":"levelo://app?vid=96666730-e447-4102-9cfa-e7c83146c343","ios":"levelo://app?vid=96666730-e447-4102-9cfa-e7c83146c343"},"vehicle_type_id":"4","last_reported":1773692855,"current_range_meters":10000,"station_id":"","pricing_plan_id":"cebpf4jnsgd1na2vs0mg"},{"bike_id":"8df70779-6e58-44c7-ac07-f239df3555ad","system_id":"levelo_inurba_marseille","lat":43.28284,"lon":5.35084,"is_reserved":false,"is_disabled":false,"rental_uris":{"android":"levelo://app?vid=8df70779-6e58-44c7-ac07-f239df3555ad","ios":"levelo://app?vid=8df70779-6e58-44c7-ac07-f239df3555ad"},"vehicle_type_id":"4","last_reported":1773692855,"current_range_meters":14000,"station_id":"ce4bhbp2rcd13ifvqerg","pricing_plan_id":"cebpf4jnsgd1na2vs0mg"},{"bike_id":"05f53a66-f4ee-4e6c-a890-5da9b44d7c68","system_id":"levelo_inurba_marseille","lat":43.2509,"lon":5.39507,"is_reserved":false,"is_disabled":false,"rental_uris":{"android":"levelo://app?vid=05f53a66-f4ee-4e6c-a890-5da9b44d7c68","ios":"levelo://app?vid=05f53a66-f4ee-4e6c-a890-5da9b44d7c68"},"vehicle_type_id":"4","last_reported":1773692855,"current_range_meters":3200,"station_id":"ce4bhm12rcd13ifvqgkg","pricing_plan_id":"cebpf4jnsgd1na2vs0mg"},{"bike_id":"725fd5b0-4ce1-4e4e-8e87-6910ab2e4f05","system_id":"levelo_inurba_marseille","lat":43.29166,"lon":5.3715,"is_reserved":false,"is_disabled":false,"rental_uris":{"android":"levelo://app?vid=725fd5b0-4ce1-4e4e-8e87-6910ab2e4f05","ios":"levelo://app?vid=725fd5b0-4ce1-4e4e-8e87-6910ab2e4f05"},"vehicle_type_id":"4","last_reported":1773692855,"current_range_meters":14800,"station_id":"ce4bha92rcd13ifvqeh0","pricing_plan_id":"cebpf4jnsgd1na2vs0mg"},{"bike_id":"70f5dc2f-023d-4884-a29b-a1fd8ac95735","system_id":"levelo_inurba_marseille","lat":43.22563,"lon":5.41612,"is_reserved":false,"is_disabled":false,"rental_uris":{"android":"levelo://app?vid=70f5dc2f-023d-4884-a29b-a1fd8ac95735","ios":"levelo://app?vid=70f5dc2f-023d-4884-a29b-a1fd8ac95735"},"vehicle_type_id":"4","last_reported":1773692855,"current_range_meters":8400,"station_id":"st_d2o4gvlbi1j2169b742g","pricing_plan_id":"cebpf4jnsgd1na2vs0mg"},{"bike_id":"d9b1a015-6f90-4a97-953b-ba524117d31d","system_id":"levelo_inurba_marseille","lat":43.30323,"lon":5.40445,"is_reserved":false,"is_disabled":false,"rental_uris":{"android":"levelo://app?vid=d9b1a015-6f90-4a97-953b-ba524117d31d","ios":"levelo://app?vid=d9b1a015-6f90-4a97-953b-ba524117d31d"},"vehicle_type_id":"4","last_reported":1773692855,"current_range_meters":22000,"station_id":"ce4bh012rcd13ifvqd10","pricing_plan_id":"cebpf4jnsgd1na2vs0mg"},{"bike_id":"e4ef0cfc-65cf-4753-808d-9b333cbf3fd7","system_id":"levelo_inurba_marseille","lat":43.27986,"lon":5.41666,"is_reserved":false,"is_disabled":false,"rental_uris":{"android":"levelo://app?vid=e4ef0cfc-65cf-4753-808d-9b333cbf3fd7","ios":"levelo://app?vid=e4ef0cfc-65cf-4753-808d-9b333cbf3fd7"},"vehicle_type_id":"4","last_reported":1773692855,"current_range_meters":6000,"station_id":"ce4bho12rcd13ifvqh1g","pricing_plan_id":"cebpf4jnsgd1na2vs0mg"},{"bike_id":"88c51046-f711-47a8-92da-8801bcacee53","system_id":"levelo_inurba_marseille","lat":43.28147,"lon":5.42646,"is_reserved":false,"is_disabled":false,"rental_uris":{"android":"levelo://app?vid=88c51046-f711-47a8-92da-8801bcacee53","ios":"levelo://app?vid=88c51046-f711-47a8-92da-8801bcacee53"},"vehicle_type_id":"4","last_reported":1773692855,"current_range_meters":22000,"station_id":"ce4bhnh2rcd13ifvqgug","pricing_plan_id":"cebpf4jnsgd1na2vs0mg"},{"bike_id":"c0710d0e-aae6-4e66-837a-1bfc2fc30631","system_id":"levelo_inurba_marseille","lat":43.29534,"lon":5.38538,"is_reserved":false,"is_disabled":false,"rental_uris":{"android":"levelo://app?vid=c0710d0e-aae6-4e66-837a-1bfc2fc30631","ios":"levelo://app?vid=c0710d0e-aae6-4e66-837a-1bfc2fc30631"},"vehicle_type_id":"4","last_reported":1773692855,"current_range_meters":12800,"station_id":"ce4bgih2rcd13ifvqba0","pricing_plan_id":"cebpf4jnsgd1na2vs0mg"},{"bike_id":"fd9e4f2f-977f-437d-8d8f-2362a613e66c","system_id":"levelo_inurba_marseille","lat":43.29735,"lon":5.42657,"is_reserved":false,"is_disabled":false,"rental_uris":{"android":"levelo://app?vid=fd9e4f2f-977f-437d-8d8f-2362a613e66c","ios":"levelo://app?vid=fd9e4f2f-977f-437d-8d8f-2362a613e66c"},"vehicle_type_id":"4","last_reported":1773692855,"current_range_meters":12400,"station_id":"","pricing_plan_id":"cebpf4jnsgd1na2vs0mg"},{"bike_id":"a6ba858e-71e0-415e-aef3-4851ad63a591","system_id":"levelo_inurba_marseille","lat":43.31858,"lon":5.3697,"is_reserved":false,"is_disabled":false,"rental_uris":{"android":"levelo://app?vid=a6ba858e-71e0-415e-aef3-4851ad63a591","ios":"levelo://app?vid=a6ba858e-71e0-415e-aef3-4851ad63a591"},"vehicle_type_id":"4","last_reported":1773692855,"current_range_meters":35200,"station_id":"","pricing_plan_id":"cebpf4jnsgd1na2vs0mg"},{"bike_id":"6ea433eb-9c48-4bd4-87ed-b68d557a79df","system_id":"levelo_inurba_marseille","lat":43.33138,"lon":5.39246,"is_reserved":false,"is_disabled":false,"rental_uris":{"android":"levelo://app?vid=6ea433eb-9c48-4bd4-87ed-b68d557a79df","ios":"levelo://app?vid=6ea433eb-9c48-4bd4-87ed-b68d557a79df"},"vehicle_type_id":"4","last_reported":1773692855,"current_range_meters":34000,"station_id":"","pricing_plan_id":"cebpf4jnsgd1na2vs0mg"},{"bike_id":"d5ecda51-410e-4854-ac16-675caef89176","system_id":"levelo_inurba_marseille","lat":43.29838,"lon":5.36279,"is_reserved":false,"is_disabled":false,"rental_uris":{"android":"levelo://app?vid=d5ecda51-410e-4854-ac16-675caef89176","ios":"levelo://app?vid=d5ecda51-410e-4854-ac16-675caef89176"},"vehicle_type_id":"4","last_reported":1773692855,"current_range_meters":38400,"station_id":"ce4bgpp2rcd13ifvqc3g","pricing_plan_id":"cebpf4jnsgd1na2vs0mg"},{"bike_id":"6775ec35-c811-41f6-9d09-fb5c96f53b22","system_id":"levelo_inurba_marseille","lat":43.31259,"lon":5.37147,"is_reserved":false,"is_disabled":false,"rental_uris":{"android":"levelo://app?vid=6775ec35-c811-41f6-9d09-fb5c96f53b22","ios":"levelo://app?vid=6775ec35-c811-41f6-9d09-fb5c96f53b22"},"vehicle_type_id":"4","last_reported":1773692855,"current_range_meters":35200,"station_id":"","pricing_plan_id":"cebpf4jnsgd1na2vs0mg"},{"bike_id":"7cd60be8-0b65-4d1d-a1d6-175ba90b64b3","system_id":"levelo_inurba_marseille","lat":43.28118,"lon":5.40627,"is_reserved":false,"is_disabled":true,"rental_uris":{"android":"levelo://app?vid=7cd60be8-0b65-4d1d-a1d6-175ba90b64b3","ios":"levelo://app?vid=7cd60be8-0b65-4d1d-a1d6-175ba90b64b3"},"vehicle_type_id":"4","last_reported":1773692855,"current_range_meters":6800,"station_id":"","pricing_plan_id":"cebpf4jnsgd1na2vs0mg"},{"bike_id":"8a814459-8330-4f13-9a39-69768a6f6d4e","system_id":"levelo_inurba_marseille","lat":43.2978,"lon":5.39338,"is_reserved":false,"is_disabled":false,"rental_uris":{"android":"levelo://app?vid=8a814459-8330-4f13-9a39-69768a6f6d4e","ios":"levelo://app?vid=8a814459-8330-4f13-9a39-69768a6f6d4e"},"vehicle_type_id":"4","last_reported":1773692855,"current_range_meters":24000,"station_id":"chh1huq6cuj3fo74tm60","pricing_plan_id":"cebpf4jnsgd1na2vs0mg"},{"bike_id":"7a93f06c-5bbc-49b0-b57f-5604303ce8fc","system_id":"levelo_inurba_marseille","lat":43.30731,"lon":5.42447,"is_reserved":false,"is_disabled":false,"rental_uris":{"android":"levelo://app?vid=7a93f06c-5bbc-49b0-b57f-5604303ce8fc","ios":"levelo://app?vid=7a93f06c-5bbc-49b0-b57f-5604303ce8fc"},"vehicle_type_id":"4","last_reported":1773692855,"current_range_meters":30400,"station_id":"st_cvj6ca6bvosntc0bfgr0","pricing_plan_id":"cebpf4jnsgd1na2vs0mg"},{"bike_id":"7c926348-3d73-4c65-a7f4-ffe07be57d2c","system_id":"levelo_inurba_marseille","lat":43.25567,"lon":5.38255,"is_reserved":false,"is_disabled":false,"rental_uris":{"android":"levelo://app?vid=7c926348-3d73-4c65-a7f4-ffe07be57d2c","ios":"levelo://app?vid=7c926348-3d73-4c65-a7f4-ffe07be57d2c"},"vehicle_type_id":"4","last_reported":1773692855,"current_range_meters":18000,"station_id":"ce4bhih2rcd13ifvqfs0","pricing_plan_id":"cebpf4jnsgd1na2vs0mg"},{"bike_id":"cc73100d-2d7a-48dd-b5ba-ab9da34602cd","system_id":"levelo_inurba_marseille","lat":43.29116,"lon":5.43276,"is_reserved":false,"is_disabled":true,"rental_uris":{"android":"levelo://app?vid=cc73100d-2d7a-48dd-b5ba-ab9da34602cd","ios":"levelo://app?vid=cc73100d-2d7a-48dd-b5ba-ab9da34602cd"},"vehicle_type_id":"4","last_reported":1773692855,"current_range_meters":20400,"station_id":"","pricing_plan_id":"cebpf4jnsgd1na2vs0mg"},{"bike_id":"e40158cb-6491-4d55-8037-d2594915efbd","system_id":"levelo_inurba_marseille","lat":43.28842,"lon":5.35838,"is_reserved":false,"is_disabled":false,"rental_uris":{"android":"levelo://app?vid=e40158cb-6491-4d55-8037-d2594915efbd","ios":"levelo://app?vid=e40158cb-6491-4d55-8037-d2594915efbd"},"vehicle_type_id":"4","last_reported":1773692855,"current_range_meters":27200,"station_id":"ce4bhb12rcd13ifvqem0","pricing_plan_id":"cebpf4jnsgd1na2vs0mg"},{"bike_id":"fb709e4b-58a2-4349-bc60-6e2833f96ea9","system_id":"levelo_inurba_marseille","lat":43.28475,"lon":5.4841,"is_reserved":false,"is_disabled":false,"rental_uris":{"android":"levelo://app?vid=fb709e4b-58a2-4349-bc60-6e2833f96ea9","ios":"levelo://app?vid=fb709e4b-58a2-4349-bc60-6e2833f96ea9"},"vehicle_type_id":"4","last_reported":1773692855,"current_range_meters":8000,"station_id":"","pricing_plan_id":"cebpf4jnsgd1na2vs0mg"},{"bike_id":"ea5b4657-83cd-4b58-8d11-69e9745cd4e2","system_id":"levelo_inurba_marseille","lat":43.31217,"lon":5.36908,"is_reserved":false,"is_disabled":false,"rental_uris":{"android":"levelo://app?vid=ea5b4657-83cd-4b58-8d11-69e9745cd4e2","ios":"levelo://app?vid=ea5b4657-83cd-4b58-8d11-69e9745cd4e2"},"vehicle_type_id":"4","last_reported":1773692855,"current_range_meters":38400,"station_id":"ce4bgl92rcd13ifvqbq0","pricing_plan_id":"cebpf4jnsgd1na2vs0mg"},{"bike_id":"914bc69e-390e-470d-ac92-a02960e06944","system_id":"levelo_inurba_marseille","lat":43.26036,"lon":5.37542,"is_reserved":false,"is_disabled":false,"rental_uris":{"android":"levelo://app?vid=914bc69e-390e-470d-ac92-a02960e06944","ios":"levelo://app?vid=914bc69e-390e-470d-ac92-a02960e06944"},"vehicle_type_id":"4","last_reported":1773692855,"current_range_meters":27200,"station_id":"ce4bhgh2rcd13ifvqfa0","pricing_plan_id":"cebpf4jnsgd1na2vs0mg"},{"bike_id":"9715ac2a-40d3-4fea-8e10-bf375a959635","system_id":"levelo_inurba_marseille","lat":43.29033,"lon":5.38644,"is_reserved":false,"is_disabled":false,"rental_uris":{"android":"levelo://app?vid=9715ac2a-40d3-4fea-8e10-bf375a959635","ios":"levelo://app?vid=9715ac2a-40d3-4fea-8e10-bf375a959635"},"vehicle_type_id":"4","last_reported":1773692855,"current_range_meters":18800,"station_id":"ce4bh4p2rcd13ifvqe0g","pricing_plan_id":"cebpf4jnsgd1na2vs0mg"},{"bike_id":"25d04cfc-1221-455d-ab2b-16dea4dba85c","system_id":"levelo_inurba_marseille","lat":43.28662,"lon":5.3635,"is_reserved":false,"is_disabled":false,"rental_uris":{"android":"levelo://app?vid=25d04cfc-1221-455d-ab2b-16dea4dba85c","ios":"levelo://app?vid=25d04cfc-1221-455d-ab2b-16dea4dba85c"},"vehicle_type_id":"4","last_reported":1773692855,"current_range_meters":22000,"station_id":"ce4bhah2rcd13ifvqej0","pricing_plan_id":"cebpf4jnsgd1na2vs0mg"},{"bike_id":"769d425b-6b91-4732-b928-32292bfd141a","system_id":"levelo_inurba_marseille","lat":43.33549,"lon":5.37429,"is_reserved":false,"is_disabled":false,"rental_uris":{"android":"levelo://app?vid=769d425b-6b91-4732-b928-32292bfd141a","ios":"levelo://app?vid=769d425b-6b91-4732-b928-32292bfd141a"},"vehicle_type_id":"4","last_reported":1773692855,"current_range_meters":13600,"station_id":"st_d46tts09ee8s73dlu43g","pricing_plan_id":"cebpf4jnsgd1na2vs0mg"},{"bike_id":"58f086ec-8222-403c-b5fd-e0e01606a9bf","system_id":"levelo_inurba_marseille","lat":43.28617,"lon":5.35093,"is_reserved":false,"is_disabled":false,"rental_uris":{"android":"levelo://app?vid=58f086ec-8222-403c-b5fd-e0e01606a9bf","ios":"levelo://app?vid=58f086ec-8222-403c-b5fd-e0e01606a9bf"},"vehicle_type_id":"4","last_reported":1773692855,"current_range_meters":32400,"station_id":"ce4bhch2rcd13ifvqeug","pricing_plan_id":"cebpf4jnsgd1na2vs0mg"},{"bike_id":"26bcd0fe-d58b-4dcb-a3c7-58ca715a586a","system_id":"levelo_inurba_marseille","lat":43.23064,"lon":5.35494,"is_reserved":false,"is_disabled":false,"rental_uris":{"android":"levelo://app?vid=26bcd0fe-d58b-4dcb-a3c7-58ca715a586a","ios":"levelo://app?vid=26bcd0fe-d58b-4dcb-a3c7-58ca715a586a"},"vehicle_type_id":"4","last_reported":1773692855,"current_range_meters":35600,"station_id":"cpo3342slgdg3j2ifvpg","pricing_plan_id":"cebpf4jnsgd1na2vs0mg"},{"bike_id":"1df13793-c5c3-4eaf-9c72-921245fffd38","system_id":"levelo_inurba_marseille","lat":43.24674,"lon":5.38898,"is_reserved":false,"is_disabled":false,"rental_uris":{"android":"levelo://app?vid=1df13793-c5c3-4eaf-9c72-921245fffd38","ios":"levelo://app?vid=1df13793-c5c3-4eaf-9c72-921245fffd38"},"vehicle_type_id":"4","last_reported":1773692855,"current_range_meters":4000,"station_id":"ce4bhg12rcd13ifvqf60","pricing_plan_id":"cebpf4jnsgd1na2vs0mg"},{"bike_id":"ff8ee363-dea6-4640-9711-4fe5fd43e770","system_id":"levelo_inurba_marseille","lat":43.25826,"lon":5.39435,"is_reserved":false,"is_disabled":false,"rental_uris":{"android":"levelo://app?vid=ff8ee363-dea6-4640-9711-4fe5fd43e770","ios":"levelo://app?vid=ff8ee363-dea6-4640-9711-4fe5fd43e770"},"vehicle_type_id":"4","last_reported":1773692855,"current_range_meters":22800,"station_id":"ce4bhip2rcd13ifvqft0","pricing_plan_id":"cebpf4jnsgd1na2vs0mg"},{"bike_id":"e5c9ae4f-8dac-4d75-aac3-52990a81ffff","system_id":"levelo_inurba_marseille","lat":43.23189,"lon":5.40022,"is_reserved":false,"is_disabled":false,"rental_uris":{"android":"levelo://app?vid=e5c9ae4f-8dac-4d75-aac3-52990a81ffff","ios":"levelo://app?vid=e5c9ae4f-8dac-4d75-aac3-52990a81ffff"},"vehicle_type_id":"4","last_reported":1773692855,"current_range_meters":9600,"station_id":"ce4bhn12rcd13ifvqgqg","pricing_plan_id":"cebpf4jnsgd1na2vs0mg"},{"bike_id":"8f743b42-a6e0-47ab-a15d-c347c733320a","system_id":"levelo_inurba_marseille","lat":43.26786,"lon":5.39411,"is_reserved":false,"is_disabled":false,"rental_uris":{"android":"levelo://app?vid=8f743b42-a6e0-47ab-a15d-c347c733320a","ios":"levelo://app?vid=8f743b42-a6e0-47ab-a15d-c347c733320a"},"vehicle_type_id":"4","last_reported":1773692855,"current_range_meters":20400,"station_id":"ce4bhh12rcd13ifvqfg0","pricing_plan_id":"cebpf4jnsgd1na2vs0mg"},{"bike_id":"767d6420-2dcb-4158-89ca-d906059e429f","system_id":"levelo_inurba_marseille","lat":43.25573,"lon":5.38233,"is_reserved":false,"is_disabled":false,"rental_uris":{"android":"levelo://app?vid=767d6420-2dcb-4158-89ca-d906059e429f","ios":"levelo://app?vid=767d6420-2dcb-4158-89ca-d906059e429f"},"vehicle_type_id":"4","last_reported":1773692855,"current_range_meters":30400,"station_id":"ce4bhih2rcd13ifvqfs0","pricing_plan_id":"cebpf4jnsgd1na2vs0mg"},{"bike_id":"e7710412-8491-4dbb-9312-c2258239320d","system_id":"levelo_inurba_marseille","lat":43.23786,"lon":5.36626,"is_reserved":false,"is_disabled":false,"rental_uris":{"android":"levelo://app?vid=e7710412-8491-4dbb-9312-c2258239320d","ios":"levelo://app?vid=e7710412-8491-4dbb-9312-c2258239320d"},"vehicle_type_id":"4","last_reported":1773692855,"current_range_meters":11200,"station_id":"st_d3nk18o9ro0c73en2l3g","pricing_plan_id":"cebpf4jnsgd1na2vs0mg"},{"bike_id":"abcf5688-6662-43be-a862-4dd317de204d","system_id":"levelo_inurba_marseille","lat":43.2927,"lon":5.38454,"is_reserved":false,"is_disabled":false,"rental_uris":{"android":"levelo://app?vid=abcf5688-6662-43be-a862-4dd317de204d","ios":"levelo://app?vid=abcf5688-6662-43be-a862-4dd317de204d"},"vehicle_type_id":"4","last_reported":1773692855,"current_range_meters":39200,"station_id":"ce4bh692rcd13ifvqea0","pricing_plan_id":"cebpf4jnsgd1na2vs0mg"},{"bike_id":"2c2f0192-ebff-467c-bff4-7909357cadb5","system_id":"levelo_inurba_marseille","lat":43.29678,"lon":5.37299,"is_reserved":false,"is_disabled":false,"rental_uris":{"android":"levelo://app?vid=2c2f0192-ebff-467c-bff4-7909357cadb5","ios":"levelo://app?vid=2c2f0192-ebff-467c-bff4-7909357cadb5"},"vehicle_type_id":"4","last_reported":1773692855,"current_range_meters":18000,"station_id":"ce4bgk12rcd13ifvqbj0","pricing_plan_id":"cebpf4jnsgd1na2vs0mg"},{"bike_id":"fbdba17c-3f4c-4fa6-8be8-64a5bd5be441","system_id":"levelo_inurba_marseille","lat":43.2117,"lon":5.35202,"is_reserved":false,"is_disabled":false,"rental_uris":{"android":"levelo://app?vid=fbdba17c-3f4c-4fa6-8be8-64a5bd5be441","ios":"levelo://app?vid=fbdba17c-3f4c-4fa6-8be8-64a5bd5be441"},"vehicle_type_id":"4","last_reported":1773692855,"current_range_meters":9600,"station_id":"st_cvj6sg6p6f1abm77japg","pricing_plan_id":"cebpf4jnsgd1na2vs0mg"},{"bike_id":"e91ee428-beb5-4ed3-9785-75a82126ef3d","system_id":"levelo_inurba_marseille","lat":43.21758,"lon":5.34595,"is_reserved":false,"is_disabled":false,"rental_uris":{"android":"levelo://app?vid=e91ee428-beb5-4ed3-9785-75a82126ef3d","ios":"levelo://app?vid=e91ee428-beb5-4ed3-9785-75a82126ef3d"},"vehicle_type_id":"4","last_reported":1773692855,"current_range_meters":25200,"station_id":"st_cvj6r9ubvosntc0bgbag","pricing_plan_id":"cebpf4jnsgd1na2vs0mg"},{"bike_id":"eaad2f3c-e7a4-40f4-88fc-12cfe6e14f2d","system_id":"levelo_inurba_marseille","lat":43.28236,"lon":5.35315,"is_reserved":false,"is_disabled":false,"rental_uris":{"android":"levelo://app?vid=eaad2f3c-e7a4-40f4-88fc-12cfe6e14f2d","ios":"levelo://app?vid=eaad2f3c-e7a4-40f4-88fc-12cfe6e14f2d"},"vehicle_type_id":"4","last_reported":1773692855,"current_range_meters":37600,"station_id":"","pricing_plan_id":"cebpf4jnsgd1na2vs0mg"},{"bike_id":"c42f93f7-a528-4e2a-94cf-06b82287d43c","system_id":"levelo_inurba_marseille","lat":43.31438,"lon":5.39301,"is_reserved":false,"is_disabled":false,"rental_uris":{"android":"levelo://app?vid=c42f93f7-a528-4e2a-94cf-06b82287d43c","ios":"levelo://app?vid=c42f93f7-a528-4e2a-94cf-06b82287d43c"},"vehicle_type_id":"4","last_reported":1773692855,"current_range_meters":22400,"station_id":"","pricing_plan_id":"cebpf4jnsgd1na2vs0mg"},{"bike_id":"b18f92ce-e8e3-49fa-afac-b0da38ef9234","system_id":"levelo_inurba_marseille","lat":43.31524,"lon":5.37286,"is_reserved":false,"is_disabled":true,"rental_uris":{"android":"levelo://app?vid=b18f92ce-e8e3-49fa-afac-b0da38ef9234","ios":"levelo://app?vid=b18f92ce-e8e3-49fa-afac-b0da38ef9234"},"vehicle_type_id":"4","last_reported":1773692855,"current_range_meters":32800,"station_id":"ce4bgt12rcd13ifvqcd0","pricing_plan_id":"cebpf4jnsgd1na2vs0mg"},{"bike_id":"cfbad1a3-bb10-4831-9d8c-b1ac1c2d1a88","system_id":"levelo_inurba_marseille","lat":43.28483,"lon":5.48388,"is_reserved":false,"is_disabled":false,"rental_uris":{"android":"levelo://app?vid=cfbad1a3-bb10-4831-9d8c-b1ac1c2d1a88","ios":"levelo://app?vid=cfbad1a3-bb10-4831-9d8c-b1ac1c2d1a88"},"vehicle_type_id":"4","last_reported":1773692855,"current_range_meters":30800,"station_id":"","pricing_plan_id":"cebpf4jnsgd1na2vs0mg"},{"bike_id":"288d8e2c-7694-4036-b484-13b32f96e134","system_id":"levelo_inurba_marseille","lat":43.24992,"lon":5.38927,"is_reserved":false,"is_disabled":false,"rental_uris":{"android":"levelo://app?vid=288d8e2c-7694-4036-b484-13b32f96e134","ios":"levelo://app?vid=288d8e2c-7694-4036-b484-13b32f96e134"},"vehicle_type_id":"4","last_reported":1773692855,"current_range_meters":24400,"station_id":"ce4bhgp2rcd13ifvqfd0","pricing_plan_id":"cebpf4jnsgd1na2vs0mg"},{"bike_id":"4d9d5a78-b8c2-4aee-ab9e-6f39d9b6846b","system_id":"levelo_inurba_marseille","lat":43.30556,"lon":5.38418,"is_reserved":false,"is_disabled":false,"rental_uris":{"android":"levelo://app?vid=4d9d5a78-b8c2-4aee-ab9e-6f39d9b6846b","ios":"levelo://app?vid=4d9d5a78-b8c2-4aee-ab9e-6f39d9b6846b"},"vehicle_type_id":"4","last_reported":1773692855,"current_range_meters":3200,"station_id":"ce4bgg92rcd13ifvqb30","pricing_plan_id":"cebpf4jnsgd1na2vs0mg"},{"bike_id":"d0fa8407-3709-432a-86dd-e2865ec682e8","system_id":"levelo_inurba_marseille","lat":43.29449,"lon":5.39743,"is_reserved":false,"is_disabled":false,"rental_uris":{"android":"levelo://app?vid=d0fa8407-3709-432a-86dd-e2865ec682e8","ios":"levelo://app?vid=d0fa8407-3709-432a-86dd-e2865ec682e8"},"vehicle_type_id":"4","last_reported":1773692855,"current_range_meters":35200,"station_id":"ce4bh3h2rcd13ifvqdo0","pricing_plan_id":"cebpf4jnsgd1na2vs0mg"},{"bike_id":"8875e071-3669-43e8-8862-128032c0ed69","system_id":"levelo_inurba_marseille","lat":43.23189,"lon":5.35566,"is_reserved":false,"is_disabled":false,"rental_uris":{"android":"levelo://app?vid=8875e071-3669-43e8-8862-128032c0ed69","ios":"levelo://app?vid=8875e071-3669-43e8-8862-128032c0ed69"},"vehicle_type_id":"4","last_reported":1773692855,"current_range_meters":27600,"station_id":"ce4bhu92rcd13ifvqi70","pricing_plan_id":"cebpf4jnsgd1na2vs0mg"},{"bike_id":"efceef29-5583-4093-af3c-f0286cd8ccc5","system_id":"levelo_inurba_marseille","lat":43.2848,"lon":5.48398,"is_reserved":false,"is_disabled":false,"rental_uris":{"android":"levelo://app?vid=efceef29-5583-4093-af3c-f0286cd8ccc5","ios":"levelo://app?vid=efceef29-5583-4093-af3c-f0286cd8ccc5"},"vehicle_type_id":"4","last_reported":1773692855,"current_range_meters":24800,"station_id":"","pricing_plan_id":"cebpf4jnsgd1na2vs0mg"},{"bike_id":"c20866cb-94a1-483b-9643-d9b999d8d972","system_id":"levelo_inurba_marseille","lat":43.30918,"lon":5.40157,"is_reserved":false,"is_disabled":true,"rental_uris":{"android":"levelo://app?vid=c20866cb-94a1-483b-9643-d9b999d8d972","ios":"levelo://app?vid=c20866cb-94a1-483b-9643-d9b999d8d972"},"vehicle_type_id":"4","last_reported":1773692855,"current_range_meters":27200,"station_id":"ce4bgvp2rcd13ifvqct0","pricing_plan_id":"cebpf4jnsgd1na2vs0mg"},{"bike_id":"b244af94-bada-4817-8807-18abd820795e","system_id":"levelo_inurba_marseille","lat":43.29009,"lon":5.38645,"is_reserved":false,"is_disabled":false,"rental_uris":{"android":"levelo://app?vid=b244af94-bada-4817-8807-18abd820795e","ios":"levelo://app?vid=b244af94-bada-4817-8807-18abd820795e"},"vehicle_type_id":"4","last_reported":1773692855,"current_range_meters":37600,"station_id":"ce4bh4p2rcd13ifvqe0g","pricing_plan_id":"cebpf4jnsgd1na2vs0mg"},{"bike_id":"a5550b5f-44b8-4aae-b426-0055e4f9b868","system_id":"levelo_inurba_marseille","lat":43.25341,"lon":5.42148,"is_reserved":false,"is_disabled":false,"rental_uris":{"android":"levelo://app?vid=a5550b5f-44b8-4aae-b426-0055e4f9b868","ios":"levelo://app?vid=a5550b5f-44b8-4aae-b426-0055e4f9b868"},"vehicle_type_id":"4","last_reported":1773692855,"current_range_meters":6800,"station_id":"st_d2m65c5bi1j21697t3ng","pricing_plan_id":"cebpf4jnsgd1na2vs0mg"},{"bike_id":"b2af18da-8d41-430a-b13d-00ec1dddfdb6","system_id":"levelo_inurba_marseille","lat":43.28725,"lon":5.36097,"is_reserved":false,"is_disabled":false,"rental_uris":{"android":"levelo://app?vid=b2af18da-8d41-430a-b13d-00ec1dddfdb6","ios":"levelo://app?vid=b2af18da-8d41-430a-b13d-00ec1dddfdb6"},"vehicle_type_id":"4","last_reported":1773692855,"current_range_meters":7200,"station_id":"cki0cbj6b192h4jlfktg","pricing_plan_id":"cebpf4jnsgd1na2vs0mg"},{"bike_id":"7381552b-09a6-45a1-ab4d-5790d0c9dce2","system_id":"levelo_inurba_marseille","lat":43.29523,"lon":5.38548,"is_reserved":false,"is_disabled":false,"rental_uris":{"android":"levelo://app?vid=7381552b-09a6-45a1-ab4d-5790d0c9dce2","ios":"levelo://app?vid=7381552b-09a6-45a1-ab4d-5790d0c9dce2"},"vehicle_type_id":"4","last_reported":1773692855,"current_range_meters":39200,"station_id":"ce4bgih2rcd13ifvqba0","pricing_plan_id":"cebpf4jnsgd1na2vs0mg"},{"bike_id":"5e87c911-22fd-412b-9217-a6ba71b77b44","system_id":"levelo_inurba_marseille","lat":43.25349,"lon":5.42175,"is_reserved":false,"is_disabled":false,"rental_uris":{"android":"levelo://app?vid=5e87c911-22fd-412b-9217-a6ba71b77b44","ios":"levelo://app?vid=5e87c911-22fd-412b-9217-a6ba71b77b44"},"vehicle_type_id":"4","last_reported":1773692855,"current_range_meters":4000,"station_id":"st_d2m65c5bi1j21697t3ng","pricing_plan_id":"cebpf4jnsgd1na2vs0mg"},{"bike_id":"8745a5a4-ac45-40ea-a68e-8773cb4b8cb9","system_id":"levelo_inurba_marseille","lat":43.29705,"lon":5.37289,"is_reserved":false,"is_disabled":false,"rental_uris":{"android":"levelo://app?vid=8745a5a4-ac45-40ea-a68e-8773cb4b8cb9","ios":"levelo://app?vid=8745a5a4-ac45-40ea-a68e-8773cb4b8cb9"},"vehicle_type_id":"4","last_reported":1773692855,"current_range_meters":6800,"station_id":"ce4bgk12rcd13ifvqbj0","pricing_plan_id":"cebpf4jnsgd1na2vs0mg"},{"bike_id":"80079361-9020-4bac-9fc6-cae4da907964","system_id":"levelo_inurba_marseille","lat":43.3031,"lon":5.40444,"is_reserved":false,"is_disabled":true,"rental_uris":{"android":"levelo://app?vid=80079361-9020-4bac-9fc6-cae4da907964","ios":"levelo://app?vid=80079361-9020-4bac-9fc6-cae4da907964"},"vehicle_type_id":"4","last_reported":1773692855,"current_range_meters":0,"station_id":"ce4bh012rcd13ifvqd10","pricing_plan_id":"cebpf4jnsgd1na2vs0mg"},{"bike_id":"1c9871cb-0bae-4d60-ac6e-59096ebe4317","system_id":"levelo_inurba_marseille","lat":43.27823,"lon":5.40718,"is_reserved":false,"is_disabled":false,"rental_uris":{"android":"levelo://app?vid=1c9871cb-0bae-4d60-ac6e-59096ebe4317","ios":"levelo://app?vid=1c9871cb-0bae-4d60-ac6e-59096ebe4317"},"vehicle_type_id":"4","last_reported":1773692855,"current_range_meters":33200,"station_id":"ce4bhnh2rcd13ifvqgtg","pricing_plan_id":"cebpf4jnsgd1na2vs0mg"},{"bike_id":"a377c0c3-6951-42fb-9ec4-68ddbdbfc4d7","system_id":"levelo_inurba_marseille","lat":43.28086,"lon":5.39638,"is_reserved":false,"is_disabled":true,"rental_uris":{"android":"levelo://app?vid=a377c0c3-6951-42fb-9ec4-68ddbdbfc4d7","ios":"levelo://app?vid=a377c0c3-6951-42fb-9ec4-68ddbdbfc4d7"},"vehicle_type_id":"4","last_reported":1773692855,"current_range_meters":30400,"station_id":"ce4bho12rcd13ifvqh2g","pricing_plan_id":"cebpf4jnsgd1na2vs0mg"},{"bike_id":"8ba4e8a2-2336-424c-8725-2482f97ed153","system_id":"levelo_inurba_marseille","lat":43.28715,"lon":5.37941,"is_reserved":false,"is_disabled":true,"rental_uris":{"android":"levelo://app?vid=8ba4e8a2-2336-424c-8725-2482f97ed153","ios":"levelo://app?vid=8ba4e8a2-2336-424c-8725-2482f97ed153"},"vehicle_type_id":"4","last_reported":1773692855,"current_range_meters":28000,"station_id":"ce4bh9p2rcd13ifvqec0","pricing_plan_id":"cebpf4jnsgd1na2vs0mg"},{"bike_id":"051469de-f1ab-48a8-92ee-becc1308faf9","system_id":"levelo_inurba_marseille","lat":43.30815,"lon":5.38135,"is_reserved":false,"is_disabled":false,"rental_uris":{"android":"levelo://app?vid=051469de-f1ab-48a8-92ee-becc1308faf9","ios":"levelo://app?vid=051469de-f1ab-48a8-92ee-becc1308faf9"},"vehicle_type_id":"4","last_reported":1773692855,"current_range_meters":28400,"station_id":"ce4bgt12rcd13ifvqce0","pricing_plan_id":"cebpf4jnsgd1na2vs0mg"},{"bike_id":"706d9f6d-66d3-4569-9c3d-ced163161277","system_id":"levelo_inurba_marseille","lat":43.30301,"lon":5.36893,"is_reserved":false,"is_disabled":true,"rental_uris":{"android":"levelo://app?vid=706d9f6d-66d3-4569-9c3d-ced163161277","ios":"levelo://app?vid=706d9f6d-66d3-4569-9c3d-ced163161277"},"vehicle_type_id":"4","last_reported":1773692855,"current_range_meters":7200,"station_id":"ce4bgqh2rcd13ifvqc5g","pricing_plan_id":"cebpf4jnsgd1na2vs0mg"},{"bike_id":"0996bcda-2a03-4ca6-afc4-0df4d142c3da","system_id":"levelo_inurba_marseille","lat":43.28447,"lon":5.35897,"is_reserved":false,"is_disabled":false,"rental_uris":{"android":"levelo://app?vid=0996bcda-2a03-4ca6-afc4-0df4d142c3da","ios":"levelo://app?vid=0996bcda-2a03-4ca6-afc4-0df4d142c3da"},"vehicle_type_id":"4","last_reported":1773692855,"current_range_meters":39200,"station_id":"ce4bhah2rcd13ifvqei0","pricing_plan_id":"cebpf4jnsgd1na2vs0mg"},{"bike_id":"bc040a93-83b1-4de4-ba77-73f7d67aa764","system_id":"levelo_inurba_marseille","lat":43.30726,"lon":5.42427,"is_reserved":false,"is_disabled":false,"rental_uris":{"android":"levelo://app?vid=bc040a93-83b1-4de4-ba77-73f7d67aa764","ios":"levelo://app?vid=bc040a93-83b1-4de4-ba77-73f7d67aa764"},"vehicle_type_id":"4","last_reported":1773692855,"current_range_meters":38400,"station_id":"st_cvj6ca6bvosntc0bfgr0","pricing_plan_id":"cebpf4jnsgd1na2vs0mg"},{"bike_id":"bf474a07-7190-4fc7-b44a-d4f62a683e6b","system_id":"levelo_inurba_marseille","lat":43.21734,"lon":5.34603,"is_reserved":false,"is_disabled":false,"rental_uris":{"android":"levelo://app?vid=bf474a07-7190-4fc7-b44a-d4f62a683e6b","ios":"levelo://app?vid=bf474a07-7190-4fc7-b44a-d4f62a683e6b"},"vehicle_type_id":"4","last_reported":1773692855,"current_range_meters":15200,"station_id":"st_cvj6r9ubvosntc0bgbag","pricing_plan_id":"cebpf4jnsgd1na2vs0mg"},{"bike_id":"6e14dd9f-99ca-406d-aa48-d01502d78a5b","system_id":"levelo_inurba_marseille","lat":43.23207,"lon":5.3556,"is_reserved":false,"is_disabled":false,"rental_uris":{"android":"levelo://app?vid=6e14dd9f-99ca-406d-aa48-d01502d78a5b","ios":"levelo://app?vid=6e14dd9f-99ca-406d-aa48-d01502d78a5b"},"vehicle_type_id":"4","last_reported":1773692855,"current_range_meters":33600,"station_id":"ce4bhu92rcd13ifvqi70","pricing_plan_id":"cebpf4jnsgd1na2vs0mg"},{"bike_id":"759e6c79-5258-4358-bacf-a4bf850de23e","system_id":"levelo_inurba_marseille","lat":43.25738,"lon":5.41123,"is_reserved":false,"is_disabled":false,"rental_uris":{"android":"levelo://app?vid=759e6c79-5258-4358-bacf-a4bf850de23e","ios":"levelo://app?vid=759e6c79-5258-4358-bacf-a4bf850de23e"},"vehicle_type_id":"4","last_reported":1773692855,"current_range_meters":32800,"station_id":"ce4bhkp2rcd13ifvqgd0","pricing_plan_id":"cebpf4jnsgd1na2vs0mg"},{"bike_id":"fb65d9a5-e6ae-439b-8668-a277dbf2dfb8","system_id":"levelo_inurba_marseille","lat":43.25002,"lon":5.38949,"is_reserved":false,"is_disabled":false,"rental_uris":{"android":"levelo://app?vid=fb65d9a5-e6ae-439b-8668-a277dbf2dfb8","ios":"levelo://app?vid=fb65d9a5-e6ae-439b-8668-a277dbf2dfb8"},"vehicle_type_id":"4","last_reported":1773692855,"current_range_meters":8000,"station_id":"ce4bhgp2rcd13ifvqfd0","pricing_plan_id":"cebpf4jnsgd1na2vs0mg"},{"bike_id":"d3d296f6-3cc9-4bc6-b163-6cb7d5835afe","system_id":"levelo_inurba_marseille","lat":43.3109,"lon":5.42434,"is_reserved":false,"is_disabled":false,"rental_uris":{"android":"levelo://app?vid=d3d296f6-3cc9-4bc6-b163-6cb7d5835afe","ios":"levelo://app?vid=d3d296f6-3cc9-4bc6-b163-6cb7d5835afe"},"vehicle_type_id":"4","last_reported":1773692855,"current_range_meters":20400,"station_id":"ce4bhp92rcd13ifvqhag","pricing_plan_id":"cebpf4jnsgd1na2vs0mg"},{"bike_id":"1f2e8be6-2cf9-4d81-9424-26a1e1938a8c","system_id":"levelo_inurba_marseille","lat":43.29518,"lon":5.39046,"is_reserved":false,"is_disabled":true,"rental_uris":{"android":"levelo://app?vid=1f2e8be6-2cf9-4d81-9424-26a1e1938a8c","ios":"levelo://app?vid=1f2e8be6-2cf9-4d81-9424-26a1e1938a8c"},"vehicle_type_id":"4","last_reported":1773692855,"current_range_meters":22000,"station_id":"ce4bh3p2rcd13ifvqdp0","pricing_plan_id":"cebpf4jnsgd1na2vs0mg"},{"bike_id":"16b3ff50-370b-4005-a733-c543e58c0a4a","system_id":"levelo_inurba_marseille","lat":43.23194,"lon":5.3555,"is_reserved":false,"is_disabled":false,"rental_uris":{"android":"levelo://app?vid=16b3ff50-370b-4005-a733-c543e58c0a4a","ios":"levelo://app?vid=16b3ff50-370b-4005-a733-c543e58c0a4a"},"vehicle_type_id":"4","last_reported":1773692855,"current_range_meters":16400,"station_id":"ce4bhu92rcd13ifvqi70","pricing_plan_id":"cebpf4jnsgd1na2vs0mg"},{"bike_id":"e93be9ef-d980-4904-911e-5c7c5a234e74","system_id":"levelo_inurba_marseille","lat":43.26915,"lon":5.40222,"is_reserved":false,"is_disabled":false,"rental_uris":{"android":"levelo://app?vid=e93be9ef-d980-4904-911e-5c7c5a234e74","ios":"levelo://app?vid=e93be9ef-d980-4904-911e-5c7c5a234e74"},"vehicle_type_id":"4","last_reported":1773692855,"current_range_meters":39200,"station_id":"cjm6bp8fraef2m0cb0m0","pricing_plan_id":"cebpf4jnsgd1na2vs0mg"},{"bike_id":"0f9534ac-ead0-4757-8354-9c329d425608","system_id":"levelo_inurba_marseille","lat":43.32655,"lon":5.40995,"is_reserved":false,"is_disabled":false,"rental_uris":{"android":"levelo://app?vid=0f9534ac-ead0-4757-8354-9c329d425608","ios":"levelo://app?vid=0f9534ac-ead0-4757-8354-9c329d425608"},"vehicle_type_id":"4","last_reported":1773692855,"current_range_meters":38400,"station_id":"ce4bhpp2rcd13ifvqhgg","pricing_plan_id":"cebpf4jnsgd1na2vs0mg"},{"bike_id":"438e53df-d7ea-40e2-9e95-54ee68be3a49","system_id":"levelo_inurba_marseille","lat":43.29959,"lon":5.41327,"is_reserved":false,"is_disabled":false,"rental_uris":{"android":"levelo://app?vid=438e53df-d7ea-40e2-9e95-54ee68be3a49","ios":"levelo://app?vid=438e53df-d7ea-40e2-9e95-54ee68be3a49"},"vehicle_type_id":"4","last_reported":1773692855,"current_range_meters":37600,"station_id":"ce4bhp12rcd13ifvqh9g","pricing_plan_id":"cebpf4jnsgd1na2vs0mg"},{"bike_id":"52eaefa4-9ea2-415a-8c0d-d389354bf5dc","system_id":"levelo_inurba_marseille","lat":43.29786,"lon":5.37083,"is_reserved":false,"is_disabled":false,"rental_uris":{"android":"levelo://app?vid=52eaefa4-9ea2-415a-8c0d-d389354bf5dc","ios":"levelo://app?vid=52eaefa4-9ea2-415a-8c0d-d389354bf5dc"},"vehicle_type_id":"4","last_reported":1773692855,"current_range_meters":36800,"station_id":"ce4bgop2rcd13ifvqc1g","pricing_plan_id":"cebpf4jnsgd1na2vs0mg"},{"bike_id":"09bba846-35c6-4023-9a40-63297ed76d38","system_id":"levelo_inurba_marseille","lat":43.30413,"lon":5.42475,"is_reserved":false,"is_disabled":false,"rental_uris":{"android":"levelo://app?vid=09bba846-35c6-4023-9a40-63297ed76d38","ios":"levelo://app?vid=09bba846-35c6-4023-9a40-63297ed76d38"},"vehicle_type_id":"4","last_reported":1773692855,"current_range_meters":8000,"station_id":"ce4bghh2rcd13ifvqb60","pricing_plan_id":"cebpf4jnsgd1na2vs0mg"},{"bike_id":"c9596876-6346-404c-adbc-ba6dcf4475db","system_id":"levelo_inurba_marseille","lat":43.28651,"lon":5.38674,"is_reserved":false,"is_disabled":true,"rental_uris":{"android":"levelo://app?vid=c9596876-6346-404c-adbc-ba6dcf4475db","ios":"levelo://app?vid=c9596876-6346-404c-adbc-ba6dcf4475db"},"vehicle_type_id":"4","last_reported":1773692855,"current_range_meters":24400,"station_id":"ce4bh492rcd13ifvqdug","pricing_plan_id":"cebpf4jnsgd1na2vs0mg"},{"bike_id":"360160eb-c881-4235-993f-588c1babd90e","system_id":"levelo_inurba_marseille","lat":43.287,"lon":5.37393,"is_reserved":false,"is_disabled":false,"rental_uris":{"android":"levelo://app?vid=360160eb-c881-4235-993f-588c1babd90e","ios":"levelo://app?vid=360160eb-c881-4235-993f-588c1babd90e"},"vehicle_type_id":"4","last_reported":1773692855,"current_range_meters":30400,"station_id":"ce4bh3p2rcd13ifvqdq0","pricing_plan_id":"cebpf4jnsgd1na2vs0mg"},{"bike_id":"8cd7bb25-5b72-4178-9e7c-455808ae7981","system_id":"levelo_inurba_marseille","lat":43.25088,"lon":5.39513,"is_reserved":false,"is_disabled":false,"rental_uris":{"android":"levelo://app?vid=8cd7bb25-5b72-4178-9e7c-455808ae7981","ios":"levelo://app?vid=8cd7bb25-5b72-4178-9e7c-455808ae7981"},"vehicle_type_id":"4","last_reported":1773692855,"current_range_meters":16800,"station_id":"ce4bhm12rcd13ifvqgkg","pricing_plan_id":"cebpf4jnsgd1na2vs0mg"},{"bike_id":"1a84020a-456e-442d-a4af-de588b00d377","system_id":"levelo_inurba_marseille","lat":43.29818,"lon":5.44049,"is_reserved":false,"is_disabled":false,"rental_uris":{"android":"levelo://app?vid=1a84020a-456e-442d-a4af-de588b00d377","ios":"levelo://app?vid=1a84020a-456e-442d-a4af-de588b00d377"},"vehicle_type_id":"4","last_reported":1773692855,"current_range_meters":8000,"station_id":"st_d3jp68qikq2c7381ktn0","pricing_plan_id":"cebpf4jnsgd1na2vs0mg"},{"bike_id":"b9e5fdad-2486-4e2c-a384-223d19f6eed7","system_id":"levelo_inurba_marseille","lat":43.27373,"lon":5.36254,"is_reserved":false,"is_disabled":false,"rental_uris":{"android":"levelo://app?vid=b9e5fdad-2486-4e2c-a384-223d19f6eed7","ios":"levelo://app?vid=b9e5fdad-2486-4e2c-a384-223d19f6eed7"},"vehicle_type_id":"4","last_reported":1773692855,"current_range_meters":30000,"station_id":"ce4bhbh2rcd13ifvqeo0","pricing_plan_id":"cebpf4jnsgd1na2vs0mg"},{"bike_id":"bd8ff244-9d25-43a9-81c3-b439b3f3ff7d","system_id":"levelo_inurba_marseille","lat":43.28415,"lon":5.37514,"is_reserved":false,"is_disabled":false,"rental_uris":{"android":"levelo://app?vid=bd8ff244-9d25-43a9-81c3-b439b3f3ff7d","ios":"levelo://app?vid=bd8ff244-9d25-43a9-81c3-b439b3f3ff7d"},"vehicle_type_id":"4","last_reported":1773692855,"current_range_meters":4800,"station_id":"ce4bh412rcd13ifvqds0","pricing_plan_id":"cebpf4jnsgd1na2vs0mg"},{"bike_id":"0c335a06-bb8d-4e60-b16b-2272ae511e41","system_id":"levelo_inurba_marseille","lat":43.287026,"lon":5.373634,"is_reserved":false,"is_disabled":false,"rental_uris":{"android":"levelo://app?vid=0c335a06-bb8d-4e60-b16b-2272ae511e41","ios":"levelo://app?vid=0c335a06-bb8d-4e60-b16b-2272ae511e41"},"vehicle_type_id":"4","last_reported":1773692855,"current_range_meters":4800,"station_id":"ce4bh3p2rcd13ifvqdq0","pricing_plan_id":"cebpf4jnsgd1na2vs0mg"},{"bike_id":"e1f084f6-c1be-4741-8128-5a163748fcac","system_id":"levelo_inurba_marseille","lat":43.2937,"lon":5.37842,"is_reserved":false,"is_disabled":false,"rental_uris":{"android":"levelo://app?vid=e1f084f6-c1be-4741-8128-5a163748fcac","ios":"levelo://app?vid=e1f084f6-c1be-4741-8128-5a163748fcac"},"vehicle_type_id":"4","last_reported":1773692855,"current_range_meters":25600,"station_id":"ce4bgjh2rcd13ifvqbf0","pricing_plan_id":"cebpf4jnsgd1na2vs0mg"},{"bike_id":"4eca1dfd-fb33-4318-983d-d2dbc526d16c","system_id":"levelo_inurba_marseille","lat":43.29028,"lon":5.38649,"is_reserved":false,"is_disabled":false,"rental_uris":{"android":"levelo://app?vid=4eca1dfd-fb33-4318-983d-d2dbc526d16c","ios":"levelo://app?vid=4eca1dfd-fb33-4318-983d-d2dbc526d16c"},"vehicle_type_id":"4","last_reported":1773692855,"current_range_meters":36000,"station_id":"ce4bh4p2rcd13ifvqe0g","pricing_plan_id":"cebpf4jnsgd1na2vs0mg"},{"bike_id":"8fa8042d-4876-4c2e-a0aa-7d215f565182","system_id":"levelo_inurba_marseille","lat":43.25841,"lon":5.39414,"is_reserved":false,"is_disabled":true,"rental_uris":{"android":"levelo://app?vid=8fa8042d-4876-4c2e-a0aa-7d215f565182","ios":"levelo://app?vid=8fa8042d-4876-4c2e-a0aa-7d215f565182"},"vehicle_type_id":"4","last_reported":1773692855,"current_range_meters":32400,"station_id":"ce4bhip2rcd13ifvqft0","pricing_plan_id":"cebpf4jnsgd1na2vs0mg"},{"bike_id":"86d2e1ed-4b9c-4a39-97eb-13f6ba71ceef","system_id":"levelo_inurba_marseille","lat":43.31719,"lon":5.42409,"is_reserved":false,"is_disabled":false,"rental_uris":{"android":"levelo://app?vid=86d2e1ed-4b9c-4a39-97eb-13f6ba71ceef","ios":"levelo://app?vid=86d2e1ed-4b9c-4a39-97eb-13f6ba71ceef"},"vehicle_type_id":"4","last_reported":1773692855,"current_range_meters":15200,"station_id":"ce4bhp92rcd13ifvqhbg","pricing_plan_id":"cebpf4jnsgd1na2vs0mg"},{"bike_id":"c9801227-d77a-476b-ab09-8875bd62d741","system_id":"levelo_inurba_marseille","lat":43.23189,"lon":5.39981,"is_reserved":false,"is_disabled":false,"rental_uris":{"android":"levelo://app?vid=c9801227-d77a-476b-ab09-8875bd62d741","ios":"levelo://app?vid=c9801227-d77a-476b-ab09-8875bd62d741"},"vehicle_type_id":"4","last_reported":1773692855,"current_range_meters":12400,"station_id":"ce4bhn12rcd13ifvqgqg","pricing_plan_id":"cebpf4jnsgd1na2vs0mg"},{"bike_id":"ee634d05-704d-4d55-aa4f-5fd5f9e39c21","system_id":"levelo_inurba_marseille","lat":43.25096,"lon":5.40317,"is_reserved":false,"is_disabled":false,"rental_uris":{"android":"levelo://app?vid=ee634d05-704d-4d55-aa4f-5fd5f9e39c21","ios":"levelo://app?vid=ee634d05-704d-4d55-aa4f-5fd5f9e39c21"},"vehicle_type_id":"4","last_reported":1773692855,"current_range_meters":39200,"station_id":"ce4bhlh2rcd13ifvqgig","pricing_plan_id":"cebpf4jnsgd1na2vs0mg"},{"bike_id":"9e8c1969-3c1a-47fa-99b6-078ffcb700fb","system_id":"levelo_inurba_marseille","lat":43.28677,"lon":5.37445,"is_reserved":false,"is_disabled":true,"rental_uris":{"android":"levelo://app?vid=9e8c1969-3c1a-47fa-99b6-078ffcb700fb","ios":"levelo://app?vid=9e8c1969-3c1a-47fa-99b6-078ffcb700fb"},"vehicle_type_id":"4","last_reported":1773692855,"current_range_meters":32000,"station_id":"","pricing_plan_id":"cebpf4jnsgd1na2vs0mg"},{"bike_id":"7ecf4540-8745-4ad9-9cf8-3988bdc4eee9","system_id":"levelo_inurba_marseille","lat":43.28155,"lon":5.42646,"is_reserved":false,"is_disabled":false,"rental_uris":{"android":"levelo://app?vid=7ecf4540-8745-4ad9-9cf8-3988bdc4eee9","ios":"levelo://app?vid=7ecf4540-8745-4ad9-9cf8-3988bdc4eee9"},"vehicle_type_id":"4","last_reported":1773692855,"current_range_meters":39200,"station_id":"ce4bhnh2rcd13ifvqgug","pricing_plan_id":"cebpf4jnsgd1na2vs0mg"},{"bike_id":"98dcf4e2-02e6-43b4-afa2-c19c4faeab25","system_id":"levelo_inurba_marseille","lat":43.2318,"lon":5.39998,"is_reserved":false,"is_disabled":false,"rental_uris":{"android":"levelo://app?vid=98dcf4e2-02e6-43b4-afa2-c19c4faeab25","ios":"levelo://app?vid=98dcf4e2-02e6-43b4-afa2-c19c4faeab25"},"vehicle_type_id":"4","last_reported":1773692855,"current_range_meters":28400,"station_id":"ce4bhn12rcd13ifvqgqg","pricing_plan_id":"cebpf4jnsgd1na2vs0mg"},{"bike_id":"3729112e-ffd9-483c-8ca8-963145a03be4","system_id":"levelo_inurba_marseille","lat":43.2962,"lon":5.37705,"is_reserved":false,"is_disabled":false,"rental_uris":{"android":"levelo://app?vid=3729112e-ffd9-483c-8ca8-963145a03be4","ios":"levelo://app?vid=3729112e-ffd9-483c-8ca8-963145a03be4"},"vehicle_type_id":"4","last_reported":1773692855,"current_range_meters":8800,"station_id":"ce4bgi92rcd13ifvqb90","pricing_plan_id":"cebpf4jnsgd1na2vs0mg"},{"bike_id":"4eb4878c-5fb7-451b-9650-ccb7a5374052","system_id":"levelo_inurba_marseille","lat":43.2648,"lon":5.39539,"is_reserved":false,"is_disabled":false,"rental_uris":{"android":"levelo://app?vid=4eb4878c-5fb7-451b-9650-ccb7a5374052","ios":"levelo://app?vid=4eb4878c-5fb7-451b-9650-ccb7a5374052"},"vehicle_type_id":"4","last_reported":1773692855,"current_range_meters":8400,"station_id":"ce4bhi12rcd13ifvqfq0","pricing_plan_id":"cebpf4jnsgd1na2vs0mg"},{"bike_id":"6804e643-43a5-46e7-8e7d-385abfd88aaf","system_id":"levelo_inurba_marseille","lat":43.2845,"lon":5.39104,"is_reserved":false,"is_disabled":false,"rental_uris":{"android":"levelo://app?vid=6804e643-43a5-46e7-8e7d-385abfd88aaf","ios":"levelo://app?vid=6804e643-43a5-46e7-8e7d-385abfd88aaf"},"vehicle_type_id":"4","last_reported":1773692855,"current_range_meters":18000,"station_id":"","pricing_plan_id":"cebpf4jnsgd1na2vs0mg"},{"bike_id":"3a15646b-a267-4561-bcc4-64e02744219f","system_id":"levelo_inurba_marseille","lat":43.27373,"lon":5.36252,"is_reserved":false,"is_disabled":false,"rental_uris":{"android":"levelo://app?vid=3a15646b-a267-4561-bcc4-64e02744219f","ios":"levelo://app?vid=3a15646b-a267-4561-bcc4-64e02744219f"},"vehicle_type_id":"4","last_reported":1773692855,"current_range_meters":20000,"station_id":"ce4bhbh2rcd13ifvqeo0","pricing_plan_id":"cebpf4jnsgd1na2vs0mg"},{"bike_id":"a0d867cb-b97b-4168-932e-ec7fd3fbd32b","system_id":"levelo_inurba_marseille","lat":43.22551,"lon":5.41642,"is_reserved":false,"is_disabled":false,"rental_uris":{"android":"levelo://app?vid=a0d867cb-b97b-4168-932e-ec7fd3fbd32b","ios":"levelo://app?vid=a0d867cb-b97b-4168-932e-ec7fd3fbd32b"},"vehicle_type_id":"4","last_reported":1773692855,"current_range_meters":6800,"station_id":"st_d2o4gvlbi1j2169b742g","pricing_plan_id":"cebpf4jnsgd1na2vs0mg"},{"bike_id":"a2a75e24-fd8c-4b37-b5a4-61da7bed2a67","system_id":"levelo_inurba_marseille","lat":43.232,"lon":5.35526,"is_reserved":false,"is_disabled":false,"rental_uris":{"android":"levelo://app?vid=a2a75e24-fd8c-4b37-b5a4-61da7bed2a67","ios":"levelo://app?vid=a2a75e24-fd8c-4b37-b5a4-61da7bed2a67"},"vehicle_type_id":"4","last_reported":1773692855,"current_range_meters":39200,"station_id":"ce4bhu92rcd13ifvqi70","pricing_plan_id":"cebpf4jnsgd1na2vs0mg"},{"bike_id":"a98d8916-f2aa-418d-94ce-faf44ef95a8b","system_id":"levelo_inurba_marseille","lat":43.28076,"lon":5.39663,"is_reserved":false,"is_disabled":false,"rental_uris":{"android":"levelo://app?vid=a98d8916-f2aa-418d-94ce-faf44ef95a8b","ios":"levelo://app?vid=a98d8916-f2aa-418d-94ce-faf44ef95a8b"},"vehicle_type_id":"4","last_reported":1773692855,"current_range_meters":32400,"station_id":"ce4bho12rcd13ifvqh2g","pricing_plan_id":"cebpf4jnsgd1na2vs0mg"},{"bike_id":"70ac36e1-0ce6-4f80-9d27-77b705256931","system_id":"levelo_inurba_marseille","lat":43.29898,"lon":5.39726,"is_reserved":false,"is_disabled":false,"rental_uris":{"android":"levelo://app?vid=70ac36e1-0ce6-4f80-9d27-77b705256931","ios":"levelo://app?vid=70ac36e1-0ce6-4f80-9d27-77b705256931"},"vehicle_type_id":"4","last_reported":1773692855,"current_range_meters":30400,"station_id":"ce4bh0h2rcd13ifvqd50","pricing_plan_id":"cebpf4jnsgd1na2vs0mg"},{"bike_id":"08736b78-fec6-4be4-97ff-46541f0e711d","system_id":"levelo_inurba_marseille","lat":43.28477,"lon":5.484,"is_reserved":false,"is_disabled":false,"rental_uris":{"android":"levelo://app?vid=08736b78-fec6-4be4-97ff-46541f0e711d","ios":"levelo://app?vid=08736b78-fec6-4be4-97ff-46541f0e711d"},"vehicle_type_id":"4","last_reported":1773692855,"current_range_meters":19600,"station_id":"","pricing_plan_id":"cebpf4jnsgd1na2vs0mg"},{"bike_id":"20cdd2bd-a142-4979-a5d5-9d757961db74","system_id":"levelo_inurba_marseille","lat":43.23188,"lon":5.3998,"is_reserved":false,"is_disabled":false,"rental_uris":{"android":"levelo://app?vid=20cdd2bd-a142-4979-a5d5-9d757961db74","ios":"levelo://app?vid=20cdd2bd-a142-4979-a5d5-9d757961db74"},"vehicle_type_id":"4","last_reported":1773692855,"current_range_meters":3200,"station_id":"ce4bhn12rcd13ifvqgqg","pricing_plan_id":"cebpf4jnsgd1na2vs0mg"},{"bike_id":"13f73420-0ba7-4b2f-b5d4-037587bdaffb","system_id":"levelo_inurba_marseille","lat":43.3031,"lon":5.36894,"is_reserved":false,"is_disabled":false,"rental_uris":{"android":"levelo://app?vid=13f73420-0ba7-4b2f-b5d4-037587bdaffb","ios":"levelo://app?vid=13f73420-0ba7-4b2f-b5d4-037587bdaffb"},"vehicle_type_id":"4","last_reported":1773692855,"current_range_meters":36000,"station_id":"ce4bgqh2rcd13ifvqc5g","pricing_plan_id":"cebpf4jnsgd1na2vs0mg"},{"bike_id":"2058c669-8601-4e4c-80d9-9e1a01937034","system_id":"levelo_inurba_marseille","lat":43.27185,"lon":5.40992,"is_reserved":false,"is_disabled":false,"rental_uris":{"android":"levelo://app?vid=2058c669-8601-4e4c-80d9-9e1a01937034","ios":"levelo://app?vid=2058c669-8601-4e4c-80d9-9e1a01937034"},"vehicle_type_id":"4","last_reported":1773692855,"current_range_meters":27600,"station_id":"ce4bhl12rcd13ifvqgf0","pricing_plan_id":"cebpf4jnsgd1na2vs0mg"},{"bike_id":"6c139d21-bbfa-4389-aba1-29abb0489c6b","system_id":"levelo_inurba_marseille","lat":43.25575,"lon":5.3824,"is_reserved":false,"is_disabled":false,"rental_uris":{"android":"levelo://app?vid=6c139d21-bbfa-4389-aba1-29abb0489c6b","ios":"levelo://app?vid=6c139d21-bbfa-4389-aba1-29abb0489c6b"},"vehicle_type_id":"4","last_reported":1773692855,"current_range_meters":38800,"station_id":"ce4bhih2rcd13ifvqfs0","pricing_plan_id":"cebpf4jnsgd1na2vs0mg"},{"bike_id":"9baefc50-dd4f-44a7-a1bb-352338b613f4","system_id":"levelo_inurba_marseille","lat":43.28511,"lon":5.44077,"is_reserved":false,"is_disabled":false,"rental_uris":{"android":"levelo://app?vid=9baefc50-dd4f-44a7-a1bb-352338b613f4","ios":"levelo://app?vid=9baefc50-dd4f-44a7-a1bb-352338b613f4"},"vehicle_type_id":"4","last_reported":1773692855,"current_range_meters":30800,"station_id":"st_d3j3df2ikq2c7380ej80","pricing_plan_id":"cebpf4jnsgd1na2vs0mg"},{"bike_id":"2204d452-1e8d-43d0-9038-aa59f58897e7","system_id":"levelo_inurba_marseille","lat":43.246546,"lon":5.381586,"is_reserved":false,"is_disabled":false,"rental_uris":{"android":"levelo://app?vid=2204d452-1e8d-43d0-9038-aa59f58897e7","ios":"levelo://app?vid=2204d452-1e8d-43d0-9038-aa59f58897e7"},"vehicle_type_id":"4","last_reported":1773692855,"current_range_meters":5600,"station_id":"ce4bhih2rcd13ifvqfr0","pricing_plan_id":"cebpf4jnsgd1na2vs0mg"},{"bike_id":"527624bc-ad28-4aee-9fcb-6313152ecedf","system_id":"levelo_inurba_marseille","lat":43.2841,"lon":5.34991,"is_reserved":false,"is_disabled":false,"rental_uris":{"android":"levelo://app?vid=527624bc-ad28-4aee-9fcb-6313152ecedf","ios":"levelo://app?vid=527624bc-ad28-4aee-9fcb-6313152ecedf"},"vehicle_type_id":"4","last_reported":1773692855,"current_range_meters":35200,"station_id":"ce4bhbh2rcd13ifvqepg","pricing_plan_id":"cebpf4jnsgd1na2vs0mg"},{"bike_id":"5d6ab285-89b0-496f-9b36-bea8528594db","system_id":"levelo_inurba_marseille","lat":43.29563,"lon":5.42284,"is_reserved":false,"is_disabled":false,"rental_uris":{"android":"levelo://app?vid=5d6ab285-89b0-496f-9b36-bea8528594db","ios":"levelo://app?vid=5d6ab285-89b0-496f-9b36-bea8528594db"},"vehicle_type_id":"4","last_reported":1773692855,"current_range_meters":31200,"station_id":"ce4bhph2rcd13ifvqhdg","pricing_plan_id":"cebpf4jnsgd1na2vs0mg"},{"bike_id":"f71ae637-3785-4f57-8a59-f80c868f9356","system_id":"levelo_inurba_marseille","lat":43.29745,"lon":5.42789,"is_reserved":false,"is_disabled":false,"rental_uris":{"android":"levelo://app?vid=f71ae637-3785-4f57-8a59-f80c868f9356","ios":"levelo://app?vid=f71ae637-3785-4f57-8a59-f80c868f9356"},"vehicle_type_id":"4","last_reported":1773692855,"current_range_meters":24400,"station_id":"st_d3md5207bmas73dh9klg","pricing_plan_id":"cebpf4jnsgd1na2vs0mg"},{"bike_id":"83b6d947-0a7c-4020-9c1d-035c2bd31e74","system_id":"levelo_inurba_marseille","lat":43.21741,"lon":5.34605,"is_reserved":false,"is_disabled":false,"rental_uris":{"android":"levelo://app?vid=83b6d947-0a7c-4020-9c1d-035c2bd31e74","ios":"levelo://app?vid=83b6d947-0a7c-4020-9c1d-035c2bd31e74"},"vehicle_type_id":"4","last_reported":1773692855,"current_range_meters":25600,"station_id":"st_cvj6r9ubvosntc0bgbag","pricing_plan_id":"cebpf4jnsgd1na2vs0mg"},{"bike_id":"fe5beff5-8cd2-4f18-aa47-21cebb6cda89","system_id":"levelo_inurba_marseille","lat":43.31535,"lon":5.38022,"is_reserved":false,"is_disabled":false,"rental_uris":{"android":"levelo://app?vid=fe5beff5-8cd2-4f18-aa47-21cebb6cda89","ios":"levelo://app?vid=fe5beff5-8cd2-4f18-aa47-21cebb6cda89"},"vehicle_type_id":"4","last_reported":1773692855,"current_range_meters":9200,"station_id":"ce4bhsp2rcd13ifvqi50","pricing_plan_id":"cebpf4jnsgd1na2vs0mg"},{"bike_id":"1361d0c9-83a4-4a3e-9021-fffec605ab0b","system_id":"levelo_inurba_marseille","lat":43.22554,"lon":5.41627,"is_reserved":false,"is_disabled":false,"rental_uris":{"android":"levelo://app?vid=1361d0c9-83a4-4a3e-9021-fffec605ab0b","ios":"levelo://app?vid=1361d0c9-83a4-4a3e-9021-fffec605ab0b"},"vehicle_type_id":"4","last_reported":1773692855,"current_range_meters":32400,"station_id":"st_d2o4gvlbi1j2169b742g","pricing_plan_id":"cebpf4jnsgd1na2vs0mg"},{"bike_id":"0c820ed4-4827-4b66-8a18-7e0bf2659973","system_id":"levelo_inurba_marseille","lat":43.2767,"lon":5.38891,"is_reserved":false,"is_disabled":false,"rental_uris":{"android":"levelo://app?vid=0c820ed4-4827-4b66-8a18-7e0bf2659973","ios":"levelo://app?vid=0c820ed4-4827-4b66-8a18-7e0bf2659973"},"vehicle_type_id":"4","last_reported":1773692855,"current_range_meters":2800,"station_id":"ce4bhi12rcd13ifvqfo0","pricing_plan_id":"cebpf4jnsgd1na2vs0mg"},{"bike_id":"425b9cb2-0cc0-45bc-943e-c3162b489543","system_id":"levelo_inurba_marseille","lat":43.21758,"lon":5.34585,"is_reserved":false,"is_disabled":false,"rental_uris":{"android":"levelo://app?vid=425b9cb2-0cc0-45bc-943e-c3162b489543","ios":"levelo://app?vid=425b9cb2-0cc0-45bc-943e-c3162b489543"},"vehicle_type_id":"4","last_reported":1773692855,"current_range_meters":10000,"station_id":"st_cvj6r9ubvosntc0bgbag","pricing_plan_id":"cebpf4jnsgd1na2vs0mg"},{"bike_id":"9443d89d-feb3-476c-bce1-b5b17f81a583","system_id":"levelo_inurba_marseille","lat":43.24473,"lon":5.42538,"is_reserved":false,"is_disabled":false,"rental_uris":{"android":"levelo://app?vid=9443d89d-feb3-476c-bce1-b5b17f81a583","ios":"levelo://app?vid=9443d89d-feb3-476c-bce1-b5b17f81a583"},"vehicle_type_id":"4","last_reported":1773692855,"current_range_meters":5600,"station_id":"st_d4a3vfp97mjs738cd8kg","pricing_plan_id":"cebpf4jnsgd1na2vs0mg"},{"bike_id":"e574a79d-72cb-4caf-88d0-87cf5c9d0426","system_id":"levelo_inurba_marseille","lat":43.29025,"lon":5.3561,"is_reserved":false,"is_disabled":false,"rental_uris":{"android":"levelo://app?vid=e574a79d-72cb-4caf-88d0-87cf5c9d0426","ios":"levelo://app?vid=e574a79d-72cb-4caf-88d0-87cf5c9d0426"},"vehicle_type_id":"4","last_reported":1773692855,"current_range_meters":27600,"station_id":"ce4bhb92rcd13ifvqen0","pricing_plan_id":"cebpf4jnsgd1na2vs0mg"},{"bike_id":"04af675f-dab4-4fc1-bfcf-4696de02c2d9","system_id":"levelo_inurba_marseille","lat":43.29191,"lon":5.39283,"is_reserved":false,"is_disabled":true,"rental_uris":{"android":"levelo://app?vid=04af675f-dab4-4fc1-bfcf-4696de02c2d9","ios":"levelo://app?vid=04af675f-dab4-4fc1-bfcf-4696de02c2d9"},"vehicle_type_id":"4","last_reported":1773692855,"current_range_meters":10800,"station_id":"ce4bh192rcd13ifvqdd0","pricing_plan_id":"cebpf4jnsgd1na2vs0mg"},{"bike_id":"e76e9fb4-0a0e-4579-813e-6f893ab35e74","system_id":"levelo_inurba_marseille","lat":43.3096,"lon":5.39034,"is_reserved":false,"is_disabled":true,"rental_uris":{"android":"levelo://app?vid=e76e9fb4-0a0e-4579-813e-6f893ab35e74","ios":"levelo://app?vid=e76e9fb4-0a0e-4579-813e-6f893ab35e74"},"vehicle_type_id":"4","last_reported":1773692855,"current_range_meters":39200,"station_id":"ce4bgup2rcd13ifvqco0","pricing_plan_id":"cebpf4jnsgd1na2vs0mg"},{"bike_id":"544167b3-bcf8-4426-82c7-2bd6a991231b","system_id":"levelo_inurba_marseille","lat":43.26192,"lon":5.37459,"is_reserved":false,"is_disabled":true,"rental_uris":{"android":"levelo://app?vid=544167b3-bcf8-4426-82c7-2bd6a991231b","ios":"levelo://app?vid=544167b3-bcf8-4426-82c7-2bd6a991231b"},"vehicle_type_id":"4","last_reported":1773692855,"current_range_meters":25200,"station_id":"ce4bhgp2rcd13ifvqfc0","pricing_plan_id":"cebpf4jnsgd1na2vs0mg"},{"bike_id":"9010ce7f-7ff7-438c-8965-6d662158d5f7","system_id":"levelo_inurba_marseille","lat":43.22812,"lon":5.43479,"is_reserved":false,"is_disabled":false,"rental_uris":{"android":"levelo://app?vid=9010ce7f-7ff7-438c-8965-6d662158d5f7","ios":"levelo://app?vid=9010ce7f-7ff7-438c-8965-6d662158d5f7"},"vehicle_type_id":"4","last_reported":1773692855,"current_range_meters":16000,"station_id":"","pricing_plan_id":"cebpf4jnsgd1na2vs0mg"},{"bike_id":"e0a5a847-d07d-4d4b-96c6-8dff1b92885a","system_id":"levelo_inurba_marseille","lat":43.32034,"lon":5.41446,"is_reserved":false,"is_disabled":false,"rental_uris":{"android":"levelo://app?vid=e0a5a847-d07d-4d4b-96c6-8dff1b92885a","ios":"levelo://app?vid=e0a5a847-d07d-4d4b-96c6-8dff1b92885a"},"vehicle_type_id":"4","last_reported":1773692855,"current_range_meters":20400,"station_id":"","pricing_plan_id":"cebpf4jnsgd1na2vs0mg"},{"bike_id":"79b4e2e8-1ce0-48a9-9135-86812bec6bdf","system_id":"levelo_inurba_marseille","lat":43.28689,"lon":5.37406,"is_reserved":false,"is_disabled":false,"rental_uris":{"android":"levelo://app?vid=79b4e2e8-1ce0-48a9-9135-86812bec6bdf","ios":"levelo://app?vid=79b4e2e8-1ce0-48a9-9135-86812bec6bdf"},"vehicle_type_id":"4","last_reported":1773692855,"current_range_meters":30400,"station_id":"ce4bh3p2rcd13ifvqdq0","pricing_plan_id":"cebpf4jnsgd1na2vs0mg"},{"bike_id":"8b56a0df-33bb-4a91-8ad1-ac380652b364","system_id":"levelo_inurba_marseille","lat":43.33002,"lon":5.41254,"is_reserved":false,"is_disabled":false,"rental_uris":{"android":"levelo://app?vid=8b56a0df-33bb-4a91-8ad1-ac380652b364","ios":"levelo://app?vid=8b56a0df-33bb-4a91-8ad1-ac380652b364"},"vehicle_type_id":"4","last_reported":1773692855,"current_range_meters":9200,"station_id":"","pricing_plan_id":"cebpf4jnsgd1na2vs0mg"},{"bike_id":"f358c393-e754-45f1-b519-2be116e5495b","system_id":"levelo_inurba_marseille","lat":43.22946,"lon":5.35387,"is_reserved":false,"is_disabled":false,"rental_uris":{"android":"levelo://app?vid=f358c393-e754-45f1-b519-2be116e5495b","ios":"levelo://app?vid=f358c393-e754-45f1-b519-2be116e5495b"},"vehicle_type_id":"4","last_reported":1773692855,"current_range_meters":39200,"station_id":"cpo3532slgdg3j2ikp40","pricing_plan_id":"cebpf4jnsgd1na2vs0mg"},{"bike_id":"071a5c3a-0c29-42e5-bd56-eb2ac0df9b4c","system_id":"levelo_inurba_marseille","lat":43.25875,"lon":5.39901,"is_reserved":false,"is_disabled":false,"rental_uris":{"android":"levelo://app?vid=071a5c3a-0c29-42e5-bd56-eb2ac0df9b4c","ios":"levelo://app?vid=071a5c3a-0c29-42e5-bd56-eb2ac0df9b4c"},"vehicle_type_id":"4","last_reported":1773692855,"current_range_meters":39200,"station_id":"ce4bhl92rcd13ifvqghg","pricing_plan_id":"cebpf4jnsgd1na2vs0mg"},{"bike_id":"cbc1a0e1-9f88-4095-9d77-d755dca9c42c","system_id":"levelo_inurba_marseille","lat":43.29628,"lon":5.38431,"is_reserved":false,"is_disabled":false,"rental_uris":{"android":"levelo://app?vid=cbc1a0e1-9f88-4095-9d77-d755dca9c42c","ios":"levelo://app?vid=cbc1a0e1-9f88-4095-9d77-d755dca9c42c"},"vehicle_type_id":"4","last_reported":1773692855,"current_range_meters":8400,"station_id":"","pricing_plan_id":"cebpf4jnsgd1na2vs0mg"},{"bike_id":"775aa511-b774-45de-9f38-7c31ee9fa268","system_id":"levelo_inurba_marseille","lat":43.29901,"lon":5.43666,"is_reserved":false,"is_disabled":false,"rental_uris":{"android":"levelo://app?vid=775aa511-b774-45de-9f38-7c31ee9fa268","ios":"levelo://app?vid=775aa511-b774-45de-9f38-7c31ee9fa268"},"vehicle_type_id":"4","last_reported":1773692855,"current_range_meters":18800,"station_id":"ce4bhpp2rcd13ifvqhfg","pricing_plan_id":"cebpf4jnsgd1na2vs0mg"},{"bike_id":"6ea3d813-5de0-4b0c-b9ea-dcb0923bba61","system_id":"levelo_inurba_marseille","lat":43.29849,"lon":5.36274,"is_reserved":false,"is_disabled":false,"rental_uris":{"android":"levelo://app?vid=6ea3d813-5de0-4b0c-b9ea-dcb0923bba61","ios":"levelo://app?vid=6ea3d813-5de0-4b0c-b9ea-dcb0923bba61"},"vehicle_type_id":"4","last_reported":1773692855,"current_range_meters":39200,"station_id":"ce4bgpp2rcd13ifvqc3g","pricing_plan_id":"cebpf4jnsgd1na2vs0mg"},{"bike_id":"4d4f8946-ef1b-4f1c-840b-95eb519afbe9","system_id":"levelo_inurba_marseille","lat":43.2991,"lon":5.38077,"is_reserved":false,"is_disabled":false,"rental_uris":{"android":"levelo://app?vid=4d4f8946-ef1b-4f1c-840b-95eb519afbe9","ios":"levelo://app?vid=4d4f8946-ef1b-4f1c-840b-95eb519afbe9"},"vehicle_type_id":"4","last_reported":1773692855,"current_range_meters":27200,"station_id":"","pricing_plan_id":"cebpf4jnsgd1na2vs0mg"},{"bike_id":"2cf7dffe-bcb6-4634-8cd0-d731f5fc3856","system_id":"levelo_inurba_marseille","lat":43.24947,"lon":5.40492,"is_reserved":false,"is_disabled":false,"rental_uris":{"android":"levelo://app?vid=2cf7dffe-bcb6-4634-8cd0-d731f5fc3856","ios":"levelo://app?vid=2cf7dffe-bcb6-4634-8cd0-d731f5fc3856"},"vehicle_type_id":"4","last_reported":1773692855,"current_range_meters":17600,"station_id":"st_d2ngiaodas8pm72gd1h0","pricing_plan_id":"cebpf4jnsgd1na2vs0mg"},{"bike_id":"b9cc16b2-170c-486a-a22b-92f9dc4fdf07","system_id":"levelo_inurba_marseille","lat":43.24547,"lon":5.39524,"is_reserved":false,"is_disabled":false,"rental_uris":{"android":"levelo://app?vid=b9cc16b2-170c-486a-a22b-92f9dc4fdf07","ios":"levelo://app?vid=b9cc16b2-170c-486a-a22b-92f9dc4fdf07"},"vehicle_type_id":"4","last_reported":1773692855,"current_range_meters":25600,"station_id":"ce4bhlp2rcd13ifvqgjg","pricing_plan_id":"cebpf4jnsgd1na2vs0mg"},{"bike_id":"53d0c63e-3698-4b9b-9fe0-c2accd543790","system_id":"levelo_inurba_marseille","lat":43.27843,"lon":5.39195,"is_reserved":false,"is_disabled":false,"rental_uris":{"android":"levelo://app?vid=53d0c63e-3698-4b9b-9fe0-c2accd543790","ios":"levelo://app?vid=53d0c63e-3698-4b9b-9fe0-c2accd543790"},"vehicle_type_id":"4","last_reported":1773692855,"current_range_meters":40000,"station_id":"ce4bhjp2rcd13ifvqga0","pricing_plan_id":"cebpf4jnsgd1na2vs0mg"},{"bike_id":"877eca5a-4ee4-4e36-ae82-d43d4db5adce","system_id":"levelo_inurba_marseille","lat":43.23194,"lon":5.35569,"is_reserved":false,"is_disabled":false,"rental_uris":{"android":"levelo://app?vid=877eca5a-4ee4-4e36-ae82-d43d4db5adce","ios":"levelo://app?vid=877eca5a-4ee4-4e36-ae82-d43d4db5adce"},"vehicle_type_id":"4","last_reported":1773692855,"current_range_meters":22800,"station_id":"ce4bhu92rcd13ifvqi70","pricing_plan_id":"cebpf4jnsgd1na2vs0mg"},{"bike_id":"3bdf628a-9abb-4027-960b-4712b0382ca0","system_id":"levelo_inurba_marseille","lat":43.26585,"lon":5.38999,"is_reserved":false,"is_disabled":false,"rental_uris":{"android":"levelo://app?vid=3bdf628a-9abb-4027-960b-4712b0382ca0","ios":"levelo://app?vid=3bdf628a-9abb-4027-960b-4712b0382ca0"},"vehicle_type_id":"4","last_reported":1773692855,"current_range_meters":38400,"station_id":"ce4bhe12rcd13ifvqf30","pricing_plan_id":"cebpf4jnsgd1na2vs0mg"},{"bike_id":"9d2dc80f-8d7c-4584-98db-e4c21d20bc43","system_id":"levelo_inurba_marseille","lat":43.3014,"lon":5.431,"is_reserved":false,"is_disabled":false,"rental_uris":{"android":"levelo://app?vid=9d2dc80f-8d7c-4584-98db-e4c21d20bc43","ios":"levelo://app?vid=9d2dc80f-8d7c-4584-98db-e4c21d20bc43"},"vehicle_type_id":"4","last_reported":1773692855,"current_range_meters":27600,"station_id":"st_d3js3co5814s73ftftug","pricing_plan_id":"cebpf4jnsgd1na2vs0mg"},{"bike_id":"ee680a21-78c2-49ce-9cee-cce587a0eba3","system_id":"levelo_inurba_marseille","lat":43.27375,"lon":5.36259,"is_reserved":false,"is_disabled":false,"rental_uris":{"android":"levelo://app?vid=ee680a21-78c2-49ce-9cee-cce587a0eba3","ios":"levelo://app?vid=ee680a21-78c2-49ce-9cee-cce587a0eba3"},"vehicle_type_id":"4","last_reported":1773692855,"current_range_meters":28000,"station_id":"ce4bhbh2rcd13ifvqeo0","pricing_plan_id":"cebpf4jnsgd1na2vs0mg"},{"bike_id":"4e025545-ed8d-4eae-8dea-76bd0aad9403","system_id":"levelo_inurba_marseille","lat":43.31447,"lon":5.37325,"is_reserved":false,"is_disabled":false,"rental_uris":{"android":"levelo://app?vid=4e025545-ed8d-4eae-8dea-76bd0aad9403","ios":"levelo://app?vid=4e025545-ed8d-4eae-8dea-76bd0aad9403"},"vehicle_type_id":"4","last_reported":1773692855,"current_range_meters":7200,"station_id":"ce4bgt12rcd13ifvqcd0","pricing_plan_id":"cebpf4jnsgd1na2vs0mg"},{"bike_id":"8482b2d2-a18b-4d6d-a4f4-f5d49ad280cc","system_id":"levelo_inurba_marseille","lat":43.26779,"lon":5.39415,"is_reserved":false,"is_disabled":true,"rental_uris":{"android":"levelo://app?vid=8482b2d2-a18b-4d6d-a4f4-f5d49ad280cc","ios":"levelo://app?vid=8482b2d2-a18b-4d6d-a4f4-f5d49ad280cc"},"vehicle_type_id":"4","last_reported":1773692855,"current_range_meters":35600,"station_id":"ce4bhh12rcd13ifvqfg0","pricing_plan_id":"cebpf4jnsgd1na2vs0mg"},{"bike_id":"3a3b6069-ef36-48be-b5c3-1d04b821cef0","system_id":"levelo_inurba_marseille","lat":43.26205,"lon":5.37923,"is_reserved":false,"is_disabled":false,"rental_uris":{"android":"levelo://app?vid=3a3b6069-ef36-48be-b5c3-1d04b821cef0","ios":"levelo://app?vid=3a3b6069-ef36-48be-b5c3-1d04b821cef0"},"vehicle_type_id":"4","last_reported":1773692855,"current_range_meters":38800,"station_id":"ce4bhjp2rcd13ifvqg90","pricing_plan_id":"cebpf4jnsgd1na2vs0mg"},{"bike_id":"cc6aa629-9f3a-4aa6-bf68-9bb56543d585","system_id":"levelo_inurba_marseille","lat":43.292809,"lon":5.401205,"is_reserved":false,"is_disabled":true,"rental_uris":{"android":"levelo://app?vid=cc6aa629-9f3a-4aa6-bf68-9bb56543d585","ios":"levelo://app?vid=cc6aa629-9f3a-4aa6-bf68-9bb56543d585"},"vehicle_type_id":"4","last_reported":1773692855,"current_range_meters":0,"station_id":"ce4bh312rcd13ifvqdk0","pricing_plan_id":"cebpf4jnsgd1na2vs0mg"},{"bike_id":"98de30be-e8dd-4b12-81a6-f538f53b6c97","system_id":"levelo_inurba_marseille","lat":43.28328,"lon":5.38115,"is_reserved":false,"is_disabled":true,"rental_uris":{"android":"levelo://app?vid=98de30be-e8dd-4b12-81a6-f538f53b6c97","ios":"levelo://app?vid=98de30be-e8dd-4b12-81a6-f538f53b6c97"},"vehicle_type_id":"4","last_reported":1773692855,"current_range_meters":38000,"station_id":"ce4bh412rcd13ifvqdr0","pricing_plan_id":"cebpf4jnsgd1na2vs0mg"},{"bike_id":"6b9cf496-206b-447a-b728-1dd1356099e0","system_id":"levelo_inurba_marseille","lat":43.32381,"lon":5.36733,"is_reserved":false,"is_disabled":false,"rental_uris":{"android":"levelo://app?vid=6b9cf496-206b-447a-b728-1dd1356099e0","ios":"levelo://app?vid=6b9cf496-206b-447a-b728-1dd1356099e0"},"vehicle_type_id":"4","last_reported":1773692855,"current_range_meters":39200,"station_id":"ce4bhsh2rcd13ifvqi2g","pricing_plan_id":"cebpf4jnsgd1na2vs0mg"},{"bike_id":"1d80d7d0-a058-4e63-b564-db293bfc37e8","system_id":"levelo_inurba_marseille","lat":43.33704,"lon":5.39194,"is_reserved":false,"is_disabled":false,"rental_uris":{"android":"levelo://app?vid=1d80d7d0-a058-4e63-b564-db293bfc37e8","ios":"levelo://app?vid=1d80d7d0-a058-4e63-b564-db293bfc37e8"},"vehicle_type_id":"4","last_reported":1773692855,"current_range_meters":34000,"station_id":"ce4bhr92rcd13ifvqhsg","pricing_plan_id":"cebpf4jnsgd1na2vs0mg"},{"bike_id":"afebd6f1-ad36-4715-af7d-d0ee74a946c8","system_id":"levelo_inurba_marseille","lat":43.27374,"lon":5.36264,"is_reserved":false,"is_disabled":false,"rental_uris":{"android":"levelo://app?vid=afebd6f1-ad36-4715-af7d-d0ee74a946c8","ios":"levelo://app?vid=afebd6f1-ad36-4715-af7d-d0ee74a946c8"},"vehicle_type_id":"4","last_reported":1773692855,"current_range_meters":8400,"station_id":"ce4bhbh2rcd13ifvqeo0","pricing_plan_id":"cebpf4jnsgd1na2vs0mg"},{"bike_id":"358e00a7-9de5-4625-b99c-d544cedb8c90","system_id":"levelo_inurba_marseille","lat":43.29822,"lon":5.44063,"is_reserved":false,"is_disabled":false,"rental_uris":{"android":"levelo://app?vid=358e00a7-9de5-4625-b99c-d544cedb8c90","ios":"levelo://app?vid=358e00a7-9de5-4625-b99c-d544cedb8c90"},"vehicle_type_id":"4","last_reported":1773692855,"current_range_meters":14800,"station_id":"st_d3jp68qikq2c7381ktn0","pricing_plan_id":"cebpf4jnsgd1na2vs0mg"},{"bike_id":"76222fef-029e-4daa-91ae-e520743808b7","system_id":"levelo_inurba_marseille","lat":43.24808,"lon":5.37444,"is_reserved":false,"is_disabled":false,"rental_uris":{"android":"levelo://app?vid=76222fef-029e-4daa-91ae-e520743808b7","ios":"levelo://app?vid=76222fef-029e-4daa-91ae-e520743808b7"},"vehicle_type_id":"4","last_reported":1773692855,"current_range_meters":25600,"station_id":"ce4bhgh2rcd13ifvqfb0","pricing_plan_id":"cebpf4jnsgd1na2vs0mg"},{"bike_id":"b49c21c0-c185-40f7-985e-a3195d16043e","system_id":"levelo_inurba_marseille","lat":43.2756,"lon":5.38428,"is_reserved":false,"is_disabled":false,"rental_uris":{"android":"levelo://app?vid=b49c21c0-c185-40f7-985e-a3195d16043e","ios":"levelo://app?vid=b49c21c0-c185-40f7-985e-a3195d16043e"},"vehicle_type_id":"4","last_reported":1773692855,"current_range_meters":17600,"station_id":"ce4bhh92rcd13ifvqfi0","pricing_plan_id":"cebpf4jnsgd1na2vs0mg"},{"bike_id":"07e56ce0-636e-4006-b0df-c06bc6d21d96","system_id":"levelo_inurba_marseille","lat":43.292,"lon":5.39326,"is_reserved":false,"is_disabled":false,"rental_uris":{"android":"levelo://app?vid=07e56ce0-636e-4006-b0df-c06bc6d21d96","ios":"levelo://app?vid=07e56ce0-636e-4006-b0df-c06bc6d21d96"},"vehicle_type_id":"4","last_reported":1773692855,"current_range_meters":10800,"station_id":"ce4bh192rcd13ifvqdd0","pricing_plan_id":"cebpf4jnsgd1na2vs0mg"},{"bike_id":"85b744a0-bd85-4786-ba36-fcd0431eeba6","system_id":"levelo_inurba_marseille","lat":43.29096,"lon":5.3815,"is_reserved":false,"is_disabled":false,"rental_uris":{"android":"levelo://app?vid=85b744a0-bd85-4786-ba36-fcd0431eeba6","ios":"levelo://app?vid=85b744a0-bd85-4786-ba36-fcd0431eeba6"},"vehicle_type_id":"4","last_reported":1773692855,"current_range_meters":32800,"station_id":"ce4bh512rcd13ifvqe2g","pricing_plan_id":"cebpf4jnsgd1na2vs0mg"},{"bike_id":"4874886a-8adb-46ea-90fd-e44f1d3aa3ed","system_id":"levelo_inurba_marseille","lat":43.31718,"lon":5.42404,"is_reserved":false,"is_disabled":false,"rental_uris":{"android":"levelo://app?vid=4874886a-8adb-46ea-90fd-e44f1d3aa3ed","ios":"levelo://app?vid=4874886a-8adb-46ea-90fd-e44f1d3aa3ed"},"vehicle_type_id":"4","last_reported":1773692855,"current_range_meters":38400,"station_id":"ce4bhp92rcd13ifvqhbg","pricing_plan_id":"cebpf4jnsgd1na2vs0mg"},{"bike_id":"ea413c73-3333-46cc-aefe-20cfbd6dbb69","system_id":"levelo_inurba_marseille","lat":43.27015,"lon":5.40071,"is_reserved":false,"is_disabled":false,"rental_uris":{"android":"levelo://app?vid=ea413c73-3333-46cc-aefe-20cfbd6dbb69","ios":"levelo://app?vid=ea413c73-3333-46cc-aefe-20cfbd6dbb69"},"vehicle_type_id":"4","last_reported":1773692855,"current_range_meters":32800,"station_id":"","pricing_plan_id":"cebpf4jnsgd1na2vs0mg"},{"bike_id":"03cd0547-4535-4b4f-8fb3-c6b1e98d5c40","system_id":"levelo_inurba_marseille","lat":43.25005,"lon":5.38928,"is_reserved":false,"is_disabled":false,"rental_uris":{"android":"levelo://app?vid=03cd0547-4535-4b4f-8fb3-c6b1e98d5c40","ios":"levelo://app?vid=03cd0547-4535-4b4f-8fb3-c6b1e98d5c40"},"vehicle_type_id":"4","last_reported":1773692855,"current_range_meters":35200,"station_id":"ce4bhgp2rcd13ifvqfd0","pricing_plan_id":"cebpf4jnsgd1na2vs0mg"},{"bike_id":"8b0921de-ab01-4600-bcc0-fd3e517442b0","system_id":"levelo_inurba_marseille","lat":43.298,"lon":5.38138,"is_reserved":false,"is_disabled":true,"rental_uris":{"android":"levelo://app?vid=8b0921de-ab01-4600-bcc0-fd3e517442b0","ios":"levelo://app?vid=8b0921de-ab01-4600-bcc0-fd3e517442b0"},"vehicle_type_id":"4","last_reported":1773692855,"current_range_meters":23200,"station_id":"ce4bgip2rcd13ifvqbb0","pricing_plan_id":"cebpf4jnsgd1na2vs0mg"},{"bike_id":"10376a3c-c173-4193-9ad9-9715e8f65851","system_id":"levelo_inurba_marseille","lat":43.27992,"lon":5.41662,"is_reserved":false,"is_disabled":false,"rental_uris":{"android":"levelo://app?vid=10376a3c-c173-4193-9ad9-9715e8f65851","ios":"levelo://app?vid=10376a3c-c173-4193-9ad9-9715e8f65851"},"vehicle_type_id":"4","last_reported":1773692855,"current_range_meters":30400,"station_id":"ce4bho12rcd13ifvqh1g","pricing_plan_id":"cebpf4jnsgd1na2vs0mg"},{"bike_id":"5220edc8-acb2-424a-b1df-f535df2fac0d","system_id":"levelo_inurba_marseille","lat":43.29252,"lon":5.38431,"is_reserved":false,"is_disabled":false,"rental_uris":{"android":"levelo://app?vid=5220edc8-acb2-424a-b1df-f535df2fac0d","ios":"levelo://app?vid=5220edc8-acb2-424a-b1df-f535df2fac0d"},"vehicle_type_id":"4","last_reported":1773692855,"current_range_meters":8400,"station_id":"ce4bh692rcd13ifvqea0","pricing_plan_id":"cebpf4jnsgd1na2vs0mg"},{"bike_id":"f3e26b5a-3b80-4d9d-a0f1-d01cd1fc9b81","system_id":"levelo_inurba_marseille","lat":43.25024,"lon":5.38914,"is_reserved":false,"is_disabled":true,"rental_uris":{"android":"levelo://app?vid=f3e26b5a-3b80-4d9d-a0f1-d01cd1fc9b81","ios":"levelo://app?vid=f3e26b5a-3b80-4d9d-a0f1-d01cd1fc9b81"},"vehicle_type_id":"4","last_reported":1773692855,"current_range_meters":28800,"station_id":"ce4bhgp2rcd13ifvqfd0","pricing_plan_id":"cebpf4jnsgd1na2vs0mg"},{"bike_id":"81d5177e-0791-42f5-a0b9-893db0c6f944","system_id":"levelo_inurba_marseille","lat":43.29266,"lon":5.38428,"is_reserved":false,"is_disabled":false,"rental_uris":{"android":"levelo://app?vid=81d5177e-0791-42f5-a0b9-893db0c6f944","ios":"levelo://app?vid=81d5177e-0791-42f5-a0b9-893db0c6f944"},"vehicle_type_id":"4","last_reported":1773692855,"current_range_meters":32000,"station_id":"ce4bh692rcd13ifvqea0","pricing_plan_id":"cebpf4jnsgd1na2vs0mg"},{"bike_id":"4caab0dd-9816-4df3-829d-f7343c5791ae","system_id":"levelo_inurba_marseille","lat":43.30129,"lon":5.39864,"is_reserved":false,"is_disabled":false,"rental_uris":{"android":"levelo://app?vid=4caab0dd-9816-4df3-829d-f7343c5791ae","ios":"levelo://app?vid=4caab0dd-9816-4df3-829d-f7343c5791ae"},"vehicle_type_id":"4","last_reported":1773692855,"current_range_meters":19600,"station_id":"ce4bh0h2rcd13ifvqd40","pricing_plan_id":"cebpf4jnsgd1na2vs0mg"},{"bike_id":"ba2e9d83-cd03-4004-9634-5592c75304c5","system_id":"levelo_inurba_marseille","lat":43.26552,"lon":5.37299,"is_reserved":false,"is_disabled":false,"rental_uris":{"android":"levelo://app?vid=ba2e9d83-cd03-4004-9634-5592c75304c5","ios":"levelo://app?vid=ba2e9d83-cd03-4004-9634-5592c75304c5"},"vehicle_type_id":"4","last_reported":1773692855,"current_range_meters":11200,"station_id":"ce4bhg12rcd13ifvqf70","pricing_plan_id":"cebpf4jnsgd1na2vs0mg"},{"bike_id":"0638e5b0-9013-47ae-b843-f31533f150bd","system_id":"levelo_inurba_marseille","lat":43.3178,"lon":5.44402,"is_reserved":false,"is_disabled":false,"rental_uris":{"android":"levelo://app?vid=0638e5b0-9013-47ae-b843-f31533f150bd","ios":"levelo://app?vid=0638e5b0-9013-47ae-b843-f31533f150bd"},"vehicle_type_id":"4","last_reported":1773692855,"current_range_meters":25200,"station_id":"","pricing_plan_id":"cebpf4jnsgd1na2vs0mg"},{"bike_id":"001a8528-2663-4a9a-b45c-747d9a1477b0","system_id":"levelo_inurba_marseille","lat":43.31718,"lon":5.42408,"is_reserved":false,"is_disabled":false,"rental_uris":{"android":"levelo://app?vid=001a8528-2663-4a9a-b45c-747d9a1477b0","ios":"levelo://app?vid=001a8528-2663-4a9a-b45c-747d9a1477b0"},"vehicle_type_id":"4","last_reported":1773692855,"current_range_meters":33200,"station_id":"ce4bhp92rcd13ifvqhbg","pricing_plan_id":"cebpf4jnsgd1na2vs0mg"},{"bike_id":"b90dc04a-94c1-4e0a-a2ac-d700949ddb5e","system_id":"levelo_inurba_marseille","lat":43.2798,"lon":5.41658,"is_reserved":false,"is_disabled":false,"rental_uris":{"android":"levelo://app?vid=b90dc04a-94c1-4e0a-a2ac-d700949ddb5e","ios":"levelo://app?vid=b90dc04a-94c1-4e0a-a2ac-d700949ddb5e"},"vehicle_type_id":"4","last_reported":1773692855,"current_range_meters":8800,"station_id":"ce4bho12rcd13ifvqh1g","pricing_plan_id":"cebpf4jnsgd1na2vs0mg"},{"bike_id":"05f8026f-7b67-4577-bcc7-a40cf1517f6d","system_id":"levelo_inurba_marseille","lat":43.2856,"lon":5.39496,"is_reserved":false,"is_disabled":false,"rental_uris":{"android":"levelo://app?vid=05f8026f-7b67-4577-bcc7-a40cf1517f6d","ios":"levelo://app?vid=05f8026f-7b67-4577-bcc7-a40cf1517f6d"},"vehicle_type_id":"4","last_reported":1773692855,"current_range_meters":18800,"station_id":"ce4bh292rcd13ifvqdg0","pricing_plan_id":"cebpf4jnsgd1na2vs0mg"},{"bike_id":"95b8f310-11c6-49bd-b689-7e3598f2b992","system_id":"levelo_inurba_marseille","lat":43.2948,"lon":5.43309,"is_reserved":false,"is_disabled":false,"rental_uris":{"android":"levelo://app?vid=95b8f310-11c6-49bd-b689-7e3598f2b992","ios":"levelo://app?vid=95b8f310-11c6-49bd-b689-7e3598f2b992"},"vehicle_type_id":"4","last_reported":1773692855,"current_range_meters":22800,"station_id":"st_d3j5ugp08ojc73fj9d10","pricing_plan_id":"cebpf4jnsgd1na2vs0mg"},