{"last_updated":1734574642,"ttl":60,"version":"2.2","data":{"bikes":[{"bike_id":"56e8407d-b2a4-4e17-a371-e7cad630d22c","system_id":"levelo_inurba_marseille","lat":43.26559,"lon":5.37295,"is_reserved":false,"is_disabled":false,"rental_uris":{"android":"levelo://app?vid=56e8407d-b2a4-4e17-a371-e7cad630d22c","ios":"levelo://app?vid=56e8407d-b2a4-4e17-a371-e7cad630d22c"},"vehicle_type_id":"4","last_reported":1734574642,"current_range_meters":24800,"station_id":"ce4bhg12rcd13ifvqf70","pricing_plan_id":"cebpf4jnsgd1na2vs0mg"},{"bike_id":"7b355ec4-6be3-46ae-a8a5-f873759aa942","system_id":"levelo_inurba_marseille","lat":43.30235,"lon":5.40072,"is_reserved":false,"is_disabled":false,"rental_uris":{"android":"levelo://app?vid=7b355ec4-6be3-46ae-a8a5-f873759aa942","ios":"levelo://app?vid=7b355ec4-6be3-46ae-a8a5-f873759aa942"},"vehicle_type_id":"4","last_reported":1734574642,"current_range_meters":16400,"station_id":"ce4bgvh2rcd13ifvqcs0","pricing_plan_id":"cebpf4jnsgd1na2vs0mg"},{"bike_id":"8587d6fa-7593-4abb-b330-b21f797dc306","system_id":"levelo_inurba_marseille","lat":43.28456,"lon":5.3588,"is_reserved":false,"is_disabled":false,"rental_uris":{"android":"levelo://app?vid=8587d6fa-7593-4abb-b330-b21f797dc306","ios":"levelo://app?vid=8587d6fa-7593-4abb-b330-b21f797dc306"},"vehicle_type_id":"4","last_reported":1734574642,"current_range_meters":38400,"station_id":"ce4bhah2rcd13ifvqei0","pricing_plan_id":"cebpf4jnsgd1na2vs0mg"},{"bike_id":"d6c5a21c-8319-4530-8253-5e2f5c741994","system_id":"levelo_inurba_marseille","lat":43.23961,"lon":5.36641,"is_reserved":false,"is_disabled":false,"rental_uris":{"android":"levelo://app?vid=d6c5a21c-8319-4530-8253-5e2f5c741994","ios":"levelo://app?vid=d6c5a21c-8319-4530-8253-5e2f5c741994"},"vehicle_type_id":"4","last_reported":1734574642,"current_range_meters":36000,"station_id":"ce4bhi12rcd13ifvqfp0","pricing_plan_id":"cebpf4jnsgd1na2vs0mg"},{"bike_id":"d11baf8e-015c-40b5-a1e6-f2929fc6cc45","system_id":"levelo_inurba_marseille","lat":43.23191,"lon":5.39978,"is_reserved":false,"is_disabled":false,"rental_uris":{"android":"levelo://app?vid=d11baf8e-015c-40b5-a1e6-f2929fc6cc45","ios":"levelo://app?vid=d11baf8e-015c-40b5-a1e6-f2929fc6cc45"},"vehicle_type_id":"4","last_reported":1734574642,"current_range_meters":38800,"station_id":"ce4bhn12rcd13ifvqgqg","pricing_plan_id":"cebpf4jnsgd1na2vs0mg"},{"bike_id":"adc013f9-0576-4610-9b99-b3b9fcc6fdbf","system_id":"levelo_inurba_marseille","lat":43.28149,"lon":5.42633,"is_reserved":false,"is_disabled":false,"rental_uris":{"android":"levelo://app?vid=adc013f9-0576-4610-9b99-b3b9fcc6fdbf","ios":"levelo://app?vid=adc013f9-0576-4610-9b99-b3b9fcc6fdbf"},"vehicle_type_id":"4","last_reported":1734574642,"current_range_meters":38800,"station_id":"ce4bhnh2rcd13ifvqgug","pricing_plan_id":"cebpf4jnsgd1na2vs0mg"},{"bike_id":"03e99c21-e0c7-4691-a693-5f0c23ffd6a9","system_id":"levelo_inurba_marseille","lat":43.2572,"lon":5.41114,"is_reserved":false,"is_disabled":false,"rental_uris":{"android":"levelo://app?vid=03e99c21-e0c7-4691-a693-5f0c23ffd6a9","ios":"levelo://app?vid=03e99c21-e0c7-4691-a693-5f0c23ffd6a9"},"vehicle_type_id":"4","last_reported":1734574642,"current_range_meters":38000,"station_id":"ce4bhkp2rcd13ifvqgd0","pricing_plan_id":"cebpf4jnsgd1na2vs0mg"},{"bike_id":"0b3c962c-40d1-4375-b60d-644d72aaacf1","system_id":"levelo_inurba_marseille","lat":43.28019,"lon":5.40409,"is_reserved":false,"is_disabled":true,"rental_uris":{"android":"levelo://app?vid=0b3c962c-40d1-4375-b60d-644d72aaacf1","ios":"levelo://app?vid=0b3c962c-40d1-4375-b60d-644d72aaacf1"},"vehicle_type_id":"4","last_reported":1734574642,"current_range_meters":0,"station_id":"","pricing_plan_id":"cebpf4jnsgd1na2vs0mg"},{"bike_id":"7afa6fc7-0793-473c-a73c-8cca81382408","system_id":"levelo_inurba_marseille","lat":43.27999,"lon":5.41674,"is_reserved":false,"is_disabled":false,"rental_uris":{"android":"levelo://app?vid=7afa6fc7-0793-473c-a73c-8cca81382408","ios":"levelo://app?vid=7afa6fc7-0793-473c-a73c-8cca81382408"},"vehicle_type_id":"4","last_reported":1734574642,"current_range_meters":12800,"station_id":"ce4bho12rcd13ifvqh1g","pricing_plan_id":"cebpf4jnsgd1na2vs0mg"},{"bike_id":"40da1dfb-4cd9-4fe9-899b-71b4ad0b862a","system_id":"levelo_inurba_marseille","lat":43.286774,"lon":5.386577,"is_reserved":false,"is_disabled":false,"rental_uris":{"android":"levelo://app?vid=40da1dfb-4cd9-4fe9-899b-71b4ad0b862a","ios":"levelo://app?vid=40da1dfb-4cd9-4fe9-899b-71b4ad0b862a"},"vehicle_type_id":"4","last_reported":1734574642,"current_range_meters":5600,"station_id":"ce4bh492rcd13ifvqdug","pricing_plan_id":"cebpf4jnsgd1na2vs0mg"},{"bike_id":"5d163693-98e2-4b50-b65b-5dc7dc63d35a","system_id":"levelo_inurba_marseille","lat":43.25117,"lon":5.40285,"is_reserved":false,"is_disabled":false,"rental_uris":{"android":"levelo://app?vid=5d163693-98e2-4b50-b65b-5dc7dc63d35a","ios":"levelo://app?vid=5d163693-98e2-4b50-b65b-5dc7dc63d35a"},"vehicle_type_id":"4","last_reported":1734574642,"current_range_meters":12000,"station_id":"ce4bhlh2rcd13ifvqgig","pricing_plan_id":"cebpf4jnsgd1na2vs0mg"},{"bike_id":"6337cbbb-4f8c-4b42-8870-6aafc8566df4","system_id":"levelo_inurba_marseille","lat":43.2716,"lon":5.4098,"is_reserved":false,"is_disabled":false,"rental_uris":{"android":"levelo://app?vid=6337cbbb-4f8c-4b42-8870-6aafc8566df4","ios":"levelo://app?vid=6337cbbb-4f8c-4b42-8870-6aafc8566df4"},"vehicle_type_id":"4","last_reported":1734574642,"current_range_meters":38800,"station_id":"ce4bhl12rcd13ifvqgf0","pricing_plan_id":"cebpf4jnsgd1na2vs0mg"},{"bike_id":"b1d0e7dd-d508-4ab3-aee9-a56f312146c5","system_id":"levelo_inurba_marseille","lat":43.31139,"lon":5.38665,"is_reserved":false,"is_disabled":false,"rental_uris":{"android":"levelo://app?vid=b1d0e7dd-d508-4ab3-aee9-a56f312146c5","ios":"levelo://app?vid=b1d0e7dd-d508-4ab3-aee9-a56f312146c5"},"vehicle_type_id":"4","last_reported":1734574642,"current_range_meters":39200,"station_id":"ce4bgv12rcd13ifvqcp0","pricing_plan_id":"cebpf4jnsgd1na2vs0mg"},{"bike_id":"d53a1503-74ca-4cb0-a5fc-eab919ae17a8","system_id":"levelo_inurba_marseille","lat":43.32365,"lon":5.38886,"is_reserved":false,"is_disabled":false,"rental_uris":{"android":"levelo://app?vid=d53a1503-74ca-4cb0-a5fc-eab919ae17a8","ios":"levelo://app?vid=d53a1503-74ca-4cb0-a5fc-eab919ae17a8"},"vehicle_type_id":"4","last_reported":1734574642,"current_range_meters":28800,"station_id":"ce4bhqp2rcd13ifvqhog","pricing_plan_id":"cebpf4jnsgd1na2vs0mg"},{"bike_id":"919748ab-2c25-417d-a1a3-01157b02a54e","system_id":"levelo_inurba_marseille","lat":43.29235,"lon":5.40908,"is_reserved":false,"is_disabled":false,"rental_uris":{"android":"levelo://app?vid=919748ab-2c25-417d-a1a3-01157b02a54e","ios":"levelo://app?vid=919748ab-2c25-417d-a1a3-01157b02a54e"},"vehicle_type_id":"4","last_reported":1734574642,"current_range_meters":36000,"station_id":"ce4bh192rcd13ifvqdc0","pricing_plan_id":"cebpf4jnsgd1na2vs0mg"},{"bike_id":"559cfcac-8801-4974-b261-7bab8f98273b","system_id":"levelo_inurba_marseille","lat":43.28459,"lon":5.39199,"is_reserved":false,"is_disabled":true,"rental_uris":{"android":"levelo://app?vid=559cfcac-8801-4974-b261-7bab8f98273b","ios":"levelo://app?vid=559cfcac-8801-4974-b261-7bab8f98273b"},"vehicle_type_id":"4","last_reported":1734574642,"current_range_meters":800,"station_id":"ce4bhoh2rcd13ifvqh5g","pricing_plan_id":"cebpf4jnsgd1na2vs0mg"},{"bike_id":"77b4b836-da10-400d-aec7-37272c4aaf7a","system_id":"levelo_inurba_marseille","lat":43.3118,"lon":5.3874,"is_reserved":false,"is_disabled":false,"rental_uris":{"android":"levelo://app?vid=77b4b836-da10-400d-aec7-37272c4aaf7a","ios":"levelo://app?vid=77b4b836-da10-400d-aec7-37272c4aaf7a"},"vehicle_type_id":"4","last_reported":1734574642,"current_range_meters":38000,"station_id":"ce4bgv12rcd13ifvqcp0","pricing_plan_id":"cebpf4jnsgd1na2vs0mg"},{"bike_id":"a5bab296-af15-45a1-81e9-5b6f00bc7788","system_id":"levelo_inurba_marseille","lat":43.26927,"lon":5.4026,"is_reserved":false,"is_disabled":false,"rental_uris":{"android":"levelo://app?vid=a5bab296-af15-45a1-81e9-5b6f00bc7788","ios":"levelo://app?vid=a5bab296-af15-45a1-81e9-5b6f00bc7788"},"vehicle_type_id":"4","last_reported":1734574642,"current_range_meters":31200,"station_id":"cjm6bp8fraef2m0cb0m0","pricing_plan_id":"cebpf4jnsgd1na2vs0mg"},{"bike_id":"24fb0a77-0e82-4a3b-8075-30dbdf04b833","system_id":"levelo_inurba_marseille","lat":43.31273,"lon":5.40168,"is_reserved":false,"is_disabled":false,"rental_uris":{"android":"levelo://app?vid=24fb0a77-0e82-4a3b-8075-30dbdf04b833","ios":"levelo://app?vid=24fb0a77-0e82-4a3b-8075-30dbdf04b833"},"vehicle_type_id":"4","last_reported":1734574642,"current_range_meters":39200,"station_id":"ce4bh092rcd13ifvqd30","pricing_plan_id":"cebpf4jnsgd1na2vs0mg"},{"bike_id":"2befb655-f8ae-49dd-9a25-e288c2d6d793","system_id":"levelo_inurba_marseille","lat":43.31102,"lon":5.42415,"is_reserved":false,"is_disabled":false,"rental_uris":{"android":"levelo://app?vid=2befb655-f8ae-49dd-9a25-e288c2d6d793","ios":"levelo://app?vid=2befb655-f8ae-49dd-9a25-e288c2d6d793"},"vehicle_type_id":"4","last_reported":1734574642,"current_range_meters":27200,"station_id":"ce4bhp92rcd13ifvqhag","pricing_plan_id":"cebpf4jnsgd1na2vs0mg"},{"bike_id":"9c2d8520-9013-4d1e-9d2a-55aa4ea65e07","system_id":"levelo_inurba_marseille","lat":43.24658,"lon":5.38178,"is_reserved":false,"is_disabled":false,"rental_uris":{"android":"levelo://app?vid=9c2d8520-9013-4d1e-9d2a-55aa4ea65e07","ios":"levelo://app?vid=9c2d8520-9013-4d1e-9d2a-55aa4ea65e07"},"vehicle_type_id":"4","last_reported":1734574642,"current_range_meters":16800,"station_id":"ce4bhih2rcd13ifvqfr0","pricing_plan_id":"cebpf4jnsgd1na2vs0mg"},{"bike_id":"66161499-6387-4384-a855-61ee1fb4b2d3","system_id":"levelo_inurba_marseille","lat":43.2972,"lon":5.36598,"is_reserved":false,"is_disabled":false,"rental_uris":{"android":"levelo://app?vid=66161499-6387-4384-a855-61ee1fb4b2d3","ios":"levelo://app?vid=66161499-6387-4384-a855-61ee1fb4b2d3"},"vehicle_type_id":"4","last_reported":1734574642,"current_range_meters":38800,"station_id":"ce4bgn12rcd13ifvqbt0","pricing_plan_id":"cebpf4jnsgd1na2vs0mg"},{"bike_id":"863a10df-d815-4c58-adbd-a85639a033d8","system_id":"levelo_inurba_marseille","lat":43.30876,"lon":5.39624,"is_reserved":false,"is_disabled":false,"rental_uris":{"android":"levelo://app?vid=863a10df-d815-4c58-adbd-a85639a033d8","ios":"levelo://app?vid=863a10df-d815-4c58-adbd-a85639a033d8"},"vehicle_type_id":"4","last_reported":1734574642,"current_range_meters":17200,"station_id":"ce4bh012rcd13ifvqcv0","pricing_plan_id":"cebpf4jnsgd1na2vs0mg"},{"bike_id":"7d1ce590-bd9f-4425-849d-97b60ac5c099","system_id":"levelo_inurba_marseille","lat":43.3172,"lon":5.42403,"is_reserved":false,"is_disabled":false,"rental_uris":{"android":"levelo://app?vid=7d1ce590-bd9f-4425-849d-97b60ac5c099","ios":"levelo://app?vid=7d1ce590-bd9f-4425-849d-97b60ac5c099"},"vehicle_type_id":"4","last_reported":1734574642,"current_range_meters":34000,"station_id":"ce4bhp92rcd13ifvqhbg","pricing_plan_id":"cebpf4jnsgd1na2vs0mg"},{"bike_id":"e58cbb69-1d2a-4a63-9aaa-8b9167478fa7","system_id":"levelo_inurba_marseille","lat":43.28723,"lon":5.36083,"is_reserved":false,"is_disabled":false,"rental_uris":{"android":"levelo://app?vid=e58cbb69-1d2a-4a63-9aaa-8b9167478fa7","ios":"levelo://app?vid=e58cbb69-1d2a-4a63-9aaa-8b9167478fa7"},"vehicle_type_id":"4","last_reported":1734574642,"current_range_meters":38800,"station_id":"cki0cbj6b192h4jlfktg","pricing_plan_id":"cebpf4jnsgd1na2vs0mg"},{"bike_id":"21061e30-3409-4ad3-9bcc-3222c4bc66a6","system_id":"levelo_inurba_marseille","lat":43.30885,"lon":5.39644,"is_reserved":false,"is_disabled":false,"rental_uris":{"android":"levelo://app?vid=21061e30-3409-4ad3-9bcc-3222c4bc66a6","ios":"levelo://app?vid=21061e30-3409-4ad3-9bcc-3222c4bc66a6"},"vehicle_type_id":"4","last_reported":1734574642,"current_range_meters":22000,"station_id":"ce4bh012rcd13ifvqcv0","pricing_plan_id":"cebpf4jnsgd1na2vs0mg"},{"bike_id":"277519f5-d25e-46cc-83cb-95d36aa49ee0","system_id":"levelo_inurba_marseille","lat":43.26557,"lon":5.39012,"is_reserved":false,"is_disabled":false,"rental_uris":{"android":"levelo://app?vid=277519f5-d25e-46cc-83cb-95d36aa49ee0","ios":"levelo://app?vid=277519f5-d25e-46cc-83cb-95d36aa49ee0"},"vehicle_type_id":"4","last_reported":1734574642,"current_range_meters":27600,"station_id":"ce4bhe12rcd13ifvqf30","pricing_plan_id":"cebpf4jnsgd1na2vs0mg"},{"bike_id":"1f834613-72c8-4bef-a54d-6ea138016033","system_id":"levelo_inurba_marseille","lat":43.23191,"lon":5.35537,"is_reserved":false,"is_disabled":false,"rental_uris":{"android":"levelo://app?vid=1f834613-72c8-4bef-a54d-6ea138016033","ios":"levelo://app?vid=1f834613-72c8-4bef-a54d-6ea138016033"},"vehicle_type_id":"4","last_reported":1734574642,"current_range_meters":38800,"station_id":"ce4bhu92rcd13ifvqi70","pricing_plan_id":"cebpf4jnsgd1na2vs0mg"},{"bike_id":"3b1ac175-91d1-4b9c-85e2-6fe97104d7c4","system_id":"levelo_inurba_marseille","lat":43.31066,"lon":5.38357,"is_reserved":false,"is_disabled":false,"rental_uris":{"android":"levelo://app?vid=3b1ac175-91d1-4b9c-85e2-6fe97104d7c4","ios":"levelo://app?vid=3b1ac175-91d1-4b9c-85e2-6fe97104d7c4"},"vehicle_type_id":"4","last_reported":1734574642,"current_range_meters":37600,"station_id":"ce4bgv92rcd13ifvqcr0","pricing_plan_id":"cebpf4jnsgd1na2vs0mg"},{"bike_id":"04d776b8-63de-4dae-8334-97161869cbf6","system_id":"levelo_inurba_marseille","lat":43.28835,"lon":5.35855,"is_reserved":false,"is_disabled":false,"rental_uris":{"android":"levelo://app?vid=04d776b8-63de-4dae-8334-97161869cbf6","ios":"levelo://app?vid=04d776b8-63de-4dae-8334-97161869cbf6"},"vehicle_type_id":"4","last_reported":1734574642,"current_range_meters":6400,"station_id":"ce4bhb12rcd13ifvqem0","pricing_plan_id":"cebpf4jnsgd1na2vs0mg"},{"bike_id":"f23c72e0-53e6-497e-a874-03021934ba2b","system_id":"levelo_inurba_marseille","lat":43.31332,"lon":5.39705,"is_reserved":false,"is_disabled":false,"rental_uris":{"android":"levelo://app?vid=f23c72e0-53e6-497e-a874-03021934ba2b","ios":"levelo://app?vid=f23c72e0-53e6-497e-a874-03021934ba2b"},"vehicle_type_id":"4","last_reported":1734574642,"current_range_meters":38800,"station_id":"ce4bgvp2rcd13ifvqcu0","pricing_plan_id":"cebpf4jnsgd1na2vs0mg"},{"bike_id":"f3cb7b2d-f2b4-4a6e-8f63-5b3f29ce5190","system_id":"levelo_inurba_marseille","lat":43.2903,"lon":5.38129,"is_reserved":false,"is_disabled":true,"rental_uris":{"android":"levelo://app?vid=f3cb7b2d-f2b4-4a6e-8f63-5b3f29ce5190","ios":"levelo://app?vid=f3cb7b2d-f2b4-4a6e-8f63-5b3f29ce5190"},"vehicle_type_id":"4","last_reported":1734574642,"current_range_meters":31200,"station_id":"ce4bh4p2rcd13ifvqe1g","pricing_plan_id":"cebpf4jnsgd1na2vs0mg"},{"bike_id":"cece21bd-76d6-4f19-b3ff-0220eec8a48b","system_id":"levelo_inurba_marseille","lat":43.29187,"lon":5.35804,"is_reserved":false,"is_disabled":false,"rental_uris":{"android":"levelo://app?vid=cece21bd-76d6-4f19-b3ff-0220eec8a48b","ios":"levelo://app?vid=cece21bd-76d6-4f19-b3ff-0220eec8a48b"},"vehicle_type_id":"4","last_reported":1734574642,"current_range_meters":38800,"station_id":"ce4bhb12rcd13ifvqel0","pricing_plan_id":"cebpf4jnsgd1na2vs0mg"},{"bike_id":"3dcf6971-fee8-4e33-8303-92a3db38f7c2","system_id":"levelo_inurba_marseille","lat":43.32661,"lon":5.40978,"is_reserved":false,"is_disabled":true,"rental_uris":{"android":"levelo://app?vid=3dcf6971-fee8-4e33-8303-92a3db38f7c2","ios":"levelo://app?vid=3dcf6971-fee8-4e33-8303-92a3db38f7c2"},"vehicle_type_id":"4","last_reported":1734574642,"current_range_meters":8000,"station_id":"ce4bhpp2rcd13ifvqhgg","pricing_plan_id":"cebpf4jnsgd1na2vs0mg"},{"bike_id":"8053e015-991c-4910-88bd-a36827ef7539","system_id":"levelo_inurba_marseille","lat":43.24816,"lon":5.37455,"is_reserved":false,"is_disabled":false,"rental_uris":{"android":"levelo://app?vid=8053e015-991c-4910-88bd-a36827ef7539","ios":"levelo://app?vid=8053e015-991c-4910-88bd-a36827ef7539"},"vehicle_type_id":"4","last_reported":1734574642,"current_range_meters":37600,"station_id":"ce4bhgh2rcd13ifvqfb0","pricing_plan_id":"cebpf4jnsgd1na2vs0mg"},{"bike_id":"ef0ddfae-8964-4351-aa76-8487b220c22f","system_id":"levelo_inurba_marseille","lat":43.27746,"lon":5.408,"is_reserved":false,"is_disabled":false,"rental_uris":{"android":"levelo://app?vid=ef0ddfae-8964-4351-aa76-8487b220c22f","ios":"levelo://app?vid=ef0ddfae-8964-4351-aa76-8487b220c22f"},"vehicle_type_id":"4","last_reported":1734574642,"current_range_meters":38800,"station_id":"ce4bhnh2rcd13ifvqgtg","pricing_plan_id":"cebpf4jnsgd1na2vs0mg"},{"bike_id":"e342b6e6-ee4e-483f-b2b2-b84bbddf1cc9","system_id":"levelo_inurba_marseille","lat":43.29049,"lon":5.35903,"is_reserved":false,"is_disabled":false,"rental_uris":{"android":"levelo://app?vid=e342b6e6-ee4e-483f-b2b2-b84bbddf1cc9","ios":"levelo://app?vid=e342b6e6-ee4e-483f-b2b2-b84bbddf1cc9"},"vehicle_type_id":"4","last_reported":1734574642,"current_range_meters":35200,"station_id":"ce4bha92rcd13ifvqeg0","pricing_plan_id":"cebpf4jnsgd1na2vs0mg"},{"bike_id":"38cdacc2-c251-4094-8e60-0da0d4a8d81b","system_id":"levelo_inurba_marseille","lat":43.29052,"lon":5.35891,"is_reserved":false,"is_disabled":false,"rental_uris":{"android":"levelo://app?vid=38cdacc2-c251-4094-8e60-0da0d4a8d81b","ios":"levelo://app?vid=38cdacc2-c251-4094-8e60-0da0d4a8d81b"},"vehicle_type_id":"4","last_reported":1734574642,"current_range_meters":38800,"station_id":"ce4bha92rcd13ifvqeg0","pricing_plan_id":"cebpf4jnsgd1na2vs0mg"},{"bike_id":"2491c714-f3f7-493b-9790-9992e16c8fb6","system_id":"levelo_inurba_marseille","lat":43.34158,"lon":5.40893,"is_reserved":false,"is_disabled":true,"rental_uris":{"android":"levelo://app?vid=2491c714-f3f7-493b-9790-9992e16c8fb6","ios":"levelo://app?vid=2491c714-f3f7-493b-9790-9992e16c8fb6"},"vehicle_type_id":"4","last_reported":1734574642,"current_range_meters":38800,"station_id":"ce4bhqh2rcd13ifvqhlg","pricing_plan_id":"cebpf4jnsgd1na2vs0mg"},{"bike_id":"d8f5e76e-f9f7-4677-b4d2-89d449c9f02e","system_id":"levelo_inurba_marseille","lat":43.29902,"lon":5.43669,"is_reserved":false,"is_disabled":false,"rental_uris":{"android":"levelo://app?vid=d8f5e76e-f9f7-4677-b4d2-89d449c9f02e","ios":"levelo://app?vid=d8f5e76e-f9f7-4677-b4d2-89d449c9f02e"},"vehicle_type_id":"4","last_reported":1734574642,"current_range_meters":16000,"station_id":"ce4bhpp2rcd13ifvqhfg","pricing_plan_id":"cebpf4jnsgd1na2vs0mg"},{"bike_id":"ea1ee0a0-f240-4d25-84d9-e6fb6fc7a18c","system_id":"levelo_inurba_marseille","lat":43.33812,"lon":5.42106,"is_reserved":false,"is_disabled":true,"rental_uris":{"android":"levelo://app?vid=ea1ee0a0-f240-4d25-84d9-e6fb6fc7a18c","ios":"levelo://app?vid=ea1ee0a0-f240-4d25-84d9-e6fb6fc7a18c"},"vehicle_type_id":"4","last_reported":1734574642,"current_range_meters":0,"station_id":"","pricing_plan_id":"cebpf4jnsgd1na2vs0mg"},{"bike_id":"b0459987-7e58-4ca7-8efd-0c30cb3e65f0","system_id":"levelo_inurba_marseille","lat":43.290087,"lon":5.356097,"is_reserved":false,"is_disabled":false,"rental_uris":{"android":"levelo://app?vid=b0459987-7e58-4ca7-8efd-0c30cb3e65f0","ios":"levelo://app?vid=b0459987-7e58-4ca7-8efd-0c30cb3e65f0"},"vehicle_type_id":"4","last_reported":1734574642,"current_range_meters":37600,"station_id":"ce4bhb92rcd13ifvqen0","pricing_plan_id":"cebpf4jnsgd1na2vs0mg"},{"bike_id":"4d508899-9fc2-4eac-a5b9-ed1393037b5f","system_id":"levelo_inurba_marseille","lat":43.27898,"lon":5.38006,"is_reserved":false,"is_disabled":false,"rental_uris":{"android":"levelo://app?vid=4d508899-9fc2-4eac-a5b9-ed1393037b5f","ios":"levelo://app?vid=4d508899-9fc2-4eac-a5b9-ed1393037b5f"},"vehicle_type_id":"4","last_reported":1734574642,"current_range_meters":38800,"station_id":"ce4bhf92rcd13ifvqf50","pricing_plan_id":"cebpf4jnsgd1na2vs0mg"},{"bike_id":"8c5a3c33-11ba-465a-93d6-f3de740724a4","system_id":"levelo_inurba_marseille","lat":43.294435,"lon":5.397489,"is_reserved":false,"is_disabled":false,"rental_uris":{"android":"levelo://app?vid=8c5a3c33-11ba-465a-93d6-f3de740724a4","ios":"levelo://app?vid=8c5a3c33-11ba-465a-93d6-f3de740724a4"},"vehicle_type_id":"4","last_reported":1734574642,"current_range_meters":39200,"station_id":"ce4bh3h2rcd13ifvqdo0","pricing_plan_id":"cebpf4jnsgd1na2vs0mg"},{"bike_id":"9568e117-a9ab-4765-8dba-42e3c7531b62","system_id":"levelo_inurba_marseille","lat":43.27832,"lon":5.39209,"is_reserved":false,"is_disabled":false,"rental_uris":{"android":"levelo://app?vid=9568e117-a9ab-4765-8dba-42e3c7531b62","ios":"levelo://app?vid=9568e117-a9ab-4765-8dba-42e3c7531b62"},"vehicle_type_id":"4","last_reported":1734574642,"current_range_meters":11600,"station_id":"ce4bhjp2rcd13ifvqga0","pricing_plan_id":"cebpf4jnsgd1na2vs0mg"},{"bike_id":"5212268e-6e4b-47d6-857c-507f53100727","system_id":"levelo_inurba_marseille","lat":43.28431,"lon":5.39186,"is_reserved":false,"is_disabled":false,"rental_uris":{"android":"levelo://app?vid=5212268e-6e4b-47d6-857c-507f53100727","ios":"levelo://app?vid=5212268e-6e4b-47d6-857c-507f53100727"},"vehicle_type_id":"4","last_reported":1734574642,"current_range_meters":11600,"station_id":"ce4bhoh2rcd13ifvqh5g","pricing_plan_id":"cebpf4jnsgd1na2vs0mg"},{"bike_id":"776c8978-cbcb-44e4-80c4-8516e8e53dde","system_id":"levelo_inurba_marseille","lat":43.30913,"lon":5.40154,"is_reserved":false,"is_disabled":false,"rental_uris":{"android":"levelo://app?vid=776c8978-cbcb-44e4-80c4-8516e8e53dde","ios":"levelo://app?vid=776c8978-cbcb-44e4-80c4-8516e8e53dde"},"vehicle_type_id":"4","last_reported":1734574642,"current_range_meters":27200,"station_id":"ce4bgvp2rcd13ifvqct0","pricing_plan_id":"cebpf4jnsgd1na2vs0mg"},{"bike_id":"66361be3-5f90-4340-8a15-53abb8a72aa7","system_id":"levelo_inurba_marseille","lat":43.30916,"lon":5.40138,"is_reserved":false,"is_disabled":false,"rental_uris":{"android":"levelo://app?vid=66361be3-5f90-4340-8a15-53abb8a72aa7","ios":"levelo://app?vid=66361be3-5f90-4340-8a15-53abb8a72aa7"},"vehicle_type_id":"4","last_reported":1734574642,"current_range_meters":37600,"station_id":"ce4bgvp2rcd13ifvqct0","pricing_plan_id":"cebpf4jnsgd1na2vs0mg"},{"bike_id":"d3830b09-782b-4794-b0dd-6d7f90cf2831","system_id":"levelo_inurba_marseille","lat":43.30651,"lon":5.40056,"is_reserved":false,"is_disabled":false,"rental_uris":{"android":"levelo://app?vid=d3830b09-782b-4794-b0dd-6d7f90cf2831","ios":"levelo://app?vid=d3830b09-782b-4794-b0dd-6d7f90cf2831"},"vehicle_type_id":"4","last_reported":1734574642,"current_range_meters":38800,"station_id":"ce4bh112rcd13ifvqda0","pricing_plan_id":"cebpf4jnsgd1na2vs0mg"},{"bike_id":"3551be41-7101-4e0b-974c-43abe71c6bc1","system_id":"levelo_inurba_marseille","lat":43.31327,"lon":5.39686,"is_reserved":false,"is_disabled":false,"rental_uris":{"android":"levelo://app?vid=3551be41-7101-4e0b-974c-43abe71c6bc1","ios":"levelo://app?vid=3551be41-7101-4e0b-974c-43abe71c6bc1"},"vehicle_type_id":"4","last_reported":1734574642,"current_range_meters":38800,"station_id":"ce4bgvp2rcd13ifvqcu0","pricing_plan_id":"cebpf4jnsgd1na2vs0mg"},{"bike_id":"5c2f5473-e6f3-4436-9342-78ef969e3034","system_id":"levelo_inurba_marseille","lat":43.28555,"lon":5.39476,"is_reserved":false,"is_disabled":false,"rental_uris":{"android":"levelo://app?vid=5c2f5473-e6f3-4436-9342-78ef969e3034","ios":"levelo://app?vid=5c2f5473-e6f3-4436-9342-78ef969e3034"},"vehicle_type_id":"4","last_reported":1734574642,"current_range_meters":39200,"station_id":"ce4bh292rcd13ifvqdg0","pricing_plan_id":"cebpf4jnsgd1na2vs0mg"},{"bike_id":"8bfac80e-1fb6-4c29-8a7a-e5d1d210dc81","system_id":"levelo_inurba_marseille","lat":43.31006,"lon":5.38068,"is_reserved":false,"is_disabled":false,"rental_uris":{"android":"levelo://app?vid=8bfac80e-1fb6-4c29-8a7a-e5d1d210dc81","ios":"levelo://app?vid=8bfac80e-1fb6-4c29-8a7a-e5d1d210dc81"},"vehicle_type_id":"4","last_reported":1734574642,"current_range_meters":20000,"station_id":"","pricing_plan_id":"cebpf4jnsgd1na2vs0mg"},{"bike_id":"b72fe934-73a3-474f-8e68-3fb6782c272e","system_id":"levelo_inurba_marseille","lat":43.30778,"lon":5.38171,"is_reserved":false,"is_disabled":false,"rental_uris":{"android":"levelo://app?vid=b72fe934-73a3-474f-8e68-3fb6782c272e","ios":"levelo://app?vid=b72fe934-73a3-474f-8e68-3fb6782c272e"},"vehicle_type_id":"4","last_reported":1734574642,"current_range_meters":13600,"station_id":"ce4bgt12rcd13ifvqce0","pricing_plan_id":"cebpf4jnsgd1na2vs0mg"},{"bike_id":"03e48343-c28f-4432-be90-96ebf5b8a19f","system_id":"levelo_inurba_marseille","lat":43.24389,"lon":5.37057,"is_reserved":false,"is_disabled":false,"rental_uris":{"android":"levelo://app?vid=03e48343-c28f-4432-be90-96ebf5b8a19f","ios":"levelo://app?vid=03e48343-c28f-4432-be90-96ebf5b8a19f"},"vehicle_type_id":"4","last_reported":1734574642,"current_range_meters":38400,"station_id":"ce4bhhh2rcd13ifvqfk0","pricing_plan_id":"cebpf4jnsgd1na2vs0mg"},{"bike_id":"00c31b9e-650b-4373-9018-9866a8aa6f29","system_id":"levelo_inurba_marseille","lat":43.31315,"lon":5.3971,"is_reserved":false,"is_disabled":false,"rental_uris":{"android":"levelo://app?vid=00c31b9e-650b-4373-9018-9866a8aa6f29","ios":"levelo://app?vid=00c31b9e-650b-4373-9018-9866a8aa6f29"},"vehicle_type_id":"4","last_reported":1734574642,"current_range_meters":15200,"station_id":"ce4bgvp2rcd13ifvqcu0","pricing_plan_id":"cebpf4jnsgd1na2vs0mg"},{"bike_id":"a52430e9-a5f4-4ca5-8ac7-50008cdac481","system_id":"levelo_inurba_marseille","lat":43.30132,"lon":5.38783,"is_reserved":false,"is_disabled":false,"rental_uris":{"android":"levelo://app?vid=a52430e9-a5f4-4ca5-8ac7-50008cdac481","ios":"levelo://app?vid=a52430e9-a5f4-4ca5-8ac7-50008cdac481"},"vehicle_type_id":"4","last_reported":1734574642,"current_range_meters":38000,"station_id":"ce4bghh2rcd13ifvqb60","pricing_plan_id":"cebpf4jnsgd1na2vs0mg"},{"bike_id":"d6e6fabb-c5a1-406f-944f-673abae03840","system_id":"levelo_inurba_marseille","lat":43.30657,"lon":5.40097,"is_reserved":false,"is_disabled":false,"rental_uris":{"android":"levelo://app?vid=d6e6fabb-c5a1-406f-944f-673abae03840","ios":"levelo://app?vid=d6e6fabb-c5a1-406f-944f-673abae03840"},"vehicle_type_id":"4","last_reported":1734574642,"current_range_meters":38800,"station_id":"ce4bh112rcd13ifvqda0","pricing_plan_id":"cebpf4jnsgd1na2vs0mg"},{"bike_id":"2c746c44-ff25-4f38-b289-7cd7c811831c","system_id":"levelo_inurba_marseille","lat":43.30857,"lon":5.39615,"is_reserved":false,"is_disabled":false,"rental_uris":{"android":"levelo://app?vid=2c746c44-ff25-4f38-b289-7cd7c811831c","ios":"levelo://app?vid=2c746c44-ff25-4f38-b289-7cd7c811831c"},"vehicle_type_id":"4","last_reported":1734574642,"current_range_meters":36800,"station_id":"","pricing_plan_id":"cebpf4jnsgd1na2vs0mg"},{"bike_id":"e1df2675-c7ab-4ce8-91ff-d96e491eab89","system_id":"levelo_inurba_marseille","lat":43.29651,"lon":5.37177,"is_reserved":false,"is_disabled":true,"rental_uris":{"android":"levelo://app?vid=e1df2675-c7ab-4ce8-91ff-d96e491eab89","ios":"levelo://app?vid=e1df2675-c7ab-4ce8-91ff-d96e491eab89"},"vehicle_type_id":"4","last_reported":1734574642,"current_range_meters":0,"station_id":"ce4bgnh2rcd13ifvqc0g","pricing_plan_id":"cebpf4jnsgd1na2vs0mg"},{"bike_id":"7aba6ab7-3a8f-473e-bf7c-28c559dcf003","system_id":"levelo_inurba_marseille","lat":43.27936,"lon":5.38688,"is_reserved":false,"is_disabled":true,"rental_uris":{"android":"levelo://app?vid=7aba6ab7-3a8f-473e-bf7c-28c559dcf003","ios":"levelo://app?vid=7aba6ab7-3a8f-473e-bf7c-28c559dcf003"},"vehicle_type_id":"4","last_reported":1734574642,"current_range_meters":38000,"station_id":"ce4bhg12rcd13ifvqf80","pricing_plan_id":"cebpf4jnsgd1na2vs0mg"},{"bike_id":"04160c74-0c14-43dc-a1ea-014ddd2d56b6","system_id":"levelo_inurba_marseille","lat":43.29548,"lon":5.42286,"is_reserved":false,"is_disabled":false,"rental_uris":{"android":"levelo://app?vid=04160c74-0c14-43dc-a1ea-014ddd2d56b6","ios":"levelo://app?vid=04160c74-0c14-43dc-a1ea-014ddd2d56b6"},"vehicle_type_id":"4","last_reported":1734574642,"current_range_meters":32400,"station_id":"ce4bhph2rcd13ifvqhdg","pricing_plan_id":"cebpf4jnsgd1na2vs0mg"},{"bike_id":"fc2b8ae5-b790-49dc-86dd-44f14bd9edf7","system_id":"levelo_inurba_marseille","lat":43.2841,"lon":5.3753,"is_reserved":false,"is_disabled":false,"rental_uris":{"android":"levelo://app?vid=fc2b8ae5-b790-49dc-86dd-44f14bd9edf7","ios":"levelo://app?vid=fc2b8ae5-b790-49dc-86dd-44f14bd9edf7"},"vehicle_type_id":"4","last_reported":1734574642,"current_range_meters":38800,"station_id":"ce4bh412rcd13ifvqds0","pricing_plan_id":"cebpf4jnsgd1na2vs0mg"},{"bike_id":"9774ee21-eed8-4330-a2e2-8e47d4e6d1bd","system_id":"levelo_inurba_marseille","lat":43.30417,"lon":5.41289,"is_reserved":false,"is_disabled":false,"rental_uris":{"android":"levelo://app?vid=9774ee21-eed8-4330-a2e2-8e47d4e6d1bd","ios":"levelo://app?vid=9774ee21-eed8-4330-a2e2-8e47d4e6d1bd"},"vehicle_type_id":"4","last_reported":1734574642,"current_range_meters":27200,"station_id":"ce4bhop2rcd13ifvqh8g","pricing_plan_id":"cebpf4jnsgd1na2vs0mg"},{"bike_id":"776ddb3d-31f3-4b94-86b1-7488f49f7bc1","system_id":"levelo_inurba_marseille","lat":43.28861,"lon":5.39321,"is_reserved":false,"is_disabled":false,"rental_uris":{"android":"levelo://app?vid=776ddb3d-31f3-4b94-86b1-7488f49f7bc1","ios":"levelo://app?vid=776ddb3d-31f3-4b94-86b1-7488f49f7bc1"},"vehicle_type_id":"4","last_reported":1734574642,"current_range_meters":38400,"station_id":"ce4bh2p2rcd13ifvqdi0","pricing_plan_id":"cebpf4jnsgd1na2vs0mg"},{"bike_id":"0d4cf357-cd32-43d3-8971-89a7a2f06824","system_id":"levelo_inurba_marseille","lat":43.25582,"lon":5.3824,"is_reserved":false,"is_disabled":false,"rental_uris":{"android":"levelo://app?vid=0d4cf357-cd32-43d3-8971-89a7a2f06824","ios":"levelo://app?vid=0d4cf357-cd32-43d3-8971-89a7a2f06824"},"vehicle_type_id":"4","last_reported":1734574642,"current_range_meters":38800,"station_id":"ce4bhih2rcd13ifvqfs0","pricing_plan_id":"cebpf4jnsgd1na2vs0mg"},{"bike_id":"91a78d7a-00d1-439e-81f3-a87be5d8bbf3","system_id":"levelo_inurba_marseille","lat":43.32663,"lon":5.40963,"is_reserved":false,"is_disabled":false,"rental_uris":{"android":"levelo://app?vid=91a78d7a-00d1-439e-81f3-a87be5d8bbf3","ios":"levelo://app?vid=91a78d7a-00d1-439e-81f3-a87be5d8bbf3"},"vehicle_type_id":"4","last_reported":1734574642,"current_range_meters":38400,"station_id":"ce4bhpp2rcd13ifvqhgg","pricing_plan_id":"cebpf4jnsgd1na2vs0mg"},{"bike_id":"b11dec3c-37ae-4e5f-a182-7db8571c22d2","system_id":"levelo_inurba_marseille","lat":43.29903,"lon":5.43663,"is_reserved":false,"is_disabled":false,"rental_uris":{"android":"levelo://app?vid=b11dec3c-37ae-4e5f-a182-7db8571c22d2","ios":"levelo://app?vid=b11dec3c-37ae-4e5f-a182-7db8571c22d2"},"vehicle_type_id":"4","last_reported":1734574642,"current_range_meters":38800,"station_id":"ce4bhpp2rcd13ifvqhfg","pricing_plan_id":"cebpf4jnsgd1na2vs0mg"},{"bike_id":"3fa68d7b-99f2-4b3e-a477-87ac1d8f415c","system_id":"levelo_inurba_marseille","lat":43.29267,"lon":5.38443,"is_reserved":false,"is_disabled":true,"rental_uris":{"android":"levelo://app?vid=3fa68d7b-99f2-4b3e-a477-87ac1d8f415c","ios":"levelo://app?vid=3fa68d7b-99f2-4b3e-a477-87ac1d8f415c"},"vehicle_type_id":"4","last_reported":1734574642,"current_range_meters":1600,"station_id":"ce4bh692rcd13ifvqea0","pricing_plan_id":"cebpf4jnsgd1na2vs0mg"},{"bike_id":"c1a4aa5b-7a4f-45bd-a927-1dedffacf049","system_id":"levelo_inurba_marseille","lat":43.27364,"lon":5.36255,"is_reserved":false,"is_disabled":false,"rental_uris":{"android":"levelo://app?vid=c1a4aa5b-7a4f-45bd-a927-1dedffacf049","ios":"levelo://app?vid=c1a4aa5b-7a4f-45bd-a927-1dedffacf049"},"vehicle_type_id":"4","last_reported":1734574642,"current_range_meters":7200,"station_id":"ce4bhbh2rcd13ifvqeo0","pricing_plan_id":"cebpf4jnsgd1na2vs0mg"},{"bike_id":"72492ff3-d3e5-4b81-822b-1d3357339451","system_id":"levelo_inurba_marseille","lat":43.290836,"lon":5.399031,"is_reserved":false,"is_disabled":true,"rental_uris":{"android":"levelo://app?vid=72492ff3-d3e5-4b81-822b-1d3357339451","ios":"levelo://app?vid=72492ff3-d3e5-4b81-822b-1d3357339451"},"vehicle_type_id":"4","last_reported":1734574642,"current_range_meters":38400,"station_id":"","pricing_plan_id":"cebpf4jnsgd1na2vs0mg"},{"bike_id":"c9aecb48-1552-47ad-af23-8b6bab0d2fdf","system_id":"levelo_inurba_marseille","lat":43.25076,"lon":5.39508,"is_reserved":false,"is_disabled":false,"rental_uris":{"android":"levelo://app?vid=c9aecb48-1552-47ad-af23-8b6bab0d2fdf","ios":"levelo://app?vid=c9aecb48-1552-47ad-af23-8b6bab0d2fdf"},"vehicle_type_id":"4","last_reported":1734574642,"current_range_meters":38800,"station_id":"ce4bhm12rcd13ifvqgkg","pricing_plan_id":"cebpf4jnsgd1na2vs0mg"},{"bike_id":"921bbff8-28d4-4d0d-80af-4b13aeca41c1","system_id":"levelo_inurba_marseille","lat":43.26919,"lon":5.40872,"is_reserved":false,"is_disabled":false,"rental_uris":{"android":"levelo://app?vid=921bbff8-28d4-4d0d-80af-4b13aeca41c1","ios":"levelo://app?vid=921bbff8-28d4-4d0d-80af-4b13aeca41c1"},"vehicle_type_id":"4","last_reported":1734574642,"current_range_meters":25600,"station_id":"","pricing_plan_id":"cebpf4jnsgd1na2vs0mg"},{"bike_id":"72440999-b4ec-4805-80a8-0595d5eb9838","system_id":"levelo_inurba_marseille","lat":43.26545,"lon":5.3728,"is_reserved":false,"is_disabled":false,"rental_uris":{"android":"levelo://app?vid=72440999-b4ec-4805-80a8-0595d5eb9838","ios":"levelo://app?vid=72440999-b4ec-4805-80a8-0595d5eb9838"},"vehicle_type_id":"4","last_reported":1734574642,"current_range_meters":9600,"station_id":"ce4bhg12rcd13ifvqf70","pricing_plan_id":"cebpf4jnsgd1na2vs0mg"},{"bike_id":"92cb5a1c-7fd8-41f2-8ea7-0075d1f8677f","system_id":"levelo_inurba_marseille","lat":43.26661,"lon":5.38261,"is_reserved":false,"is_disabled":false,"rental_uris":{"android":"levelo://app?vid=92cb5a1c-7fd8-41f2-8ea7-0075d1f8677f","ios":"levelo://app?vid=92cb5a1c-7fd8-41f2-8ea7-0075d1f8677f"},"vehicle_type_id":"4","last_reported":1734574642,"current_range_meters":38000,"station_id":"ce4bhg92rcd13ifvqf90","pricing_plan_id":"cebpf4jnsgd1na2vs0mg"},{"bike_id":"d89d4721-4fde-43a0-928d-191fb6ee1fa9","system_id":"levelo_inurba_marseille","lat":43.28277,"lon":5.35059,"is_reserved":false,"is_disabled":false,"rental_uris":{"android":"levelo://app?vid=d89d4721-4fde-43a0-928d-191fb6ee1fa9","ios":"levelo://app?vid=d89d4721-4fde-43a0-928d-191fb6ee1fa9"},"vehicle_type_id":"4","last_reported":1734574642,"current_range_meters":39200,"station_id":"ce4bhbp2rcd13ifvqerg","pricing_plan_id":"cebpf4jnsgd1na2vs0mg"},{"bike_id":"29edcf61-fccc-4236-b5ba-28cb6e78943a","system_id":"levelo_inurba_marseille","lat":43.31709,"lon":5.37775,"is_reserved":false,"is_disabled":false,"rental_uris":{"android":"levelo://app?vid=29edcf61-fccc-4236-b5ba-28cb6e78943a","ios":"levelo://app?vid=29edcf61-fccc-4236-b5ba-28cb6e78943a"},"vehicle_type_id":"4","last_reported":1734574642,"current_range_meters":39200,"station_id":"ce4bgth2rcd13ifvqch0","pricing_plan_id":"cebpf4jnsgd1na2vs0mg"},{"bike_id":"e9442405-e652-4cd5-b406-fe5f710d0f7c","system_id":"levelo_inurba_marseille","lat":43.2837,"lon":5.38623,"is_reserved":false,"is_disabled":false,"rental_uris":{"android":"levelo://app?vid=e9442405-e652-4cd5-b406-fe5f710d0f7c","ios":"levelo://app?vid=e9442405-e652-4cd5-b406-fe5f710d0f7c"},"vehicle_type_id":"4","last_reported":1734574642,"current_range_meters":38800,"station_id":"ce4bh492rcd13ifvqdvg","pricing_plan_id":"cebpf4jnsgd1na2vs0mg"},{"bike_id":"8166c4b5-8a23-4644-93c9-5c7137a7e89f","system_id":"levelo_inurba_marseille","lat":43.30366,"lon":5.41879,"is_reserved":false,"is_disabled":false,"rental_uris":{"android":"levelo://app?vid=8166c4b5-8a23-4644-93c9-5c7137a7e89f","ios":"levelo://app?vid=8166c4b5-8a23-4644-93c9-5c7137a7e89f"},"vehicle_type_id":"4","last_reported":1734574642,"current_range_meters":39200,"station_id":"ce4bhop2rcd13ifvqh7g","pricing_plan_id":"cebpf4jnsgd1na2vs0mg"},{"bike_id":"ce5df149-3064-48f7-87cc-2a61b10ecf4e","system_id":"levelo_inurba_marseille","lat":43.23951,"lon":5.36661,"is_reserved":false,"is_disabled":false,"rental_uris":{"android":"levelo://app?vid=ce5df149-3064-48f7-87cc-2a61b10ecf4e","ios":"levelo://app?vid=ce5df149-3064-48f7-87cc-2a61b10ecf4e"},"vehicle_type_id":"4","last_reported":1734574642,"current_range_meters":38800,"station_id":"ce4bhi12rcd13ifvqfp0","pricing_plan_id":"cebpf4jnsgd1na2vs0mg"},{"bike_id":"3e1d0fc6-d668-4df4-9650-63e151d1989a","system_id":"levelo_inurba_marseille","lat":43.33615,"lon":5.41004,"is_reserved":false,"is_disabled":false,"rental_uris":{"android":"levelo://app?vid=3e1d0fc6-d668-4df4-9650-63e151d1989a","ios":"levelo://app?vid=3e1d0fc6-d668-4df4-9650-63e151d1989a"},"vehicle_type_id":"4","last_reported":1734574642,"current_range_meters":23200,"station_id":"ce4bhqh2rcd13ifvqhmg","pricing_plan_id":"cebpf4jnsgd1na2vs0mg"},{"bike_id":"782bcbf2-b7de-4b04-bebc-aaa0329dd90c","system_id":"levelo_inurba_marseille","lat":43.23189,"lon":5.35546,"is_reserved":false,"is_disabled":false,"rental_uris":{"android":"levelo://app?vid=782bcbf2-b7de-4b04-bebc-aaa0329dd90c","ios":"levelo://app?vid=782bcbf2-b7de-4b04-bebc-aaa0329dd90c"},"vehicle_type_id":"4","last_reported":1734574642,"current_range_meters":39200,"station_id":"ce4bhu92rcd13ifvqi70","pricing_plan_id":"cebpf4jnsgd1na2vs0mg"},{"bike_id":"79a3422c-3b77-49e9-a0df-47cae2a491a1","system_id":"levelo_inurba_marseille","lat":43.29254,"lon":5.409,"is_reserved":false,"is_disabled":false,"rental_uris":{"android":"levelo://app?vid=79a3422c-3b77-49e9-a0df-47cae2a491a1","ios":"levelo://app?vid=79a3422c-3b77-49e9-a0df-47cae2a491a1"},"vehicle_type_id":"4","last_reported":1734574642,"current_range_meters":27600,"station_id":"ce4bh192rcd13ifvqdc0","pricing_plan_id":"cebpf4jnsgd1na2vs0mg"},{"bike_id":"5fa909d7-7637-4147-a543-8849a3e9c7b9","system_id":"levelo_inurba_marseille","lat":43.31169,"lon":5.38697,"is_reserved":false,"is_disabled":false,"rental_uris":{"android":"levelo://app?vid=5fa909d7-7637-4147-a543-8849a3e9c7b9","ios":"levelo://app?vid=5fa909d7-7637-4147-a543-8849a3e9c7b9"},"vehicle_type_id":"4","last_reported":1734574642,"current_range_meters":38800,"station_id":"ce4bgv12rcd13ifvqcp0","pricing_plan_id":"cebpf4jnsgd1na2vs0mg"},{"bike_id":"96ff88dc-8cf7-4b0f-a345-fa00220da932","system_id":"levelo_inurba_marseille","lat":43.27415,"lon":5.42411,"is_reserved":false,"is_disabled":true,"rental_uris":{"android":"levelo://app?vid=96ff88dc-8cf7-4b0f-a345-fa00220da932","ios":"levelo://app?vid=96ff88dc-8cf7-4b0f-a345-fa00220da932"},"vehicle_type_id":"4","last_reported":1734574642,"current_range_meters":0,"station_id":"","pricing_plan_id":"cebpf4jnsgd1na2vs0mg"},{"bike_id":"d033e481-cf2c-436a-88d8-e136b48caeda","system_id":"levelo_inurba_marseille","lat":43.24421,"lon":5.37085,"is_reserved":false,"is_disabled":false,"rental_uris":{"android":"levelo://app?vid=d033e481-cf2c-436a-88d8-e136b48caeda","ios":"levelo://app?vid=d033e481-cf2c-436a-88d8-e136b48caeda"},"vehicle_type_id":"4","last_reported":1734574642,"current_range_meters":16800,"station_id":"ce4bhhh2rcd13ifvqfk0","pricing_plan_id":"cebpf4jnsgd1na2vs0mg"},{"bike_id":"1a26fb11-c2d2-4400-80b2-dd888d1469e7","system_id":"levelo_inurba_marseille","lat":43.28106,"lon":5.37857,"is_reserved":false,"is_disabled":false,"rental_uris":{"android":"levelo://app?vid=1a26fb11-c2d2-4400-80b2-dd888d1469e7","ios":"levelo://app?vid=1a26fb11-c2d2-4400-80b2-dd888d1469e7"},"vehicle_type_id":"4","last_reported":1734574642,"current_range_meters":10800,"station_id":"ce4bha12rcd13ifvqee0","pricing_plan_id":"cebpf4jnsgd1na2vs0mg"},{"bike_id":"8751067f-dc1a-4482-8f90-1ea6c5c78790","system_id":"levelo_inurba_marseille","lat":43.30872,"lon":5.39649,"is_reserved":false,"is_disabled":false,"rental_uris":{"android":"levelo://app?vid=8751067f-dc1a-4482-8f90-1ea6c5c78790","ios":"levelo://app?vid=8751067f-dc1a-4482-8f90-1ea6c5c78790"},"vehicle_type_id":"4","last_reported":1734574642,"current_range_meters":33200,"station_id":"ce4bh012rcd13ifvqcv0","pricing_plan_id":"cebpf4jnsgd1na2vs0mg"},{"bike_id":"ed6eafff-d07e-45ed-ad6a-7b2f7765189b","system_id":"levelo_inurba_marseille","lat":43.28439,"lon":5.39195,"is_reserved":false,"is_disabled":false,"rental_uris":{"android":"levelo://app?vid=ed6eafff-d07e-45ed-ad6a-7b2f7765189b","ios":"levelo://app?vid=ed6eafff-d07e-45ed-ad6a-7b2f7765189b"},"vehicle_type_id":"4","last_reported":1734574642,"current_range_meters":38800,"station_id":"ce4bhoh2rcd13ifvqh5g","pricing_plan_id":"cebpf4jnsgd1na2vs0mg"},{"bike_id":"d8f444b6-976e-48fe-8536-ca4151c3cac0","system_id":"levelo_inurba_marseille","lat":43.30795,"lon":5.38156,"is_reserved":false,"is_disabled":false,"rental_uris":{"android":"levelo://app?vid=d8f444b6-976e-48fe-8536-ca4151c3cac0","ios":"levelo://app?vid=d8f444b6-976e-48fe-8536-ca4151c3cac0"},"vehicle_type_id":"4","last_reported":1734574642,"current_range_meters":35600,"station_id":"ce4bgt12rcd13ifvqce0","pricing_plan_id":"cebpf4jnsgd1na2vs0mg"},{"bike_id":"8d22bae6-db5b-4219-9bf6-3f87beca267e","system_id":"levelo_inurba_marseille","lat":43.293753,"lon":5.378478,"is_reserved":false,"is_disabled":true,"rental_uris":{"android":"levelo://app?vid=8d22bae6-db5b-4219-9bf6-3f87beca267e","ios":"levelo://app?vid=8d22bae6-db5b-4219-9bf6-3f87beca267e"},"vehicle_type_id":"4","last_reported":1734574642,"current_range_meters":38000,"station_id":"ce4bgjh2rcd13ifvqbf0","pricing_plan_id":"cebpf4jnsgd1na2vs0mg"},{"bike_id":"7724f48c-b921-4b38-8258-a12be5d8bff5","system_id":"levelo_inurba_marseille","lat":43.28571,"lon":5.39492,"is_reserved":false,"is_disabled":false,"rental_uris":{"android":"levelo://app?vid=7724f48c-b921-4b38-8258-a12be5d8bff5","ios":"levelo://app?vid=7724f48c-b921-4b38-8258-a12be5d8bff5"},"vehicle_type_id":"4","last_reported":1734574642,"current_range_meters":24400,"station_id":"ce4bh292rcd13ifvqdg0","pricing_plan_id":"cebpf4jnsgd1na2vs0mg"},{"bike_id":"37bd84cb-d9a8-4c4a-aff9-de84f44b516a","system_id":"levelo_inurba_marseille","lat":43.28722,"lon":5.36076,"is_reserved":false,"is_disabled":false,"rental_uris":{"android":"levelo://app?vid=37bd84cb-d9a8-4c4a-aff9-de84f44b516a","ios":"levelo://app?vid=37bd84cb-d9a8-4c4a-aff9-de84f44b516a"},"vehicle_type_id":"4","last_reported":1734574642,"current_range_meters":8400,"station_id":"cki0cbj6b192h4jlfktg","pricing_plan_id":"cebpf4jnsgd1na2vs0mg"},{"bike_id":"d4e6ee57-0d8c-453f-993d-b9d2be75347a","system_id":"levelo_inurba_marseille","lat":43.30927,"lon":5.4016,"is_reserved":false,"is_disabled":false,"rental_uris":{"android":"levelo://app?vid=d4e6ee57-0d8c-453f-993d-b9d2be75347a","ios":"levelo://app?vid=d4e6ee57-0d8c-453f-993d-b9d2be75347a"},"vehicle_type_id":"4","last_reported":1734574642,"current_range_meters":30000,"station_id":"ce4bgvp2rcd13ifvqct0","pricing_plan_id":"cebpf4jnsgd1na2vs0mg"},{"bike_id":"24eb95e4-26aa-43bc-9693-9ef8344c2f0a","system_id":"levelo_inurba_marseille","lat":43.30605,"lon":5.39339,"is_reserved":false,"is_disabled":true,"rental_uris":{"android":"levelo://app?vid=24eb95e4-26aa-43bc-9693-9ef8344c2f0a","ios":"levelo://app?vid=24eb95e4-26aa-43bc-9693-9ef8344c2f0a"},"vehicle_type_id":"4","last_reported":1734574642,"current_range_meters":8800,"station_id":"ce4bh0p2rcd13ifvqd80","pricing_plan_id":"cebpf4jnsgd1na2vs0mg"},{"bike_id":"44127e4e-8e84-4a38-89f7-8f4efb63f7a5","system_id":"levelo_inurba_marseille","lat":43.31172,"lon":5.36747,"is_reserved":false,"is_disabled":false,"rental_uris":{"android":"levelo://app?vid=44127e4e-8e84-4a38-89f7-8f4efb63f7a5","ios":"levelo://app?vid=44127e4e-8e84-4a38-89f7-8f4efb63f7a5"},"vehicle_type_id":"4","last_reported":1734574642,"current_range_meters":3600,"station_id":"","pricing_plan_id":"cebpf4jnsgd1na2vs0mg"},{"bike_id":"2228c431-6a44-4614-b8de-b37b4447afaa","system_id":"levelo_inurba_marseille","lat":43.27821,"lon":5.40693,"is_reserved":false,"is_disabled":false,"rental_uris":{"android":"levelo://app?vid=2228c431-6a44-4614-b8de-b37b4447afaa","ios":"levelo://app?vid=2228c431-6a44-4614-b8de-b37b4447afaa"},"vehicle_type_id":"4","last_reported":1734574642,"current_range_meters":37600,"station_id":"ce4bhnh2rcd13ifvqgtg","pricing_plan_id":"cebpf4jnsgd1na2vs0mg"},{"bike_id":"88510cc1-d9fe-438a-a531-0fa1e89c9e0b","system_id":"levelo_inurba_marseille","lat":43.23186,"lon":5.39982,"is_reserved":false,"is_disabled":false,"rental_uris":{"android":"levelo://app?vid=88510cc1-d9fe-438a-a531-0fa1e89c9e0b","ios":"levelo://app?vid=88510cc1-d9fe-438a-a531-0fa1e89c9e0b"},"vehicle_type_id":"4","last_reported":1734574642,"current_range_meters":38800,"station_id":"ce4bhn12rcd13ifvqgqg","pricing_plan_id":"cebpf4jnsgd1na2vs0mg"},{"bike_id":"12a8d38d-24d2-4667-bc2a-067741191910","system_id":"levelo_inurba_marseille","lat":43.30925,"lon":5.40153,"is_reserved":false,"is_disabled":false,"rental_uris":{"android":"levelo://app?vid=12a8d38d-24d2-4667-bc2a-067741191910","ios":"levelo://app?vid=12a8d38d-24d2-4667-bc2a-067741191910"},"vehicle_type_id":"4","last_reported":1734574642,"current_range_meters":37600,"station_id":"ce4bgvp2rcd13ifvqct0","pricing_plan_id":"cebpf4jnsgd1na2vs0mg"},{"bike_id":"cadc9fad-9ef2-4cb9-abaf-fba1b86e4947","system_id":"levelo_inurba_marseille","lat":43.32368,"lon":5.38912,"is_reserved":false,"is_disabled":false,"rental_uris":{"android":"levelo://app?vid=cadc9fad-9ef2-4cb9-abaf-fba1b86e4947","ios":"levelo://app?vid=cadc9fad-9ef2-4cb9-abaf-fba1b86e4947"},"vehicle_type_id":"4","last_reported":1734574642,"current_range_meters":38800,"station_id":"ce4bhqp2rcd13ifvqhog","pricing_plan_id":"cebpf4jnsgd1na2vs0mg"},{"bike_id":"6f0ce49e-ebe5-42fe-b7d1-98f07cbdb9c6","system_id":"levelo_inurba_marseille","lat":43.29934,"lon":5.38508,"is_reserved":false,"is_disabled":true,"rental_uris":{"android":"levelo://app?vid=6f0ce49e-ebe5-42fe-b7d1-98f07cbdb9c6","ios":"levelo://app?vid=6f0ce49e-ebe5-42fe-b7d1-98f07cbdb9c6"},"vehicle_type_id":"4","last_reported":1734574642,"current_range_meters":0,"station_id":"ce4bgj92rcd13ifvqbd0","pricing_plan_id":"cebpf4jnsgd1na2vs0mg"},{"bike_id":"665ec254-0800-463e-9409-4b0d0a5c681c","system_id":"levelo_inurba_marseille","lat":43.28436,"lon":5.39186,"is_reserved":false,"is_disabled":false,"rental_uris":{"android":"levelo://app?vid=665ec254-0800-463e-9409-4b0d0a5c681c","ios":"levelo://app?vid=665ec254-0800-463e-9409-4b0d0a5c681c"},"vehicle_type_id":"4","last_reported":1734574642,"current_range_meters":22800,"station_id":"ce4bhoh2rcd13ifvqh5g","pricing_plan_id":"cebpf4jnsgd1na2vs0mg"},{"bike_id":"4eca2884-c3ea-4c2c-b07d-cf86bea8c536","system_id":"levelo_inurba_marseille","lat":43.30884,"lon":5.39632,"is_reserved":false,"is_disabled":false,"rental_uris":{"android":"levelo://app?vid=4eca2884-c3ea-4c2c-b07d-cf86bea8c536","ios":"levelo://app?vid=4eca2884-c3ea-4c2c-b07d-cf86bea8c536"},"vehicle_type_id":"4","last_reported":1734574642,"current_range_meters":31200,"station_id":"ce4bh012rcd13ifvqcv0","pricing_plan_id":"cebpf4jnsgd1na2vs0mg"},{"bike_id":"7dab445a-4774-428a-be21-2676ef2ce2f1","system_id":"levelo_inurba_marseille","lat":43.29189,"lon":5.35808,"is_reserved":false,"is_disabled":false,"rental_uris":{"android":"levelo://app?vid=7dab445a-4774-428a-be21-2676ef2ce2f1","ios":"levelo://app?vid=7dab445a-4774-428a-be21-2676ef2ce2f1"},"vehicle_type_id":"4","last_reported":1734574642,"current_range_meters":36800,"station_id":"ce4bhb12rcd13ifvqel0","pricing_plan_id":"cebpf4jnsgd1na2vs0mg"},{"bike_id":"c12c2fd5-e93c-42b4-a320-1f4dd169dbbe","system_id":"levelo_inurba_marseille","lat":43.28568,"lon":5.39497,"is_reserved":false,"is_disabled":false,"rental_uris":{"android":"levelo://app?vid=c12c2fd5-e93c-42b4-a320-1f4dd169dbbe","ios":"levelo://app?vid=c12c2fd5-e93c-42b4-a320-1f4dd169dbbe"},"vehicle_type_id":"4","last_reported":1734574642,"current_range_meters":25600,"station_id":"ce4bh292rcd13ifvqdg0","pricing_plan_id":"cebpf4jnsgd1na2vs0mg"},{"bike_id":"c3127a9a-fb65-45fe-9791-ed63052e9c94","system_id":"levelo_inurba_marseille","lat":43.30881,"lon":5.39644,"is_reserved":false,"is_disabled":false,"rental_uris":{"android":"levelo://app?vid=c3127a9a-fb65-45fe-9791-ed63052e9c94","ios":"levelo://app?vid=c3127a9a-fb65-45fe-9791-ed63052e9c94"},"vehicle_type_id":"4","last_reported":1734574642,"current_range_meters":32800,"station_id":"ce4bh012rcd13ifvqcv0","pricing_plan_id":"cebpf4jnsgd1na2vs0mg"},{"bike_id":"860b12b0-5d39-41cd-a6b2-0a1f113b6cdd","system_id":"levelo_inurba_marseille","lat":43.28461,"lon":5.35885,"is_reserved":false,"is_disabled":false,"rental_uris":{"android":"levelo://app?vid=860b12b0-5d39-41cd-a6b2-0a1f113b6cdd","ios":"levelo://app?vid=860b12b0-5d39-41cd-a6b2-0a1f113b6cdd"},"vehicle_type_id":"4","last_reported":1734574642,"current_range_meters":12400,"station_id":"ce4bhah2rcd13ifvqei0","pricing_plan_id":"cebpf4jnsgd1na2vs0mg"},{"bike_id":"ba60245e-88fd-4aa5-9df5-baee3ef1d4e4","system_id":"levelo_inurba_marseille","lat":43.28709,"lon":5.37944,"is_reserved":false,"is_disabled":true,"rental_uris":{"android":"levelo://app?vid=ba60245e-88fd-4aa5-9df5-baee3ef1d4e4","ios":"levelo://app?vid=ba60245e-88fd-4aa5-9df5-baee3ef1d4e4"},"vehicle_type_id":"4","last_reported":1734574642,"current_range_meters":22400,"station_id":"ce4bh9p2rcd13ifvqec0","pricing_plan_id":"cebpf4jnsgd1na2vs0mg"},{"bike_id":"2706d02d-aaff-40a5-9926-c7426882c786","system_id":"levelo_inurba_marseille","lat":43.30803,"lon":5.43542,"is_reserved":false,"is_disabled":false,"rental_uris":{"android":"levelo://app?vid=2706d02d-aaff-40a5-9926-c7426882c786","ios":"levelo://app?vid=2706d02d-aaff-40a5-9926-c7426882c786"},"vehicle_type_id":"4","last_reported":1734574642,"current_range_meters":9200,"station_id":"ce4bhph2rcd13ifvqheg","pricing_plan_id":"cebpf4jnsgd1na2vs0mg"},{"bike_id":"3b6e506a-c500-4ef6-a1d0-ef4f6dd889b9","system_id":"levelo_inurba_marseille","lat":43.29811,"lon":5.36253,"is_reserved":false,"is_disabled":false,"rental_uris":{"android":"levelo://app?vid=3b6e506a-c500-4ef6-a1d0-ef4f6dd889b9","ios":"levelo://app?vid=3b6e506a-c500-4ef6-a1d0-ef4f6dd889b9"},"vehicle_type_id":"4","last_reported":1734574642,"current_range_meters":38000,"station_id":"ce4bgpp2rcd13ifvqc3g","pricing_plan_id":"cebpf4jnsgd1na2vs0mg"},{"bike_id":"4c8b14c1-a279-4e3d-b684-d6545dbf4d61","system_id":"levelo_inurba_marseille","lat":43.31058,"lon":5.3753,"is_reserved":false,"is_disabled":false,"rental_uris":{"android":"levelo://app?vid=4c8b14c1-a279-4e3d-b684-d6545dbf4d61","ios":"levelo://app?vid=4c8b14c1-a279-4e3d-b684-d6545dbf4d61"},"vehicle_type_id":"4","last_reported":1734574642,"current_range_meters":30000,"station_id":"","pricing_plan_id":"cebpf4jnsgd1na2vs0mg"},{"bike_id":"f2483da1-7624-4a5c-8d23-479c821bfc0e","system_id":"levelo_inurba_marseille","lat":43.2979,"lon":5.3933,"is_reserved":false,"is_disabled":false,"rental_uris":{"android":"levelo://app?vid=f2483da1-7624-4a5c-8d23-479c821bfc0e","ios":"levelo://app?vid=f2483da1-7624-4a5c-8d23-479c821bfc0e"},"vehicle_type_id":"4","last_reported":1734574642,"current_range_meters":37600,"station_id":"chh1huq6cuj3fo74tm60","pricing_plan_id":"cebpf4jnsgd1na2vs0mg"},{"bike_id":"e0c2eddf-4ba9-4754-b0b5-efd80badee74","system_id":"levelo_inurba_marseille","lat":43.2585,"lon":5.39406,"is_reserved":false,"is_disabled":true,"rental_uris":{"android":"levelo://app?vid=e0c2eddf-4ba9-4754-b0b5-efd80badee74","ios":"levelo://app?vid=e0c2eddf-4ba9-4754-b0b5-efd80badee74"},"vehicle_type_id":"4","last_reported":1734574642,"current_range_meters":0,"station_id":"ce4bhip2rcd13ifvqft0","pricing_plan_id":"cebpf4jnsgd1na2vs0mg"},{"bike_id":"eb8623e5-1e4c-464d-8c29-0872e8426e3d","system_id":"levelo_inurba_marseille","lat":43.27948,"lon":5.41041,"is_reserved":false,"is_disabled":false,"rental_uris":{"android":"levelo://app?vid=eb8623e5-1e4c-464d-8c29-0872e8426e3d","ios":"levelo://app?vid=eb8623e5-1e4c-464d-8c29-0872e8426e3d"},"vehicle_type_id":"4","last_reported":1734574642,"current_range_meters":9200,"station_id":"ce4bhnp2rcd13ifvqh0g","pricing_plan_id":"cebpf4jnsgd1na2vs0mg"},{"bike_id":"b01c270d-7693-46a1-aba1-2ee8b375b6a8","system_id":"levelo_inurba_marseille","lat":43.29256,"lon":5.40911,"is_reserved":false,"is_disabled":false,"rental_uris":{"android":"levelo://app?vid=b01c270d-7693-46a1-aba1-2ee8b375b6a8","ios":"levelo://app?vid=b01c270d-7693-46a1-aba1-2ee8b375b6a8"},"vehicle_type_id":"4","last_reported":1734574642,"current_range_meters":36800,"station_id":"ce4bh192rcd13ifvqdc0","pricing_plan_id":"cebpf4jnsgd1na2vs0mg"},{"bike_id":"b3dae75a-678f-4f1b-83eb-9bdd42a69c4a","system_id":"levelo_inurba_marseille","lat":43.29273,"lon":5.40114,"is_reserved":false,"is_disabled":false,"rental_uris":{"android":"levelo://app?vid=b3dae75a-678f-4f1b-83eb-9bdd42a69c4a","ios":"levelo://app?vid=b3dae75a-678f-4f1b-83eb-9bdd42a69c4a"},"vehicle_type_id":"4","last_reported":1734574642,"current_range_meters":35200,"station_id":"ce4bh312rcd13ifvqdk0","pricing_plan_id":"cebpf4jnsgd1na2vs0mg"},{"bike_id":"68907ca0-038a-4705-886b-af6c122ac485","system_id":"levelo_inurba_marseille","lat":43.23191,"lon":5.39974,"is_reserved":false,"is_disabled":false,"rental_uris":{"android":"levelo://app?vid=68907ca0-038a-4705-886b-af6c122ac485","ios":"levelo://app?vid=68907ca0-038a-4705-886b-af6c122ac485"},"vehicle_type_id":"4","last_reported":1734574642,"current_range_meters":38800,"station_id":"ce4bhn12rcd13ifvqgqg","pricing_plan_id":"cebpf4jnsgd1na2vs0mg"},{"bike_id":"9e523466-8b3e-4b26-a0d6-bfa12e80e7d8","system_id":"levelo_inurba_marseille","lat":43.29896,"lon":5.43657,"is_reserved":false,"is_disabled":false,"rental_uris":{"android":"levelo://app?vid=9e523466-8b3e-4b26-a0d6-bfa12e80e7d8","ios":"levelo://app?vid=9e523466-8b3e-4b26-a0d6-bfa12e80e7d8"},"vehicle_type_id":"4","last_reported":1734574642,"current_range_meters":38400,"station_id":"ce4bhpp2rcd13ifvqhfg","pricing_plan_id":"cebpf4jnsgd1na2vs0mg"},{"bike_id":"f208fd4c-46e2-4df1-a8fe-0c92147325cb","system_id":"levelo_inurba_marseille","lat":43.27815,"lon":5.4069,"is_reserved":false,"is_disabled":false,"rental_uris":{"android":"levelo://app?vid=f208fd4c-46e2-4df1-a8fe-0c92147325cb","ios":"levelo://app?vid=f208fd4c-46e2-4df1-a8fe-0c92147325cb"},"vehicle_type_id":"4","last_reported":1734574642,"current_range_meters":15200,"station_id":"ce4bhnh2rcd13ifvqgtg","pricing_plan_id":"cebpf4jnsgd1na2vs0mg"},{"bike_id":"e372339c-8a76-45be-9658-4fe916439af1","system_id":"levelo_inurba_marseille","lat":43.308,"lon":5.37663,"is_reserved":false,"is_disabled":false,"rental_uris":{"android":"levelo://app?vid=e372339c-8a76-45be-9658-4fe916439af1","ios":"levelo://app?vid=e372339c-8a76-45be-9658-4fe916439af1"},"vehicle_type_id":"4","last_reported":1734574642,"current_range_meters":24400,"station_id":"ce4bgv92rcd13ifvqcq0","pricing_plan_id":"cebpf4jnsgd1na2vs0mg"},{"bike_id":"c8bece24-3386-47ca-955f-bedef14b9929","system_id":"levelo_inurba_marseille","lat":43.28335,"lon":5.38625,"is_reserved":false,"is_disabled":false,"rental_uris":{"android":"levelo://app?vid=c8bece24-3386-47ca-955f-bedef14b9929","ios":"levelo://app?vid=c8bece24-3386-47ca-955f-bedef14b9929"},"vehicle_type_id":"4","last_reported":1734574642,"current_range_meters":35200,"station_id":"ce4bh492rcd13ifvqdvg","pricing_plan_id":"cebpf4jnsgd1na2vs0mg"},{"bike_id":"fd68af53-79d2-4067-98e4-8d7c483b7ad5","system_id":"levelo_inurba_marseille","lat":43.2869,"lon":5.3866,"is_reserved":false,"is_disabled":false,"rental_uris":{"android":"levelo://app?vid=fd68af53-79d2-4067-98e4-8d7c483b7ad5","ios":"levelo://app?vid=fd68af53-79d2-4067-98e4-8d7c483b7ad5"},"vehicle_type_id":"4","last_reported":1734574642,"current_range_meters":38400,"station_id":"ce4bh492rcd13ifvqdug","pricing_plan_id":"cebpf4jnsgd1na2vs0mg"},{"bike_id":"6b29c3c8-c5f7-4d9f-983d-9de605a72e95","system_id":"levelo_inurba_marseille","lat":43.28457,"lon":5.35894,"is_reserved":false,"is_disabled":false,"rental_uris":{"android":"levelo://app?vid=6b29c3c8-c5f7-4d9f-983d-9de605a72e95","ios":"levelo://app?vid=6b29c3c8-c5f7-4d9f-983d-9de605a72e95"},"vehicle_type_id":"4","last_reported":1734574642,"current_range_meters":20400,"station_id":"ce4bhah2rcd13ifvqei0","pricing_plan_id":"cebpf4jnsgd1na2vs0mg"},{"bike_id":"61e6d331-4c07-46de-b56b-700173a7d833","system_id":"levelo_inurba_marseille","lat":43.28665,"lon":5.36345,"is_reserved":false,"is_disabled":false,"rental_uris":{"android":"levelo://app?vid=61e6d331-4c07-46de-b56b-700173a7d833","ios":"levelo://app?vid=61e6d331-4c07-46de-b56b-700173a7d833"},"vehicle_type_id":"4","last_reported":1734574642,"current_range_meters":36800,"station_id":"ce4bhah2rcd13ifvqej0","pricing_plan_id":"cebpf4jnsgd1na2vs0mg"},{"bike_id":"bb337245-7c41-4671-900b-a4d92ae562c6","system_id":"levelo_inurba_marseille","lat":43.29525,"lon":5.39032,"is_reserved":false,"is_disabled":true,"rental_uris":{"android":"levelo://app?vid=bb337245-7c41-4671-900b-a4d92ae562c6","ios":"levelo://app?vid=bb337245-7c41-4671-900b-a4d92ae562c6"},"vehicle_type_id":"4","last_reported":1734574642,"current_range_meters":0,"station_id":"ce4bh3p2rcd13ifvqdp0","pricing_plan_id":"cebpf4jnsgd1na2vs0mg"},{"bike_id":"3fe3845a-b621-42e2-ae71-36dbb728bc86","system_id":"levelo_inurba_marseille","lat":43.31119,"lon":5.37754,"is_reserved":false,"is_disabled":false,"rental_uris":{"android":"levelo://app?vid=3fe3845a-b621-42e2-ae71-36dbb728bc86","ios":"levelo://app?vid=3fe3845a-b621-42e2-ae71-36dbb728bc86"},"vehicle_type_id":"4","last_reported":1734574642,"current_range_meters":28400,"station_id":"ce4bgt92rcd13ifvqcg0","pricing_plan_id":"cebpf4jnsgd1na2vs0mg"},{"bike_id":"ed00d771-b4d9-423b-8bab-4c9862534f67","system_id":"levelo_inurba_marseille","lat":43.30883,"lon":5.37194,"is_reserved":false,"is_disabled":false,"rental_uris":{"android":"levelo://app?vid=ed00d771-b4d9-423b-8bab-4c9862534f67","ios":"levelo://app?vid=ed00d771-b4d9-423b-8bab-4c9862534f67"},"vehicle_type_id":"4","last_reported":1734574642,"current_range_meters":10000,"station_id":"ce4bguh2rcd13ifvqckg","pricing_plan_id":"cebpf4jnsgd1na2vs0mg"},{"bike_id":"f182025d-4a5e-4abe-af1d-9a7f25663078","system_id":"levelo_inurba_marseille","lat":43.33613,"lon":5.41008,"is_reserved":false,"is_disabled":false,"rental_uris":{"android":"levelo://app?vid=f182025d-4a5e-4abe-af1d-9a7f25663078","ios":"levelo://app?vid=f182025d-4a5e-4abe-af1d-9a7f25663078"},"vehicle_type_id":"4","last_reported":1734574642,"current_range_meters":30400,"station_id":"ce4bhqh2rcd13ifvqhmg","pricing_plan_id":"cebpf4jnsgd1na2vs0mg"},{"bike_id":"8fb8d1a4-2bd8-4d43-bec9-f7bb0c4b228c","system_id":"levelo_inurba_marseille","lat":43.27991,"lon":5.41667,"is_reserved":false,"is_disabled":false,"rental_uris":{"android":"levelo://app?vid=8fb8d1a4-2bd8-4d43-bec9-f7bb0c4b228c","ios":"levelo://app?vid=8fb8d1a4-2bd8-4d43-bec9-f7bb0c4b228c"},"vehicle_type_id":"4","last_reported":1734574642,"current_range_meters":9600,"station_id":"ce4bho12rcd13ifvqh1g","pricing_plan_id":"cebpf4jnsgd1na2vs0mg"},{"bike_id":"a7308225-8057-4a50-a58b-9a9bfef23663","system_id":"levelo_inurba_marseille","lat":43.30878,"lon":5.39638,"is_reserved":false,"is_disabled":false,"rental_uris":{"android":"levelo://app?vid=a7308225-8057-4a50-a58b-9a9bfef23663","ios":"levelo://app?vid=a7308225-8057-4a50-a58b-9a9bfef23663"},"vehicle_type_id":"4","last_reported":1734574642,"current_range_meters":28800,"station_id":"ce4bh012rcd13ifvqcv0","pricing_plan_id":"cebpf4jnsgd1na2vs0mg"},{"bike_id":"3758a970-d342-4d78-bf1c-44df4dac15b3","system_id":"levelo_inurba_marseille","lat":43.29937,"lon":5.36527,"is_reserved":false,"is_disabled":false,"rental_uris":{"android":"levelo://app?vid=3758a970-d342-4d78-bf1c-44df4dac15b3","ios":"levelo://app?vid=3758a970-d342-4d78-bf1c-44df4dac15b3"},"vehicle_type_id":"4","last_reported":1734574642,"current_range_meters":32400,"station_id":"ce4bgm92rcd13ifvqbr0","pricing_plan_id":"cebpf4jnsgd1na2vs0mg"},{"bike_id":"346b15b6-c328-4626-b5e9-41e8c75c3f77","system_id":"levelo_inurba_marseille","lat":43.28619,"lon":5.35104,"is_reserved":false,"is_disabled":false,"rental_uris":{"android":"levelo://app?vid=346b15b6-c328-4626-b5e9-41e8c75c3f77","ios":"levelo://app?vid=346b15b6-c328-4626-b5e9-41e8c75c3f77"},"vehicle_type_id":"4","last_reported":1734574642,"current_range_meters":9200,"station_id":"ce4bhch2rcd13ifvqeug","pricing_plan_id":"cebpf4jnsgd1na2vs0mg"},{"bike_id":"3bc7e65e-db25-43f1-84f9-8bb379b5bba6","system_id":"levelo_inurba_marseille","lat":43.28935,"lon":5.36628,"is_reserved":false,"is_disabled":true,"rental_uris":{"android":"levelo://app?vid=3bc7e65e-db25-43f1-84f9-8bb379b5bba6","ios":"levelo://app?vid=3bc7e65e-db25-43f1-84f9-8bb379b5bba6"},"vehicle_type_id":"4","last_reported":1734574642,"current_range_meters":38800,"station_id":"ce4bhap2rcd13ifvqek0","pricing_plan_id":"cebpf4jnsgd1na2vs0mg"},{"bike_id":"704e6abe-f5d6-4063-b80b-bc51f5a6e383","system_id":"levelo_inurba_marseille","lat":43.28978,"lon":5.37836,"is_reserved":false,"is_disabled":true,"rental_uris":{"android":"levelo://app?vid=704e6abe-f5d6-4063-b80b-bc51f5a6e383","ios":"levelo://app?vid=704e6abe-f5d6-4063-b80b-bc51f5a6e383"},"vehicle_type_id":"4","last_reported":1734574642,"current_range_meters":37600,"station_id":"ce4bh9p2rcd13ifvqed0","pricing_plan_id":"cebpf4jnsgd1na2vs0mg"},{"bike_id":"3bec605b-2ea4-40c6-8567-2dcb62a17266","system_id":"levelo_inurba_marseille","lat":43.2927,"lon":5.36846,"is_reserved":false,"is_disabled":true,"rental_uris":{"android":"levelo://app?vid=3bec605b-2ea4-40c6-8567-2dcb62a17266","ios":"levelo://app?vid=3bec605b-2ea4-40c6-8567-2dcb62a17266"},"vehicle_type_id":"4","last_reported":1734574642,"current_range_meters":32800,"station_id":"ce4bhbp2rcd13ifvqesg","pricing_plan_id":"cebpf4jnsgd1na2vs0mg"},{"bike_id":"3d57051a-d4b8-4b78-8650-e94604f54095","system_id":"levelo_inurba_marseille","lat":43.284349,"lon":5.391793,"is_reserved":false,"is_disabled":false,"rental_uris":{"android":"levelo://app?vid=3d57051a-d4b8-4b78-8650-e94604f54095","ios":"levelo://app?vid=3d57051a-d4b8-4b78-8650-e94604f54095"},"vehicle_type_id":"4","last_reported":1734574642,"current_range_meters":38800,"station_id":"ce4bhoh2rcd13ifvqh5g","pricing_plan_id":"cebpf4jnsgd1na2vs0mg"},{"bike_id":"17b2d2b0-9855-46b4-a478-0bd9c7277056","system_id":"levelo_inurba_marseille","lat":43.30906,"lon":5.37834,"is_reserved":false,"is_disabled":true,"rental_uris":{"android":"levelo://app?vid=17b2d2b0-9855-46b4-a478-0bd9c7277056","ios":"levelo://app?vid=17b2d2b0-9855-46b4-a478-0bd9c7277056"},"vehicle_type_id":"4","last_reported":1734574642,"current_range_meters":0,"station_id":"","pricing_plan_id":"cebpf4jnsgd1na2vs0mg"},{"bike_id":"231fe9c6-38f2-4f95-9cde-ed43c8ff9263","system_id":"levelo_inurba_marseille","lat":43.2847,"lon":5.35887,"is_reserved":false,"is_disabled":false,"rental_uris":{"android":"levelo://app?vid=231fe9c6-38f2-4f95-9cde-ed43c8ff9263","ios":"levelo://app?vid=231fe9c6-38f2-4f95-9cde-ed43c8ff9263"},"vehicle_type_id":"4","last_reported":1734574642,"current_range_meters":16000,"station_id":"ce4bhah2rcd13ifvqei0","pricing_plan_id":"cebpf4jnsgd1na2vs0mg"},{"bike_id":"a72b05a0-553d-4606-89ed-559596aa6693","system_id":"levelo_inurba_marseille","lat":43.31484,"lon":5.37308,"is_reserved":false,"is_disabled":false,"rental_uris":{"android":"levelo://app?vid=a72b05a0-553d-4606-89ed-559596aa6693","ios":"levelo://app?vid=a72b05a0-553d-4606-89ed-559596aa6693"},"vehicle_type_id":"4","last_reported":1734574642,"current_range_meters":9600,"station_id":"ce4bgt12rcd13ifvqcd0","pricing_plan_id":"cebpf4jnsgd1na2vs0mg"},{"bike_id":"a762c04b-37ca-4bfb-884a-e4dc66cc2207","system_id":"levelo_inurba_marseille","lat":43.28827,"lon":5.35865,"is_reserved":false,"is_disabled":false,"rental_uris":{"android":"levelo://app?vid=a762c04b-37ca-4bfb-884a-e4dc66cc2207","ios":"levelo://app?vid=a762c04b-37ca-4bfb-884a-e4dc66cc2207"},"vehicle_type_id":"4","last_reported":1734574642,"current_range_meters":37600,"station_id":"ce4bhb12rcd13ifvqem0","pricing_plan_id":"cebpf4jnsgd1na2vs0mg"},{"bike_id":"9f97f512-1b19-443a-b67f-86de027e5577","system_id":"levelo_inurba_marseille","lat":43.34549,"lon":5.37605,"is_reserved":false,"is_disabled":false,"rental_uris":{"android":"levelo://app?vid=9f97f512-1b19-443a-b67f-86de027e5577","ios":"levelo://app?vid=9f97f512-1b19-443a-b67f-86de027e5577"},"vehicle_type_id":"4","last_reported":1734574642,"current_range_meters":24800,"station_id":"","pricing_plan_id":"cebpf4jnsgd1na2vs0mg"},{"bike_id":"590947b3-055a-44f9-be2a-846212eec52a","system_id":"levelo_inurba_marseille","lat":43.27616,"lon":5.36114,"is_reserved":false,"is_disabled":false,"rental_uris":{"android":"levelo://app?vid=590947b3-055a-44f9-be2a-846212eec52a","ios":"levelo://app?vid=590947b3-055a-44f9-be2a-846212eec52a"},"vehicle_type_id":"4","last_reported":1734574642,"current_range_meters":39200,"station_id":"ce4bgj92rcd13ifvqbe0","pricing_plan_id":"cebpf4jnsgd1na2vs0mg"},{"bike_id":"627a2eef-d824-470e-acf9-d4da89ab5c56","system_id":"levelo_inurba_marseille","lat":43.31757,"lon":5.38989,"is_reserved":false,"is_disabled":false,"rental_uris":{"android":"levelo://app?vid=627a2eef-d824-470e-acf9-d4da89ab5c56","ios":"levelo://app?vid=627a2eef-d824-470e-acf9-d4da89ab5c56"},"vehicle_type_id":"4","last_reported":1734574642,"current_range_meters":35200,"station_id":"ce4bhqp2rcd13ifvqhng","pricing_plan_id":"cebpf4jnsgd1na2vs0mg"},{"bike_id":"b5c48c17-c683-48e3-826e-cd03d1f9b50e","system_id":"levelo_inurba_marseille","lat":43.2572,"lon":5.4111,"is_reserved":false,"is_disabled":false,"rental_uris":{"android":"levelo://app?vid=b5c48c17-c683-48e3-826e-cd03d1f9b50e","ios":"levelo://app?vid=b5c48c17-c683-48e3-826e-cd03d1f9b50e"},"vehicle_type_id":"4","last_reported":1734574642,"current_range_meters":38800,"station_id":"ce4bhkp2rcd13ifvqgd0","pricing_plan_id":"cebpf4jnsgd1na2vs0mg"},{"bike_id":"03e6636d-b067-47bc-a043-131bfdda918e","system_id":"levelo_inurba_marseille","lat":43.30421,"lon":5.39765,"is_reserved":false,"is_disabled":false,"rental_uris":{"android":"levelo://app?vid=03e6636d-b067-47bc-a043-131bfdda918e","ios":"levelo://app?vid=03e6636d-b067-47bc-a043-131bfdda918e"},"vehicle_type_id":"4","last_reported":1734574642,"current_range_meters":28000,"station_id":"ce4bh092rcd13ifvqd20","pricing_plan_id":"cebpf4jnsgd1na2vs0mg"},{"bike_id":"dd983f0d-e62b-4e34-8e6e-45d4d37aa766","system_id":"levelo_inurba_marseille","lat":43.31071,"lon":5.38363,"is_reserved":false,"is_disabled":false,"rental_uris":{"android":"levelo://app?vid=dd983f0d-e62b-4e34-8e6e-45d4d37aa766","ios":"levelo://app?vid=dd983f0d-e62b-4e34-8e6e-45d4d37aa766"},"vehicle_type_id":"4","last_reported":1734574642,"current_range_meters":9200,"station_id":"ce4bgv92rcd13ifvqcr0","pricing_plan_id":"cebpf4jnsgd1na2vs0mg"},{"bike_id":"e4cdc089-d435-4ce6-b092-f0e8f8c470ef","system_id":"levelo_inurba_marseille","lat":43.28412,"lon":5.37513,"is_reserved":false,"is_disabled":false,"rental_uris":{"android":"levelo://app?vid=e4cdc089-d435-4ce6-b092-f0e8f8c470ef","ios":"levelo://app?vid=e4cdc089-d435-4ce6-b092-f0e8f8c470ef"},"vehicle_type_id":"4","last_reported":1734574642,"current_range_meters":23200,"station_id":"ce4bh412rcd13ifvqds0","pricing_plan_id":"cebpf4jnsgd1na2vs0mg"},{"bike_id":"6d90c9d4-0b5c-43bf-b682-e7561e654b2c","system_id":"levelo_inurba_marseille","lat":43.29513,"lon":5.39406,"is_reserved":false,"is_disabled":true,"rental_uris":{"android":"levelo://app?vid=6d90c9d4-0b5c-43bf-b682-e7561e654b2c","ios":"levelo://app?vid=6d90c9d4-0b5c-43bf-b682-e7561e654b2c"},"vehicle_type_id":"4","last_reported":1734574642,"current_range_meters":5600,"station_id":"ce4bh292rcd13ifvqdf0","pricing_plan_id":"cebpf4jnsgd1na2vs0mg"},{"bike_id":"da708de4-c602-4244-8495-8ce716405c97","system_id":"levelo_inurba_marseille","lat":43.324456,"lon":5.406605,"is_reserved":false,"is_disabled":true,"rental_uris":{"android":"levelo://app?vid=da708de4-c602-4244-8495-8ce716405c97","ios":"levelo://app?vid=da708de4-c602-4244-8495-8ce716405c97"},"vehicle_type_id":"4","last_reported":1734574642,"current_range_meters":0,"station_id":"ce4bhq92rcd13ifvqhjg","pricing_plan_id":"cebpf4jnsgd1na2vs0mg"},{"bike_id":"90f790b2-c193-4955-b433-15849edf60f8","system_id":"levelo_inurba_marseille","lat":43.25828,"lon":5.39437,"is_reserved":false,"is_disabled":false,"rental_uris":{"android":"levelo://app?vid=90f790b2-c193-4955-b433-15849edf60f8","ios":"levelo://app?vid=90f790b2-c193-4955-b433-15849edf60f8"},"vehicle_type_id":"4","last_reported":1734574642,"current_range_meters":38800,"station_id":"ce4bhip2rcd13ifvqft0","pricing_plan_id":"cebpf4jnsgd1na2vs0mg"},{"bike_id":"a60dbfbd-f05a-493c-84fe-7172aa652d21","system_id":"levelo_inurba_marseille","lat":43.29039,"lon":5.39949,"is_reserved":false,"is_disabled":false,"rental_uris":{"android":"levelo://app?vid=a60dbfbd-f05a-493c-84fe-7172aa652d21","ios":"levelo://app?vid=a60dbfbd-f05a-493c-84fe-7172aa652d21"},"vehicle_type_id":"4","last_reported":1734574642,"current_range_meters":38000,"station_id":"ce4bh392rcd13ifvqdm0","pricing_plan_id":"cebpf4jnsgd1na2vs0mg"},{"bike_id":"63ac9ec0-94d0-4b1e-8838-1ee7b4295fda","system_id":"levelo_inurba_marseille","lat":43.32102,"lon":5.36766,"is_reserved":false,"is_disabled":false,"rental_uris":{"android":"levelo://app?vid=63ac9ec0-94d0-4b1e-8838-1ee7b4295fda","ios":"levelo://app?vid=63ac9ec0-94d0-4b1e-8838-1ee7b4295fda"},"vehicle_type_id":"4","last_reported":1734574642,"current_range_meters":37600,"station_id":"ce4bhrh2rcd13ifvqhug","pricing_plan_id":"cebpf4jnsgd1na2vs0mg"},{"bike_id":"4282c519-1a62-4503-8250-9a8fe4f41c6c","system_id":"levelo_inurba_marseille","lat":43.28088,"lon":5.3784,"is_reserved":false,"is_disabled":false,"rental_uris":{"android":"levelo://app?vid=4282c519-1a62-4503-8250-9a8fe4f41c6c","ios":"levelo://app?vid=4282c519-1a62-4503-8250-9a8fe4f41c6c"},"vehicle_type_id":"4","last_reported":1734574642,"current_range_meters":32400,"station_id":"ce4bha12rcd13ifvqee0","pricing_plan_id":"cebpf4jnsgd1na2vs0mg"},{"bike_id":"7a61abc6-fa6e-4336-a6de-fb592ae1969d","system_id":"levelo_inurba_marseille","lat":43.26681,"lon":5.38262,"is_reserved":false,"is_disabled":false,"rental_uris":{"android":"levelo://app?vid=7a61abc6-fa6e-4336-a6de-fb592ae1969d","ios":"levelo://app?vid=7a61abc6-fa6e-4336-a6de-fb592ae1969d"},"vehicle_type_id":"4","last_reported":1734574642,"current_range_meters":38800,"station_id":"ce4bhg92rcd13ifvqf90","pricing_plan_id":"cebpf4jnsgd1na2vs0mg"},{"bike_id":"8a816599-72c6-468e-8303-859f735b9523","system_id":"levelo_inurba_marseille","lat":43.28652,"lon":5.36343,"is_reserved":false,"is_disabled":false,"rental_uris":{"android":"levelo://app?vid=8a816599-72c6-468e-8303-859f735b9523","ios":"levelo://app?vid=8a816599-72c6-468e-8303-859f735b9523"},"vehicle_type_id":"4","last_reported":1734574642,"current_range_meters":38800,"station_id":"ce4bhah2rcd13ifvqej0","pricing_plan_id":"cebpf4jnsgd1na2vs0mg"},{"bike_id":"ca667192-6c2c-4493-9a45-c2eb06193b12","system_id":"levelo_inurba_marseille","lat":43.2656,"lon":5.39024,"is_reserved":false,"is_disabled":false,"rental_uris":{"android":"levelo://app?vid=ca667192-6c2c-4493-9a45-c2eb06193b12","ios":"levelo://app?vid=ca667192-6c2c-4493-9a45-c2eb06193b12"},"vehicle_type_id":"4","last_reported":1734574642,"current_range_meters":9200,"station_id":"ce4bhe12rcd13ifvqf30","pricing_plan_id":"cebpf4jnsgd1na2vs0mg"},{"bike_id":"e49249f7-67ae-4467-9089-d0be452ea2b0","system_id":"levelo_inurba_marseille","lat":43.27192,"lon":5.40994,"is_reserved":false,"is_disabled":false,"rental_uris":{"android":"levelo://app?vid=e49249f7-67ae-4467-9089-d0be452ea2b0","ios":"levelo://app?vid=e49249f7-67ae-4467-9089-d0be452ea2b0"},"vehicle_type_id":"4","last_reported":1734574642,"current_range_meters":37600,"station_id":"ce4bhl12rcd13ifvqgf0","pricing_plan_id":"cebpf4jnsgd1na2vs0mg"},{"bike_id":"375c964c-ed28-419a-9b34-a747a7df7726","system_id":"levelo_inurba_marseille","lat":43.30206,"lon":5.39468,"is_reserved":false,"is_disabled":true,"rental_uris":{"android":"levelo://app?vid=375c964c-ed28-419a-9b34-a747a7df7726","ios":"levelo://app?vid=375c964c-ed28-419a-9b34-a747a7df7726"},"vehicle_type_id":"4","last_reported":1734574642,"current_range_meters":38800,"station_id":"ce4bh0p2rcd13ifvqd70","pricing_plan_id":"cebpf4jnsgd1na2vs0mg"},{"bike_id":"fe344bf3-06ce-4462-bbb7-01fc94de59cd","system_id":"levelo_inurba_marseille","lat":43.27191,"lon":5.40993,"is_reserved":false,"is_disabled":false,"rental_uris":{"android":"levelo://app?vid=fe344bf3-06ce-4462-bbb7-01fc94de59cd","ios":"levelo://app?vid=fe344bf3-06ce-4462-bbb7-01fc94de59cd"},"vehicle_type_id":"4","last_reported":1734574642,"current_range_meters":38400,"station_id":"ce4bhl12rcd13ifvqgf0","pricing_plan_id":"cebpf4jnsgd1na2vs0mg"},{"bike_id":"6edc373a-d8e2-4365-b310-1a599a3702ca","system_id":"levelo_inurba_marseille","lat":43.30212,"lon":5.395,"is_reserved":false,"is_disabled":false,"rental_uris":{"android":"levelo://app?vid=6edc373a-d8e2-4365-b310-1a599a3702ca","ios":"levelo://app?vid=6edc373a-d8e2-4365-b310-1a599a3702ca"},"vehicle_type_id":"4","last_reported":1734574642,"current_range_meters":31200,"station_id":"ce4bh0p2rcd13ifvqd70","pricing_plan_id":"cebpf4jnsgd1na2vs0mg"},{"bike_id":"7e876e85-730f-4bb1-8e78-bc65c4d6fe75","system_id":"levelo_inurba_marseille","lat":43.29041,"lon":5.35891,"is_reserved":false,"is_disabled":false,"rental_uris":{"android":"levelo://app?vid=7e876e85-730f-4bb1-8e78-bc65c4d6fe75","ios":"levelo://app?vid=7e876e85-730f-4bb1-8e78-bc65c4d6fe75"},"vehicle_type_id":"4","last_reported":1734574642,"current_range_meters":24000,"station_id":"ce4bha92rcd13ifvqeg0","pricing_plan_id":"cebpf4jnsgd1na2vs0mg"},{"bike_id":"6f5955f2-f150-4390-9828-ed9fb50a410b","system_id":"levelo_inurba_marseille","lat":43.29554,"lon":5.423,"is_reserved":false,"is_disabled":false,"rental_uris":{"android":"levelo://app?vid=6f5955f2-f150-4390-9828-ed9fb50a410b","ios":"levelo://app?vid=6f5955f2-f150-4390-9828-ed9fb50a410b"},"vehicle_type_id":"4","last_reported":1734574642,"current_range_meters":22000,"station_id":"ce4bhph2rcd13ifvqhdg","pricing_plan_id":"cebpf4jnsgd1na2vs0mg"},{"bike_id":"864d13ee-0d63-4246-a4a0-6eb2be236549","system_id":"levelo_inurba_marseille","lat":43.31165,"lon":5.38706,"is_reserved":false,"is_disabled":false,"rental_uris":{"android":"levelo://app?vid=864d13ee-0d63-4246-a4a0-6eb2be236549","ios":"levelo://app?vid=864d13ee-0d63-4246-a4a0-6eb2be236549"},"vehicle_type_id":"4","last_reported":1734574642,"current_range_meters":21600,"station_id":"ce4bgv12rcd13ifvqcp0","pricing_plan_id":"cebpf4jnsgd1na2vs0mg"},{"bike_id":"0b3ddc2e-3989-4de3-adc7-7cabf8f2f293","system_id":"levelo_inurba_marseille","lat":43.31184,"lon":5.38709,"is_reserved":false,"is_disabled":false,"rental_uris":{"android":"levelo://app?vid=0b3ddc2e-3989-4de3-adc7-7cabf8f2f293","ios":"levelo://app?vid=0b3ddc2e-3989-4de3-adc7-7cabf8f2f293"},"vehicle_type_id":"4","last_reported":1734574642,"current_range_meters":38000,"station_id":"ce4bgv12rcd13ifvqcp0","pricing_plan_id":"cebpf4jnsgd1na2vs0mg"},{"bike_id":"3e8c14b0-a952-4417-9640-11e6a4d5ad30","system_id":"levelo_inurba_marseille","lat":43.27998,"lon":5.40018,"is_reserved":false,"is_disabled":false,"rental_uris":{"android":"levelo://app?vid=3e8c14b0-a952-4417-9640-11e6a4d5ad30","ios":"levelo://app?vid=3e8c14b0-a952-4417-9640-11e6a4d5ad30"},"vehicle_type_id":"4","last_reported":1734574642,"current_range_meters":38800,"station_id":"ce4bho92rcd13ifvqh4g","pricing_plan_id":"cebpf4jnsgd1na2vs0mg"},{"bike_id":"0ba2cc58-146e-4791-af13-2a3524842812","system_id":"levelo_inurba_marseille","lat":43.27912,"lon":5.38028,"is_reserved":false,"is_disabled":false,"rental_uris":{"android":"levelo://app?vid=0ba2cc58-146e-4791-af13-2a3524842812","ios":"levelo://app?vid=0ba2cc58-146e-4791-af13-2a3524842812"},"vehicle_type_id":"4","last_reported":1734574642,"current_range_meters":38800,"station_id":"ce4bhf92rcd13ifvqf50","pricing_plan_id":"cebpf4jnsgd1na2vs0mg"},{"bike_id":"b2ccc78e-f917-4072-9e65-2be90cc66c25","system_id":"levelo_inurba_marseille","lat":43.29022,"lon":5.3995,"is_reserved":false,"is_disabled":false,"rental_uris":{"android":"levelo://app?vid=b2ccc78e-f917-4072-9e65-2be90cc66c25","ios":"levelo://app?vid=b2ccc78e-f917-4072-9e65-2be90cc66c25"},"vehicle_type_id":"4","last_reported":1734574642,"current_range_meters":34000,"station_id":"ce4bh392rcd13ifvqdm0","pricing_plan_id":"cebpf4jnsgd1na2vs0mg"},{"bike_id":"66a1c2cd-a67b-4bac-bd72-4e9e23bab466","system_id":"levelo_inurba_marseille","lat":43.297994,"lon":5.404026,"is_reserved":false,"is_disabled":false,"rental_uris":{"android":"levelo://app?vid=66a1c2cd-a67b-4bac-bd72-4e9e23bab466","ios":"levelo://app?vid=66a1c2cd-a67b-4bac-bd72-4e9e23bab466"},"vehicle_type_id":"4","last_reported":1734574642,"current_range_meters":38400,"station_id":"ce4bh112rcd13ifvqd90","pricing_plan_id":"cebpf4jnsgd1na2vs0mg"},{"bike_id":"c431149a-b068-41e5-aa64-ee97ee29529a","system_id":"levelo_inurba_marseille","lat":43.30809,"lon":5.38163,"is_reserved":false,"is_disabled":false,"rental_uris":{"android":"levelo://app?vid=c431149a-b068-41e5-aa64-ee97ee29529a","ios":"levelo://app?vid=c431149a-b068-41e5-aa64-ee97ee29529a"},"vehicle_type_id":"4","last_reported":1734574642,"current_range_meters":37600,"station_id":"ce4bgt12rcd13ifvqce0","pricing_plan_id":"cebpf4jnsgd1na2vs0mg"},{"bike_id":"f0f98e1e-00ea-404a-8ec2-c3d3f0edd605","system_id":"levelo_inurba_marseille","lat":43.33607,"lon":5.41011,"is_reserved":false,"is_disabled":false,"rental_uris":{"android":"levelo://app?vid=f0f98e1e-00ea-404a-8ec2-c3d3f0edd605","ios":"levelo://app?vid=f0f98e1e-00ea-404a-8ec2-c3d3f0edd605"},"vehicle_type_id":"4","last_reported":1734574642,"current_range_meters":11600,"station_id":"ce4bhqh2rcd13ifvqhmg","pricing_plan_id":"cebpf4jnsgd1na2vs0mg"},{"bike_id":"f02c8fac-7e68-486d-8833-4aee179559b3","system_id":"levelo_inurba_marseille","lat":43.27071,"lon":5.42278,"is_reserved":false,"is_disabled":false,"rental_uris":{"android":"levelo://app?vid=f02c8fac-7e68-486d-8833-4aee179559b3","ios":"levelo://app?vid=f02c8fac-7e68-486d-8833-4aee179559b3"},"vehicle_type_id":"4","last_reported":1734574642,"current_range_meters":26800,"station_id":"ce4bhk92rcd13ifvqgb0","pricing_plan_id":"cebpf4jnsgd1na2vs0mg"},{"bike_id":"6eb7061b-00ae-48f3-bb2b-e7ca4c44a33d","system_id":"levelo_inurba_marseille","lat":43.31264,"lon":5.40162,"is_reserved":false,"is_disabled":false,"rental_uris":{"android":"levelo://app?vid=6eb7061b-00ae-48f3-bb2b-e7ca4c44a33d","ios":"levelo://app?vid=6eb7061b-00ae-48f3-bb2b-e7ca4c44a33d"},"vehicle_type_id":"4","last_reported":1734574642,"current_range_meters":35600,"station_id":"ce4bh092rcd13ifvqd30","pricing_plan_id":"cebpf4jnsgd1na2vs0mg"},{"bike_id":"b3571202-74d9-44ef-85b2-590febb4035f","system_id":"levelo_inurba_marseille","lat":43.29873,"lon":5.38915,"is_reserved":false,"is_disabled":false,"rental_uris":{"android":"levelo://app?vid=b3571202-74d9-44ef-85b2-590febb4035f","ios":"levelo://app?vid=b3571202-74d9-44ef-85b2-590febb4035f"},"vehicle_type_id":"4","last_reported":1734574642,"current_range_meters":38800,"station_id":"ce4bh392rcd13ifvqdl0","pricing_plan_id":"cebpf4jnsgd1na2vs0mg"},{"bike_id":"e6569672-2f1f-4a90-9d6b-d6ad7bcd1e4c","system_id":"levelo_inurba_marseille","lat":43.26559,"lon":5.39003,"is_reserved":false,"is_disabled":false,"rental_uris":{"android":"levelo://app?vid=e6569672-2f1f-4a90-9d6b-d6ad7bcd1e4c","ios":"levelo://app?vid=e6569672-2f1f-4a90-9d6b-d6ad7bcd1e4c"},"vehicle_type_id":"4","last_reported":1734574642,"current_range_meters":24800,"station_id":"ce4bhe12rcd13ifvqf30","pricing_plan_id":"cebpf4jnsgd1na2vs0mg"},{"bike_id":"e433bf1f-7ea0-4011-b520-f914e36843b5","system_id":"levelo_inurba_marseille","lat":43.3132,"lon":5.39688,"is_reserved":false,"is_disabled":false,"rental_uris":{"android":"levelo://app?vid=e433bf1f-7ea0-4011-b520-f914e36843b5","ios":"levelo://app?vid=e433bf1f-7ea0-4011-b520-f914e36843b5"},"vehicle_type_id":"4","last_reported":1734574642,"current_range_meters":38800,"station_id":"ce4bgvp2rcd13ifvqcu0","pricing_plan_id":"cebpf4jnsgd1na2vs0mg"},{"bike_id":"53586763-e6eb-40b6-bde6-7786af1effe6","system_id":"levelo_inurba_marseille","lat":43.31195,"lon":5.36792,"is_reserved":false,"is_disabled":true,"rental_uris":{"android":"levelo://app?vid=53586763-e6eb-40b6-bde6-7786af1effe6","ios":"levelo://app?vid=53586763-e6eb-40b6-bde6-7786af1effe6"},"vehicle_type_id":"4","last_reported":1734574642,"current_range_meters":24800,"station_id":"","pricing_plan_id":"cebpf4jnsgd1na2vs0mg"},{"bike_id":"03b5bb1c-ac0e-4dd6-a4a1-798486b2d286","system_id":"levelo_inurba_marseille","lat":43.30636,"lon":5.40074,"is_reserved":false,"is_disabled":false,"rental_uris":{"android":"levelo://app?vid=03b5bb1c-ac0e-4dd6-a4a1-798486b2d286","ios":"levelo://app?vid=03b5bb1c-ac0e-4dd6-a4a1-798486b2d286"},"vehicle_type_id":"4","last_reported":1734574642,"current_range_meters":38800,"station_id":"ce4bh112rcd13ifvqda0","pricing_plan_id":"cebpf4jnsgd1na2vs0mg"},{"bike_id":"53b6fdb6-8e05-4d97-b84b-15b53f447307","system_id":"levelo_inurba_marseille","lat":43.30926,"lon":5.40136,"is_reserved":false,"is_disabled":false,"rental_uris":{"android":"levelo://app?vid=53b6fdb6-8e05-4d97-b84b-15b53f447307","ios":"levelo://app?vid=53b6fdb6-8e05-4d97-b84b-15b53f447307"},"vehicle_type_id":"4","last_reported":1734574642,"current_range_meters":35600,"station_id":"ce4bgvp2rcd13ifvqct0","pricing_plan_id":"cebpf4jnsgd1na2vs0mg"},{"bike_id":"5d229ec1-843c-42dd-b2d5-c6bbdc4852c3","system_id":"levelo_inurba_marseille","lat":43.33599,"lon":5.40992,"is_reserved":false,"is_disabled":false,"rental_uris":{"android":"levelo://app?vid=5d229ec1-843c-42dd-b2d5-c6bbdc4852c3","ios":"levelo://app?vid=5d229ec1-843c-42dd-b2d5-c6bbdc4852c3"},"vehicle_type_id":"4","last_reported":1734574642,"current_range_meters":26800,"station_id":"ce4bhqh2rcd13ifvqhmg","pricing_plan_id":"cebpf4jnsgd1na2vs0mg"},{"bike_id":"dd8c5b4c-64c3-4fbb-8df7-3b1a11a1b585","system_id":"levelo_inurba_marseille","lat":43.27617,"lon":5.36102,"is_reserved":false,"is_disabled":false,"rental_uris":{"android":"levelo://app?vid=dd8c5b4c-64c3-4fbb-8df7-3b1a11a1b585","ios":"levelo://app?vid=dd8c5b4c-64c3-4fbb-8df7-3b1a11a1b585"},"vehicle_type_id":"4","last_reported":1734574642,"current_range_meters":37600,"station_id":"ce4bgj92rcd13ifvqbe0","pricing_plan_id":"cebpf4jnsgd1na2vs0mg"},{"bike_id":"e94fde94-4b7c-4e2e-ae5a-1c4fb5ad834f","system_id":"levelo_inurba_marseille","lat":43.28844,"lon":5.35865,"is_reserved":false,"is_disabled":false,"rental_uris":{"android":"levelo://app?vid=e94fde94-4b7c-4e2e-ae5a-1c4fb5ad834f","ios":"levelo://app?vid=e94fde94-4b7c-4e2e-ae5a-1c4fb5ad834f"},"vehicle_type_id":"4","last_reported":1734574642,"current_range_meters":20000,"station_id":"ce4bhb12rcd13ifvqem0","pricing_plan_id":"cebpf4jnsgd1na2vs0mg"},{"bike_id":"7a22e994-cda9-4bae-9c54-510b7ed81343","system_id":"levelo_inurba_marseille","lat":43.27595,"lon":5.36079,"is_reserved":false,"is_disabled":false,"rental_uris":{"android":"levelo://app?vid=7a22e994-cda9-4bae-9c54-510b7ed81343","ios":"levelo://app?vid=7a22e994-cda9-4bae-9c54-510b7ed81343"},"vehicle_type_id":"4","last_reported":1734574642,"current_range_meters":11600,"station_id":"ce4bgj92rcd13ifvqbe0","pricing_plan_id":"cebpf4jnsgd1na2vs0mg"},{"bike_id":"9294b7c4-f950-43f8-8e30-fdbb56a51003","system_id":"levelo_inurba_marseille","lat":43.31468,"lon":5.36871,"is_reserved":false,"is_disabled":false,"rental_uris":{"android":"levelo://app?vid=9294b7c4-f950-43f8-8e30-fdbb56a51003","ios":"levelo://app?vid=9294b7c4-f950-43f8-8e30-fdbb56a51003"},"vehicle_type_id":"4","last_reported":1734574642,"current_range_meters":8000,"station_id":"","pricing_plan_id":"cebpf4jnsgd1na2vs0mg"},{"bike_id":"8f3f8c78-00d5-4ab2-9588-e884ed77c8f5","system_id":"levelo_inurba_marseille","lat":43.27835,"lon":5.39198,"is_reserved":false,"is_disabled":false,"rental_uris":{"android":"levelo://app?vid=8f3f8c78-00d5-4ab2-9588-e884ed77c8f5","ios":"levelo://app?vid=8f3f8c78-00d5-4ab2-9588-e884ed77c8f5"},"vehicle_type_id":"4","last_reported":1734574642,"current_range_meters":36800,"station_id":"ce4bhjp2rcd13ifvqga0","pricing_plan_id":"cebpf4jnsgd1na2vs0mg"},{"bike_id":"01ea8666-ec64-4c34-b7b1-7d0789619c0d","system_id":"levelo_inurba_marseille","lat":43.31119,"lon":5.37778,"is_reserved":false,"is_disabled":false,"rental_uris":{"android":"levelo://app?vid=01ea8666-ec64-4c34-b7b1-7d0789619c0d","ios":"levelo://app?vid=01ea8666-ec64-4c34-b7b1-7d0789619c0d"},"vehicle_type_id":"4","last_reported":1734574642,"current_range_meters":36800,"station_id":"ce4bgt92rcd13ifvqcg0","pricing_plan_id":"cebpf4jnsgd1na2vs0mg"},{"bike_id":"503a6266-3d6a-4fff-9701-d2ffcaadbb47","system_id":"levelo_inurba_marseille","lat":43.23181,"lon":5.39977,"is_reserved":false,"is_disabled":false,"rental_uris":{"android":"levelo://app?vid=503a6266-3d6a-4fff-9701-d2ffcaadbb47","ios":"levelo://app?vid=503a6266-3d6a-4fff-9701-d2ffcaadbb47"},"vehicle_type_id":"4","last_reported":1734574642,"current_range_meters":29600,"station_id":"ce4bhn12rcd13ifvqgqg","pricing_plan_id":"cebpf4jnsgd1na2vs0mg"},{"bike_id":"a4c253e8-8d80-49fc-bd11-a2e8817ea7bc","system_id":"levelo_inurba_marseille","lat":43.29197,"lon":5.35813,"is_reserved":false,"is_disabled":false,"rental_uris":{"android":"levelo://app?vid=a4c253e8-8d80-49fc-bd11-a2e8817ea7bc","ios":"levelo://app?vid=a4c253e8-8d80-49fc-bd11-a2e8817ea7bc"},"vehicle_type_id":"4","last_reported":1734574642,"current_range_meters":38000,"station_id":"ce4bhb12rcd13ifvqel0","pricing_plan_id":"cebpf4jnsgd1na2vs0mg"},{"bike_id":"cd5662f0-8564-4e77-b089-2525eac77446","system_id":"levelo_inurba_marseille","lat":43.29988,"lon":5.38508,"is_reserved":false,"is_disabled":false,"rental_uris":{"android":"levelo://app?vid=cd5662f0-8564-4e77-b089-2525eac77446","ios":"levelo://app?vid=cd5662f0-8564-4e77-b089-2525eac77446"},"vehicle_type_id":"4","last_reported":1734574642,"current_range_meters":36800,"station_id":"ce4bgj92rcd13ifvqbd0","pricing_plan_id":"cebpf4jnsgd1na2vs0mg"},{"bike_id":"e57d7f02-3c7c-49ad-b24d-2290b7f781a7","system_id":"levelo_inurba_marseille","lat":43.26561,"lon":5.3731,"is_reserved":false,"is_disabled":false,"rental_uris":{"android":"levelo://app?vid=e57d7f02-3c7c-49ad-b24d-2290b7f781a7","ios":"levelo://app?vid=e57d7f02-3c7c-49ad-b24d-2290b7f781a7"},"vehicle_type_id":"4","last_reported":1734574642,"current_range_meters":30800,"station_id":"ce4bhg12rcd13ifvqf70","pricing_plan_id":"cebpf4jnsgd1na2vs0mg"},{"bike_id":"a3232108-6d4d-45f4-ac66-cd85d6391bc7","system_id":"levelo_inurba_marseille","lat":43.23053,"lon":5.35496,"is_reserved":false,"is_disabled":false,"rental_uris":{"android":"levelo://app?vid=a3232108-6d4d-45f4-ac66-cd85d6391bc7","ios":"levelo://app?vid=a3232108-6d4d-45f4-ac66-cd85d6391bc7"},"vehicle_type_id":"4","last_reported":1734574642,"current_range_meters":36400,"station_id":"cpo3342slgdg3j2ifvpg","pricing_plan_id":"cebpf4jnsgd1na2vs0mg"},{"bike_id":"0b1876e0-a88f-4182-92d2-0ebd168c1f92","system_id":"levelo_inurba_marseille","lat":43.28547,"lon":5.39472,"is_reserved":false,"is_disabled":false,"rental_uris":{"android":"levelo://app?vid=0b1876e0-a88f-4182-92d2-0ebd168c1f92","ios":"levelo://app?vid=0b1876e0-a88f-4182-92d2-0ebd168c1f92"},"vehicle_type_id":"4","last_reported":1734574642,"current_range_meters":27600,"station_id":"ce4bh292rcd13ifvqdg0","pricing_plan_id":"cebpf4jnsgd1na2vs0mg"},{"bike_id":"32c98ab6-fe20-4209-aaad-3325b93af7bf","system_id":"levelo_inurba_marseille","lat":43.29202,"lon":5.35791,"is_reserved":false,"is_disabled":false,"rental_uris":{"android":"levelo://app?vid=32c98ab6-fe20-4209-aaad-3325b93af7bf","ios":"levelo://app?vid=32c98ab6-fe20-4209-aaad-3325b93af7bf"},"vehicle_type_id":"4","last_reported":1734574642,"current_range_meters":29600,"station_id":"ce4bhb12rcd13ifvqel0","pricing_plan_id":"cebpf4jnsgd1na2vs0mg"},{"bike_id":"5f268945-074c-44ed-9099-05e8aa15f651","system_id":"levelo_inurba_marseille","lat":43.26067,"lon":5.39402,"is_reserved":false,"is_disabled":false,"rental_uris":{"android":"levelo://app?vid=5f268945-074c-44ed-9099-05e8aa15f651","ios":"levelo://app?vid=5f268945-074c-44ed-9099-05e8aa15f651"},"vehicle_type_id":"4","last_reported":1734574642,"current_range_meters":32800,"station_id":"ce4bhh92rcd13ifvqfj0","pricing_plan_id":"cebpf4jnsgd1na2vs0mg"},{"bike_id":"1f85f844-031e-4abc-a842-f34e73f3cb0b","system_id":"levelo_inurba_marseille","lat":43.28112,"lon":5.37882,"is_reserved":false,"is_disabled":false,"rental_uris":{"android":"levelo://app?vid=1f85f844-031e-4abc-a842-f34e73f3cb0b","ios":"levelo://app?vid=1f85f844-031e-4abc-a842-f34e73f3cb0b"},"vehicle_type_id":"4","last_reported":1734574642,"current_range_meters":38800,"station_id":"ce4bha12rcd13ifvqee0","pricing_plan_id":"cebpf4jnsgd1na2vs0mg"},{"bike_id":"7cb7408a-88a1-4f20-8f17-e882eae05690","system_id":"levelo_inurba_marseille","lat":43.28419,"lon":5.34987,"is_reserved":false,"is_disabled":false,"rental_uris":{"android":"levelo://app?vid=7cb7408a-88a1-4f20-8f17-e882eae05690","ios":"levelo://app?vid=7cb7408a-88a1-4f20-8f17-e882eae05690"},"vehicle_type_id":"4","last_reported":1734574642,"current_range_meters":9600,"station_id":"ce4bhbh2rcd13ifvqepg","pricing_plan_id":"cebpf4jnsgd1na2vs0mg"},{"bike_id":"718c3abd-cdd2-40af-b157-1e463f84594c","system_id":"levelo_inurba_marseille","lat":43.30797,"lon":5.38172,"is_reserved":false,"is_disabled":false,"rental_uris":{"android":"levelo://app?vid=718c3abd-cdd2-40af-b157-1e463f84594c","ios":"levelo://app?vid=718c3abd-cdd2-40af-b157-1e463f84594c"},"vehicle_type_id":"4","last_reported":1734574642,"current_range_meters":24800,"station_id":"ce4bgt12rcd13ifvqce0","pricing_plan_id":"cebpf4jnsgd1na2vs0mg"},{"bike_id":"f5c894fa-8ab9-469e-9f79-8e652d96deb0","system_id":"levelo_inurba_marseille","lat":43.2694,"lon":5.38625,"is_reserved":false,"is_disabled":false,"rental_uris":{"android":"levelo://app?vid=f5c894fa-8ab9-469e-9f79-8e652d96deb0","ios":"levelo://app?vid=f5c894fa-8ab9-469e-9f79-8e652d96deb0"},"vehicle_type_id":"4","last_reported":1734574642,"current_range_meters":37600,"station_id":"ce4bhh92rcd13ifvqfh0","pricing_plan_id":"cebpf4jnsgd1na2vs0mg"},{"bike_id":"cc714d77-98c3-4d9b-bcf4-aabc7bcc80b2","system_id":"levelo_inurba_marseille","lat":43.28628,"lon":5.35108,"is_reserved":false,"is_disabled":false,"rental_uris":{"android":"levelo://app?vid=cc714d77-98c3-4d9b-bcf4-aabc7bcc80b2","ios":"levelo://app?vid=cc714d77-98c3-4d9b-bcf4-aabc7bcc80b2"},"vehicle_type_id":"4","last_reported":1734574642,"current_range_meters":36800,"station_id":"ce4bhch2rcd13ifvqeug","pricing_plan_id":"cebpf4jnsgd1na2vs0mg"},{"bike_id":"bf433ee3-7a4b-4603-85d4-f3081c798265","system_id":"levelo_inurba_marseille","lat":43.26569,"lon":5.39001,"is_reserved":false,"is_disabled":false,"rental_uris":{"android":"levelo://app?vid=bf433ee3-7a4b-4603-85d4-f3081c798265","ios":"levelo://app?vid=bf433ee3-7a4b-4603-85d4-f3081c798265"},"vehicle_type_id":"4","last_reported":1734574642,"current_range_meters":12800,"station_id":"ce4bhe12rcd13ifvqf30","pricing_plan_id":"cebpf4jnsgd1na2vs0mg"},{"bike_id":"fb7b786c-e75a-4614-a95b-936a50736623","system_id":"levelo_inurba_marseille","lat":43.25582,"lon":5.38277,"is_reserved":false,"is_disabled":false,"rental_uris":{"android":"levelo://app?vid=fb7b786c-e75a-4614-a95b-936a50736623","ios":"levelo://app?vid=fb7b786c-e75a-4614-a95b-936a50736623"},"vehicle_type_id":"4","last_reported":1734574642,"current_range_meters":27200,"station_id":"ce4bhih2rcd13ifvqfs0","pricing_plan_id":"cebpf4jnsgd1na2vs0mg"},{"bike_id":"614ca12a-3413-46a7-8fd1-4e5043baf841","system_id":"levelo_inurba_marseille","lat":43.23189,"lon":5.39996,"is_reserved":false,"is_disabled":false,"rental_uris":{"android":"levelo://app?vid=614ca12a-3413-46a7-8fd1-4e5043baf841","ios":"levelo://app?vid=614ca12a-3413-46a7-8fd1-4e5043baf841"},"vehicle_type_id":"4","last_reported":1734574642,"current_range_meters":38800,"station_id":"ce4bhn12rcd13ifvqgqg","pricing_plan_id":"cebpf4jnsgd1na2vs0mg"},{"bike_id":"f1274513-2262-436f-9439-d4b463e1145d","system_id":"levelo_inurba_marseille","lat":43.31103,"lon":5.3778,"is_reserved":false,"is_disabled":false,"rental_uris":{"android":"levelo://app?vid=f1274513-2262-436f-9439-d4b463e1145d","ios":"levelo://app?vid=f1274513-2262-436f-9439-d4b463e1145d"},"vehicle_type_id":"4","last_reported":1734574642,"current_range_meters":6800,"station_id":"ce4bgt92rcd13ifvqcg0","pricing_plan_id":"cebpf4jnsgd1na2vs0mg"},{"bike_id":"c6fc1f35-949d-4dc4-925e-046f798f5cdb","system_id":"levelo_inurba_marseille","lat":43.30406,"lon":5.41302,"is_reserved":false,"is_disabled":false,"rental_uris":{"android":"levelo://app?vid=c6fc1f35-949d-4dc4-925e-046f798f5cdb","ios":"levelo://app?vid=c6fc1f35-949d-4dc4-925e-046f798f5cdb"},"vehicle_type_id":"4","last_reported":1734574642,"current_range_meters":38800,"station_id":"ce4bhop2rcd13ifvqh8g","pricing_plan_id":"cebpf4jnsgd1na2vs0mg"},{"bike_id":"507520f1-7828-401f-995b-0a7dd6c54633","system_id":"levelo_inurba_marseille","lat":43.28441,"lon":5.39178,"is_reserved":false,"is_disabled":false,"rental_uris":{"android":"levelo://app?vid=507520f1-7828-401f-995b-0a7dd6c54633","ios":"levelo://app?vid=507520f1-7828-401f-995b-0a7dd6c54633"},"vehicle_type_id":"4","last_reported":1734574642,"current_range_meters":38800,"station_id":"ce4bhoh2rcd13ifvqh5g","pricing_plan_id":"cebpf4jnsgd1na2vs0mg"},{"bike_id":"58467e87-7aba-45ac-b6a1-11bf0d54d902","system_id":"levelo_inurba_marseille","lat":43.3127,"lon":5.40161,"is_reserved":false,"is_disabled":false,"rental_uris":{"android":"levelo://app?vid=58467e87-7aba-45ac-b6a1-11bf0d54d902","ios":"levelo://app?vid=58467e87-7aba-45ac-b6a1-11bf0d54d902"},"vehicle_type_id":"4","last_reported":1734574642,"current_range_meters":34000,"station_id":"ce4bh092rcd13ifvqd30","pricing_plan_id":"cebpf4jnsgd1na2vs0mg"},{"bike_id":"8816c9c1-e7d2-4a3b-8e5d-a954b3be0214","system_id":"levelo_inurba_marseille","lat":43.30803,"lon":5.43513,"is_reserved":false,"is_disabled":false,"rental_uris":{"android":"levelo://app?vid=8816c9c1-e7d2-4a3b-8e5d-a954b3be0214","ios":"levelo://app?vid=8816c9c1-e7d2-4a3b-8e5d-a954b3be0214"},"vehicle_type_id":"4","last_reported":1734574642,"current_range_meters":22800,"station_id":"ce4bhph2rcd13ifvqheg","pricing_plan_id":"cebpf4jnsgd1na2vs0mg"},{"bike_id":"c8399855-72d4-4f25-aa5a-52a18924a7b8","system_id":"levelo_inurba_marseille","lat":43.24166,"lon":5.36396,"is_reserved":false,"is_disabled":false,"rental_uris":{"android":"levelo://app?vid=c8399855-72d4-4f25-aa5a-52a18924a7b8","ios":"levelo://app?vid=c8399855-72d4-4f25-aa5a-52a18924a7b8"},"vehicle_type_id":"4","last_reported":1734574642,"current_range_meters":38000,"station_id":"cpo36qri1sfpv3e86is0","pricing_plan_id":"cebpf4jnsgd1na2vs0mg"},{"bike_id":"8c3881b2-83b9-49b7-b34c-7dada9b9af2d","system_id":"levelo_inurba_marseille","lat":43.30586,"lon":5.37213,"is_reserved":false,"is_disabled":false,"rental_uris":{"android":"levelo://app?vid=8c3881b2-83b9-49b7-b34c-7dada9b9af2d","ios":"levelo://app?vid=8c3881b2-83b9-49b7-b34c-7dada9b9af2d"},"vehicle_type_id":"4","last_reported":1734574642,"current_range_meters":39200,"station_id":"ce4bgqh2rcd13ifvqc4g","pricing_plan_id":"cebpf4jnsgd1na2vs0mg"},{"bike_id":"2ff1ceb7-5734-4bfd-ae65-4391f8ba9285","system_id":"levelo_inurba_marseille","lat":43.28657,"lon":5.36354,"is_reserved":false,"is_disabled":false,"rental_uris":{"android":"levelo://app?vid=2ff1ceb7-5734-4bfd-ae65-4391f8ba9285","ios":"levelo://app?vid=2ff1ceb7-5734-4bfd-ae65-4391f8ba9285"},"vehicle_type_id":"4","last_reported":1734574642,"current_range_meters":31200,"station_id":"ce4bhah2rcd13ifvqej0","pricing_plan_id":"cebpf4jnsgd1na2vs0mg"},{"bike_id":"5c5e4a90-0261-4e56-a265-d64ce512e47b","system_id":"levelo_inurba_marseille","lat":43.3025,"lon":5.40087,"is_reserved":false,"is_disabled":false,"rental_uris":{"android":"levelo://app?vid=5c5e4a90-0261-4e56-a265-d64ce512e47b","ios":"levelo://app?vid=5c5e4a90-0261-4e56-a265-d64ce512e47b"},"vehicle_type_id":"4","last_reported":1734574642,"current_range_meters":36400,"station_id":"ce4bgvh2rcd13ifvqcs0","pricing_plan_id":"cebpf4jnsgd1na2vs0mg"},{"bike_id":"ce227b36-292b-4d08-86a1-392affe1a046","system_id":"levelo_inurba_marseille","lat":43.29282,"lon":5.38452,"is_reserved":false,"is_disabled":true,"rental_uris":{"android":"levelo://app?vid=ce227b36-292b-4d08-86a1-392affe1a046","ios":"levelo://app?vid=ce227b36-292b-4d08-86a1-392affe1a046"},"vehicle_type_id":"4","last_reported":1734574642,"current_range_meters":6400,"station_id":"ce4bh692rcd13ifvqea0","pricing_plan_id":"cebpf4jnsgd1na2vs0mg"},{"bike_id":"c5aa0bd6-1618-41ab-a575-402eeb1785be","system_id":"levelo_inurba_marseille","lat":43.30336,"lon":5.39207,"is_reserved":false,"is_disabled":true,"rental_uris":{"android":"levelo://app?vid=c5aa0bd6-1618-41ab-a575-402eeb1785be","ios":"levelo://app?vid=c5aa0bd6-1618-41ab-a575-402eeb1785be"},"vehicle_type_id":"4","last_reported":1734574642,"current_range_meters":38000,"station_id":"ce4bgkh2rcd13ifvqbk0","pricing_plan_id":"cebpf4jnsgd1na2vs0mg"},{"bike_id":"9595912f-5a00-4b71-b5cd-7bfd1643509b","system_id":"levelo_inurba_marseille","lat":43.30248,"lon":5.40049,"is_reserved":false,"is_disabled":false,"rental_uris":{"android":"levelo://app?vid=9595912f-5a00-4b71-b5cd-7bfd1643509b","ios":"levelo://app?vid=9595912f-5a00-4b71-b5cd-7bfd1643509b"},"vehicle_type_id":"4","last_reported":1734574642,"current_range_meters":7200,"station_id":"ce4bgvh2rcd13ifvqcs0","pricing_plan_id":"cebpf4jnsgd1na2vs0mg"},{"bike_id":"149f6e59-92f2-4391-ad8d-a3c211e76bb2","system_id":"levelo_inurba_marseille","lat":43.23194,"lon":5.35539,"is_reserved":false,"is_disabled":false,"rental_uris":{"android":"levelo://app?vid=149f6e59-92f2-4391-ad8d-a3c211e76bb2","ios":"levelo://app?vid=149f6e59-92f2-4391-ad8d-a3c211e76bb2"},"vehicle_type_id":"4","last_reported":1734574642,"current_range_meters":38800,"station_id":"ce4bhu92rcd13ifvqi70","pricing_plan_id":"cebpf4jnsgd1na2vs0mg"},{"bike_id":"a4e960ac-517b-4b66-b9b3-f4cddd65e283","system_id":"levelo_inurba_marseille","lat":43.28997,"lon":5.35587,"is_reserved":false,"is_disabled":false,"rental_uris":{"android":"levelo://app?vid=a4e960ac-517b-4b66-b9b3-f4cddd65e283","ios":"levelo://app?vid=a4e960ac-517b-4b66-b9b3-f4cddd65e283"},"vehicle_type_id":"4","last_reported":1734574642,"current_range_meters":9200,"station_id":"ce4bhb92rcd13ifvqen0","pricing_plan_id":"cebpf4jnsgd1na2vs0mg"},{"bike_id":"16924ec6-8993-48be-9cf5-81018ebe90ff","system_id":"levelo_inurba_marseille","lat":43.29257,"lon":5.4092,"is_reserved":false,"is_disabled":false,"rental_uris":{"android":"levelo://app?vid=16924ec6-8993-48be-9cf5-81018ebe90ff","ios":"levelo://app?vid=16924ec6-8993-48be-9cf5-81018ebe90ff"},"vehicle_type_id":"4","last_reported":1734574642,"current_range_meters":30800,"station_id":"ce4bh192rcd13ifvqdc0","pricing_plan_id":"cebpf4jnsgd1na2vs0mg"},{"bike_id":"790384af-f24b-45b5-b4b6-0e8bccf15a40","system_id":"levelo_inurba_marseille","lat":43.28407,"lon":5.37541,"is_reserved":false,"is_disabled":false,"rental_uris":{"android":"levelo://app?vid=790384af-f24b-45b5-b4b6-0e8bccf15a40","ios":"levelo://app?vid=790384af-f24b-45b5-b4b6-0e8bccf15a40"},"vehicle_type_id":"4","last_reported":1734574642,"current_range_meters":32800,"station_id":"ce4bh412rcd13ifvqds0","pricing_plan_id":"cebpf4jnsgd1na2vs0mg"},{"bike_id":"0964a333-009c-43df-a369-e7b7f1f82c22","system_id":"levelo_inurba_marseille","lat":43.30551,"lon":5.36723,"is_reserved":false,"is_disabled":true,"rental_uris":{"android":"levelo://app?vid=0964a333-009c-43df-a369-e7b7f1f82c22","ios":"levelo://app?vid=0964a333-009c-43df-a369-e7b7f1f82c22"},"vehicle_type_id":"4","last_reported":1734574642,"current_range_meters":27200,"station_id":"","pricing_plan_id":"cebpf4jnsgd1na2vs0mg"},{"bike_id":"4279e840-6b68-4a03-8fe9-c297fa18efdc","system_id":"levelo_inurba_marseille","lat":43.28937,"lon":5.36639,"is_reserved":false,"is_disabled":false,"rental_uris":{"android":"levelo://app?vid=4279e840-6b68-4a03-8fe9-c297fa18efdc","ios":"levelo://app?vid=4279e840-6b68-4a03-8fe9-c297fa18efdc"},"vehicle_type_id":"4","last_reported":1734574642,"current_range_meters":38800,"station_id":"ce4bhap2rcd13ifvqek0","pricing_plan_id":"cebpf4jnsgd1na2vs0mg"},{"bike_id":"25fbff89-a5d7-4935-bafe-3a7a2f605c5a","system_id":"levelo_inurba_marseille","lat":43.31173,"lon":5.38713,"is_reserved":false,"is_disabled":true,"rental_uris":{"android":"levelo://app?vid=25fbff89-a5d7-4935-bafe-3a7a2f605c5a","ios":"levelo://app?vid=25fbff89-a5d7-4935-bafe-3a7a2f605c5a"},"vehicle_type_id":"4","last_reported":1734574642,"current_range_meters":6400,"station_id":"ce4bgv12rcd13ifvqcp0","pricing_plan_id":"cebpf4jnsgd1na2vs0mg"},