{"last_updated":1700748397,"ttl":30,"version":"2.2","data":{"bikes":[{"bike_id":"1b4f0ad4-3c00-4fb8-869a-855be304d4e3","system_id":"levelo_inurba_marseille","lat":43.313391,"lon":5.36706,"is_reserved":false,"is_disabled":false,"rental_uris":{"android":"levelo://app?vid=1b4f0ad4-3c00-4fb8-869a-855be304d4e3","ios":"levelo://app?vid=1b4f0ad4-3c00-4fb8-869a-855be304d4e3"},"vehicle_type_id":"4","last_reported":1700748398,"current_range_meters":31600,"station_id":"ce4bgr92rcd13ifvqc6g","pricing_plan_id":"free"},{"bike_id":"9ee4baeb-436c-4a40-9516-7c23919218ed","system_id":"levelo_inurba_marseille","lat":43.313391,"lon":5.36706,"is_reserved":false,"is_disabled":false,"rental_uris":{"android":"levelo://app?vid=9ee4baeb-436c-4a40-9516-7c23919218ed","ios":"levelo://app?vid=9ee4baeb-436c-4a40-9516-7c23919218ed"},"vehicle_type_id":"4","last_reported":1700748398,"current_range_meters":26400,"station_id":"ce4bgr92rcd13ifvqc6g","pricing_plan_id":"free"},{"bike_id":"aa3ae5eb-9179-4636-a2fb-b54647cc9fc7","system_id":"levelo_inurba_marseille","lat":43.31342,"lon":5.36724,"is_reserved":false,"is_disabled":false,"rental_uris":{"android":"levelo://app?vid=aa3ae5eb-9179-4636-a2fb-b54647cc9fc7","ios":"levelo://app?vid=aa3ae5eb-9179-4636-a2fb-b54647cc9fc7"},"vehicle_type_id":"4","last_reported":1700748398,"current_range_meters":13200,"station_id":"ce4bgr92rcd13ifvqc6g","pricing_plan_id":"free"},{"bike_id":"6aed539e-fbb3-4e95-acdc-66cfa59c1fba","system_id":"levelo_inurba_marseille","lat":43.313391,"lon":5.36706,"is_reserved":false,"is_disabled":false,"rental_uris":{"android":"levelo://app?vid=6aed539e-fbb3-4e95-acdc-66cfa59c1fba","ios":"levelo://app?vid=6aed539e-fbb3-4e95-acdc-66cfa59c1fba"},"vehicle_type_id":"4","last_reported":1700748398,"current_range_meters":21200,"station_id":"ce4bgr92rcd13ifvqc6g","pricing_plan_id":"free"},{"bike_id":"74bd4cbe-c558-46c0-bd30-c944aadabae6","system_id":"levelo_inurba_marseille","lat":43.313479,"lon":5.367119,"is_reserved":false,"is_disabled":false,"rental_uris":{"android":"levelo://app?vid=74bd4cbe-c558-46c0-bd30-c944aadabae6","ios":"levelo://app?vid=74bd4cbe-c558-46c0-bd30-c944aadabae6"},"vehicle_type_id":"4","last_reported":1700748398,"current_range_meters":21200,"station_id":"ce4bgr92rcd13ifvqc6g","pricing_plan_id":"free"},{"bike_id":"ae9507c3-66a7-442c-bde5-723ffc6996f5","system_id":"levelo_inurba_marseille","lat":43.313492,"lon":5.367076,"is_reserved":false,"is_disabled":false,"rental_uris":{"android":"levelo://app?vid=ae9507c3-66a7-442c-bde5-723ffc6996f5","ios":"levelo://app?vid=ae9507c3-66a7-442c-bde5-723ffc6996f5"},"vehicle_type_id":"4","last_reported":1700748398,"current_range_meters":400,"station_id":"ce4bgr92rcd13ifvqc6g","pricing_plan_id":"free"},{"bike_id":"1768f595-fab9-431e-a005-e0909aaa484b","system_id":"levelo_inurba_marseille","lat":43.313559,"lon":5.367098,"is_reserved":false,"is_disabled":false,"rental_uris":{"android":"levelo://app?vid=1768f595-fab9-431e-a005-e0909aaa484b","ios":"levelo://app?vid=1768f595-fab9-431e-a005-e0909aaa484b"},"vehicle_type_id":"4","last_reported":1700748398,"current_range_meters":31200,"station_id":"ce4bgr92rcd13ifvqc6g","pricing_plan_id":"free"},{"bike_id":"47de29ff-386d-4cef-8374-5733c872ffb2","system_id":"levelo_inurba_marseille","lat":43.31355,"lon":5.36717,"is_reserved":false,"is_disabled":false,"rental_uris":{"android":"levelo://app?vid=47de29ff-386d-4cef-8374-5733c872ffb2","ios":"levelo://app?vid=47de29ff-386d-4cef-8374-5733c872ffb2"},"vehicle_type_id":"4","last_reported":1700748398,"current_range_meters":15600,"station_id":"ce4bgr92rcd13ifvqc6g","pricing_plan_id":"free"},{"bike_id":"a272bb25-d8ef-4771-bed1-43feefbee660","system_id":"levelo_inurba_marseille","lat":43.313566,"lon":5.3671,"is_reserved":false,"is_disabled":false,"rental_uris":{"android":"levelo://app?vid=a272bb25-d8ef-4771-bed1-43feefbee660","ios":"levelo://app?vid=a272bb25-d8ef-4771-bed1-43feefbee660"},"vehicle_type_id":"4","last_reported":1700748398,"current_range_meters":21600,"station_id":"ce4bgr92rcd13ifvqc6g","pricing_plan_id":"free"},{"bike_id":"b81ebcb8-2c2b-4f3e-872a-78611829dfd6","system_id":"levelo_inurba_marseille","lat":43.312239,"lon":5.368562,"is_reserved":false,"is_disabled":false,"rental_uris":{"android":"levelo://app?vid=b81ebcb8-2c2b-4f3e-872a-78611829dfd6","ios":"levelo://app?vid=b81ebcb8-2c2b-4f3e-872a-78611829dfd6"},"vehicle_type_id":"4","last_reported":1700748398,"current_range_meters":16800,"station_id":"ce4bgl92rcd13ifvqbq0","pricing_plan_id":"free"},{"bike_id":"1cb1026f-8196-4c9f-9816-7772cb450f87","system_id":"levelo_inurba_marseille","lat":43.312239,"lon":5.368562,"is_reserved":false,"is_disabled":false,"rental_uris":{"android":"levelo://app?vid=1cb1026f-8196-4c9f-9816-7772cb450f87","ios":"levelo://app?vid=1cb1026f-8196-4c9f-9816-7772cb450f87"},"vehicle_type_id":"4","last_reported":1700748398,"current_range_meters":16000,"station_id":"ce4bgl92rcd13ifvqbq0","pricing_plan_id":"free"},{"bike_id":"11e4c34e-2094-4cc9-b500-97e6e514daa3","system_id":"levelo_inurba_marseille","lat":43.31159,"lon":5.36883,"is_reserved":false,"is_disabled":false,"rental_uris":{"android":"levelo://app?vid=11e4c34e-2094-4cc9-b500-97e6e514daa3","ios":"levelo://app?vid=11e4c34e-2094-4cc9-b500-97e6e514daa3"},"vehicle_type_id":"4","last_reported":1700748398,"current_range_meters":0,"station_id":"","pricing_plan_id":"free"},{"bike_id":"a76008e5-42f8-428a-bbd7-f33cb81cb9c1","system_id":"levelo_inurba_marseille","lat":43.30907,"lon":5.36842,"is_reserved":false,"is_disabled":false,"rental_uris":{"android":"levelo://app?vid=a76008e5-42f8-428a-bbd7-f33cb81cb9c1","ios":"levelo://app?vid=a76008e5-42f8-428a-bbd7-f33cb81cb9c1"},"vehicle_type_id":"4","last_reported":1700748398,"current_range_meters":12800,"station_id":"ce4bgn92rcd13ifvqbvg","pricing_plan_id":"free"},{"bike_id":"778811e3-4d9c-4ba9-ba0a-1fb76f7b3938","system_id":"levelo_inurba_marseille","lat":43.314811,"lon":5.373103,"is_reserved":false,"is_disabled":false,"rental_uris":{"android":"levelo://app?vid=778811e3-4d9c-4ba9-ba0a-1fb76f7b3938","ios":"levelo://app?vid=778811e3-4d9c-4ba9-ba0a-1fb76f7b3938"},"vehicle_type_id":"4","last_reported":1700748398,"current_range_meters":9600,"station_id":"ce4bgt12rcd13ifvqcd0","pricing_plan_id":"free"},{"bike_id":"b0ce50ad-32a4-49bc-b807-ded65717ccca","system_id":"levelo_inurba_marseille","lat":43.314811,"lon":5.373103,"is_reserved":false,"is_disabled":false,"rental_uris":{"android":"levelo://app?vid=b0ce50ad-32a4-49bc-b807-ded65717ccca","ios":"levelo://app?vid=b0ce50ad-32a4-49bc-b807-ded65717ccca"},"vehicle_type_id":"4","last_reported":1700748398,"current_range_meters":11200,"station_id":"ce4bgt12rcd13ifvqcd0","pricing_plan_id":"free"},{"bike_id":"40b67cf4-132e-4d6c-a9c6-9f16e032f5d0","system_id":"levelo_inurba_marseille","lat":43.309039,"lon":5.371797,"is_reserved":false,"is_disabled":false,"rental_uris":{"android":"levelo://app?vid=40b67cf4-132e-4d6c-a9c6-9f16e032f5d0","ios":"levelo://app?vid=40b67cf4-132e-4d6c-a9c6-9f16e032f5d0"},"vehicle_type_id":"4","last_reported":1700748398,"current_range_meters":26800,"station_id":"ce4bguh2rcd13ifvqckg","pricing_plan_id":"free"},{"bike_id":"3b62f4bd-b545-46b7-8912-4f7e389b3df7","system_id":"levelo_inurba_marseille","lat":43.309039,"lon":5.371797,"is_reserved":false,"is_disabled":false,"rental_uris":{"android":"levelo://app?vid=3b62f4bd-b545-46b7-8912-4f7e389b3df7","ios":"levelo://app?vid=3b62f4bd-b545-46b7-8912-4f7e389b3df7"},"vehicle_type_id":"4","last_reported":1700748398,"current_range_meters":12800,"station_id":"ce4bguh2rcd13ifvqckg","pricing_plan_id":"free"},{"bike_id":"0ca1c82e-69e6-41fc-827e-3c9b45860727","system_id":"levelo_inurba_marseille","lat":43.305712,"lon":5.365641,"is_reserved":false,"is_disabled":false,"rental_uris":{"android":"levelo://app?vid=0ca1c82e-69e6-41fc-827e-3c9b45860727","ios":"levelo://app?vid=0ca1c82e-69e6-41fc-827e-3c9b45860727"},"vehicle_type_id":"4","last_reported":1700748398,"current_range_meters":22000,"station_id":"ce4bgs12rcd13ifvqcag","pricing_plan_id":"free"},{"bike_id":"4c16b4b8-f607-486c-9b01-c921e30dd1d6","system_id":"levelo_inurba_marseille","lat":43.305712,"lon":5.365641,"is_reserved":false,"is_disabled":false,"rental_uris":{"android":"levelo://app?vid=4c16b4b8-f607-486c-9b01-c921e30dd1d6","ios":"levelo://app?vid=4c16b4b8-f607-486c-9b01-c921e30dd1d6"},"vehicle_type_id":"4","last_reported":1700748398,"current_range_meters":12800,"station_id":"ce4bgs12rcd13ifvqcag","pricing_plan_id":"free"},{"bike_id":"cdc7b517-39fc-4e4e-9a00-1ddfcce4a287","system_id":"levelo_inurba_marseille","lat":43.305368,"lon":5.367343,"is_reserved":false,"is_disabled":false,"rental_uris":{"android":"levelo://app?vid=cdc7b517-39fc-4e4e-9a00-1ddfcce4a287","ios":"levelo://app?vid=cdc7b517-39fc-4e4e-9a00-1ddfcce4a287"},"vehicle_type_id":"4","last_reported":1700748398,"current_range_meters":24800,"station_id":"ce4bgrp2rcd13ifvqc9g","pricing_plan_id":"free"},{"bike_id":"4fd1c94b-729a-4004-be2b-eab3d7804138","system_id":"levelo_inurba_marseille","lat":43.305368,"lon":5.367343,"is_reserved":false,"is_disabled":false,"rental_uris":{"android":"levelo://app?vid=4fd1c94b-729a-4004-be2b-eab3d7804138","ios":"levelo://app?vid=4fd1c94b-729a-4004-be2b-eab3d7804138"},"vehicle_type_id":"4","last_reported":1700748398,"current_range_meters":28000,"station_id":"ce4bgrp2rcd13ifvqc9g","pricing_plan_id":"free"},{"bike_id":"5b2d165a-b322-44a7-a31e-104f7d1f34be","system_id":"levelo_inurba_marseille","lat":43.305714,"lon":5.365633,"is_reserved":false,"is_disabled":false,"rental_uris":{"android":"levelo://app?vid=5b2d165a-b322-44a7-a31e-104f7d1f34be","ios":"levelo://app?vid=5b2d165a-b322-44a7-a31e-104f7d1f34be"},"vehicle_type_id":"4","last_reported":1700748398,"current_range_meters":5600,"station_id":"ce4bgs12rcd13ifvqcag","pricing_plan_id":"free"},{"bike_id":"77d91118-fe00-4ce4-969a-486f210dfc95","system_id":"levelo_inurba_marseille","lat":43.305714,"lon":5.365633,"is_reserved":false,"is_disabled":false,"rental_uris":{"android":"levelo://app?vid=77d91118-fe00-4ce4-969a-486f210dfc95","ios":"levelo://app?vid=77d91118-fe00-4ce4-969a-486f210dfc95"},"vehicle_type_id":"4","last_reported":1700748398,"current_range_meters":27600,"station_id":"ce4bgs12rcd13ifvqcag","pricing_plan_id":"free"},{"bike_id":"958cfe39-d484-4682-9dcc-b098ee18efbc","system_id":"levelo_inurba_marseille","lat":43.305706,"lon":5.365654,"is_reserved":false,"is_disabled":false,"rental_uris":{"android":"levelo://app?vid=958cfe39-d484-4682-9dcc-b098ee18efbc","ios":"levelo://app?vid=958cfe39-d484-4682-9dcc-b098ee18efbc"},"vehicle_type_id":"4","last_reported":1700748398,"current_range_meters":23600,"station_id":"ce4bgs12rcd13ifvqcag","pricing_plan_id":"free"},{"bike_id":"ccf87354-e17d-4e9d-9d65-627b26828219","system_id":"levelo_inurba_marseille","lat":43.305706,"lon":5.365654,"is_reserved":false,"is_disabled":false,"rental_uris":{"android":"levelo://app?vid=ccf87354-e17d-4e9d-9d65-627b26828219","ios":"levelo://app?vid=ccf87354-e17d-4e9d-9d65-627b26828219"},"vehicle_type_id":"4","last_reported":1700748398,"current_range_meters":31600,"station_id":"ce4bgs12rcd13ifvqcag","pricing_plan_id":"free"},{"bike_id":"24550172-1164-4d32-9243-ca728400fef3","system_id":"levelo_inurba_marseille","lat":43.311125,"lon":5.377624,"is_reserved":false,"is_disabled":false,"rental_uris":{"android":"levelo://app?vid=24550172-1164-4d32-9243-ca728400fef3","ios":"levelo://app?vid=24550172-1164-4d32-9243-ca728400fef3"},"vehicle_type_id":"4","last_reported":1700748398,"current_range_meters":9600,"station_id":"ce4bgt92rcd13ifvqcg0","pricing_plan_id":"free"},{"bike_id":"a2473d8a-d617-4c25-93ed-2e2c8c54d922","system_id":"levelo_inurba_marseille","lat":43.311131,"lon":5.377651,"is_reserved":false,"is_disabled":false,"rental_uris":{"android":"levelo://app?vid=a2473d8a-d617-4c25-93ed-2e2c8c54d922","ios":"levelo://app?vid=a2473d8a-d617-4c25-93ed-2e2c8c54d922"},"vehicle_type_id":"4","last_reported":1700748398,"current_range_meters":4000,"station_id":"ce4bgt92rcd13ifvqcg0","pricing_plan_id":"free"},{"bike_id":"de48770f-d59f-4b34-8519-b786e25d9fb5","system_id":"levelo_inurba_marseille","lat":43.311125,"lon":5.377624,"is_reserved":false,"is_disabled":false,"rental_uris":{"android":"levelo://app?vid=de48770f-d59f-4b34-8519-b786e25d9fb5","ios":"levelo://app?vid=de48770f-d59f-4b34-8519-b786e25d9fb5"},"vehicle_type_id":"4","last_reported":1700748398,"current_range_meters":10400,"station_id":"ce4bgt92rcd13ifvqcg0","pricing_plan_id":"free"},{"bike_id":"cb831096-b78a-4b81-9642-df22882295e9","system_id":"levelo_inurba_marseille","lat":43.308171,"lon":5.376696,"is_reserved":false,"is_disabled":false,"rental_uris":{"android":"levelo://app?vid=cb831096-b78a-4b81-9642-df22882295e9","ios":"levelo://app?vid=cb831096-b78a-4b81-9642-df22882295e9"},"vehicle_type_id":"4","last_reported":1700748398,"current_range_meters":20800,"station_id":"ce4bgv92rcd13ifvqcq0","pricing_plan_id":"free"},{"bike_id":"7bceb209-851e-409e-85dd-2e8b96e605c7","system_id":"levelo_inurba_marseille","lat":43.317075,"lon":5.377367,"is_reserved":false,"is_disabled":false,"rental_uris":{"android":"levelo://app?vid=7bceb209-851e-409e-85dd-2e8b96e605c7","ios":"levelo://app?vid=7bceb209-851e-409e-85dd-2e8b96e605c7"},"vehicle_type_id":"4","last_reported":1700748398,"current_range_meters":9600,"station_id":"ce4bgth2rcd13ifvqch0","pricing_plan_id":"free"},{"bike_id":"e6d0b92c-e6bd-4690-a39c-436a4fed7699","system_id":"levelo_inurba_marseille","lat":43.30304,"lon":5.368987,"is_reserved":false,"is_disabled":false,"rental_uris":{"android":"levelo://app?vid=e6d0b92c-e6bd-4690-a39c-436a4fed7699","ios":"levelo://app?vid=e6d0b92c-e6bd-4690-a39c-436a4fed7699"},"vehicle_type_id":"4","last_reported":1700748398,"current_range_meters":24400,"station_id":"ce4bgqh2rcd13ifvqc5g","pricing_plan_id":"free"},{"bike_id":"fd7969ee-1c50-453a-82d9-5b9d45c88b3e","system_id":"levelo_inurba_marseille","lat":43.303046,"lon":5.368981,"is_reserved":false,"is_disabled":false,"rental_uris":{"android":"levelo://app?vid=fd7969ee-1c50-453a-82d9-5b9d45c88b3e","ios":"levelo://app?vid=fd7969ee-1c50-453a-82d9-5b9d45c88b3e"},"vehicle_type_id":"4","last_reported":1700748398,"current_range_meters":9600,"station_id":"ce4bgqh2rcd13ifvqc5g","pricing_plan_id":"free"},{"bike_id":"125aecc6-c632-4f57-90d3-b3bf7daaa6fb","system_id":"levelo_inurba_marseille","lat":43.30229,"lon":5.36645,"is_reserved":false,"is_disabled":false,"rental_uris":{"android":"levelo://app?vid=125aecc6-c632-4f57-90d3-b3bf7daaa6fb","ios":"levelo://app?vid=125aecc6-c632-4f57-90d3-b3bf7daaa6fb"},"vehicle_type_id":"4","last_reported":1700748398,"current_range_meters":15200,"station_id":"ce4bgrh2rcd13ifvqc8g","pricing_plan_id":"free"},{"bike_id":"0327687b-f51e-4077-bf49-2ec73a6de092","system_id":"levelo_inurba_marseille","lat":43.322257,"lon":5.37558,"is_reserved":false,"is_disabled":false,"rental_uris":{"android":"levelo://app?vid=0327687b-f51e-4077-bf49-2ec73a6de092","ios":"levelo://app?vid=0327687b-f51e-4077-bf49-2ec73a6de092"},"vehicle_type_id":"4","last_reported":1700748398,"current_range_meters":12000,"station_id":"","pricing_plan_id":"free"},{"bike_id":"f414e5eb-c8b3-4097-87a2-2d4946e413a1","system_id":"levelo_inurba_marseille","lat":43.31014,"lon":5.38267,"is_reserved":false,"is_disabled":false,"rental_uris":{"android":"levelo://app?vid=f414e5eb-c8b3-4097-87a2-2d4946e413a1","ios":"levelo://app?vid=f414e5eb-c8b3-4097-87a2-2d4946e413a1"},"vehicle_type_id":"4","last_reported":1700748398,"current_range_meters":26800,"station_id":"","pricing_plan_id":"free"},{"bike_id":"08d156cb-a91c-4c54-8b47-ff1324ff1b30","system_id":"levelo_inurba_marseille","lat":43.304606,"lon":5.379026,"is_reserved":false,"is_disabled":false,"rental_uris":{"android":"levelo://app?vid=08d156cb-a91c-4c54-8b47-ff1324ff1b30","ios":"levelo://app?vid=08d156cb-a91c-4c54-8b47-ff1324ff1b30"},"vehicle_type_id":"4","last_reported":1700748398,"current_range_meters":24000,"station_id":"ce4bgup2rcd13ifvqcn0","pricing_plan_id":"free"},{"bike_id":"18955299-5342-42de-ada3-8437b899b44e","system_id":"levelo_inurba_marseille","lat":43.304606,"lon":5.379026,"is_reserved":false,"is_disabled":false,"rental_uris":{"android":"levelo://app?vid=18955299-5342-42de-ada3-8437b899b44e","ios":"levelo://app?vid=18955299-5342-42de-ada3-8437b899b44e"},"vehicle_type_id":"4","last_reported":1700748398,"current_range_meters":22400,"station_id":"ce4bgup2rcd13ifvqcn0","pricing_plan_id":"free"},{"bike_id":"38e55200-3018-4c8c-bea9-6b07d07d4c3e","system_id":"levelo_inurba_marseille","lat":43.304606,"lon":5.379026,"is_reserved":false,"is_disabled":false,"rental_uris":{"android":"levelo://app?vid=38e55200-3018-4c8c-bea9-6b07d07d4c3e","ios":"levelo://app?vid=38e55200-3018-4c8c-bea9-6b07d07d4c3e"},"vehicle_type_id":"4","last_reported":1700748398,"current_range_meters":24400,"station_id":"ce4bgup2rcd13ifvqcn0","pricing_plan_id":"free"},{"bike_id":"2088ff74-7f17-4d01-ae11-099fa9f85173","system_id":"levelo_inurba_marseille","lat":43.304606,"lon":5.379026,"is_reserved":false,"is_disabled":false,"rental_uris":{"android":"levelo://app?vid=2088ff74-7f17-4d01-ae11-099fa9f85173","ios":"levelo://app?vid=2088ff74-7f17-4d01-ae11-099fa9f85173"},"vehicle_type_id":"4","last_reported":1700748398,"current_range_meters":6000,"station_id":"ce4bgup2rcd13ifvqcn0","pricing_plan_id":"free"},{"bike_id":"9b23fc13-b691-4871-8306-cb52a4ca9417","system_id":"levelo_inurba_marseille","lat":43.324767,"lon":5.365517,"is_reserved":false,"is_disabled":false,"rental_uris":{"android":"levelo://app?vid=9b23fc13-b691-4871-8306-cb52a4ca9417","ios":"levelo://app?vid=9b23fc13-b691-4871-8306-cb52a4ca9417"},"vehicle_type_id":"4","last_reported":1700748398,"current_range_meters":5200,"station_id":"ce4bhs12rcd13ifvqhvg","pricing_plan_id":"free"},{"bike_id":"86bb4d97-b3ba-453d-ade9-75d6e6377e4e","system_id":"levelo_inurba_marseille","lat":43.302864,"lon":5.376926,"is_reserved":false,"is_disabled":false,"rental_uris":{"android":"levelo://app?vid=86bb4d97-b3ba-453d-ade9-75d6e6377e4e","ios":"levelo://app?vid=86bb4d97-b3ba-453d-ade9-75d6e6377e4e"},"vehicle_type_id":"4","last_reported":1700748398,"current_range_meters":17600,"station_id":"ce4bguh2rcd13ifvqcj0","pricing_plan_id":"free"},{"bike_id":"c7de65aa-bba4-4cbd-a70e-8be8210fca66","system_id":"levelo_inurba_marseille","lat":43.301429,"lon":5.37413,"is_reserved":false,"is_disabled":false,"rental_uris":{"android":"levelo://app?vid=c7de65aa-bba4-4cbd-a70e-8be8210fca66","ios":"levelo://app?vid=c7de65aa-bba4-4cbd-a70e-8be8210fca66"},"vehicle_type_id":"4","last_reported":1700748398,"current_range_meters":29200,"station_id":"ce4bgs92rcd13ifvqcc0","pricing_plan_id":"free"},{"bike_id":"2487c11e-73cb-4da2-b2b0-4e8b6240048f","system_id":"levelo_inurba_marseille","lat":43.31367,"lon":5.38492,"is_reserved":false,"is_disabled":false,"rental_uris":{"android":"levelo://app?vid=2487c11e-73cb-4da2-b2b0-4e8b6240048f","ios":"levelo://app?vid=2487c11e-73cb-4da2-b2b0-4e8b6240048f"},"vehicle_type_id":"4","last_reported":1700748398,"current_range_meters":11200,"station_id":"ce4bgt92rcd13ifvqcf0","pricing_plan_id":"free"},{"bike_id":"29e3f9ee-744f-4ec6-8f3e-61ecbf32edac","system_id":"levelo_inurba_marseille","lat":43.313571,"lon":5.384829,"is_reserved":false,"is_disabled":false,"rental_uris":{"android":"levelo://app?vid=29e3f9ee-744f-4ec6-8f3e-61ecbf32edac","ios":"levelo://app?vid=29e3f9ee-744f-4ec6-8f3e-61ecbf32edac"},"vehicle_type_id":"4","last_reported":1700748398,"current_range_meters":20000,"station_id":"ce4bgt92rcd13ifvqcf0","pricing_plan_id":"free"},{"bike_id":"32d5ab05-2744-4c50-aefb-564a35a14bc6","system_id":"levelo_inurba_marseille","lat":43.313571,"lon":5.384829,"is_reserved":false,"is_disabled":false,"rental_uris":{"android":"levelo://app?vid=32d5ab05-2744-4c50-aefb-564a35a14bc6","ios":"levelo://app?vid=32d5ab05-2744-4c50-aefb-564a35a14bc6"},"vehicle_type_id":"4","last_reported":1700748398,"current_range_meters":12400,"station_id":"ce4bgt92rcd13ifvqcf0","pricing_plan_id":"free"},{"bike_id":"c989f794-fab0-4322-94c2-aa875beac8d3","system_id":"levelo_inurba_marseille","lat":43.313571,"lon":5.384829,"is_reserved":false,"is_disabled":false,"rental_uris":{"android":"levelo://app?vid=c989f794-fab0-4322-94c2-aa875beac8d3","ios":"levelo://app?vid=c989f794-fab0-4322-94c2-aa875beac8d3"},"vehicle_type_id":"4","last_reported":1700748398,"current_range_meters":17200,"station_id":"ce4bgt92rcd13ifvqcf0","pricing_plan_id":"free"},{"bike_id":"7ff68158-80aa-47ff-b9d0-c821faf454a3","system_id":"levelo_inurba_marseille","lat":43.299724,"lon":5.371829,"is_reserved":false,"is_disabled":false,"rental_uris":{"android":"levelo://app?vid=7ff68158-80aa-47ff-b9d0-c821faf454a3","ios":"levelo://app?vid=7ff68158-80aa-47ff-b9d0-c821faf454a3"},"vehicle_type_id":"4","last_reported":1700748398,"current_range_meters":30000,"station_id":"ce4bgr92rcd13ifvqc7g","pricing_plan_id":"free"},{"bike_id":"f9dd83c0-250a-4e2d-86dc-aa9dbef8d832","system_id":"levelo_inurba_marseille","lat":43.311767,"lon":5.386677,"is_reserved":false,"is_disabled":false,"rental_uris":{"android":"levelo://app?vid=f9dd83c0-250a-4e2d-86dc-aa9dbef8d832","ios":"levelo://app?vid=f9dd83c0-250a-4e2d-86dc-aa9dbef8d832"},"vehicle_type_id":"4","last_reported":1700748398,"current_range_meters":19600,"station_id":"ce4bgv12rcd13ifvqcp0","pricing_plan_id":"free"},{"bike_id":"47426855-20a4-4f91-b86e-154b78259341","system_id":"levelo_inurba_marseille","lat":43.298433,"lon":5.362774,"is_reserved":false,"is_disabled":false,"rental_uris":{"android":"levelo://app?vid=47426855-20a4-4f91-b86e-154b78259341","ios":"levelo://app?vid=47426855-20a4-4f91-b86e-154b78259341"},"vehicle_type_id":"4","last_reported":1700748398,"current_range_meters":30400,"station_id":"ce4bgpp2rcd13ifvqc3g","pricing_plan_id":"free"},{"bike_id":"0698ae28-831d-4bdd-835e-e7fbf830b44e","system_id":"levelo_inurba_marseille","lat":43.29841,"lon":5.36264,"is_reserved":false,"is_disabled":false,"rental_uris":{"android":"levelo://app?vid=0698ae28-831d-4bdd-835e-e7fbf830b44e","ios":"levelo://app?vid=0698ae28-831d-4bdd-835e-e7fbf830b44e"},"vehicle_type_id":"4","last_reported":1700748398,"current_range_meters":1600,"station_id":"ce4bgpp2rcd13ifvqc3g","pricing_plan_id":"free"},{"bike_id":"ecdd082c-8b3b-4507-8e29-667bdf0c263a","system_id":"levelo_inurba_marseille","lat":43.298433,"lon":5.362774,"is_reserved":false,"is_disabled":false,"rental_uris":{"android":"levelo://app?vid=ecdd082c-8b3b-4507-8e29-667bdf0c263a","ios":"levelo://app?vid=ecdd082c-8b3b-4507-8e29-667bdf0c263a"},"vehicle_type_id":"4","last_reported":1700748398,"current_range_meters":31200,"station_id":"ce4bgpp2rcd13ifvqc3g","pricing_plan_id":"free"},{"bike_id":"7c2da0d0-a81f-41da-8466-5382aaeb8659","system_id":"levelo_inurba_marseille","lat":43.299243,"lon":5.37481,"is_reserved":false,"is_disabled":false,"rental_uris":{"android":"levelo://app?vid=7c2da0d0-a81f-41da-8466-5382aaeb8659","ios":"levelo://app?vid=7c2da0d0-a81f-41da-8466-5382aaeb8659"},"vehicle_type_id":"4","last_reported":1700748398,"current_range_meters":2000,"station_id":"ce4bgjh2rcd13ifvqbg0","pricing_plan_id":"free"},{"bike_id":"8eba78b5-443f-4d2e-a61b-29f3c06a86f7","system_id":"levelo_inurba_marseille","lat":43.299243,"lon":5.37481,"is_reserved":false,"is_disabled":false,"rental_uris":{"android":"levelo://app?vid=8eba78b5-443f-4d2e-a61b-29f3c06a86f7","ios":"levelo://app?vid=8eba78b5-443f-4d2e-a61b-29f3c06a86f7"},"vehicle_type_id":"4","last_reported":1700748398,"current_range_meters":10800,"station_id":"ce4bgjh2rcd13ifvqbg0","pricing_plan_id":"free"},{"bike_id":"ba408004-358d-4308-a3da-205a6617d8f2","system_id":"levelo_inurba_marseille","lat":43.328371,"lon":5.366912,"is_reserved":false,"is_disabled":false,"rental_uris":{"android":"levelo://app?vid=ba408004-358d-4308-a3da-205a6617d8f2","ios":"levelo://app?vid=ba408004-358d-4308-a3da-205a6617d8f2"},"vehicle_type_id":"4","last_reported":1700748398,"current_range_meters":12400,"station_id":"ce4bhs92rcd13ifvqi0g","pricing_plan_id":"free"},{"bike_id":"6eb7547f-6a59-4ffd-a5fa-c44fb531db6b","system_id":"levelo_inurba_marseille","lat":43.328371,"lon":5.366912,"is_reserved":false,"is_disabled":false,"rental_uris":{"android":"levelo://app?vid=6eb7547f-6a59-4ffd-a5fa-c44fb531db6b","ios":"levelo://app?vid=6eb7547f-6a59-4ffd-a5fa-c44fb531db6b"},"vehicle_type_id":"4","last_reported":1700748398,"current_range_meters":25200,"station_id":"ce4bhs92rcd13ifvqi0g","pricing_plan_id":"free"},{"bike_id":"4d7509f5-9559-42ca-a60d-bef9e80f0981","system_id":"levelo_inurba_marseille","lat":43.29961,"lon":5.379154,"is_reserved":false,"is_disabled":false,"rental_uris":{"android":"levelo://app?vid=4d7509f5-9559-42ca-a60d-bef9e80f0981","ios":"levelo://app?vid=4d7509f5-9559-42ca-a60d-bef9e80f0981"},"vehicle_type_id":"4","last_reported":1700748398,"current_range_meters":0,"station_id":"","pricing_plan_id":"free"},{"bike_id":"22a7c49f-dd58-41dd-9065-d74caffd8392","system_id":"levelo_inurba_marseille","lat":43.29573,"lon":5.367355,"is_reserved":false,"is_disabled":false,"rental_uris":{"android":"levelo://app?vid=22a7c49f-dd58-41dd-9065-d74caffd8392","ios":"levelo://app?vid=22a7c49f-dd58-41dd-9065-d74caffd8392"},"vehicle_type_id":"4","last_reported":1700748398,"current_range_meters":28000,"station_id":"ce4bgph2rcd13ifvqc2g","pricing_plan_id":"free"},{"bike_id":"85ec3f19-bbed-46bf-86de-60cee6a37aae","system_id":"levelo_inurba_marseille","lat":43.296921,"lon":5.376579,"is_reserved":false,"is_disabled":false,"rental_uris":{"android":"levelo://app?vid=85ec3f19-bbed-46bf-86de-60cee6a37aae","ios":"levelo://app?vid=85ec3f19-bbed-46bf-86de-60cee6a37aae"},"vehicle_type_id":"4","last_reported":1700748398,"current_range_meters":8000,"station_id":"ce4bgkh2rcd13ifvqbl0","pricing_plan_id":"free"},{"bike_id":"2f8459d1-0daa-4a58-ac8b-64a3bcf76b97","system_id":"levelo_inurba_marseille","lat":43.30958,"lon":5.39038,"is_reserved":false,"is_disabled":false,"rental_uris":{"android":"levelo://app?vid=2f8459d1-0daa-4a58-ac8b-64a3bcf76b97","ios":"levelo://app?vid=2f8459d1-0daa-4a58-ac8b-64a3bcf76b97"},"vehicle_type_id":"4","last_reported":1700748398,"current_range_meters":6800,"station_id":"ce4bgup2rcd13ifvqco0","pricing_plan_id":"free"},{"bike_id":"2c076d2e-0ffb-4579-8042-6386aa90aa69","system_id":"levelo_inurba_marseille","lat":43.317557,"lon":5.390173,"is_reserved":false,"is_disabled":false,"rental_uris":{"android":"levelo://app?vid=2c076d2e-0ffb-4579-8042-6386aa90aa69","ios":"levelo://app?vid=2c076d2e-0ffb-4579-8042-6386aa90aa69"},"vehicle_type_id":"4","last_reported":1700748398,"current_range_meters":27200,"station_id":"ce4bhqp2rcd13ifvqhng","pricing_plan_id":"free"},{"bike_id":"186e820a-41c1-40cb-b5ca-9c9328f8e485","system_id":"levelo_inurba_marseille","lat":43.317557,"lon":5.390173,"is_reserved":false,"is_disabled":false,"rental_uris":{"android":"levelo://app?vid=186e820a-41c1-40cb-b5ca-9c9328f8e485","ios":"levelo://app?vid=186e820a-41c1-40cb-b5ca-9c9328f8e485"},"vehicle_type_id":"4","last_reported":1700748398,"current_range_meters":31200,"station_id":"ce4bhqp2rcd13ifvqhng","pricing_plan_id":"free"},{"bike_id":"ea080739-67fe-4b29-ad93-68fd11146174","system_id":"levelo_inurba_marseille","lat":43.31757,"lon":5.39024,"is_reserved":false,"is_disabled":false,"rental_uris":{"android":"levelo://app?vid=ea080739-67fe-4b29-ad93-68fd11146174","ios":"levelo://app?vid=ea080739-67fe-4b29-ad93-68fd11146174"},"vehicle_type_id":"4","last_reported":1700748398,"current_range_meters":0,"station_id":"ce4bhqp2rcd13ifvqhng","pricing_plan_id":"free"},{"bike_id":"0430314f-7c85-4c62-a48e-fb4c4cbf6ac5","system_id":"levelo_inurba_marseille","lat":43.298037,"lon":5.381066,"is_reserved":false,"is_disabled":false,"rental_uris":{"android":"levelo://app?vid=0430314f-7c85-4c62-a48e-fb4c4cbf6ac5","ios":"levelo://app?vid=0430314f-7c85-4c62-a48e-fb4c4cbf6ac5"},"vehicle_type_id":"4","last_reported":1700748398,"current_range_meters":26800,"station_id":"ce4bgip2rcd13ifvqbb0","pricing_plan_id":"free"},{"bike_id":"dd42bd8d-576f-43a4-9d7e-d328a4c567fb","system_id":"levelo_inurba_marseille","lat":43.295748,"lon":5.37522,"is_reserved":false,"is_disabled":false,"rental_uris":{"android":"levelo://app?vid=dd42bd8d-576f-43a4-9d7e-d328a4c567fb","ios":"levelo://app?vid=dd42bd8d-576f-43a4-9d7e-d328a4c567fb"},"vehicle_type_id":"4","last_reported":1700748398,"current_range_meters":0,"station_id":"ce4bgh92rcd13ifvqb50","pricing_plan_id":"free"},{"bike_id":"836aefc0-b45b-45a2-8bf1-d4a62b386eb2","system_id":"levelo_inurba_marseille","lat":43.29793,"lon":5.38126,"is_reserved":false,"is_disabled":false,"rental_uris":{"android":"levelo://app?vid=836aefc0-b45b-45a2-8bf1-d4a62b386eb2","ios":"levelo://app?vid=836aefc0-b45b-45a2-8bf1-d4a62b386eb2"},"vehicle_type_id":"4","last_reported":1700748398,"current_range_meters":24800,"station_id":"ce4bgip2rcd13ifvqbb0","pricing_plan_id":"free"},{"bike_id":"f4b561a8-814c-48ac-a2e1-9d6c7afaf96f","system_id":"levelo_inurba_marseille","lat":43.296263,"lon":5.377094,"is_reserved":false,"is_disabled":false,"rental_uris":{"android":"levelo://app?vid=f4b561a8-814c-48ac-a2e1-9d6c7afaf96f","ios":"levelo://app?vid=f4b561a8-814c-48ac-a2e1-9d6c7afaf96f"},"vehicle_type_id":"4","last_reported":1700748398,"current_range_meters":0,"station_id":"ce4bgi92rcd13ifvqb90","pricing_plan_id":"free"},{"bike_id":"dc23b09b-aeb1-46d4-9231-158ca57f9cec","system_id":"levelo_inurba_marseille","lat":43.296049,"lon":5.377149,"is_reserved":false,"is_disabled":false,"rental_uris":{"android":"levelo://app?vid=dc23b09b-aeb1-46d4-9231-158ca57f9cec","ios":"levelo://app?vid=dc23b09b-aeb1-46d4-9231-158ca57f9cec"},"vehicle_type_id":"4","last_reported":1700748398,"current_range_meters":31600,"station_id":"ce4bgi92rcd13ifvqb90","pricing_plan_id":"free"},{"bike_id":"f55dff8c-ebec-40f8-9644-bb1ea587e440","system_id":"levelo_inurba_marseille","lat":43.29779,"lon":5.38142,"is_reserved":false,"is_disabled":false,"rental_uris":{"android":"levelo://app?vid=f55dff8c-ebec-40f8-9644-bb1ea587e440","ios":"levelo://app?vid=f55dff8c-ebec-40f8-9644-bb1ea587e440"},"vehicle_type_id":"4","last_reported":1700748398,"current_range_meters":0,"station_id":"ce4bgip2rcd13ifvqbb0","pricing_plan_id":"free"},{"bike_id":"e10f3647-7e11-4c1b-88b6-9ed13079c608","system_id":"levelo_inurba_marseille","lat":43.295279,"lon":5.375048,"is_reserved":false,"is_disabled":false,"rental_uris":{"android":"levelo://app?vid=e10f3647-7e11-4c1b-88b6-9ed13079c608","ios":"levelo://app?vid=e10f3647-7e11-4c1b-88b6-9ed13079c608"},"vehicle_type_id":"4","last_reported":1700748398,"current_range_meters":14800,"station_id":"ce4bgkp2rcd13ifvqbmg","pricing_plan_id":"free"},{"bike_id":"68ed0ef4-6919-49af-9761-7137399cceeb","system_id":"levelo_inurba_marseille","lat":43.299717,"lon":5.384845,"is_reserved":false,"is_disabled":false,"rental_uris":{"android":"levelo://app?vid=68ed0ef4-6919-49af-9761-7137399cceeb","ios":"levelo://app?vid=68ed0ef4-6919-49af-9761-7137399cceeb"},"vehicle_type_id":"4","last_reported":1700748398,"current_range_meters":23600,"station_id":"ce4bgj92rcd13ifvqbd0","pricing_plan_id":"free"},{"bike_id":"6b621983-5e9e-42f7-990d-ad5a093820d2","system_id":"levelo_inurba_marseille","lat":43.293801,"lon":5.363066,"is_reserved":false,"is_disabled":false,"rental_uris":{"android":"levelo://app?vid=6b621983-5e9e-42f7-990d-ad5a093820d2","ios":"levelo://app?vid=6b621983-5e9e-42f7-990d-ad5a093820d2"},"vehicle_type_id":"4","last_reported":1700748398,"current_range_meters":8400,"station_id":"","pricing_plan_id":"free"},{"bike_id":"5ce27df6-944f-4882-ad35-b34416267220","system_id":"levelo_inurba_marseille","lat":43.32368,"lon":5.38881,"is_reserved":false,"is_disabled":false,"rental_uris":{"android":"levelo://app?vid=5ce27df6-944f-4882-ad35-b34416267220","ios":"levelo://app?vid=5ce27df6-944f-4882-ad35-b34416267220"},"vehicle_type_id":"4","last_reported":1700748398,"current_range_meters":19600,"station_id":"ce4bhqp2rcd13ifvqhog","pricing_plan_id":"free"},{"bike_id":"f79faaab-e540-4522-aa4e-2144b57e195a","system_id":"levelo_inurba_marseille","lat":43.29601,"lon":5.381084,"is_reserved":false,"is_disabled":false,"rental_uris":{"android":"levelo://app?vid=f79faaab-e540-4522-aa4e-2144b57e195a","ios":"levelo://app?vid=f79faaab-e540-4522-aa4e-2144b57e195a"},"vehicle_type_id":"4","last_reported":1700748398,"current_range_meters":29200,"station_id":"ce4bgl12rcd13ifvqbo0","pricing_plan_id":"free"},{"bike_id":"3dfda46c-cba2-4d10-bdd6-fef7c7b38285","system_id":"levelo_inurba_marseille","lat":43.29602,"lon":5.381084,"is_reserved":false,"is_disabled":false,"rental_uris":{"android":"levelo://app?vid=3dfda46c-cba2-4d10-bdd6-fef7c7b38285","ios":"levelo://app?vid=3dfda46c-cba2-4d10-bdd6-fef7c7b38285"},"vehicle_type_id":"4","last_reported":1700748398,"current_range_meters":19200,"station_id":"ce4bgl12rcd13ifvqbo0","pricing_plan_id":"free"},{"bike_id":"a2c614f5-634e-471c-81a0-50bcec09214b","system_id":"levelo_inurba_marseille","lat":43.305994,"lon":5.393687,"is_reserved":false,"is_disabled":false,"rental_uris":{"android":"levelo://app?vid=a2c614f5-634e-471c-81a0-50bcec09214b","ios":"levelo://app?vid=a2c614f5-634e-471c-81a0-50bcec09214b"},"vehicle_type_id":"4","last_reported":1700748398,"current_range_meters":4000,"station_id":"ce4bh0p2rcd13ifvqd80","pricing_plan_id":"free"},{"bike_id":"569c17c9-bd9e-4863-81a4-570e9ed10524","system_id":"levelo_inurba_marseille","lat":43.292311,"lon":5.360731,"is_reserved":false,"is_disabled":false,"rental_uris":{"android":"levelo://app?vid=569c17c9-bd9e-4863-81a4-570e9ed10524","ios":"levelo://app?vid=569c17c9-bd9e-4863-81a4-570e9ed10524"},"vehicle_type_id":"4","last_reported":1700748398,"current_range_meters":20400,"station_id":"ce4bhbh2rcd13ifvqeqg","pricing_plan_id":"free"},{"bike_id":"a8b0b886-f8c5-47ab-bcda-5b16d4111aa8","system_id":"levelo_inurba_marseille","lat":43.292311,"lon":5.360731,"is_reserved":false,"is_disabled":false,"rental_uris":{"android":"levelo://app?vid=a8b0b886-f8c5-47ab-bcda-5b16d4111aa8","ios":"levelo://app?vid=a8b0b886-f8c5-47ab-bcda-5b16d4111aa8"},"vehicle_type_id":"4","last_reported":1700748398,"current_range_meters":15600,"station_id":"ce4bhbh2rcd13ifvqeqg","pricing_plan_id":"free"},{"bike_id":"7873a42b-c6ec-4a83-a6c8-157d8d929f54","system_id":"levelo_inurba_marseille","lat":43.292311,"lon":5.360731,"is_reserved":false,"is_disabled":false,"rental_uris":{"android":"levelo://app?vid=7873a42b-c6ec-4a83-a6c8-157d8d929f54","ios":"levelo://app?vid=7873a42b-c6ec-4a83-a6c8-157d8d929f54"},"vehicle_type_id":"4","last_reported":1700748398,"current_range_meters":10800,"station_id":"ce4bhbh2rcd13ifvqeqg","pricing_plan_id":"free"},{"bike_id":"cb287544-5688-4f4c-8f9c-aa08d45d2540","system_id":"levelo_inurba_marseille","lat":43.291671,"lon":5.371575,"is_reserved":false,"is_disabled":false,"rental_uris":{"android":"levelo://app?vid=cb287544-5688-4f4c-8f9c-aa08d45d2540","ios":"levelo://app?vid=cb287544-5688-4f4c-8f9c-aa08d45d2540"},"vehicle_type_id":"4","last_reported":1700748398,"current_range_meters":14400,"station_id":"ce4bha92rcd13ifvqeh0","pricing_plan_id":"free"},{"bike_id":"2c8bedc8-efbf-41f5-94f0-1dbcab376980","system_id":"levelo_inurba_marseille","lat":43.292642,"lon":5.384254,"is_reserved":false,"is_disabled":false,"rental_uris":{"android":"levelo://app?vid=2c8bedc8-efbf-41f5-94f0-1dbcab376980","ios":"levelo://app?vid=2c8bedc8-efbf-41f5-94f0-1dbcab376980"},"vehicle_type_id":"4","last_reported":1700748398,"current_range_meters":24800,"station_id":"ce4bh692rcd13ifvqea0","pricing_plan_id":"free"},{"bike_id":"a20178dc-54bc-47ee-b68f-90da1b48dd00","system_id":"levelo_inurba_marseille","lat":43.291675,"lon":5.371583,"is_reserved":false,"is_disabled":false,"rental_uris":{"android":"levelo://app?vid=a20178dc-54bc-47ee-b68f-90da1b48dd00","ios":"levelo://app?vid=a20178dc-54bc-47ee-b68f-90da1b48dd00"},"vehicle_type_id":"4","last_reported":1700748398,"current_range_meters":14800,"station_id":"ce4bha92rcd13ifvqeh0","pricing_plan_id":"free"},{"bike_id":"1d019962-653f-4328-a2c2-f770d59f3b3c","system_id":"levelo_inurba_marseille","lat":43.291994,"lon":5.357886,"is_reserved":false,"is_disabled":false,"rental_uris":{"android":"levelo://app?vid=1d019962-653f-4328-a2c2-f770d59f3b3c","ios":"levelo://app?vid=1d019962-653f-4328-a2c2-f770d59f3b3c"},"vehicle_type_id":"4","last_reported":1700748398,"current_range_meters":22400,"station_id":"ce4bhb12rcd13ifvqel0","pricing_plan_id":"free"},{"bike_id":"02976f59-dc1b-4e50-b33c-befc236041b9","system_id":"levelo_inurba_marseille","lat":43.309038,"lon":5.396546,"is_reserved":false,"is_disabled":false,"rental_uris":{"android":"levelo://app?vid=02976f59-dc1b-4e50-b33c-befc236041b9","ios":"levelo://app?vid=02976f59-dc1b-4e50-b33c-befc236041b9"},"vehicle_type_id":"4","last_reported":1700748398,"current_range_meters":24800,"station_id":"ce4bh012rcd13ifvqcv0","pricing_plan_id":"free"},{"bike_id":"27613887-1100-44c0-9da4-2565d2dd315e","system_id":"levelo_inurba_marseille","lat":43.309038,"lon":5.396546,"is_reserved":false,"is_disabled":false,"rental_uris":{"android":"levelo://app?vid=27613887-1100-44c0-9da4-2565d2dd315e","ios":"levelo://app?vid=27613887-1100-44c0-9da4-2565d2dd315e"},"vehicle_type_id":"4","last_reported":1700748398,"current_range_meters":27600,"station_id":"ce4bh012rcd13ifvqcv0","pricing_plan_id":"free"},{"bike_id":"1d10a1b1-d55f-4279-928a-9c6858f32ca9","system_id":"levelo_inurba_marseille","lat":43.33211,"lon":5.38112,"is_reserved":false,"is_disabled":false,"rental_uris":{"android":"levelo://app?vid=1d10a1b1-d55f-4279-928a-9c6858f32ca9","ios":"levelo://app?vid=1d10a1b1-d55f-4279-928a-9c6858f32ca9"},"vehicle_type_id":"4","last_reported":1700748398,"current_range_meters":0,"station_id":"","pricing_plan_id":"free"},{"bike_id":"d5a32038-784b-4418-bfef-038c7981b2f0","system_id":"levelo_inurba_marseille","lat":43.29029,"lon":5.36917,"is_reserved":false,"is_disabled":false,"rental_uris":{"android":"levelo://app?vid=d5a32038-784b-4418-bfef-038c7981b2f0","ios":"levelo://app?vid=d5a32038-784b-4418-bfef-038c7981b2f0"},"vehicle_type_id":"4","last_reported":1700748398,"current_range_meters":22800,"station_id":"","pricing_plan_id":"free"},{"bike_id":"08d49d48-3896-4f4d-9e7e-3b61182b41e6","system_id":"levelo_inurba_marseille","lat":43.28993,"lon":5.36675,"is_reserved":false,"is_disabled":false,"rental_uris":{"android":"levelo://app?vid=08d49d48-3896-4f4d-9e7e-3b61182b41e6","ios":"levelo://app?vid=08d49d48-3896-4f4d-9e7e-3b61182b41e6"},"vehicle_type_id":"4","last_reported":1700748398,"current_range_meters":22800,"station_id":"","pricing_plan_id":"free"},{"bike_id":"d4b9eaa4-7ab0-49f7-bdd8-da4b1782c730","system_id":"levelo_inurba_marseille","lat":43.290624,"lon":5.359245,"is_reserved":false,"is_disabled":false,"rental_uris":{"android":"levelo://app?vid=d4b9eaa4-7ab0-49f7-bdd8-da4b1782c730","ios":"levelo://app?vid=d4b9eaa4-7ab0-49f7-bdd8-da4b1782c730"},"vehicle_type_id":"4","last_reported":1700748398,"current_range_meters":17200,"station_id":"ce4bha92rcd13ifvqeg0","pricing_plan_id":"free"},{"bike_id":"fefbeac1-fb59-4201-9842-33dfbd32608c","system_id":"levelo_inurba_marseille","lat":43.290327,"lon":5.375711,"is_reserved":false,"is_disabled":false,"rental_uris":{"android":"levelo://app?vid=fefbeac1-fb59-4201-9842-33dfbd32608c","ios":"levelo://app?vid=fefbeac1-fb59-4201-9842-33dfbd32608c"},"vehicle_type_id":"4","last_reported":1700748398,"current_range_meters":10000,"station_id":"ce4bh692rcd13ifvqe90","pricing_plan_id":"free"},{"bike_id":"7d3fa9a0-1ba3-4ceb-922e-c837bdce4b2e","system_id":"levelo_inurba_marseille","lat":43.294162,"lon":5.386292,"is_reserved":false,"is_disabled":false,"rental_uris":{"android":"levelo://app?vid=7d3fa9a0-1ba3-4ceb-922e-c837bdce4b2e","ios":"levelo://app?vid=7d3fa9a0-1ba3-4ceb-922e-c837bdce4b2e"},"vehicle_type_id":"4","last_reported":1700748398,"current_range_meters":12800,"station_id":"ce4bh2h2rcd13ifvqdh0","pricing_plan_id":"free"},{"bike_id":"4b3c47ae-5404-4d74-a3d1-c38a1f81e6f8","system_id":"levelo_inurba_marseille","lat":43.292644,"lon":5.384257,"is_reserved":false,"is_disabled":false,"rental_uris":{"android":"levelo://app?vid=4b3c47ae-5404-4d74-a3d1-c38a1f81e6f8","ios":"levelo://app?vid=4b3c47ae-5404-4d74-a3d1-c38a1f81e6f8"},"vehicle_type_id":"4","last_reported":1700748398,"current_range_meters":12400,"station_id":"ce4bh692rcd13ifvqea0","pricing_plan_id":"free"},{"bike_id":"91f43715-e29c-420b-86ac-1e6c1a18d185","system_id":"levelo_inurba_marseille","lat":43.31003,"lon":5.39941,"is_reserved":false,"is_disabled":false,"rental_uris":{"android":"levelo://app?vid=91f43715-e29c-420b-86ac-1e6c1a18d185","ios":"levelo://app?vid=91f43715-e29c-420b-86ac-1e6c1a18d185"},"vehicle_type_id":"4","last_reported":1700748398,"current_range_meters":0,"station_id":"","pricing_plan_id":"free"},{"bike_id":"eca41d03-e8e8-4e10-a268-a39814ec3a36","system_id":"levelo_inurba_marseille","lat":43.292642,"lon":5.384254,"is_reserved":false,"is_disabled":false,"rental_uris":{"android":"levelo://app?vid=eca41d03-e8e8-4e10-a268-a39814ec3a36","ios":"levelo://app?vid=eca41d03-e8e8-4e10-a268-a39814ec3a36"},"vehicle_type_id":"4","last_reported":1700748398,"current_range_meters":23600,"station_id":"ce4bh692rcd13ifvqea0","pricing_plan_id":"free"},{"bike_id":"01dbf74b-4187-4340-830a-91b80edad541","system_id":"levelo_inurba_marseille","lat":43.283498,"lon":5.380948,"is_reserved":false,"is_disabled":false,"rental_uris":{"android":"levelo://app?vid=01dbf74b-4187-4340-830a-91b80edad541","ios":"levelo://app?vid=01dbf74b-4187-4340-830a-91b80edad541"},"vehicle_type_id":"4","last_reported":1700748398,"current_range_meters":8400,"station_id":"ce4bh412rcd13ifvqdr0","pricing_plan_id":"free"},{"bike_id":"24f56446-3f79-4b37-a144-f5682bb3d8f8","system_id":"levelo_inurba_marseille","lat":43.297815,"lon":5.393548,"is_reserved":false,"is_disabled":false,"rental_uris":{"android":"levelo://app?vid=24f56446-3f79-4b37-a144-f5682bb3d8f8","ios":"levelo://app?vid=24f56446-3f79-4b37-a144-f5682bb3d8f8"},"vehicle_type_id":"4","last_reported":1700748398,"current_range_meters":6000,"station_id":"chh1huq6cuj3fo74tm60","pricing_plan_id":"free"},{"bike_id":"c6268d9c-23b0-4aea-8a5b-45506a2ba46f","system_id":"levelo_inurba_marseille","lat":43.28856,"lon":5.358371,"is_reserved":false,"is_disabled":false,"rental_uris":{"android":"levelo://app?vid=c6268d9c-23b0-4aea-8a5b-45506a2ba46f","ios":"levelo://app?vid=c6268d9c-23b0-4aea-8a5b-45506a2ba46f"},"vehicle_type_id":"4","last_reported":1700748398,"current_range_meters":11200,"station_id":"ce4bhb12rcd13ifvqem0","pricing_plan_id":"free"},{"bike_id":"2413b7d1-ee6b-43cf-b7ba-28db4b1c7f79","system_id":"levelo_inurba_marseille","lat":43.290094,"lon":5.381264,"is_reserved":false,"is_disabled":false,"rental_uris":{"android":"levelo://app?vid=2413b7d1-ee6b-43cf-b7ba-28db4b1c7f79","ios":"levelo://app?vid=2413b7d1-ee6b-43cf-b7ba-28db4b1c7f79"},"vehicle_type_id":"4","last_reported":1700748398,"current_range_meters":12400,"station_id":"ce4bh4p2rcd13ifvqe1g","pricing_plan_id":"free"},{"bike_id":"fe3fce50-a026-4603-9124-6562a9e76b5b","system_id":"levelo_inurba_marseille","lat":43.312609,"lon":5.401662,"is_reserved":false,"is_disabled":false,"rental_uris":{"android":"levelo://app?vid=fe3fce50-a026-4603-9124-6562a9e76b5b","ios":"levelo://app?vid=fe3fce50-a026-4603-9124-6562a9e76b5b"},"vehicle_type_id":"4","last_reported":1700748398,"current_range_meters":16800,"station_id":"ce4bh092rcd13ifvqd30","pricing_plan_id":"free"},{"bike_id":"e69674a4-3d05-4df2-9b22-5957237c91c2","system_id":"levelo_inurba_marseille","lat":43.30937,"lon":5.40144,"is_reserved":false,"is_disabled":false,"rental_uris":{"android":"levelo://app?vid=e69674a4-3d05-4df2-9b22-5957237c91c2","ios":"levelo://app?vid=e69674a4-3d05-4df2-9b22-5957237c91c2"},"vehicle_type_id":"4","last_reported":1700748398,"current_range_meters":19200,"station_id":"ce4bgvp2rcd13ifvqct0","pricing_plan_id":"free"},{"bike_id":"f4703f53-fc0c-4106-a791-3054c14004d0","system_id":"levelo_inurba_marseille","lat":43.33751,"lon":5.37456,"is_reserved":false,"is_disabled":false,"rental_uris":{"android":"levelo://app?vid=f4703f53-fc0c-4106-a791-3054c14004d0","ios":"levelo://app?vid=f4703f53-fc0c-4106-a791-3054c14004d0"},"vehicle_type_id":"4","last_reported":1700748398,"current_range_meters":24800,"station_id":"","pricing_plan_id":"free"},{"bike_id":"231697f5-a9cf-401c-b59d-9e1dfd17de0a","system_id":"levelo_inurba_marseille","lat":43.30654,"lon":5.40088,"is_reserved":false,"is_disabled":false,"rental_uris":{"android":"levelo://app?vid=231697f5-a9cf-401c-b59d-9e1dfd17de0a","ios":"levelo://app?vid=231697f5-a9cf-401c-b59d-9e1dfd17de0a"},"vehicle_type_id":"4","last_reported":1700748398,"current_range_meters":24800,"station_id":"ce4bh112rcd13ifvqda0","pricing_plan_id":"free"},{"bike_id":"91de118e-c0ad-4949-96b8-27d7eb195e4b","system_id":"levelo_inurba_marseille","lat":43.306426,"lon":5.400949,"is_reserved":false,"is_disabled":false,"rental_uris":{"android":"levelo://app?vid=91de118e-c0ad-4949-96b8-27d7eb195e4b","ios":"levelo://app?vid=91de118e-c0ad-4949-96b8-27d7eb195e4b"},"vehicle_type_id":"4","last_reported":1700748398,"current_range_meters":3600,"station_id":"ce4bh112rcd13ifvqda0","pricing_plan_id":"free"},{"bike_id":"0e3bd264-22aa-4214-96a8-95f11b524e44","system_id":"levelo_inurba_marseille","lat":43.30643,"lon":5.40119,"is_reserved":false,"is_disabled":false,"rental_uris":{"android":"levelo://app?vid=0e3bd264-22aa-4214-96a8-95f11b524e44","ios":"levelo://app?vid=0e3bd264-22aa-4214-96a8-95f11b524e44"},"vehicle_type_id":"4","last_reported":1700748398,"current_range_meters":12800,"station_id":"ce4bh112rcd13ifvqda0","pricing_plan_id":"free"},{"bike_id":"c1079d2f-5159-46c3-bf18-1fe61c644206","system_id":"levelo_inurba_marseille","lat":43.28727,"lon":5.36078,"is_reserved":false,"is_disabled":false,"rental_uris":{"android":"levelo://app?vid=c1079d2f-5159-46c3-bf18-1fe61c644206","ios":"levelo://app?vid=c1079d2f-5159-46c3-bf18-1fe61c644206"},"vehicle_type_id":"4","last_reported":1700748398,"current_range_meters":25200,"station_id":"cki0cbj6b192h4jlfktg","pricing_plan_id":"free"},{"bike_id":"314b1ecf-391a-424e-8789-9bc63bfef317","system_id":"levelo_inurba_marseille","lat":43.286961,"lon":5.373785,"is_reserved":false,"is_disabled":false,"rental_uris":{"android":"levelo://app?vid=314b1ecf-391a-424e-8789-9bc63bfef317","ios":"levelo://app?vid=314b1ecf-391a-424e-8789-9bc63bfef317"},"vehicle_type_id":"4","last_reported":1700748398,"current_range_meters":6800,"station_id":"ce4bh3p2rcd13ifvqdq0","pricing_plan_id":"free"},{"bike_id":"adb51488-0c55-4911-a69c-cc74978c294f","system_id":"levelo_inurba_marseille","lat":43.295194,"lon":5.39397,"is_reserved":false,"is_disabled":false,"rental_uris":{"android":"levelo://app?vid=adb51488-0c55-4911-a69c-cc74978c294f","ios":"levelo://app?vid=adb51488-0c55-4911-a69c-cc74978c294f"},"vehicle_type_id":"4","last_reported":1700748398,"current_range_meters":10000,"station_id":"ce4bh292rcd13ifvqdf0","pricing_plan_id":"free"},{"bike_id":"42e1c05e-ef31-4a36-aca0-42eee266633f","system_id":"levelo_inurba_marseille","lat":43.289307,"lon":5.38406,"is_reserved":false,"is_disabled":false,"rental_uris":{"android":"levelo://app?vid=42e1c05e-ef31-4a36-aca0-42eee266633f","ios":"levelo://app?vid=42e1c05e-ef31-4a36-aca0-42eee266633f"},"vehicle_type_id":"4","last_reported":1700748398,"current_range_meters":30400,"station_id":"ce4bh612rcd13ifvqe6g","pricing_plan_id":"free"},{"bike_id":"5b90721f-b381-441c-8994-35448eba7760","system_id":"levelo_inurba_marseille","lat":43.287184,"lon":5.37937,"is_reserved":false,"is_disabled":false,"rental_uris":{"android":"levelo://app?vid=5b90721f-b381-441c-8994-35448eba7760","ios":"levelo://app?vid=5b90721f-b381-441c-8994-35448eba7760"},"vehicle_type_id":"4","last_reported":1700748398,"current_range_meters":25600,"station_id":"ce4bh9p2rcd13ifvqec0","pricing_plan_id":"free"},{"bike_id":"adbd441f-44c4-4168-877a-9278b4bd7ceb","system_id":"levelo_inurba_marseille","lat":43.331171,"lon":5.39767,"is_reserved":false,"is_disabled":false,"rental_uris":{"android":"levelo://app?vid=adbd441f-44c4-4168-877a-9278b4bd7ceb","ios":"levelo://app?vid=adbd441f-44c4-4168-877a-9278b4bd7ceb"},"vehicle_type_id":"4","last_reported":1700748398,"current_range_meters":17600,"station_id":"","pricing_plan_id":"free"},{"bike_id":"54f901bb-c024-4f2b-9e3f-824c754ceef1","system_id":"levelo_inurba_marseille","lat":43.285856,"lon":5.350771,"is_reserved":false,"is_disabled":false,"rental_uris":{"android":"levelo://app?vid=54f901bb-c024-4f2b-9e3f-824c754ceef1","ios":"levelo://app?vid=54f901bb-c024-4f2b-9e3f-824c754ceef1"},"vehicle_type_id":"4","last_reported":1700748398,"current_range_meters":31200,"station_id":"ce4bhch2rcd13ifvqeug","pricing_plan_id":"free"},{"bike_id":"8fa59210-7369-473d-acab-2cb066414a86","system_id":"levelo_inurba_marseille","lat":43.285848,"lon":5.350787,"is_reserved":false,"is_disabled":false,"rental_uris":{"android":"levelo://app?vid=8fa59210-7369-473d-acab-2cb066414a86","ios":"levelo://app?vid=8fa59210-7369-473d-acab-2cb066414a86"},"vehicle_type_id":"4","last_reported":1700748398,"current_range_meters":31200,"station_id":"ce4bhch2rcd13ifvqeug","pricing_plan_id":"free"},{"bike_id":"91d15d98-c9e4-44d9-8d87-af97bef68da8","system_id":"levelo_inurba_marseille","lat":43.284193,"lon":5.37512,"is_reserved":false,"is_disabled":false,"rental_uris":{"android":"levelo://app?vid=91d15d98-c9e4-44d9-8d87-af97bef68da8","ios":"levelo://app?vid=91d15d98-c9e4-44d9-8d87-af97bef68da8"},"vehicle_type_id":"4","last_reported":1700748398,"current_range_meters":9200,"station_id":"ce4bh412rcd13ifvqds0","pricing_plan_id":"free"},{"bike_id":"def3a02c-7ef2-4631-bb54-6188c4bbbf67","system_id":"levelo_inurba_marseille","lat":43.283998,"lon":5.375062,"is_reserved":false,"is_disabled":false,"rental_uris":{"android":"levelo://app?vid=def3a02c-7ef2-4631-bb54-6188c4bbbf67","ios":"levelo://app?vid=def3a02c-7ef2-4631-bb54-6188c4bbbf67"},"vehicle_type_id":"4","last_reported":1700748398,"current_range_meters":15200,"station_id":"ce4bh412rcd13ifvqds0","pricing_plan_id":"free"},{"bike_id":"08699d8e-6e90-476e-8bd1-7c75758e7a7b","system_id":"levelo_inurba_marseille","lat":43.286595,"lon":5.386795,"is_reserved":false,"is_disabled":false,"rental_uris":{"android":"levelo://app?vid=08699d8e-6e90-476e-8bd1-7c75758e7a7b","ios":"levelo://app?vid=08699d8e-6e90-476e-8bd1-7c75758e7a7b"},"vehicle_type_id":"4","last_reported":1700748398,"current_range_meters":7600,"station_id":"ce4bh492rcd13ifvqdug","pricing_plan_id":"free"},{"bike_id":"6a229ab6-2cbe-43f9-af56-012067bebc69","system_id":"levelo_inurba_marseille","lat":43.319179,"lon":5.407725,"is_reserved":false,"is_disabled":false,"rental_uris":{"android":"levelo://app?vid=6a229ab6-2cbe-43f9-af56-012067bebc69","ios":"levelo://app?vid=6a229ab6-2cbe-43f9-af56-012067bebc69"},"vehicle_type_id":"4","last_reported":1700748398,"current_range_meters":29200,"station_id":"ce4bhq12rcd13ifvqhig","pricing_plan_id":"free"},{"bike_id":"22807f89-35bb-424c-9597-c37e83121d0a","system_id":"levelo_inurba_marseille","lat":43.284793,"lon":5.384119,"is_reserved":false,"is_disabled":false,"rental_uris":{"android":"levelo://app?vid=22807f89-35bb-424c-9597-c37e83121d0a","ios":"levelo://app?vid=22807f89-35bb-424c-9597-c37e83121d0a"},"vehicle_type_id":"4","last_reported":1700748398,"current_range_meters":0,"station_id":"ce4bh512rcd13ifvqe3g","pricing_plan_id":"free"},{"bike_id":"3714913b-fe37-4565-8f40-0253914d7ac5","system_id":"levelo_inurba_marseille","lat":43.297946,"lon":5.404063,"is_reserved":false,"is_disabled":false,"rental_uris":{"android":"levelo://app?vid=3714913b-fe37-4565-8f40-0253914d7ac5","ios":"levelo://app?vid=3714913b-fe37-4565-8f40-0253914d7ac5"},"vehicle_type_id":"4","last_reported":1700748398,"current_range_meters":24400,"station_id":"ce4bh112rcd13ifvqd90","pricing_plan_id":"free"},{"bike_id":"8622a541-30b0-40eb-90e0-1d0bd36d6c08","system_id":"levelo_inurba_marseille","lat":43.29257,"lon":5.39921,"is_reserved":false,"is_disabled":false,"rental_uris":{"android":"levelo://app?vid=8622a541-30b0-40eb-90e0-1d0bd36d6c08","ios":"levelo://app?vid=8622a541-30b0-40eb-90e0-1d0bd36d6c08"},"vehicle_type_id":"4","last_reported":1700748398,"current_range_meters":20400,"station_id":"","pricing_plan_id":"free"},{"bike_id":"83894334-0b1b-4dce-aadb-6e4b502f7b85","system_id":"levelo_inurba_marseille","lat":43.283494,"lon":5.380945,"is_reserved":false,"is_disabled":false,"rental_uris":{"android":"levelo://app?vid=83894334-0b1b-4dce-aadb-6e4b502f7b85","ios":"levelo://app?vid=83894334-0b1b-4dce-aadb-6e4b502f7b85"},"vehicle_type_id":"4","last_reported":1700748398,"current_range_meters":18800,"station_id":"ce4bh412rcd13ifvqdr0","pricing_plan_id":"free"},{"bike_id":"7731333e-c646-40cc-ae19-dd0ca2bff808","system_id":"levelo_inurba_marseille","lat":43.284219,"lon":5.3497,"is_reserved":false,"is_disabled":false,"rental_uris":{"android":"levelo://app?vid=7731333e-c646-40cc-ae19-dd0ca2bff808","ios":"levelo://app?vid=7731333e-c646-40cc-ae19-dd0ca2bff808"},"vehicle_type_id":"4","last_reported":1700748398,"current_range_meters":15600,"station_id":"ce4bhbh2rcd13ifvqepg","pricing_plan_id":"free"},{"bike_id":"6a889f8e-698d-4e78-aed9-16b0b7dcbb05","system_id":"levelo_inurba_marseille","lat":43.283498,"lon":5.380948,"is_reserved":false,"is_disabled":false,"rental_uris":{"android":"levelo://app?vid=6a889f8e-698d-4e78-aed9-16b0b7dcbb05","ios":"levelo://app?vid=6a889f8e-698d-4e78-aed9-16b0b7dcbb05"},"vehicle_type_id":"4","last_reported":1700748398,"current_range_meters":4000,"station_id":"ce4bh412rcd13ifvqdr0","pricing_plan_id":"free"},{"bike_id":"e2284003-4e46-4e0a-93e7-73d05c3666d9","system_id":"levelo_inurba_marseille","lat":43.33509,"lon":5.397747,"is_reserved":false,"is_disabled":false,"rental_uris":{"android":"levelo://app?vid=e2284003-4e46-4e0a-93e7-73d05c3666d9","ios":"levelo://app?vid=e2284003-4e46-4e0a-93e7-73d05c3666d9"},"vehicle_type_id":"4","last_reported":1700748398,"current_range_meters":26400,"station_id":"","pricing_plan_id":"free"},{"bike_id":"9f406700-c6fa-44c2-b209-2e781c68762e","system_id":"levelo_inurba_marseille","lat":43.28627,"lon":5.39143,"is_reserved":false,"is_disabled":false,"rental_uris":{"android":"levelo://app?vid=9f406700-c6fa-44c2-b209-2e781c68762e","ios":"levelo://app?vid=9f406700-c6fa-44c2-b209-2e781c68762e"},"vehicle_type_id":"4","last_reported":1700748398,"current_range_meters":8000,"station_id":"","pricing_plan_id":"free"},{"bike_id":"83c280c9-4265-45b1-b925-19164e08b1dc","system_id":"levelo_inurba_marseille","lat":43.282754,"lon":5.350519,"is_reserved":false,"is_disabled":false,"rental_uris":{"android":"levelo://app?vid=83c280c9-4265-45b1-b925-19164e08b1dc","ios":"levelo://app?vid=83c280c9-4265-45b1-b925-19164e08b1dc"},"vehicle_type_id":"4","last_reported":1700748398,"current_range_meters":3600,"station_id":"ce4bhbp2rcd13ifvqerg","pricing_plan_id":"free"},{"bike_id":"b4e012bf-d8b9-4fcf-873e-27d142f3d1c0","system_id":"levelo_inurba_marseille","lat":43.282744,"lon":5.350533,"is_reserved":false,"is_disabled":false,"rental_uris":{"android":"levelo://app?vid=b4e012bf-d8b9-4fcf-873e-27d142f3d1c0","ios":"levelo://app?vid=b4e012bf-d8b9-4fcf-873e-27d142f3d1c0"},"vehicle_type_id":"4","last_reported":1700748398,"current_range_meters":15600,"station_id":"ce4bhbp2rcd13ifvqerg","pricing_plan_id":"free"},{"bike_id":"120cf939-d266-42c6-8775-2faf5edf0692","system_id":"levelo_inurba_marseille","lat":43.28039,"lon":5.369297,"is_reserved":false,"is_disabled":false,"rental_uris":{"android":"levelo://app?vid=120cf939-d266-42c6-8775-2faf5edf0692","ios":"levelo://app?vid=120cf939-d266-42c6-8775-2faf5edf0692"},"vehicle_type_id":"4","last_reported":1700748398,"current_range_meters":26400,"station_id":"ce4bha12rcd13ifvqef0","pricing_plan_id":"free"},{"bike_id":"308660ec-cefd-4b01-a206-5fd15d956638","system_id":"levelo_inurba_marseille","lat":43.280308,"lon":5.369458,"is_reserved":false,"is_disabled":false,"rental_uris":{"android":"levelo://app?vid=308660ec-cefd-4b01-a206-5fd15d956638","ios":"levelo://app?vid=308660ec-cefd-4b01-a206-5fd15d956638"},"vehicle_type_id":"4","last_reported":1700748398,"current_range_meters":24800,"station_id":"ce4bha12rcd13ifvqef0","pricing_plan_id":"free"},{"bike_id":"41b32225-c8a9-4a50-b754-507a314aed34","system_id":"levelo_inurba_marseille","lat":43.280382,"lon":5.369291,"is_reserved":false,"is_disabled":false,"rental_uris":{"android":"levelo://app?vid=41b32225-c8a9-4a50-b754-507a314aed34","ios":"levelo://app?vid=41b32225-c8a9-4a50-b754-507a314aed34"},"vehicle_type_id":"4","last_reported":1700748398,"current_range_meters":13600,"station_id":"ce4bha12rcd13ifvqef0","pricing_plan_id":"free"},{"bike_id":"f880c89d-6db5-492e-9e9f-b889f440c8d2","system_id":"levelo_inurba_marseille","lat":43.28103,"lon":5.37849,"is_reserved":false,"is_disabled":false,"rental_uris":{"android":"levelo://app?vid=f880c89d-6db5-492e-9e9f-b889f440c8d2","ios":"levelo://app?vid=f880c89d-6db5-492e-9e9f-b889f440c8d2"},"vehicle_type_id":"4","last_reported":1700748398,"current_range_meters":13600,"station_id":"ce4bha12rcd13ifvqee0","pricing_plan_id":"free"},{"bike_id":"19e00bc6-434a-4986-b489-0a358e0b5e19","system_id":"levelo_inurba_marseille","lat":43.28573,"lon":5.394992,"is_reserved":false,"is_disabled":false,"rental_uris":{"android":"levelo://app?vid=19e00bc6-434a-4986-b489-0a358e0b5e19","ios":"levelo://app?vid=19e00bc6-434a-4986-b489-0a358e0b5e19"},"vehicle_type_id":"4","last_reported":1700748398,"current_range_meters":18800,"station_id":"ce4bh292rcd13ifvqdg0","pricing_plan_id":"free"},{"bike_id":"e5d324aa-c1c2-4b7e-a50c-fadeec132527","system_id":"levelo_inurba_marseille","lat":43.326605,"lon":5.409903,"is_reserved":false,"is_disabled":false,"rental_uris":{"android":"levelo://app?vid=e5d324aa-c1c2-4b7e-a50c-fadeec132527","ios":"levelo://app?vid=e5d324aa-c1c2-4b7e-a50c-fadeec132527"},"vehicle_type_id":"4","last_reported":1700748398,"current_range_meters":28400,"station_id":"ce4bhpp2rcd13ifvqhgg","pricing_plan_id":"free"},{"bike_id":"8e360a99-579d-498b-8373-2b154126c995","system_id":"levelo_inurba_marseille","lat":43.304188,"lon":5.412904,"is_reserved":false,"is_disabled":false,"rental_uris":{"android":"levelo://app?vid=8e360a99-579d-498b-8373-2b154126c995","ios":"levelo://app?vid=8e360a99-579d-498b-8373-2b154126c995"},"vehicle_type_id":"4","last_reported":1700748398,"current_range_meters":0,"station_id":"ce4bhop2rcd13ifvqh8g","pricing_plan_id":"free"},{"bike_id":"6e2c2465-4e40-4aae-912b-ca1fbcdf1978","system_id":"levelo_inurba_marseille","lat":43.32797,"lon":5.40994,"is_reserved":false,"is_disabled":false,"rental_uris":{"android":"levelo://app?vid=6e2c2465-4e40-4aae-912b-ca1fbcdf1978","ios":"levelo://app?vid=6e2c2465-4e40-4aae-912b-ca1fbcdf1978"},"vehicle_type_id":"4","last_reported":1700748398,"current_range_meters":0,"station_id":"","pricing_plan_id":"free"},{"bike_id":"01451b51-998e-4d20-aa39-e5eff32f028f","system_id":"levelo_inurba_marseille","lat":43.279087,"lon":5.380114,"is_reserved":false,"is_disabled":false,"rental_uris":{"android":"levelo://app?vid=01451b51-998e-4d20-aa39-e5eff32f028f","ios":"levelo://app?vid=01451b51-998e-4d20-aa39-e5eff32f028f"},"vehicle_type_id":"4","last_reported":1700748398,"current_range_meters":15200,"station_id":"ce4bhf92rcd13ifvqf50","pricing_plan_id":"free"},{"bike_id":"88d4b023-bbc2-46ff-9f07-3f457ef23f32","system_id":"levelo_inurba_marseille","lat":43.287154,"lon":5.399979,"is_reserved":false,"is_disabled":false,"rental_uris":{"android":"levelo://app?vid=88d4b023-bbc2-46ff-9f07-3f457ef23f32","ios":"levelo://app?vid=88d4b023-bbc2-46ff-9f07-3f457ef23f32"},"vehicle_type_id":"4","last_reported":1700748398,"current_range_meters":22800,"station_id":"ce4bho92rcd13ifvqh3g","pricing_plan_id":"free"},{"bike_id":"cdf74b3a-7a9d-451d-a59c-be948c0f158d","system_id":"levelo_inurba_marseille","lat":43.287154,"lon":5.399979,"is_reserved":false,"is_disabled":false,"rental_uris":{"android":"levelo://app?vid=cdf74b3a-7a9d-451d-a59c-be948c0f158d","ios":"levelo://app?vid=cdf74b3a-7a9d-451d-a59c-be948c0f158d"},"vehicle_type_id":"4","last_reported":1700748398,"current_range_meters":24000,"station_id":"ce4bho92rcd13ifvqh3g","pricing_plan_id":"free"},{"bike_id":"a8e2b52b-9ba9-4b70-bcb4-1e1ad46ab6fe","system_id":"levelo_inurba_marseille","lat":43.29942,"lon":5.413197,"is_reserved":false,"is_disabled":false,"rental_uris":{"android":"levelo://app?vid=a8e2b52b-9ba9-4b70-bcb4-1e1ad46ab6fe","ios":"levelo://app?vid=a8e2b52b-9ba9-4b70-bcb4-1e1ad46ab6fe"},"vehicle_type_id":"4","last_reported":1700748398,"current_range_meters":31200,"station_id":"ce4bhp12rcd13ifvqh9g","pricing_plan_id":"free"},{"bike_id":"efc3844c-4b5c-4978-b2da-23d47f038d39","system_id":"levelo_inurba_marseille","lat":43.279742,"lon":5.38744,"is_reserved":false,"is_disabled":false,"rental_uris":{"android":"levelo://app?vid=efc3844c-4b5c-4978-b2da-23d47f038d39","ios":"levelo://app?vid=efc3844c-4b5c-4978-b2da-23d47f038d39"},"vehicle_type_id":"4","last_reported":1700748398,"current_range_meters":29200,"station_id":"ce4bhg12rcd13ifvqf80","pricing_plan_id":"free"},{"bike_id":"8ca23dbd-53e7-4b6f-8671-215ffcaa759c","system_id":"levelo_inurba_marseille","lat":43.279742,"lon":5.38744,"is_reserved":false,"is_disabled":false,"rental_uris":{"android":"levelo://app?vid=8ca23dbd-53e7-4b6f-8671-215ffcaa759c","ios":"levelo://app?vid=8ca23dbd-53e7-4b6f-8671-215ffcaa759c"},"vehicle_type_id":"4","last_reported":1700748398,"current_range_meters":7200,"station_id":"ce4bhg12rcd13ifvqf80","pricing_plan_id":"free"},{"bike_id":"7011775b-c0e4-46dc-8231-7485425aba5f","system_id":"levelo_inurba_marseille","lat":43.29939,"lon":5.41323,"is_reserved":false,"is_disabled":false,"rental_uris":{"android":"levelo://app?vid=7011775b-c0e4-46dc-8231-7485425aba5f","ios":"levelo://app?vid=7011775b-c0e4-46dc-8231-7485425aba5f"},"vehicle_type_id":"4","last_reported":1700748398,"current_range_meters":27200,"station_id":"ce4bhp12rcd13ifvqh9g","pricing_plan_id":"free"},{"bike_id":"1ad8f2ca-a645-41d3-9d85-ba137be9e88a","system_id":"levelo_inurba_marseille","lat":43.27968,"lon":5.38745,"is_reserved":false,"is_disabled":false,"rental_uris":{"android":"levelo://app?vid=1ad8f2ca-a645-41d3-9d85-ba137be9e88a","ios":"levelo://app?vid=1ad8f2ca-a645-41d3-9d85-ba137be9e88a"},"vehicle_type_id":"4","last_reported":1700748398,"current_range_meters":21200,"station_id":"ce4bhg12rcd13ifvqf80","pricing_plan_id":"free"},{"bike_id":"cf7c6503-d761-4e4a-b826-f55f74848caf","system_id":"levelo_inurba_marseille","lat":43.34881,"lon":5.37504,"is_reserved":false,"is_disabled":false,"rental_uris":{"android":"levelo://app?vid=cf7c6503-d761-4e4a-b826-f55f74848caf","ios":"levelo://app?vid=cf7c6503-d761-4e4a-b826-f55f74848caf"},"vehicle_type_id":"4","last_reported":1700748398,"current_range_meters":800,"station_id":"","pricing_plan_id":"free"},{"bike_id":"b8ac39ed-2245-48ac-80d3-6191d2111b53","system_id":"levelo_inurba_marseille","lat":43.325243,"lon":5.414326,"is_reserved":false,"is_disabled":false,"rental_uris":{"android":"levelo://app?vid=b8ac39ed-2245-48ac-80d3-6191d2111b53","ios":"levelo://app?vid=b8ac39ed-2245-48ac-80d3-6191d2111b53"},"vehicle_type_id":"4","last_reported":1700748398,"current_range_meters":22800,"station_id":"ce4bhq12rcd13ifvqhhg","pricing_plan_id":"free"},{"bike_id":"67b89ae7-8dbc-4318-aa23-27df44218807","system_id":"levelo_inurba_marseille","lat":43.292547,"lon":5.409141,"is_reserved":false,"is_disabled":false,"rental_uris":{"android":"levelo://app?vid=67b89ae7-8dbc-4318-aa23-27df44218807","ios":"levelo://app?vid=67b89ae7-8dbc-4318-aa23-27df44218807"},"vehicle_type_id":"4","last_reported":1700748398,"current_range_meters":0,"station_id":"ce4bh192rcd13ifvqdc0","pricing_plan_id":"free"},{"bike_id":"afdacef4-533b-4854-9dd3-f631af919c6b","system_id":"levelo_inurba_marseille","lat":43.278401,"lon":5.392152,"is_reserved":false,"is_disabled":false,"rental_uris":{"android":"levelo://app?vid=afdacef4-533b-4854-9dd3-f631af919c6b","ios":"levelo://app?vid=afdacef4-533b-4854-9dd3-f631af919c6b"},"vehicle_type_id":"4","last_reported":1700748398,"current_range_meters":3200,"station_id":"ce4bhjp2rcd13ifvqga0","pricing_plan_id":"free"},{"bike_id":"25385048-d917-4d53-aebe-5f4ee4e0a381","system_id":"levelo_inurba_marseille","lat":43.273609,"lon":5.362708,"is_reserved":false,"is_disabled":false,"rental_uris":{"android":"levelo://app?vid=25385048-d917-4d53-aebe-5f4ee4e0a381","ios":"levelo://app?vid=25385048-d917-4d53-aebe-5f4ee4e0a381"},"vehicle_type_id":"4","last_reported":1700748398,"current_range_meters":30400,"station_id":"ce4bhbh2rcd13ifvqeo0","pricing_plan_id":"free"},{"bike_id":"4043b474-b5ba-43f1-8754-efc7e66c3e3f","system_id":"levelo_inurba_marseille","lat":43.273613,"lon":5.362705,"is_reserved":false,"is_disabled":false,"rental_uris":{"android":"levelo://app?vid=4043b474-b5ba-43f1-8754-efc7e66c3e3f","ios":"levelo://app?vid=4043b474-b5ba-43f1-8754-efc7e66c3e3f"},"vehicle_type_id":"4","last_reported":1700748398,"current_range_meters":28400,"station_id":"ce4bhbh2rcd13ifvqeo0","pricing_plan_id":"free"},{"bike_id":"9e4a7c77-0afe-4a2f-ae09-f9aa36fbc430","system_id":"levelo_inurba_marseille","lat":43.336134,"lon":5.410341,"is_reserved":false,"is_disabled":false,"rental_uris":{"android":"levelo://app?vid=9e4a7c77-0afe-4a2f-ae09-f9aa36fbc430","ios":"levelo://app?vid=9e4a7c77-0afe-4a2f-ae09-f9aa36fbc430"},"vehicle_type_id":"4","last_reported":1700748398,"current_range_meters":19600,"station_id":"ce4bhqh2rcd13ifvqhmg","pricing_plan_id":"free"},{"bike_id":"2cf4f1d8-1e21-47b9-bd18-5b4ec8a41dda","system_id":"levelo_inurba_marseille","lat":43.273613,"lon":5.362705,"is_reserved":false,"is_disabled":false,"rental_uris":{"android":"levelo://app?vid=2cf4f1d8-1e21-47b9-bd18-5b4ec8a41dda","ios":"levelo://app?vid=2cf4f1d8-1e21-47b9-bd18-5b4ec8a41dda"},"vehicle_type_id":"4","last_reported":1700748398,"current_range_meters":18400,"station_id":"ce4bhbh2rcd13ifvqeo0","pricing_plan_id":"free"},{"bike_id":"50b9e0fa-fc8b-4c9c-8f0e-658ee28a9b37","system_id":"levelo_inurba_marseille","lat":43.273613,"lon":5.362705,"is_reserved":false,"is_disabled":false,"rental_uris":{"android":"levelo://app?vid=50b9e0fa-fc8b-4c9c-8f0e-658ee28a9b37","ios":"levelo://app?vid=50b9e0fa-fc8b-4c9c-8f0e-658ee28a9b37"},"vehicle_type_id":"4","last_reported":1700748398,"current_range_meters":1200,"station_id":"ce4bhbh2rcd13ifvqeo0","pricing_plan_id":"free"},{"bike_id":"8b4ef16f-7299-4e88-801d-ef1488fb616a","system_id":"levelo_inurba_marseille","lat":43.273609,"lon":5.362708,"is_reserved":false,"is_disabled":false,"rental_uris":{"android":"levelo://app?vid=8b4ef16f-7299-4e88-801d-ef1488fb616a","ios":"levelo://app?vid=8b4ef16f-7299-4e88-801d-ef1488fb616a"},"vehicle_type_id":"4","last_reported":1700748398,"current_range_meters":24800,"station_id":"ce4bhbh2rcd13ifvqeo0","pricing_plan_id":"free"},{"bike_id":"45afca83-f4a7-44dc-bcae-22432995d643","system_id":"levelo_inurba_marseille","lat":43.275625,"lon":5.384392,"is_reserved":false,"is_disabled":false,"rental_uris":{"android":"levelo://app?vid=45afca83-f4a7-44dc-bcae-22432995d643","ios":"levelo://app?vid=45afca83-f4a7-44dc-bcae-22432995d643"},"vehicle_type_id":"4","last_reported":1700748398,"current_range_meters":26000,"station_id":"ce4bhh92rcd13ifvqfi0","pricing_plan_id":"free"},{"bike_id":"b15fbec5-8078-4961-ad3e-8a84730caa09","system_id":"levelo_inurba_marseille","lat":43.273613,"lon":5.362705,"is_reserved":false,"is_disabled":false,"rental_uris":{"android":"levelo://app?vid=b15fbec5-8078-4961-ad3e-8a84730caa09","ios":"levelo://app?vid=b15fbec5-8078-4961-ad3e-8a84730caa09"},"vehicle_type_id":"4","last_reported":1700748398,"current_range_meters":30800,"station_id":"ce4bhbh2rcd13ifvqeo0","pricing_plan_id":"free"},{"bike_id":"748ef8e6-127c-4890-aa32-c9d01c980056","system_id":"levelo_inurba_marseille","lat":43.276769,"lon":5.388787,"is_reserved":false,"is_disabled":false,"rental_uris":{"android":"levelo://app?vid=748ef8e6-127c-4890-aa32-c9d01c980056","ios":"levelo://app?vid=748ef8e6-127c-4890-aa32-c9d01c980056"},"vehicle_type_id":"4","last_reported":1700748398,"current_range_meters":27600,"station_id":"ce4bhi12rcd13ifvqfo0","pricing_plan_id":"free"},{"bike_id":"00c6eff5-1596-4e9b-87d9-ed22489a56cc","system_id":"levelo_inurba_marseille","lat":43.317121,"lon":5.423936,"is_reserved":false,"is_disabled":false,"rental_uris":{"android":"levelo://app?vid=00c6eff5-1596-4e9b-87d9-ed22489a56cc","ios":"levelo://app?vid=00c6eff5-1596-4e9b-87d9-ed22489a56cc"},"vehicle_type_id":"4","last_reported":1700748398,"current_range_meters":21600,"station_id":"ce4bhp92rcd13ifvqhbg","pricing_plan_id":"free"},{"bike_id":"785780ba-6842-4456-9d03-4bf13b463d2b","system_id":"levelo_inurba_marseille","lat":43.340804,"lon":5.410219,"is_reserved":false,"is_disabled":false,"rental_uris":{"android":"levelo://app?vid=785780ba-6842-4456-9d03-4bf13b463d2b","ios":"levelo://app?vid=785780ba-6842-4456-9d03-4bf13b463d2b"},"vehicle_type_id":"4","last_reported":1700748398,"current_range_meters":28000,"station_id":"ce4bhqh2rcd13ifvqhlg","pricing_plan_id":"free"},{"bike_id":"612d28c4-81dd-445c-a037-9c13cd2799c5","system_id":"levelo_inurba_marseille","lat":43.340804,"lon":5.410219,"is_reserved":false,"is_disabled":false,"rental_uris":{"android":"levelo://app?vid=612d28c4-81dd-445c-a037-9c13cd2799c5","ios":"levelo://app?vid=612d28c4-81dd-445c-a037-9c13cd2799c5"},"vehicle_type_id":"4","last_reported":1700748398,"current_range_meters":16800,"station_id":"ce4bhqh2rcd13ifvqhlg","pricing_plan_id":"free"},{"bike_id":"a6478832-d5ce-4b8f-9c60-8bb6e1b52bc0","system_id":"levelo_inurba_marseille","lat":43.273125,"lon":5.390731,"is_reserved":false,"is_disabled":false,"rental_uris":{"android":"levelo://app?vid=a6478832-d5ce-4b8f-9c60-8bb6e1b52bc0","ios":"levelo://app?vid=a6478832-d5ce-4b8f-9c60-8bb6e1b52bc0"},"vehicle_type_id":"4","last_reported":1700748398,"current_range_meters":14800,"station_id":"ce4bhgp2rcd13ifvqfe0","pricing_plan_id":"free"},{"bike_id":"0ec9cdee-9bf5-453d-bbd8-0345b593a6bb","system_id":"levelo_inurba_marseille","lat":43.295511,"lon":5.422926,"is_reserved":false,"is_disabled":false,"rental_uris":{"android":"levelo://app?vid=0ec9cdee-9bf5-453d-bbd8-0345b593a6bb","ios":"levelo://app?vid=0ec9cdee-9bf5-453d-bbd8-0345b593a6bb"},"vehicle_type_id":"4","last_reported":1700748398,"current_range_meters":26800,"station_id":"ce4bhph2rcd13ifvqhdg","pricing_plan_id":"free"},{"bike_id":"7b23025e-3e59-4334-a31d-c2cc870a7c0e","system_id":"levelo_inurba_marseille","lat":43.295511,"lon":5.422926,"is_reserved":false,"is_disabled":false,"rental_uris":{"android":"levelo://app?vid=7b23025e-3e59-4334-a31d-c2cc870a7c0e","ios":"levelo://app?vid=7b23025e-3e59-4334-a31d-c2cc870a7c0e"},"vehicle_type_id":"4","last_reported":1700748398,"current_range_meters":21600,"station_id":"ce4bhph2rcd13ifvqhdg","pricing_plan_id":"free"},{"bike_id":"704d9b1a-f1ae-42a9-99c3-e6e01df0a8a6","system_id":"levelo_inurba_marseille","lat":43.295523,"lon":5.422926,"is_reserved":false,"is_disabled":false,"rental_uris":{"android":"levelo://app?vid=704d9b1a-f1ae-42a9-99c3-e6e01df0a8a6","ios":"levelo://app?vid=704d9b1a-f1ae-42a9-99c3-e6e01df0a8a6"},"vehicle_type_id":"4","last_reported":1700748398,"current_range_meters":27200,"station_id":"ce4bhph2rcd13ifvqhdg","pricing_plan_id":"free"},{"bike_id":"72d3541b-d0ba-4970-8e11-62588791666b","system_id":"levelo_inurba_marseille","lat":43.295511,"lon":5.422926,"is_reserved":false,"is_disabled":false,"rental_uris":{"android":"levelo://app?vid=72d3541b-d0ba-4970-8e11-62588791666b","ios":"levelo://app?vid=72d3541b-d0ba-4970-8e11-62588791666b"},"vehicle_type_id":"4","last_reported":1700748398,"current_range_meters":29600,"station_id":"ce4bhph2rcd13ifvqhdg","pricing_plan_id":"free"},{"bike_id":"e57f52ed-652d-4955-80f2-72fbd24238b5","system_id":"levelo_inurba_marseille","lat":43.295511,"lon":5.422926,"is_reserved":false,"is_disabled":false,"rental_uris":{"android":"levelo://app?vid=e57f52ed-652d-4955-80f2-72fbd24238b5","ios":"levelo://app?vid=e57f52ed-652d-4955-80f2-72fbd24238b5"},"vehicle_type_id":"4","last_reported":1700748398,"current_range_meters":8800,"station_id":"ce4bhph2rcd13ifvqhdg","pricing_plan_id":"free"},{"bike_id":"3ceb9055-2467-4df0-be15-a71377ca94e3","system_id":"levelo_inurba_marseille","lat":43.272116,"lon":5.391763,"is_reserved":false,"is_disabled":false,"rental_uris":{"android":"levelo://app?vid=3ceb9055-2467-4df0-be15-a71377ca94e3","ios":"levelo://app?vid=3ceb9055-2467-4df0-be15-a71377ca94e3"},"vehicle_type_id":"4","last_reported":1700748398,"current_range_meters":6800,"station_id":"ce4bhhp2rcd13ifvqfm0","pricing_plan_id":"free"},{"bike_id":"717143db-3fad-4d53-9a6a-10461ab5ca36","system_id":"levelo_inurba_marseille","lat":43.272116,"lon":5.391747,"is_reserved":false,"is_disabled":false,"rental_uris":{"android":"levelo://app?vid=717143db-3fad-4d53-9a6a-10461ab5ca36","ios":"levelo://app?vid=717143db-3fad-4d53-9a6a-10461ab5ca36"},"vehicle_type_id":"4","last_reported":1700748398,"current_range_meters":22800,"station_id":"ce4bhhp2rcd13ifvqfm0","pricing_plan_id":"free"},{"bike_id":"d0bb53f7-f1b8-4609-a668-27efdac67f66","system_id":"levelo_inurba_marseille","lat":43.271911,"lon":5.392449,"is_reserved":false,"is_disabled":false,"rental_uris":{"android":"levelo://app?vid=d0bb53f7-f1b8-4609-a668-27efdac67f66","ios":"levelo://app?vid=d0bb53f7-f1b8-4609-a668-27efdac67f66"},"vehicle_type_id":"4","last_reported":1700748398,"current_range_meters":0,"station_id":"","pricing_plan_id":"free"},{"bike_id":"3c3884fa-0892-4d4c-ac0e-a9dc0fb35842","system_id":"levelo_inurba_marseille","lat":43.278128,"lon":5.407195,"is_reserved":false,"is_disabled":false,"rental_uris":{"android":"levelo://app?vid=3c3884fa-0892-4d4c-ac0e-a9dc0fb35842","ios":"levelo://app?vid=3c3884fa-0892-4d4c-ac0e-a9dc0fb35842"},"vehicle_type_id":"4","last_reported":1700748398,"current_range_meters":26000,"station_id":"ce4bhnh2rcd13ifvqgtg","pricing_plan_id":"free"},{"bike_id":"28bc7db9-498b-4eb7-8154-d093e4ab7ce4","system_id":"levelo_inurba_marseille","lat":43.278128,"lon":5.407195,"is_reserved":false,"is_disabled":false,"rental_uris":{"android":"levelo://app?vid=28bc7db9-498b-4eb7-8154-d093e4ab7ce4","ios":"levelo://app?vid=28bc7db9-498b-4eb7-8154-d093e4ab7ce4"},"vehicle_type_id":"4","last_reported":1700748398,"current_range_meters":14000,"station_id":"ce4bhnh2rcd13ifvqgtg","pricing_plan_id":"free"},{"bike_id":"7c13e6d9-2f34-4cf5-9746-70fd9d2b74fc","system_id":"levelo_inurba_marseille","lat":43.27945,"lon":5.41052,"is_reserved":false,"is_disabled":false,"rental_uris":{"android":"levelo://app?vid=7c13e6d9-2f34-4cf5-9746-70fd9d2b74fc","ios":"levelo://app?vid=7c13e6d9-2f34-4cf5-9746-70fd9d2b74fc"},"vehicle_type_id":"4","last_reported":1700748398,"current_range_meters":22000,"station_id":"ce4bhnp2rcd13ifvqh0g","pricing_plan_id":"free"},{"bike_id":"964667e6-f8e8-42b8-b3c4-a46a34dc2a14","system_id":"levelo_inurba_marseille","lat":43.26981,"lon":5.39259,"is_reserved":false,"is_disabled":false,"rental_uris":{"android":"levelo://app?vid=964667e6-f8e8-42b8-b3c4-a46a34dc2a14","ios":"levelo://app?vid=964667e6-f8e8-42b8-b3c4-a46a34dc2a14"},"vehicle_type_id":"4","last_reported":1700748398,"current_range_meters":11600,"station_id":"","pricing_plan_id":"free"},{"bike_id":"8db7c29e-7357-42df-9373-8c7381809241","system_id":"levelo_inurba_marseille","lat":43.26682,"lon":5.38272,"is_reserved":false,"is_disabled":false,"rental_uris":{"android":"levelo://app?vid=8db7c29e-7357-42df-9373-8c7381809241","ios":"levelo://app?vid=8db7c29e-7357-42df-9373-8c7381809241"},"vehicle_type_id":"4","last_reported":1700748398,"current_range_meters":0,"station_id":"ce4bhg92rcd13ifvqf90","pricing_plan_id":"free"},{"bike_id":"8f3b1a6c-3a9f-4d58-8712-a1083f0f2a40","system_id":"levelo_inurba_marseille","lat":43.265714,"lon":5.372891,"is_reserved":false,"is_disabled":false,"rental_uris":{"android":"levelo://app?vid=8f3b1a6c-3a9f-4d58-8712-a1083f0f2a40","ios":"levelo://app?vid=8f3b1a6c-3a9f-4d58-8712-a1083f0f2a40"},"vehicle_type_id":"4","last_reported":1700748398,"current_range_meters":27600,"station_id":"ce4bhg12rcd13ifvqf70","pricing_plan_id":"free"},{"bike_id":"6923e551-0f92-46dd-8c32-4c4694e55642","system_id":"levelo_inurba_marseille","lat":43.26555,"lon":5.37286,"is_reserved":false,"is_disabled":false,"rental_uris":{"android":"levelo://app?vid=6923e551-0f92-46dd-8c32-4c4694e55642","ios":"levelo://app?vid=6923e551-0f92-46dd-8c32-4c4694e55642"},"vehicle_type_id":"4","last_reported":1700748398,"current_range_meters":31200,"station_id":"ce4bhg12rcd13ifvqf70","pricing_plan_id":"free"},{"bike_id":"9476fa50-eaf7-41d3-95b6-0381288c6240","system_id":"levelo_inurba_marseille","lat":43.26551,"lon":5.37291,"is_reserved":false,"is_disabled":false,"rental_uris":{"android":"levelo://app?vid=9476fa50-eaf7-41d3-95b6-0381288c6240","ios":"levelo://app?vid=9476fa50-eaf7-41d3-95b6-0381288c6240"},"vehicle_type_id":"4","last_reported":1700748398,"current_range_meters":26800,"station_id":"ce4bhg12rcd13ifvqf70","pricing_plan_id":"free"},{"bike_id":"8ad48025-2840-4dbc-be02-03ec281422fa","system_id":"levelo_inurba_marseille","lat":43.265477,"lon":5.372897,"is_reserved":false,"is_disabled":false,"rental_uris":{"android":"levelo://app?vid=8ad48025-2840-4dbc-be02-03ec281422fa","ios":"levelo://app?vid=8ad48025-2840-4dbc-be02-03ec281422fa"},"vehicle_type_id":"4","last_reported":1700748398,"current_range_meters":27200,"station_id":"ce4bhg12rcd13ifvqf70","pricing_plan_id":"free"},{"bike_id":"28e8ce00-6b21-4e06-9930-c7c4408cc650","system_id":"levelo_inurba_marseille","lat":43.326174,"lon":5.430584,"is_reserved":false,"is_disabled":false,"rental_uris":{"android":"levelo://app?vid=28e8ce00-6b21-4e06-9930-c7c4408cc650","ios":"levelo://app?vid=28e8ce00-6b21-4e06-9930-c7c4408cc650"},"vehicle_type_id":"4","last_reported":1700748398,"current_range_meters":2800,"station_id":"","pricing_plan_id":"free"},{"bike_id":"c62de471-c94b-4a01-a172-e0b36eb8d88d","system_id":"levelo_inurba_marseille","lat":43.27996,"lon":5.416624,"is_reserved":false,"is_disabled":false,"rental_uris":{"android":"levelo://app?vid=c62de471-c94b-4a01-a172-e0b36eb8d88d","ios":"levelo://app?vid=c62de471-c94b-4a01-a172-e0b36eb8d88d"},"vehicle_type_id":"4","last_reported":1700748398,"current_range_meters":19600,"station_id":"ce4bho12rcd13ifvqh1g","pricing_plan_id":"free"},{"bike_id":"9c42760a-0ebf-4024-be3a-b9982b0d9be6","system_id":"levelo_inurba_marseille","lat":43.27996,"lon":5.416624,"is_reserved":false,"is_disabled":false,"rental_uris":{"android":"levelo://app?vid=9c42760a-0ebf-4024-be3a-b9982b0d9be6","ios":"levelo://app?vid=9c42760a-0ebf-4024-be3a-b9982b0d9be6"},"vehicle_type_id":"4","last_reported":1700748398,"current_range_meters":23600,"station_id":"ce4bho12rcd13ifvqh1g","pricing_plan_id":"free"},{"bike_id":"ad3d9fff-a05a-4b8a-9cc9-07495674fec3","system_id":"levelo_inurba_marseille","lat":43.27996,"lon":5.416624,"is_reserved":false,"is_disabled":false,"rental_uris":{"android":"levelo://app?vid=ad3d9fff-a05a-4b8a-9cc9-07495674fec3","ios":"levelo://app?vid=ad3d9fff-a05a-4b8a-9cc9-07495674fec3"},"vehicle_type_id":"4","last_reported":1700748398,"current_range_meters":21600,"station_id":"ce4bho12rcd13ifvqh1g","pricing_plan_id":"free"},{"bike_id":"5c07a245-eb23-4cc6-bf34-1852a7bdeb0d","system_id":"levelo_inurba_marseille","lat":43.265714,"lon":5.372891,"is_reserved":false,"is_disabled":false,"rental_uris":{"android":"levelo://app?vid=5c07a245-eb23-4cc6-bf34-1852a7bdeb0d","ios":"levelo://app?vid=5c07a245-eb23-4cc6-bf34-1852a7bdeb0d"},"vehicle_type_id":"4","last_reported":1700748398,"current_range_meters":28800,"station_id":"ce4bhg12rcd13ifvqf70","pricing_plan_id":"free"},{"bike_id":"2b5f0b27-ae58-4e9e-bd76-c585f78e8a73","system_id":"levelo_inurba_marseille","lat":43.26386,"lon":5.37454,"is_reserved":false,"is_disabled":false,"rental_uris":{"android":"levelo://app?vid=2b5f0b27-ae58-4e9e-bd76-c585f78e8a73","ios":"levelo://app?vid=2b5f0b27-ae58-4e9e-bd76-c585f78e8a73"},"vehicle_type_id":"4","last_reported":1700748398,"current_range_meters":18400,"station_id":"","pricing_plan_id":"free"},{"bike_id":"6478f04d-87fa-4836-9191-083f710db30f","system_id":"levelo_inurba_marseille","lat":43.26572,"lon":5.39014,"is_reserved":false,"is_disabled":false,"rental_uris":{"android":"levelo://app?vid=6478f04d-87fa-4836-9191-083f710db30f","ios":"levelo://app?vid=6478f04d-87fa-4836-9191-083f710db30f"},"vehicle_type_id":"4","last_reported":1700748398,"current_range_meters":30000,"station_id":"ce4bhe12rcd13ifvqf30","pricing_plan_id":"free"},{"bike_id":"1788c258-176f-4d99-b39a-4778970c8519","system_id":"levelo_inurba_marseille","lat":43.265569,"lon":5.390047,"is_reserved":false,"is_disabled":false,"rental_uris":{"android":"levelo://app?vid=1788c258-176f-4d99-b39a-4778970c8519","ios":"levelo://app?vid=1788c258-176f-4d99-b39a-4778970c8519"},"vehicle_type_id":"4","last_reported":1700748398,"current_range_meters":15200,"station_id":"ce4bhe12rcd13ifvqf30","pricing_plan_id":"free"},{"bike_id":"de4aec84-952c-44e2-922c-2957cfdfe026","system_id":"levelo_inurba_marseille","lat":43.317104,"lon":5.436818,"is_reserved":false,"is_disabled":false,"rental_uris":{"android":"levelo://app?vid=de4aec84-952c-44e2-922c-2957cfdfe026","ios":"levelo://app?vid=de4aec84-952c-44e2-922c-2957cfdfe026"},"vehicle_type_id":"4","last_reported":1700748398,"current_range_meters":29600,"station_id":"ce4bhp92rcd13ifvqhcg","pricing_plan_id":"free"},{"bike_id":"384b91cb-c465-408d-b5df-cd4570223f3e","system_id":"levelo_inurba_marseille","lat":43.317104,"lon":5.436818,"is_reserved":false,"is_disabled":false,"rental_uris":{"android":"levelo://app?vid=384b91cb-c465-408d-b5df-cd4570223f3e","ios":"levelo://app?vid=384b91cb-c465-408d-b5df-cd4570223f3e"},"vehicle_type_id":"4","last_reported":1700748398,"current_range_meters":31600,"station_id":"ce4bhp92rcd13ifvqhcg","pricing_plan_id":"free"},{"bike_id":"3e51bfaa-931b-4acf-8161-43dbc322a6c0","system_id":"levelo_inurba_marseille","lat":43.262012,"lon":5.379307,"is_reserved":false,"is_disabled":false,"rental_uris":{"android":"levelo://app?vid=3e51bfaa-931b-4acf-8161-43dbc322a6c0","ios":"levelo://app?vid=3e51bfaa-931b-4acf-8161-43dbc322a6c0"},"vehicle_type_id":"4","last_reported":1700748398,"current_range_meters":4400,"station_id":"ce4bhjp2rcd13ifvqg90","pricing_plan_id":"free"},{"bike_id":"c005214f-ef37-42c7-8047-fdaa33a085c7","system_id":"levelo_inurba_marseille","lat":43.271368,"lon":5.40928,"is_reserved":false,"is_disabled":false,"rental_uris":{"android":"levelo://app?vid=c005214f-ef37-42c7-8047-fdaa33a085c7","ios":"levelo://app?vid=c005214f-ef37-42c7-8047-fdaa33a085c7"},"vehicle_type_id":"4","last_reported":1700748398,"current_range_meters":31200,"station_id":"ce4bhl12rcd13ifvqgf0","pricing_plan_id":"free"},{"bike_id":"861e94e2-982b-4215-a671-df650b5b6578","system_id":"levelo_inurba_marseille","lat":43.271368,"lon":5.40928,"is_reserved":false,"is_disabled":false,"rental_uris":{"android":"levelo://app?vid=861e94e2-982b-4215-a671-df650b5b6578","ios":"levelo://app?vid=861e94e2-982b-4215-a671-df650b5b6578"},"vehicle_type_id":"4","last_reported":1700748398,"current_range_meters":30400,"station_id":"ce4bhl12rcd13ifvqgf0","pricing_plan_id":"free"},{"bike_id":"3f9be3fb-9cc9-47cb-8d6c-f4a4d53b4169","system_id":"levelo_inurba_marseille","lat":43.26202,"lon":5.379299,"is_reserved":false,"is_disabled":false,"rental_uris":{"android":"levelo://app?vid=3f9be3fb-9cc9-47cb-8d6c-f4a4d53b4169","ios":"levelo://app?vid=3f9be3fb-9cc9-47cb-8d6c-f4a4d53b4169"},"vehicle_type_id":"4","last_reported":1700748398,"current_range_meters":10000,"station_id":"ce4bhjp2rcd13ifvqg90","pricing_plan_id":"free"},{"bike_id":"860103e4-b3a2-49bf-a852-14e4f54ff085","system_id":"levelo_inurba_marseille","lat":43.27178,"lon":5.40996,"is_reserved":false,"is_disabled":false,"rental_uris":{"android":"levelo://app?vid=860103e4-b3a2-49bf-a852-14e4f54ff085","ios":"levelo://app?vid=860103e4-b3a2-49bf-a852-14e4f54ff085"},"vehicle_type_id":"4","last_reported":1700748398,"current_range_meters":27200,"station_id":"ce4bhl12rcd13ifvqgf0","pricing_plan_id":"free"},{"bike_id":"95f7556d-4dd4-48aa-a146-ee053fbe0b49","system_id":"levelo_inurba_marseille","lat":43.271368,"lon":5.40928,"is_reserved":false,"is_disabled":false,"rental_uris":{"android":"levelo://app?vid=95f7556d-4dd4-48aa-a146-ee053fbe0b49","ios":"levelo://app?vid=95f7556d-4dd4-48aa-a146-ee053fbe0b49"},"vehicle_type_id":"4","last_reported":1700748398,"current_range_meters":5200,"station_id":"ce4bhl12rcd13ifvqgf0","pricing_plan_id":"free"},{"bike_id":"1e031ae6-8ea8-4921-bbb0-26dc81dc7f60","system_id":"levelo_inurba_marseille","lat":43.271368,"lon":5.40928,"is_reserved":false,"is_disabled":false,"rental_uris":{"android":"levelo://app?vid=1e031ae6-8ea8-4921-bbb0-26dc81dc7f60","ios":"levelo://app?vid=1e031ae6-8ea8-4921-bbb0-26dc81dc7f60"},"vehicle_type_id":"4","last_reported":1700748398,"current_range_meters":25200,"station_id":"ce4bhl12rcd13ifvqgf0","pricing_plan_id":"free"},{"bike_id":"b7f683d4-d9fd-457e-975f-f5cc0011e9fe","system_id":"levelo_inurba_marseille","lat":43.267959,"lon":5.402687,"is_reserved":false,"is_disabled":false,"rental_uris":{"android":"levelo://app?vid=b7f683d4-d9fd-457e-975f-f5cc0011e9fe","ios":"levelo://app?vid=b7f683d4-d9fd-457e-975f-f5cc0011e9fe"},"vehicle_type_id":"4","last_reported":1700748398,"current_range_meters":17600,"station_id":"ce501612rcd8frsf0b60","pricing_plan_id":"free"},{"bike_id":"c6fb98d5-5eb6-47f9-8abb-5be1873f085e","system_id":"levelo_inurba_marseille","lat":43.26805,"lon":5.40264,"is_reserved":false,"is_disabled":false,"rental_uris":{"android":"levelo://app?vid=c6fb98d5-5eb6-47f9-8abb-5be1873f085e","ios":"levelo://app?vid=c6fb98d5-5eb6-47f9-8abb-5be1873f085e"},"vehicle_type_id":"4","last_reported":1700748398,"current_range_meters":16000,"station_id":"ce501612rcd8frsf0b60","pricing_plan_id":"free"},{"bike_id":"ec566e25-85ca-4637-b97b-93e4376109cd","system_id":"levelo_inurba_marseille","lat":43.267959,"lon":5.402685,"is_reserved":false,"is_disabled":false,"rental_uris":{"android":"levelo://app?vid=ec566e25-85ca-4637-b97b-93e4376109cd","ios":"levelo://app?vid=ec566e25-85ca-4637-b97b-93e4376109cd"},"vehicle_type_id":"4","last_reported":1700748398,"current_range_meters":22800,"station_id":"ce501612rcd8frsf0b60","pricing_plan_id":"free"},{"bike_id":"cb16d7ee-4d8d-44c4-bc7a-142b1234ab63","system_id":"levelo_inurba_marseille","lat":43.31725,"lon":5.43786,"is_reserved":false,"is_disabled":false,"rental_uris":{"android":"levelo://app?vid=cb16d7ee-4d8d-44c4-bc7a-142b1234ab63","ios":"levelo://app?vid=cb16d7ee-4d8d-44c4-bc7a-142b1234ab63"},"vehicle_type_id":"4","last_reported":1700748398,"current_range_meters":0,"station_id":"","pricing_plan_id":"free"},{"bike_id":"48c1fbfb-e6c4-4c56-a75c-55416f8bb4c3","system_id":"levelo_inurba_marseille","lat":43.263625,"lon":5.390435,"is_reserved":false,"is_disabled":false,"rental_uris":{"android":"levelo://app?vid=48c1fbfb-e6c4-4c56-a75c-55416f8bb4c3","ios":"levelo://app?vid=48c1fbfb-e6c4-4c56-a75c-55416f8bb4c3"},"vehicle_type_id":"4","last_reported":1700748398,"current_range_meters":25600,"station_id":"","pricing_plan_id":"free"},{"bike_id":"895de8b6-6f51-45cd-a58a-c7983d56547d","system_id":"levelo_inurba_marseille","lat":43.298768,"lon":5.43643,"is_reserved":false,"is_disabled":false,"rental_uris":{"android":"levelo://app?vid=895de8b6-6f51-45cd-a58a-c7983d56547d","ios":"levelo://app?vid=895de8b6-6f51-45cd-a58a-c7983d56547d"},"vehicle_type_id":"4","last_reported":1700748398,"current_range_meters":26000,"station_id":"ce4bhpp2rcd13ifvqhfg","pricing_plan_id":"free"},{"bike_id":"249b60f8-33ca-4018-903c-7e31426c1af6","system_id":"levelo_inurba_marseille","lat":43.260225,"lon":5.375455,"is_reserved":false,"is_disabled":false,"rental_uris":{"android":"levelo://app?vid=249b60f8-33ca-4018-903c-7e31426c1af6","ios":"levelo://app?vid=249b60f8-33ca-4018-903c-7e31426c1af6"},"vehicle_type_id":"4","last_reported":1700748398,"current_range_meters":28400,"station_id":"ce4bhgh2rcd13ifvqfa0","pricing_plan_id":"free"},{"bike_id":"3f0f140e-166e-4e15-943d-0bccdbe67b8e","system_id":"levelo_inurba_marseille","lat":43.26093,"lon":5.3976,"is_reserved":false,"is_disabled":false,"rental_uris":{"android":"levelo://app?vid=3f0f140e-166e-4e15-943d-0bccdbe67b8e","ios":"levelo://app?vid=3f0f140e-166e-4e15-943d-0bccdbe67b8e"},"vehicle_type_id":"4","last_reported":1700748398,"current_range_meters":11600,"station_id":"ce4bhi12rcd13ifvqfq0","pricing_plan_id":"free"},{"bike_id":"cd2446c7-e42a-4d8e-a5db-c1b65262cf68","system_id":"levelo_inurba_marseille","lat":43.275028,"lon":5.424534,"is_reserved":false,"is_disabled":false,"rental_uris":{"android":"levelo://app?vid=cd2446c7-e42a-4d8e-a5db-c1b65262cf68","ios":"levelo://app?vid=cd2446c7-e42a-4d8e-a5db-c1b65262cf68"},"vehicle_type_id":"4","last_reported":1700748398,"current_range_meters":19200,"station_id":"ce4bhn92rcd13ifvqgrg","pricing_plan_id":"free"},{"bike_id":"7371b4a1-8251-4e69-849c-dce668ffc81f","system_id":"levelo_inurba_marseille","lat":43.275028,"lon":5.424534,"is_reserved":false,"is_disabled":false,"rental_uris":{"android":"levelo://app?vid=7371b4a1-8251-4e69-849c-dce668ffc81f","ios":"levelo://app?vid=7371b4a1-8251-4e69-849c-dce668ffc81f"},"vehicle_type_id":"4","last_reported":1700748398,"current_range_meters":22800,"station_id":"ce4bhn92rcd13ifvqgrg","pricing_plan_id":"free"},{"bike_id":"e14584dd-d060-49ba-ba4e-7d380be725e7","system_id":"levelo_inurba_marseille","lat":43.27493,"lon":5.42451,"is_reserved":false,"is_disabled":false,"rental_uris":{"android":"levelo://app?vid=e14584dd-d060-49ba-ba4e-7d380be725e7","ios":"levelo://app?vid=e14584dd-d060-49ba-ba4e-7d380be725e7"},"vehicle_type_id":"4","last_reported":1700748398,"current_range_meters":0,"station_id":"ce4bhn92rcd13ifvqgrg","pricing_plan_id":"free"},{"bike_id":"4147f69e-9e6b-4f20-9882-72d6af1925f4","system_id":"levelo_inurba_marseille","lat":43.275028,"lon":5.424534,"is_reserved":false,"is_disabled":false,"rental_uris":{"android":"levelo://app?vid=4147f69e-9e6b-4f20-9882-72d6af1925f4","ios":"levelo://app?vid=4147f69e-9e6b-4f20-9882-72d6af1925f4"},"vehicle_type_id":"4","last_reported":1700748398,"current_range_meters":0,"station_id":"ce4bhn92rcd13ifvqgrg","pricing_plan_id":"free"},{"bike_id":"e801c53a-920f-4e5f-ab4b-d6718e224cd8","system_id":"levelo_inurba_marseille","lat":43.260912,"lon":5.397584,"is_reserved":false,"is_disabled":false,"rental_uris":{"android":"levelo://app?vid=e801c53a-920f-4e5f-ab4b-d6718e224cd8","ios":"levelo://app?vid=e801c53a-920f-4e5f-ab4b-d6718e224cd8"},"vehicle_type_id":"4","last_reported":1700748398,"current_range_meters":7200,"station_id":"ce4bhi12rcd13ifvqfq0","pricing_plan_id":"free"},{"bike_id":"4089c0fd-abcc-4017-8069-a09b41ffc9ed","system_id":"levelo_inurba_marseille","lat":43.275028,"lon":5.424534,"is_reserved":false,"is_disabled":false,"rental_uris":{"android":"levelo://app?vid=4089c0fd-abcc-4017-8069-a09b41ffc9ed","ios":"levelo://app?vid=4089c0fd-abcc-4017-8069-a09b41ffc9ed"},"vehicle_type_id":"4","last_reported":1700748398,"current_range_meters":21600,"station_id":"ce4bhn92rcd13ifvqgrg","pricing_plan_id":"free"},{"bike_id":"d3ab2b17-1a3a-444e-a8fa-27047b9caf83","system_id":"levelo_inurba_marseille","lat":43.260912,"lon":5.397584,"is_reserved":false,"is_disabled":false,"rental_uris":{"android":"levelo://app?vid=d3ab2b17-1a3a-444e-a8fa-27047b9caf83","ios":"levelo://app?vid=d3ab2b17-1a3a-444e-a8fa-27047b9caf83"},"vehicle_type_id":"4","last_reported":1700748398,"current_range_meters":25200,"station_id":"ce4bhi12rcd13ifvqfq0","pricing_plan_id":"free"},{"bike_id":"de5529d1-ad3b-4b11-84a4-07a9dffe3d3a","system_id":"levelo_inurba_marseille","lat":43.260909,"lon":5.397591,"is_reserved":false,"is_disabled":false,"rental_uris":{"android":"levelo://app?vid=de5529d1-ad3b-4b11-84a4-07a9dffe3d3a","ios":"levelo://app?vid=de5529d1-ad3b-4b11-84a4-07a9dffe3d3a"},"vehicle_type_id":"4","last_reported":1700748398,"current_range_meters":8000,"station_id":"ce4bhi12rcd13ifvqfq0","pricing_plan_id":"free"},{"bike_id":"783d345b-618b-43b8-a8d1-b92c9d798655","system_id":"levelo_inurba_marseille","lat":43.25586,"lon":5.38231,"is_reserved":false,"is_disabled":false,"rental_uris":{"android":"levelo://app?vid=783d345b-618b-43b8-a8d1-b92c9d798655","ios":"levelo://app?vid=783d345b-618b-43b8-a8d1-b92c9d798655"},"vehicle_type_id":"4","last_reported":1700748398,"current_range_meters":31200,"station_id":"ce4bhih2rcd13ifvqfs0","pricing_plan_id":"free"},{"bike_id":"c24e7c5c-ca85-486e-ac2c-07f118793c42","system_id":"levelo_inurba_marseille","lat":43.258224,"lon":5.394369,"is_reserved":false,"is_disabled":false,"rental_uris":{"android":"levelo://app?vid=c24e7c5c-ca85-486e-ac2c-07f118793c42","ios":"levelo://app?vid=c24e7c5c-ca85-486e-ac2c-07f118793c42"},"vehicle_type_id":"4","last_reported":1700748398,"current_range_meters":16400,"station_id":"ce4bhip2rcd13ifvqft0","pricing_plan_id":"free"},{"bike_id":"12cec3c5-f658-496a-951a-1ef01be2417a","system_id":"levelo_inurba_marseille","lat":43.255756,"lon":5.382303,"is_reserved":false,"is_disabled":false,"rental_uris":{"android":"levelo://app?vid=12cec3c5-f658-496a-951a-1ef01be2417a","ios":"levelo://app?vid=12cec3c5-f658-496a-951a-1ef01be2417a"},"vehicle_type_id":"4","last_reported":1700748398,"current_range_meters":31200,"station_id":"ce4bhih2rcd13ifvqfs0","pricing_plan_id":"free"},{"bike_id":"99e0e8a9-8e6d-4221-9bb5-666141ec9117","system_id":"levelo_inurba_marseille","lat":43.254947,"lon":5.376454,"is_reserved":false,"is_disabled":false,"rental_uris":{"android":"levelo://app?vid=99e0e8a9-8e6d-4221-9bb5-666141ec9117","ios":"levelo://app?vid=99e0e8a9-8e6d-4221-9bb5-666141ec9117"},"vehicle_type_id":"4","last_reported":1700748398,"current_range_meters":10800,"station_id":"ce4bhh12rcd13ifvqff0","pricing_plan_id":"free"},{"bike_id":"fdfb004f-1cec-4f8f-b113-69244b49a5b1","system_id":"levelo_inurba_marseille","lat":43.254947,"lon":5.376454,"is_reserved":false,"is_disabled":false,"rental_uris":{"android":"levelo://app?vid=fdfb004f-1cec-4f8f-b113-69244b49a5b1","ios":"levelo://app?vid=fdfb004f-1cec-4f8f-b113-69244b49a5b1"},"vehicle_type_id":"4","last_reported":1700748398,"current_range_meters":30800,"station_id":"ce4bhh12rcd13ifvqff0","pricing_plan_id":"free"},{"bike_id":"63ddc160-6039-49d3-90ad-9081f09ffb5a","system_id":"levelo_inurba_marseille","lat":43.254947,"lon":5.376454,"is_reserved":false,"is_disabled":false,"rental_uris":{"android":"levelo://app?vid=63ddc160-6039-49d3-90ad-9081f09ffb5a","ios":"levelo://app?vid=63ddc160-6039-49d3-90ad-9081f09ffb5a"},"vehicle_type_id":"4","last_reported":1700748398,"current_range_meters":18000,"station_id":"ce4bhh12rcd13ifvqff0","pricing_plan_id":"free"},{"bike_id":"01f93f70-7088-4352-9ba2-dcb10c068540","system_id":"levelo_inurba_marseille","lat":43.27069,"lon":5.42274,"is_reserved":false,"is_disabled":false,"rental_uris":{"android":"levelo://app?vid=01f93f70-7088-4352-9ba2-dcb10c068540","ios":"levelo://app?vid=01f93f70-7088-4352-9ba2-dcb10c068540"},"vehicle_type_id":"4","last_reported":1700748398,"current_range_meters":0,"station_id":"ce4bhk92rcd13ifvqgb0","pricing_plan_id":"free"},{"bike_id":"4f54d1f2-5111-48d6-b241-746024832a51","system_id":"levelo_inurba_marseille","lat":43.25933,"lon":5.40915,"is_reserved":false,"is_disabled":false,"rental_uris":{"android":"levelo://app?vid=4f54d1f2-5111-48d6-b241-746024832a51","ios":"levelo://app?vid=4f54d1f2-5111-48d6-b241-746024832a51"},"vehicle_type_id":"4","last_reported":1700748398,"current_range_meters":11600,"station_id":"ce4bhm92rcd13ifvqglg","pricing_plan_id":"free"},{"bike_id":"aec70065-8cb7-4bb4-b9c4-a7c779c7dce9","system_id":"levelo_inurba_marseille","lat":43.259009,"lon":5.40929,"is_reserved":false,"is_disabled":false,"rental_uris":{"android":"levelo://app?vid=aec70065-8cb7-4bb4-b9c4-a7c779c7dce9","ios":"levelo://app?vid=aec70065-8cb7-4bb4-b9c4-a7c779c7dce9"},"vehicle_type_id":"4","last_reported":1700748398,"current_range_meters":0,"station_id":"ce4bhm92rcd13ifvqglg","pricing_plan_id":"free"},{"bike_id":"0ae85cb4-aafc-460d-abec-d199c8a14085","system_id":"levelo_inurba_marseille","lat":43.25023,"lon":5.38937,"is_reserved":false,"is_disabled":false,"rental_uris":{"android":"levelo://app?vid=0ae85cb4-aafc-460d-abec-d199c8a14085","ios":"levelo://app?vid=0ae85cb4-aafc-460d-abec-d199c8a14085"},"vehicle_type_id":"4","last_reported":1700748398,"current_range_meters":30800,"station_id":"ce4bhgp2rcd13ifvqfd0","pricing_plan_id":"free"},{"bike_id":"e24ed7c2-6b58-4399-a32e-b15073455115","system_id":"levelo_inurba_marseille","lat":43.250023,"lon":5.38919,"is_reserved":false,"is_disabled":false,"rental_uris":{"android":"levelo://app?vid=e24ed7c2-6b58-4399-a32e-b15073455115","ios":"levelo://app?vid=e24ed7c2-6b58-4399-a32e-b15073455115"},"vehicle_type_id":"4","last_reported":1700748398,"current_range_meters":31200,"station_id":"ce4bhgp2rcd13ifvqfd0","pricing_plan_id":"free"},{"bike_id":"d0399ea3-28ea-45aa-adb9-931c67294a7d","system_id":"levelo_inurba_marseille","lat":43.250023,"lon":5.38919,"is_reserved":false,"is_disabled":false,"rental_uris":{"android":"levelo://app?vid=d0399ea3-28ea-45aa-adb9-931c67294a7d","ios":"levelo://app?vid=d0399ea3-28ea-45aa-adb9-931c67294a7d"},"vehicle_type_id":"4","last_reported":1700748398,"current_range_meters":20800,"station_id":"ce4bhgp2rcd13ifvqfd0","pricing_plan_id":"free"},{"bike_id":"c45ef5af-4fda-4ec8-9e37-6820986aabe1","system_id":"levelo_inurba_marseille","lat":43.2479,"lon":5.374457,"is_reserved":false,"is_disabled":false,"rental_uris":{"android":"levelo://app?vid=c45ef5af-4fda-4ec8-9e37-6820986aabe1","ios":"levelo://app?vid=c45ef5af-4fda-4ec8-9e37-6820986aabe1"},"vehicle_type_id":"4","last_reported":1700748398,"current_range_meters":28000,"station_id":"ce4bhgh2rcd13ifvqfb0","pricing_plan_id":"free"},{"bike_id":"eda9a36a-f773-49a5-a5b5-be7e6170efbd","system_id":"levelo_inurba_marseille","lat":43.2479,"lon":5.374457,"is_reserved":false,"is_disabled":false,"rental_uris":{"android":"levelo://app?vid=eda9a36a-f773-49a5-a5b5-be7e6170efbd","ios":"levelo://app?vid=eda9a36a-f773-49a5-a5b5-be7e6170efbd"},"vehicle_type_id":"4","last_reported":1700748398,"current_range_meters":14800,"station_id":"ce4bhgh2rcd13ifvqfb0","pricing_plan_id":"free"},{"bike_id":"7793ab7f-71e8-434b-9624-b4e7e4653c02","system_id":"levelo_inurba_marseille","lat":43.2479,"lon":5.374457,"is_reserved":false,"is_disabled":false,"rental_uris":{"android":"levelo://app?vid=7793ab7f-71e8-434b-9624-b4e7e4653c02","ios":"levelo://app?vid=7793ab7f-71e8-434b-9624-b4e7e4653c02"},"vehicle_type_id":"4","last_reported":1700748398,"current_range_meters":31200,"station_id":"ce4bhgh2rcd13ifvqfb0","pricing_plan_id":"free"},{"bike_id":"27fa4f8b-cfa8-4b40-9137-98390a398bc4","system_id":"levelo_inurba_marseille","lat":43.2479,"lon":5.374457,"is_reserved":false,"is_disabled":false,"rental_uris":{"android":"levelo://app?vid=27fa4f8b-cfa8-4b40-9137-98390a398bc4","ios":"levelo://app?vid=27fa4f8b-cfa8-4b40-9137-98390a398bc4"},"vehicle_type_id":"4","last_reported":1700748398,"current_range_meters":20400,"station_id":"ce4bhgh2rcd13ifvqfb0","pricing_plan_id":"free"},{"bike_id":"ae511e2e-e51e-421a-9508-ba44604ff982","system_id":"levelo_inurba_marseille","lat":43.2479,"lon":5.374457,"is_reserved":false,"is_disabled":false,"rental_uris":{"android":"levelo://app?vid=ae511e2e-e51e-421a-9508-ba44604ff982","ios":"levelo://app?vid=ae511e2e-e51e-421a-9508-ba44604ff982"},"vehicle_type_id":"4","last_reported":1700748398,"current_range_meters":31200,"station_id":"ce4bhgh2rcd13ifvqfb0","pricing_plan_id":"free"},{"bike_id":"e8d8aa38-38a3-4cef-85a3-8a4ea5c7949b","system_id":"levelo_inurba_marseille","lat":43.2479,"lon":5.374457,"is_reserved":false,"is_disabled":false,"rental_uris":{"android":"levelo://app?vid=e8d8aa38-38a3-4cef-85a3-8a4ea5c7949b","ios":"levelo://app?vid=e8d8aa38-38a3-4cef-85a3-8a4ea5c7949b"},"vehicle_type_id":"4","last_reported":1700748398,"current_range_meters":31200,"station_id":"ce4bhgh2rcd13ifvqfb0","pricing_plan_id":"free"},{"bike_id":"6e852d6e-6221-4234-bd3f-2ab798434b51","system_id":"levelo_inurba_marseille","lat":43.25102,"lon":5.403214,"is_reserved":false,"is_disabled":false,"rental_uris":{"android":"levelo://app?vid=6e852d6e-6221-4234-bd3f-2ab798434b51","ios":"levelo://app?vid=6e852d6e-6221-4234-bd3f-2ab798434b51"},"vehicle_type_id":"4","last_reported":1700748398,"current_range_meters":28000,"station_id":"ce4bhlh2rcd13ifvqgig","pricing_plan_id":"free"},