{"last_updated":1716026820,"ttl":30,"version":"2.2","data":{"bikes":[{"bike_id":"31e33ece-51ed-493b-8cad-e4f425d75c8b","system_id":"levelo_inurba_marseille","lat":43.313391,"lon":5.36706,"is_reserved":false,"is_disabled":false,"rental_uris":{"android":"levelo://app?vid=31e33ece-51ed-493b-8cad-e4f425d75c8b","ios":"levelo://app?vid=31e33ece-51ed-493b-8cad-e4f425d75c8b"},"vehicle_type_id":"4","last_reported":1716026820,"current_range_meters":27200,"station_id":"ce4bgr92rcd13ifvqc6g","pricing_plan_id":"cebpf4jnsgd1na2vs0mg"},{"bike_id":"0075149d-2cba-48ec-98c4-f079e924d12e","system_id":"levelo_inurba_marseille","lat":43.313391,"lon":5.36706,"is_reserved":false,"is_disabled":false,"rental_uris":{"android":"levelo://app?vid=0075149d-2cba-48ec-98c4-f079e924d12e","ios":"levelo://app?vid=0075149d-2cba-48ec-98c4-f079e924d12e"},"vehicle_type_id":"4","last_reported":1716026820,"current_range_meters":17600,"station_id":"ce4bgr92rcd13ifvqc6g","pricing_plan_id":"cebpf4jnsgd1na2vs0mg"},{"bike_id":"ef390cdc-d908-4e4e-a256-197586e4feae","system_id":"levelo_inurba_marseille","lat":43.31341,"lon":5.367098,"is_reserved":false,"is_disabled":false,"rental_uris":{"android":"levelo://app?vid=ef390cdc-d908-4e4e-a256-197586e4feae","ios":"levelo://app?vid=ef390cdc-d908-4e4e-a256-197586e4feae"},"vehicle_type_id":"4","last_reported":1716026820,"current_range_meters":26400,"station_id":"ce4bgr92rcd13ifvqc6g","pricing_plan_id":"cebpf4jnsgd1na2vs0mg"},{"bike_id":"0f4afbea-7a01-4175-b5e1-5596b8c6a0a5","system_id":"levelo_inurba_marseille","lat":43.31341,"lon":5.367098,"is_reserved":false,"is_disabled":false,"rental_uris":{"android":"levelo://app?vid=0f4afbea-7a01-4175-b5e1-5596b8c6a0a5","ios":"levelo://app?vid=0f4afbea-7a01-4175-b5e1-5596b8c6a0a5"},"vehicle_type_id":"4","last_reported":1716026820,"current_range_meters":17200,"station_id":"ce4bgr92rcd13ifvqc6g","pricing_plan_id":"cebpf4jnsgd1na2vs0mg"},{"bike_id":"50d2fce8-9315-4d0f-bbc1-320d2042af8c","system_id":"levelo_inurba_marseille","lat":43.31341,"lon":5.367098,"is_reserved":false,"is_disabled":false,"rental_uris":{"android":"levelo://app?vid=50d2fce8-9315-4d0f-bbc1-320d2042af8c","ios":"levelo://app?vid=50d2fce8-9315-4d0f-bbc1-320d2042af8c"},"vehicle_type_id":"4","last_reported":1716026820,"current_range_meters":19600,"station_id":"ce4bgr92rcd13ifvqc6g","pricing_plan_id":"cebpf4jnsgd1na2vs0mg"},{"bike_id":"bdcef758-cdce-4d1e-bfc6-ad74dece7725","system_id":"levelo_inurba_marseille","lat":43.31341,"lon":5.367098,"is_reserved":false,"is_disabled":false,"rental_uris":{"android":"levelo://app?vid=bdcef758-cdce-4d1e-bfc6-ad74dece7725","ios":"levelo://app?vid=bdcef758-cdce-4d1e-bfc6-ad74dece7725"},"vehicle_type_id":"4","last_reported":1716026820,"current_range_meters":7600,"station_id":"ce4bgr92rcd13ifvqc6g","pricing_plan_id":"cebpf4jnsgd1na2vs0mg"},{"bike_id":"afab2cc5-130e-4bbc-976b-ed8f91749591","system_id":"levelo_inurba_marseille","lat":43.312239,"lon":5.368562,"is_reserved":false,"is_disabled":false,"rental_uris":{"android":"levelo://app?vid=afab2cc5-130e-4bbc-976b-ed8f91749591","ios":"levelo://app?vid=afab2cc5-130e-4bbc-976b-ed8f91749591"},"vehicle_type_id":"4","last_reported":1716026820,"current_range_meters":25600,"station_id":"ce4bgl92rcd13ifvqbq0","pricing_plan_id":"cebpf4jnsgd1na2vs0mg"},{"bike_id":"02208ba7-dc4c-4682-b801-c1d4dd50f2c3","system_id":"levelo_inurba_marseille","lat":43.312239,"lon":5.368562,"is_reserved":false,"is_disabled":false,"rental_uris":{"android":"levelo://app?vid=02208ba7-dc4c-4682-b801-c1d4dd50f2c3","ios":"levelo://app?vid=02208ba7-dc4c-4682-b801-c1d4dd50f2c3"},"vehicle_type_id":"4","last_reported":1716026820,"current_range_meters":11600,"station_id":"ce4bgl92rcd13ifvqbq0","pricing_plan_id":"cebpf4jnsgd1na2vs0mg"},{"bike_id":"b7a492e5-2802-419d-8d04-9cd5180d1219","system_id":"levelo_inurba_marseille","lat":43.309076,"lon":5.368465,"is_reserved":false,"is_disabled":false,"rental_uris":{"android":"levelo://app?vid=b7a492e5-2802-419d-8d04-9cd5180d1219","ios":"levelo://app?vid=b7a492e5-2802-419d-8d04-9cd5180d1219"},"vehicle_type_id":"4","last_reported":1716026820,"current_range_meters":30000,"station_id":"ce4bgn92rcd13ifvqbvg","pricing_plan_id":"cebpf4jnsgd1na2vs0mg"},{"bike_id":"758ed732-9b55-4e9a-a4d4-33243bee40f6","system_id":"levelo_inurba_marseille","lat":43.31499,"lon":5.3731,"is_reserved":false,"is_disabled":false,"rental_uris":{"android":"levelo://app?vid=758ed732-9b55-4e9a-a4d4-33243bee40f6","ios":"levelo://app?vid=758ed732-9b55-4e9a-a4d4-33243bee40f6"},"vehicle_type_id":"4","last_reported":1716026820,"current_range_meters":30000,"station_id":"ce4bgt12rcd13ifvqcd0","pricing_plan_id":"cebpf4jnsgd1na2vs0mg"},{"bike_id":"a277fe65-7ca8-46b0-927f-8ef2dae50fa5","system_id":"levelo_inurba_marseille","lat":43.309034,"lon":5.371783,"is_reserved":false,"is_disabled":false,"rental_uris":{"android":"levelo://app?vid=a277fe65-7ca8-46b0-927f-8ef2dae50fa5","ios":"levelo://app?vid=a277fe65-7ca8-46b0-927f-8ef2dae50fa5"},"vehicle_type_id":"4","last_reported":1716026820,"current_range_meters":3600,"station_id":"ce4bguh2rcd13ifvqckg","pricing_plan_id":"cebpf4jnsgd1na2vs0mg"},{"bike_id":"1a0057bb-7ac7-4a65-8f1d-2fd4463ae552","system_id":"levelo_inurba_marseille","lat":43.30558,"lon":5.36546,"is_reserved":false,"is_disabled":false,"rental_uris":{"android":"levelo://app?vid=1a0057bb-7ac7-4a65-8f1d-2fd4463ae552","ios":"levelo://app?vid=1a0057bb-7ac7-4a65-8f1d-2fd4463ae552"},"vehicle_type_id":"4","last_reported":1716026820,"current_range_meters":25600,"station_id":"ce4bgs12rcd13ifvqcag","pricing_plan_id":"cebpf4jnsgd1na2vs0mg"},{"bike_id":"b222ae8a-ab52-4e73-8aba-c392d8e0d3e0","system_id":"levelo_inurba_marseille","lat":43.3055,"lon":5.36719,"is_reserved":false,"is_disabled":false,"rental_uris":{"android":"levelo://app?vid=b222ae8a-ab52-4e73-8aba-c392d8e0d3e0","ios":"levelo://app?vid=b222ae8a-ab52-4e73-8aba-c392d8e0d3e0"},"vehicle_type_id":"4","last_reported":1716026820,"current_range_meters":10800,"station_id":"ce4bgrp2rcd13ifvqc9g","pricing_plan_id":"cebpf4jnsgd1na2vs0mg"},{"bike_id":"2a95b659-2a5e-4524-917f-05b7493758ae","system_id":"levelo_inurba_marseille","lat":43.305714,"lon":5.365633,"is_reserved":false,"is_disabled":false,"rental_uris":{"android":"levelo://app?vid=2a95b659-2a5e-4524-917f-05b7493758ae","ios":"levelo://app?vid=2a95b659-2a5e-4524-917f-05b7493758ae"},"vehicle_type_id":"4","last_reported":1716026820,"current_range_meters":28400,"station_id":"ce4bgs12rcd13ifvqcag","pricing_plan_id":"cebpf4jnsgd1na2vs0mg"},{"bike_id":"3787b550-d5ea-41e9-80d9-6426f2b1db0e","system_id":"levelo_inurba_marseille","lat":43.305714,"lon":5.365633,"is_reserved":false,"is_disabled":false,"rental_uris":{"android":"levelo://app?vid=3787b550-d5ea-41e9-80d9-6426f2b1db0e","ios":"levelo://app?vid=3787b550-d5ea-41e9-80d9-6426f2b1db0e"},"vehicle_type_id":"4","last_reported":1716026820,"current_range_meters":21200,"station_id":"ce4bgs12rcd13ifvqcag","pricing_plan_id":"cebpf4jnsgd1na2vs0mg"},{"bike_id":"ec7ba2f3-0063-4a9e-a3f2-4ef4059ee39a","system_id":"levelo_inurba_marseille","lat":43.305455,"lon":5.367095,"is_reserved":false,"is_disabled":false,"rental_uris":{"android":"levelo://app?vid=ec7ba2f3-0063-4a9e-a3f2-4ef4059ee39a","ios":"levelo://app?vid=ec7ba2f3-0063-4a9e-a3f2-4ef4059ee39a"},"vehicle_type_id":"4","last_reported":1716026820,"current_range_meters":4000,"station_id":"ce4bgrp2rcd13ifvqc9g","pricing_plan_id":"cebpf4jnsgd1na2vs0mg"},{"bike_id":"b664fc14-5908-460e-a891-f8a5d5eeec75","system_id":"levelo_inurba_marseille","lat":43.30545,"lon":5.36711,"is_reserved":false,"is_disabled":false,"rental_uris":{"android":"levelo://app?vid=b664fc14-5908-460e-a891-f8a5d5eeec75","ios":"levelo://app?vid=b664fc14-5908-460e-a891-f8a5d5eeec75"},"vehicle_type_id":"4","last_reported":1716026820,"current_range_meters":18800,"station_id":"ce4bgrp2rcd13ifvqc9g","pricing_plan_id":"cebpf4jnsgd1na2vs0mg"},{"bike_id":"52b6b37c-25fd-4c6f-8dd8-fddb7e79a1fa","system_id":"levelo_inurba_marseille","lat":43.30537,"lon":5.367345,"is_reserved":false,"is_disabled":false,"rental_uris":{"android":"levelo://app?vid=52b6b37c-25fd-4c6f-8dd8-fddb7e79a1fa","ios":"levelo://app?vid=52b6b37c-25fd-4c6f-8dd8-fddb7e79a1fa"},"vehicle_type_id":"4","last_reported":1716026820,"current_range_meters":31200,"station_id":"ce4bgrp2rcd13ifvqc9g","pricing_plan_id":"cebpf4jnsgd1na2vs0mg"},{"bike_id":"97204b13-8059-4c44-82b9-df7cd34bc11e","system_id":"levelo_inurba_marseille","lat":43.30551,"lon":5.36545,"is_reserved":false,"is_disabled":false,"rental_uris":{"android":"levelo://app?vid=97204b13-8059-4c44-82b9-df7cd34bc11e","ios":"levelo://app?vid=97204b13-8059-4c44-82b9-df7cd34bc11e"},"vehicle_type_id":"4","last_reported":1716026820,"current_range_meters":23200,"station_id":"ce4bgs12rcd13ifvqcag","pricing_plan_id":"cebpf4jnsgd1na2vs0mg"},{"bike_id":"4417d86d-8242-4ee5-affe-aaef63f1dba1","system_id":"levelo_inurba_marseille","lat":43.305368,"lon":5.367343,"is_reserved":false,"is_disabled":false,"rental_uris":{"android":"levelo://app?vid=4417d86d-8242-4ee5-affe-aaef63f1dba1","ios":"levelo://app?vid=4417d86d-8242-4ee5-affe-aaef63f1dba1"},"vehicle_type_id":"4","last_reported":1716026820,"current_range_meters":0,"station_id":"ce4bgrp2rcd13ifvqc9g","pricing_plan_id":"cebpf4jnsgd1na2vs0mg"},{"bike_id":"d6f90cf5-f728-4d2a-b755-8bb8041809cb","system_id":"levelo_inurba_marseille","lat":43.305368,"lon":5.367343,"is_reserved":false,"is_disabled":false,"rental_uris":{"android":"levelo://app?vid=d6f90cf5-f728-4d2a-b755-8bb8041809cb","ios":"levelo://app?vid=d6f90cf5-f728-4d2a-b755-8bb8041809cb"},"vehicle_type_id":"4","last_reported":1716026820,"current_range_meters":2400,"station_id":"ce4bgrp2rcd13ifvqc9g","pricing_plan_id":"cebpf4jnsgd1na2vs0mg"},{"bike_id":"f49f0205-831d-4c4a-955d-e0ea74d741a6","system_id":"levelo_inurba_marseille","lat":43.3055,"lon":5.365397,"is_reserved":false,"is_disabled":false,"rental_uris":{"android":"levelo://app?vid=f49f0205-831d-4c4a-955d-e0ea74d741a6","ios":"levelo://app?vid=f49f0205-831d-4c4a-955d-e0ea74d741a6"},"vehicle_type_id":"4","last_reported":1716026820,"current_range_meters":29200,"station_id":"ce4bgs12rcd13ifvqcag","pricing_plan_id":"cebpf4jnsgd1na2vs0mg"},{"bike_id":"cbf2a39c-c141-4cc5-983c-b51073c03e84","system_id":"levelo_inurba_marseille","lat":43.305714,"lon":5.365633,"is_reserved":false,"is_disabled":false,"rental_uris":{"android":"levelo://app?vid=cbf2a39c-c141-4cc5-983c-b51073c03e84","ios":"levelo://app?vid=cbf2a39c-c141-4cc5-983c-b51073c03e84"},"vehicle_type_id":"4","last_reported":1716026820,"current_range_meters":15200,"station_id":"ce4bgs12rcd13ifvqcag","pricing_plan_id":"cebpf4jnsgd1na2vs0mg"},{"bike_id":"f7f39134-f1a7-431b-be15-82b3e01b2e57","system_id":"levelo_inurba_marseille","lat":43.305714,"lon":5.365633,"is_reserved":false,"is_disabled":false,"rental_uris":{"android":"levelo://app?vid=f7f39134-f1a7-431b-be15-82b3e01b2e57","ios":"levelo://app?vid=f7f39134-f1a7-431b-be15-82b3e01b2e57"},"vehicle_type_id":"4","last_reported":1716026820,"current_range_meters":0,"station_id":"ce4bgs12rcd13ifvqcag","pricing_plan_id":"cebpf4jnsgd1na2vs0mg"},{"bike_id":"9f660f7f-54c0-4715-ad02-49d9e93b9c7d","system_id":"levelo_inurba_marseille","lat":43.305714,"lon":5.365633,"is_reserved":false,"is_disabled":false,"rental_uris":{"android":"levelo://app?vid=9f660f7f-54c0-4715-ad02-49d9e93b9c7d","ios":"levelo://app?vid=9f660f7f-54c0-4715-ad02-49d9e93b9c7d"},"vehicle_type_id":"4","last_reported":1716026820,"current_range_meters":25600,"station_id":"ce4bgs12rcd13ifvqcag","pricing_plan_id":"cebpf4jnsgd1na2vs0mg"},{"bike_id":"ecb7cfc0-781f-45a2-a5d0-6f98db91abd2","system_id":"levelo_inurba_marseille","lat":43.305714,"lon":5.365633,"is_reserved":false,"is_disabled":false,"rental_uris":{"android":"levelo://app?vid=ecb7cfc0-781f-45a2-a5d0-6f98db91abd2","ios":"levelo://app?vid=ecb7cfc0-781f-45a2-a5d0-6f98db91abd2"},"vehicle_type_id":"4","last_reported":1716026820,"current_range_meters":20000,"station_id":"ce4bgs12rcd13ifvqcag","pricing_plan_id":"cebpf4jnsgd1na2vs0mg"},{"bike_id":"cbce6d4f-68ae-4969-bb5a-a41e65090665","system_id":"levelo_inurba_marseille","lat":43.305368,"lon":5.367343,"is_reserved":false,"is_disabled":false,"rental_uris":{"android":"levelo://app?vid=cbce6d4f-68ae-4969-bb5a-a41e65090665","ios":"levelo://app?vid=cbce6d4f-68ae-4969-bb5a-a41e65090665"},"vehicle_type_id":"4","last_reported":1716026820,"current_range_meters":22000,"station_id":"ce4bgrp2rcd13ifvqc9g","pricing_plan_id":"cebpf4jnsgd1na2vs0mg"},{"bike_id":"4ba2cf68-2440-4f36-aa85-642e27b9dbf7","system_id":"levelo_inurba_marseille","lat":43.305714,"lon":5.365633,"is_reserved":false,"is_disabled":false,"rental_uris":{"android":"levelo://app?vid=4ba2cf68-2440-4f36-aa85-642e27b9dbf7","ios":"levelo://app?vid=4ba2cf68-2440-4f36-aa85-642e27b9dbf7"},"vehicle_type_id":"4","last_reported":1716026820,"current_range_meters":24400,"station_id":"ce4bgs12rcd13ifvqcag","pricing_plan_id":"cebpf4jnsgd1na2vs0mg"},{"bike_id":"757989d1-b416-4f18-934f-ad385d92a823","system_id":"levelo_inurba_marseille","lat":43.305714,"lon":5.365633,"is_reserved":false,"is_disabled":false,"rental_uris":{"android":"levelo://app?vid=757989d1-b416-4f18-934f-ad385d92a823","ios":"levelo://app?vid=757989d1-b416-4f18-934f-ad385d92a823"},"vehicle_type_id":"4","last_reported":1716026820,"current_range_meters":2000,"station_id":"ce4bgs12rcd13ifvqcag","pricing_plan_id":"cebpf4jnsgd1na2vs0mg"},{"bike_id":"4838e1df-6f20-43e8-88d5-29d4e9a51085","system_id":"levelo_inurba_marseille","lat":43.30536,"lon":5.3671,"is_reserved":false,"is_disabled":false,"rental_uris":{"android":"levelo://app?vid=4838e1df-6f20-43e8-88d5-29d4e9a51085","ios":"levelo://app?vid=4838e1df-6f20-43e8-88d5-29d4e9a51085"},"vehicle_type_id":"4","last_reported":1716026820,"current_range_meters":22800,"station_id":"ce4bgrp2rcd13ifvqc9g","pricing_plan_id":"cebpf4jnsgd1na2vs0mg"},{"bike_id":"3549ce6f-6e07-40b2-809f-aef7f55be1f1","system_id":"levelo_inurba_marseille","lat":43.305714,"lon":5.365633,"is_reserved":false,"is_disabled":false,"rental_uris":{"android":"levelo://app?vid=3549ce6f-6e07-40b2-809f-aef7f55be1f1","ios":"levelo://app?vid=3549ce6f-6e07-40b2-809f-aef7f55be1f1"},"vehicle_type_id":"4","last_reported":1716026820,"current_range_meters":31200,"station_id":"ce4bgs12rcd13ifvqcag","pricing_plan_id":"cebpf4jnsgd1na2vs0mg"},{"bike_id":"db136237-9558-42c9-8d9a-bc67ed6d5d0a","system_id":"levelo_inurba_marseille","lat":43.305714,"lon":5.365633,"is_reserved":false,"is_disabled":false,"rental_uris":{"android":"levelo://app?vid=db136237-9558-42c9-8d9a-bc67ed6d5d0a","ios":"levelo://app?vid=db136237-9558-42c9-8d9a-bc67ed6d5d0a"},"vehicle_type_id":"4","last_reported":1716026820,"current_range_meters":0,"station_id":"ce4bgs12rcd13ifvqcag","pricing_plan_id":"cebpf4jnsgd1na2vs0mg"},{"bike_id":"00bbc385-b09a-4f8c-bbc3-5610ac24e109","system_id":"levelo_inurba_marseille","lat":43.305714,"lon":5.365633,"is_reserved":false,"is_disabled":false,"rental_uris":{"android":"levelo://app?vid=00bbc385-b09a-4f8c-bbc3-5610ac24e109","ios":"levelo://app?vid=00bbc385-b09a-4f8c-bbc3-5610ac24e109"},"vehicle_type_id":"4","last_reported":1716026820,"current_range_meters":21600,"station_id":"ce4bgs12rcd13ifvqcag","pricing_plan_id":"cebpf4jnsgd1na2vs0mg"},{"bike_id":"fc5229f0-4d93-4483-9941-685d3992dbc6","system_id":"levelo_inurba_marseille","lat":43.305368,"lon":5.367343,"is_reserved":false,"is_disabled":false,"rental_uris":{"android":"levelo://app?vid=fc5229f0-4d93-4483-9941-685d3992dbc6","ios":"levelo://app?vid=fc5229f0-4d93-4483-9941-685d3992dbc6"},"vehicle_type_id":"4","last_reported":1716026820,"current_range_meters":6800,"station_id":"ce4bgrp2rcd13ifvqc9g","pricing_plan_id":"cebpf4jnsgd1na2vs0mg"},{"bike_id":"d1ebadc2-c810-4b27-afe0-ee76464393fe","system_id":"levelo_inurba_marseille","lat":43.305706,"lon":5.365654,"is_reserved":false,"is_disabled":false,"rental_uris":{"android":"levelo://app?vid=d1ebadc2-c810-4b27-afe0-ee76464393fe","ios":"levelo://app?vid=d1ebadc2-c810-4b27-afe0-ee76464393fe"},"vehicle_type_id":"4","last_reported":1716026820,"current_range_meters":30400,"station_id":"ce4bgs12rcd13ifvqcag","pricing_plan_id":"cebpf4jnsgd1na2vs0mg"},{"bike_id":"4eb078b5-ab6a-4704-9493-c05d5fa35c5b","system_id":"levelo_inurba_marseille","lat":43.305714,"lon":5.365633,"is_reserved":false,"is_disabled":false,"rental_uris":{"android":"levelo://app?vid=4eb078b5-ab6a-4704-9493-c05d5fa35c5b","ios":"levelo://app?vid=4eb078b5-ab6a-4704-9493-c05d5fa35c5b"},"vehicle_type_id":"4","last_reported":1716026820,"current_range_meters":17600,"station_id":"ce4bgs12rcd13ifvqcag","pricing_plan_id":"cebpf4jnsgd1na2vs0mg"},{"bike_id":"4d4e1c5b-efec-4305-97e5-942a0c2c1401","system_id":"levelo_inurba_marseille","lat":43.305714,"lon":5.365633,"is_reserved":false,"is_disabled":false,"rental_uris":{"android":"levelo://app?vid=4d4e1c5b-efec-4305-97e5-942a0c2c1401","ios":"levelo://app?vid=4d4e1c5b-efec-4305-97e5-942a0c2c1401"},"vehicle_type_id":"4","last_reported":1716026820,"current_range_meters":20400,"station_id":"ce4bgs12rcd13ifvqcag","pricing_plan_id":"cebpf4jnsgd1na2vs0mg"},{"bike_id":"1229c96a-3e26-4f39-a07c-0585d830f4c7","system_id":"levelo_inurba_marseille","lat":43.305706,"lon":5.365654,"is_reserved":false,"is_disabled":false,"rental_uris":{"android":"levelo://app?vid=1229c96a-3e26-4f39-a07c-0585d830f4c7","ios":"levelo://app?vid=1229c96a-3e26-4f39-a07c-0585d830f4c7"},"vehicle_type_id":"4","last_reported":1716026820,"current_range_meters":10800,"station_id":"ce4bgs12rcd13ifvqcag","pricing_plan_id":"cebpf4jnsgd1na2vs0mg"},{"bike_id":"610125ed-c0b0-4f6c-9611-03ee729f975f","system_id":"levelo_inurba_marseille","lat":43.305368,"lon":5.367343,"is_reserved":false,"is_disabled":false,"rental_uris":{"android":"levelo://app?vid=610125ed-c0b0-4f6c-9611-03ee729f975f","ios":"levelo://app?vid=610125ed-c0b0-4f6c-9611-03ee729f975f"},"vehicle_type_id":"4","last_reported":1716026820,"current_range_meters":28000,"station_id":"ce4bgrp2rcd13ifvqc9g","pricing_plan_id":"cebpf4jnsgd1na2vs0mg"},{"bike_id":"71b957bc-1ac1-44c5-a1eb-1dda084fe27a","system_id":"levelo_inurba_marseille","lat":43.305706,"lon":5.365654,"is_reserved":false,"is_disabled":false,"rental_uris":{"android":"levelo://app?vid=71b957bc-1ac1-44c5-a1eb-1dda084fe27a","ios":"levelo://app?vid=71b957bc-1ac1-44c5-a1eb-1dda084fe27a"},"vehicle_type_id":"4","last_reported":1716026820,"current_range_meters":30400,"station_id":"ce4bgs12rcd13ifvqcag","pricing_plan_id":"cebpf4jnsgd1na2vs0mg"},{"bike_id":"6f018fb6-701a-4be8-b523-051f28fa01fd","system_id":"levelo_inurba_marseille","lat":43.305706,"lon":5.365654,"is_reserved":false,"is_disabled":false,"rental_uris":{"android":"levelo://app?vid=6f018fb6-701a-4be8-b523-051f28fa01fd","ios":"levelo://app?vid=6f018fb6-701a-4be8-b523-051f28fa01fd"},"vehicle_type_id":"4","last_reported":1716026820,"current_range_meters":10000,"station_id":"ce4bgs12rcd13ifvqcag","pricing_plan_id":"cebpf4jnsgd1na2vs0mg"},{"bike_id":"9651c2e0-d8f7-47c8-b6b1-cbd57ca1b5df","system_id":"levelo_inurba_marseille","lat":43.305706,"lon":5.365654,"is_reserved":false,"is_disabled":false,"rental_uris":{"android":"levelo://app?vid=9651c2e0-d8f7-47c8-b6b1-cbd57ca1b5df","ios":"levelo://app?vid=9651c2e0-d8f7-47c8-b6b1-cbd57ca1b5df"},"vehicle_type_id":"4","last_reported":1716026820,"current_range_meters":8400,"station_id":"ce4bgs12rcd13ifvqcag","pricing_plan_id":"cebpf4jnsgd1na2vs0mg"},{"bike_id":"78431737-a4f5-4e61-9597-a8d0e26c208a","system_id":"levelo_inurba_marseille","lat":43.305706,"lon":5.365654,"is_reserved":false,"is_disabled":false,"rental_uris":{"android":"levelo://app?vid=78431737-a4f5-4e61-9597-a8d0e26c208a","ios":"levelo://app?vid=78431737-a4f5-4e61-9597-a8d0e26c208a"},"vehicle_type_id":"4","last_reported":1716026820,"current_range_meters":4000,"station_id":"ce4bgs12rcd13ifvqcag","pricing_plan_id":"cebpf4jnsgd1na2vs0mg"},{"bike_id":"23e18c42-0f4b-4d41-ad7b-e639cf389ae0","system_id":"levelo_inurba_marseille","lat":43.305706,"lon":5.365654,"is_reserved":false,"is_disabled":false,"rental_uris":{"android":"levelo://app?vid=23e18c42-0f4b-4d41-ad7b-e639cf389ae0","ios":"levelo://app?vid=23e18c42-0f4b-4d41-ad7b-e639cf389ae0"},"vehicle_type_id":"4","last_reported":1716026820,"current_range_meters":21200,"station_id":"ce4bgs12rcd13ifvqcag","pricing_plan_id":"cebpf4jnsgd1na2vs0mg"},{"bike_id":"11af3610-d79d-4d63-90ef-9c7f19a6b20c","system_id":"levelo_inurba_marseille","lat":43.305706,"lon":5.365654,"is_reserved":false,"is_disabled":false,"rental_uris":{"android":"levelo://app?vid=11af3610-d79d-4d63-90ef-9c7f19a6b20c","ios":"levelo://app?vid=11af3610-d79d-4d63-90ef-9c7f19a6b20c"},"vehicle_type_id":"4","last_reported":1716026820,"current_range_meters":20800,"station_id":"ce4bgs12rcd13ifvqcag","pricing_plan_id":"cebpf4jnsgd1na2vs0mg"},{"bike_id":"648a395e-3c52-4d42-bfc5-457d772f0fe4","system_id":"levelo_inurba_marseille","lat":43.305714,"lon":5.365633,"is_reserved":false,"is_disabled":false,"rental_uris":{"android":"levelo://app?vid=648a395e-3c52-4d42-bfc5-457d772f0fe4","ios":"levelo://app?vid=648a395e-3c52-4d42-bfc5-457d772f0fe4"},"vehicle_type_id":"4","last_reported":1716026820,"current_range_meters":14400,"station_id":"ce4bgs12rcd13ifvqcag","pricing_plan_id":"cebpf4jnsgd1na2vs0mg"},{"bike_id":"d2c0a873-e5ac-424a-8c8b-c7fa57941b90","system_id":"levelo_inurba_marseille","lat":43.305706,"lon":5.365654,"is_reserved":false,"is_disabled":false,"rental_uris":{"android":"levelo://app?vid=d2c0a873-e5ac-424a-8c8b-c7fa57941b90","ios":"levelo://app?vid=d2c0a873-e5ac-424a-8c8b-c7fa57941b90"},"vehicle_type_id":"4","last_reported":1716026820,"current_range_meters":2800,"station_id":"ce4bgs12rcd13ifvqcag","pricing_plan_id":"cebpf4jnsgd1na2vs0mg"},{"bike_id":"1d90d839-d2e0-43af-9997-073c55763e87","system_id":"levelo_inurba_marseille","lat":43.305706,"lon":5.365654,"is_reserved":false,"is_disabled":false,"rental_uris":{"android":"levelo://app?vid=1d90d839-d2e0-43af-9997-073c55763e87","ios":"levelo://app?vid=1d90d839-d2e0-43af-9997-073c55763e87"},"vehicle_type_id":"4","last_reported":1716026820,"current_range_meters":30400,"station_id":"ce4bgs12rcd13ifvqcag","pricing_plan_id":"cebpf4jnsgd1na2vs0mg"},{"bike_id":"2f31fb3b-9cd5-4947-889b-8ac3d5f1792c","system_id":"levelo_inurba_marseille","lat":43.305989,"lon":5.37225,"is_reserved":false,"is_disabled":false,"rental_uris":{"android":"levelo://app?vid=2f31fb3b-9cd5-4947-889b-8ac3d5f1792c","ios":"levelo://app?vid=2f31fb3b-9cd5-4947-889b-8ac3d5f1792c"},"vehicle_type_id":"4","last_reported":1716026820,"current_range_meters":16000,"station_id":"ce4bgqh2rcd13ifvqc4g","pricing_plan_id":"cebpf4jnsgd1na2vs0mg"},{"bike_id":"65c8db97-d3af-4141-b53b-864fb082c207","system_id":"levelo_inurba_marseille","lat":43.305989,"lon":5.37225,"is_reserved":false,"is_disabled":false,"rental_uris":{"android":"levelo://app?vid=65c8db97-d3af-4141-b53b-864fb082c207","ios":"levelo://app?vid=65c8db97-d3af-4141-b53b-864fb082c207"},"vehicle_type_id":"4","last_reported":1716026820,"current_range_meters":1200,"station_id":"ce4bgqh2rcd13ifvqc4g","pricing_plan_id":"cebpf4jnsgd1na2vs0mg"},{"bike_id":"af2b05ba-9909-4304-add2-b19729c03595","system_id":"levelo_inurba_marseille","lat":43.305989,"lon":5.37225,"is_reserved":false,"is_disabled":false,"rental_uris":{"android":"levelo://app?vid=af2b05ba-9909-4304-add2-b19729c03595","ios":"levelo://app?vid=af2b05ba-9909-4304-add2-b19729c03595"},"vehicle_type_id":"4","last_reported":1716026820,"current_range_meters":5600,"station_id":"ce4bgqh2rcd13ifvqc4g","pricing_plan_id":"cebpf4jnsgd1na2vs0mg"},{"bike_id":"865c539a-749a-4798-a6ca-2889d70c1e91","system_id":"levelo_inurba_marseille","lat":43.305989,"lon":5.37225,"is_reserved":false,"is_disabled":false,"rental_uris":{"android":"levelo://app?vid=865c539a-749a-4798-a6ca-2889d70c1e91","ios":"levelo://app?vid=865c539a-749a-4798-a6ca-2889d70c1e91"},"vehicle_type_id":"4","last_reported":1716026820,"current_range_meters":30000,"station_id":"ce4bgqh2rcd13ifvqc4g","pricing_plan_id":"cebpf4jnsgd1na2vs0mg"},{"bike_id":"7d8b671f-f65b-4337-aca6-db29c0dc26f1","system_id":"levelo_inurba_marseille","lat":43.311125,"lon":5.377624,"is_reserved":false,"is_disabled":false,"rental_uris":{"android":"levelo://app?vid=7d8b671f-f65b-4337-aca6-db29c0dc26f1","ios":"levelo://app?vid=7d8b671f-f65b-4337-aca6-db29c0dc26f1"},"vehicle_type_id":"4","last_reported":1716026820,"current_range_meters":16400,"station_id":"ce4bgt92rcd13ifvqcg0","pricing_plan_id":"cebpf4jnsgd1na2vs0mg"},{"bike_id":"9bcdd1bc-1f36-4086-afa8-b13ffe21bbdb","system_id":"levelo_inurba_marseille","lat":43.311131,"lon":5.377651,"is_reserved":false,"is_disabled":false,"rental_uris":{"android":"levelo://app?vid=9bcdd1bc-1f36-4086-afa8-b13ffe21bbdb","ios":"levelo://app?vid=9bcdd1bc-1f36-4086-afa8-b13ffe21bbdb"},"vehicle_type_id":"4","last_reported":1716026820,"current_range_meters":25600,"station_id":"ce4bgt92rcd13ifvqcg0","pricing_plan_id":"cebpf4jnsgd1na2vs0mg"},{"bike_id":"b452f313-4b17-4cc2-8c12-9deb2f91bb00","system_id":"levelo_inurba_marseille","lat":43.305989,"lon":5.37225,"is_reserved":false,"is_disabled":false,"rental_uris":{"android":"levelo://app?vid=b452f313-4b17-4cc2-8c12-9deb2f91bb00","ios":"levelo://app?vid=b452f313-4b17-4cc2-8c12-9deb2f91bb00"},"vehicle_type_id":"4","last_reported":1716026820,"current_range_meters":6800,"station_id":"ce4bgqh2rcd13ifvqc4g","pricing_plan_id":"cebpf4jnsgd1na2vs0mg"},{"bike_id":"84b12753-80bf-47af-9502-f8e46524e089","system_id":"levelo_inurba_marseille","lat":43.317396,"lon":5.37649,"is_reserved":false,"is_disabled":false,"rental_uris":{"android":"levelo://app?vid=84b12753-80bf-47af-9502-f8e46524e089","ios":"levelo://app?vid=84b12753-80bf-47af-9502-f8e46524e089"},"vehicle_type_id":"4","last_reported":1716026820,"current_range_meters":2800,"station_id":"","pricing_plan_id":"cebpf4jnsgd1na2vs0mg"},{"bike_id":"a06a7ea7-7cca-4300-8c34-fec6fe968bc9","system_id":"levelo_inurba_marseille","lat":43.307945,"lon":5.376487,"is_reserved":false,"is_disabled":false,"rental_uris":{"android":"levelo://app?vid=a06a7ea7-7cca-4300-8c34-fec6fe968bc9","ios":"levelo://app?vid=a06a7ea7-7cca-4300-8c34-fec6fe968bc9"},"vehicle_type_id":"4","last_reported":1716026820,"current_range_meters":31200,"station_id":"ce4bgv92rcd13ifvqcq0","pricing_plan_id":"cebpf4jnsgd1na2vs0mg"},{"bike_id":"c03848e2-a898-4eba-abaf-0c94eeab984c","system_id":"levelo_inurba_marseille","lat":43.307945,"lon":5.376487,"is_reserved":false,"is_disabled":false,"rental_uris":{"android":"levelo://app?vid=c03848e2-a898-4eba-abaf-0c94eeab984c","ios":"levelo://app?vid=c03848e2-a898-4eba-abaf-0c94eeab984c"},"vehicle_type_id":"4","last_reported":1716026820,"current_range_meters":31200,"station_id":"ce4bgv92rcd13ifvqcq0","pricing_plan_id":"cebpf4jnsgd1na2vs0mg"},{"bike_id":"96fd2fa3-78be-40c1-a156-a78ae20193ec","system_id":"levelo_inurba_marseille","lat":43.317075,"lon":5.377367,"is_reserved":false,"is_disabled":false,"rental_uris":{"android":"levelo://app?vid=96fd2fa3-78be-40c1-a156-a78ae20193ec","ios":"levelo://app?vid=96fd2fa3-78be-40c1-a156-a78ae20193ec"},"vehicle_type_id":"4","last_reported":1716026820,"current_range_meters":23200,"station_id":"ce4bgth2rcd13ifvqch0","pricing_plan_id":"cebpf4jnsgd1na2vs0mg"},{"bike_id":"b82ae44f-2a7f-45aa-8082-6922f127a4ff","system_id":"levelo_inurba_marseille","lat":43.317075,"lon":5.377367,"is_reserved":false,"is_disabled":false,"rental_uris":{"android":"levelo://app?vid=b82ae44f-2a7f-45aa-8082-6922f127a4ff","ios":"levelo://app?vid=b82ae44f-2a7f-45aa-8082-6922f127a4ff"},"vehicle_type_id":"4","last_reported":1716026820,"current_range_meters":26400,"station_id":"ce4bgth2rcd13ifvqch0","pricing_plan_id":"cebpf4jnsgd1na2vs0mg"},{"bike_id":"3b0420de-c9e6-4f81-b82f-89067a7a19fc","system_id":"levelo_inurba_marseille","lat":43.317075,"lon":5.377367,"is_reserved":false,"is_disabled":false,"rental_uris":{"android":"levelo://app?vid=3b0420de-c9e6-4f81-b82f-89067a7a19fc","ios":"levelo://app?vid=3b0420de-c9e6-4f81-b82f-89067a7a19fc"},"vehicle_type_id":"4","last_reported":1716026820,"current_range_meters":26800,"station_id":"ce4bgth2rcd13ifvqch0","pricing_plan_id":"cebpf4jnsgd1na2vs0mg"},{"bike_id":"5e9d5133-4bf0-4fad-b4c2-242cdaeb094f","system_id":"levelo_inurba_marseille","lat":43.317075,"lon":5.377367,"is_reserved":false,"is_disabled":false,"rental_uris":{"android":"levelo://app?vid=5e9d5133-4bf0-4fad-b4c2-242cdaeb094f","ios":"levelo://app?vid=5e9d5133-4bf0-4fad-b4c2-242cdaeb094f"},"vehicle_type_id":"4","last_reported":1716026820,"current_range_meters":31200,"station_id":"ce4bgth2rcd13ifvqch0","pricing_plan_id":"cebpf4jnsgd1na2vs0mg"},{"bike_id":"1f1b0e8c-73a4-4f65-a6a8-82c29814cc28","system_id":"levelo_inurba_marseille","lat":43.317075,"lon":5.377367,"is_reserved":false,"is_disabled":false,"rental_uris":{"android":"levelo://app?vid=1f1b0e8c-73a4-4f65-a6a8-82c29814cc28","ios":"levelo://app?vid=1f1b0e8c-73a4-4f65-a6a8-82c29814cc28"},"vehicle_type_id":"4","last_reported":1716026820,"current_range_meters":1200,"station_id":"ce4bgth2rcd13ifvqch0","pricing_plan_id":"cebpf4jnsgd1na2vs0mg"},{"bike_id":"b8d54f86-b227-4432-b2f2-c349e781cac4","system_id":"levelo_inurba_marseille","lat":43.317075,"lon":5.377367,"is_reserved":false,"is_disabled":false,"rental_uris":{"android":"levelo://app?vid=b8d54f86-b227-4432-b2f2-c349e781cac4","ios":"levelo://app?vid=b8d54f86-b227-4432-b2f2-c349e781cac4"},"vehicle_type_id":"4","last_reported":1716026820,"current_range_meters":12000,"station_id":"ce4bgth2rcd13ifvqch0","pricing_plan_id":"cebpf4jnsgd1na2vs0mg"},{"bike_id":"fb29f521-b178-4be5-ab88-660b17f49e0f","system_id":"levelo_inurba_marseille","lat":43.317075,"lon":5.377367,"is_reserved":false,"is_disabled":false,"rental_uris":{"android":"levelo://app?vid=fb29f521-b178-4be5-ab88-660b17f49e0f","ios":"levelo://app?vid=fb29f521-b178-4be5-ab88-660b17f49e0f"},"vehicle_type_id":"4","last_reported":1716026820,"current_range_meters":28000,"station_id":"ce4bgth2rcd13ifvqch0","pricing_plan_id":"cebpf4jnsgd1na2vs0mg"},{"bike_id":"e2af8688-0435-4b69-99ee-5602c5214dad","system_id":"levelo_inurba_marseille","lat":43.317075,"lon":5.377367,"is_reserved":false,"is_disabled":false,"rental_uris":{"android":"levelo://app?vid=e2af8688-0435-4b69-99ee-5602c5214dad","ios":"levelo://app?vid=e2af8688-0435-4b69-99ee-5602c5214dad"},"vehicle_type_id":"4","last_reported":1716026820,"current_range_meters":31200,"station_id":"ce4bgth2rcd13ifvqch0","pricing_plan_id":"cebpf4jnsgd1na2vs0mg"},{"bike_id":"1ec53050-4ef0-4ddd-8896-0b93a91c5a16","system_id":"levelo_inurba_marseille","lat":43.315289,"lon":5.380349,"is_reserved":false,"is_disabled":false,"rental_uris":{"android":"levelo://app?vid=1ec53050-4ef0-4ddd-8896-0b93a91c5a16","ios":"levelo://app?vid=1ec53050-4ef0-4ddd-8896-0b93a91c5a16"},"vehicle_type_id":"4","last_reported":1716026820,"current_range_meters":14800,"station_id":"ce4bhsp2rcd13ifvqi50","pricing_plan_id":"cebpf4jnsgd1na2vs0mg"},{"bike_id":"dae36f3f-60c1-4434-b2c9-513bd7afe340","system_id":"levelo_inurba_marseille","lat":43.315289,"lon":5.380349,"is_reserved":false,"is_disabled":false,"rental_uris":{"android":"levelo://app?vid=dae36f3f-60c1-4434-b2c9-513bd7afe340","ios":"levelo://app?vid=dae36f3f-60c1-4434-b2c9-513bd7afe340"},"vehicle_type_id":"4","last_reported":1716026820,"current_range_meters":17600,"station_id":"ce4bhsp2rcd13ifvqi50","pricing_plan_id":"cebpf4jnsgd1na2vs0mg"},{"bike_id":"cd902e82-7bc9-4858-900a-5eafc074c502","system_id":"levelo_inurba_marseille","lat":43.32367,"lon":5.388836,"is_reserved":false,"is_disabled":false,"rental_uris":{"android":"levelo://app?vid=cd902e82-7bc9-4858-900a-5eafc074c502","ios":"levelo://app?vid=cd902e82-7bc9-4858-900a-5eafc074c502"},"vehicle_type_id":"4","last_reported":1716026820,"current_range_meters":18800,"station_id":"ce4bhqp2rcd13ifvqhog","pricing_plan_id":"cebpf4jnsgd1na2vs0mg"},{"bike_id":"e4b2c6cf-ceaf-4832-b1a4-787f4fd437ce","system_id":"levelo_inurba_marseille","lat":43.30196,"lon":5.368848,"is_reserved":false,"is_disabled":false,"rental_uris":{"android":"levelo://app?vid=e4b2c6cf-ceaf-4832-b1a4-787f4fd437ce","ios":"levelo://app?vid=e4b2c6cf-ceaf-4832-b1a4-787f4fd437ce"},"vehicle_type_id":"4","last_reported":1716026820,"current_range_meters":15200,"station_id":"","pricing_plan_id":"cebpf4jnsgd1na2vs0mg"},{"bike_id":"bb4dc563-bc5a-48d6-a32e-4611beb009af","system_id":"levelo_inurba_marseille","lat":43.308012,"lon":5.381511,"is_reserved":false,"is_disabled":false,"rental_uris":{"android":"levelo://app?vid=bb4dc563-bc5a-48d6-a32e-4611beb009af","ios":"levelo://app?vid=bb4dc563-bc5a-48d6-a32e-4611beb009af"},"vehicle_type_id":"4","last_reported":1716026820,"current_range_meters":4400,"station_id":"ce4bgt12rcd13ifvqce0","pricing_plan_id":"cebpf4jnsgd1na2vs0mg"},{"bike_id":"b9c037b7-ff82-4cdb-91e3-fea29e4a2da3","system_id":"levelo_inurba_marseille","lat":43.308012,"lon":5.381511,"is_reserved":false,"is_disabled":false,"rental_uris":{"android":"levelo://app?vid=b9c037b7-ff82-4cdb-91e3-fea29e4a2da3","ios":"levelo://app?vid=b9c037b7-ff82-4cdb-91e3-fea29e4a2da3"},"vehicle_type_id":"4","last_reported":1716026820,"current_range_meters":2400,"station_id":"ce4bgt12rcd13ifvqce0","pricing_plan_id":"cebpf4jnsgd1na2vs0mg"},{"bike_id":"ed92436f-eb25-4d5b-9378-253d4cba511d","system_id":"levelo_inurba_marseille","lat":43.308012,"lon":5.381511,"is_reserved":false,"is_disabled":false,"rental_uris":{"android":"levelo://app?vid=ed92436f-eb25-4d5b-9378-253d4cba511d","ios":"levelo://app?vid=ed92436f-eb25-4d5b-9378-253d4cba511d"},"vehicle_type_id":"4","last_reported":1716026820,"current_range_meters":22400,"station_id":"ce4bgt12rcd13ifvqce0","pricing_plan_id":"cebpf4jnsgd1na2vs0mg"},{"bike_id":"d20cec5a-d48c-403f-8074-eb31c1439d77","system_id":"levelo_inurba_marseille","lat":43.304606,"lon":5.379026,"is_reserved":false,"is_disabled":false,"rental_uris":{"android":"levelo://app?vid=d20cec5a-d48c-403f-8074-eb31c1439d77","ios":"levelo://app?vid=d20cec5a-d48c-403f-8074-eb31c1439d77"},"vehicle_type_id":"4","last_reported":1716026820,"current_range_meters":29600,"station_id":"ce4bgup2rcd13ifvqcn0","pricing_plan_id":"cebpf4jnsgd1na2vs0mg"},{"bike_id":"dcb8532d-c67a-4a8d-973a-5b70b87eac69","system_id":"levelo_inurba_marseille","lat":43.304606,"lon":5.379026,"is_reserved":false,"is_disabled":false,"rental_uris":{"android":"levelo://app?vid=dcb8532d-c67a-4a8d-973a-5b70b87eac69","ios":"levelo://app?vid=dcb8532d-c67a-4a8d-973a-5b70b87eac69"},"vehicle_type_id":"4","last_reported":1716026820,"current_range_meters":22000,"station_id":"ce4bgup2rcd13ifvqcn0","pricing_plan_id":"cebpf4jnsgd1na2vs0mg"},{"bike_id":"166aafd2-7e43-417d-99cf-688769a82b1d","system_id":"levelo_inurba_marseille","lat":43.304606,"lon":5.379026,"is_reserved":false,"is_disabled":false,"rental_uris":{"android":"levelo://app?vid=166aafd2-7e43-417d-99cf-688769a82b1d","ios":"levelo://app?vid=166aafd2-7e43-417d-99cf-688769a82b1d"},"vehicle_type_id":"4","last_reported":1716026820,"current_range_meters":27200,"station_id":"ce4bgup2rcd13ifvqcn0","pricing_plan_id":"cebpf4jnsgd1na2vs0mg"},{"bike_id":"c44c9d50-9563-4224-82c2-516d6cd3c55d","system_id":"levelo_inurba_marseille","lat":43.304606,"lon":5.379026,"is_reserved":false,"is_disabled":false,"rental_uris":{"android":"levelo://app?vid=c44c9d50-9563-4224-82c2-516d6cd3c55d","ios":"levelo://app?vid=c44c9d50-9563-4224-82c2-516d6cd3c55d"},"vehicle_type_id":"4","last_reported":1716026820,"current_range_meters":20000,"station_id":"ce4bgup2rcd13ifvqcn0","pricing_plan_id":"cebpf4jnsgd1na2vs0mg"},{"bike_id":"10a9b765-dbd3-4b76-9267-d02e515681f3","system_id":"levelo_inurba_marseille","lat":43.304606,"lon":5.379026,"is_reserved":false,"is_disabled":false,"rental_uris":{"android":"levelo://app?vid=10a9b765-dbd3-4b76-9267-d02e515681f3","ios":"levelo://app?vid=10a9b765-dbd3-4b76-9267-d02e515681f3"},"vehicle_type_id":"4","last_reported":1716026820,"current_range_meters":31600,"station_id":"ce4bgup2rcd13ifvqcn0","pricing_plan_id":"cebpf4jnsgd1na2vs0mg"},{"bike_id":"2d93cccf-6b40-4137-9fac-0cdf5dd84fd4","system_id":"levelo_inurba_marseille","lat":43.304606,"lon":5.379026,"is_reserved":false,"is_disabled":false,"rental_uris":{"android":"levelo://app?vid=2d93cccf-6b40-4137-9fac-0cdf5dd84fd4","ios":"levelo://app?vid=2d93cccf-6b40-4137-9fac-0cdf5dd84fd4"},"vehicle_type_id":"4","last_reported":1716026820,"current_range_meters":5200,"station_id":"ce4bgup2rcd13ifvqcn0","pricing_plan_id":"cebpf4jnsgd1na2vs0mg"},{"bike_id":"955e42cf-a7f1-4b9b-917f-16c62def9b6b","system_id":"levelo_inurba_marseille","lat":43.30469,"lon":5.37901,"is_reserved":false,"is_disabled":false,"rental_uris":{"android":"levelo://app?vid=955e42cf-a7f1-4b9b-917f-16c62def9b6b","ios":"levelo://app?vid=955e42cf-a7f1-4b9b-917f-16c62def9b6b"},"vehicle_type_id":"4","last_reported":1716026820,"current_range_meters":23200,"station_id":"ce4bgup2rcd13ifvqcn0","pricing_plan_id":"cebpf4jnsgd1na2vs0mg"},{"bike_id":"f09b3915-8340-4c4e-a1df-32b1ce5617c5","system_id":"levelo_inurba_marseille","lat":43.304606,"lon":5.379026,"is_reserved":false,"is_disabled":false,"rental_uris":{"android":"levelo://app?vid=f09b3915-8340-4c4e-a1df-32b1ce5617c5","ios":"levelo://app?vid=f09b3915-8340-4c4e-a1df-32b1ce5617c5"},"vehicle_type_id":"4","last_reported":1716026820,"current_range_meters":12800,"station_id":"ce4bgup2rcd13ifvqcn0","pricing_plan_id":"cebpf4jnsgd1na2vs0mg"},{"bike_id":"6c0c65ea-98b7-470a-9784-6de288fefee7","system_id":"levelo_inurba_marseille","lat":43.304606,"lon":5.379026,"is_reserved":false,"is_disabled":false,"rental_uris":{"android":"levelo://app?vid=6c0c65ea-98b7-470a-9784-6de288fefee7","ios":"levelo://app?vid=6c0c65ea-98b7-470a-9784-6de288fefee7"},"vehicle_type_id":"4","last_reported":1716026820,"current_range_meters":15200,"station_id":"ce4bgup2rcd13ifvqcn0","pricing_plan_id":"cebpf4jnsgd1na2vs0mg"},{"bike_id":"8257bc0c-c3d5-4bcf-95ab-bc8d58cbfe64","system_id":"levelo_inurba_marseille","lat":43.304606,"lon":5.379026,"is_reserved":false,"is_disabled":false,"rental_uris":{"android":"levelo://app?vid=8257bc0c-c3d5-4bcf-95ab-bc8d58cbfe64","ios":"levelo://app?vid=8257bc0c-c3d5-4bcf-95ab-bc8d58cbfe64"},"vehicle_type_id":"4","last_reported":1716026820,"current_range_meters":11200,"station_id":"ce4bgup2rcd13ifvqcn0","pricing_plan_id":"cebpf4jnsgd1na2vs0mg"},{"bike_id":"3cdeca65-fa75-4d24-9cbf-19fd85895e48","system_id":"levelo_inurba_marseille","lat":43.30466,"lon":5.37903,"is_reserved":false,"is_disabled":false,"rental_uris":{"android":"levelo://app?vid=3cdeca65-fa75-4d24-9cbf-19fd85895e48","ios":"levelo://app?vid=3cdeca65-fa75-4d24-9cbf-19fd85895e48"},"vehicle_type_id":"4","last_reported":1716026820,"current_range_meters":21600,"station_id":"ce4bgup2rcd13ifvqcn0","pricing_plan_id":"cebpf4jnsgd1na2vs0mg"},{"bike_id":"466b7114-7483-406d-bb23-198672c4d966","system_id":"levelo_inurba_marseille","lat":43.304606,"lon":5.379026,"is_reserved":false,"is_disabled":false,"rental_uris":{"android":"levelo://app?vid=466b7114-7483-406d-bb23-198672c4d966","ios":"levelo://app?vid=466b7114-7483-406d-bb23-198672c4d966"},"vehicle_type_id":"4","last_reported":1716026820,"current_range_meters":25200,"station_id":"ce4bgup2rcd13ifvqcn0","pricing_plan_id":"cebpf4jnsgd1na2vs0mg"},{"bike_id":"7a7b11e3-d98d-400e-a8cd-a3648dd9f35e","system_id":"levelo_inurba_marseille","lat":43.30469,"lon":5.37908,"is_reserved":false,"is_disabled":false,"rental_uris":{"android":"levelo://app?vid=7a7b11e3-d98d-400e-a8cd-a3648dd9f35e","ios":"levelo://app?vid=7a7b11e3-d98d-400e-a8cd-a3648dd9f35e"},"vehicle_type_id":"4","last_reported":1716026820,"current_range_meters":17200,"station_id":"ce4bgup2rcd13ifvqcn0","pricing_plan_id":"cebpf4jnsgd1na2vs0mg"},{"bike_id":"622b745d-0ad2-41a7-b0b0-eae8928ab7ea","system_id":"levelo_inurba_marseille","lat":43.304606,"lon":5.379026,"is_reserved":false,"is_disabled":false,"rental_uris":{"android":"levelo://app?vid=622b745d-0ad2-41a7-b0b0-eae8928ab7ea","ios":"levelo://app?vid=622b745d-0ad2-41a7-b0b0-eae8928ab7ea"},"vehicle_type_id":"4","last_reported":1716026820,"current_range_meters":9200,"station_id":"ce4bgup2rcd13ifvqcn0","pricing_plan_id":"cebpf4jnsgd1na2vs0mg"},{"bike_id":"86c8d43a-524b-4a2c-9bc4-9d2a8f7abe19","system_id":"levelo_inurba_marseille","lat":43.304606,"lon":5.379026,"is_reserved":false,"is_disabled":false,"rental_uris":{"android":"levelo://app?vid=86c8d43a-524b-4a2c-9bc4-9d2a8f7abe19","ios":"levelo://app?vid=86c8d43a-524b-4a2c-9bc4-9d2a8f7abe19"},"vehicle_type_id":"4","last_reported":1716026820,"current_range_meters":11600,"station_id":"ce4bgup2rcd13ifvqcn0","pricing_plan_id":"cebpf4jnsgd1na2vs0mg"},{"bike_id":"72c57d58-bce6-42bf-a789-570377326be3","system_id":"levelo_inurba_marseille","lat":43.304606,"lon":5.379026,"is_reserved":false,"is_disabled":false,"rental_uris":{"android":"levelo://app?vid=72c57d58-bce6-42bf-a789-570377326be3","ios":"levelo://app?vid=72c57d58-bce6-42bf-a789-570377326be3"},"vehicle_type_id":"4","last_reported":1716026820,"current_range_meters":2800,"station_id":"ce4bgup2rcd13ifvqcn0","pricing_plan_id":"cebpf4jnsgd1na2vs0mg"},{"bike_id":"64918e23-7503-4589-8d08-d6d91499a988","system_id":"levelo_inurba_marseille","lat":43.304606,"lon":5.379026,"is_reserved":false,"is_disabled":false,"rental_uris":{"android":"levelo://app?vid=64918e23-7503-4589-8d08-d6d91499a988","ios":"levelo://app?vid=64918e23-7503-4589-8d08-d6d91499a988"},"vehicle_type_id":"4","last_reported":1716026820,"current_range_meters":29600,"station_id":"ce4bgup2rcd13ifvqcn0","pricing_plan_id":"cebpf4jnsgd1na2vs0mg"},{"bike_id":"a097f591-17c8-48a7-afa0-055886700d88","system_id":"levelo_inurba_marseille","lat":43.304606,"lon":5.379026,"is_reserved":false,"is_disabled":false,"rental_uris":{"android":"levelo://app?vid=a097f591-17c8-48a7-afa0-055886700d88","ios":"levelo://app?vid=a097f591-17c8-48a7-afa0-055886700d88"},"vehicle_type_id":"4","last_reported":1716026820,"current_range_meters":12400,"station_id":"ce4bgup2rcd13ifvqcn0","pricing_plan_id":"cebpf4jnsgd1na2vs0mg"},{"bike_id":"66d71288-1157-4139-afed-e0920ab5cf28","system_id":"levelo_inurba_marseille","lat":43.304606,"lon":5.379026,"is_reserved":false,"is_disabled":false,"rental_uris":{"android":"levelo://app?vid=66d71288-1157-4139-afed-e0920ab5cf28","ios":"levelo://app?vid=66d71288-1157-4139-afed-e0920ab5cf28"},"vehicle_type_id":"4","last_reported":1716026820,"current_range_meters":17200,"station_id":"ce4bgup2rcd13ifvqcn0","pricing_plan_id":"cebpf4jnsgd1na2vs0mg"},{"bike_id":"6ffbf249-3396-42b1-871b-5acaac41a9dc","system_id":"levelo_inurba_marseille","lat":43.304606,"lon":5.379026,"is_reserved":false,"is_disabled":false,"rental_uris":{"android":"levelo://app?vid=6ffbf249-3396-42b1-871b-5acaac41a9dc","ios":"levelo://app?vid=6ffbf249-3396-42b1-871b-5acaac41a9dc"},"vehicle_type_id":"4","last_reported":1716026820,"current_range_meters":10800,"station_id":"ce4bgup2rcd13ifvqcn0","pricing_plan_id":"cebpf4jnsgd1na2vs0mg"},{"bike_id":"598daff0-fea0-43f5-a3fb-193c12cf75f7","system_id":"levelo_inurba_marseille","lat":43.304606,"lon":5.379026,"is_reserved":false,"is_disabled":false,"rental_uris":{"android":"levelo://app?vid=598daff0-fea0-43f5-a3fb-193c12cf75f7","ios":"levelo://app?vid=598daff0-fea0-43f5-a3fb-193c12cf75f7"},"vehicle_type_id":"4","last_reported":1716026820,"current_range_meters":18400,"station_id":"ce4bgup2rcd13ifvqcn0","pricing_plan_id":"cebpf4jnsgd1na2vs0mg"},{"bike_id":"e6f2b343-c54d-4d92-a669-80eb11b2f0c7","system_id":"levelo_inurba_marseille","lat":43.304606,"lon":5.379026,"is_reserved":false,"is_disabled":false,"rental_uris":{"android":"levelo://app?vid=e6f2b343-c54d-4d92-a669-80eb11b2f0c7","ios":"levelo://app?vid=e6f2b343-c54d-4d92-a669-80eb11b2f0c7"},"vehicle_type_id":"4","last_reported":1716026820,"current_range_meters":15600,"station_id":"ce4bgup2rcd13ifvqcn0","pricing_plan_id":"cebpf4jnsgd1na2vs0mg"},{"bike_id":"a2ef20b9-44bb-4274-93ba-62ded0b0fb09","system_id":"levelo_inurba_marseille","lat":43.304606,"lon":5.379026,"is_reserved":false,"is_disabled":false,"rental_uris":{"android":"levelo://app?vid=a2ef20b9-44bb-4274-93ba-62ded0b0fb09","ios":"levelo://app?vid=a2ef20b9-44bb-4274-93ba-62ded0b0fb09"},"vehicle_type_id":"4","last_reported":1716026820,"current_range_meters":22000,"station_id":"ce4bgup2rcd13ifvqcn0","pricing_plan_id":"cebpf4jnsgd1na2vs0mg"},{"bike_id":"f1f4d079-31c7-4e08-911a-39e8a2dc8fbb","system_id":"levelo_inurba_marseille","lat":43.304606,"lon":5.379026,"is_reserved":false,"is_disabled":false,"rental_uris":{"android":"levelo://app?vid=f1f4d079-31c7-4e08-911a-39e8a2dc8fbb","ios":"levelo://app?vid=f1f4d079-31c7-4e08-911a-39e8a2dc8fbb"},"vehicle_type_id":"4","last_reported":1716026820,"current_range_meters":21200,"station_id":"ce4bgup2rcd13ifvqcn0","pricing_plan_id":"cebpf4jnsgd1na2vs0mg"},{"bike_id":"5569c8d8-50ce-4c46-a60a-1a58d8a9e48a","system_id":"levelo_inurba_marseille","lat":43.304606,"lon":5.379026,"is_reserved":false,"is_disabled":false,"rental_uris":{"android":"levelo://app?vid=5569c8d8-50ce-4c46-a60a-1a58d8a9e48a","ios":"levelo://app?vid=5569c8d8-50ce-4c46-a60a-1a58d8a9e48a"},"vehicle_type_id":"4","last_reported":1716026820,"current_range_meters":16000,"station_id":"ce4bgup2rcd13ifvqcn0","pricing_plan_id":"cebpf4jnsgd1na2vs0mg"},{"bike_id":"dfb8407c-2b29-4e2b-a67e-2cc1d12e5b87","system_id":"levelo_inurba_marseille","lat":43.304606,"lon":5.379026,"is_reserved":false,"is_disabled":false,"rental_uris":{"android":"levelo://app?vid=dfb8407c-2b29-4e2b-a67e-2cc1d12e5b87","ios":"levelo://app?vid=dfb8407c-2b29-4e2b-a67e-2cc1d12e5b87"},"vehicle_type_id":"4","last_reported":1716026820,"current_range_meters":0,"station_id":"ce4bgup2rcd13ifvqcn0","pricing_plan_id":"cebpf4jnsgd1na2vs0mg"},{"bike_id":"b0bf8fd7-964b-4feb-bf0d-73018acdc83e","system_id":"levelo_inurba_marseille","lat":43.324771,"lon":5.36557,"is_reserved":false,"is_disabled":false,"rental_uris":{"android":"levelo://app?vid=b0bf8fd7-964b-4feb-bf0d-73018acdc83e","ios":"levelo://app?vid=b0bf8fd7-964b-4feb-bf0d-73018acdc83e"},"vehicle_type_id":"4","last_reported":1716026820,"current_range_meters":21600,"station_id":"ce4bhs12rcd13ifvqhvg","pricing_plan_id":"cebpf4jnsgd1na2vs0mg"},{"bike_id":"7e15c637-ac50-42e0-b6d8-4a10030a204b","system_id":"levelo_inurba_marseille","lat":43.304606,"lon":5.379026,"is_reserved":false,"is_disabled":false,"rental_uris":{"android":"levelo://app?vid=7e15c637-ac50-42e0-b6d8-4a10030a204b","ios":"levelo://app?vid=7e15c637-ac50-42e0-b6d8-4a10030a204b"},"vehicle_type_id":"4","last_reported":1716026820,"current_range_meters":4800,"station_id":"ce4bgup2rcd13ifvqcn0","pricing_plan_id":"cebpf4jnsgd1na2vs0mg"},{"bike_id":"8b49bf56-04e0-45ea-a351-6405905457b6","system_id":"levelo_inurba_marseille","lat":43.324771,"lon":5.36557,"is_reserved":false,"is_disabled":false,"rental_uris":{"android":"levelo://app?vid=8b49bf56-04e0-45ea-a351-6405905457b6","ios":"levelo://app?vid=8b49bf56-04e0-45ea-a351-6405905457b6"},"vehicle_type_id":"4","last_reported":1716026820,"current_range_meters":26800,"station_id":"ce4bhs12rcd13ifvqhvg","pricing_plan_id":"cebpf4jnsgd1na2vs0mg"},{"bike_id":"5103acf0-a915-4e66-b71d-a65590fc4b20","system_id":"levelo_inurba_marseille","lat":43.304606,"lon":5.379026,"is_reserved":false,"is_disabled":false,"rental_uris":{"android":"levelo://app?vid=5103acf0-a915-4e66-b71d-a65590fc4b20","ios":"levelo://app?vid=5103acf0-a915-4e66-b71d-a65590fc4b20"},"vehicle_type_id":"4","last_reported":1716026820,"current_range_meters":2400,"station_id":"ce4bgup2rcd13ifvqcn0","pricing_plan_id":"cebpf4jnsgd1na2vs0mg"},{"bike_id":"9c1f7e62-096c-495b-a21f-f5bf00cc381b","system_id":"levelo_inurba_marseille","lat":43.324771,"lon":5.36557,"is_reserved":false,"is_disabled":false,"rental_uris":{"android":"levelo://app?vid=9c1f7e62-096c-495b-a21f-f5bf00cc381b","ios":"levelo://app?vid=9c1f7e62-096c-495b-a21f-f5bf00cc381b"},"vehicle_type_id":"4","last_reported":1716026820,"current_range_meters":25600,"station_id":"ce4bhs12rcd13ifvqhvg","pricing_plan_id":"cebpf4jnsgd1na2vs0mg"},{"bike_id":"b6d3d4c3-48f1-44f6-88f4-a78216be9c29","system_id":"levelo_inurba_marseille","lat":43.324771,"lon":5.36557,"is_reserved":false,"is_disabled":false,"rental_uris":{"android":"levelo://app?vid=b6d3d4c3-48f1-44f6-88f4-a78216be9c29","ios":"levelo://app?vid=b6d3d4c3-48f1-44f6-88f4-a78216be9c29"},"vehicle_type_id":"4","last_reported":1716026820,"current_range_meters":2000,"station_id":"ce4bhs12rcd13ifvqhvg","pricing_plan_id":"cebpf4jnsgd1na2vs0mg"},{"bike_id":"272217e2-994b-4a6a-ab9c-5a0c8ff3db31","system_id":"levelo_inurba_marseille","lat":43.324771,"lon":5.36557,"is_reserved":false,"is_disabled":false,"rental_uris":{"android":"levelo://app?vid=272217e2-994b-4a6a-ab9c-5a0c8ff3db31","ios":"levelo://app?vid=272217e2-994b-4a6a-ab9c-5a0c8ff3db31"},"vehicle_type_id":"4","last_reported":1716026820,"current_range_meters":2800,"station_id":"ce4bhs12rcd13ifvqhvg","pricing_plan_id":"cebpf4jnsgd1na2vs0mg"},{"bike_id":"719de00c-adda-48da-af17-1d122aa6a083","system_id":"levelo_inurba_marseille","lat":43.324771,"lon":5.36557,"is_reserved":false,"is_disabled":false,"rental_uris":{"android":"levelo://app?vid=719de00c-adda-48da-af17-1d122aa6a083","ios":"levelo://app?vid=719de00c-adda-48da-af17-1d122aa6a083"},"vehicle_type_id":"4","last_reported":1716026820,"current_range_meters":400,"station_id":"ce4bhs12rcd13ifvqhvg","pricing_plan_id":"cebpf4jnsgd1na2vs0mg"},{"bike_id":"0f60e234-3732-433b-823f-1589e93a3d66","system_id":"levelo_inurba_marseille","lat":43.324771,"lon":5.36557,"is_reserved":false,"is_disabled":false,"rental_uris":{"android":"levelo://app?vid=0f60e234-3732-433b-823f-1589e93a3d66","ios":"levelo://app?vid=0f60e234-3732-433b-823f-1589e93a3d66"},"vehicle_type_id":"4","last_reported":1716026820,"current_range_meters":30000,"station_id":"ce4bhs12rcd13ifvqhvg","pricing_plan_id":"cebpf4jnsgd1na2vs0mg"},{"bike_id":"03efd24a-0380-4f96-b4d7-2ef1fcb5b872","system_id":"levelo_inurba_marseille","lat":43.324771,"lon":5.36557,"is_reserved":false,"is_disabled":false,"rental_uris":{"android":"levelo://app?vid=03efd24a-0380-4f96-b4d7-2ef1fcb5b872","ios":"levelo://app?vid=03efd24a-0380-4f96-b4d7-2ef1fcb5b872"},"vehicle_type_id":"4","last_reported":1716026820,"current_range_meters":2400,"station_id":"ce4bhs12rcd13ifvqhvg","pricing_plan_id":"cebpf4jnsgd1na2vs0mg"},{"bike_id":"7e0f5720-6220-4adb-979a-5e49b2333554","system_id":"levelo_inurba_marseille","lat":43.324771,"lon":5.36557,"is_reserved":false,"is_disabled":false,"rental_uris":{"android":"levelo://app?vid=7e0f5720-6220-4adb-979a-5e49b2333554","ios":"levelo://app?vid=7e0f5720-6220-4adb-979a-5e49b2333554"},"vehicle_type_id":"4","last_reported":1716026820,"current_range_meters":12000,"station_id":"ce4bhs12rcd13ifvqhvg","pricing_plan_id":"cebpf4jnsgd1na2vs0mg"},{"bike_id":"62167c00-f7e6-4769-b272-5b9f277a50df","system_id":"levelo_inurba_marseille","lat":43.324771,"lon":5.36557,"is_reserved":false,"is_disabled":false,"rental_uris":{"android":"levelo://app?vid=62167c00-f7e6-4769-b272-5b9f277a50df","ios":"levelo://app?vid=62167c00-f7e6-4769-b272-5b9f277a50df"},"vehicle_type_id":"4","last_reported":1716026820,"current_range_meters":6000,"station_id":"ce4bhs12rcd13ifvqhvg","pricing_plan_id":"cebpf4jnsgd1na2vs0mg"},{"bike_id":"623c5b95-32d3-46c6-b4b7-577d8552cf4b","system_id":"levelo_inurba_marseille","lat":43.310804,"lon":5.38359,"is_reserved":false,"is_disabled":false,"rental_uris":{"android":"levelo://app?vid=623c5b95-32d3-46c6-b4b7-577d8552cf4b","ios":"levelo://app?vid=623c5b95-32d3-46c6-b4b7-577d8552cf4b"},"vehicle_type_id":"4","last_reported":1716026820,"current_range_meters":24000,"station_id":"ce4bgv92rcd13ifvqcr0","pricing_plan_id":"cebpf4jnsgd1na2vs0mg"},{"bike_id":"43f5d92a-b4d9-4974-aa58-766bd124666c","system_id":"levelo_inurba_marseille","lat":43.302784,"lon":5.377158,"is_reserved":false,"is_disabled":false,"rental_uris":{"android":"levelo://app?vid=43f5d92a-b4d9-4974-aa58-766bd124666c","ios":"levelo://app?vid=43f5d92a-b4d9-4974-aa58-766bd124666c"},"vehicle_type_id":"4","last_reported":1716026820,"current_range_meters":20800,"station_id":"ce4bguh2rcd13ifvqcj0","pricing_plan_id":"cebpf4jnsgd1na2vs0mg"},{"bike_id":"9f583708-f596-47a5-957c-8143c32ebde3","system_id":"levelo_inurba_marseille","lat":43.30143,"lon":5.37413,"is_reserved":false,"is_disabled":false,"rental_uris":{"android":"levelo://app?vid=9f583708-f596-47a5-957c-8143c32ebde3","ios":"levelo://app?vid=9f583708-f596-47a5-957c-8143c32ebde3"},"vehicle_type_id":"4","last_reported":1716026820,"current_range_meters":4400,"station_id":"ce4bgs92rcd13ifvqcc0","pricing_plan_id":"cebpf4jnsgd1na2vs0mg"},{"bike_id":"b480c073-7783-4388-bbd8-b3147728ce13","system_id":"levelo_inurba_marseille","lat":43.30143,"lon":5.37413,"is_reserved":false,"is_disabled":false,"rental_uris":{"android":"levelo://app?vid=b480c073-7783-4388-bbd8-b3147728ce13","ios":"levelo://app?vid=b480c073-7783-4388-bbd8-b3147728ce13"},"vehicle_type_id":"4","last_reported":1716026820,"current_range_meters":0,"station_id":"ce4bgs92rcd13ifvqcc0","pricing_plan_id":"cebpf4jnsgd1na2vs0mg"},{"bike_id":"c8485439-af8f-455e-bea4-3262fdf961d6","system_id":"levelo_inurba_marseille","lat":43.301429,"lon":5.37413,"is_reserved":false,"is_disabled":false,"rental_uris":{"android":"levelo://app?vid=c8485439-af8f-455e-bea4-3262fdf961d6","ios":"levelo://app?vid=c8485439-af8f-455e-bea4-3262fdf961d6"},"vehicle_type_id":"4","last_reported":1716026820,"current_range_meters":26000,"station_id":"ce4bgs92rcd13ifvqcc0","pricing_plan_id":"cebpf4jnsgd1na2vs0mg"},{"bike_id":"0f37ffac-0dec-455f-9675-678a1f695465","system_id":"levelo_inurba_marseille","lat":43.301429,"lon":5.37413,"is_reserved":false,"is_disabled":false,"rental_uris":{"android":"levelo://app?vid=0f37ffac-0dec-455f-9675-678a1f695465","ios":"levelo://app?vid=0f37ffac-0dec-455f-9675-678a1f695465"},"vehicle_type_id":"4","last_reported":1716026820,"current_range_meters":14800,"station_id":"ce4bgs92rcd13ifvqcc0","pricing_plan_id":"cebpf4jnsgd1na2vs0mg"},{"bike_id":"b9404eff-d030-442f-aafe-717e427a8385","system_id":"levelo_inurba_marseille","lat":43.301429,"lon":5.37413,"is_reserved":false,"is_disabled":false,"rental_uris":{"android":"levelo://app?vid=b9404eff-d030-442f-aafe-717e427a8385","ios":"levelo://app?vid=b9404eff-d030-442f-aafe-717e427a8385"},"vehicle_type_id":"4","last_reported":1716026820,"current_range_meters":19200,"station_id":"ce4bgs92rcd13ifvqcc0","pricing_plan_id":"cebpf4jnsgd1na2vs0mg"},{"bike_id":"bf4b335d-2aef-4f1f-bb49-33406df23881","system_id":"levelo_inurba_marseille","lat":43.319935,"lon":5.381699,"is_reserved":false,"is_disabled":false,"rental_uris":{"android":"levelo://app?vid=bf4b335d-2aef-4f1f-bb49-33406df23881","ios":"levelo://app?vid=bf4b335d-2aef-4f1f-bb49-33406df23881"},"vehicle_type_id":"4","last_reported":1716026820,"current_range_meters":19200,"station_id":"ce4bhr12rcd13ifvqhpg","pricing_plan_id":"cebpf4jnsgd1na2vs0mg"},{"bike_id":"fa2e72d3-e841-419f-9182-3eff5ed14b62","system_id":"levelo_inurba_marseille","lat":43.313571,"lon":5.384829,"is_reserved":false,"is_disabled":false,"rental_uris":{"android":"levelo://app?vid=fa2e72d3-e841-419f-9182-3eff5ed14b62","ios":"levelo://app?vid=fa2e72d3-e841-419f-9182-3eff5ed14b62"},"vehicle_type_id":"4","last_reported":1716026820,"current_range_meters":19600,"station_id":"ce4bgt92rcd13ifvqcf0","pricing_plan_id":"cebpf4jnsgd1na2vs0mg"},{"bike_id":"27b5d551-b672-4cbd-8dd1-f6a7deb5ef0c","system_id":"levelo_inurba_marseille","lat":43.313571,"lon":5.384829,"is_reserved":false,"is_disabled":false,"rental_uris":{"android":"levelo://app?vid=27b5d551-b672-4cbd-8dd1-f6a7deb5ef0c","ios":"levelo://app?vid=27b5d551-b672-4cbd-8dd1-f6a7deb5ef0c"},"vehicle_type_id":"4","last_reported":1716026820,"current_range_meters":30800,"station_id":"ce4bgt92rcd13ifvqcf0","pricing_plan_id":"cebpf4jnsgd1na2vs0mg"},{"bike_id":"ef1f3c5e-9492-42ab-abd2-bc1c48d44998","system_id":"levelo_inurba_marseille","lat":43.299222,"lon":5.365554,"is_reserved":false,"is_disabled":false,"rental_uris":{"android":"levelo://app?vid=ef1f3c5e-9492-42ab-abd2-bc1c48d44998","ios":"levelo://app?vid=ef1f3c5e-9492-42ab-abd2-bc1c48d44998"},"vehicle_type_id":"4","last_reported":1716026820,"current_range_meters":18800,"station_id":"ce4bgm92rcd13ifvqbr0","pricing_plan_id":"cebpf4jnsgd1na2vs0mg"},{"bike_id":"ad40ea0d-4cf1-4a9f-af29-c444104fd180","system_id":"levelo_inurba_marseille","lat":43.299724,"lon":5.371829,"is_reserved":false,"is_disabled":false,"rental_uris":{"android":"levelo://app?vid=ad40ea0d-4cf1-4a9f-af29-c444104fd180","ios":"levelo://app?vid=ad40ea0d-4cf1-4a9f-af29-c444104fd180"},"vehicle_type_id":"4","last_reported":1716026820,"current_range_meters":23600,"station_id":"ce4bgr92rcd13ifvqc7g","pricing_plan_id":"cebpf4jnsgd1na2vs0mg"},{"bike_id":"ccc49320-2f77-49f7-93f7-3ffe485c23b7","system_id":"levelo_inurba_marseille","lat":43.29989,"lon":5.37406,"is_reserved":false,"is_disabled":false,"rental_uris":{"android":"levelo://app?vid=ccc49320-2f77-49f7-93f7-3ffe485c23b7","ios":"levelo://app?vid=ccc49320-2f77-49f7-93f7-3ffe485c23b7"},"vehicle_type_id":"4","last_reported":1716026820,"current_range_meters":21200,"station_id":"","pricing_plan_id":"cebpf4jnsgd1na2vs0mg"},{"bike_id":"c6119f14-f958-478a-8fe1-18c6aae64ef6","system_id":"levelo_inurba_marseille","lat":43.298604,"lon":5.362865,"is_reserved":false,"is_disabled":false,"rental_uris":{"android":"levelo://app?vid=c6119f14-f958-478a-8fe1-18c6aae64ef6","ios":"levelo://app?vid=c6119f14-f958-478a-8fe1-18c6aae64ef6"},"vehicle_type_id":"4","last_reported":1716026820,"current_range_meters":24400,"station_id":"ce4bgpp2rcd13ifvqc3g","pricing_plan_id":"cebpf4jnsgd1na2vs0mg"},{"bike_id":"338a5684-7420-48c1-8891-0e3a81eaee91","system_id":"levelo_inurba_marseille","lat":43.298433,"lon":5.362774,"is_reserved":false,"is_disabled":false,"rental_uris":{"android":"levelo://app?vid=338a5684-7420-48c1-8891-0e3a81eaee91","ios":"levelo://app?vid=338a5684-7420-48c1-8891-0e3a81eaee91"},"vehicle_type_id":"4","last_reported":1716026820,"current_range_meters":20400,"station_id":"ce4bgpp2rcd13ifvqc3g","pricing_plan_id":"cebpf4jnsgd1na2vs0mg"},{"bike_id":"1b6fa3a3-7541-4353-8c71-eda40965c7a1","system_id":"levelo_inurba_marseille","lat":43.29853,"lon":5.36288,"is_reserved":false,"is_disabled":false,"rental_uris":{"android":"levelo://app?vid=1b6fa3a3-7541-4353-8c71-eda40965c7a1","ios":"levelo://app?vid=1b6fa3a3-7541-4353-8c71-eda40965c7a1"},"vehicle_type_id":"4","last_reported":1716026820,"current_range_meters":21600,"station_id":"ce4bgpp2rcd13ifvqc3g","pricing_plan_id":"cebpf4jnsgd1na2vs0mg"},{"bike_id":"70dc526d-7f92-40eb-82ea-96088b4070fe","system_id":"levelo_inurba_marseille","lat":43.298433,"lon":5.362774,"is_reserved":false,"is_disabled":false,"rental_uris":{"android":"levelo://app?vid=70dc526d-7f92-40eb-82ea-96088b4070fe","ios":"levelo://app?vid=70dc526d-7f92-40eb-82ea-96088b4070fe"},"vehicle_type_id":"4","last_reported":1716026820,"current_range_meters":31200,"station_id":"ce4bgpp2rcd13ifvqc3g","pricing_plan_id":"cebpf4jnsgd1na2vs0mg"},{"bike_id":"4557c8db-74a3-49f9-ad79-a25e80208f11","system_id":"levelo_inurba_marseille","lat":43.298433,"lon":5.362774,"is_reserved":false,"is_disabled":false,"rental_uris":{"android":"levelo://app?vid=4557c8db-74a3-49f9-ad79-a25e80208f11","ios":"levelo://app?vid=4557c8db-74a3-49f9-ad79-a25e80208f11"},"vehicle_type_id":"4","last_reported":1716026820,"current_range_meters":18800,"station_id":"ce4bgpp2rcd13ifvqc3g","pricing_plan_id":"cebpf4jnsgd1na2vs0mg"},{"bike_id":"a0dd5578-e01e-404d-85b2-4ee44f052d83","system_id":"levelo_inurba_marseille","lat":43.298433,"lon":5.362774,"is_reserved":false,"is_disabled":false,"rental_uris":{"android":"levelo://app?vid=a0dd5578-e01e-404d-85b2-4ee44f052d83","ios":"levelo://app?vid=a0dd5578-e01e-404d-85b2-4ee44f052d83"},"vehicle_type_id":"4","last_reported":1716026820,"current_range_meters":31200,"station_id":"ce4bgpp2rcd13ifvqc3g","pricing_plan_id":"cebpf4jnsgd1na2vs0mg"},{"bike_id":"486116f6-deaa-459f-8d7b-c98085001b39","system_id":"levelo_inurba_marseille","lat":43.298433,"lon":5.362774,"is_reserved":false,"is_disabled":false,"rental_uris":{"android":"levelo://app?vid=486116f6-deaa-459f-8d7b-c98085001b39","ios":"levelo://app?vid=486116f6-deaa-459f-8d7b-c98085001b39"},"vehicle_type_id":"4","last_reported":1716026820,"current_range_meters":29600,"station_id":"ce4bgpp2rcd13ifvqc3g","pricing_plan_id":"cebpf4jnsgd1na2vs0mg"},{"bike_id":"127dc15f-527f-4cce-8c90-3590a19ec409","system_id":"levelo_inurba_marseille","lat":43.298433,"lon":5.362774,"is_reserved":false,"is_disabled":false,"rental_uris":{"android":"levelo://app?vid=127dc15f-527f-4cce-8c90-3590a19ec409","ios":"levelo://app?vid=127dc15f-527f-4cce-8c90-3590a19ec409"},"vehicle_type_id":"4","last_reported":1716026820,"current_range_meters":18000,"station_id":"ce4bgpp2rcd13ifvqc3g","pricing_plan_id":"cebpf4jnsgd1na2vs0mg"},{"bike_id":"5beaae5a-5e7c-4058-bf68-760900fe3eb9","system_id":"levelo_inurba_marseille","lat":43.29848,"lon":5.36278,"is_reserved":false,"is_disabled":false,"rental_uris":{"android":"levelo://app?vid=5beaae5a-5e7c-4058-bf68-760900fe3eb9","ios":"levelo://app?vid=5beaae5a-5e7c-4058-bf68-760900fe3eb9"},"vehicle_type_id":"4","last_reported":1716026820,"current_range_meters":14400,"station_id":"ce4bgpp2rcd13ifvqc3g","pricing_plan_id":"cebpf4jnsgd1na2vs0mg"},{"bike_id":"7cd6c43d-5843-4f13-9936-ee161a385367","system_id":"levelo_inurba_marseille","lat":43.29847,"lon":5.362838,"is_reserved":false,"is_disabled":false,"rental_uris":{"android":"levelo://app?vid=7cd6c43d-5843-4f13-9936-ee161a385367","ios":"levelo://app?vid=7cd6c43d-5843-4f13-9936-ee161a385367"},"vehicle_type_id":"4","last_reported":1716026820,"current_range_meters":23200,"station_id":"ce4bgpp2rcd13ifvqc3g","pricing_plan_id":"cebpf4jnsgd1na2vs0mg"},{"bike_id":"1ab9462a-2882-4c6f-97e8-bcf5024a5ff9","system_id":"levelo_inurba_marseille","lat":43.298433,"lon":5.362774,"is_reserved":false,"is_disabled":false,"rental_uris":{"android":"levelo://app?vid=1ab9462a-2882-4c6f-97e8-bcf5024a5ff9","ios":"levelo://app?vid=1ab9462a-2882-4c6f-97e8-bcf5024a5ff9"},"vehicle_type_id":"4","last_reported":1716026820,"current_range_meters":25200,"station_id":"ce4bgpp2rcd13ifvqc3g","pricing_plan_id":"cebpf4jnsgd1na2vs0mg"},{"bike_id":"8cc26ceb-526f-42c7-bde7-820b8f229fb4","system_id":"levelo_inurba_marseille","lat":43.29848,"lon":5.362698,"is_reserved":false,"is_disabled":false,"rental_uris":{"android":"levelo://app?vid=8cc26ceb-526f-42c7-bde7-820b8f229fb4","ios":"levelo://app?vid=8cc26ceb-526f-42c7-bde7-820b8f229fb4"},"vehicle_type_id":"4","last_reported":1716026820,"current_range_meters":26400,"station_id":"ce4bgpp2rcd13ifvqc3g","pricing_plan_id":"cebpf4jnsgd1na2vs0mg"},{"bike_id":"5e0e906f-8f1e-4acf-bac1-b0288e5fd44c","system_id":"levelo_inurba_marseille","lat":43.29846,"lon":5.36274,"is_reserved":false,"is_disabled":false,"rental_uris":{"android":"levelo://app?vid=5e0e906f-8f1e-4acf-bac1-b0288e5fd44c","ios":"levelo://app?vid=5e0e906f-8f1e-4acf-bac1-b0288e5fd44c"},"vehicle_type_id":"4","last_reported":1716026820,"current_range_meters":6400,"station_id":"ce4bgpp2rcd13ifvqc3g","pricing_plan_id":"cebpf4jnsgd1na2vs0mg"},{"bike_id":"99a0a1b6-dec5-4a75-8603-7ea70749cc0c","system_id":"levelo_inurba_marseille","lat":43.298433,"lon":5.362774,"is_reserved":false,"is_disabled":false,"rental_uris":{"android":"levelo://app?vid=99a0a1b6-dec5-4a75-8603-7ea70749cc0c","ios":"levelo://app?vid=99a0a1b6-dec5-4a75-8603-7ea70749cc0c"},"vehicle_type_id":"4","last_reported":1716026820,"current_range_meters":16000,"station_id":"ce4bgpp2rcd13ifvqc3g","pricing_plan_id":"cebpf4jnsgd1na2vs0mg"},{"bike_id":"d02efdac-8217-495d-ac88-5f95fc3d98ce","system_id":"levelo_inurba_marseille","lat":43.298433,"lon":5.362774,"is_reserved":false,"is_disabled":false,"rental_uris":{"android":"levelo://app?vid=d02efdac-8217-495d-ac88-5f95fc3d98ce","ios":"levelo://app?vid=d02efdac-8217-495d-ac88-5f95fc3d98ce"},"vehicle_type_id":"4","last_reported":1716026820,"current_range_meters":19600,"station_id":"ce4bgpp2rcd13ifvqc3g","pricing_plan_id":"cebpf4jnsgd1na2vs0mg"},{"bike_id":"b00299ab-97a2-48cd-b0bd-1ba9c494f85f","system_id":"levelo_inurba_marseille","lat":43.298433,"lon":5.362774,"is_reserved":false,"is_disabled":false,"rental_uris":{"android":"levelo://app?vid=b00299ab-97a2-48cd-b0bd-1ba9c494f85f","ios":"levelo://app?vid=b00299ab-97a2-48cd-b0bd-1ba9c494f85f"},"vehicle_type_id":"4","last_reported":1716026820,"current_range_meters":6000,"station_id":"ce4bgpp2rcd13ifvqc3g","pricing_plan_id":"cebpf4jnsgd1na2vs0mg"},{"bike_id":"e918b186-749b-4c24-be0c-dc045a4eac1a","system_id":"levelo_inurba_marseille","lat":43.298433,"lon":5.362774,"is_reserved":false,"is_disabled":false,"rental_uris":{"android":"levelo://app?vid=e918b186-749b-4c24-be0c-dc045a4eac1a","ios":"levelo://app?vid=e918b186-749b-4c24-be0c-dc045a4eac1a"},"vehicle_type_id":"4","last_reported":1716026820,"current_range_meters":30400,"station_id":"ce4bgpp2rcd13ifvqc3g","pricing_plan_id":"cebpf4jnsgd1na2vs0mg"},{"bike_id":"048acf65-f2ea-4955-be27-6e2d916cb9df","system_id":"levelo_inurba_marseille","lat":43.298433,"lon":5.362774,"is_reserved":false,"is_disabled":false,"rental_uris":{"android":"levelo://app?vid=048acf65-f2ea-4955-be27-6e2d916cb9df","ios":"levelo://app?vid=048acf65-f2ea-4955-be27-6e2d916cb9df"},"vehicle_type_id":"4","last_reported":1716026820,"current_range_meters":24800,"station_id":"ce4bgpp2rcd13ifvqc3g","pricing_plan_id":"cebpf4jnsgd1na2vs0mg"},{"bike_id":"8001ab9e-3e8c-4642-8e1f-e9b9d0321884","system_id":"levelo_inurba_marseille","lat":43.299243,"lon":5.37481,"is_reserved":false,"is_disabled":false,"rental_uris":{"android":"levelo://app?vid=8001ab9e-3e8c-4642-8e1f-e9b9d0321884","ios":"levelo://app?vid=8001ab9e-3e8c-4642-8e1f-e9b9d0321884"},"vehicle_type_id":"4","last_reported":1716026820,"current_range_meters":28000,"station_id":"ce4bgjh2rcd13ifvqbg0","pricing_plan_id":"cebpf4jnsgd1na2vs0mg"},{"bike_id":"b22379ec-8777-4dcd-8c0e-9642bdad8cfd","system_id":"levelo_inurba_marseille","lat":43.297774,"lon":5.370875,"is_reserved":false,"is_disabled":false,"rental_uris":{"android":"levelo://app?vid=b22379ec-8777-4dcd-8c0e-9642bdad8cfd","ios":"levelo://app?vid=b22379ec-8777-4dcd-8c0e-9642bdad8cfd"},"vehicle_type_id":"4","last_reported":1716026820,"current_range_meters":30800,"station_id":"ce4bgop2rcd13ifvqc1g","pricing_plan_id":"cebpf4jnsgd1na2vs0mg"},{"bike_id":"a78c0371-18a7-4609-8a16-1a99a180568a","system_id":"levelo_inurba_marseille","lat":43.29787,"lon":5.37104,"is_reserved":false,"is_disabled":false,"rental_uris":{"android":"levelo://app?vid=a78c0371-18a7-4609-8a16-1a99a180568a","ios":"levelo://app?vid=a78c0371-18a7-4609-8a16-1a99a180568a"},"vehicle_type_id":"4","last_reported":1716026820,"current_range_meters":30400,"station_id":"ce4bgop2rcd13ifvqc1g","pricing_plan_id":"cebpf4jnsgd1na2vs0mg"},{"bike_id":"def46606-12d4-4571-8522-56b0a57065a5","system_id":"levelo_inurba_marseille","lat":43.297163,"lon":5.365866,"is_reserved":false,"is_disabled":false,"rental_uris":{"android":"levelo://app?vid=def46606-12d4-4571-8522-56b0a57065a5","ios":"levelo://app?vid=def46606-12d4-4571-8522-56b0a57065a5"},"vehicle_type_id":"4","last_reported":1716026820,"current_range_meters":4000,"station_id":"ce4bgn12rcd13ifvqbt0","pricing_plan_id":"cebpf4jnsgd1na2vs0mg"},{"bike_id":"e55901c7-fcaa-4c06-8d50-1385ae6d265a","system_id":"levelo_inurba_marseille","lat":43.297163,"lon":5.365866,"is_reserved":false,"is_disabled":false,"rental_uris":{"android":"levelo://app?vid=e55901c7-fcaa-4c06-8d50-1385ae6d265a","ios":"levelo://app?vid=e55901c7-fcaa-4c06-8d50-1385ae6d265a"},"vehicle_type_id":"4","last_reported":1716026820,"current_range_meters":30400,"station_id":"ce4bgn12rcd13ifvqbt0","pricing_plan_id":"cebpf4jnsgd1na2vs0mg"},{"bike_id":"e456c576-d396-44dc-b095-7518d6ac0587","system_id":"levelo_inurba_marseille","lat":43.328393,"lon":5.367871,"is_reserved":false,"is_disabled":false,"rental_uris":{"android":"levelo://app?vid=e456c576-d396-44dc-b095-7518d6ac0587","ios":"levelo://app?vid=e456c576-d396-44dc-b095-7518d6ac0587"},"vehicle_type_id":"4","last_reported":1716026820,"current_range_meters":14800,"station_id":"","pricing_plan_id":"cebpf4jnsgd1na2vs0mg"},{"bike_id":"913231a3-24cb-480b-ad3b-d1e68a90def3","system_id":"levelo_inurba_marseille","lat":43.297163,"lon":5.365866,"is_reserved":false,"is_disabled":false,"rental_uris":{"android":"levelo://app?vid=913231a3-24cb-480b-ad3b-d1e68a90def3","ios":"levelo://app?vid=913231a3-24cb-480b-ad3b-d1e68a90def3"},"vehicle_type_id":"4","last_reported":1716026820,"current_range_meters":12400,"station_id":"ce4bgn12rcd13ifvqbt0","pricing_plan_id":"cebpf4jnsgd1na2vs0mg"},{"bike_id":"e8b74b53-1f66-4822-bc9f-59e0cd63ffdc","system_id":"levelo_inurba_marseille","lat":43.29706,"lon":5.36893,"is_reserved":false,"is_disabled":false,"rental_uris":{"android":"levelo://app?vid=e8b74b53-1f66-4822-bc9f-59e0cd63ffdc","ios":"levelo://app?vid=e8b74b53-1f66-4822-bc9f-59e0cd63ffdc"},"vehicle_type_id":"4","last_reported":1716026820,"current_range_meters":2000,"station_id":"","pricing_plan_id":"cebpf4jnsgd1na2vs0mg"},{"bike_id":"2647b1a1-3596-4ac3-8fea-ac98733c1902","system_id":"levelo_inurba_marseille","lat":43.297163,"lon":5.365866,"is_reserved":false,"is_disabled":false,"rental_uris":{"android":"levelo://app?vid=2647b1a1-3596-4ac3-8fea-ac98733c1902","ios":"levelo://app?vid=2647b1a1-3596-4ac3-8fea-ac98733c1902"},"vehicle_type_id":"4","last_reported":1716026820,"current_range_meters":25600,"station_id":"ce4bgn12rcd13ifvqbt0","pricing_plan_id":"cebpf4jnsgd1na2vs0mg"},{"bike_id":"48a020d9-4202-4dc1-8f9f-6d2f84dbaf15","system_id":"levelo_inurba_marseille","lat":43.299028,"lon":5.381509,"is_reserved":false,"is_disabled":false,"rental_uris":{"android":"levelo://app?vid=48a020d9-4202-4dc1-8f9f-6d2f84dbaf15","ios":"levelo://app?vid=48a020d9-4202-4dc1-8f9f-6d2f84dbaf15"},"vehicle_type_id":"4","last_reported":1716026820,"current_range_meters":19200,"station_id":"ce4bgj12rcd13ifvqbc0","pricing_plan_id":"cebpf4jnsgd1na2vs0mg"},{"bike_id":"77cefb32-2eb1-4335-80f9-181fe9ea34f0","system_id":"levelo_inurba_marseille","lat":43.2968,"lon":5.37291,"is_reserved":false,"is_disabled":false,"rental_uris":{"android":"levelo://app?vid=77cefb32-2eb1-4335-80f9-181fe9ea34f0","ios":"levelo://app?vid=77cefb32-2eb1-4335-80f9-181fe9ea34f0"},"vehicle_type_id":"4","last_reported":1716026820,"current_range_meters":26400,"station_id":"ce4bgk12rcd13ifvqbj0","pricing_plan_id":"cebpf4jnsgd1na2vs0mg"},{"bike_id":"c497c618-4f29-4d48-b601-e8d6685efe1d","system_id":"levelo_inurba_marseille","lat":43.2968,"lon":5.37291,"is_reserved":false,"is_disabled":false,"rental_uris":{"android":"levelo://app?vid=c497c618-4f29-4d48-b601-e8d6685efe1d","ios":"levelo://app?vid=c497c618-4f29-4d48-b601-e8d6685efe1d"},"vehicle_type_id":"4","last_reported":1716026820,"current_range_meters":28000,"station_id":"ce4bgk12rcd13ifvqbj0","pricing_plan_id":"cebpf4jnsgd1na2vs0mg"},{"bike_id":"97c94f16-e79b-4c89-a7d8-843ba02ba0f3","system_id":"levelo_inurba_marseille","lat":43.2968,"lon":5.37291,"is_reserved":false,"is_disabled":false,"rental_uris":{"android":"levelo://app?vid=97c94f16-e79b-4c89-a7d8-843ba02ba0f3","ios":"levelo://app?vid=97c94f16-e79b-4c89-a7d8-843ba02ba0f3"},"vehicle_type_id":"4","last_reported":1716026820,"current_range_meters":15600,"station_id":"ce4bgk12rcd13ifvqbj0","pricing_plan_id":"cebpf4jnsgd1na2vs0mg"},{"bike_id":"c4c59ca9-ac44-430c-b62d-c887bda6fe6c","system_id":"levelo_inurba_marseille","lat":43.2968,"lon":5.37291,"is_reserved":false,"is_disabled":false,"rental_uris":{"android":"levelo://app?vid=c4c59ca9-ac44-430c-b62d-c887bda6fe6c","ios":"levelo://app?vid=c4c59ca9-ac44-430c-b62d-c887bda6fe6c"},"vehicle_type_id":"4","last_reported":1716026820,"current_range_meters":18400,"station_id":"ce4bgk12rcd13ifvqbj0","pricing_plan_id":"cebpf4jnsgd1na2vs0mg"},{"bike_id":"104a3ab1-0633-4854-ba43-07cea6eef85e","system_id":"levelo_inurba_marseille","lat":43.2968,"lon":5.37291,"is_reserved":false,"is_disabled":false,"rental_uris":{"android":"levelo://app?vid=104a3ab1-0633-4854-ba43-07cea6eef85e","ios":"levelo://app?vid=104a3ab1-0633-4854-ba43-07cea6eef85e"},"vehicle_type_id":"4","last_reported":1716026820,"current_range_meters":24000,"station_id":"ce4bgk12rcd13ifvqbj0","pricing_plan_id":"cebpf4jnsgd1na2vs0mg"},{"bike_id":"1fc0e84a-317f-48d4-b2ca-aa59471b1aa6","system_id":"levelo_inurba_marseille","lat":43.2968,"lon":5.37291,"is_reserved":false,"is_disabled":false,"rental_uris":{"android":"levelo://app?vid=1fc0e84a-317f-48d4-b2ca-aa59471b1aa6","ios":"levelo://app?vid=1fc0e84a-317f-48d4-b2ca-aa59471b1aa6"},"vehicle_type_id":"4","last_reported":1716026820,"current_range_meters":5600,"station_id":"ce4bgk12rcd13ifvqbj0","pricing_plan_id":"cebpf4jnsgd1na2vs0mg"},{"bike_id":"b0d51d44-808e-48ee-99a8-6dfc0ab25d20","system_id":"levelo_inurba_marseille","lat":43.2968,"lon":5.37291,"is_reserved":false,"is_disabled":false,"rental_uris":{"android":"levelo://app?vid=b0d51d44-808e-48ee-99a8-6dfc0ab25d20","ios":"levelo://app?vid=b0d51d44-808e-48ee-99a8-6dfc0ab25d20"},"vehicle_type_id":"4","last_reported":1716026820,"current_range_meters":31200,"station_id":"ce4bgk12rcd13ifvqbj0","pricing_plan_id":"cebpf4jnsgd1na2vs0mg"},{"bike_id":"d89150b8-d8c6-4389-bc9e-76204872b01c","system_id":"levelo_inurba_marseille","lat":43.2968,"lon":5.37291,"is_reserved":false,"is_disabled":false,"rental_uris":{"android":"levelo://app?vid=d89150b8-d8c6-4389-bc9e-76204872b01c","ios":"levelo://app?vid=d89150b8-d8c6-4389-bc9e-76204872b01c"},"vehicle_type_id":"4","last_reported":1716026820,"current_range_meters":18400,"station_id":"ce4bgk12rcd13ifvqbj0","pricing_plan_id":"cebpf4jnsgd1na2vs0mg"},{"bike_id":"02eb288b-cd69-4128-afdc-26a375af210f","system_id":"levelo_inurba_marseille","lat":43.32938,"lon":5.36713,"is_reserved":false,"is_disabled":false,"rental_uris":{"android":"levelo://app?vid=02eb288b-cd69-4128-afdc-26a375af210f","ios":"levelo://app?vid=02eb288b-cd69-4128-afdc-26a375af210f"},"vehicle_type_id":"4","last_reported":1716026820,"current_range_meters":1600,"station_id":"","pricing_plan_id":"cebpf4jnsgd1na2vs0mg"},{"bike_id":"107b6fef-1d59-4f28-a1a0-e482801f5f05","system_id":"levelo_inurba_marseille","lat":43.296921,"lon":5.376579,"is_reserved":false,"is_disabled":false,"rental_uris":{"android":"levelo://app?vid=107b6fef-1d59-4f28-a1a0-e482801f5f05","ios":"levelo://app?vid=107b6fef-1d59-4f28-a1a0-e482801f5f05"},"vehicle_type_id":"4","last_reported":1716026820,"current_range_meters":13200,"station_id":"ce4bgkh2rcd13ifvqbl0","pricing_plan_id":"cebpf4jnsgd1na2vs0mg"},{"bike_id":"7ddb5b53-5076-4116-8be4-7927b52c26ea","system_id":"levelo_inurba_marseille","lat":43.296921,"lon":5.376579,"is_reserved":false,"is_disabled":false,"rental_uris":{"android":"levelo://app?vid=7ddb5b53-5076-4116-8be4-7927b52c26ea","ios":"levelo://app?vid=7ddb5b53-5076-4116-8be4-7927b52c26ea"},"vehicle_type_id":"4","last_reported":1716026820,"current_range_meters":14800,"station_id":"ce4bgkh2rcd13ifvqbl0","pricing_plan_id":"cebpf4jnsgd1na2vs0mg"},{"bike_id":"383132a2-5268-4469-a21c-c64fd154c379","system_id":"levelo_inurba_marseille","lat":43.296935,"lon":5.376544,"is_reserved":false,"is_disabled":false,"rental_uris":{"android":"levelo://app?vid=383132a2-5268-4469-a21c-c64fd154c379","ios":"levelo://app?vid=383132a2-5268-4469-a21c-c64fd154c379"},"vehicle_type_id":"4","last_reported":1716026820,"current_range_meters":27600,"station_id":"ce4bgkh2rcd13ifvqbl0","pricing_plan_id":"cebpf4jnsgd1na2vs0mg"},{"bike_id":"e380c949-33e0-4f83-a308-6791de510c9a","system_id":"levelo_inurba_marseille","lat":43.296921,"lon":5.376579,"is_reserved":false,"is_disabled":false,"rental_uris":{"android":"levelo://app?vid=e380c949-33e0-4f83-a308-6791de510c9a","ios":"levelo://app?vid=e380c949-33e0-4f83-a308-6791de510c9a"},"vehicle_type_id":"4","last_reported":1716026820,"current_range_meters":8800,"station_id":"ce4bgkh2rcd13ifvqbl0","pricing_plan_id":"cebpf4jnsgd1na2vs0mg"},{"bike_id":"67e5c879-acd7-4663-a058-9684d30ba9c3","system_id":"levelo_inurba_marseille","lat":43.296935,"lon":5.376544,"is_reserved":false,"is_disabled":false,"rental_uris":{"android":"levelo://app?vid=67e5c879-acd7-4663-a058-9684d30ba9c3","ios":"levelo://app?vid=67e5c879-acd7-4663-a058-9684d30ba9c3"},"vehicle_type_id":"4","last_reported":1716026820,"current_range_meters":31200,"station_id":"ce4bgkh2rcd13ifvqbl0","pricing_plan_id":"cebpf4jnsgd1na2vs0mg"},{"bike_id":"4ca29615-e501-43b2-8eba-49c9913c670b","system_id":"levelo_inurba_marseille","lat":43.29562,"lon":5.36453,"is_reserved":false,"is_disabled":false,"rental_uris":{"android":"levelo://app?vid=4ca29615-e501-43b2-8eba-49c9913c670b","ios":"levelo://app?vid=4ca29615-e501-43b2-8eba-49c9913c670b"},"vehicle_type_id":"4","last_reported":1716026820,"current_range_meters":30000,"station_id":"","pricing_plan_id":"cebpf4jnsgd1na2vs0mg"},{"bike_id":"1aa9caa7-82b7-4820-825a-c460c095d14b","system_id":"levelo_inurba_marseille","lat":43.299028,"lon":5.381509,"is_reserved":false,"is_disabled":false,"rental_uris":{"android":"levelo://app?vid=1aa9caa7-82b7-4820-825a-c460c095d14b","ios":"levelo://app?vid=1aa9caa7-82b7-4820-825a-c460c095d14b"},"vehicle_type_id":"4","last_reported":1716026820,"current_range_meters":26400,"station_id":"ce4bgj12rcd13ifvqbc0","pricing_plan_id":"cebpf4jnsgd1na2vs0mg"},{"bike_id":"136f13eb-5f9e-463a-884d-820aa57c7aeb","system_id":"levelo_inurba_marseille","lat":43.299028,"lon":5.381509,"is_reserved":false,"is_disabled":false,"rental_uris":{"android":"levelo://app?vid=136f13eb-5f9e-463a-884d-820aa57c7aeb","ios":"levelo://app?vid=136f13eb-5f9e-463a-884d-820aa57c7aeb"},"vehicle_type_id":"4","last_reported":1716026820,"current_range_meters":18400,"station_id":"ce4bgj12rcd13ifvqbc0","pricing_plan_id":"cebpf4jnsgd1na2vs0mg"},{"bike_id":"843665d2-d0ea-44fa-878e-262e281b6507","system_id":"levelo_inurba_marseille","lat":43.296921,"lon":5.376579,"is_reserved":false,"is_disabled":false,"rental_uris":{"android":"levelo://app?vid=843665d2-d0ea-44fa-878e-262e281b6507","ios":"levelo://app?vid=843665d2-d0ea-44fa-878e-262e281b6507"},"vehicle_type_id":"4","last_reported":1716026820,"current_range_meters":2000,"station_id":"ce4bgkh2rcd13ifvqbl0","pricing_plan_id":"cebpf4jnsgd1na2vs0mg"},{"bike_id":"851b43d9-fca0-4a17-af08-293767c290c6","system_id":"levelo_inurba_marseille","lat":43.299028,"lon":5.381509,"is_reserved":false,"is_disabled":false,"rental_uris":{"android":"levelo://app?vid=851b43d9-fca0-4a17-af08-293767c290c6","ios":"levelo://app?vid=851b43d9-fca0-4a17-af08-293767c290c6"},"vehicle_type_id":"4","last_reported":1716026820,"current_range_meters":1200,"station_id":"ce4bgj12rcd13ifvqbc0","pricing_plan_id":"cebpf4jnsgd1na2vs0mg"},{"bike_id":"c8906f5b-ce66-48b3-b0dc-5aafa546a8af","system_id":"levelo_inurba_marseille","lat":43.299028,"lon":5.381509,"is_reserved":false,"is_disabled":false,"rental_uris":{"android":"levelo://app?vid=c8906f5b-ce66-48b3-b0dc-5aafa546a8af","ios":"levelo://app?vid=c8906f5b-ce66-48b3-b0dc-5aafa546a8af"},"vehicle_type_id":"4","last_reported":1716026820,"current_range_meters":11600,"station_id":"ce4bgj12rcd13ifvqbc0","pricing_plan_id":"cebpf4jnsgd1na2vs0mg"},{"bike_id":"0d1ac9fc-f624-41f9-9b43-d4814e7a4e25","system_id":"levelo_inurba_marseille","lat":43.299028,"lon":5.381509,"is_reserved":false,"is_disabled":false,"rental_uris":{"android":"levelo://app?vid=0d1ac9fc-f624-41f9-9b43-d4814e7a4e25","ios":"levelo://app?vid=0d1ac9fc-f624-41f9-9b43-d4814e7a4e25"},"vehicle_type_id":"4","last_reported":1716026820,"current_range_meters":9200,"station_id":"ce4bgj12rcd13ifvqbc0","pricing_plan_id":"cebpf4jnsgd1na2vs0mg"},{"bike_id":"633f84d9-55cb-4bb9-9fda-cf491df42c70","system_id":"levelo_inurba_marseille","lat":43.309589,"lon":5.390258,"is_reserved":false,"is_disabled":false,"rental_uris":{"android":"levelo://app?vid=633f84d9-55cb-4bb9-9fda-cf491df42c70","ios":"levelo://app?vid=633f84d9-55cb-4bb9-9fda-cf491df42c70"},"vehicle_type_id":"4","last_reported":1716026820,"current_range_meters":19600,"station_id":"ce4bgup2rcd13ifvqco0","pricing_plan_id":"cebpf4jnsgd1na2vs0mg"},{"bike_id":"341d38f3-a7c1-4292-b60b-329f9f52e912","system_id":"levelo_inurba_marseille","lat":43.296921,"lon":5.376579,"is_reserved":false,"is_disabled":false,"rental_uris":{"android":"levelo://app?vid=341d38f3-a7c1-4292-b60b-329f9f52e912","ios":"levelo://app?vid=341d38f3-a7c1-4292-b60b-329f9f52e912"},"vehicle_type_id":"4","last_reported":1716026820,"current_range_meters":20000,"station_id":"ce4bgkh2rcd13ifvqbl0","pricing_plan_id":"cebpf4jnsgd1na2vs0mg"},{"bike_id":"ea8e4eea-3cd3-4d41-b8fd-e188c6cc2c30","system_id":"levelo_inurba_marseille","lat":43.296921,"lon":5.376579,"is_reserved":false,"is_disabled":false,"rental_uris":{"android":"levelo://app?vid=ea8e4eea-3cd3-4d41-b8fd-e188c6cc2c30","ios":"levelo://app?vid=ea8e4eea-3cd3-4d41-b8fd-e188c6cc2c30"},"vehicle_type_id":"4","last_reported":1716026820,"current_range_meters":0,"station_id":"ce4bgkh2rcd13ifvqbl0","pricing_plan_id":"cebpf4jnsgd1na2vs0mg"},{"bike_id":"8648455a-b22c-4fbd-8c18-7e225a3a57b0","system_id":"levelo_inurba_marseille","lat":43.299028,"lon":5.381509,"is_reserved":false,"is_disabled":false,"rental_uris":{"android":"levelo://app?vid=8648455a-b22c-4fbd-8c18-7e225a3a57b0","ios":"levelo://app?vid=8648455a-b22c-4fbd-8c18-7e225a3a57b0"},"vehicle_type_id":"4","last_reported":1716026820,"current_range_meters":22400,"station_id":"ce4bgj12rcd13ifvqbc0","pricing_plan_id":"cebpf4jnsgd1na2vs0mg"},{"bike_id":"f7a2076e-2b49-4830-8f7b-f6f463647ce7","system_id":"levelo_inurba_marseille","lat":43.299028,"lon":5.381509,"is_reserved":false,"is_disabled":false,"rental_uris":{"android":"levelo://app?vid=f7a2076e-2b49-4830-8f7b-f6f463647ce7","ios":"levelo://app?vid=f7a2076e-2b49-4830-8f7b-f6f463647ce7"},"vehicle_type_id":"4","last_reported":1716026820,"current_range_meters":16800,"station_id":"ce4bgj12rcd13ifvqbc0","pricing_plan_id":"cebpf4jnsgd1na2vs0mg"},{"bike_id":"62ee8fa9-a03a-40a7-ba74-6d1df408e493","system_id":"levelo_inurba_marseille","lat":43.295748,"lon":5.37522,"is_reserved":false,"is_disabled":false,"rental_uris":{"android":"levelo://app?vid=62ee8fa9-a03a-40a7-ba74-6d1df408e493","ios":"levelo://app?vid=62ee8fa9-a03a-40a7-ba74-6d1df408e493"},"vehicle_type_id":"4","last_reported":1716026820,"current_range_meters":24400,"station_id":"ce4bgh92rcd13ifvqb50","pricing_plan_id":"cebpf4jnsgd1na2vs0mg"},{"bike_id":"8a2d3448-c72f-45f9-9fd2-815a752f8c24","system_id":"levelo_inurba_marseille","lat":43.317557,"lon":5.390173,"is_reserved":false,"is_disabled":false,"rental_uris":{"android":"levelo://app?vid=8a2d3448-c72f-45f9-9fd2-815a752f8c24","ios":"levelo://app?vid=8a2d3448-c72f-45f9-9fd2-815a752f8c24"},"vehicle_type_id":"4","last_reported":1716026820,"current_range_meters":10400,"station_id":"ce4bhqp2rcd13ifvqhng","pricing_plan_id":"cebpf4jnsgd1na2vs0mg"},{"bike_id":"1bc87702-42ea-445e-8260-211155cfeec8","system_id":"levelo_inurba_marseille","lat":43.30957,"lon":5.39066,"is_reserved":false,"is_disabled":false,"rental_uris":{"android":"levelo://app?vid=1bc87702-42ea-445e-8260-211155cfeec8","ios":"levelo://app?vid=1bc87702-42ea-445e-8260-211155cfeec8"},"vehicle_type_id":"4","last_reported":1716026820,"current_range_meters":0,"station_id":"ce4bgup2rcd13ifvqco0","pricing_plan_id":"cebpf4jnsgd1na2vs0mg"},{"bike_id":"c097b02a-f9ee-415c-b770-3637861f0f73","system_id":"levelo_inurba_marseille","lat":43.309589,"lon":5.390258,"is_reserved":false,"is_disabled":false,"rental_uris":{"android":"levelo://app?vid=c097b02a-f9ee-415c-b770-3637861f0f73","ios":"levelo://app?vid=c097b02a-f9ee-415c-b770-3637861f0f73"},"vehicle_type_id":"4","last_reported":1716026820,"current_range_meters":18800,"station_id":"ce4bgup2rcd13ifvqco0","pricing_plan_id":"cebpf4jnsgd1na2vs0mg"},{"bike_id":"b8739a74-da9a-47de-8519-8a102081adda","system_id":"levelo_inurba_marseille","lat":43.29657,"lon":5.37682,"is_reserved":false,"is_disabled":false,"rental_uris":{"android":"levelo://app?vid=b8739a74-da9a-47de-8519-8a102081adda","ios":"levelo://app?vid=b8739a74-da9a-47de-8519-8a102081adda"},"vehicle_type_id":"4","last_reported":1716026820,"current_range_meters":17200,"station_id":"ce4bgi92rcd13ifvqb90","pricing_plan_id":"cebpf4jnsgd1na2vs0mg"},{"bike_id":"ff94e851-cf64-42da-b451-e71617480e08","system_id":"levelo_inurba_marseille","lat":43.298037,"lon":5.381066,"is_reserved":false,"is_disabled":false,"rental_uris":{"android":"levelo://app?vid=ff94e851-cf64-42da-b451-e71617480e08","ios":"levelo://app?vid=ff94e851-cf64-42da-b451-e71617480e08"},"vehicle_type_id":"4","last_reported":1716026820,"current_range_meters":27200,"station_id":"ce4bgip2rcd13ifvqbb0","pricing_plan_id":"cebpf4jnsgd1na2vs0mg"},{"bike_id":"98c25ce9-1a4e-4c60-96b6-4bfd7afc181f","system_id":"levelo_inurba_marseille","lat":43.298037,"lon":5.381066,"is_reserved":false,"is_disabled":false,"rental_uris":{"android":"levelo://app?vid=98c25ce9-1a4e-4c60-96b6-4bfd7afc181f","ios":"levelo://app?vid=98c25ce9-1a4e-4c60-96b6-4bfd7afc181f"},"vehicle_type_id":"4","last_reported":1716026820,"current_range_meters":23600,"station_id":"ce4bgip2rcd13ifvqbb0","pricing_plan_id":"cebpf4jnsgd1na2vs0mg"},{"bike_id":"9fe11f02-cb4f-4fab-9889-4312b64a575e","system_id":"levelo_inurba_marseille","lat":43.304274,"lon":5.388873,"is_reserved":false,"is_disabled":false,"rental_uris":{"android":"levelo://app?vid=9fe11f02-cb4f-4fab-9889-4312b64a575e","ios":"levelo://app?vid=9fe11f02-cb4f-4fab-9889-4312b64a575e"},"vehicle_type_id":"4","last_reported":1716026820,"current_range_meters":28000,"station_id":"ce4bgk12rcd13ifvqbi0","pricing_plan_id":"cebpf4jnsgd1na2vs0mg"},{"bike_id":"6add4391-72bc-45cd-99ec-20dff11edeff","system_id":"levelo_inurba_marseille","lat":43.298037,"lon":5.381066,"is_reserved":false,"is_disabled":false,"rental_uris":{"android":"levelo://app?vid=6add4391-72bc-45cd-99ec-20dff11edeff","ios":"levelo://app?vid=6add4391-72bc-45cd-99ec-20dff11edeff"},"vehicle_type_id":"4","last_reported":1716026820,"current_range_meters":0,"station_id":"ce4bgip2rcd13ifvqbb0","pricing_plan_id":"cebpf4jnsgd1na2vs0mg"},{"bike_id":"bc05ab1d-ca70-4412-bc56-959d281fad22","system_id":"levelo_inurba_marseille","lat":43.304274,"lon":5.388873,"is_reserved":false,"is_disabled":false,"rental_uris":{"android":"levelo://app?vid=bc05ab1d-ca70-4412-bc56-959d281fad22","ios":"levelo://app?vid=bc05ab1d-ca70-4412-bc56-959d281fad22"},"vehicle_type_id":"4","last_reported":1716026820,"current_range_meters":15600,"station_id":"ce4bgk12rcd13ifvqbi0","pricing_plan_id":"cebpf4jnsgd1na2vs0mg"},{"bike_id":"8082a0f2-00cb-46b5-a15a-0927bbb24a71","system_id":"levelo_inurba_marseille","lat":43.304278,"lon":5.388868,"is_reserved":false,"is_disabled":false,"rental_uris":{"android":"levelo://app?vid=8082a0f2-00cb-46b5-a15a-0927bbb24a71","ios":"levelo://app?vid=8082a0f2-00cb-46b5-a15a-0927bbb24a71"},"vehicle_type_id":"4","last_reported":1716026820,"current_range_meters":21600,"station_id":"ce4bgk12rcd13ifvqbi0","pricing_plan_id":"cebpf4jnsgd1na2vs0mg"},{"bike_id":"ad2c1104-1b53-4d6f-a0ef-110f963b1f62","system_id":"levelo_inurba_marseille","lat":43.304274,"lon":5.388873,"is_reserved":false,"is_disabled":false,"rental_uris":{"android":"levelo://app?vid=ad2c1104-1b53-4d6f-a0ef-110f963b1f62","ios":"levelo://app?vid=ad2c1104-1b53-4d6f-a0ef-110f963b1f62"},"vehicle_type_id":"4","last_reported":1716026820,"current_range_meters":31200,"station_id":"ce4bgk12rcd13ifvqbi0","pricing_plan_id":"cebpf4jnsgd1na2vs0mg"},{"bike_id":"f5ca965f-7db9-4726-9f71-24f0d50c6b5d","system_id":"levelo_inurba_marseille","lat":43.304278,"lon":5.388868,"is_reserved":false,"is_disabled":false,"rental_uris":{"android":"levelo://app?vid=f5ca965f-7db9-4726-9f71-24f0d50c6b5d","ios":"levelo://app?vid=f5ca965f-7db9-4726-9f71-24f0d50c6b5d"},"vehicle_type_id":"4","last_reported":1716026820,"current_range_meters":27600,"station_id":"ce4bgk12rcd13ifvqbi0","pricing_plan_id":"cebpf4jnsgd1na2vs0mg"},{"bike_id":"aed75426-2d30-479c-ac7c-f9e0f4fee4df","system_id":"levelo_inurba_marseille","lat":43.29571,"lon":5.37533,"is_reserved":false,"is_disabled":false,"rental_uris":{"android":"levelo://app?vid=aed75426-2d30-479c-ac7c-f9e0f4fee4df","ios":"levelo://app?vid=aed75426-2d30-479c-ac7c-f9e0f4fee4df"},"vehicle_type_id":"4","last_reported":1716026820,"current_range_meters":0,"station_id":"ce4bgh92rcd13ifvqb50","pricing_plan_id":"cebpf4jnsgd1na2vs0mg"},{"bike_id":"8439b7b9-4b75-4792-8ddb-e7642331a91d","system_id":"levelo_inurba_marseille","lat":43.29566,"lon":5.37516,"is_reserved":false,"is_disabled":false,"rental_uris":{"android":"levelo://app?vid=8439b7b9-4b75-4792-8ddb-e7642331a91d","ios":"levelo://app?vid=8439b7b9-4b75-4792-8ddb-e7642331a91d"},"vehicle_type_id":"4","last_reported":1716026820,"current_range_meters":7600,"station_id":"ce4bgh92rcd13ifvqb50","pricing_plan_id":"cebpf4jnsgd1na2vs0mg"},{"bike_id":"ab250fe5-5ab9-443c-ad76-439718606c31","system_id":"levelo_inurba_marseille","lat":43.296277,"lon":5.377108,"is_reserved":false,"is_disabled":false,"rental_uris":{"android":"levelo://app?vid=ab250fe5-5ab9-443c-ad76-439718606c31","ios":"levelo://app?vid=ab250fe5-5ab9-443c-ad76-439718606c31"},"vehicle_type_id":"4","last_reported":1716026820,"current_range_meters":20000,"station_id":"ce4bgi92rcd13ifvqb90","pricing_plan_id":"cebpf4jnsgd1na2vs0mg"},{"bike_id":"63eadf54-eaff-4adc-bc71-06200013faf9","system_id":"levelo_inurba_marseille","lat":43.295748,"lon":5.37522,"is_reserved":false,"is_disabled":false,"rental_uris":{"android":"levelo://app?vid=63eadf54-eaff-4adc-bc71-06200013faf9","ios":"levelo://app?vid=63eadf54-eaff-4adc-bc71-06200013faf9"},"vehicle_type_id":"4","last_reported":1716026820,"current_range_meters":20000,"station_id":"ce4bgh92rcd13ifvqb50","pricing_plan_id":"cebpf4jnsgd1na2vs0mg"},{"bike_id":"5425aaba-262b-434e-9833-7c81073f891c","system_id":"levelo_inurba_marseille","lat":43.298037,"lon":5.381066,"is_reserved":false,"is_disabled":false,"rental_uris":{"android":"levelo://app?vid=5425aaba-262b-434e-9833-7c81073f891c","ios":"levelo://app?vid=5425aaba-262b-434e-9833-7c81073f891c"},"vehicle_type_id":"4","last_reported":1716026820,"current_range_meters":12800,"station_id":"ce4bgip2rcd13ifvqbb0","pricing_plan_id":"cebpf4jnsgd1na2vs0mg"},{"bike_id":"86574c0d-df79-4d21-b594-9c34d887de60","system_id":"levelo_inurba_marseille","lat":43.299724,"lon":5.384848,"is_reserved":false,"is_disabled":false,"rental_uris":{"android":"levelo://app?vid=86574c0d-df79-4d21-b594-9c34d887de60","ios":"levelo://app?vid=86574c0d-df79-4d21-b594-9c34d887de60"},"vehicle_type_id":"4","last_reported":1716026820,"current_range_meters":28800,"station_id":"ce4bgj92rcd13ifvqbd0","pricing_plan_id":"cebpf4jnsgd1na2vs0mg"},{"bike_id":"286f1d6a-a573-4052-91a3-5b91729d0d2f","system_id":"levelo_inurba_marseille","lat":43.295279,"lon":5.375048,"is_reserved":false,"is_disabled":false,"rental_uris":{"android":"levelo://app?vid=286f1d6a-a573-4052-91a3-5b91729d0d2f","ios":"levelo://app?vid=286f1d6a-a573-4052-91a3-5b91729d0d2f"},"vehicle_type_id":"4","last_reported":1716026820,"current_range_meters":31200,"station_id":"ce4bgkp2rcd13ifvqbmg","pricing_plan_id":"cebpf4jnsgd1na2vs0mg"},{"bike_id":"964e2c6f-231a-4c8a-aee9-cbab9ecf9be2","system_id":"levelo_inurba_marseille","lat":43.295279,"lon":5.375048,"is_reserved":false,"is_disabled":false,"rental_uris":{"android":"levelo://app?vid=964e2c6f-231a-4c8a-aee9-cbab9ecf9be2","ios":"levelo://app?vid=964e2c6f-231a-4c8a-aee9-cbab9ecf9be2"},"vehicle_type_id":"4","last_reported":1716026820,"current_range_meters":17600,"station_id":"ce4bgkp2rcd13ifvqbmg","pricing_plan_id":"cebpf4jnsgd1na2vs0mg"},{"bike_id":"10525051-c997-417a-8178-ab4881589a9a","system_id":"levelo_inurba_marseille","lat":43.295279,"lon":5.375048,"is_reserved":false,"is_disabled":false,"rental_uris":{"android":"levelo://app?vid=10525051-c997-417a-8178-ab4881589a9a","ios":"levelo://app?vid=10525051-c997-417a-8178-ab4881589a9a"},"vehicle_type_id":"4","last_reported":1716026820,"current_range_meters":24000,"station_id":"ce4bgkp2rcd13ifvqbmg","pricing_plan_id":"cebpf4jnsgd1na2vs0mg"},{"bike_id":"91408caa-fe35-4250-a6fb-bae12e1ce236","system_id":"levelo_inurba_marseille","lat":43.295279,"lon":5.375048,"is_reserved":false,"is_disabled":false,"rental_uris":{"android":"levelo://app?vid=91408caa-fe35-4250-a6fb-bae12e1ce236","ios":"levelo://app?vid=91408caa-fe35-4250-a6fb-bae12e1ce236"},"vehicle_type_id":"4","last_reported":1716026820,"current_range_meters":22400,"station_id":"ce4bgkp2rcd13ifvqbmg","pricing_plan_id":"cebpf4jnsgd1na2vs0mg"},{"bike_id":"d42664fc-5691-4d61-8cef-000736ebefea","system_id":"levelo_inurba_marseille","lat":43.295279,"lon":5.375048,"is_reserved":false,"is_disabled":false,"rental_uris":{"android":"levelo://app?vid=d42664fc-5691-4d61-8cef-000736ebefea","ios":"levelo://app?vid=d42664fc-5691-4d61-8cef-000736ebefea"},"vehicle_type_id":"4","last_reported":1716026820,"current_range_meters":24000,"station_id":"ce4bgkp2rcd13ifvqbmg","pricing_plan_id":"cebpf4jnsgd1na2vs0mg"},{"bike_id":"b097f6a7-bf3b-48ff-a95f-787d2e1f69a5","system_id":"levelo_inurba_marseille","lat":43.299717,"lon":5.384845,"is_reserved":false,"is_disabled":false,"rental_uris":{"android":"levelo://app?vid=b097f6a7-bf3b-48ff-a95f-787d2e1f69a5","ios":"levelo://app?vid=b097f6a7-bf3b-48ff-a95f-787d2e1f69a5"},"vehicle_type_id":"4","last_reported":1716026820,"current_range_meters":30000,"station_id":"ce4bgj92rcd13ifvqbd0","pricing_plan_id":"cebpf4jnsgd1na2vs0mg"},{"bike_id":"0975caad-9298-4eb1-9e4d-4c6b01e24659","system_id":"levelo_inurba_marseille","lat":43.2952,"lon":5.37515,"is_reserved":false,"is_disabled":false,"rental_uris":{"android":"levelo://app?vid=0975caad-9298-4eb1-9e4d-4c6b01e24659","ios":"levelo://app?vid=0975caad-9298-4eb1-9e4d-4c6b01e24659"},"vehicle_type_id":"4","last_reported":1716026820,"current_range_meters":16400,"station_id":"ce4bgkp2rcd13ifvqbmg","pricing_plan_id":"cebpf4jnsgd1na2vs0mg"},{"bike_id":"ad8838b4-ef02-46c9-887e-662545c1264b","system_id":"levelo_inurba_marseille","lat":43.295279,"lon":5.375048,"is_reserved":false,"is_disabled":false,"rental_uris":{"android":"levelo://app?vid=ad8838b4-ef02-46c9-887e-662545c1264b","ios":"levelo://app?vid=ad8838b4-ef02-46c9-887e-662545c1264b"},"vehicle_type_id":"4","last_reported":1716026820,"current_range_meters":30400,"station_id":"ce4bgkp2rcd13ifvqbmg","pricing_plan_id":"cebpf4jnsgd1na2vs0mg"},{"bike_id":"e1c09763-5646-494e-9e68-137324d3e6fe","system_id":"levelo_inurba_marseille","lat":43.29964,"lon":5.38505,"is_reserved":false,"is_disabled":false,"rental_uris":{"android":"levelo://app?vid=e1c09763-5646-494e-9e68-137324d3e6fe","ios":"levelo://app?vid=e1c09763-5646-494e-9e68-137324d3e6fe"},"vehicle_type_id":"4","last_reported":1716026820,"current_range_meters":0,"station_id":"ce4bgj92rcd13ifvqbd0","pricing_plan_id":"cebpf4jnsgd1na2vs0mg"},{"bike_id":"daa9c054-dc0e-4310-b726-4fc72565c91e","system_id":"levelo_inurba_marseille","lat":43.295105,"lon":5.37509,"is_reserved":false,"is_disabled":false,"rental_uris":{"android":"levelo://app?vid=daa9c054-dc0e-4310-b726-4fc72565c91e","ios":"levelo://app?vid=daa9c054-dc0e-4310-b726-4fc72565c91e"},"vehicle_type_id":"4","last_reported":1716026820,"current_range_meters":24000,"station_id":"ce4bgkp2rcd13ifvqbmg","pricing_plan_id":"cebpf4jnsgd1na2vs0mg"},{"bike_id":"48637dc4-7ed5-456b-ac32-818326b682bb","system_id":"levelo_inurba_marseille","lat":43.309589,"lon":5.390258,"is_reserved":false,"is_disabled":false,"rental_uris":{"android":"levelo://app?vid=48637dc4-7ed5-456b-ac32-818326b682bb","ios":"levelo://app?vid=48637dc4-7ed5-456b-ac32-818326b682bb"},"vehicle_type_id":"4","last_reported":1716026820,"current_range_meters":11600,"station_id":"ce4bgup2rcd13ifvqco0","pricing_plan_id":"cebpf4jnsgd1na2vs0mg"},{"bike_id":"fff646c2-0126-4f8f-94aa-34fc5aa040cd","system_id":"levelo_inurba_marseille","lat":43.299717,"lon":5.384845,"is_reserved":false,"is_disabled":false,"rental_uris":{"android":"levelo://app?vid=fff646c2-0126-4f8f-94aa-34fc5aa040cd","ios":"levelo://app?vid=fff646c2-0126-4f8f-94aa-34fc5aa040cd"},"vehicle_type_id":"4","last_reported":1716026820,"current_range_meters":28800,"station_id":"ce4bgj92rcd13ifvqbd0","pricing_plan_id":"cebpf4jnsgd1na2vs0mg"},{"bike_id":"b84c915d-627e-4cdd-bd30-e8656d1a48e3","system_id":"levelo_inurba_marseille","lat":43.294939,"lon":5.375008,"is_reserved":false,"is_disabled":false,"rental_uris":{"android":"levelo://app?vid=b84c915d-627e-4cdd-bd30-e8656d1a48e3","ios":"levelo://app?vid=b84c915d-627e-4cdd-bd30-e8656d1a48e3"},"vehicle_type_id":"4","last_reported":1716026820,"current_range_meters":20800,"station_id":"ce4bgkp2rcd13ifvqbmg","pricing_plan_id":"cebpf4jnsgd1na2vs0mg"},{"bike_id":"cde88bdb-753f-4b80-88f5-78c4003722fd","system_id":"levelo_inurba_marseille","lat":43.29602,"lon":5.381084,"is_reserved":false,"is_disabled":false,"rental_uris":{"android":"levelo://app?vid=cde88bdb-753f-4b80-88f5-78c4003722fd","ios":"levelo://app?vid=cde88bdb-753f-4b80-88f5-78c4003722fd"},"vehicle_type_id":"4","last_reported":1716026820,"current_range_meters":7200,"station_id":"ce4bgl12rcd13ifvqbo0","pricing_plan_id":"cebpf4jnsgd1na2vs0mg"},{"bike_id":"7eabb60c-20b7-4844-949a-4a71bc9443f3","system_id":"levelo_inurba_marseille","lat":43.296034,"lon":5.381019,"is_reserved":false,"is_disabled":false,"rental_uris":{"android":"levelo://app?vid=7eabb60c-20b7-4844-949a-4a71bc9443f3","ios":"levelo://app?vid=7eabb60c-20b7-4844-949a-4a71bc9443f3"},"vehicle_type_id":"4","last_reported":1716026820,"current_range_meters":24800,"station_id":"","pricing_plan_id":"cebpf4jnsgd1na2vs0mg"},{"bike_id":"e3240f57-b0d1-4a15-b182-7fbb6ef9344c","system_id":"levelo_inurba_marseille","lat":43.29602,"lon":5.381084,"is_reserved":false,"is_disabled":false,"rental_uris":{"android":"levelo://app?vid=e3240f57-b0d1-4a15-b182-7fbb6ef9344c","ios":"levelo://app?vid=e3240f57-b0d1-4a15-b182-7fbb6ef9344c"},"vehicle_type_id":"4","last_reported":1716026820,"current_range_meters":19600,"station_id":"ce4bgl12rcd13ifvqbo0","pricing_plan_id":"cebpf4jnsgd1na2vs0mg"},{"bike_id":"78397d20-921c-402a-91b1-a29ce339b0d5","system_id":"levelo_inurba_marseille","lat":43.29602,"lon":5.381084,"is_reserved":false,"is_disabled":false,"rental_uris":{"android":"levelo://app?vid=78397d20-921c-402a-91b1-a29ce339b0d5","ios":"levelo://app?vid=78397d20-921c-402a-91b1-a29ce339b0d5"},"vehicle_type_id":"4","last_reported":1716026820,"current_range_meters":29600,"station_id":"ce4bgl12rcd13ifvqbo0","pricing_plan_id":"cebpf4jnsgd1na2vs0mg"},{"bike_id":"36cd5096-4704-47e0-8a5e-d64ca029f958","system_id":"levelo_inurba_marseille","lat":43.29602,"lon":5.381084,"is_reserved":false,"is_disabled":false,"rental_uris":{"android":"levelo://app?vid=36cd5096-4704-47e0-8a5e-d64ca029f958","ios":"levelo://app?vid=36cd5096-4704-47e0-8a5e-d64ca029f958"},"vehicle_type_id":"4","last_reported":1716026820,"current_range_meters":27200,"station_id":"ce4bgl12rcd13ifvqbo0","pricing_plan_id":"cebpf4jnsgd1na2vs0mg"},{"bike_id":"8c944c12-d06f-4b94-80a3-34451e86fb9c","system_id":"levelo_inurba_marseille","lat":43.29844,"lon":5.38576,"is_reserved":false,"is_disabled":false,"rental_uris":{"android":"levelo://app?vid=8c944c12-d06f-4b94-80a3-34451e86fb9c","ios":"levelo://app?vid=8c944c12-d06f-4b94-80a3-34451e86fb9c"},"vehicle_type_id":"4","last_reported":1716026820,"current_range_meters":19600,"station_id":"","pricing_plan_id":"cebpf4jnsgd1na2vs0mg"},{"bike_id":"f2f5d396-46f9-4be6-8202-03f142b3f12f","system_id":"levelo_inurba_marseille","lat":43.293009,"lon":5.374584,"is_reserved":false,"is_disabled":false,"rental_uris":{"android":"levelo://app?vid=f2f5d396-46f9-4be6-8202-03f142b3f12f","ios":"levelo://app?vid=f2f5d396-46f9-4be6-8202-03f142b3f12f"},"vehicle_type_id":"4","last_reported":1716026820,"current_range_meters":4400,"station_id":"ce4bgi12rcd13ifvqb70","pricing_plan_id":"cebpf4jnsgd1na2vs0mg"},{"bike_id":"d9735466-09e1-4022-9691-4ff240a4449c","system_id":"levelo_inurba_marseille","lat":43.312551,"lon":5.39496,"is_reserved":false,"is_disabled":false,"rental_uris":{"android":"levelo://app?vid=d9735466-09e1-4022-9691-4ff240a4449c","ios":"levelo://app?vid=d9735466-09e1-4022-9691-4ff240a4449c"},"vehicle_type_id":"4","last_reported":1716026820,"current_range_meters":400,"station_id":"","pricing_plan_id":"cebpf4jnsgd1na2vs0mg"},