{"last_updated":1731852431,"ttl":60,"version":"2.2","data":{"bikes":[{"bike_id":"73806b4b-3409-4fe7-9bac-cc9da7355bda","system_id":"levelo_inurba_marseille","lat":43.31048,"lon":5.40003,"is_reserved":false,"is_disabled":false,"rental_uris":{"android":"levelo://app?vid=73806b4b-3409-4fe7-9bac-cc9da7355bda","ios":"levelo://app?vid=73806b4b-3409-4fe7-9bac-cc9da7355bda"},"vehicle_type_id":"4","last_reported":1731852431,"current_range_meters":28800,"station_id":"","pricing_plan_id":"cebpf4jnsgd1na2vs0mg"},{"bike_id":"83a5def4-ed44-43d9-b406-ce7a0231d57b","system_id":"levelo_inurba_marseille","lat":43.29848,"lon":5.3629,"is_reserved":false,"is_disabled":false,"rental_uris":{"android":"levelo://app?vid=83a5def4-ed44-43d9-b406-ce7a0231d57b","ios":"levelo://app?vid=83a5def4-ed44-43d9-b406-ce7a0231d57b"},"vehicle_type_id":"4","last_reported":1731852431,"current_range_meters":32000,"station_id":"ce4bgpp2rcd13ifvqc3g","pricing_plan_id":"cebpf4jnsgd1na2vs0mg"},{"bike_id":"8f64f783-a592-44e3-bbda-2c129afa1260","system_id":"levelo_inurba_marseille","lat":43.24653,"lon":5.38895,"is_reserved":false,"is_disabled":false,"rental_uris":{"android":"levelo://app?vid=8f64f783-a592-44e3-bbda-2c129afa1260","ios":"levelo://app?vid=8f64f783-a592-44e3-bbda-2c129afa1260"},"vehicle_type_id":"4","last_reported":1731852431,"current_range_meters":40000,"station_id":"ce4bhg12rcd13ifvqf60","pricing_plan_id":"cebpf4jnsgd1na2vs0mg"},{"bike_id":"01c0e064-dd98-4701-980a-a95a05cc00c5","system_id":"levelo_inurba_marseille","lat":43.23173,"lon":5.39987,"is_reserved":false,"is_disabled":false,"rental_uris":{"android":"levelo://app?vid=01c0e064-dd98-4701-980a-a95a05cc00c5","ios":"levelo://app?vid=01c0e064-dd98-4701-980a-a95a05cc00c5"},"vehicle_type_id":"4","last_reported":1731852431,"current_range_meters":16000,"station_id":"ce4bhn12rcd13ifvqgqg","pricing_plan_id":"cebpf4jnsgd1na2vs0mg"},{"bike_id":"0672d165-d197-4474-bbec-2df95543fd2f","system_id":"levelo_inurba_marseille","lat":43.299,"lon":5.43662,"is_reserved":false,"is_disabled":false,"rental_uris":{"android":"levelo://app?vid=0672d165-d197-4474-bbec-2df95543fd2f","ios":"levelo://app?vid=0672d165-d197-4474-bbec-2df95543fd2f"},"vehicle_type_id":"4","last_reported":1731852431,"current_range_meters":8400,"station_id":"ce4bhpp2rcd13ifvqhfg","pricing_plan_id":"cebpf4jnsgd1na2vs0mg"},{"bike_id":"8fe39cc9-83c3-424c-a33e-22ca5f2aa318","system_id":"levelo_inurba_marseille","lat":43.22929,"lon":5.35379,"is_reserved":false,"is_disabled":false,"rental_uris":{"android":"levelo://app?vid=8fe39cc9-83c3-424c-a33e-22ca5f2aa318","ios":"levelo://app?vid=8fe39cc9-83c3-424c-a33e-22ca5f2aa318"},"vehicle_type_id":"4","last_reported":1731852431,"current_range_meters":40000,"station_id":"cpo3532slgdg3j2ikp40","pricing_plan_id":"cebpf4jnsgd1na2vs0mg"},{"bike_id":"9b300d3a-cc28-44d0-8613-baa172113daa","system_id":"levelo_inurba_marseille","lat":43.2558,"lon":5.38233,"is_reserved":false,"is_disabled":false,"rental_uris":{"android":"levelo://app?vid=9b300d3a-cc28-44d0-8613-baa172113daa","ios":"levelo://app?vid=9b300d3a-cc28-44d0-8613-baa172113daa"},"vehicle_type_id":"4","last_reported":1731852431,"current_range_meters":30400,"station_id":"ce4bhih2rcd13ifvqfs0","pricing_plan_id":"cebpf4jnsgd1na2vs0mg"},{"bike_id":"313dfc76-e5ff-4fdb-a6ce-11cb6d4ff689","system_id":"levelo_inurba_marseille","lat":43.22927,"lon":5.35372,"is_reserved":false,"is_disabled":false,"rental_uris":{"android":"levelo://app?vid=313dfc76-e5ff-4fdb-a6ce-11cb6d4ff689","ios":"levelo://app?vid=313dfc76-e5ff-4fdb-a6ce-11cb6d4ff689"},"vehicle_type_id":"4","last_reported":1731852431,"current_range_meters":6400,"station_id":"cpo3532slgdg3j2ikp40","pricing_plan_id":"cebpf4jnsgd1na2vs0mg"},{"bike_id":"4c167bc3-2964-4625-adc0-c92e539ad80f","system_id":"levelo_inurba_marseille","lat":43.28282,"lon":5.40824,"is_reserved":false,"is_disabled":false,"rental_uris":{"android":"levelo://app?vid=4c167bc3-2964-4625-adc0-c92e539ad80f","ios":"levelo://app?vid=4c167bc3-2964-4625-adc0-c92e539ad80f"},"vehicle_type_id":"4","last_reported":1731852431,"current_range_meters":35200,"station_id":"","pricing_plan_id":"cebpf4jnsgd1na2vs0mg"},{"bike_id":"465dec12-9f49-4ede-8fae-37cab6ca211d","system_id":"levelo_inurba_marseille","lat":43.2992,"lon":5.37469,"is_reserved":false,"is_disabled":false,"rental_uris":{"android":"levelo://app?vid=465dec12-9f49-4ede-8fae-37cab6ca211d","ios":"levelo://app?vid=465dec12-9f49-4ede-8fae-37cab6ca211d"},"vehicle_type_id":"4","last_reported":1731852431,"current_range_meters":30800,"station_id":"ce4bgjh2rcd13ifvqbg0","pricing_plan_id":"cebpf4jnsgd1na2vs0mg"},{"bike_id":"44a253fe-0c31-4482-bf7d-eed3349505cd","system_id":"levelo_inurba_marseille","lat":43.27495,"lon":5.42459,"is_reserved":false,"is_disabled":false,"rental_uris":{"android":"levelo://app?vid=44a253fe-0c31-4482-bf7d-eed3349505cd","ios":"levelo://app?vid=44a253fe-0c31-4482-bf7d-eed3349505cd"},"vehicle_type_id":"4","last_reported":1731852431,"current_range_meters":17600,"station_id":"ce4bhn92rcd13ifvqgrg","pricing_plan_id":"cebpf4jnsgd1na2vs0mg"},{"bike_id":"6b0ea79e-cb12-4a50-9845-e4686b3cacc8","system_id":"levelo_inurba_marseille","lat":43.295751,"lon":5.399791,"is_reserved":false,"is_disabled":false,"rental_uris":{"android":"levelo://app?vid=6b0ea79e-cb12-4a50-9845-e4686b3cacc8","ios":"levelo://app?vid=6b0ea79e-cb12-4a50-9845-e4686b3cacc8"},"vehicle_type_id":"4","last_reported":1731852431,"current_range_meters":9200,"station_id":"","pricing_plan_id":"cebpf4jnsgd1na2vs0mg"},{"bike_id":"88422a58-7641-427b-871d-07dd27a46e36","system_id":"levelo_inurba_marseille","lat":43.27428,"lon":5.39409,"is_reserved":false,"is_disabled":false,"rental_uris":{"android":"levelo://app?vid=88422a58-7641-427b-871d-07dd27a46e36","ios":"levelo://app?vid=88422a58-7641-427b-871d-07dd27a46e36"},"vehicle_type_id":"4","last_reported":1731852431,"current_range_meters":26800,"station_id":"ce4bhdp2rcd13ifvqf20","pricing_plan_id":"cebpf4jnsgd1na2vs0mg"},{"bike_id":"4219ad56-dda8-41bd-bd6c-f8959bc256b9","system_id":"levelo_inurba_marseille","lat":43.23061,"lon":5.35493,"is_reserved":false,"is_disabled":false,"rental_uris":{"android":"levelo://app?vid=4219ad56-dda8-41bd-bd6c-f8959bc256b9","ios":"levelo://app?vid=4219ad56-dda8-41bd-bd6c-f8959bc256b9"},"vehicle_type_id":"4","last_reported":1731852431,"current_range_meters":3600,"station_id":"cpo3342slgdg3j2ifvpg","pricing_plan_id":"cebpf4jnsgd1na2vs0mg"},{"bike_id":"7eb4ec47-b9b3-4305-b900-7499ea722ff7","system_id":"levelo_inurba_marseille","lat":43.27612,"lon":5.361173,"is_reserved":false,"is_disabled":false,"rental_uris":{"android":"levelo://app?vid=7eb4ec47-b9b3-4305-b900-7499ea722ff7","ios":"levelo://app?vid=7eb4ec47-b9b3-4305-b900-7499ea722ff7"},"vehicle_type_id":"4","last_reported":1731852431,"current_range_meters":14000,"station_id":"ce4bgj92rcd13ifvqbe0","pricing_plan_id":"cebpf4jnsgd1na2vs0mg"},{"bike_id":"0e1d2e7a-8318-45fe-af1b-31857eb1aac8","system_id":"levelo_inurba_marseille","lat":43.23961,"lon":5.36621,"is_reserved":false,"is_disabled":false,"rental_uris":{"android":"levelo://app?vid=0e1d2e7a-8318-45fe-af1b-31857eb1aac8","ios":"levelo://app?vid=0e1d2e7a-8318-45fe-af1b-31857eb1aac8"},"vehicle_type_id":"4","last_reported":1731852431,"current_range_meters":24400,"station_id":"ce4bhi12rcd13ifvqfp0","pricing_plan_id":"cebpf4jnsgd1na2vs0mg"},{"bike_id":"2bd3ae1c-22d2-4b0f-9fd7-42d6b84fc3a3","system_id":"levelo_inurba_marseille","lat":43.33598,"lon":5.4103,"is_reserved":false,"is_disabled":false,"rental_uris":{"android":"levelo://app?vid=2bd3ae1c-22d2-4b0f-9fd7-42d6b84fc3a3","ios":"levelo://app?vid=2bd3ae1c-22d2-4b0f-9fd7-42d6b84fc3a3"},"vehicle_type_id":"4","last_reported":1731852431,"current_range_meters":18000,"station_id":"ce4bhqh2rcd13ifvqhmg","pricing_plan_id":"cebpf4jnsgd1na2vs0mg"},{"bike_id":"79b76398-f4aa-422b-b325-2360d07a8784","system_id":"levelo_inurba_marseille","lat":43.33729,"lon":5.39188,"is_reserved":false,"is_disabled":false,"rental_uris":{"android":"levelo://app?vid=79b76398-f4aa-422b-b325-2360d07a8784","ios":"levelo://app?vid=79b76398-f4aa-422b-b325-2360d07a8784"},"vehicle_type_id":"4","last_reported":1731852431,"current_range_meters":39200,"station_id":"ce4bhr92rcd13ifvqhsg","pricing_plan_id":"cebpf4jnsgd1na2vs0mg"},{"bike_id":"8e2ff687-3eb4-4478-9766-c8f5bc86e654","system_id":"levelo_inurba_marseille","lat":43.283295,"lon":5.384901,"is_reserved":false,"is_disabled":false,"rental_uris":{"android":"levelo://app?vid=8e2ff687-3eb4-4478-9766-c8f5bc86e654","ios":"levelo://app?vid=8e2ff687-3eb4-4478-9766-c8f5bc86e654"},"vehicle_type_id":"4","last_reported":1731852431,"current_range_meters":24000,"station_id":"ce4bhl92rcd13ifvqghg","pricing_plan_id":"cebpf4jnsgd1na2vs0mg"},{"bike_id":"fa825b29-c9a4-47e3-b6d4-2c5d8e037d00","system_id":"levelo_inurba_marseille","lat":43.261954,"lon":5.374472,"is_reserved":false,"is_disabled":false,"rental_uris":{"android":"levelo://app?vid=fa825b29-c9a4-47e3-b6d4-2c5d8e037d00","ios":"levelo://app?vid=fa825b29-c9a4-47e3-b6d4-2c5d8e037d00"},"vehicle_type_id":"4","last_reported":1731852431,"current_range_meters":0,"station_id":"ce4bhgp2rcd13ifvqfc0","pricing_plan_id":"cebpf4jnsgd1na2vs0mg"},{"bike_id":"0865c5f9-ae61-449b-a441-241c07a791d4","system_id":"levelo_inurba_marseille","lat":43.25119,"lon":5.40316,"is_reserved":false,"is_disabled":false,"rental_uris":{"android":"levelo://app?vid=0865c5f9-ae61-449b-a441-241c07a791d4","ios":"levelo://app?vid=0865c5f9-ae61-449b-a441-241c07a791d4"},"vehicle_type_id":"4","last_reported":1731852431,"current_range_meters":19200,"station_id":"ce4bhlh2rcd13ifvqgig","pricing_plan_id":"cebpf4jnsgd1na2vs0mg"},{"bike_id":"cd7a46d4-9cd2-4964-a4f4-f19fd89cdeee","system_id":"levelo_inurba_marseille","lat":43.22783,"lon":5.35168,"is_reserved":false,"is_disabled":false,"rental_uris":{"android":"levelo://app?vid=cd7a46d4-9cd2-4964-a4f4-f19fd89cdeee","ios":"levelo://app?vid=cd7a46d4-9cd2-4964-a4f4-f19fd89cdeee"},"vehicle_type_id":"4","last_reported":1731852431,"current_range_meters":7200,"station_id":"","pricing_plan_id":"cebpf4jnsgd1na2vs0mg"},{"bike_id":"20e48afd-037a-42f3-8103-1d6041a9fbb7","system_id":"levelo_inurba_marseille","lat":43.26685,"lon":5.3828,"is_reserved":false,"is_disabled":false,"rental_uris":{"android":"levelo://app?vid=20e48afd-037a-42f3-8103-1d6041a9fbb7","ios":"levelo://app?vid=20e48afd-037a-42f3-8103-1d6041a9fbb7"},"vehicle_type_id":"4","last_reported":1731852431,"current_range_meters":37600,"station_id":"ce4bhg92rcd13ifvqf90","pricing_plan_id":"cebpf4jnsgd1na2vs0mg"},{"bike_id":"69dbc2c6-5434-4884-a919-090c7c5596ce","system_id":"levelo_inurba_marseille","lat":43.23957,"lon":5.36625,"is_reserved":false,"is_disabled":false,"rental_uris":{"android":"levelo://app?vid=69dbc2c6-5434-4884-a919-090c7c5596ce","ios":"levelo://app?vid=69dbc2c6-5434-4884-a919-090c7c5596ce"},"vehicle_type_id":"4","last_reported":1731852431,"current_range_meters":22000,"station_id":"ce4bhi12rcd13ifvqfp0","pricing_plan_id":"cebpf4jnsgd1na2vs0mg"},{"bike_id":"3ea4d690-b924-4bed-8efe-633ef08c4c65","system_id":"levelo_inurba_marseille","lat":43.28151,"lon":5.42648,"is_reserved":false,"is_disabled":false,"rental_uris":{"android":"levelo://app?vid=3ea4d690-b924-4bed-8efe-633ef08c4c65","ios":"levelo://app?vid=3ea4d690-b924-4bed-8efe-633ef08c4c65"},"vehicle_type_id":"4","last_reported":1731852431,"current_range_meters":11200,"station_id":"ce4bhnh2rcd13ifvqgug","pricing_plan_id":"cebpf4jnsgd1na2vs0mg"},{"bike_id":"8b8091d9-8831-4b6c-ad12-201ff8e72ec6","system_id":"levelo_inurba_marseille","lat":43.27921,"lon":5.41427,"is_reserved":false,"is_disabled":false,"rental_uris":{"android":"levelo://app?vid=8b8091d9-8831-4b6c-ad12-201ff8e72ec6","ios":"levelo://app?vid=8b8091d9-8831-4b6c-ad12-201ff8e72ec6"},"vehicle_type_id":"4","last_reported":1731852431,"current_range_meters":33600,"station_id":"","pricing_plan_id":"cebpf4jnsgd1na2vs0mg"},{"bike_id":"4218e25f-b589-4585-9802-2be2a1418d47","system_id":"levelo_inurba_marseille","lat":43.34147,"lon":5.40898,"is_reserved":false,"is_disabled":false,"rental_uris":{"android":"levelo://app?vid=4218e25f-b589-4585-9802-2be2a1418d47","ios":"levelo://app?vid=4218e25f-b589-4585-9802-2be2a1418d47"},"vehicle_type_id":"4","last_reported":1731852431,"current_range_meters":6400,"station_id":"ce4bhqh2rcd13ifvqhlg","pricing_plan_id":"cebpf4jnsgd1na2vs0mg"},{"bike_id":"97310259-2cd3-4c11-b5d1-b5891ff6f9db","system_id":"levelo_inurba_marseille","lat":43.26557,"lon":5.37283,"is_reserved":false,"is_disabled":false,"rental_uris":{"android":"levelo://app?vid=97310259-2cd3-4c11-b5d1-b5891ff6f9db","ios":"levelo://app?vid=97310259-2cd3-4c11-b5d1-b5891ff6f9db"},"vehicle_type_id":"4","last_reported":1731852431,"current_range_meters":14400,"station_id":"ce4bhg12rcd13ifvqf70","pricing_plan_id":"cebpf4jnsgd1na2vs0mg"},{"bike_id":"acdd97f7-5bc6-446f-be6a-312e929fe457","system_id":"levelo_inurba_marseille","lat":43.25117,"lon":5.4032,"is_reserved":false,"is_disabled":false,"rental_uris":{"android":"levelo://app?vid=acdd97f7-5bc6-446f-be6a-312e929fe457","ios":"levelo://app?vid=acdd97f7-5bc6-446f-be6a-312e929fe457"},"vehicle_type_id":"4","last_reported":1731852431,"current_range_meters":7200,"station_id":"ce4bhlh2rcd13ifvqgig","pricing_plan_id":"cebpf4jnsgd1na2vs0mg"},{"bike_id":"23e5e119-83f6-4211-ade1-a250a82ab7db","system_id":"levelo_inurba_marseille","lat":43.22928,"lon":5.3538,"is_reserved":false,"is_disabled":false,"rental_uris":{"android":"levelo://app?vid=23e5e119-83f6-4211-ade1-a250a82ab7db","ios":"levelo://app?vid=23e5e119-83f6-4211-ade1-a250a82ab7db"},"vehicle_type_id":"4","last_reported":1731852431,"current_range_meters":16800,"station_id":"cpo3532slgdg3j2ikp40","pricing_plan_id":"cebpf4jnsgd1na2vs0mg"},{"bike_id":"0b580216-b07f-4821-a19d-686462be0488","system_id":"levelo_inurba_marseille","lat":43.2293,"lon":5.35389,"is_reserved":false,"is_disabled":false,"rental_uris":{"android":"levelo://app?vid=0b580216-b07f-4821-a19d-686462be0488","ios":"levelo://app?vid=0b580216-b07f-4821-a19d-686462be0488"},"vehicle_type_id":"4","last_reported":1731852431,"current_range_meters":36000,"station_id":"cpo3532slgdg3j2ikp40","pricing_plan_id":"cebpf4jnsgd1na2vs0mg"},{"bike_id":"fbdc6060-d966-42f9-93b7-1ec6d2b5aeb9","system_id":"levelo_inurba_marseille","lat":43.260058,"lon":5.375254,"is_reserved":false,"is_disabled":false,"rental_uris":{"android":"levelo://app?vid=fbdc6060-d966-42f9-93b7-1ec6d2b5aeb9","ios":"levelo://app?vid=fbdc6060-d966-42f9-93b7-1ec6d2b5aeb9"},"vehicle_type_id":"4","last_reported":1731852431,"current_range_meters":38800,"station_id":"ce4bhgh2rcd13ifvqfa0","pricing_plan_id":"cebpf4jnsgd1na2vs0mg"},{"bike_id":"01272bd5-a2c0-44b6-b76e-87cd305d9451","system_id":"levelo_inurba_marseille","lat":43.33023,"lon":5.39047,"is_reserved":false,"is_disabled":false,"rental_uris":{"android":"levelo://app?vid=01272bd5-a2c0-44b6-b76e-87cd305d9451","ios":"levelo://app?vid=01272bd5-a2c0-44b6-b76e-87cd305d9451"},"vehicle_type_id":"4","last_reported":1731852431,"current_range_meters":16000,"station_id":"ce4bhr92rcd13ifvqhrg","pricing_plan_id":"cebpf4jnsgd1na2vs0mg"},{"bike_id":"4138345b-cc1d-40b0-8916-e8013770729a","system_id":"levelo_inurba_marseille","lat":43.24641,"lon":5.38902,"is_reserved":false,"is_disabled":false,"rental_uris":{"android":"levelo://app?vid=4138345b-cc1d-40b0-8916-e8013770729a","ios":"levelo://app?vid=4138345b-cc1d-40b0-8916-e8013770729a"},"vehicle_type_id":"4","last_reported":1731852431,"current_range_meters":36800,"station_id":"ce4bhg12rcd13ifvqf60","pricing_plan_id":"cebpf4jnsgd1na2vs0mg"},{"bike_id":"10473ae9-343a-42a2-916b-9f1475a0a3bc","system_id":"levelo_inurba_marseille","lat":43.23962,"lon":5.36626,"is_reserved":false,"is_disabled":false,"rental_uris":{"android":"levelo://app?vid=10473ae9-343a-42a2-916b-9f1475a0a3bc","ios":"levelo://app?vid=10473ae9-343a-42a2-916b-9f1475a0a3bc"},"vehicle_type_id":"4","last_reported":1731852431,"current_range_meters":28000,"station_id":"ce4bhi12rcd13ifvqfp0","pricing_plan_id":"cebpf4jnsgd1na2vs0mg"},{"bike_id":"e46885b8-a6d7-44d2-85c2-281015e687a1","system_id":"levelo_inurba_marseille","lat":43.31127,"lon":5.37806,"is_reserved":false,"is_disabled":false,"rental_uris":{"android":"levelo://app?vid=e46885b8-a6d7-44d2-85c2-281015e687a1","ios":"levelo://app?vid=e46885b8-a6d7-44d2-85c2-281015e687a1"},"vehicle_type_id":"4","last_reported":1731852431,"current_range_meters":27200,"station_id":"","pricing_plan_id":"cebpf4jnsgd1na2vs0mg"},{"bike_id":"ba57f1ef-3fbb-4816-9e62-2e0737689f5e","system_id":"levelo_inurba_marseille","lat":43.33611,"lon":5.41039,"is_reserved":false,"is_disabled":false,"rental_uris":{"android":"levelo://app?vid=ba57f1ef-3fbb-4816-9e62-2e0737689f5e","ios":"levelo://app?vid=ba57f1ef-3fbb-4816-9e62-2e0737689f5e"},"vehicle_type_id":"4","last_reported":1731852431,"current_range_meters":39200,"station_id":"ce4bhqh2rcd13ifvqhmg","pricing_plan_id":"cebpf4jnsgd1na2vs0mg"},{"bike_id":"7a0d2783-2bf2-481e-a331-465fe71b4df3","system_id":"levelo_inurba_marseille","lat":43.27565,"lon":5.38429,"is_reserved":false,"is_disabled":false,"rental_uris":{"android":"levelo://app?vid=7a0d2783-2bf2-481e-a331-465fe71b4df3","ios":"levelo://app?vid=7a0d2783-2bf2-481e-a331-465fe71b4df3"},"vehicle_type_id":"4","last_reported":1731852431,"current_range_meters":8000,"station_id":"ce4bhh92rcd13ifvqfi0","pricing_plan_id":"cebpf4jnsgd1na2vs0mg"},{"bike_id":"db8f4ac6-fe2e-4e4a-9624-3e1abce0303f","system_id":"levelo_inurba_marseille","lat":43.23151,"lon":5.43714,"is_reserved":false,"is_disabled":false,"rental_uris":{"android":"levelo://app?vid=db8f4ac6-fe2e-4e4a-9624-3e1abce0303f","ios":"levelo://app?vid=db8f4ac6-fe2e-4e4a-9624-3e1abce0303f"},"vehicle_type_id":"4","last_reported":1731852431,"current_range_meters":23200,"station_id":"ce4bhmp2rcd13ifvqgog","pricing_plan_id":"cebpf4jnsgd1na2vs0mg"},{"bike_id":"000700b6-9f7a-43b4-bff7-910ce98c8718","system_id":"levelo_inurba_marseille","lat":43.27613,"lon":5.36113,"is_reserved":false,"is_disabled":false,"rental_uris":{"android":"levelo://app?vid=000700b6-9f7a-43b4-bff7-910ce98c8718","ios":"levelo://app?vid=000700b6-9f7a-43b4-bff7-910ce98c8718"},"vehicle_type_id":"4","last_reported":1731852431,"current_range_meters":18800,"station_id":"ce4bgj92rcd13ifvqbe0","pricing_plan_id":"cebpf4jnsgd1na2vs0mg"},{"bike_id":"65f5fc28-b4d5-45b2-8d39-7757b215f8c8","system_id":"levelo_inurba_marseille","lat":43.2319,"lon":5.39982,"is_reserved":false,"is_disabled":false,"rental_uris":{"android":"levelo://app?vid=65f5fc28-b4d5-45b2-8d39-7757b215f8c8","ios":"levelo://app?vid=65f5fc28-b4d5-45b2-8d39-7757b215f8c8"},"vehicle_type_id":"4","last_reported":1731852431,"current_range_meters":20800,"station_id":"ce4bhn12rcd13ifvqgqg","pricing_plan_id":"cebpf4jnsgd1na2vs0mg"},{"bike_id":"12867844-fa2a-41b2-8d74-706d4ef15909","system_id":"levelo_inurba_marseille","lat":43.33743,"lon":5.37441,"is_reserved":false,"is_disabled":false,"rental_uris":{"android":"levelo://app?vid=12867844-fa2a-41b2-8d74-706d4ef15909","ios":"levelo://app?vid=12867844-fa2a-41b2-8d74-706d4ef15909"},"vehicle_type_id":"4","last_reported":1731852431,"current_range_meters":33200,"station_id":"","pricing_plan_id":"cebpf4jnsgd1na2vs0mg"},{"bike_id":"3455c789-2e35-4152-8de0-fa613ba872df","system_id":"levelo_inurba_marseille","lat":43.32369,"lon":5.38881,"is_reserved":false,"is_disabled":false,"rental_uris":{"android":"levelo://app?vid=3455c789-2e35-4152-8de0-fa613ba872df","ios":"levelo://app?vid=3455c789-2e35-4152-8de0-fa613ba872df"},"vehicle_type_id":"4","last_reported":1731852431,"current_range_meters":32800,"station_id":"ce4bhqp2rcd13ifvqhog","pricing_plan_id":"cebpf4jnsgd1na2vs0mg"},{"bike_id":"244b6eef-8227-41b8-94cd-f70a12313ebd","system_id":"levelo_inurba_marseille","lat":43.26214,"lon":5.37444,"is_reserved":false,"is_disabled":false,"rental_uris":{"android":"levelo://app?vid=244b6eef-8227-41b8-94cd-f70a12313ebd","ios":"levelo://app?vid=244b6eef-8227-41b8-94cd-f70a12313ebd"},"vehicle_type_id":"4","last_reported":1731852431,"current_range_meters":6800,"station_id":"ce4bhgp2rcd13ifvqfc0","pricing_plan_id":"cebpf4jnsgd1na2vs0mg"},{"bike_id":"6f4bf5b7-cd2b-41a6-9634-87cf661c7c10","system_id":"levelo_inurba_marseille","lat":43.24168,"lon":5.36399,"is_reserved":false,"is_disabled":false,"rental_uris":{"android":"levelo://app?vid=6f4bf5b7-cd2b-41a6-9634-87cf661c7c10","ios":"levelo://app?vid=6f4bf5b7-cd2b-41a6-9634-87cf661c7c10"},"vehicle_type_id":"4","last_reported":1731852431,"current_range_meters":3600,"station_id":"cpo36qri1sfpv3e86is0","pricing_plan_id":"cebpf4jnsgd1na2vs0mg"},{"bike_id":"5a96bfca-b62f-46cd-a083-84f695bdd24c","system_id":"levelo_inurba_marseille","lat":43.30875,"lon":5.37198,"is_reserved":false,"is_disabled":false,"rental_uris":{"android":"levelo://app?vid=5a96bfca-b62f-46cd-a083-84f695bdd24c","ios":"levelo://app?vid=5a96bfca-b62f-46cd-a083-84f695bdd24c"},"vehicle_type_id":"4","last_reported":1731852431,"current_range_meters":6000,"station_id":"ce4bguh2rcd13ifvqckg","pricing_plan_id":"cebpf4jnsgd1na2vs0mg"},{"bike_id":"aa17008c-7997-43f6-b73c-6264dce17b87","system_id":"levelo_inurba_marseille","lat":43.24803,"lon":5.37454,"is_reserved":false,"is_disabled":false,"rental_uris":{"android":"levelo://app?vid=aa17008c-7997-43f6-b73c-6264dce17b87","ios":"levelo://app?vid=aa17008c-7997-43f6-b73c-6264dce17b87"},"vehicle_type_id":"4","last_reported":1731852431,"current_range_meters":38800,"station_id":"ce4bhgh2rcd13ifvqfb0","pricing_plan_id":"cebpf4jnsgd1na2vs0mg"},{"bike_id":"10808265-c82e-4663-ad34-00454e769817","system_id":"levelo_inurba_marseille","lat":43.23195,"lon":5.39988,"is_reserved":false,"is_disabled":false,"rental_uris":{"android":"levelo://app?vid=10808265-c82e-4663-ad34-00454e769817","ios":"levelo://app?vid=10808265-c82e-4663-ad34-00454e769817"},"vehicle_type_id":"4","last_reported":1731852431,"current_range_meters":30800,"station_id":"ce4bhn12rcd13ifvqgqg","pricing_plan_id":"cebpf4jnsgd1na2vs0mg"},{"bike_id":"92b70b63-9f66-4c95-94f3-3cec1871b5d3","system_id":"levelo_inurba_marseille","lat":43.2312,"lon":5.43701,"is_reserved":false,"is_disabled":false,"rental_uris":{"android":"levelo://app?vid=92b70b63-9f66-4c95-94f3-3cec1871b5d3","ios":"levelo://app?vid=92b70b63-9f66-4c95-94f3-3cec1871b5d3"},"vehicle_type_id":"4","last_reported":1731852431,"current_range_meters":40000,"station_id":"ce4bhmp2rcd13ifvqgog","pricing_plan_id":"cebpf4jnsgd1na2vs0mg"},{"bike_id":"b46f168a-792a-45b2-a15a-caab761b6916","system_id":"levelo_inurba_marseille","lat":43.28258,"lon":5.35065,"is_reserved":false,"is_disabled":false,"rental_uris":{"android":"levelo://app?vid=b46f168a-792a-45b2-a15a-caab761b6916","ios":"levelo://app?vid=b46f168a-792a-45b2-a15a-caab761b6916"},"vehicle_type_id":"4","last_reported":1731852431,"current_range_meters":8000,"station_id":"ce4bhbp2rcd13ifvqerg","pricing_plan_id":"cebpf4jnsgd1na2vs0mg"},{"bike_id":"ef14df2e-76a6-4463-9e17-7726d237e6a7","system_id":"levelo_inurba_marseille","lat":43.33611,"lon":5.41028,"is_reserved":false,"is_disabled":false,"rental_uris":{"android":"levelo://app?vid=ef14df2e-76a6-4463-9e17-7726d237e6a7","ios":"levelo://app?vid=ef14df2e-76a6-4463-9e17-7726d237e6a7"},"vehicle_type_id":"4","last_reported":1731852431,"current_range_meters":39200,"station_id":"ce4bhqh2rcd13ifvqhmg","pricing_plan_id":"cebpf4jnsgd1na2vs0mg"},{"bike_id":"993343aa-e73c-48de-b7e9-d56262a76d1d","system_id":"levelo_inurba_marseille","lat":43.29898,"lon":5.43663,"is_reserved":false,"is_disabled":false,"rental_uris":{"android":"levelo://app?vid=993343aa-e73c-48de-b7e9-d56262a76d1d","ios":"levelo://app?vid=993343aa-e73c-48de-b7e9-d56262a76d1d"},"vehicle_type_id":"4","last_reported":1731852431,"current_range_meters":32000,"station_id":"ce4bhpp2rcd13ifvqhfg","pricing_plan_id":"cebpf4jnsgd1na2vs0mg"},{"bike_id":"feb2acb8-fbb8-49ee-9353-a9726423e4ea","system_id":"levelo_inurba_marseille","lat":43.28454,"lon":5.35885,"is_reserved":false,"is_disabled":false,"rental_uris":{"android":"levelo://app?vid=feb2acb8-fbb8-49ee-9353-a9726423e4ea","ios":"levelo://app?vid=feb2acb8-fbb8-49ee-9353-a9726423e4ea"},"vehicle_type_id":"4","last_reported":1731852431,"current_range_meters":4800,"station_id":"ce4bhah2rcd13ifvqei0","pricing_plan_id":"cebpf4jnsgd1na2vs0mg"},{"bike_id":"fb66e34b-9ed3-495d-b879-f6b52e7a362e","system_id":"levelo_inurba_marseille","lat":43.294189,"lon":5.396747,"is_reserved":false,"is_disabled":false,"rental_uris":{"android":"levelo://app?vid=fb66e34b-9ed3-495d-b879-f6b52e7a362e","ios":"levelo://app?vid=fb66e34b-9ed3-495d-b879-f6b52e7a362e"},"vehicle_type_id":"4","last_reported":1731852431,"current_range_meters":19200,"station_id":"ce4bh192rcd13ifvqdd0","pricing_plan_id":"cebpf4jnsgd1na2vs0mg"},{"bike_id":"f3c2c3fe-2caa-4c62-a831-2cfeca2e0124","system_id":"levelo_inurba_marseille","lat":43.22927,"lon":5.35381,"is_reserved":false,"is_disabled":false,"rental_uris":{"android":"levelo://app?vid=f3c2c3fe-2caa-4c62-a831-2cfeca2e0124","ios":"levelo://app?vid=f3c2c3fe-2caa-4c62-a831-2cfeca2e0124"},"vehicle_type_id":"4","last_reported":1731852431,"current_range_meters":14400,"station_id":"cpo3532slgdg3j2ikp40","pricing_plan_id":"cebpf4jnsgd1na2vs0mg"},{"bike_id":"38e33bd0-0e14-412a-a4d9-b42be319fb38","system_id":"levelo_inurba_marseille","lat":43.23961,"lon":5.36639,"is_reserved":false,"is_disabled":false,"rental_uris":{"android":"levelo://app?vid=38e33bd0-0e14-412a-a4d9-b42be319fb38","ios":"levelo://app?vid=38e33bd0-0e14-412a-a4d9-b42be319fb38"},"vehicle_type_id":"4","last_reported":1731852431,"current_range_meters":38000,"station_id":"ce4bhi12rcd13ifvqfp0","pricing_plan_id":"cebpf4jnsgd1na2vs0mg"},{"bike_id":"d3d1a021-8d34-46bf-991f-81a9d4ee1d5f","system_id":"levelo_inurba_marseille","lat":43.28264,"lon":5.35082,"is_reserved":false,"is_disabled":false,"rental_uris":{"android":"levelo://app?vid=d3d1a021-8d34-46bf-991f-81a9d4ee1d5f","ios":"levelo://app?vid=d3d1a021-8d34-46bf-991f-81a9d4ee1d5f"},"vehicle_type_id":"4","last_reported":1731852431,"current_range_meters":18800,"station_id":"ce4bhbp2rcd13ifvqerg","pricing_plan_id":"cebpf4jnsgd1na2vs0mg"},{"bike_id":"1de0f5fb-ffe5-44d3-9cef-70d3eb7d7c8a","system_id":"levelo_inurba_marseille","lat":43.28018,"lon":5.36558,"is_reserved":false,"is_disabled":false,"rental_uris":{"android":"levelo://app?vid=1de0f5fb-ffe5-44d3-9cef-70d3eb7d7c8a","ios":"levelo://app?vid=1de0f5fb-ffe5-44d3-9cef-70d3eb7d7c8a"},"vehicle_type_id":"4","last_reported":1731852431,"current_range_meters":27200,"station_id":"ce4bhg12rcd13ifvqf70","pricing_plan_id":"cebpf4jnsgd1na2vs0mg"},{"bike_id":"5b3faca4-d3aa-4f9a-a2df-bca962917db3","system_id":"levelo_inurba_marseille","lat":43.23964,"lon":5.3663,"is_reserved":false,"is_disabled":false,"rental_uris":{"android":"levelo://app?vid=5b3faca4-d3aa-4f9a-a2df-bca962917db3","ios":"levelo://app?vid=5b3faca4-d3aa-4f9a-a2df-bca962917db3"},"vehicle_type_id":"4","last_reported":1731852431,"current_range_meters":18800,"station_id":"ce4bhi12rcd13ifvqfp0","pricing_plan_id":"cebpf4jnsgd1na2vs0mg"},{"bike_id":"4e829295-3979-4c57-8c0b-51a597a92d82","system_id":"levelo_inurba_marseille","lat":43.29778,"lon":5.39331,"is_reserved":false,"is_disabled":false,"rental_uris":{"android":"levelo://app?vid=4e829295-3979-4c57-8c0b-51a597a92d82","ios":"levelo://app?vid=4e829295-3979-4c57-8c0b-51a597a92d82"},"vehicle_type_id":"4","last_reported":1731852431,"current_range_meters":32800,"station_id":"chh1huq6cuj3fo74tm60","pricing_plan_id":"cebpf4jnsgd1na2vs0mg"},{"bike_id":"9f92a7ac-738d-40f9-93b9-933c1f0ff525","system_id":"levelo_inurba_marseille","lat":43.32368,"lon":5.38876,"is_reserved":false,"is_disabled":false,"rental_uris":{"android":"levelo://app?vid=9f92a7ac-738d-40f9-93b9-933c1f0ff525","ios":"levelo://app?vid=9f92a7ac-738d-40f9-93b9-933c1f0ff525"},"vehicle_type_id":"4","last_reported":1731852431,"current_range_meters":19200,"station_id":"ce4bhqp2rcd13ifvqhog","pricing_plan_id":"cebpf4jnsgd1na2vs0mg"},{"bike_id":"718e2867-8f79-439a-9f4c-954662430a38","system_id":"levelo_inurba_marseille","lat":43.28255,"lon":5.35071,"is_reserved":false,"is_disabled":false,"rental_uris":{"android":"levelo://app?vid=718e2867-8f79-439a-9f4c-954662430a38","ios":"levelo://app?vid=718e2867-8f79-439a-9f4c-954662430a38"},"vehicle_type_id":"4","last_reported":1731852431,"current_range_meters":29600,"station_id":"ce4bhbp2rcd13ifvqerg","pricing_plan_id":"cebpf4jnsgd1na2vs0mg"},{"bike_id":"0a2c0e89-de21-40b0-adf2-c91eef99db6b","system_id":"levelo_inurba_marseille","lat":43.29894,"lon":5.43667,"is_reserved":false,"is_disabled":false,"rental_uris":{"android":"levelo://app?vid=0a2c0e89-de21-40b0-adf2-c91eef99db6b","ios":"levelo://app?vid=0a2c0e89-de21-40b0-adf2-c91eef99db6b"},"vehicle_type_id":"4","last_reported":1731852431,"current_range_meters":6000,"station_id":"ce4bhpp2rcd13ifvqhfg","pricing_plan_id":"cebpf4jnsgd1na2vs0mg"},{"bike_id":"b117ce81-ae91-4466-bc7d-09a9b54c6f00","system_id":"levelo_inurba_marseille","lat":43.23185,"lon":5.39984,"is_reserved":false,"is_disabled":false,"rental_uris":{"android":"levelo://app?vid=b117ce81-ae91-4466-bc7d-09a9b54c6f00","ios":"levelo://app?vid=b117ce81-ae91-4466-bc7d-09a9b54c6f00"},"vehicle_type_id":"4","last_reported":1731852431,"current_range_meters":11200,"station_id":"ce4bhn12rcd13ifvqgqg","pricing_plan_id":"cebpf4jnsgd1na2vs0mg"},{"bike_id":"2349c6e2-a7ff-44cc-897e-fe1787bbc104","system_id":"levelo_inurba_marseille","lat":43.29274,"lon":5.36842,"is_reserved":false,"is_disabled":false,"rental_uris":{"android":"levelo://app?vid=2349c6e2-a7ff-44cc-897e-fe1787bbc104","ios":"levelo://app?vid=2349c6e2-a7ff-44cc-897e-fe1787bbc104"},"vehicle_type_id":"4","last_reported":1731852431,"current_range_meters":2000,"station_id":"ce4bhbp2rcd13ifvqesg","pricing_plan_id":"cebpf4jnsgd1na2vs0mg"},{"bike_id":"d05cb25d-5cda-4578-b514-7abfed72eee5","system_id":"levelo_inurba_marseille","lat":43.30277,"lon":5.37708,"is_reserved":false,"is_disabled":false,"rental_uris":{"android":"levelo://app?vid=d05cb25d-5cda-4578-b514-7abfed72eee5","ios":"levelo://app?vid=d05cb25d-5cda-4578-b514-7abfed72eee5"},"vehicle_type_id":"4","last_reported":1731852431,"current_range_meters":22800,"station_id":"ce4bguh2rcd13ifvqcj0","pricing_plan_id":"cebpf4jnsgd1na2vs0mg"},{"bike_id":"4f01fa73-c9c0-4fc0-986b-b2a94d270e4a","system_id":"levelo_inurba_marseille","lat":43.302519,"lon":5.400883,"is_reserved":false,"is_disabled":false,"rental_uris":{"android":"levelo://app?vid=4f01fa73-c9c0-4fc0-986b-b2a94d270e4a","ios":"levelo://app?vid=4f01fa73-c9c0-4fc0-986b-b2a94d270e4a"},"vehicle_type_id":"4","last_reported":1731852431,"current_range_meters":10000,"station_id":"ce4bgvh2rcd13ifvqcs0","pricing_plan_id":"cebpf4jnsgd1na2vs0mg"},{"bike_id":"6d757fef-4f26-43f9-ac2c-ffab39bf7dae","system_id":"levelo_inurba_marseille","lat":43.32249,"lon":5.36901,"is_reserved":false,"is_disabled":false,"rental_uris":{"android":"levelo://app?vid=6d757fef-4f26-43f9-ac2c-ffab39bf7dae","ios":"levelo://app?vid=6d757fef-4f26-43f9-ac2c-ffab39bf7dae"},"vehicle_type_id":"4","last_reported":1731852431,"current_range_meters":14800,"station_id":"","pricing_plan_id":"cebpf4jnsgd1na2vs0mg"},{"bike_id":"c9635198-225f-43f8-b8c8-41e55bc6c9b2","system_id":"levelo_inurba_marseille","lat":43.29549,"lon":5.42295,"is_reserved":false,"is_disabled":false,"rental_uris":{"android":"levelo://app?vid=c9635198-225f-43f8-b8c8-41e55bc6c9b2","ios":"levelo://app?vid=c9635198-225f-43f8-b8c8-41e55bc6c9b2"},"vehicle_type_id":"4","last_reported":1731852431,"current_range_meters":39200,"station_id":"ce4bhph2rcd13ifvqhdg","pricing_plan_id":"cebpf4jnsgd1na2vs0mg"},{"bike_id":"de3bf4ee-9f92-4e3f-be9d-45bf980097bc","system_id":"levelo_inurba_marseille","lat":43.29983,"lon":5.37413,"is_reserved":false,"is_disabled":false,"rental_uris":{"android":"levelo://app?vid=de3bf4ee-9f92-4e3f-be9d-45bf980097bc","ios":"levelo://app?vid=de3bf4ee-9f92-4e3f-be9d-45bf980097bc"},"vehicle_type_id":"4","last_reported":1731852431,"current_range_meters":12000,"station_id":"","pricing_plan_id":"cebpf4jnsgd1na2vs0mg"},{"bike_id":"f0a0534f-534d-42ab-a141-f3c88cf1bf12","system_id":"levelo_inurba_marseille","lat":43.27069,"lon":5.42285,"is_reserved":false,"is_disabled":false,"rental_uris":{"android":"levelo://app?vid=f0a0534f-534d-42ab-a141-f3c88cf1bf12","ios":"levelo://app?vid=f0a0534f-534d-42ab-a141-f3c88cf1bf12"},"vehicle_type_id":"4","last_reported":1731852431,"current_range_meters":35200,"station_id":"ce4bhk92rcd13ifvqgb0","pricing_plan_id":"cebpf4jnsgd1na2vs0mg"},{"bike_id":"9019691b-44d5-45db-bab4-7844df315a59","system_id":"levelo_inurba_marseille","lat":43.31082,"lon":5.4243,"is_reserved":false,"is_disabled":false,"rental_uris":{"android":"levelo://app?vid=9019691b-44d5-45db-bab4-7844df315a59","ios":"levelo://app?vid=9019691b-44d5-45db-bab4-7844df315a59"},"vehicle_type_id":"4","last_reported":1731852431,"current_range_meters":38800,"station_id":"ce4bhp92rcd13ifvqhag","pricing_plan_id":"cebpf4jnsgd1na2vs0mg"},{"bike_id":"176dfcf1-dbb1-46ba-bb5a-0e8c5c06d0fe","system_id":"levelo_inurba_marseille","lat":43.23961,"lon":5.36635,"is_reserved":false,"is_disabled":false,"rental_uris":{"android":"levelo://app?vid=176dfcf1-dbb1-46ba-bb5a-0e8c5c06d0fe","ios":"levelo://app?vid=176dfcf1-dbb1-46ba-bb5a-0e8c5c06d0fe"},"vehicle_type_id":"4","last_reported":1731852431,"current_range_meters":6800,"station_id":"ce4bhi12rcd13ifvqfp0","pricing_plan_id":"cebpf4jnsgd1na2vs0mg"},{"bike_id":"32c3e043-c542-4842-b11d-4a01ad0c3e24","system_id":"levelo_inurba_marseille","lat":43.29037,"lon":5.37548,"is_reserved":false,"is_disabled":false,"rental_uris":{"android":"levelo://app?vid=32c3e043-c542-4842-b11d-4a01ad0c3e24","ios":"levelo://app?vid=32c3e043-c542-4842-b11d-4a01ad0c3e24"},"vehicle_type_id":"4","last_reported":1731852431,"current_range_meters":37600,"station_id":"ce4bh692rcd13ifvqe90","pricing_plan_id":"cebpf4jnsgd1na2vs0mg"},{"bike_id":"d12d8022-b6ff-43a1-aeec-958267421e03","system_id":"levelo_inurba_marseille","lat":43.33026,"lon":5.39042,"is_reserved":false,"is_disabled":false,"rental_uris":{"android":"levelo://app?vid=d12d8022-b6ff-43a1-aeec-958267421e03","ios":"levelo://app?vid=d12d8022-b6ff-43a1-aeec-958267421e03"},"vehicle_type_id":"4","last_reported":1731852431,"current_range_meters":24000,"station_id":"ce4bhr92rcd13ifvqhrg","pricing_plan_id":"cebpf4jnsgd1na2vs0mg"},{"bike_id":"9b255d94-ee94-41ce-968c-16898d9f52f3","system_id":"levelo_inurba_marseille","lat":43.23962,"lon":5.36632,"is_reserved":false,"is_disabled":false,"rental_uris":{"android":"levelo://app?vid=9b255d94-ee94-41ce-968c-16898d9f52f3","ios":"levelo://app?vid=9b255d94-ee94-41ce-968c-16898d9f52f3"},"vehicle_type_id":"4","last_reported":1731852431,"current_range_meters":38000,"station_id":"ce4bhi12rcd13ifvqfp0","pricing_plan_id":"cebpf4jnsgd1na2vs0mg"},{"bike_id":"6dfdc7fd-43c8-4c08-9289-1676640e8a32","system_id":"levelo_inurba_marseille","lat":43.24804,"lon":5.3746,"is_reserved":false,"is_disabled":false,"rental_uris":{"android":"levelo://app?vid=6dfdc7fd-43c8-4c08-9289-1676640e8a32","ios":"levelo://app?vid=6dfdc7fd-43c8-4c08-9289-1676640e8a32"},"vehicle_type_id":"4","last_reported":1731852431,"current_range_meters":22800,"station_id":"ce4bhgh2rcd13ifvqfb0","pricing_plan_id":"cebpf4jnsgd1na2vs0mg"},{"bike_id":"e71534c5-e937-41b4-81f3-4d7c6197ead1","system_id":"levelo_inurba_marseille","lat":43.3361,"lon":5.41039,"is_reserved":false,"is_disabled":false,"rental_uris":{"android":"levelo://app?vid=e71534c5-e937-41b4-81f3-4d7c6197ead1","ios":"levelo://app?vid=e71534c5-e937-41b4-81f3-4d7c6197ead1"},"vehicle_type_id":"4","last_reported":1731852431,"current_range_meters":31200,"station_id":"ce4bhqh2rcd13ifvqhmg","pricing_plan_id":"cebpf4jnsgd1na2vs0mg"},{"bike_id":"ae335726-259a-4375-8971-887bdf305583","system_id":"levelo_inurba_marseille","lat":43.27487,"lon":5.42454,"is_reserved":false,"is_disabled":false,"rental_uris":{"android":"levelo://app?vid=ae335726-259a-4375-8971-887bdf305583","ios":"levelo://app?vid=ae335726-259a-4375-8971-887bdf305583"},"vehicle_type_id":"4","last_reported":1731852431,"current_range_meters":28400,"station_id":"ce4bhn92rcd13ifvqgrg","pricing_plan_id":"cebpf4jnsgd1na2vs0mg"},{"bike_id":"6f4185ba-0d14-49f4-aa40-36e0cbac687e","system_id":"levelo_inurba_marseille","lat":43.29895,"lon":5.43674,"is_reserved":false,"is_disabled":false,"rental_uris":{"android":"levelo://app?vid=6f4185ba-0d14-49f4-aa40-36e0cbac687e","ios":"levelo://app?vid=6f4185ba-0d14-49f4-aa40-36e0cbac687e"},"vehicle_type_id":"4","last_reported":1731852431,"current_range_meters":28400,"station_id":"ce4bhpp2rcd13ifvqhfg","pricing_plan_id":"cebpf4jnsgd1na2vs0mg"},{"bike_id":"55de28cf-e37c-4724-b81f-8a648780c5b9","system_id":"levelo_inurba_marseille","lat":43.23192,"lon":5.35555,"is_reserved":false,"is_disabled":false,"rental_uris":{"android":"levelo://app?vid=55de28cf-e37c-4724-b81f-8a648780c5b9","ios":"levelo://app?vid=55de28cf-e37c-4724-b81f-8a648780c5b9"},"vehicle_type_id":"4","last_reported":1731852431,"current_range_meters":36000,"station_id":"ce4bhu92rcd13ifvqi70","pricing_plan_id":"cebpf4jnsgd1na2vs0mg"},{"bike_id":"64e789f2-8ce7-4d7a-8df9-ef71005643a7","system_id":"levelo_inurba_marseille","lat":43.28153,"lon":5.42645,"is_reserved":false,"is_disabled":false,"rental_uris":{"android":"levelo://app?vid=64e789f2-8ce7-4d7a-8df9-ef71005643a7","ios":"levelo://app?vid=64e789f2-8ce7-4d7a-8df9-ef71005643a7"},"vehicle_type_id":"4","last_reported":1731852431,"current_range_meters":32800,"station_id":"ce4bhnh2rcd13ifvqgug","pricing_plan_id":"cebpf4jnsgd1na2vs0mg"},{"bike_id":"08b8cc7a-173f-45ff-a19d-373334d8568e","system_id":"levelo_inurba_marseille","lat":43.32536,"lon":5.4144,"is_reserved":false,"is_disabled":false,"rental_uris":{"android":"levelo://app?vid=08b8cc7a-173f-45ff-a19d-373334d8568e","ios":"levelo://app?vid=08b8cc7a-173f-45ff-a19d-373334d8568e"},"vehicle_type_id":"4","last_reported":1731852431,"current_range_meters":15200,"station_id":"ce4bhq12rcd13ifvqhhg","pricing_plan_id":"cebpf4jnsgd1na2vs0mg"},{"bike_id":"87aa6633-e18d-4415-b516-b2f7079f1e25","system_id":"levelo_inurba_marseille","lat":43.30946,"lon":5.39032,"is_reserved":false,"is_disabled":false,"rental_uris":{"android":"levelo://app?vid=87aa6633-e18d-4415-b516-b2f7079f1e25","ios":"levelo://app?vid=87aa6633-e18d-4415-b516-b2f7079f1e25"},"vehicle_type_id":"4","last_reported":1731852431,"current_range_meters":30000,"station_id":"ce4bgup2rcd13ifvqco0","pricing_plan_id":"cebpf4jnsgd1na2vs0mg"},{"bike_id":"eb9a84f5-6092-4dc4-a3c0-a07efb437c77","system_id":"levelo_inurba_marseille","lat":43.33763,"lon":5.37436,"is_reserved":false,"is_disabled":false,"rental_uris":{"android":"levelo://app?vid=eb9a84f5-6092-4dc4-a3c0-a07efb437c77","ios":"levelo://app?vid=eb9a84f5-6092-4dc4-a3c0-a07efb437c77"},"vehicle_type_id":"4","last_reported":1731852431,"current_range_meters":6400,"station_id":"","pricing_plan_id":"cebpf4jnsgd1na2vs0mg"},{"bike_id":"667ffedb-2531-4f12-8101-313bb4bc8c26","system_id":"levelo_inurba_marseille","lat":43.23964,"lon":5.36632,"is_reserved":false,"is_disabled":false,"rental_uris":{"android":"levelo://app?vid=667ffedb-2531-4f12-8101-313bb4bc8c26","ios":"levelo://app?vid=667ffedb-2531-4f12-8101-313bb4bc8c26"},"vehicle_type_id":"4","last_reported":1731852431,"current_range_meters":9200,"station_id":"ce4bhi12rcd13ifvqfp0","pricing_plan_id":"cebpf4jnsgd1na2vs0mg"},{"bike_id":"22ea48db-755d-43c3-a7d2-0beff01815d8","system_id":"levelo_inurba_marseille","lat":43.33771,"lon":5.37422,"is_reserved":false,"is_disabled":false,"rental_uris":{"android":"levelo://app?vid=22ea48db-755d-43c3-a7d2-0beff01815d8","ios":"levelo://app?vid=22ea48db-755d-43c3-a7d2-0beff01815d8"},"vehicle_type_id":"4","last_reported":1731852431,"current_range_meters":8800,"station_id":"","pricing_plan_id":"cebpf4jnsgd1na2vs0mg"},{"bike_id":"e572c8c8-2c29-468a-9de9-47bf2d2e9b00","system_id":"levelo_inurba_marseille","lat":43.27489,"lon":5.42458,"is_reserved":false,"is_disabled":false,"rental_uris":{"android":"levelo://app?vid=e572c8c8-2c29-468a-9de9-47bf2d2e9b00","ios":"levelo://app?vid=e572c8c8-2c29-468a-9de9-47bf2d2e9b00"},"vehicle_type_id":"4","last_reported":1731852431,"current_range_meters":28400,"station_id":"ce4bhn92rcd13ifvqgrg","pricing_plan_id":"cebpf4jnsgd1na2vs0mg"},{"bike_id":"55f34b64-80a8-49aa-b93f-cbb31c5849b8","system_id":"levelo_inurba_marseille","lat":43.25716,"lon":5.41115,"is_reserved":false,"is_disabled":false,"rental_uris":{"android":"levelo://app?vid=55f34b64-80a8-49aa-b93f-cbb31c5849b8","ios":"levelo://app?vid=55f34b64-80a8-49aa-b93f-cbb31c5849b8"},"vehicle_type_id":"4","last_reported":1731852431,"current_range_meters":38400,"station_id":"ce4bhkp2rcd13ifvqgd0","pricing_plan_id":"cebpf4jnsgd1na2vs0mg"},{"bike_id":"a1862017-f597-4949-a306-4d7c53cc8b86","system_id":"levelo_inurba_marseille","lat":43.2417,"lon":5.364,"is_reserved":false,"is_disabled":false,"rental_uris":{"android":"levelo://app?vid=a1862017-f597-4949-a306-4d7c53cc8b86","ios":"levelo://app?vid=a1862017-f597-4949-a306-4d7c53cc8b86"},"vehicle_type_id":"4","last_reported":1731852431,"current_range_meters":8000,"station_id":"cpo36qri1sfpv3e86is0","pricing_plan_id":"cebpf4jnsgd1na2vs0mg"},{"bike_id":"4479601b-ff99-4b83-a19a-ed57665281b2","system_id":"levelo_inurba_marseille","lat":43.23061,"lon":5.35493,"is_reserved":false,"is_disabled":false,"rental_uris":{"android":"levelo://app?vid=4479601b-ff99-4b83-a19a-ed57665281b2","ios":"levelo://app?vid=4479601b-ff99-4b83-a19a-ed57665281b2"},"vehicle_type_id":"4","last_reported":1731852431,"current_range_meters":8800,"station_id":"cpo3342slgdg3j2ifvpg","pricing_plan_id":"cebpf4jnsgd1na2vs0mg"},{"bike_id":"8a582cad-21a3-4fbd-890d-c79abf010db6","system_id":"levelo_inurba_marseille","lat":43.29002,"lon":5.35611,"is_reserved":false,"is_disabled":false,"rental_uris":{"android":"levelo://app?vid=8a582cad-21a3-4fbd-890d-c79abf010db6","ios":"levelo://app?vid=8a582cad-21a3-4fbd-890d-c79abf010db6"},"vehicle_type_id":"4","last_reported":1731852431,"current_range_meters":8000,"station_id":"ce4bhb92rcd13ifvqen0","pricing_plan_id":"cebpf4jnsgd1na2vs0mg"},{"bike_id":"e0b183ac-ece9-4773-9332-22fb41bebded","system_id":"levelo_inurba_marseille","lat":43.33025,"lon":5.39048,"is_reserved":false,"is_disabled":false,"rental_uris":{"android":"levelo://app?vid=e0b183ac-ece9-4773-9332-22fb41bebded","ios":"levelo://app?vid=e0b183ac-ece9-4773-9332-22fb41bebded"},"vehicle_type_id":"4","last_reported":1731852431,"current_range_meters":9600,"station_id":"ce4bhr92rcd13ifvqhrg","pricing_plan_id":"cebpf4jnsgd1na2vs0mg"},{"bike_id":"ca655f3b-8380-4045-b3f8-8acaa0e83ede","system_id":"levelo_inurba_marseille","lat":43.33739,"lon":5.37423,"is_reserved":false,"is_disabled":false,"rental_uris":{"android":"levelo://app?vid=ca655f3b-8380-4045-b3f8-8acaa0e83ede","ios":"levelo://app?vid=ca655f3b-8380-4045-b3f8-8acaa0e83ede"},"vehicle_type_id":"4","last_reported":1731852431,"current_range_meters":32800,"station_id":"","pricing_plan_id":"cebpf4jnsgd1na2vs0mg"},{"bike_id":"a6b8c285-acc9-4039-9531-1aae39136a33","system_id":"levelo_inurba_marseille","lat":43.312042,"lon":5.367348,"is_reserved":false,"is_disabled":false,"rental_uris":{"android":"levelo://app?vid=a6b8c285-acc9-4039-9531-1aae39136a33","ios":"levelo://app?vid=a6b8c285-acc9-4039-9531-1aae39136a33"},"vehicle_type_id":"4","last_reported":1731852431,"current_range_meters":10000,"station_id":"","pricing_plan_id":"cebpf4jnsgd1na2vs0mg"},{"bike_id":"04e579be-d930-46e5-bb29-40fdc45896e1","system_id":"levelo_inurba_marseille","lat":43.32634,"lon":5.36232,"is_reserved":false,"is_disabled":false,"rental_uris":{"android":"levelo://app?vid=04e579be-d930-46e5-bb29-40fdc45896e1","ios":"levelo://app?vid=04e579be-d930-46e5-bb29-40fdc45896e1"},"vehicle_type_id":"4","last_reported":1731852431,"current_range_meters":6400,"station_id":"","pricing_plan_id":"cebpf4jnsgd1na2vs0mg"},{"bike_id":"37b940f2-53f1-40b3-bcdc-a092eab2c248","system_id":"levelo_inurba_marseille","lat":43.23955,"lon":5.36636,"is_reserved":false,"is_disabled":false,"rental_uris":{"android":"levelo://app?vid=37b940f2-53f1-40b3-bcdc-a092eab2c248","ios":"levelo://app?vid=37b940f2-53f1-40b3-bcdc-a092eab2c248"},"vehicle_type_id":"4","last_reported":1731852431,"current_range_meters":20000,"station_id":"ce4bhi12rcd13ifvqfp0","pricing_plan_id":"cebpf4jnsgd1na2vs0mg"},{"bike_id":"07293e16-7bea-47f1-be25-92e3f7cba6f1","system_id":"levelo_inurba_marseille","lat":43.298922,"lon":5.365425,"is_reserved":false,"is_disabled":false,"rental_uris":{"android":"levelo://app?vid=07293e16-7bea-47f1-be25-92e3f7cba6f1","ios":"levelo://app?vid=07293e16-7bea-47f1-be25-92e3f7cba6f1"},"vehicle_type_id":"4","last_reported":1731852431,"current_range_meters":36400,"station_id":"ce4bgm92rcd13ifvqbr0","pricing_plan_id":"cebpf4jnsgd1na2vs0mg"},{"bike_id":"9226ec60-794a-4492-b08d-57bf7324af40","system_id":"levelo_inurba_marseille","lat":43.26556,"lon":5.37288,"is_reserved":false,"is_disabled":false,"rental_uris":{"android":"levelo://app?vid=9226ec60-794a-4492-b08d-57bf7324af40","ios":"levelo://app?vid=9226ec60-794a-4492-b08d-57bf7324af40"},"vehicle_type_id":"4","last_reported":1731852431,"current_range_meters":36800,"station_id":"ce4bhg12rcd13ifvqf70","pricing_plan_id":"cebpf4jnsgd1na2vs0mg"},{"bike_id":"776c19bb-9271-4d1b-b450-71b28ade05f5","system_id":"levelo_inurba_marseille","lat":43.23192,"lon":5.35558,"is_reserved":false,"is_disabled":false,"rental_uris":{"android":"levelo://app?vid=776c19bb-9271-4d1b-b450-71b28ade05f5","ios":"levelo://app?vid=776c19bb-9271-4d1b-b450-71b28ade05f5"},"vehicle_type_id":"4","last_reported":1731852431,"current_range_meters":36000,"station_id":"ce4bhu92rcd13ifvqi70","pricing_plan_id":"cebpf4jnsgd1na2vs0mg"},{"bike_id":"3731846e-2218-45f1-ac96-76a41185ff9d","system_id":"levelo_inurba_marseille","lat":43.24167,"lon":5.36396,"is_reserved":false,"is_disabled":false,"rental_uris":{"android":"levelo://app?vid=3731846e-2218-45f1-ac96-76a41185ff9d","ios":"levelo://app?vid=3731846e-2218-45f1-ac96-76a41185ff9d"},"vehicle_type_id":"4","last_reported":1731852431,"current_range_meters":36800,"station_id":"cpo36qri1sfpv3e86is0","pricing_plan_id":"cebpf4jnsgd1na2vs0mg"},{"bike_id":"92ac4858-87d6-4ceb-8f6e-004635a816a8","system_id":"levelo_inurba_marseille","lat":43.27787,"lon":5.40739,"is_reserved":false,"is_disabled":false,"rental_uris":{"android":"levelo://app?vid=92ac4858-87d6-4ceb-8f6e-004635a816a8","ios":"levelo://app?vid=92ac4858-87d6-4ceb-8f6e-004635a816a8"},"vehicle_type_id":"4","last_reported":1731852431,"current_range_meters":27200,"station_id":"ce4bhnh2rcd13ifvqgtg","pricing_plan_id":"cebpf4jnsgd1na2vs0mg"},{"bike_id":"6fec559a-2b3b-4f1a-9c20-1a2347d89940","system_id":"levelo_inurba_marseille","lat":43.2875,"lon":5.4331,"is_reserved":false,"is_disabled":false,"rental_uris":{"android":"levelo://app?vid=6fec559a-2b3b-4f1a-9c20-1a2347d89940","ios":"levelo://app?vid=6fec559a-2b3b-4f1a-9c20-1a2347d89940"},"vehicle_type_id":"4","last_reported":1731852431,"current_range_meters":6400,"station_id":"","pricing_plan_id":"cebpf4jnsgd1na2vs0mg"},{"bike_id":"1396ab55-0e44-4ee6-a17e-86cf36813da1","system_id":"levelo_inurba_marseille","lat":43.24178,"lon":5.39735,"is_reserved":false,"is_disabled":false,"rental_uris":{"android":"levelo://app?vid=1396ab55-0e44-4ee6-a17e-86cf36813da1","ios":"levelo://app?vid=1396ab55-0e44-4ee6-a17e-86cf36813da1"},"vehicle_type_id":"4","last_reported":1731852431,"current_range_meters":28000,"station_id":"ce4bhn12rcd13ifvqgpg","pricing_plan_id":"cebpf4jnsgd1na2vs0mg"},{"bike_id":"2412fd48-7071-4437-8fb4-820ded7fd014","system_id":"levelo_inurba_marseille","lat":43.22929,"lon":5.35374,"is_reserved":false,"is_disabled":false,"rental_uris":{"android":"levelo://app?vid=2412fd48-7071-4437-8fb4-820ded7fd014","ios":"levelo://app?vid=2412fd48-7071-4437-8fb4-820ded7fd014"},"vehicle_type_id":"4","last_reported":1731852431,"current_range_meters":17600,"station_id":"cpo3532slgdg3j2ikp40","pricing_plan_id":"cebpf4jnsgd1na2vs0mg"},{"bike_id":"58b880ee-ba7b-4c7c-a799-0696aaf6e3d9","system_id":"levelo_inurba_marseille","lat":43.23967,"lon":5.3663,"is_reserved":false,"is_disabled":false,"rental_uris":{"android":"levelo://app?vid=58b880ee-ba7b-4c7c-a799-0696aaf6e3d9","ios":"levelo://app?vid=58b880ee-ba7b-4c7c-a799-0696aaf6e3d9"},"vehicle_type_id":"4","last_reported":1731852431,"current_range_meters":32400,"station_id":"ce4bhi12rcd13ifvqfp0","pricing_plan_id":"cebpf4jnsgd1na2vs0mg"},{"bike_id":"a84f5389-258d-4508-9c0f-32ee5d326b43","system_id":"levelo_inurba_marseille","lat":43.33767,"lon":5.37475,"is_reserved":false,"is_disabled":false,"rental_uris":{"android":"levelo://app?vid=a84f5389-258d-4508-9c0f-32ee5d326b43","ios":"levelo://app?vid=a84f5389-258d-4508-9c0f-32ee5d326b43"},"vehicle_type_id":"4","last_reported":1731852431,"current_range_meters":29600,"station_id":"","pricing_plan_id":"cebpf4jnsgd1na2vs0mg"},{"bike_id":"05a16c68-07e5-4606-8533-a552c7a9a771","system_id":"levelo_inurba_marseille","lat":43.2826,"lon":5.35069,"is_reserved":false,"is_disabled":false,"rental_uris":{"android":"levelo://app?vid=05a16c68-07e5-4606-8533-a552c7a9a771","ios":"levelo://app?vid=05a16c68-07e5-4606-8533-a552c7a9a771"},"vehicle_type_id":"4","last_reported":1731852431,"current_range_meters":14800,"station_id":"ce4bhbp2rcd13ifvqerg","pricing_plan_id":"cebpf4jnsgd1na2vs0mg"},{"bike_id":"ed8cfcce-fcd3-4866-b7bb-3032e5fedbfd","system_id":"levelo_inurba_marseille","lat":43.32349,"lon":5.40626,"is_reserved":false,"is_disabled":false,"rental_uris":{"android":"levelo://app?vid=ed8cfcce-fcd3-4866-b7bb-3032e5fedbfd","ios":"levelo://app?vid=ed8cfcce-fcd3-4866-b7bb-3032e5fedbfd"},"vehicle_type_id":"4","last_reported":1731852431,"current_range_meters":27200,"station_id":"ce4bhq92rcd13ifvqhjg","pricing_plan_id":"cebpf4jnsgd1na2vs0mg"},{"bike_id":"f07e6b85-0ade-472e-a37e-e62e5189b0d2","system_id":"levelo_inurba_marseille","lat":43.25576,"lon":5.38241,"is_reserved":false,"is_disabled":false,"rental_uris":{"android":"levelo://app?vid=f07e6b85-0ade-472e-a37e-e62e5189b0d2","ios":"levelo://app?vid=f07e6b85-0ade-472e-a37e-e62e5189b0d2"},"vehicle_type_id":"4","last_reported":1731852431,"current_range_meters":23200,"station_id":"ce4bhih2rcd13ifvqfs0","pricing_plan_id":"cebpf4jnsgd1na2vs0mg"},{"bike_id":"fd1d8b84-8086-4963-8d32-479282152e76","system_id":"levelo_inurba_marseille","lat":43.25086,"lon":5.39525,"is_reserved":false,"is_disabled":false,"rental_uris":{"android":"levelo://app?vid=fd1d8b84-8086-4963-8d32-479282152e76","ios":"levelo://app?vid=fd1d8b84-8086-4963-8d32-479282152e76"},"vehicle_type_id":"4","last_reported":1731852431,"current_range_meters":6400,"station_id":"ce4bhm12rcd13ifvqgkg","pricing_plan_id":"cebpf4jnsgd1na2vs0mg"},{"bike_id":"d6ea0d18-09c5-4a16-8d92-16497ecc1e85","system_id":"levelo_inurba_marseille","lat":43.27495,"lon":5.42452,"is_reserved":false,"is_disabled":false,"rental_uris":{"android":"levelo://app?vid=d6ea0d18-09c5-4a16-8d92-16497ecc1e85","ios":"levelo://app?vid=d6ea0d18-09c5-4a16-8d92-16497ecc1e85"},"vehicle_type_id":"4","last_reported":1731852431,"current_range_meters":9200,"station_id":"ce4bhn92rcd13ifvqgrg","pricing_plan_id":"cebpf4jnsgd1na2vs0mg"},{"bike_id":"50237c26-ee51-4d66-9731-4ff121963b5a","system_id":"levelo_inurba_marseille","lat":43.32487,"lon":5.36577,"is_reserved":false,"is_disabled":false,"rental_uris":{"android":"levelo://app?vid=50237c26-ee51-4d66-9731-4ff121963b5a","ios":"levelo://app?vid=50237c26-ee51-4d66-9731-4ff121963b5a"},"vehicle_type_id":"4","last_reported":1731852431,"current_range_meters":24800,"station_id":"ce4bhs12rcd13ifvqhvg","pricing_plan_id":"cebpf4jnsgd1na2vs0mg"},{"bike_id":"a81486a9-a8e3-4172-88b2-bc2ea0695b63","system_id":"levelo_inurba_marseille","lat":43.28153,"lon":5.42645,"is_reserved":false,"is_disabled":false,"rental_uris":{"android":"levelo://app?vid=a81486a9-a8e3-4172-88b2-bc2ea0695b63","ios":"levelo://app?vid=a81486a9-a8e3-4172-88b2-bc2ea0695b63"},"vehicle_type_id":"4","last_reported":1731852431,"current_range_meters":11600,"station_id":"ce4bhnh2rcd13ifvqgug","pricing_plan_id":"cebpf4jnsgd1na2vs0mg"},{"bike_id":"4c893280-d9aa-4a10-acac-46930aeeb70f","system_id":"levelo_inurba_marseille","lat":43.24536,"lon":5.39521,"is_reserved":false,"is_disabled":false,"rental_uris":{"android":"levelo://app?vid=4c893280-d9aa-4a10-acac-46930aeeb70f","ios":"levelo://app?vid=4c893280-d9aa-4a10-acac-46930aeeb70f"},"vehicle_type_id":"4","last_reported":1731852431,"current_range_meters":28000,"station_id":"ce4bhlp2rcd13ifvqgjg","pricing_plan_id":"cebpf4jnsgd1na2vs0mg"},{"bike_id":"fca868f5-9fd0-45d8-90bd-4e6ce3d8eb68","system_id":"levelo_inurba_marseille","lat":43.23197,"lon":5.39982,"is_reserved":false,"is_disabled":false,"rental_uris":{"android":"levelo://app?vid=fca868f5-9fd0-45d8-90bd-4e6ce3d8eb68","ios":"levelo://app?vid=fca868f5-9fd0-45d8-90bd-4e6ce3d8eb68"},"vehicle_type_id":"4","last_reported":1731852431,"current_range_meters":16400,"station_id":"ce4bhn12rcd13ifvqgqg","pricing_plan_id":"cebpf4jnsgd1na2vs0mg"},{"bike_id":"1a798dd8-9454-4147-ba24-8f70d472f8c7","system_id":"levelo_inurba_marseille","lat":43.30324,"lon":5.40432,"is_reserved":false,"is_disabled":false,"rental_uris":{"android":"levelo://app?vid=1a798dd8-9454-4147-ba24-8f70d472f8c7","ios":"levelo://app?vid=1a798dd8-9454-4147-ba24-8f70d472f8c7"},"vehicle_type_id":"4","last_reported":1731852431,"current_range_meters":38800,"station_id":"ce4bh012rcd13ifvqd10","pricing_plan_id":"cebpf4jnsgd1na2vs0mg"},{"bike_id":"4ee4605c-22f2-4532-b44d-f5fb03fd5142","system_id":"levelo_inurba_marseille","lat":43.30804,"lon":5.43523,"is_reserved":false,"is_disabled":false,"rental_uris":{"android":"levelo://app?vid=4ee4605c-22f2-4532-b44d-f5fb03fd5142","ios":"levelo://app?vid=4ee4605c-22f2-4532-b44d-f5fb03fd5142"},"vehicle_type_id":"4","last_reported":1731852431,"current_range_meters":8400,"station_id":"ce4bhph2rcd13ifvqheg","pricing_plan_id":"cebpf4jnsgd1na2vs0mg"},{"bike_id":"67186d94-9191-42d5-b2b7-a3dcd9c90068","system_id":"levelo_inurba_marseille","lat":43.29006,"lon":5.35615,"is_reserved":false,"is_disabled":false,"rental_uris":{"android":"levelo://app?vid=67186d94-9191-42d5-b2b7-a3dcd9c90068","ios":"levelo://app?vid=67186d94-9191-42d5-b2b7-a3dcd9c90068"},"vehicle_type_id":"4","last_reported":1731852431,"current_range_meters":7200,"station_id":"ce4bhb92rcd13ifvqen0","pricing_plan_id":"cebpf4jnsgd1na2vs0mg"},{"bike_id":"87c6772f-5c88-4d20-99e7-0fab985857cc","system_id":"levelo_inurba_marseille","lat":43.28153,"lon":5.4265,"is_reserved":false,"is_disabled":false,"rental_uris":{"android":"levelo://app?vid=87c6772f-5c88-4d20-99e7-0fab985857cc","ios":"levelo://app?vid=87c6772f-5c88-4d20-99e7-0fab985857cc"},"vehicle_type_id":"4","last_reported":1731852431,"current_range_meters":20000,"station_id":"ce4bhnh2rcd13ifvqgug","pricing_plan_id":"cebpf4jnsgd1na2vs0mg"},{"bike_id":"b086eb62-64ab-450c-9aee-ca3b06626853","system_id":"levelo_inurba_marseille","lat":43.33714,"lon":5.39209,"is_reserved":false,"is_disabled":false,"rental_uris":{"android":"levelo://app?vid=b086eb62-64ab-450c-9aee-ca3b06626853","ios":"levelo://app?vid=b086eb62-64ab-450c-9aee-ca3b06626853"},"vehicle_type_id":"4","last_reported":1731852431,"current_range_meters":30400,"station_id":"ce4bhr92rcd13ifvqhsg","pricing_plan_id":"cebpf4jnsgd1na2vs0mg"},{"bike_id":"91f1c44f-3790-4ba5-8d3d-4b0e6663ab00","system_id":"levelo_inurba_marseille","lat":43.33616,"lon":5.41038,"is_reserved":false,"is_disabled":false,"rental_uris":{"android":"levelo://app?vid=91f1c44f-3790-4ba5-8d3d-4b0e6663ab00","ios":"levelo://app?vid=91f1c44f-3790-4ba5-8d3d-4b0e6663ab00"},"vehicle_type_id":"4","last_reported":1731852431,"current_range_meters":30800,"station_id":"ce4bhqh2rcd13ifvqhmg","pricing_plan_id":"cebpf4jnsgd1na2vs0mg"},{"bike_id":"1e730ee4-2d8d-4021-979d-8e8d2bbc3bcb","system_id":"levelo_inurba_marseille","lat":43.27067,"lon":5.42279,"is_reserved":false,"is_disabled":false,"rental_uris":{"android":"levelo://app?vid=1e730ee4-2d8d-4021-979d-8e8d2bbc3bcb","ios":"levelo://app?vid=1e730ee4-2d8d-4021-979d-8e8d2bbc3bcb"},"vehicle_type_id":"4","last_reported":1731852431,"current_range_meters":15200,"station_id":"ce4bhk92rcd13ifvqgb0","pricing_plan_id":"cebpf4jnsgd1na2vs0mg"},{"bike_id":"022f478e-da93-4eda-9d1b-2d0e36905c07","system_id":"levelo_inurba_marseille","lat":43.33761,"lon":5.37442,"is_reserved":false,"is_disabled":false,"rental_uris":{"android":"levelo://app?vid=022f478e-da93-4eda-9d1b-2d0e36905c07","ios":"levelo://app?vid=022f478e-da93-4eda-9d1b-2d0e36905c07"},"vehicle_type_id":"4","last_reported":1731852431,"current_range_meters":11200,"station_id":"","pricing_plan_id":"cebpf4jnsgd1na2vs0mg"},{"bike_id":"3c7108fb-85fe-43b6-95ce-e6a5e6d34b1a","system_id":"levelo_inurba_marseille","lat":43.337251,"lon":5.391828,"is_reserved":false,"is_disabled":false,"rental_uris":{"android":"levelo://app?vid=3c7108fb-85fe-43b6-95ce-e6a5e6d34b1a","ios":"levelo://app?vid=3c7108fb-85fe-43b6-95ce-e6a5e6d34b1a"},"vehicle_type_id":"4","last_reported":1731852431,"current_range_meters":28000,"station_id":"ce4bhr92rcd13ifvqhsg","pricing_plan_id":"cebpf4jnsgd1na2vs0mg"},{"bike_id":"965eb00d-fd62-4853-8531-3d42fa134458","system_id":"levelo_inurba_marseille","lat":43.26208,"lon":5.37441,"is_reserved":false,"is_disabled":false,"rental_uris":{"android":"levelo://app?vid=965eb00d-fd62-4853-8531-3d42fa134458","ios":"levelo://app?vid=965eb00d-fd62-4853-8531-3d42fa134458"},"vehicle_type_id":"4","last_reported":1731852431,"current_range_meters":8400,"station_id":"ce4bhgp2rcd13ifvqfc0","pricing_plan_id":"cebpf4jnsgd1na2vs0mg"},{"bike_id":"7a8c5163-8fee-4119-8448-7813eb0d8f69","system_id":"levelo_inurba_marseille","lat":43.25086,"lon":5.39524,"is_reserved":false,"is_disabled":false,"rental_uris":{"android":"levelo://app?vid=7a8c5163-8fee-4119-8448-7813eb0d8f69","ios":"levelo://app?vid=7a8c5163-8fee-4119-8448-7813eb0d8f69"},"vehicle_type_id":"4","last_reported":1731852431,"current_range_meters":14400,"station_id":"ce4bhm12rcd13ifvqgkg","pricing_plan_id":"cebpf4jnsgd1na2vs0mg"},{"bike_id":"bb83ca96-b8e6-4d38-8da0-61243a06413f","system_id":"levelo_inurba_marseille","lat":43.23199,"lon":5.35551,"is_reserved":false,"is_disabled":false,"rental_uris":{"android":"levelo://app?vid=bb83ca96-b8e6-4d38-8da0-61243a06413f","ios":"levelo://app?vid=bb83ca96-b8e6-4d38-8da0-61243a06413f"},"vehicle_type_id":"4","last_reported":1731852431,"current_range_meters":30000,"station_id":"ce4bhu92rcd13ifvqi70","pricing_plan_id":"cebpf4jnsgd1na2vs0mg"},{"bike_id":"20299a21-26fa-4390-a958-99e7709b0ab0","system_id":"levelo_inurba_marseille","lat":43.284541,"lon":5.384402,"is_reserved":false,"is_disabled":false,"rental_uris":{"android":"levelo://app?vid=20299a21-26fa-4390-a958-99e7709b0ab0","ios":"levelo://app?vid=20299a21-26fa-4390-a958-99e7709b0ab0"},"vehicle_type_id":"4","last_reported":1731852431,"current_range_meters":26000,"station_id":"ce4bh512rcd13ifvqe3g","pricing_plan_id":"cebpf4jnsgd1na2vs0mg"},{"bike_id":"d4fd28e6-9b80-4456-a0cb-cb8700e8f847","system_id":"levelo_inurba_marseille","lat":43.304626,"lon":5.408054,"is_reserved":false,"is_disabled":false,"rental_uris":{"android":"levelo://app?vid=d4fd28e6-9b80-4456-a0cb-cb8700e8f847","ios":"levelo://app?vid=d4fd28e6-9b80-4456-a0cb-cb8700e8f847"},"vehicle_type_id":"4","last_reported":1731852431,"current_range_meters":24000,"station_id":"ce4bgkh2rcd13ifvqbl0","pricing_plan_id":"cebpf4jnsgd1na2vs0mg"},{"bike_id":"958ea377-08cc-4d36-8aa1-6c0102764bc2","system_id":"levelo_inurba_marseille","lat":43.28616,"lon":5.35108,"is_reserved":false,"is_disabled":false,"rental_uris":{"android":"levelo://app?vid=958ea377-08cc-4d36-8aa1-6c0102764bc2","ios":"levelo://app?vid=958ea377-08cc-4d36-8aa1-6c0102764bc2"},"vehicle_type_id":"4","last_reported":1731852431,"current_range_meters":18800,"station_id":"ce4bhch2rcd13ifvqeug","pricing_plan_id":"cebpf4jnsgd1na2vs0mg"},{"bike_id":"442c0903-f40e-4bdf-be0d-6587cc076f59","system_id":"levelo_inurba_marseille","lat":43.23191,"lon":5.3555,"is_reserved":false,"is_disabled":false,"rental_uris":{"android":"levelo://app?vid=442c0903-f40e-4bdf-be0d-6587cc076f59","ios":"levelo://app?vid=442c0903-f40e-4bdf-be0d-6587cc076f59"},"vehicle_type_id":"4","last_reported":1731852431,"current_range_meters":36000,"station_id":"ce4bhu92rcd13ifvqi70","pricing_plan_id":"cebpf4jnsgd1na2vs0mg"},{"bike_id":"2c80e31d-2bb8-41ae-ba44-3e7368b895f5","system_id":"levelo_inurba_marseille","lat":43.28406,"lon":5.34996,"is_reserved":false,"is_disabled":false,"rental_uris":{"android":"levelo://app?vid=2c80e31d-2bb8-41ae-ba44-3e7368b895f5","ios":"levelo://app?vid=2c80e31d-2bb8-41ae-ba44-3e7368b895f5"},"vehicle_type_id":"4","last_reported":1731852431,"current_range_meters":28400,"station_id":"ce4bhbh2rcd13ifvqepg","pricing_plan_id":"cebpf4jnsgd1na2vs0mg"},{"bike_id":"6f41e29d-e5ff-4fae-a8b9-a92ee0653a32","system_id":"levelo_inurba_marseille","lat":43.28418,"lon":5.34977,"is_reserved":false,"is_disabled":false,"rental_uris":{"android":"levelo://app?vid=6f41e29d-e5ff-4fae-a8b9-a92ee0653a32","ios":"levelo://app?vid=6f41e29d-e5ff-4fae-a8b9-a92ee0653a32"},"vehicle_type_id":"4","last_reported":1731852431,"current_range_meters":11600,"station_id":"ce4bhbh2rcd13ifvqepg","pricing_plan_id":"cebpf4jnsgd1na2vs0mg"},{"bike_id":"09f437b1-93f6-44ee-a17d-bac073b5aa1a","system_id":"levelo_inurba_marseille","lat":43.23963,"lon":5.36633,"is_reserved":false,"is_disabled":false,"rental_uris":{"android":"levelo://app?vid=09f437b1-93f6-44ee-a17d-bac073b5aa1a","ios":"levelo://app?vid=09f437b1-93f6-44ee-a17d-bac073b5aa1a"},"vehicle_type_id":"4","last_reported":1731852431,"current_range_meters":39200,"station_id":"ce4bhi12rcd13ifvqfp0","pricing_plan_id":"cebpf4jnsgd1na2vs0mg"},{"bike_id":"90bb2cae-4339-46de-973d-1d239b082c40","system_id":"levelo_inurba_marseille","lat":43.23193,"lon":5.39989,"is_reserved":false,"is_disabled":false,"rental_uris":{"android":"levelo://app?vid=90bb2cae-4339-46de-973d-1d239b082c40","ios":"levelo://app?vid=90bb2cae-4339-46de-973d-1d239b082c40"},"vehicle_type_id":"4","last_reported":1731852431,"current_range_meters":18800,"station_id":"ce4bhn12rcd13ifvqgqg","pricing_plan_id":"cebpf4jnsgd1na2vs0mg"},{"bike_id":"fc5fa049-482e-4f0d-965d-53475b36d6c0","system_id":"levelo_inurba_marseille","lat":43.285706,"lon":5.394974,"is_reserved":false,"is_disabled":false,"rental_uris":{"android":"levelo://app?vid=fc5fa049-482e-4f0d-965d-53475b36d6c0","ios":"levelo://app?vid=fc5fa049-482e-4f0d-965d-53475b36d6c0"},"vehicle_type_id":"4","last_reported":1731852431,"current_range_meters":27200,"station_id":"ce4bhgp2rcd13ifvqfd0","pricing_plan_id":"cebpf4jnsgd1na2vs0mg"},{"bike_id":"d37453dc-579c-4f2c-8202-d745f1e705a8","system_id":"levelo_inurba_marseille","lat":43.25937,"lon":5.40907,"is_reserved":false,"is_disabled":false,"rental_uris":{"android":"levelo://app?vid=d37453dc-579c-4f2c-8202-d745f1e705a8","ios":"levelo://app?vid=d37453dc-579c-4f2c-8202-d745f1e705a8"},"vehicle_type_id":"4","last_reported":1731852431,"current_range_meters":8800,"station_id":"ce4bhm92rcd13ifvqglg","pricing_plan_id":"cebpf4jnsgd1na2vs0mg"},{"bike_id":"f99b8f87-b1c6-4ef1-828d-d82783f73fde","system_id":"levelo_inurba_marseille","lat":43.27491,"lon":5.42464,"is_reserved":false,"is_disabled":false,"rental_uris":{"android":"levelo://app?vid=f99b8f87-b1c6-4ef1-828d-d82783f73fde","ios":"levelo://app?vid=f99b8f87-b1c6-4ef1-828d-d82783f73fde"},"vehicle_type_id":"4","last_reported":1731852431,"current_range_meters":32800,"station_id":"ce4bhn92rcd13ifvqgrg","pricing_plan_id":"cebpf4jnsgd1na2vs0mg"},{"bike_id":"2fc8f02c-e5f3-4e56-9038-45f0a5217743","system_id":"levelo_inurba_marseille","lat":43.27075,"lon":5.42273,"is_reserved":false,"is_disabled":false,"rental_uris":{"android":"levelo://app?vid=2fc8f02c-e5f3-4e56-9038-45f0a5217743","ios":"levelo://app?vid=2fc8f02c-e5f3-4e56-9038-45f0a5217743"},"vehicle_type_id":"4","last_reported":1731852431,"current_range_meters":8400,"station_id":"ce4bhk92rcd13ifvqgb0","pricing_plan_id":"cebpf4jnsgd1na2vs0mg"},{"bike_id":"8ca14fad-3429-41cb-b5ce-543921a167af","system_id":"levelo_inurba_marseille","lat":43.23193,"lon":5.39988,"is_reserved":false,"is_disabled":false,"rental_uris":{"android":"levelo://app?vid=8ca14fad-3429-41cb-b5ce-543921a167af","ios":"levelo://app?vid=8ca14fad-3429-41cb-b5ce-543921a167af"},"vehicle_type_id":"4","last_reported":1731852431,"current_range_meters":15200,"station_id":"ce4bhn12rcd13ifvqgqg","pricing_plan_id":"cebpf4jnsgd1na2vs0mg"},{"bike_id":"62012020-0bdb-4e2e-9987-a6dd714f8796","system_id":"levelo_inurba_marseille","lat":43.22928,"lon":5.35373,"is_reserved":false,"is_disabled":false,"rental_uris":{"android":"levelo://app?vid=62012020-0bdb-4e2e-9987-a6dd714f8796","ios":"levelo://app?vid=62012020-0bdb-4e2e-9987-a6dd714f8796"},"vehicle_type_id":"4","last_reported":1731852431,"current_range_meters":24400,"station_id":"cpo3532slgdg3j2ikp40","pricing_plan_id":"cebpf4jnsgd1na2vs0mg"},{"bike_id":"fce6f313-6c5d-4f24-bd79-938a228991fb","system_id":"levelo_inurba_marseille","lat":43.241797,"lon":5.397242,"is_reserved":false,"is_disabled":false,"rental_uris":{"android":"levelo://app?vid=fce6f313-6c5d-4f24-bd79-938a228991fb","ios":"levelo://app?vid=fce6f313-6c5d-4f24-bd79-938a228991fb"},"vehicle_type_id":"4","last_reported":1731852431,"current_range_meters":4000,"station_id":"ce4bhn12rcd13ifvqgpg","pricing_plan_id":"cebpf4jnsgd1na2vs0mg"},{"bike_id":"ed6d2b82-1a02-4216-bc9d-71b7d54eea85","system_id":"levelo_inurba_marseille","lat":43.2396,"lon":5.36627,"is_reserved":false,"is_disabled":false,"rental_uris":{"android":"levelo://app?vid=ed6d2b82-1a02-4216-bc9d-71b7d54eea85","ios":"levelo://app?vid=ed6d2b82-1a02-4216-bc9d-71b7d54eea85"},"vehicle_type_id":"4","last_reported":1731852431,"current_range_meters":27600,"station_id":"ce4bhi12rcd13ifvqfp0","pricing_plan_id":"cebpf4jnsgd1na2vs0mg"},{"bike_id":"7b76f7eb-5990-4745-bfda-68fbe5b47b7f","system_id":"levelo_inurba_marseille","lat":43.24175,"lon":5.3973,"is_reserved":false,"is_disabled":false,"rental_uris":{"android":"levelo://app?vid=7b76f7eb-5990-4745-bfda-68fbe5b47b7f","ios":"levelo://app?vid=7b76f7eb-5990-4745-bfda-68fbe5b47b7f"},"vehicle_type_id":"4","last_reported":1731852431,"current_range_meters":12400,"station_id":"ce4bhn12rcd13ifvqgpg","pricing_plan_id":"cebpf4jnsgd1na2vs0mg"},{"bike_id":"63cfe210-b1b7-4369-81a4-d305c4e3ae51","system_id":"levelo_inurba_marseille","lat":43.23173,"lon":5.39993,"is_reserved":false,"is_disabled":false,"rental_uris":{"android":"levelo://app?vid=63cfe210-b1b7-4369-81a4-d305c4e3ae51","ios":"levelo://app?vid=63cfe210-b1b7-4369-81a4-d305c4e3ae51"},"vehicle_type_id":"4","last_reported":1731852431,"current_range_meters":33200,"station_id":"ce4bhn12rcd13ifvqgqg","pricing_plan_id":"cebpf4jnsgd1na2vs0mg"},{"bike_id":"cfec76eb-2812-4a14-b0bb-1398c6867ce3","system_id":"levelo_inurba_marseille","lat":43.28414,"lon":5.34983,"is_reserved":false,"is_disabled":false,"rental_uris":{"android":"levelo://app?vid=cfec76eb-2812-4a14-b0bb-1398c6867ce3","ios":"levelo://app?vid=cfec76eb-2812-4a14-b0bb-1398c6867ce3"},"vehicle_type_id":"4","last_reported":1731852431,"current_range_meters":14400,"station_id":"ce4bhbh2rcd13ifvqepg","pricing_plan_id":"cebpf4jnsgd1na2vs0mg"},{"bike_id":"a91f23f7-f251-46d3-97a2-effb836fb255","system_id":"levelo_inurba_marseille","lat":43.24165,"lon":5.36395,"is_reserved":false,"is_disabled":false,"rental_uris":{"android":"levelo://app?vid=a91f23f7-f251-46d3-97a2-effb836fb255","ios":"levelo://app?vid=a91f23f7-f251-46d3-97a2-effb836fb255"},"vehicle_type_id":"4","last_reported":1731852431,"current_range_meters":16000,"station_id":"cpo36qri1sfpv3e86is0","pricing_plan_id":"cebpf4jnsgd1na2vs0mg"},{"bike_id":"952ede7a-2ff9-4a9b-9bbc-456dc8df9c18","system_id":"levelo_inurba_marseille","lat":43.32538,"lon":5.41423,"is_reserved":false,"is_disabled":false,"rental_uris":{"android":"levelo://app?vid=952ede7a-2ff9-4a9b-9bbc-456dc8df9c18","ios":"levelo://app?vid=952ede7a-2ff9-4a9b-9bbc-456dc8df9c18"},"vehicle_type_id":"4","last_reported":1731852431,"current_range_meters":23200,"station_id":"ce4bhq12rcd13ifvqhhg","pricing_plan_id":"cebpf4jnsgd1na2vs0mg"},{"bike_id":"3e0559a2-ab28-4130-8c3b-ed8e9d0ac1df","system_id":"levelo_inurba_marseille","lat":43.23151,"lon":5.43717,"is_reserved":false,"is_disabled":false,"rental_uris":{"android":"levelo://app?vid=3e0559a2-ab28-4130-8c3b-ed8e9d0ac1df","ios":"levelo://app?vid=3e0559a2-ab28-4130-8c3b-ed8e9d0ac1df"},"vehicle_type_id":"4","last_reported":1731852431,"current_range_meters":16000,"station_id":"ce4bhmp2rcd13ifvqgog","pricing_plan_id":"cebpf4jnsgd1na2vs0mg"},{"bike_id":"ac49c00c-894e-4c5e-9b7e-d34152f34072","system_id":"levelo_inurba_marseille","lat":43.29267,"lon":5.38433,"is_reserved":false,"is_disabled":false,"rental_uris":{"android":"levelo://app?vid=ac49c00c-894e-4c5e-9b7e-d34152f34072","ios":"levelo://app?vid=ac49c00c-894e-4c5e-9b7e-d34152f34072"},"vehicle_type_id":"4","last_reported":1731852431,"current_range_meters":4800,"station_id":"ce4bh692rcd13ifvqea0","pricing_plan_id":"cebpf4jnsgd1na2vs0mg"},{"bike_id":"fa4639a1-63b5-4626-a5c2-1622b8abab6b","system_id":"levelo_inurba_marseille","lat":43.23055,"lon":5.35494,"is_reserved":false,"is_disabled":false,"rental_uris":{"android":"levelo://app?vid=fa4639a1-63b5-4626-a5c2-1622b8abab6b","ios":"levelo://app?vid=fa4639a1-63b5-4626-a5c2-1622b8abab6b"},"vehicle_type_id":"4","last_reported":1731852431,"current_range_meters":16800,"station_id":"cpo3342slgdg3j2ifvpg","pricing_plan_id":"cebpf4jnsgd1na2vs0mg"},{"bike_id":"0d84feb5-1b95-49ab-bf91-c474041a34ca","system_id":"levelo_inurba_marseille","lat":43.33025,"lon":5.39034,"is_reserved":false,"is_disabled":false,"rental_uris":{"android":"levelo://app?vid=0d84feb5-1b95-49ab-bf91-c474041a34ca","ios":"levelo://app?vid=0d84feb5-1b95-49ab-bf91-c474041a34ca"},"vehicle_type_id":"4","last_reported":1731852431,"current_range_meters":24800,"station_id":"ce4bhr92rcd13ifvqhrg","pricing_plan_id":"cebpf4jnsgd1na2vs0mg"},{"bike_id":"211e51e8-dbf7-4d22-b6f1-8020f0c8fa6e","system_id":"levelo_inurba_marseille","lat":43.24174,"lon":5.36403,"is_reserved":false,"is_disabled":false,"rental_uris":{"android":"levelo://app?vid=211e51e8-dbf7-4d22-b6f1-8020f0c8fa6e","ios":"levelo://app?vid=211e51e8-dbf7-4d22-b6f1-8020f0c8fa6e"},"vehicle_type_id":"4","last_reported":1731852431,"current_range_meters":20000,"station_id":"cpo36qri1sfpv3e86is0","pricing_plan_id":"cebpf4jnsgd1na2vs0mg"},{"bike_id":"2c4b5a09-dd7f-4420-b68d-4c2ff772003c","system_id":"levelo_inurba_marseille","lat":43.28615,"lon":5.35105,"is_reserved":false,"is_disabled":false,"rental_uris":{"android":"levelo://app?vid=2c4b5a09-dd7f-4420-b68d-4c2ff772003c","ios":"levelo://app?vid=2c4b5a09-dd7f-4420-b68d-4c2ff772003c"},"vehicle_type_id":"4","last_reported":1731852431,"current_range_meters":35200,"station_id":"ce4bhch2rcd13ifvqeug","pricing_plan_id":"cebpf4jnsgd1na2vs0mg"},{"bike_id":"14b0dd5d-fb7f-4337-812d-2efd5b171e81","system_id":"levelo_inurba_marseille","lat":43.23055,"lon":5.355,"is_reserved":false,"is_disabled":false,"rental_uris":{"android":"levelo://app?vid=14b0dd5d-fb7f-4337-812d-2efd5b171e81","ios":"levelo://app?vid=14b0dd5d-fb7f-4337-812d-2efd5b171e81"},"vehicle_type_id":"4","last_reported":1731852431,"current_range_meters":37600,"station_id":"cpo3342slgdg3j2ifvpg","pricing_plan_id":"cebpf4jnsgd1na2vs0mg"},{"bike_id":"01278896-bcc3-4115-9488-dd4acb3e5847","system_id":"levelo_inurba_marseille","lat":43.23196,"lon":5.35549,"is_reserved":false,"is_disabled":false,"rental_uris":{"android":"levelo://app?vid=01278896-bcc3-4115-9488-dd4acb3e5847","ios":"levelo://app?vid=01278896-bcc3-4115-9488-dd4acb3e5847"},"vehicle_type_id":"4","last_reported":1731852431,"current_range_meters":39200,"station_id":"ce4bhu92rcd13ifvqi70","pricing_plan_id":"cebpf4jnsgd1na2vs0mg"},{"bike_id":"2df1fc99-67d3-4962-a043-2d989720685b","system_id":"levelo_inurba_marseille","lat":43.24542,"lon":5.39524,"is_reserved":false,"is_disabled":false,"rental_uris":{"android":"levelo://app?vid=2df1fc99-67d3-4962-a043-2d989720685b","ios":"levelo://app?vid=2df1fc99-67d3-4962-a043-2d989720685b"},"vehicle_type_id":"4","last_reported":1731852431,"current_range_meters":12800,"station_id":"ce4bhlp2rcd13ifvqgjg","pricing_plan_id":"cebpf4jnsgd1na2vs0mg"},{"bike_id":"5bbb81c5-6b74-41e3-bf2a-091bbcb4cd5f","system_id":"levelo_inurba_marseille","lat":43.23195,"lon":5.355488,"is_reserved":false,"is_disabled":false,"rental_uris":{"android":"levelo://app?vid=5bbb81c5-6b74-41e3-bf2a-091bbcb4cd5f","ios":"levelo://app?vid=5bbb81c5-6b74-41e3-bf2a-091bbcb4cd5f"},"vehicle_type_id":"4","last_reported":1731852431,"current_range_meters":3200,"station_id":"ce4bhu92rcd13ifvqi70","pricing_plan_id":"cebpf4jnsgd1na2vs0mg"},{"bike_id":"2c7aec1c-bb64-4e82-b5ea-8bd5a4351dd5","system_id":"levelo_inurba_marseille","lat":43.28153,"lon":5.42652,"is_reserved":false,"is_disabled":false,"rental_uris":{"android":"levelo://app?vid=2c7aec1c-bb64-4e82-b5ea-8bd5a4351dd5","ios":"levelo://app?vid=2c7aec1c-bb64-4e82-b5ea-8bd5a4351dd5"},"vehicle_type_id":"4","last_reported":1731852431,"current_range_meters":25200,"station_id":"ce4bhnh2rcd13ifvqgug","pricing_plan_id":"cebpf4jnsgd1na2vs0mg"},{"bike_id":"8241cb12-c44e-4801-9c2b-42e1899e7e14","system_id":"levelo_inurba_marseille","lat":43.22924,"lon":5.35376,"is_reserved":false,"is_disabled":false,"rental_uris":{"android":"levelo://app?vid=8241cb12-c44e-4801-9c2b-42e1899e7e14","ios":"levelo://app?vid=8241cb12-c44e-4801-9c2b-42e1899e7e14"},"vehicle_type_id":"4","last_reported":1731852431,"current_range_meters":37600,"station_id":"cpo3532slgdg3j2ikp40","pricing_plan_id":"cebpf4jnsgd1na2vs0mg"},{"bike_id":"4e41211e-80ee-4fbf-9d3a-eddf92f5c901","system_id":"levelo_inurba_marseille","lat":43.2861,"lon":5.35111,"is_reserved":false,"is_disabled":false,"rental_uris":{"android":"levelo://app?vid=4e41211e-80ee-4fbf-9d3a-eddf92f5c901","ios":"levelo://app?vid=4e41211e-80ee-4fbf-9d3a-eddf92f5c901"},"vehicle_type_id":"4","last_reported":1731852431,"current_range_meters":17200,"station_id":"ce4bhch2rcd13ifvqeug","pricing_plan_id":"cebpf4jnsgd1na2vs0mg"},{"bike_id":"e248682e-8b40-45a3-a9fe-d0a940220880","system_id":"levelo_inurba_marseille","lat":43.29002,"lon":5.35613,"is_reserved":false,"is_disabled":false,"rental_uris":{"android":"levelo://app?vid=e248682e-8b40-45a3-a9fe-d0a940220880","ios":"levelo://app?vid=e248682e-8b40-45a3-a9fe-d0a940220880"},"vehicle_type_id":"4","last_reported":1731852431,"current_range_meters":33600,"station_id":"ce4bhb92rcd13ifvqen0","pricing_plan_id":"cebpf4jnsgd1na2vs0mg"},{"bike_id":"b419a39a-29e3-43e9-85dc-337695ad26f8","system_id":"levelo_inurba_marseille","lat":43.28611,"lon":5.35109,"is_reserved":false,"is_disabled":false,"rental_uris":{"android":"levelo://app?vid=b419a39a-29e3-43e9-85dc-337695ad26f8","ios":"levelo://app?vid=b419a39a-29e3-43e9-85dc-337695ad26f8"},"vehicle_type_id":"4","last_reported":1731852431,"current_range_meters":26800,"station_id":"ce4bhch2rcd13ifvqeug","pricing_plan_id":"cebpf4jnsgd1na2vs0mg"},{"bike_id":"a9850f2d-6feb-4d31-b456-0b115c79e22d","system_id":"levelo_inurba_marseille","lat":43.28152,"lon":5.42643,"is_reserved":false,"is_disabled":false,"rental_uris":{"android":"levelo://app?vid=a9850f2d-6feb-4d31-b456-0b115c79e22d","ios":"levelo://app?vid=a9850f2d-6feb-4d31-b456-0b115c79e22d"},"vehicle_type_id":"4","last_reported":1731852431,"current_range_meters":32400,"station_id":"ce4bhnh2rcd13ifvqgug","pricing_plan_id":"cebpf4jnsgd1na2vs0mg"},{"bike_id":"3f1ac08d-bcf1-40ec-abbb-965c2aeae7eb","system_id":"levelo_inurba_marseille","lat":43.24645,"lon":5.38176,"is_reserved":false,"is_disabled":false,"rental_uris":{"android":"levelo://app?vid=3f1ac08d-bcf1-40ec-abbb-965c2aeae7eb","ios":"levelo://app?vid=3f1ac08d-bcf1-40ec-abbb-965c2aeae7eb"},"vehicle_type_id":"4","last_reported":1731852431,"current_range_meters":28800,"station_id":"ce4bhih2rcd13ifvqfr0","pricing_plan_id":"cebpf4jnsgd1na2vs0mg"},{"bike_id":"6c8fa696-884c-401f-b9a7-6bfc79df1ee7","system_id":"levelo_inurba_marseille","lat":43.24167,"lon":5.36395,"is_reserved":false,"is_disabled":false,"rental_uris":{"android":"levelo://app?vid=6c8fa696-884c-401f-b9a7-6bfc79df1ee7","ios":"levelo://app?vid=6c8fa696-884c-401f-b9a7-6bfc79df1ee7"},"vehicle_type_id":"4","last_reported":1731852431,"current_range_meters":11200,"station_id":"cpo36qri1sfpv3e86is0","pricing_plan_id":"cebpf4jnsgd1na2vs0mg"},{"bike_id":"5966c1da-5d61-47ca-97f8-83b9ef45fd55","system_id":"levelo_inurba_marseille","lat":43.292908,"lon":5.374752,"is_reserved":false,"is_disabled":false,"rental_uris":{"android":"levelo://app?vid=5966c1da-5d61-47ca-97f8-83b9ef45fd55","ios":"levelo://app?vid=5966c1da-5d61-47ca-97f8-83b9ef45fd55"},"vehicle_type_id":"4","last_reported":1731852431,"current_range_meters":19200,"station_id":"ce4bgi12rcd13ifvqb70","pricing_plan_id":"cebpf4jnsgd1na2vs0mg"},{"bike_id":"eb1e3dd4-44e1-447b-b6e5-227b1f23dd28","system_id":"levelo_inurba_marseille","lat":43.2749,"lon":5.42457,"is_reserved":false,"is_disabled":false,"rental_uris":{"android":"levelo://app?vid=eb1e3dd4-44e1-447b-b6e5-227b1f23dd28","ios":"levelo://app?vid=eb1e3dd4-44e1-447b-b6e5-227b1f23dd28"},"vehicle_type_id":"4","last_reported":1731852431,"current_range_meters":6400,"station_id":"ce4bhn92rcd13ifvqgrg","pricing_plan_id":"cebpf4jnsgd1na2vs0mg"},{"bike_id":"904b8ebc-6b39-4ffa-9daf-f77e00a33524","system_id":"levelo_inurba_marseille","lat":43.28258,"lon":5.35071,"is_reserved":false,"is_disabled":false,"rental_uris":{"android":"levelo://app?vid=904b8ebc-6b39-4ffa-9daf-f77e00a33524","ios":"levelo://app?vid=904b8ebc-6b39-4ffa-9daf-f77e00a33524"},"vehicle_type_id":"4","last_reported":1731852431,"current_range_meters":38800,"station_id":"ce4bhbp2rcd13ifvqerg","pricing_plan_id":"cebpf4jnsgd1na2vs0mg"},{"bike_id":"e27cce49-c450-41db-8ef7-a26a1437ffb4","system_id":"levelo_inurba_marseille","lat":43.290303,"lon":5.386532,"is_reserved":false,"is_disabled":false,"rental_uris":{"android":"levelo://app?vid=e27cce49-c450-41db-8ef7-a26a1437ffb4","ios":"levelo://app?vid=e27cce49-c450-41db-8ef7-a26a1437ffb4"},"vehicle_type_id":"4","last_reported":1731852431,"current_range_meters":3200,"station_id":"ce4bh4p2rcd13ifvqe0g","pricing_plan_id":"cebpf4jnsgd1na2vs0mg"},{"bike_id":"d3d0c773-9f5f-4138-b90f-6e039068ebe6","system_id":"levelo_inurba_marseille","lat":43.25496,"lon":5.37645,"is_reserved":false,"is_disabled":false,"rental_uris":{"android":"levelo://app?vid=d3d0c773-9f5f-4138-b90f-6e039068ebe6","ios":"levelo://app?vid=d3d0c773-9f5f-4138-b90f-6e039068ebe6"},"vehicle_type_id":"4","last_reported":1731852431,"current_range_meters":4000,"station_id":"ce4bhh12rcd13ifvqff0","pricing_plan_id":"cebpf4jnsgd1na2vs0mg"},{"bike_id":"39fa075a-f1b0-47f6-9b15-a5040e7b4a5c","system_id":"levelo_inurba_marseille","lat":43.2827,"lon":5.35077,"is_reserved":false,"is_disabled":false,"rental_uris":{"android":"levelo://app?vid=39fa075a-f1b0-47f6-9b15-a5040e7b4a5c","ios":"levelo://app?vid=39fa075a-f1b0-47f6-9b15-a5040e7b4a5c"},"vehicle_type_id":"4","last_reported":1731852431,"current_range_meters":38400,"station_id":"ce4bhbp2rcd13ifvqerg","pricing_plan_id":"cebpf4jnsgd1na2vs0mg"},{"bike_id":"d1a73af5-5b31-4fa8-829c-089f1b0aba3f","system_id":"levelo_inurba_marseille","lat":43.28035,"lon":5.36942,"is_reserved":false,"is_disabled":false,"rental_uris":{"android":"levelo://app?vid=d1a73af5-5b31-4fa8-829c-089f1b0aba3f","ios":"levelo://app?vid=d1a73af5-5b31-4fa8-829c-089f1b0aba3f"},"vehicle_type_id":"4","last_reported":1731852431,"current_range_meters":28000,"station_id":"ce4bha12rcd13ifvqef0","pricing_plan_id":"cebpf4jnsgd1na2vs0mg"},{"bike_id":"562ba9a5-bc29-431f-8c48-91d95e9e48ba","system_id":"levelo_inurba_marseille","lat":43.32488,"lon":5.36584,"is_reserved":false,"is_disabled":false,"rental_uris":{"android":"levelo://app?vid=562ba9a5-bc29-431f-8c48-91d95e9e48ba","ios":"levelo://app?vid=562ba9a5-bc29-431f-8c48-91d95e9e48ba"},"vehicle_type_id":"4","last_reported":1731852431,"current_range_meters":26000,"station_id":"ce4bhs12rcd13ifvqhvg","pricing_plan_id":"cebpf4jnsgd1na2vs0mg"},{"bike_id":"f91ee5fa-7ffd-4556-a8a1-27f3e65500bb","system_id":"levelo_inurba_marseille","lat":43.28944,"lon":5.366421,"is_reserved":false,"is_disabled":false,"rental_uris":{"android":"levelo://app?vid=f91ee5fa-7ffd-4556-a8a1-27f3e65500bb","ios":"levelo://app?vid=f91ee5fa-7ffd-4556-a8a1-27f3e65500bb"},"vehicle_type_id":"4","last_reported":1731852431,"current_range_meters":17200,"station_id":"ce4bhap2rcd13ifvqek0","pricing_plan_id":"cebpf4jnsgd1na2vs0mg"},{"bike_id":"d1e054f9-ae6d-45db-a6c6-bb9cb3fd1f4b","system_id":"levelo_inurba_marseille","lat":43.24173,"lon":5.39731,"is_reserved":false,"is_disabled":false,"rental_uris":{"android":"levelo://app?vid=d1e054f9-ae6d-45db-a6c6-bb9cb3fd1f4b","ios":"levelo://app?vid=d1e054f9-ae6d-45db-a6c6-bb9cb3fd1f4b"},"vehicle_type_id":"4","last_reported":1731852431,"current_range_meters":39200,"station_id":"ce4bhn12rcd13ifvqgpg","pricing_plan_id":"cebpf4jnsgd1na2vs0mg"},{"bike_id":"26211ae4-e6ea-4f4b-aed3-e14463753805","system_id":"levelo_inurba_marseille","lat":43.29907,"lon":5.38146,"is_reserved":false,"is_disabled":false,"rental_uris":{"android":"levelo://app?vid=26211ae4-e6ea-4f4b-aed3-e14463753805","ios":"levelo://app?vid=26211ae4-e6ea-4f4b-aed3-e14463753805"},"vehicle_type_id":"4","last_reported":1731852431,"current_range_meters":8000,"station_id":"ce4bgj12rcd13ifvqbc0","pricing_plan_id":"cebpf4jnsgd1na2vs0mg"},{"bike_id":"45962fd9-105b-45d4-a1ab-55b5efb9a935","system_id":"levelo_inurba_marseille","lat":43.24167,"lon":5.36391,"is_reserved":false,"is_disabled":false,"rental_uris":{"android":"levelo://app?vid=45962fd9-105b-45d4-a1ab-55b5efb9a935","ios":"levelo://app?vid=45962fd9-105b-45d4-a1ab-55b5efb9a935"},"vehicle_type_id":"4","last_reported":1731852431,"current_range_meters":29600,"station_id":"cpo36qri1sfpv3e86is0","pricing_plan_id":"cebpf4jnsgd1na2vs0mg"},{"bike_id":"452f676c-47d6-48f8-a43f-51f055bbd90f","system_id":"levelo_inurba_marseille","lat":43.22934,"lon":5.35378,"is_reserved":false,"is_disabled":false,"rental_uris":{"android":"levelo://app?vid=452f676c-47d6-48f8-a43f-51f055bbd90f","ios":"levelo://app?vid=452f676c-47d6-48f8-a43f-51f055bbd90f"},"vehicle_type_id":"4","last_reported":1731852431,"current_range_meters":37600,"station_id":"cpo3532slgdg3j2ikp40","pricing_plan_id":"cebpf4jnsgd1na2vs0mg"},{"bike_id":"28de12e9-591b-4dbc-9df1-be6a1c8a0baa","system_id":"levelo_inurba_marseille","lat":43.32341,"lon":5.40621,"is_reserved":false,"is_disabled":false,"rental_uris":{"android":"levelo://app?vid=28de12e9-591b-4dbc-9df1-be6a1c8a0baa","ios":"levelo://app?vid=28de12e9-591b-4dbc-9df1-be6a1c8a0baa"},"vehicle_type_id":"4","last_reported":1731852431,"current_range_meters":36400,"station_id":"ce4bhq92rcd13ifvqhjg","pricing_plan_id":"cebpf4jnsgd1na2vs0mg"},{"bike_id":"42e47a31-5768-48d1-9c5c-6e8b8659ec1f","system_id":"levelo_inurba_marseille","lat":43.25722,"lon":5.41112,"is_reserved":false,"is_disabled":false,"rental_uris":{"android":"levelo://app?vid=42e47a31-5768-48d1-9c5c-6e8b8659ec1f","ios":"levelo://app?vid=42e47a31-5768-48d1-9c5c-6e8b8659ec1f"},"vehicle_type_id":"4","last_reported":1731852431,"current_range_meters":9600,"station_id":"ce4bhkp2rcd13ifvqgd0","pricing_plan_id":"cebpf4jnsgd1na2vs0mg"},{"bike_id":"aebb50a8-8ba0-4378-9e54-d98cf8ebd81e","system_id":"levelo_inurba_marseille","lat":43.25934,"lon":5.40898,"is_reserved":false,"is_disabled":false,"rental_uris":{"android":"levelo://app?vid=aebb50a8-8ba0-4378-9e54-d98cf8ebd81e","ios":"levelo://app?vid=aebb50a8-8ba0-4378-9e54-d98cf8ebd81e"},"vehicle_type_id":"4","last_reported":1731852431,"current_range_meters":29600,"station_id":"ce4bhm92rcd13ifvqglg","pricing_plan_id":"cebpf4jnsgd1na2vs0mg"},{"bike_id":"26da315e-93f1-413d-b312-94b868908d3c","system_id":"levelo_inurba_marseille","lat":43.25575,"lon":5.38238,"is_reserved":false,"is_disabled":false,"rental_uris":{"android":"levelo://app?vid=26da315e-93f1-413d-b312-94b868908d3c","ios":"levelo://app?vid=26da315e-93f1-413d-b312-94b868908d3c"},"vehicle_type_id":"4","last_reported":1731852431,"current_range_meters":38000,"station_id":"ce4bhih2rcd13ifvqfs0","pricing_plan_id":"cebpf4jnsgd1na2vs0mg"},{"bike_id":"61b752a4-eaf7-40f8-bc63-620817a48f1d","system_id":"levelo_inurba_marseille","lat":43.3266,"lon":5.409926,"is_reserved":false,"is_disabled":false,"rental_uris":{"android":"levelo://app?vid=61b752a4-eaf7-40f8-bc63-620817a48f1d","ios":"levelo://app?vid=61b752a4-eaf7-40f8-bc63-620817a48f1d"},"vehicle_type_id":"4","last_reported":1731852431,"current_range_meters":11600,"station_id":"ce4bhpp2rcd13ifvqhgg","pricing_plan_id":"cebpf4jnsgd1na2vs0mg"},{"bike_id":"1790ac93-5525-4bd4-a7ed-139eaa60ba18","system_id":"levelo_inurba_marseille","lat":43.30345,"lon":5.43502,"is_reserved":false,"is_disabled":false,"rental_uris":{"android":"levelo://app?vid=1790ac93-5525-4bd4-a7ed-139eaa60ba18","ios":"levelo://app?vid=1790ac93-5525-4bd4-a7ed-139eaa60ba18"},"vehicle_type_id":"4","last_reported":1731852431,"current_range_meters":9200,"station_id":"ce4bhph2rcd13ifvqheg","pricing_plan_id":"cebpf4jnsgd1na2vs0mg"},{"bike_id":"0c8e27cf-3ef8-4ad3-add6-2bd6fc2ae3c2","system_id":"levelo_inurba_marseille","lat":43.23954,"lon":5.36638,"is_reserved":false,"is_disabled":false,"rental_uris":{"android":"levelo://app?vid=0c8e27cf-3ef8-4ad3-add6-2bd6fc2ae3c2","ios":"levelo://app?vid=0c8e27cf-3ef8-4ad3-add6-2bd6fc2ae3c2"},"vehicle_type_id":"4","last_reported":1731852431,"current_range_meters":17200,"station_id":"ce4bhi12rcd13ifvqfp0","pricing_plan_id":"cebpf4jnsgd1na2vs0mg"},{"bike_id":"77c542d5-e2fd-47db-bd25-971222c64cea","system_id":"levelo_inurba_marseille","lat":43.23963,"lon":5.36642,"is_reserved":false,"is_disabled":false,"rental_uris":{"android":"levelo://app?vid=77c542d5-e2fd-47db-bd25-971222c64cea","ios":"levelo://app?vid=77c542d5-e2fd-47db-bd25-971222c64cea"},"vehicle_type_id":"4","last_reported":1731852431,"current_range_meters":35600,"station_id":"ce4bhi12rcd13ifvqfp0","pricing_plan_id":"cebpf4jnsgd1na2vs0mg"},{"bike_id":"a4144495-fb6b-4508-9e01-5ac6deee9394","system_id":"levelo_inurba_marseille","lat":43.23177,"lon":5.39993,"is_reserved":false,"is_disabled":false,"rental_uris":{"android":"levelo://app?vid=a4144495-fb6b-4508-9e01-5ac6deee9394","ios":"levelo://app?vid=a4144495-fb6b-4508-9e01-5ac6deee9394"},"vehicle_type_id":"4","last_reported":1731852431,"current_range_meters":26800,"station_id":"ce4bhn12rcd13ifvqgqg","pricing_plan_id":"cebpf4jnsgd1na2vs0mg"},{"bike_id":"c96395f1-fa72-4059-94dc-ccabe30c87c1","system_id":"levelo_inurba_marseille","lat":43.25936,"lon":5.40897,"is_reserved":false,"is_disabled":false,"rental_uris":{"android":"levelo://app?vid=c96395f1-fa72-4059-94dc-ccabe30c87c1","ios":"levelo://app?vid=c96395f1-fa72-4059-94dc-ccabe30c87c1"},"vehicle_type_id":"4","last_reported":1731852431,"current_range_meters":10000,"station_id":"ce4bhm92rcd13ifvqglg","pricing_plan_id":"cebpf4jnsgd1na2vs0mg"},{"bike_id":"6b0b69fe-9d94-4216-a66a-29725ce6b7b9","system_id":"levelo_inurba_marseille","lat":43.28272,"lon":5.35076,"is_reserved":false,"is_disabled":false,"rental_uris":{"android":"levelo://app?vid=6b0b69fe-9d94-4216-a66a-29725ce6b7b9","ios":"levelo://app?vid=6b0b69fe-9d94-4216-a66a-29725ce6b7b9"},"vehicle_type_id":"4","last_reported":1731852431,"current_range_meters":36000,"station_id":"ce4bhbp2rcd13ifvqerg","pricing_plan_id":"cebpf4jnsgd1na2vs0mg"},{"bike_id":"f4ed7504-f0dd-48e2-a209-1709ff351c12","system_id":"levelo_inurba_marseille","lat":43.24164,"lon":5.36399,"is_reserved":false,"is_disabled":false,"rental_uris":{"android":"levelo://app?vid=f4ed7504-f0dd-48e2-a209-1709ff351c12","ios":"levelo://app?vid=f4ed7504-f0dd-48e2-a209-1709ff351c12"},"vehicle_type_id":"4","last_reported":1731852431,"current_range_meters":34000,"station_id":"cpo36qri1sfpv3e86is0","pricing_plan_id":"cebpf4jnsgd1na2vs0mg"},{"bike_id":"c3fd793d-984b-4e7b-848e-79174a058ce6","system_id":"levelo_inurba_marseille","lat":43.22929,"lon":5.35375,"is_reserved":false,"is_disabled":false,"rental_uris":{"android":"levelo://app?vid=c3fd793d-984b-4e7b-848e-79174a058ce6","ios":"levelo://app?vid=c3fd793d-984b-4e7b-848e-79174a058ce6"},"vehicle_type_id":"4","last_reported":1731852431,"current_range_meters":39200,"station_id":"cpo3532slgdg3j2ikp40","pricing_plan_id":"cebpf4jnsgd1na2vs0mg"},{"bike_id":"bc19ecde-9b2e-422c-b3a6-201e511bf8cb","system_id":"levelo_inurba_marseille","lat":43.25571,"lon":5.38236,"is_reserved":false,"is_disabled":false,"rental_uris":{"android":"levelo://app?vid=bc19ecde-9b2e-422c-b3a6-201e511bf8cb","ios":"levelo://app?vid=bc19ecde-9b2e-422c-b3a6-201e511bf8cb"},"vehicle_type_id":"4","last_reported":1731852431,"current_range_meters":28400,"station_id":"ce4bhih2rcd13ifvqfs0","pricing_plan_id":"cebpf4jnsgd1na2vs0mg"},{"bike_id":"aa69ac72-8e2a-430b-9a9d-483e95622813","system_id":"levelo_inurba_marseille","lat":43.27495,"lon":5.42451,"is_reserved":false,"is_disabled":false,"rental_uris":{"android":"levelo://app?vid=aa69ac72-8e2a-430b-9a9d-483e95622813","ios":"levelo://app?vid=aa69ac72-8e2a-430b-9a9d-483e95622813"},"vehicle_type_id":"4","last_reported":1731852431,"current_range_meters":18800,"station_id":"ce4bhn92rcd13ifvqgrg","pricing_plan_id":"cebpf4jnsgd1na2vs0mg"},{"bike_id":"446f0c4a-6133-44b5-ae7a-99a66110d29b","system_id":"levelo_inurba_marseille","lat":43.29964,"lon":5.38498,"is_reserved":false,"is_disabled":false,"rental_uris":{"android":"levelo://app?vid=446f0c4a-6133-44b5-ae7a-99a66110d29b","ios":"levelo://app?vid=446f0c4a-6133-44b5-ae7a-99a66110d29b"},"vehicle_type_id":"4","last_reported":1731852431,"current_range_meters":16800,"station_id":"ce4bgj92rcd13ifvqbd0","pricing_plan_id":"cebpf4jnsgd1na2vs0mg"},{"bike_id":"a96fe58a-1fa8-4cb1-b071-698a4942c2a8","system_id":"levelo_inurba_marseille","lat":43.30606,"lon":5.37225,"is_reserved":false,"is_disabled":false,"rental_uris":{"android":"levelo://app?vid=a96fe58a-1fa8-4cb1-b071-698a4942c2a8","ios":"levelo://app?vid=a96fe58a-1fa8-4cb1-b071-698a4942c2a8"},"vehicle_type_id":"4","last_reported":1731852431,"current_range_meters":21600,"station_id":"ce4bgqh2rcd13ifvqc4g","pricing_plan_id":"cebpf4jnsgd1na2vs0mg"},{"bike_id":"cbe20030-9973-4328-b4f0-5117e7eb16c0","system_id":"levelo_inurba_marseille","lat":43.25717,"lon":5.41115,"is_reserved":false,"is_disabled":false,"rental_uris":{"android":"levelo://app?vid=cbe20030-9973-4328-b4f0-5117e7eb16c0","ios":"levelo://app?vid=cbe20030-9973-4328-b4f0-5117e7eb16c0"},"vehicle_type_id":"4","last_reported":1731852431,"current_range_meters":10000,"station_id":"ce4bhkp2rcd13ifvqgd0","pricing_plan_id":"cebpf4jnsgd1na2vs0mg"},{"bike_id":"0abede36-a0e8-4ce1-85b2-e9b3ddfce058","system_id":"levelo_inurba_marseille","lat":43.33024,"lon":5.39027,"is_reserved":false,"is_disabled":false,"rental_uris":{"android":"levelo://app?vid=0abede36-a0e8-4ce1-85b2-e9b3ddfce058","ios":"levelo://app?vid=0abede36-a0e8-4ce1-85b2-e9b3ddfce058"},"vehicle_type_id":"4","last_reported":1731852431,"current_range_meters":10000,"station_id":"ce4bhr92rcd13ifvqhrg","pricing_plan_id":"cebpf4jnsgd1na2vs0mg"},{"bike_id":"7a988331-5db7-409c-90c8-76e1b9cced84","system_id":"levelo_inurba_marseille","lat":43.23189,"lon":5.39996,"is_reserved":false,"is_disabled":false,"rental_uris":{"android":"levelo://app?vid=7a988331-5db7-409c-90c8-76e1b9cced84","ios":"levelo://app?vid=7a988331-5db7-409c-90c8-76e1b9cced84"},"vehicle_type_id":"4","last_reported":1731852431,"current_range_meters":19600,"station_id":"ce4bhn12rcd13ifvqgqg","pricing_plan_id":"cebpf4jnsgd1na2vs0mg"},{"bike_id":"a1369a3b-47ad-4824-86bd-81887c0c496e","system_id":"levelo_inurba_marseille","lat":43.2319,"lon":5.35555,"is_reserved":false,"is_disabled":false,"rental_uris":{"android":"levelo://app?vid=a1369a3b-47ad-4824-86bd-81887c0c496e","ios":"levelo://app?vid=a1369a3b-47ad-4824-86bd-81887c0c496e"},"vehicle_type_id":"4","last_reported":1731852431,"current_range_meters":30000,"station_id":"ce4bhu92rcd13ifvqi70","pricing_plan_id":"cebpf4jnsgd1na2vs0mg"},{"bike_id":"c1a8b3fe-89f1-480d-83ff-6a91c23e456c","system_id":"levelo_inurba_marseille","lat":43.27496,"lon":5.42476,"is_reserved":false,"is_disabled":false,"rental_uris":{"android":"levelo://app?vid=c1a8b3fe-89f1-480d-83ff-6a91c23e456c","ios":"levelo://app?vid=c1a8b3fe-89f1-480d-83ff-6a91c23e456c"},"vehicle_type_id":"4","last_reported":1731852431,"current_range_meters":5600,"station_id":"ce4bhn92rcd13ifvqgrg","pricing_plan_id":"cebpf4jnsgd1na2vs0mg"},{"bike_id":"e682bfa2-d88f-4ce8-b294-ec8a764d1ea8","system_id":"levelo_inurba_marseille","lat":43.27939,"lon":5.41047,"is_reserved":false,"is_disabled":false,"rental_uris":{"android":"levelo://app?vid=e682bfa2-d88f-4ce8-b294-ec8a764d1ea8","ios":"levelo://app?vid=e682bfa2-d88f-4ce8-b294-ec8a764d1ea8"},"vehicle_type_id":"4","last_reported":1731852431,"current_range_meters":10000,"station_id":"ce4bhnp2rcd13ifvqh0g","pricing_plan_id":"cebpf4jnsgd1na2vs0mg"},{"bike_id":"3390626a-e2d2-48c6-b253-39056fff8141","system_id":"levelo_inurba_marseille","lat":43.28152,"lon":5.42637,"is_reserved":false,"is_disabled":false,"rental_uris":{"android":"levelo://app?vid=3390626a-e2d2-48c6-b253-39056fff8141","ios":"levelo://app?vid=3390626a-e2d2-48c6-b253-39056fff8141"},"vehicle_type_id":"4","last_reported":1731852431,"current_range_meters":24000,"station_id":"ce4bhnh2rcd13ifvqgug","pricing_plan_id":"cebpf4jnsgd1na2vs0mg"},{"bike_id":"60918f61-fcd2-4995-b2b4-7b6d7259533c","system_id":"levelo_inurba_marseille","lat":43.29729,"lon":5.37685,"is_reserved":false,"is_disabled":false,"rental_uris":{"android":"levelo://app?vid=60918f61-fcd2-4995-b2b4-7b6d7259533c","ios":"levelo://app?vid=60918f61-fcd2-4995-b2b4-7b6d7259533c"},"vehicle_type_id":"4","last_reported":1731852431,"current_range_meters":30000,"station_id":"ce4bgkh2rcd13ifvqbl0","pricing_plan_id":"cebpf4jnsgd1na2vs0mg"},{"bike_id":"47e06a38-fada-43b8-8046-487dc8986f1d","system_id":"levelo_inurba_marseille","lat":43.23956,"lon":5.3662,"is_reserved":false,"is_disabled":false,"rental_uris":{"android":"levelo://app?vid=47e06a38-fada-43b8-8046-487dc8986f1d","ios":"levelo://app?vid=47e06a38-fada-43b8-8046-487dc8986f1d"},"vehicle_type_id":"4","last_reported":1731852431,"current_range_meters":28000,"station_id":"ce4bhi12rcd13ifvqfp0","pricing_plan_id":"cebpf4jnsgd1na2vs0mg"},{"bike_id":"5ca49efd-2378-45c0-95d9-13adcb9f66ba","system_id":"levelo_inurba_marseille","lat":43.337444,"lon":5.374475,"is_reserved":false,"is_disabled":false,"rental_uris":{"android":"levelo://app?vid=5ca49efd-2378-45c0-95d9-13adcb9f66ba","ios":"levelo://app?vid=5ca49efd-2378-45c0-95d9-13adcb9f66ba"},"vehicle_type_id":"4","last_reported":1731852431,"current_range_meters":12000,"station_id":"","pricing_plan_id":"cebpf4jnsgd1na2vs0mg"},{"bike_id":"68cc9985-a988-494e-81b0-a3a2b5741caa","system_id":"levelo_inurba_marseille","lat":43.2396,"lon":5.36659,"is_reserved":false,"is_disabled":false,"rental_uris":{"android":"levelo://app?vid=68cc9985-a988-494e-81b0-a3a2b5741caa","ios":"levelo://app?vid=68cc9985-a988-494e-81b0-a3a2b5741caa"},"vehicle_type_id":"4","last_reported":1731852431,"current_range_meters":36400,"station_id":"ce4bhi12rcd13ifvqfp0","pricing_plan_id":"cebpf4jnsgd1na2vs0mg"},{"bike_id":"ff15543a-8e66-47f0-943f-d58b7484dac1","system_id":"levelo_inurba_marseille","lat":43.292317,"lon":5.360582,"is_reserved":false,"is_disabled":false,"rental_uris":{"android":"levelo://app?vid=ff15543a-8e66-47f0-943f-d58b7484dac1","ios":"levelo://app?vid=ff15543a-8e66-47f0-943f-d58b7484dac1"},"vehicle_type_id":"4","last_reported":1731852431,"current_range_meters":20800,"station_id":"ce4bhbh2rcd13ifvqeqg","pricing_plan_id":"cebpf4jnsgd1na2vs0mg"},{"bike_id":"f19dbfcc-4381-4bc5-81a7-61db6c0637d3","system_id":"levelo_inurba_marseille","lat":43.26557,"lon":5.37284,"is_reserved":false,"is_disabled":false,"rental_uris":{"android":"levelo://app?vid=f19dbfcc-4381-4bc5-81a7-61db6c0637d3","ios":"levelo://app?vid=f19dbfcc-4381-4bc5-81a7-61db6c0637d3"},"vehicle_type_id":"4","last_reported":1731852431,"current_range_meters":25200,"station_id":"ce4bhg12rcd13ifvqf70","pricing_plan_id":"cebpf4jnsgd1na2vs0mg"},{"bike_id":"0c8aa4d1-f99d-4ea7-b239-948714a80177","system_id":"levelo_inurba_marseille","lat":43.231962,"lon":5.355518,"is_reserved":false,"is_disabled":false,"rental_uris":{"android":"levelo://app?vid=0c8aa4d1-f99d-4ea7-b239-948714a80177","ios":"levelo://app?vid=0c8aa4d1-f99d-4ea7-b239-948714a80177"},"vehicle_type_id":"4","last_reported":1731852431,"current_range_meters":3200,"station_id":"ce4bhu92rcd13ifvqi70","pricing_plan_id":"cebpf4jnsgd1na2vs0mg"},{"bike_id":"0fdd89bb-66ff-4436-80f2-feca0b3502f2","system_id":"levelo_inurba_marseille","lat":43.28615,"lon":5.35108,"is_reserved":false,"is_disabled":false,"rental_uris":{"android":"levelo://app?vid=0fdd89bb-66ff-4436-80f2-feca0b3502f2","ios":"levelo://app?vid=0fdd89bb-66ff-4436-80f2-feca0b3502f2"},"vehicle_type_id":"4","last_reported":1731852431,"current_range_meters":26800,"station_id":"ce4bhch2rcd13ifvqeug","pricing_plan_id":"cebpf4jnsgd1na2vs0mg"},{"bike_id":"4c57b3d6-ddaa-4e8f-bc0c-772c710c6260","system_id":"levelo_inurba_marseille","lat":43.2798,"lon":5.41653,"is_reserved":false,"is_disabled":false,"rental_uris":{"android":"levelo://app?vid=4c57b3d6-ddaa-4e8f-bc0c-772c710c6260","ios":"levelo://app?vid=4c57b3d6-ddaa-4e8f-bc0c-772c710c6260"},"vehicle_type_id":"4","last_reported":1731852431,"current_range_meters":37600,"station_id":"ce4bho12rcd13ifvqh1g","pricing_plan_id":"cebpf4jnsgd1na2vs0mg"},{"bike_id":"60bcdd77-b21e-444a-9454-c3e831b744e5","system_id":"levelo_inurba_marseille","lat":43.25084,"lon":5.39525,"is_reserved":false,"is_disabled":false,"rental_uris":{"android":"levelo://app?vid=60bcdd77-b21e-444a-9454-c3e831b744e5","ios":"levelo://app?vid=60bcdd77-b21e-444a-9454-c3e831b744e5"},"vehicle_type_id":"4","last_reported":1731852431,"current_range_meters":7200,"station_id":"ce4bhm12rcd13ifvqgkg","pricing_plan_id":"cebpf4jnsgd1na2vs0mg"},{"bike_id":"6186f548-2cc5-45c4-9c15-95dbcbac23df","system_id":"levelo_inurba_marseille","lat":43.29001,"lon":5.35614,"is_reserved":false,"is_disabled":false,"rental_uris":{"android":"levelo://app?vid=6186f548-2cc5-45c4-9c15-95dbcbac23df","ios":"levelo://app?vid=6186f548-2cc5-45c4-9c15-95dbcbac23df"},"vehicle_type_id":"4","last_reported":1731852431,"current_range_meters":38800,"station_id":"ce4bhb92rcd13ifvqen0","pricing_plan_id":"cebpf4jnsgd1na2vs0mg"},{"bike_id":"b69726c0-0878-49cd-b268-c0cc3673cd61","system_id":"levelo_inurba_marseille","lat":43.23196,"lon":5.35553,"is_reserved":false,"is_disabled":false,"rental_uris":{"android":"levelo://app?vid=b69726c0-0878-49cd-b268-c0cc3673cd61","ios":"levelo://app?vid=b69726c0-0878-49cd-b268-c0cc3673cd61"},"vehicle_type_id":"4","last_reported":1731852431,"current_range_meters":14400,"station_id":"ce4bhu92rcd13ifvqi70","pricing_plan_id":"cebpf4jnsgd1na2vs0mg"},{"bike_id":"7b836796-de38-4181-8ea8-8db4708a39e6","system_id":"levelo_inurba_marseille","lat":43.32342,"lon":5.40624,"is_reserved":false,"is_disabled":false,"rental_uris":{"android":"levelo://app?vid=7b836796-de38-4181-8ea8-8db4708a39e6","ios":"levelo://app?vid=7b836796-de38-4181-8ea8-8db4708a39e6"},"vehicle_type_id":"4","last_reported":1731852431,"current_range_meters":37600,"station_id":"ce4bhq92rcd13ifvqhjg","pricing_plan_id":"cebpf4jnsgd1na2vs0mg"},{"bike_id":"059a53b7-7470-4e98-af65-2aba864658c0","system_id":"levelo_inurba_marseille","lat":43.322955,"lon":5.367676,"is_reserved":false,"is_disabled":false,"rental_uris":{"android":"levelo://app?vid=059a53b7-7470-4e98-af65-2aba864658c0","ios":"levelo://app?vid=059a53b7-7470-4e98-af65-2aba864658c0"},"vehicle_type_id":"4","last_reported":1731852431,"current_range_meters":39200,"station_id":"","pricing_plan_id":"cebpf4jnsgd1na2vs0mg"},{"bike_id":"961dca28-d003-41a4-b602-05e20b24719c","system_id":"levelo_inurba_marseille","lat":43.28153,"lon":5.42638,"is_reserved":false,"is_disabled":false,"rental_uris":{"android":"levelo://app?vid=961dca28-d003-41a4-b602-05e20b24719c","ios":"levelo://app?vid=961dca28-d003-41a4-b602-05e20b24719c"},"vehicle_type_id":"4","last_reported":1731852431,"current_range_meters":23200,"station_id":"ce4bhnh2rcd13ifvqgug","pricing_plan_id":"cebpf4jnsgd1na2vs0mg"},