{"last_updated":1745579302,"ttl":60,"version":"2.2","data":{"bikes":[{"bike_id":"472ac994-59d7-48ff-b7f1-93cb2159132f","system_id":"levelo_inurba_marseille","lat":43.28275,"lon":5.35073,"is_reserved":false,"is_disabled":false,"rental_uris":{"android":"levelo://app?vid=472ac994-59d7-48ff-b7f1-93cb2159132f","ios":"levelo://app?vid=472ac994-59d7-48ff-b7f1-93cb2159132f"},"vehicle_type_id":"4","last_reported":1745579302,"current_range_meters":2800,"station_id":"ce4bhbp2rcd13ifvqerg","pricing_plan_id":"cebpf4jnsgd1na2vs0mg"},{"bike_id":"fed3087f-a5cb-449e-a43e-200233532ee8","system_id":"levelo_inurba_marseille","lat":43.280305,"lon":5.369411,"is_reserved":false,"is_disabled":true,"rental_uris":{"android":"levelo://app?vid=fed3087f-a5cb-449e-a43e-200233532ee8","ios":"levelo://app?vid=fed3087f-a5cb-449e-a43e-200233532ee8"},"vehicle_type_id":"4","last_reported":1745579302,"current_range_meters":2800,"station_id":"ce4bha12rcd13ifvqef0","pricing_plan_id":"cebpf4jnsgd1na2vs0mg"},{"bike_id":"b56f65d4-a032-4852-b648-59b5338e9f99","system_id":"levelo_inurba_marseille","lat":43.304565,"lon":5.379012,"is_reserved":false,"is_disabled":false,"rental_uris":{"android":"levelo://app?vid=b56f65d4-a032-4852-b648-59b5338e9f99","ios":"levelo://app?vid=b56f65d4-a032-4852-b648-59b5338e9f99"},"vehicle_type_id":"4","last_reported":1745579302,"current_range_meters":2000,"station_id":"ce4bgl92rcd13ifvqbq0","pricing_plan_id":"cebpf4jnsgd1na2vs0mg"},{"bike_id":"92c3b340-d069-4f1c-b55b-44c52f19597b","system_id":"levelo_inurba_marseille","lat":43.282787,"lon":5.377783,"is_reserved":false,"is_disabled":true,"rental_uris":{"android":"levelo://app?vid=92c3b340-d069-4f1c-b55b-44c52f19597b","ios":"levelo://app?vid=92c3b340-d069-4f1c-b55b-44c52f19597b"},"vehicle_type_id":"4","last_reported":1745579302,"current_range_meters":3200,"station_id":"","pricing_plan_id":"cebpf4jnsgd1na2vs0mg"},{"bike_id":"e5175f6e-9693-4743-bea9-073c2ee3ff83","system_id":"levelo_inurba_marseille","lat":43.2842,"lon":5.34973,"is_reserved":false,"is_disabled":false,"rental_uris":{"android":"levelo://app?vid=e5175f6e-9693-4743-bea9-073c2ee3ff83","ios":"levelo://app?vid=e5175f6e-9693-4743-bea9-073c2ee3ff83"},"vehicle_type_id":"4","last_reported":1745579302,"current_range_meters":3200,"station_id":"ce4bhbh2rcd13ifvqepg","pricing_plan_id":"cebpf4jnsgd1na2vs0mg"},{"bike_id":"2ae0dd73-45fb-4d3e-88eb-7e86c9189726","system_id":"levelo_inurba_marseille","lat":43.27813,"lon":5.4071,"is_reserved":false,"is_disabled":false,"rental_uris":{"android":"levelo://app?vid=2ae0dd73-45fb-4d3e-88eb-7e86c9189726","ios":"levelo://app?vid=2ae0dd73-45fb-4d3e-88eb-7e86c9189726"},"vehicle_type_id":"4","last_reported":1745579302,"current_range_meters":3200,"station_id":"ce4bhnh2rcd13ifvqgtg","pricing_plan_id":"cebpf4jnsgd1na2vs0mg"},{"bike_id":"8cf8da14-e1fd-4fcc-b81a-bf72a0e4400c","system_id":"levelo_inurba_marseille","lat":43.26722,"lon":5.38269,"is_reserved":false,"is_disabled":true,"rental_uris":{"android":"levelo://app?vid=8cf8da14-e1fd-4fcc-b81a-bf72a0e4400c","ios":"levelo://app?vid=8cf8da14-e1fd-4fcc-b81a-bf72a0e4400c"},"vehicle_type_id":"4","last_reported":1745579302,"current_range_meters":3200,"station_id":"ce4bhg92rcd13ifvqf90","pricing_plan_id":"cebpf4jnsgd1na2vs0mg"},{"bike_id":"66077892-34ad-467c-8dfd-59f3bcb26a79","system_id":"levelo_inurba_marseille","lat":43.2897,"lon":5.37831,"is_reserved":false,"is_disabled":false,"rental_uris":{"android":"levelo://app?vid=66077892-34ad-467c-8dfd-59f3bcb26a79","ios":"levelo://app?vid=66077892-34ad-467c-8dfd-59f3bcb26a79"},"vehicle_type_id":"4","last_reported":1745579302,"current_range_meters":3200,"station_id":"ce4bh9p2rcd13ifvqed0","pricing_plan_id":"cebpf4jnsgd1na2vs0mg"},{"bike_id":"a80910ab-df31-4c24-94c2-14532eeffbf5","system_id":"levelo_inurba_marseille","lat":43.29964,"lon":5.38494,"is_reserved":false,"is_disabled":false,"rental_uris":{"android":"levelo://app?vid=a80910ab-df31-4c24-94c2-14532eeffbf5","ios":"levelo://app?vid=a80910ab-df31-4c24-94c2-14532eeffbf5"},"vehicle_type_id":"4","last_reported":1745579302,"current_range_meters":3200,"station_id":"ce4bgj92rcd13ifvqbd0","pricing_plan_id":"cebpf4jnsgd1na2vs0mg"},{"bike_id":"cdb3fa9b-1672-4dc3-b4de-3eea4c89c069","system_id":"levelo_inurba_marseille","lat":43.3078,"lon":5.37654,"is_reserved":false,"is_disabled":false,"rental_uris":{"android":"levelo://app?vid=cdb3fa9b-1672-4dc3-b4de-3eea4c89c069","ios":"levelo://app?vid=cdb3fa9b-1672-4dc3-b4de-3eea4c89c069"},"vehicle_type_id":"4","last_reported":1745579302,"current_range_meters":3600,"station_id":"ce4bgv92rcd13ifvqcq0","pricing_plan_id":"cebpf4jnsgd1na2vs0mg"},{"bike_id":"2bb1911e-eaf1-4edc-92a0-2fcbf2e8201d","system_id":"levelo_inurba_marseille","lat":43.28274,"lon":5.35074,"is_reserved":false,"is_disabled":false,"rental_uris":{"android":"levelo://app?vid=2bb1911e-eaf1-4edc-92a0-2fcbf2e8201d","ios":"levelo://app?vid=2bb1911e-eaf1-4edc-92a0-2fcbf2e8201d"},"vehicle_type_id":"4","last_reported":1745579302,"current_range_meters":3600,"station_id":"ce4bhbp2rcd13ifvqerg","pricing_plan_id":"cebpf4jnsgd1na2vs0mg"},{"bike_id":"5b16eb17-ed57-4a23-aac2-2c155ee976fc","system_id":"levelo_inurba_marseille","lat":43.22936,"lon":5.35386,"is_reserved":false,"is_disabled":true,"rental_uris":{"android":"levelo://app?vid=5b16eb17-ed57-4a23-aac2-2c155ee976fc","ios":"levelo://app?vid=5b16eb17-ed57-4a23-aac2-2c155ee976fc"},"vehicle_type_id":"4","last_reported":1745579302,"current_range_meters":3600,"station_id":"cpo3532slgdg3j2ikp40","pricing_plan_id":"cebpf4jnsgd1na2vs0mg"},{"bike_id":"8ee657c2-ecfb-4042-ab0a-62e58d50bb81","system_id":"levelo_inurba_marseille","lat":43.21745,"lon":5.34601,"is_reserved":false,"is_disabled":false,"rental_uris":{"android":"levelo://app?vid=8ee657c2-ecfb-4042-ab0a-62e58d50bb81","ios":"levelo://app?vid=8ee657c2-ecfb-4042-ab0a-62e58d50bb81"},"vehicle_type_id":"4","last_reported":1745579302,"current_range_meters":3600,"station_id":"st_cvj6r9ubvosntc0bgbag","pricing_plan_id":"cebpf4jnsgd1na2vs0mg"},{"bike_id":"a96c4e4a-5d42-4b68-b97d-015dba905fb0","system_id":"levelo_inurba_marseille","lat":43.26958,"lon":5.3863,"is_reserved":false,"is_disabled":false,"rental_uris":{"android":"levelo://app?vid=a96c4e4a-5d42-4b68-b97d-015dba905fb0","ios":"levelo://app?vid=a96c4e4a-5d42-4b68-b97d-015dba905fb0"},"vehicle_type_id":"4","last_reported":1745579302,"current_range_meters":3200,"station_id":"ce4bhh92rcd13ifvqfh0","pricing_plan_id":"cebpf4jnsgd1na2vs0mg"},{"bike_id":"be612a35-7c8f-49e1-b1ca-f5520c024664","system_id":"levelo_inurba_marseille","lat":43.284574,"lon":5.358771,"is_reserved":false,"is_disabled":false,"rental_uris":{"android":"levelo://app?vid=be612a35-7c8f-49e1-b1ca-f5520c024664","ios":"levelo://app?vid=be612a35-7c8f-49e1-b1ca-f5520c024664"},"vehicle_type_id":"4","last_reported":1745579302,"current_range_meters":4000,"station_id":"ce4bhah2rcd13ifvqei0","pricing_plan_id":"cebpf4jnsgd1na2vs0mg"},{"bike_id":"4b8a4d19-de07-493e-8894-05bee7690ffe","system_id":"levelo_inurba_marseille","lat":43.31322,"lon":5.39693,"is_reserved":false,"is_disabled":false,"rental_uris":{"android":"levelo://app?vid=4b8a4d19-de07-493e-8894-05bee7690ffe","ios":"levelo://app?vid=4b8a4d19-de07-493e-8894-05bee7690ffe"},"vehicle_type_id":"4","last_reported":1745579302,"current_range_meters":4000,"station_id":"ce4bgvp2rcd13ifvqcu0","pricing_plan_id":"cebpf4jnsgd1na2vs0mg"},{"bike_id":"adbecc92-8b70-42dd-9a3e-8aff39ecf767","system_id":"levelo_inurba_marseille","lat":43.29621,"lon":5.40576,"is_reserved":false,"is_disabled":false,"rental_uris":{"android":"levelo://app?vid=adbecc92-8b70-42dd-9a3e-8aff39ecf767","ios":"levelo://app?vid=adbecc92-8b70-42dd-9a3e-8aff39ecf767"},"vehicle_type_id":"4","last_reported":1745579302,"current_range_meters":4400,"station_id":"ce4bh0h2rcd13ifvqd60","pricing_plan_id":"cebpf4jnsgd1na2vs0mg"},{"bike_id":"449d6b71-176e-4ab1-9531-b3d5460fc262","system_id":"levelo_inurba_marseille","lat":43.31119,"lon":5.3778,"is_reserved":false,"is_disabled":false,"rental_uris":{"android":"levelo://app?vid=449d6b71-176e-4ab1-9531-b3d5460fc262","ios":"levelo://app?vid=449d6b71-176e-4ab1-9531-b3d5460fc262"},"vehicle_type_id":"4","last_reported":1745579302,"current_range_meters":4400,"station_id":"ce4bgt92rcd13ifvqcg0","pricing_plan_id":"cebpf4jnsgd1na2vs0mg"},{"bike_id":"04de76c4-a1ad-45bf-9e28-7c78bfcbb5c0","system_id":"levelo_inurba_marseille","lat":43.252,"lon":5.37425,"is_reserved":false,"is_disabled":false,"rental_uris":{"android":"levelo://app?vid=04de76c4-a1ad-45bf-9e28-7c78bfcbb5c0","ios":"levelo://app?vid=04de76c4-a1ad-45bf-9e28-7c78bfcbb5c0"},"vehicle_type_id":"4","last_reported":1745579302,"current_range_meters":4400,"station_id":"","pricing_plan_id":"cebpf4jnsgd1na2vs0mg"},{"bike_id":"e481adcb-bc71-4598-b873-6ef3f3f870da","system_id":"levelo_inurba_marseille","lat":43.29217,"lon":5.37372,"is_reserved":false,"is_disabled":false,"rental_uris":{"android":"levelo://app?vid=e481adcb-bc71-4598-b873-6ef3f3f870da","ios":"levelo://app?vid=e481adcb-bc71-4598-b873-6ef3f3f870da"},"vehicle_type_id":"4","last_reported":1745579302,"current_range_meters":4400,"station_id":"","pricing_plan_id":"cebpf4jnsgd1na2vs0mg"},{"bike_id":"85e57ba5-6f5b-4fd7-a5d4-a4ac7e63e789","system_id":"levelo_inurba_marseille","lat":43.2955,"lon":5.3855,"is_reserved":false,"is_disabled":true,"rental_uris":{"android":"levelo://app?vid=85e57ba5-6f5b-4fd7-a5d4-a4ac7e63e789","ios":"levelo://app?vid=85e57ba5-6f5b-4fd7-a5d4-a4ac7e63e789"},"vehicle_type_id":"4","last_reported":1745579302,"current_range_meters":5600,"station_id":"ce4bgih2rcd13ifvqba0","pricing_plan_id":"cebpf4jnsgd1na2vs0mg"},{"bike_id":"b3094e88-ac74-4f57-b096-b0357aadc63b","system_id":"levelo_inurba_marseille","lat":43.23149,"lon":5.43723,"is_reserved":false,"is_disabled":false,"rental_uris":{"android":"levelo://app?vid=b3094e88-ac74-4f57-b096-b0357aadc63b","ios":"levelo://app?vid=b3094e88-ac74-4f57-b096-b0357aadc63b"},"vehicle_type_id":"4","last_reported":1745579302,"current_range_meters":4800,"station_id":"ce4bhmp2rcd13ifvqgog","pricing_plan_id":"cebpf4jnsgd1na2vs0mg"},{"bike_id":"ef2dd97d-a1ad-4167-86f6-e4d7c9cab2e4","system_id":"levelo_inurba_marseille","lat":43.327276,"lon":5.392486,"is_reserved":false,"is_disabled":false,"rental_uris":{"android":"levelo://app?vid=ef2dd97d-a1ad-4167-86f6-e4d7c9cab2e4","ios":"levelo://app?vid=ef2dd97d-a1ad-4167-86f6-e4d7c9cab2e4"},"vehicle_type_id":"4","last_reported":1745579302,"current_range_meters":5600,"station_id":"","pricing_plan_id":"cebpf4jnsgd1na2vs0mg"},{"bike_id":"47c415eb-9c02-4094-bc4c-e5bc6add6cc6","system_id":"levelo_inurba_marseille","lat":43.21191,"lon":5.35082,"is_reserved":false,"is_disabled":false,"rental_uris":{"android":"levelo://app?vid=47c415eb-9c02-4094-bc4c-e5bc6add6cc6","ios":"levelo://app?vid=47c415eb-9c02-4094-bc4c-e5bc6add6cc6"},"vehicle_type_id":"4","last_reported":1745579302,"current_range_meters":5600,"station_id":"st_cvj6sg6p6f1abm77japg","pricing_plan_id":"cebpf4jnsgd1na2vs0mg"},{"bike_id":"a5adf50c-91dd-4c4f-9731-505a1ea8b7e8","system_id":"levelo_inurba_marseille","lat":43.30541,"lon":5.38419,"is_reserved":false,"is_disabled":false,"rental_uris":{"android":"levelo://app?vid=a5adf50c-91dd-4c4f-9731-505a1ea8b7e8","ios":"levelo://app?vid=a5adf50c-91dd-4c4f-9731-505a1ea8b7e8"},"vehicle_type_id":"4","last_reported":1745579302,"current_range_meters":5600,"station_id":"ce4bgg92rcd13ifvqb30","pricing_plan_id":"cebpf4jnsgd1na2vs0mg"},{"bike_id":"3046364d-2e66-4e1e-aa96-0af0939529fb","system_id":"levelo_inurba_marseille","lat":43.33723,"lon":5.39189,"is_reserved":false,"is_disabled":false,"rental_uris":{"android":"levelo://app?vid=3046364d-2e66-4e1e-aa96-0af0939529fb","ios":"levelo://app?vid=3046364d-2e66-4e1e-aa96-0af0939529fb"},"vehicle_type_id":"4","last_reported":1745579302,"current_range_meters":4800,"station_id":"ce4bhr92rcd13ifvqhsg","pricing_plan_id":"cebpf4jnsgd1na2vs0mg"},{"bike_id":"1c442364-a3b8-40b6-9404-00cde11331d3","system_id":"levelo_inurba_marseille","lat":43.25935,"lon":5.40892,"is_reserved":false,"is_disabled":false,"rental_uris":{"android":"levelo://app?vid=1c442364-a3b8-40b6-9404-00cde11331d3","ios":"levelo://app?vid=1c442364-a3b8-40b6-9404-00cde11331d3"},"vehicle_type_id":"4","last_reported":1745579302,"current_range_meters":5600,"station_id":"ce4bhm92rcd13ifvqglg","pricing_plan_id":"cebpf4jnsgd1na2vs0mg"},{"bike_id":"6f99535d-4291-4c4d-99f1-c22d0eb9e1f7","system_id":"levelo_inurba_marseille","lat":43.25927,"lon":5.40912,"is_reserved":false,"is_disabled":false,"rental_uris":{"android":"levelo://app?vid=6f99535d-4291-4c4d-99f1-c22d0eb9e1f7","ios":"levelo://app?vid=6f99535d-4291-4c4d-99f1-c22d0eb9e1f7"},"vehicle_type_id":"4","last_reported":1745579302,"current_range_meters":6000,"station_id":"ce4bhm92rcd13ifvqglg","pricing_plan_id":"cebpf4jnsgd1na2vs0mg"},{"bike_id":"1788b2cf-2a92-4620-ba88-50ab77a8db4a","system_id":"levelo_inurba_marseille","lat":43.304187,"lon":5.412813,"is_reserved":false,"is_disabled":false,"rental_uris":{"android":"levelo://app?vid=1788b2cf-2a92-4620-ba88-50ab77a8db4a","ios":"levelo://app?vid=1788b2cf-2a92-4620-ba88-50ab77a8db4a"},"vehicle_type_id":"4","last_reported":1745579302,"current_range_meters":6000,"station_id":"ce4bhop2rcd13ifvqh8g","pricing_plan_id":"cebpf4jnsgd1na2vs0mg"},{"bike_id":"0ca517cf-e259-4a37-9ddc-b6d69ff5d1b2","system_id":"levelo_inurba_marseille","lat":43.33602,"lon":5.41033,"is_reserved":false,"is_disabled":false,"rental_uris":{"android":"levelo://app?vid=0ca517cf-e259-4a37-9ddc-b6d69ff5d1b2","ios":"levelo://app?vid=0ca517cf-e259-4a37-9ddc-b6d69ff5d1b2"},"vehicle_type_id":"4","last_reported":1745579302,"current_range_meters":6000,"station_id":"ce4bhqh2rcd13ifvqhmg","pricing_plan_id":"cebpf4jnsgd1na2vs0mg"},{"bike_id":"98635f2b-e15d-453d-a28b-b57fac4e7bb3","system_id":"levelo_inurba_marseille","lat":43.28433,"lon":5.34984,"is_reserved":false,"is_disabled":false,"rental_uris":{"android":"levelo://app?vid=98635f2b-e15d-453d-a28b-b57fac4e7bb3","ios":"levelo://app?vid=98635f2b-e15d-453d-a28b-b57fac4e7bb3"},"vehicle_type_id":"4","last_reported":1745579302,"current_range_meters":6400,"station_id":"ce4bhbh2rcd13ifvqepg","pricing_plan_id":"cebpf4jnsgd1na2vs0mg"},{"bike_id":"afa10ca1-b787-4891-8a18-f9d395e25601","system_id":"levelo_inurba_marseille","lat":43.25947,"lon":5.40907,"is_reserved":false,"is_disabled":false,"rental_uris":{"android":"levelo://app?vid=afa10ca1-b787-4891-8a18-f9d395e25601","ios":"levelo://app?vid=afa10ca1-b787-4891-8a18-f9d395e25601"},"vehicle_type_id":"4","last_reported":1745579302,"current_range_meters":6400,"station_id":"ce4bhm92rcd13ifvqglg","pricing_plan_id":"cebpf4jnsgd1na2vs0mg"},{"bike_id":"c1556fb6-2174-43e0-9be5-2034085bf238","system_id":"levelo_inurba_marseille","lat":43.29006,"lon":5.35609,"is_reserved":false,"is_disabled":false,"rental_uris":{"android":"levelo://app?vid=c1556fb6-2174-43e0-9be5-2034085bf238","ios":"levelo://app?vid=c1556fb6-2174-43e0-9be5-2034085bf238"},"vehicle_type_id":"4","last_reported":1745579302,"current_range_meters":6400,"station_id":"ce4bhb92rcd13ifvqen0","pricing_plan_id":"cebpf4jnsgd1na2vs0mg"},{"bike_id":"0cf31928-f83c-4b8a-9ecb-dd127dfae2b1","system_id":"levelo_inurba_marseille","lat":43.217474,"lon":5.34599,"is_reserved":false,"is_disabled":false,"rental_uris":{"android":"levelo://app?vid=0cf31928-f83c-4b8a-9ecb-dd127dfae2b1","ios":"levelo://app?vid=0cf31928-f83c-4b8a-9ecb-dd127dfae2b1"},"vehicle_type_id":"4","last_reported":1745579302,"current_range_meters":6400,"station_id":"st_cvj6r9ubvosntc0bgbag","pricing_plan_id":"cebpf4jnsgd1na2vs0mg"},{"bike_id":"64c83d33-82f8-4913-8852-a3e34555b3eb","system_id":"levelo_inurba_marseille","lat":43.27186,"lon":5.40998,"is_reserved":false,"is_disabled":false,"rental_uris":{"android":"levelo://app?vid=64c83d33-82f8-4913-8852-a3e34555b3eb","ios":"levelo://app?vid=64c83d33-82f8-4913-8852-a3e34555b3eb"},"vehicle_type_id":"4","last_reported":1745579302,"current_range_meters":6400,"station_id":"ce4bhl12rcd13ifvqgf0","pricing_plan_id":"cebpf4jnsgd1na2vs0mg"},{"bike_id":"4ab6bc02-32cf-4c5b-8e00-93978cd7dbda","system_id":"levelo_inurba_marseille","lat":43.34156,"lon":5.40909,"is_reserved":false,"is_disabled":false,"rental_uris":{"android":"levelo://app?vid=4ab6bc02-32cf-4c5b-8e00-93978cd7dbda","ios":"levelo://app?vid=4ab6bc02-32cf-4c5b-8e00-93978cd7dbda"},"vehicle_type_id":"4","last_reported":1745579302,"current_range_meters":6800,"station_id":"ce4bhqh2rcd13ifvqhlg","pricing_plan_id":"cebpf4jnsgd1na2vs0mg"},{"bike_id":"141535cf-fb3b-46b7-aef5-8d6d20a2c722","system_id":"levelo_inurba_marseille","lat":43.2812,"lon":5.378303,"is_reserved":false,"is_disabled":false,"rental_uris":{"android":"levelo://app?vid=141535cf-fb3b-46b7-aef5-8d6d20a2c722","ios":"levelo://app?vid=141535cf-fb3b-46b7-aef5-8d6d20a2c722"},"vehicle_type_id":"4","last_reported":1745579302,"current_range_meters":6800,"station_id":"ce4bha12rcd13ifvqee0","pricing_plan_id":"cebpf4jnsgd1na2vs0mg"},{"bike_id":"f07b3c5b-fd4b-4f93-8a6b-c152845e8f8c","system_id":"levelo_inurba_marseille","lat":43.31999,"lon":5.38169,"is_reserved":false,"is_disabled":false,"rental_uris":{"android":"levelo://app?vid=f07b3c5b-fd4b-4f93-8a6b-c152845e8f8c","ios":"levelo://app?vid=f07b3c5b-fd4b-4f93-8a6b-c152845e8f8c"},"vehicle_type_id":"4","last_reported":1745579302,"current_range_meters":6800,"station_id":"ce4bhr12rcd13ifvqhpg","pricing_plan_id":"cebpf4jnsgd1na2vs0mg"},{"bike_id":"46374c49-3adc-4c5a-8966-e00f056c0d57","system_id":"levelo_inurba_marseille","lat":43.27846,"lon":5.35442,"is_reserved":false,"is_disabled":false,"rental_uris":{"android":"levelo://app?vid=46374c49-3adc-4c5a-8966-e00f056c0d57","ios":"levelo://app?vid=46374c49-3adc-4c5a-8966-e00f056c0d57"},"vehicle_type_id":"4","last_reported":1745579302,"current_range_meters":7200,"station_id":"","pricing_plan_id":"cebpf4jnsgd1na2vs0mg"},{"bike_id":"2d842b7f-431c-481c-96c6-5580cef35b9c","system_id":"levelo_inurba_marseille","lat":43.31365,"lon":5.3849,"is_reserved":false,"is_disabled":false,"rental_uris":{"android":"levelo://app?vid=2d842b7f-431c-481c-96c6-5580cef35b9c","ios":"levelo://app?vid=2d842b7f-431c-481c-96c6-5580cef35b9c"},"vehicle_type_id":"4","last_reported":1745579302,"current_range_meters":7200,"station_id":"ce4bgt92rcd13ifvqcf0","pricing_plan_id":"cebpf4jnsgd1na2vs0mg"},{"bike_id":"9d16ad86-9ee6-430b-bde1-d7870d768403","system_id":"levelo_inurba_marseille","lat":43.25952,"lon":5.40904,"is_reserved":false,"is_disabled":false,"rental_uris":{"android":"levelo://app?vid=9d16ad86-9ee6-430b-bde1-d7870d768403","ios":"levelo://app?vid=9d16ad86-9ee6-430b-bde1-d7870d768403"},"vehicle_type_id":"4","last_reported":1745579302,"current_range_meters":7200,"station_id":"ce4bhm92rcd13ifvqglg","pricing_plan_id":"cebpf4jnsgd1na2vs0mg"},{"bike_id":"9f07d721-db46-4e9e-a4e4-7d2e00dda47b","system_id":"levelo_inurba_marseille","lat":43.255,"lon":5.37647,"is_reserved":false,"is_disabled":false,"rental_uris":{"android":"levelo://app?vid=9f07d721-db46-4e9e-a4e4-7d2e00dda47b","ios":"levelo://app?vid=9f07d721-db46-4e9e-a4e4-7d2e00dda47b"},"vehicle_type_id":"4","last_reported":1745579302,"current_range_meters":7200,"station_id":"ce4bhh12rcd13ifvqff0","pricing_plan_id":"cebpf4jnsgd1na2vs0mg"},{"bike_id":"f587b1ad-8767-42fd-bb98-bdf1bb330f9a","system_id":"levelo_inurba_marseille","lat":43.32382,"lon":5.42095,"is_reserved":false,"is_disabled":false,"rental_uris":{"android":"levelo://app?vid=f587b1ad-8767-42fd-bb98-bdf1bb330f9a","ios":"levelo://app?vid=f587b1ad-8767-42fd-bb98-bdf1bb330f9a"},"vehicle_type_id":"4","last_reported":1745579302,"current_range_meters":7200,"station_id":"","pricing_plan_id":"cebpf4jnsgd1na2vs0mg"},{"bike_id":"318eeea6-fce6-4352-9847-83e801125a11","system_id":"levelo_inurba_marseille","lat":43.27941,"lon":5.41043,"is_reserved":false,"is_disabled":false,"rental_uris":{"android":"levelo://app?vid=318eeea6-fce6-4352-9847-83e801125a11","ios":"levelo://app?vid=318eeea6-fce6-4352-9847-83e801125a11"},"vehicle_type_id":"4","last_reported":1745579302,"current_range_meters":8000,"station_id":"ce4bhnp2rcd13ifvqh0g","pricing_plan_id":"cebpf4jnsgd1na2vs0mg"},{"bike_id":"11d44421-5fa1-4a37-80a0-b6859a143d9b","system_id":"levelo_inurba_marseille","lat":43.26232,"lon":5.40439,"is_reserved":false,"is_disabled":false,"rental_uris":{"android":"levelo://app?vid=11d44421-5fa1-4a37-80a0-b6859a143d9b","ios":"levelo://app?vid=11d44421-5fa1-4a37-80a0-b6859a143d9b"},"vehicle_type_id":"4","last_reported":1745579302,"current_range_meters":8000,"station_id":"ce4bhmh2rcd13ifvqgmg","pricing_plan_id":"cebpf4jnsgd1na2vs0mg"},{"bike_id":"b5e751d9-9f6b-499f-8761-b3be2c8994db","system_id":"levelo_inurba_marseille","lat":43.2175,"lon":5.34599,"is_reserved":false,"is_disabled":false,"rental_uris":{"android":"levelo://app?vid=b5e751d9-9f6b-499f-8761-b3be2c8994db","ios":"levelo://app?vid=b5e751d9-9f6b-499f-8761-b3be2c8994db"},"vehicle_type_id":"4","last_reported":1745579302,"current_range_meters":8000,"station_id":"st_cvj6r9ubvosntc0bgbag","pricing_plan_id":"cebpf4jnsgd1na2vs0mg"},{"bike_id":"8a394953-fc59-42a2-ae5c-ade04897b562","system_id":"levelo_inurba_marseille","lat":43.2416,"lon":5.36398,"is_reserved":false,"is_disabled":false,"rental_uris":{"android":"levelo://app?vid=8a394953-fc59-42a2-ae5c-ade04897b562","ios":"levelo://app?vid=8a394953-fc59-42a2-ae5c-ade04897b562"},"vehicle_type_id":"4","last_reported":1745579302,"current_range_meters":8400,"station_id":"cpo36qri1sfpv3e86is0","pricing_plan_id":"cebpf4jnsgd1na2vs0mg"},{"bike_id":"f61f9b03-e055-47b7-9cda-da22b923ec7e","system_id":"levelo_inurba_marseille","lat":43.25956,"lon":5.40872,"is_reserved":false,"is_disabled":false,"rental_uris":{"android":"levelo://app?vid=f61f9b03-e055-47b7-9cda-da22b923ec7e","ios":"levelo://app?vid=f61f9b03-e055-47b7-9cda-da22b923ec7e"},"vehicle_type_id":"4","last_reported":1745579302,"current_range_meters":8400,"station_id":"ce4bhm92rcd13ifvqglg","pricing_plan_id":"cebpf4jnsgd1na2vs0mg"},{"bike_id":"9d26a552-be18-43ca-9f92-24425e04ca5f","system_id":"levelo_inurba_marseille","lat":43.29268,"lon":5.38442,"is_reserved":false,"is_disabled":false,"rental_uris":{"android":"levelo://app?vid=9d26a552-be18-43ca-9f92-24425e04ca5f","ios":"levelo://app?vid=9d26a552-be18-43ca-9f92-24425e04ca5f"},"vehicle_type_id":"4","last_reported":1745579302,"current_range_meters":8400,"station_id":"ce4bh692rcd13ifvqea0","pricing_plan_id":"cebpf4jnsgd1na2vs0mg"},{"bike_id":"e44bff3a-f0ae-4272-a09a-befccfb9d0d2","system_id":"levelo_inurba_marseille","lat":43.27938,"lon":5.4105,"is_reserved":false,"is_disabled":false,"rental_uris":{"android":"levelo://app?vid=e44bff3a-f0ae-4272-a09a-befccfb9d0d2","ios":"levelo://app?vid=e44bff3a-f0ae-4272-a09a-befccfb9d0d2"},"vehicle_type_id":"4","last_reported":1745579302,"current_range_meters":8400,"station_id":"ce4bhnp2rcd13ifvqh0g","pricing_plan_id":"cebpf4jnsgd1na2vs0mg"},{"bike_id":"fa08c917-15f0-46bf-9b4b-3ce0e752e62f","system_id":"levelo_inurba_marseille","lat":43.33445,"lon":5.4004,"is_reserved":false,"is_disabled":false,"rental_uris":{"android":"levelo://app?vid=fa08c917-15f0-46bf-9b4b-3ce0e752e62f","ios":"levelo://app?vid=fa08c917-15f0-46bf-9b4b-3ce0e752e62f"},"vehicle_type_id":"4","last_reported":1745579302,"current_range_meters":8400,"station_id":"","pricing_plan_id":"cebpf4jnsgd1na2vs0mg"},{"bike_id":"d29b4da1-f1e1-49e7-9d9f-430d38c6da41","system_id":"levelo_inurba_marseille","lat":43.28151,"lon":5.42654,"is_reserved":false,"is_disabled":false,"rental_uris":{"android":"levelo://app?vid=d29b4da1-f1e1-49e7-9d9f-430d38c6da41","ios":"levelo://app?vid=d29b4da1-f1e1-49e7-9d9f-430d38c6da41"},"vehicle_type_id":"4","last_reported":1745579302,"current_range_meters":8400,"station_id":"ce4bhnh2rcd13ifvqgug","pricing_plan_id":"cebpf4jnsgd1na2vs0mg"},{"bike_id":"60ee52f6-3432-4a14-b3b4-c3acf981d864","system_id":"levelo_inurba_marseille","lat":43.2175,"lon":5.34605,"is_reserved":false,"is_disabled":false,"rental_uris":{"android":"levelo://app?vid=60ee52f6-3432-4a14-b3b4-c3acf981d864","ios":"levelo://app?vid=60ee52f6-3432-4a14-b3b4-c3acf981d864"},"vehicle_type_id":"4","last_reported":1745579302,"current_range_meters":8800,"station_id":"st_cvj6r9ubvosntc0bgbag","pricing_plan_id":"cebpf4jnsgd1na2vs0mg"},{"bike_id":"e52b8da7-98f9-4e55-a025-10dea4c1f453","system_id":"levelo_inurba_marseille","lat":43.25963,"lon":5.40897,"is_reserved":false,"is_disabled":false,"rental_uris":{"android":"levelo://app?vid=e52b8da7-98f9-4e55-a025-10dea4c1f453","ios":"levelo://app?vid=e52b8da7-98f9-4e55-a025-10dea4c1f453"},"vehicle_type_id":"4","last_reported":1745579302,"current_range_meters":8800,"station_id":"ce4bhm92rcd13ifvqglg","pricing_plan_id":"cebpf4jnsgd1na2vs0mg"},{"bike_id":"d54ef0f7-9ac7-4dc7-af22-0d437d9b8e0b","system_id":"levelo_inurba_marseille","lat":43.21197,"lon":5.35076,"is_reserved":false,"is_disabled":false,"rental_uris":{"android":"levelo://app?vid=d54ef0f7-9ac7-4dc7-af22-0d437d9b8e0b","ios":"levelo://app?vid=d54ef0f7-9ac7-4dc7-af22-0d437d9b8e0b"},"vehicle_type_id":"4","last_reported":1745579302,"current_range_meters":8800,"station_id":"st_cvj6sg6p6f1abm77japg","pricing_plan_id":"cebpf4jnsgd1na2vs0mg"},{"bike_id":"1c762556-d1a5-47cf-8b55-79517f258d48","system_id":"levelo_inurba_marseille","lat":43.21185,"lon":5.35071,"is_reserved":false,"is_disabled":false,"rental_uris":{"android":"levelo://app?vid=1c762556-d1a5-47cf-8b55-79517f258d48","ios":"levelo://app?vid=1c762556-d1a5-47cf-8b55-79517f258d48"},"vehicle_type_id":"4","last_reported":1745579302,"current_range_meters":8800,"station_id":"st_cvj6sg6p6f1abm77japg","pricing_plan_id":"cebpf4jnsgd1na2vs0mg"},{"bike_id":"ab49b0ae-90ee-4214-bbd8-e0867a6763e8","system_id":"levelo_inurba_marseille","lat":43.31255,"lon":5.37167,"is_reserved":false,"is_disabled":false,"rental_uris":{"android":"levelo://app?vid=ab49b0ae-90ee-4214-bbd8-e0867a6763e8","ios":"levelo://app?vid=ab49b0ae-90ee-4214-bbd8-e0867a6763e8"},"vehicle_type_id":"4","last_reported":1745579302,"current_range_meters":9200,"station_id":"","pricing_plan_id":"cebpf4jnsgd1na2vs0mg"},{"bike_id":"9fb3a4bb-0757-481c-b76d-4597fc59581f","system_id":"levelo_inurba_marseille","lat":43.23195,"lon":5.35554,"is_reserved":false,"is_disabled":false,"rental_uris":{"android":"levelo://app?vid=9fb3a4bb-0757-481c-b76d-4597fc59581f","ios":"levelo://app?vid=9fb3a4bb-0757-481c-b76d-4597fc59581f"},"vehicle_type_id":"4","last_reported":1745579302,"current_range_meters":9200,"station_id":"ce4bhu92rcd13ifvqi70","pricing_plan_id":"cebpf4jnsgd1na2vs0mg"},{"bike_id":"fc5c9f0f-d320-4979-908f-3ebff9c0d6bf","system_id":"levelo_inurba_marseille","lat":43.28665,"lon":5.36344,"is_reserved":false,"is_disabled":false,"rental_uris":{"android":"levelo://app?vid=fc5c9f0f-d320-4979-908f-3ebff9c0d6bf","ios":"levelo://app?vid=fc5c9f0f-d320-4979-908f-3ebff9c0d6bf"},"vehicle_type_id":"4","last_reported":1745579302,"current_range_meters":8800,"station_id":"ce4bhah2rcd13ifvqej0","pricing_plan_id":"cebpf4jnsgd1na2vs0mg"},{"bike_id":"8487dc80-bcb4-4f80-aa2c-b27a7f3baedc","system_id":"levelo_inurba_marseille","lat":43.28263,"lon":5.35072,"is_reserved":false,"is_disabled":false,"rental_uris":{"android":"levelo://app?vid=8487dc80-bcb4-4f80-aa2c-b27a7f3baedc","ios":"levelo://app?vid=8487dc80-bcb4-4f80-aa2c-b27a7f3baedc"},"vehicle_type_id":"4","last_reported":1745579302,"current_range_meters":9200,"station_id":"ce4bhbp2rcd13ifvqerg","pricing_plan_id":"cebpf4jnsgd1na2vs0mg"},{"bike_id":"d4a8fafa-88a7-48bf-b5a7-839e5bc03db8","system_id":"levelo_inurba_marseille","lat":43.25029,"lon":5.38913,"is_reserved":false,"is_disabled":false,"rental_uris":{"android":"levelo://app?vid=d4a8fafa-88a7-48bf-b5a7-839e5bc03db8","ios":"levelo://app?vid=d4a8fafa-88a7-48bf-b5a7-839e5bc03db8"},"vehicle_type_id":"4","last_reported":1745579302,"current_range_meters":9200,"station_id":"ce4bhgp2rcd13ifvqfd0","pricing_plan_id":"cebpf4jnsgd1na2vs0mg"},{"bike_id":"b532ec8b-5746-4b27-a198-2e2e9a9f3b7a","system_id":"levelo_inurba_marseille","lat":43.26229,"lon":5.40452,"is_reserved":false,"is_disabled":false,"rental_uris":{"android":"levelo://app?vid=b532ec8b-5746-4b27-a198-2e2e9a9f3b7a","ios":"levelo://app?vid=b532ec8b-5746-4b27-a198-2e2e9a9f3b7a"},"vehicle_type_id":"4","last_reported":1745579302,"current_range_meters":9200,"station_id":"ce4bhmh2rcd13ifvqgmg","pricing_plan_id":"cebpf4jnsgd1na2vs0mg"},{"bike_id":"bcde3a77-f9c9-48b7-8b13-643a2426b61d","system_id":"levelo_inurba_marseille","lat":43.240417,"lon":5.377558,"is_reserved":false,"is_disabled":false,"rental_uris":{"android":"levelo://app?vid=bcde3a77-f9c9-48b7-8b13-643a2426b61d","ios":"levelo://app?vid=bcde3a77-f9c9-48b7-8b13-643a2426b61d"},"vehicle_type_id":"4","last_reported":1745579302,"current_range_meters":9600,"station_id":"ce4bhah2rcd13ifvqei0","pricing_plan_id":"cebpf4jnsgd1na2vs0mg"},{"bike_id":"4c3df368-95c0-4c68-8737-041a42223f48","system_id":"levelo_inurba_marseille","lat":43.29015,"lon":5.35606,"is_reserved":false,"is_disabled":false,"rental_uris":{"android":"levelo://app?vid=4c3df368-95c0-4c68-8737-041a42223f48","ios":"levelo://app?vid=4c3df368-95c0-4c68-8737-041a42223f48"},"vehicle_type_id":"4","last_reported":1745579302,"current_range_meters":9600,"station_id":"ce4bhb92rcd13ifvqen0","pricing_plan_id":"cebpf4jnsgd1na2vs0mg"},{"bike_id":"8b573d2f-772d-469a-8450-2d95d27db105","system_id":"levelo_inurba_marseille","lat":43.30433,"lon":5.38887,"is_reserved":false,"is_disabled":false,"rental_uris":{"android":"levelo://app?vid=8b573d2f-772d-469a-8450-2d95d27db105","ios":"levelo://app?vid=8b573d2f-772d-469a-8450-2d95d27db105"},"vehicle_type_id":"4","last_reported":1745579302,"current_range_meters":9600,"station_id":"ce4bgk12rcd13ifvqbi0","pricing_plan_id":"cebpf4jnsgd1na2vs0mg"},{"bike_id":"80f2d9b1-fd61-476e-8f91-e5ab3022e388","system_id":"levelo_inurba_marseille","lat":43.28614,"lon":5.35104,"is_reserved":false,"is_disabled":false,"rental_uris":{"android":"levelo://app?vid=80f2d9b1-fd61-476e-8f91-e5ab3022e388","ios":"levelo://app?vid=80f2d9b1-fd61-476e-8f91-e5ab3022e388"},"vehicle_type_id":"4","last_reported":1745579302,"current_range_meters":9600,"station_id":"ce4bhch2rcd13ifvqeug","pricing_plan_id":"cebpf4jnsgd1na2vs0mg"},{"bike_id":"cfa34a75-efec-4eb8-a020-77feca0ad5e2","system_id":"levelo_inurba_marseille","lat":43.212,"lon":5.35072,"is_reserved":false,"is_disabled":false,"rental_uris":{"android":"levelo://app?vid=cfa34a75-efec-4eb8-a020-77feca0ad5e2","ios":"levelo://app?vid=cfa34a75-efec-4eb8-a020-77feca0ad5e2"},"vehicle_type_id":"4","last_reported":1745579302,"current_range_meters":9600,"station_id":"st_cvj6sg6p6f1abm77japg","pricing_plan_id":"cebpf4jnsgd1na2vs0mg"},{"bike_id":"7e4bd984-2532-4a31-b1fe-f26dd9b43dd4","system_id":"levelo_inurba_marseille","lat":43.25086,"lon":5.39519,"is_reserved":false,"is_disabled":false,"rental_uris":{"android":"levelo://app?vid=7e4bd984-2532-4a31-b1fe-f26dd9b43dd4","ios":"levelo://app?vid=7e4bd984-2532-4a31-b1fe-f26dd9b43dd4"},"vehicle_type_id":"4","last_reported":1745579302,"current_range_meters":9200,"station_id":"ce4bhm12rcd13ifvqgkg","pricing_plan_id":"cebpf4jnsgd1na2vs0mg"},{"bike_id":"9198cc87-fd2d-4173-828c-038624deb410","system_id":"levelo_inurba_marseille","lat":43.23178,"lon":5.39988,"is_reserved":false,"is_disabled":false,"rental_uris":{"android":"levelo://app?vid=9198cc87-fd2d-4173-828c-038624deb410","ios":"levelo://app?vid=9198cc87-fd2d-4173-828c-038624deb410"},"vehicle_type_id":"4","last_reported":1745579302,"current_range_meters":9600,"station_id":"ce4bhn12rcd13ifvqgqg","pricing_plan_id":"cebpf4jnsgd1na2vs0mg"},{"bike_id":"b1288da2-6a65-44a2-b3cb-535de8427b1c","system_id":"levelo_inurba_marseille","lat":43.31374,"lon":5.3668,"is_reserved":false,"is_disabled":true,"rental_uris":{"android":"levelo://app?vid=b1288da2-6a65-44a2-b3cb-535de8427b1c","ios":"levelo://app?vid=b1288da2-6a65-44a2-b3cb-535de8427b1c"},"vehicle_type_id":"4","last_reported":1745579302,"current_range_meters":9600,"station_id":"ce4bgr92rcd13ifvqc6g","pricing_plan_id":"cebpf4jnsgd1na2vs0mg"},{"bike_id":"abd9a812-ecbe-4bd8-93f7-6a7ae5138b97","system_id":"levelo_inurba_marseille","lat":43.32483,"lon":5.36573,"is_reserved":false,"is_disabled":false,"rental_uris":{"android":"levelo://app?vid=abd9a812-ecbe-4bd8-93f7-6a7ae5138b97","ios":"levelo://app?vid=abd9a812-ecbe-4bd8-93f7-6a7ae5138b97"},"vehicle_type_id":"4","last_reported":1745579302,"current_range_meters":9600,"station_id":"ce4bhs12rcd13ifvqhvg","pricing_plan_id":"cebpf4jnsgd1na2vs0mg"},{"bike_id":"53d0a9a9-20a9-487e-893c-b675a9c66550","system_id":"levelo_inurba_marseille","lat":43.241695,"lon":5.363994,"is_reserved":false,"is_disabled":false,"rental_uris":{"android":"levelo://app?vid=53d0a9a9-20a9-487e-893c-b675a9c66550","ios":"levelo://app?vid=53d0a9a9-20a9-487e-893c-b675a9c66550"},"vehicle_type_id":"4","last_reported":1745579302,"current_range_meters":9600,"station_id":"cpo36qri1sfpv3e86is0","pricing_plan_id":"cebpf4jnsgd1na2vs0mg"},{"bike_id":"2006ed2b-d42d-41d3-a4ce-14c6a09a99ee","system_id":"levelo_inurba_marseille","lat":43.275579,"lon":5.384408,"is_reserved":false,"is_disabled":false,"rental_uris":{"android":"levelo://app?vid=2006ed2b-d42d-41d3-a4ce-14c6a09a99ee","ios":"levelo://app?vid=2006ed2b-d42d-41d3-a4ce-14c6a09a99ee"},"vehicle_type_id":"4","last_reported":1745579302,"current_range_meters":9600,"station_id":"ce4bhh92rcd13ifvqfi0","pricing_plan_id":"cebpf4jnsgd1na2vs0mg"},{"bike_id":"7f10aad4-e76e-4c34-ba19-69a3e61cf09d","system_id":"levelo_inurba_marseille","lat":43.26215,"lon":5.37442,"is_reserved":false,"is_disabled":false,"rental_uris":{"android":"levelo://app?vid=7f10aad4-e76e-4c34-ba19-69a3e61cf09d","ios":"levelo://app?vid=7f10aad4-e76e-4c34-ba19-69a3e61cf09d"},"vehicle_type_id":"4","last_reported":1745579302,"current_range_meters":9600,"station_id":"ce4bhgp2rcd13ifvqfc0","pricing_plan_id":"cebpf4jnsgd1na2vs0mg"},{"bike_id":"df4bf57e-1775-40b2-994e-c9e7063ca69e","system_id":"levelo_inurba_marseille","lat":43.26811,"lon":5.40255,"is_reserved":false,"is_disabled":false,"rental_uris":{"android":"levelo://app?vid=df4bf57e-1775-40b2-994e-c9e7063ca69e","ios":"levelo://app?vid=df4bf57e-1775-40b2-994e-c9e7063ca69e"},"vehicle_type_id":"4","last_reported":1745579302,"current_range_meters":10000,"station_id":"ce501612rcd8frsf0b60","pricing_plan_id":"cebpf4jnsgd1na2vs0mg"},{"bike_id":"563f52b1-bda7-4507-8551-038b1770ff16","system_id":"levelo_inurba_marseille","lat":43.2657,"lon":5.39012,"is_reserved":false,"is_disabled":false,"rental_uris":{"android":"levelo://app?vid=563f52b1-bda7-4507-8551-038b1770ff16","ios":"levelo://app?vid=563f52b1-bda7-4507-8551-038b1770ff16"},"vehicle_type_id":"4","last_reported":1745579302,"current_range_meters":10000,"station_id":"ce4bhe12rcd13ifvqf30","pricing_plan_id":"cebpf4jnsgd1na2vs0mg"},{"bike_id":"2ad3d484-29d7-43e6-ae1e-715e06f0a282","system_id":"levelo_inurba_marseille","lat":43.2827,"lon":5.35072,"is_reserved":false,"is_disabled":false,"rental_uris":{"android":"levelo://app?vid=2ad3d484-29d7-43e6-ae1e-715e06f0a282","ios":"levelo://app?vid=2ad3d484-29d7-43e6-ae1e-715e06f0a282"},"vehicle_type_id":"4","last_reported":1745579302,"current_range_meters":10000,"station_id":"ce4bhbp2rcd13ifvqerg","pricing_plan_id":"cebpf4jnsgd1na2vs0mg"},{"bike_id":"4644ef52-9b68-4faa-a5c5-8aabaa51b2cd","system_id":"levelo_inurba_marseille","lat":43.30213,"lon":5.39471,"is_reserved":false,"is_disabled":false,"rental_uris":{"android":"levelo://app?vid=4644ef52-9b68-4faa-a5c5-8aabaa51b2cd","ios":"levelo://app?vid=4644ef52-9b68-4faa-a5c5-8aabaa51b2cd"},"vehicle_type_id":"4","last_reported":1745579302,"current_range_meters":10000,"station_id":"ce4bh0p2rcd13ifvqd70","pricing_plan_id":"cebpf4jnsgd1na2vs0mg"},{"bike_id":"6cbf404f-ae9c-4e1d-a43a-5963f29203d8","system_id":"levelo_inurba_marseille","lat":43.25819,"lon":5.39438,"is_reserved":false,"is_disabled":false,"rental_uris":{"android":"levelo://app?vid=6cbf404f-ae9c-4e1d-a43a-5963f29203d8","ios":"levelo://app?vid=6cbf404f-ae9c-4e1d-a43a-5963f29203d8"},"vehicle_type_id":"4","last_reported":1745579302,"current_range_meters":10000,"station_id":"ce4bhip2rcd13ifvqft0","pricing_plan_id":"cebpf4jnsgd1na2vs0mg"},{"bike_id":"7cdfc555-02ed-4279-9721-178636260577","system_id":"levelo_inurba_marseille","lat":43.31549,"lon":5.38055,"is_reserved":false,"is_disabled":false,"rental_uris":{"android":"levelo://app?vid=7cdfc555-02ed-4279-9721-178636260577","ios":"levelo://app?vid=7cdfc555-02ed-4279-9721-178636260577"},"vehicle_type_id":"4","last_reported":1745579302,"current_range_meters":10800,"station_id":"ce4bhsp2rcd13ifvqi50","pricing_plan_id":"cebpf4jnsgd1na2vs0mg"},{"bike_id":"5155b214-8852-41cd-9338-874fb2bc45ae","system_id":"levelo_inurba_marseille","lat":43.28095,"lon":5.3563,"is_reserved":false,"is_disabled":false,"rental_uris":{"android":"levelo://app?vid=5155b214-8852-41cd-9338-874fb2bc45ae","ios":"levelo://app?vid=5155b214-8852-41cd-9338-874fb2bc45ae"},"vehicle_type_id":"4","last_reported":1745579302,"current_range_meters":10800,"station_id":"","pricing_plan_id":"cebpf4jnsgd1na2vs0mg"},{"bike_id":"4da82ac5-83fe-462e-b2ef-028dfdeb2bbc","system_id":"levelo_inurba_marseille","lat":43.21753,"lon":5.34605,"is_reserved":false,"is_disabled":false,"rental_uris":{"android":"levelo://app?vid=4da82ac5-83fe-462e-b2ef-028dfdeb2bbc","ios":"levelo://app?vid=4da82ac5-83fe-462e-b2ef-028dfdeb2bbc"},"vehicle_type_id":"4","last_reported":1745579302,"current_range_meters":10800,"station_id":"st_cvj6r9ubvosntc0bgbag","pricing_plan_id":"cebpf4jnsgd1na2vs0mg"},{"bike_id":"f6065fff-a009-49cc-a853-3e7c30edfa96","system_id":"levelo_inurba_marseille","lat":43.30331,"lon":5.40435,"is_reserved":false,"is_disabled":false,"rental_uris":{"android":"levelo://app?vid=f6065fff-a009-49cc-a853-3e7c30edfa96","ios":"levelo://app?vid=f6065fff-a009-49cc-a853-3e7c30edfa96"},"vehicle_type_id":"4","last_reported":1745579302,"current_range_meters":10800,"station_id":"ce4bh012rcd13ifvqd10","pricing_plan_id":"cebpf4jnsgd1na2vs0mg"},{"bike_id":"ff790075-f7bf-4f56-9ccf-1b0e80f70243","system_id":"levelo_inurba_marseille","lat":43.284102,"lon":5.349732,"is_reserved":false,"is_disabled":false,"rental_uris":{"android":"levelo://app?vid=ff790075-f7bf-4f56-9ccf-1b0e80f70243","ios":"levelo://app?vid=ff790075-f7bf-4f56-9ccf-1b0e80f70243"},"vehicle_type_id":"4","last_reported":1745579302,"current_range_meters":10800,"station_id":"ce4bh4p2rcd13ifvqe1g","pricing_plan_id":"cebpf4jnsgd1na2vs0mg"},{"bike_id":"05478e01-3d9a-48a1-ba7c-fcc8b81dfe26","system_id":"levelo_inurba_marseille","lat":43.29553,"lon":5.422837,"is_reserved":false,"is_disabled":false,"rental_uris":{"android":"levelo://app?vid=05478e01-3d9a-48a1-ba7c-fcc8b81dfe26","ios":"levelo://app?vid=05478e01-3d9a-48a1-ba7c-fcc8b81dfe26"},"vehicle_type_id":"4","last_reported":1745579302,"current_range_meters":11200,"station_id":"ce4bhph2rcd13ifvqhdg","pricing_plan_id":"cebpf4jnsgd1na2vs0mg"},{"bike_id":"73b22bf7-cc99-439d-8e0f-d11cda8459c9","system_id":"levelo_inurba_marseille","lat":43.341381,"lon":5.408995,"is_reserved":false,"is_disabled":false,"rental_uris":{"android":"levelo://app?vid=73b22bf7-cc99-439d-8e0f-d11cda8459c9","ios":"levelo://app?vid=73b22bf7-cc99-439d-8e0f-d11cda8459c9"},"vehicle_type_id":"4","last_reported":1745579302,"current_range_meters":11200,"station_id":"ce4bhq92rcd13ifvqhkg","pricing_plan_id":"cebpf4jnsgd1na2vs0mg"},{"bike_id":"5c8dde23-03af-4ec7-8c64-b6a7b95cfa5a","system_id":"levelo_inurba_marseille","lat":43.33732,"lon":5.39165,"is_reserved":false,"is_disabled":false,"rental_uris":{"android":"levelo://app?vid=5c8dde23-03af-4ec7-8c64-b6a7b95cfa5a","ios":"levelo://app?vid=5c8dde23-03af-4ec7-8c64-b6a7b95cfa5a"},"vehicle_type_id":"4","last_reported":1745579302,"current_range_meters":11600,"station_id":"ce4bhr92rcd13ifvqhsg","pricing_plan_id":"cebpf4jnsgd1na2vs0mg"},{"bike_id":"bd95f0bb-c5b1-4d5c-837c-b505e5069d47","system_id":"levelo_inurba_marseille","lat":43.33244,"lon":5.39828,"is_reserved":false,"is_disabled":false,"rental_uris":{"android":"levelo://app?vid=bd95f0bb-c5b1-4d5c-837c-b505e5069d47","ios":"levelo://app?vid=bd95f0bb-c5b1-4d5c-837c-b505e5069d47"},"vehicle_type_id":"4","last_reported":1745579302,"current_range_meters":11600,"station_id":"","pricing_plan_id":"cebpf4jnsgd1na2vs0mg"},{"bike_id":"ef5691fb-122c-44ee-8891-10ad02913061","system_id":"levelo_inurba_marseille","lat":43.24802,"lon":5.37454,"is_reserved":false,"is_disabled":false,"rental_uris":{"android":"levelo://app?vid=ef5691fb-122c-44ee-8891-10ad02913061","ios":"levelo://app?vid=ef5691fb-122c-44ee-8891-10ad02913061"},"vehicle_type_id":"4","last_reported":1745579302,"current_range_meters":12000,"station_id":"ce4bhgh2rcd13ifvqfb0","pricing_plan_id":"cebpf4jnsgd1na2vs0mg"},{"bike_id":"47882486-d9bd-4943-b51b-bd7f5756b2e4","system_id":"levelo_inurba_marseille","lat":43.27175,"lon":5.40992,"is_reserved":false,"is_disabled":false,"rental_uris":{"android":"levelo://app?vid=47882486-d9bd-4943-b51b-bd7f5756b2e4","ios":"levelo://app?vid=47882486-d9bd-4943-b51b-bd7f5756b2e4"},"vehicle_type_id":"4","last_reported":1745579302,"current_range_meters":12000,"station_id":"ce4bhl12rcd13ifvqgf0","pricing_plan_id":"cebpf4jnsgd1na2vs0mg"},{"bike_id":"2bcccb43-69dd-44e4-8a75-02e465a1f932","system_id":"levelo_inurba_marseille","lat":43.28268,"lon":5.35055,"is_reserved":false,"is_disabled":false,"rental_uris":{"android":"levelo://app?vid=2bcccb43-69dd-44e4-8a75-02e465a1f932","ios":"levelo://app?vid=2bcccb43-69dd-44e4-8a75-02e465a1f932"},"vehicle_type_id":"4","last_reported":1745579302,"current_range_meters":12000,"station_id":"ce4bhbp2rcd13ifvqerg","pricing_plan_id":"cebpf4jnsgd1na2vs0mg"},{"bike_id":"2aa1401a-2703-4a34-aefd-a8acc7722329","system_id":"levelo_inurba_marseille","lat":43.28156,"lon":5.42644,"is_reserved":false,"is_disabled":false,"rental_uris":{"android":"levelo://app?vid=2aa1401a-2703-4a34-aefd-a8acc7722329","ios":"levelo://app?vid=2aa1401a-2703-4a34-aefd-a8acc7722329"},"vehicle_type_id":"4","last_reported":1745579302,"current_range_meters":12400,"station_id":"ce4bhnh2rcd13ifvqgug","pricing_plan_id":"cebpf4jnsgd1na2vs0mg"},{"bike_id":"75dace6d-f90e-4e3a-b6aa-219421dcc8bd","system_id":"levelo_inurba_marseille","lat":43.30147,"lon":5.37419,"is_reserved":false,"is_disabled":false,"rental_uris":{"android":"levelo://app?vid=75dace6d-f90e-4e3a-b6aa-219421dcc8bd","ios":"levelo://app?vid=75dace6d-f90e-4e3a-b6aa-219421dcc8bd"},"vehicle_type_id":"4","last_reported":1745579302,"current_range_meters":12000,"station_id":"ce4bgs92rcd13ifvqcc0","pricing_plan_id":"cebpf4jnsgd1na2vs0mg"},{"bike_id":"9e64f319-26b0-4f6f-9b8a-9a3d38822490","system_id":"levelo_inurba_marseille","lat":43.29014,"lon":5.35607,"is_reserved":false,"is_disabled":false,"rental_uris":{"android":"levelo://app?vid=9e64f319-26b0-4f6f-9b8a-9a3d38822490","ios":"levelo://app?vid=9e64f319-26b0-4f6f-9b8a-9a3d38822490"},"vehicle_type_id":"4","last_reported":1745579302,"current_range_meters":12800,"station_id":"ce4bhb92rcd13ifvqen0","pricing_plan_id":"cebpf4jnsgd1na2vs0mg"},{"bike_id":"24f8dda4-2bd5-407d-98fc-c9e044f6185f","system_id":"levelo_inurba_marseille","lat":43.3361,"lon":5.41031,"is_reserved":false,"is_disabled":false,"rental_uris":{"android":"levelo://app?vid=24f8dda4-2bd5-407d-98fc-c9e044f6185f","ios":"levelo://app?vid=24f8dda4-2bd5-407d-98fc-c9e044f6185f"},"vehicle_type_id":"4","last_reported":1745579302,"current_range_meters":12800,"station_id":"ce4bhqh2rcd13ifvqhmg","pricing_plan_id":"cebpf4jnsgd1na2vs0mg"},{"bike_id":"2cc49b22-90ed-40b7-8f38-e015facc8413","system_id":"levelo_inurba_marseille","lat":43.29896,"lon":5.43655,"is_reserved":false,"is_disabled":false,"rental_uris":{"android":"levelo://app?vid=2cc49b22-90ed-40b7-8f38-e015facc8413","ios":"levelo://app?vid=2cc49b22-90ed-40b7-8f38-e015facc8413"},"vehicle_type_id":"4","last_reported":1745579302,"current_range_meters":12800,"station_id":"ce4bhpp2rcd13ifvqhfg","pricing_plan_id":"cebpf4jnsgd1na2vs0mg"},{"bike_id":"6c18c0f5-85de-4b18-a1a9-5d893ce30a6b","system_id":"levelo_inurba_marseille","lat":43.28273,"lon":5.35067,"is_reserved":false,"is_disabled":false,"rental_uris":{"android":"levelo://app?vid=6c18c0f5-85de-4b18-a1a9-5d893ce30a6b","ios":"levelo://app?vid=6c18c0f5-85de-4b18-a1a9-5d893ce30a6b"},"vehicle_type_id":"4","last_reported":1745579302,"current_range_meters":12800,"station_id":"ce4bhbp2rcd13ifvqerg","pricing_plan_id":"cebpf4jnsgd1na2vs0mg"},{"bike_id":"00dd4008-b8cd-459b-8f24-a4218f6e8179","system_id":"levelo_inurba_marseille","lat":43.23194,"lon":5.355633,"is_reserved":false,"is_disabled":false,"rental_uris":{"android":"levelo://app?vid=00dd4008-b8cd-459b-8f24-a4218f6e8179","ios":"levelo://app?vid=00dd4008-b8cd-459b-8f24-a4218f6e8179"},"vehicle_type_id":"4","last_reported":1745579302,"current_range_meters":13600,"station_id":"ce4bhu92rcd13ifvqi70","pricing_plan_id":"cebpf4jnsgd1na2vs0mg"},{"bike_id":"e9b40b8c-aa8b-493b-9704-ac204b4fdb74","system_id":"levelo_inurba_marseille","lat":43.22503,"lon":5.34785,"is_reserved":false,"is_disabled":false,"rental_uris":{"android":"levelo://app?vid=e9b40b8c-aa8b-493b-9704-ac204b4fdb74","ios":"levelo://app?vid=e9b40b8c-aa8b-493b-9704-ac204b4fdb74"},"vehicle_type_id":"4","last_reported":1745579302,"current_range_meters":13600,"station_id":"st_cvj5dfep6f1abm77gieg","pricing_plan_id":"cebpf4jnsgd1na2vs0mg"},{"bike_id":"b5106cbb-0a5f-4a98-b667-39be60bc6f8b","system_id":"levelo_inurba_marseille","lat":43.262272,"lon":5.374269,"is_reserved":false,"is_disabled":false,"rental_uris":{"android":"levelo://app?vid=b5106cbb-0a5f-4a98-b667-39be60bc6f8b","ios":"levelo://app?vid=b5106cbb-0a5f-4a98-b667-39be60bc6f8b"},"vehicle_type_id":"4","last_reported":1745579302,"current_range_meters":13600,"station_id":"ce4bhgp2rcd13ifvqfc0","pricing_plan_id":"cebpf4jnsgd1na2vs0mg"},{"bike_id":"b45a9799-9cf2-4a38-bd08-d5840a31171e","system_id":"levelo_inurba_marseille","lat":43.28841,"lon":5.39321,"is_reserved":false,"is_disabled":false,"rental_uris":{"android":"levelo://app?vid=b45a9799-9cf2-4a38-bd08-d5840a31171e","ios":"levelo://app?vid=b45a9799-9cf2-4a38-bd08-d5840a31171e"},"vehicle_type_id":"4","last_reported":1745579302,"current_range_meters":13600,"station_id":"ce4bh2p2rcd13ifvqdi0","pricing_plan_id":"cebpf4jnsgd1na2vs0mg"},{"bike_id":"071c1165-d0c3-4152-8608-afc3b64c18ee","system_id":"levelo_inurba_marseille","lat":43.212548,"lon":5.350142,"is_reserved":false,"is_disabled":false,"rental_uris":{"android":"levelo://app?vid=071c1165-d0c3-4152-8608-afc3b64c18ee","ios":"levelo://app?vid=071c1165-d0c3-4152-8608-afc3b64c18ee"},"vehicle_type_id":"4","last_reported":1745579302,"current_range_meters":13600,"station_id":"","pricing_plan_id":"cebpf4jnsgd1na2vs0mg"},{"bike_id":"03ec5728-5a8d-475c-be69-d63e54c8d683","system_id":"levelo_inurba_marseille","lat":43.324642,"lon":5.367267,"is_reserved":false,"is_disabled":false,"rental_uris":{"android":"levelo://app?vid=03ec5728-5a8d-475c-be69-d63e54c8d683","ios":"levelo://app?vid=03ec5728-5a8d-475c-be69-d63e54c8d683"},"vehicle_type_id":"4","last_reported":1745579302,"current_range_meters":14000,"station_id":"","pricing_plan_id":"cebpf4jnsgd1na2vs0mg"},{"bike_id":"c4b4c91a-7ce7-4e0b-a052-4962bbd22fb4","system_id":"levelo_inurba_marseille","lat":43.24166,"lon":5.36391,"is_reserved":false,"is_disabled":false,"rental_uris":{"android":"levelo://app?vid=c4b4c91a-7ce7-4e0b-a052-4962bbd22fb4","ios":"levelo://app?vid=c4b4c91a-7ce7-4e0b-a052-4962bbd22fb4"},"vehicle_type_id":"4","last_reported":1745579302,"current_range_meters":14000,"station_id":"cpo36qri1sfpv3e86is0","pricing_plan_id":"cebpf4jnsgd1na2vs0mg"},{"bike_id":"e2dcabcf-64d8-4394-bb9a-ff877bee611a","system_id":"levelo_inurba_marseille","lat":43.32046,"lon":5.41502,"is_reserved":false,"is_disabled":false,"rental_uris":{"android":"levelo://app?vid=e2dcabcf-64d8-4394-bb9a-ff877bee611a","ios":"levelo://app?vid=e2dcabcf-64d8-4394-bb9a-ff877bee611a"},"vehicle_type_id":"4","last_reported":1745579302,"current_range_meters":14000,"station_id":"ce4bhq92rcd13ifvqhkg","pricing_plan_id":"cebpf4jnsgd1na2vs0mg"},{"bike_id":"7fc5ed43-b2c3-4cf7-b081-488a7cbcc12f","system_id":"levelo_inurba_marseille","lat":43.33033,"lon":5.39036,"is_reserved":false,"is_disabled":false,"rental_uris":{"android":"levelo://app?vid=7fc5ed43-b2c3-4cf7-b081-488a7cbcc12f","ios":"levelo://app?vid=7fc5ed43-b2c3-4cf7-b081-488a7cbcc12f"},"vehicle_type_id":"4","last_reported":1745579302,"current_range_meters":14000,"station_id":"ce4bhr92rcd13ifvqhrg","pricing_plan_id":"cebpf4jnsgd1na2vs0mg"},{"bike_id":"452f2c91-8a42-4b2e-b84b-b27753a7d0e7","system_id":"levelo_inurba_marseille","lat":43.33476,"lon":5.36094,"is_reserved":false,"is_disabled":false,"rental_uris":{"android":"levelo://app?vid=452f2c91-8a42-4b2e-b84b-b27753a7d0e7","ios":"levelo://app?vid=452f2c91-8a42-4b2e-b84b-b27753a7d0e7"},"vehicle_type_id":"4","last_reported":1745579302,"current_range_meters":14400,"station_id":"","pricing_plan_id":"cebpf4jnsgd1na2vs0mg"},{"bike_id":"d9051b58-a11d-40b1-b6ff-6c6add678f65","system_id":"levelo_inurba_marseille","lat":43.27618,"lon":5.36113,"is_reserved":false,"is_disabled":false,"rental_uris":{"android":"levelo://app?vid=d9051b58-a11d-40b1-b6ff-6c6add678f65","ios":"levelo://app?vid=d9051b58-a11d-40b1-b6ff-6c6add678f65"},"vehicle_type_id":"4","last_reported":1745579302,"current_range_meters":14400,"station_id":"ce4bgj92rcd13ifvqbe0","pricing_plan_id":"cebpf4jnsgd1na2vs0mg"},{"bike_id":"bff532e1-58f7-4601-87b6-d6ae8925747c","system_id":"levelo_inurba_marseille","lat":43.259,"lon":5.40893,"is_reserved":false,"is_disabled":false,"rental_uris":{"android":"levelo://app?vid=bff532e1-58f7-4601-87b6-d6ae8925747c","ios":"levelo://app?vid=bff532e1-58f7-4601-87b6-d6ae8925747c"},"vehicle_type_id":"4","last_reported":1745579302,"current_range_meters":14400,"station_id":"ce4bhm92rcd13ifvqglg","pricing_plan_id":"cebpf4jnsgd1na2vs0mg"},{"bike_id":"ef3afb3e-cf3d-440b-875d-0fa1591cf83c","system_id":"levelo_inurba_marseille","lat":43.28266,"lon":5.35065,"is_reserved":false,"is_disabled":false,"rental_uris":{"android":"levelo://app?vid=ef3afb3e-cf3d-440b-875d-0fa1591cf83c","ios":"levelo://app?vid=ef3afb3e-cf3d-440b-875d-0fa1591cf83c"},"vehicle_type_id":"4","last_reported":1745579302,"current_range_meters":14400,"station_id":"ce4bhbp2rcd13ifvqerg","pricing_plan_id":"cebpf4jnsgd1na2vs0mg"},{"bike_id":"0603ee71-ed77-46db-9d17-2c8fb32151e9","system_id":"levelo_inurba_marseille","lat":43.3235,"lon":5.40615,"is_reserved":false,"is_disabled":false,"rental_uris":{"android":"levelo://app?vid=0603ee71-ed77-46db-9d17-2c8fb32151e9","ios":"levelo://app?vid=0603ee71-ed77-46db-9d17-2c8fb32151e9"},"vehicle_type_id":"4","last_reported":1745579302,"current_range_meters":14400,"station_id":"ce4bhq92rcd13ifvqhjg","pricing_plan_id":"cebpf4jnsgd1na2vs0mg"},{"bike_id":"3e5a5bec-d3d4-45ee-9c95-7c9b8e7a4c49","system_id":"levelo_inurba_marseille","lat":43.32356,"lon":5.36717,"is_reserved":false,"is_disabled":false,"rental_uris":{"android":"levelo://app?vid=3e5a5bec-d3d4-45ee-9c95-7c9b8e7a4c49","ios":"levelo://app?vid=3e5a5bec-d3d4-45ee-9c95-7c9b8e7a4c49"},"vehicle_type_id":"4","last_reported":1745579302,"current_range_meters":14400,"station_id":"ce4bhsh2rcd13ifvqi2g","pricing_plan_id":"cebpf4jnsgd1na2vs0mg"},{"bike_id":"2bda8c9d-eb97-4a16-bccf-e942e4aef7f8","system_id":"levelo_inurba_marseille","lat":43.27219,"lon":5.39194,"is_reserved":false,"is_disabled":false,"rental_uris":{"android":"levelo://app?vid=2bda8c9d-eb97-4a16-bccf-e942e4aef7f8","ios":"levelo://app?vid=2bda8c9d-eb97-4a16-bccf-e942e4aef7f8"},"vehicle_type_id":"4","last_reported":1745579302,"current_range_meters":14400,"station_id":"ce4bhhp2rcd13ifvqfm0","pricing_plan_id":"cebpf4jnsgd1na2vs0mg"},{"bike_id":"0bfff189-ec6a-4439-b345-e9dd168ab867","system_id":"levelo_inurba_marseille","lat":43.33724,"lon":5.39187,"is_reserved":false,"is_disabled":false,"rental_uris":{"android":"levelo://app?vid=0bfff189-ec6a-4439-b345-e9dd168ab867","ios":"levelo://app?vid=0bfff189-ec6a-4439-b345-e9dd168ab867"},"vehicle_type_id":"4","last_reported":1745579302,"current_range_meters":14400,"station_id":"ce4bhr92rcd13ifvqhsg","pricing_plan_id":"cebpf4jnsgd1na2vs0mg"},{"bike_id":"e2c6fe2f-ee90-4591-b9e5-11b0a2408b99","system_id":"levelo_inurba_marseille","lat":43.29011,"lon":5.35608,"is_reserved":false,"is_disabled":false,"rental_uris":{"android":"levelo://app?vid=e2c6fe2f-ee90-4591-b9e5-11b0a2408b99","ios":"levelo://app?vid=e2c6fe2f-ee90-4591-b9e5-11b0a2408b99"},"vehicle_type_id":"4","last_reported":1745579302,"current_range_meters":14800,"station_id":"ce4bhb92rcd13ifvqen0","pricing_plan_id":"cebpf4jnsgd1na2vs0mg"},{"bike_id":"4a06f63c-4c4a-4948-a78c-ad533e3a9873","system_id":"levelo_inurba_marseille","lat":43.31369,"lon":5.38485,"is_reserved":false,"is_disabled":false,"rental_uris":{"android":"levelo://app?vid=4a06f63c-4c4a-4948-a78c-ad533e3a9873","ios":"levelo://app?vid=4a06f63c-4c4a-4948-a78c-ad533e3a9873"},"vehicle_type_id":"4","last_reported":1745579302,"current_range_meters":14400,"station_id":"ce4bgt92rcd13ifvqcf0","pricing_plan_id":"cebpf4jnsgd1na2vs0mg"},{"bike_id":"f437bbcd-3bc3-4220-9dfe-08d3eac84ba1","system_id":"levelo_inurba_marseille","lat":43.2858,"lon":5.35037,"is_reserved":false,"is_disabled":true,"rental_uris":{"android":"levelo://app?vid=f437bbcd-3bc3-4220-9dfe-08d3eac84ba1","ios":"levelo://app?vid=f437bbcd-3bc3-4220-9dfe-08d3eac84ba1"},"vehicle_type_id":"4","last_reported":1745579302,"current_range_meters":14800,"station_id":"","pricing_plan_id":"cebpf4jnsgd1na2vs0mg"},{"bike_id":"b9285e64-9f1b-4e06-9fce-e3c658e0a03d","system_id":"levelo_inurba_marseille","lat":43.28943,"lon":5.36641,"is_reserved":false,"is_disabled":false,"rental_uris":{"android":"levelo://app?vid=b9285e64-9f1b-4e06-9fce-e3c658e0a03d","ios":"levelo://app?vid=b9285e64-9f1b-4e06-9fce-e3c658e0a03d"},"vehicle_type_id":"4","last_reported":1745579302,"current_range_meters":14800,"station_id":"ce4bhap2rcd13ifvqek0","pricing_plan_id":"cebpf4jnsgd1na2vs0mg"},{"bike_id":"20cd735c-72e7-4f6f-beb5-63a4d2c2e52a","system_id":"levelo_inurba_marseille","lat":43.26558,"lon":5.37285,"is_reserved":false,"is_disabled":false,"rental_uris":{"android":"levelo://app?vid=20cd735c-72e7-4f6f-beb5-63a4d2c2e52a","ios":"levelo://app?vid=20cd735c-72e7-4f6f-beb5-63a4d2c2e52a"},"vehicle_type_id":"4","last_reported":1745579302,"current_range_meters":15200,"station_id":"ce4bhg12rcd13ifvqf70","pricing_plan_id":"cebpf4jnsgd1na2vs0mg"},{"bike_id":"eefd9914-ee3b-4027-a460-18478fc3e122","system_id":"levelo_inurba_marseille","lat":43.25714,"lon":5.41108,"is_reserved":false,"is_disabled":false,"rental_uris":{"android":"levelo://app?vid=eefd9914-ee3b-4027-a460-18478fc3e122","ios":"levelo://app?vid=eefd9914-ee3b-4027-a460-18478fc3e122"},"vehicle_type_id":"4","last_reported":1745579302,"current_range_meters":15200,"station_id":"ce4bhkp2rcd13ifvqgd0","pricing_plan_id":"cebpf4jnsgd1na2vs0mg"},{"bike_id":"0db8f0a5-6446-40c3-a6e8-aab347464ec8","system_id":"levelo_inurba_marseille","lat":43.28853,"lon":5.39317,"is_reserved":false,"is_disabled":false,"rental_uris":{"android":"levelo://app?vid=0db8f0a5-6446-40c3-a6e8-aab347464ec8","ios":"levelo://app?vid=0db8f0a5-6446-40c3-a6e8-aab347464ec8"},"vehicle_type_id":"4","last_reported":1745579302,"current_range_meters":14800,"station_id":"ce4bh2p2rcd13ifvqdi0","pricing_plan_id":"cebpf4jnsgd1na2vs0mg"},{"bike_id":"6264fddc-f121-43f4-87b1-f3c7c8952bc6","system_id":"levelo_inurba_marseille","lat":43.2619,"lon":5.37926,"is_reserved":false,"is_disabled":false,"rental_uris":{"android":"levelo://app?vid=6264fddc-f121-43f4-87b1-f3c7c8952bc6","ios":"levelo://app?vid=6264fddc-f121-43f4-87b1-f3c7c8952bc6"},"vehicle_type_id":"4","last_reported":1745579302,"current_range_meters":15200,"station_id":"ce4bhjp2rcd13ifvqg90","pricing_plan_id":"cebpf4jnsgd1na2vs0mg"},{"bike_id":"3e4adf00-6f25-4413-96e2-c281335b27f8","system_id":"levelo_inurba_marseille","lat":43.26215,"lon":5.37449,"is_reserved":false,"is_disabled":false,"rental_uris":{"android":"levelo://app?vid=3e4adf00-6f25-4413-96e2-c281335b27f8","ios":"levelo://app?vid=3e4adf00-6f25-4413-96e2-c281335b27f8"},"vehicle_type_id":"4","last_reported":1745579302,"current_range_meters":15200,"station_id":"ce4bhgp2rcd13ifvqfc0","pricing_plan_id":"cebpf4jnsgd1na2vs0mg"},{"bike_id":"07847ab1-3c30-4bc0-a953-7cb17d492a92","system_id":"levelo_inurba_marseille","lat":43.275721,"lon":5.384295,"is_reserved":false,"is_disabled":false,"rental_uris":{"android":"levelo://app?vid=07847ab1-3c30-4bc0-a953-7cb17d492a92","ios":"levelo://app?vid=07847ab1-3c30-4bc0-a953-7cb17d492a92"},"vehicle_type_id":"4","last_reported":1745579302,"current_range_meters":16000,"station_id":"ce4bhh92rcd13ifvqfi0","pricing_plan_id":"cebpf4jnsgd1na2vs0mg"},{"bike_id":"9a1c0be7-bd1a-4081-ab84-3ef05258b407","system_id":"levelo_inurba_marseille","lat":43.22935,"lon":5.35404,"is_reserved":false,"is_disabled":false,"rental_uris":{"android":"levelo://app?vid=9a1c0be7-bd1a-4081-ab84-3ef05258b407","ios":"levelo://app?vid=9a1c0be7-bd1a-4081-ab84-3ef05258b407"},"vehicle_type_id":"4","last_reported":1745579302,"current_range_meters":16000,"station_id":"cpo3532slgdg3j2ikp40","pricing_plan_id":"cebpf4jnsgd1na2vs0mg"},{"bike_id":"384d100f-c206-4a99-87d2-a9857300a4c7","system_id":"levelo_inurba_marseille","lat":43.27811,"lon":5.40709,"is_reserved":false,"is_disabled":false,"rental_uris":{"android":"levelo://app?vid=384d100f-c206-4a99-87d2-a9857300a4c7","ios":"levelo://app?vid=384d100f-c206-4a99-87d2-a9857300a4c7"},"vehicle_type_id":"4","last_reported":1745579302,"current_range_meters":16000,"station_id":"ce4bhnh2rcd13ifvqgtg","pricing_plan_id":"cebpf4jnsgd1na2vs0mg"},{"bike_id":"86c003ea-d24f-4c83-b642-be639c06773f","system_id":"levelo_inurba_marseille","lat":43.28271,"lon":5.3507,"is_reserved":false,"is_disabled":false,"rental_uris":{"android":"levelo://app?vid=86c003ea-d24f-4c83-b642-be639c06773f","ios":"levelo://app?vid=86c003ea-d24f-4c83-b642-be639c06773f"},"vehicle_type_id":"4","last_reported":1745579302,"current_range_meters":16000,"station_id":"ce4bhbp2rcd13ifvqerg","pricing_plan_id":"cebpf4jnsgd1na2vs0mg"},{"bike_id":"87f1b3a6-8436-4781-bd8f-3e96b0af21dc","system_id":"levelo_inurba_marseille","lat":43.28077,"lon":5.3966,"is_reserved":false,"is_disabled":false,"rental_uris":{"android":"levelo://app?vid=87f1b3a6-8436-4781-bd8f-3e96b0af21dc","ios":"levelo://app?vid=87f1b3a6-8436-4781-bd8f-3e96b0af21dc"},"vehicle_type_id":"4","last_reported":1745579302,"current_range_meters":16400,"station_id":"ce4bho12rcd13ifvqh2g","pricing_plan_id":"cebpf4jnsgd1na2vs0mg"},{"bike_id":"8c17e809-c59e-4e7b-b769-df3fb6d9a707","system_id":"levelo_inurba_marseille","lat":43.29778,"lon":5.39334,"is_reserved":false,"is_disabled":false,"rental_uris":{"android":"levelo://app?vid=8c17e809-c59e-4e7b-b769-df3fb6d9a707","ios":"levelo://app?vid=8c17e809-c59e-4e7b-b769-df3fb6d9a707"},"vehicle_type_id":"4","last_reported":1745579302,"current_range_meters":16400,"station_id":"chh1huq6cuj3fo74tm60","pricing_plan_id":"cebpf4jnsgd1na2vs0mg"},{"bike_id":"b370ec72-25aa-4e18-90be-0a23445d821b","system_id":"levelo_inurba_marseille","lat":43.21768,"lon":5.34589,"is_reserved":false,"is_disabled":false,"rental_uris":{"android":"levelo://app?vid=b370ec72-25aa-4e18-90be-0a23445d821b","ios":"levelo://app?vid=b370ec72-25aa-4e18-90be-0a23445d821b"},"vehicle_type_id":"4","last_reported":1745579302,"current_range_meters":16400,"station_id":"st_cvj6r9ubvosntc0bgbag","pricing_plan_id":"cebpf4jnsgd1na2vs0mg"},{"bike_id":"57e159be-484d-42e7-a083-3e5e45269fe3","system_id":"levelo_inurba_marseille","lat":43.29008,"lon":5.35611,"is_reserved":false,"is_disabled":false,"rental_uris":{"android":"levelo://app?vid=57e159be-484d-42e7-a083-3e5e45269fe3","ios":"levelo://app?vid=57e159be-484d-42e7-a083-3e5e45269fe3"},"vehicle_type_id":"4","last_reported":1745579302,"current_range_meters":16400,"station_id":"ce4bhb92rcd13ifvqen0","pricing_plan_id":"cebpf4jnsgd1na2vs0mg"},{"bike_id":"8fa414e4-2a97-410d-b80b-feaf0d1ae0d4","system_id":"levelo_inurba_marseille","lat":43.27897,"lon":5.38004,"is_reserved":false,"is_disabled":false,"rental_uris":{"android":"levelo://app?vid=8fa414e4-2a97-410d-b80b-feaf0d1ae0d4","ios":"levelo://app?vid=8fa414e4-2a97-410d-b80b-feaf0d1ae0d4"},"vehicle_type_id":"4","last_reported":1745579302,"current_range_meters":16400,"station_id":"ce4bhf92rcd13ifvqf50","pricing_plan_id":"cebpf4jnsgd1na2vs0mg"},{"bike_id":"9c657208-7bd8-4f77-929f-ccc371487c94","system_id":"levelo_inurba_marseille","lat":43.31323,"lon":5.39677,"is_reserved":false,"is_disabled":false,"rental_uris":{"android":"levelo://app?vid=9c657208-7bd8-4f77-929f-ccc371487c94","ios":"levelo://app?vid=9c657208-7bd8-4f77-929f-ccc371487c94"},"vehicle_type_id":"4","last_reported":1745579302,"current_range_meters":16400,"station_id":"ce4bgvp2rcd13ifvqcu0","pricing_plan_id":"cebpf4jnsgd1na2vs0mg"},{"bike_id":"568053e1-9183-4cee-acca-959027493876","system_id":"levelo_inurba_marseille","lat":43.30895,"lon":5.36848,"is_reserved":false,"is_disabled":true,"rental_uris":{"android":"levelo://app?vid=568053e1-9183-4cee-acca-959027493876","ios":"levelo://app?vid=568053e1-9183-4cee-acca-959027493876"},"vehicle_type_id":"4","last_reported":1745579302,"current_range_meters":16800,"station_id":"ce4bgn92rcd13ifvqbvg","pricing_plan_id":"cebpf4jnsgd1na2vs0mg"},{"bike_id":"af6af1ea-83a0-4448-a6b9-d143557f7290","system_id":"levelo_inurba_marseille","lat":43.26933,"lon":5.40292,"is_reserved":false,"is_disabled":true,"rental_uris":{"android":"levelo://app?vid=af6af1ea-83a0-4448-a6b9-d143557f7290","ios":"levelo://app?vid=af6af1ea-83a0-4448-a6b9-d143557f7290"},"vehicle_type_id":"4","last_reported":1745579302,"current_range_meters":16800,"station_id":"cjm6bp8fraef2m0cb0m0","pricing_plan_id":"cebpf4jnsgd1na2vs0mg"},{"bike_id":"3a58b755-96bd-4487-9ac9-618b3d544ba2","system_id":"levelo_inurba_marseille","lat":43.30484,"lon":5.37896,"is_reserved":false,"is_disabled":false,"rental_uris":{"android":"levelo://app?vid=3a58b755-96bd-4487-9ac9-618b3d544ba2","ios":"levelo://app?vid=3a58b755-96bd-4487-9ac9-618b3d544ba2"},"vehicle_type_id":"4","last_reported":1745579302,"current_range_meters":16800,"station_id":"ce4bgup2rcd13ifvqcn0","pricing_plan_id":"cebpf4jnsgd1na2vs0mg"},{"bike_id":"c6e47527-45ec-4abc-941c-002d34cbc310","system_id":"levelo_inurba_marseille","lat":43.27375,"lon":5.3626,"is_reserved":false,"is_disabled":false,"rental_uris":{"android":"levelo://app?vid=c6e47527-45ec-4abc-941c-002d34cbc310","ios":"levelo://app?vid=c6e47527-45ec-4abc-941c-002d34cbc310"},"vehicle_type_id":"4","last_reported":1745579302,"current_range_meters":16800,"station_id":"ce4bhbh2rcd13ifvqeo0","pricing_plan_id":"cebpf4jnsgd1na2vs0mg"},{"bike_id":"c6f9b08b-85d4-4ea1-a207-d942c5041c83","system_id":"levelo_inurba_marseille","lat":43.23961,"lon":5.36629,"is_reserved":false,"is_disabled":false,"rental_uris":{"android":"levelo://app?vid=c6f9b08b-85d4-4ea1-a207-d942c5041c83","ios":"levelo://app?vid=c6f9b08b-85d4-4ea1-a207-d942c5041c83"},"vehicle_type_id":"4","last_reported":1745579302,"current_range_meters":16800,"station_id":"ce4bhi12rcd13ifvqfp0","pricing_plan_id":"cebpf4jnsgd1na2vs0mg"},{"bike_id":"a3242653-7137-4760-a2c8-ea2cfa926c7b","system_id":"levelo_inurba_marseille","lat":43.21749,"lon":5.34604,"is_reserved":false,"is_disabled":false,"rental_uris":{"android":"levelo://app?vid=a3242653-7137-4760-a2c8-ea2cfa926c7b","ios":"levelo://app?vid=a3242653-7137-4760-a2c8-ea2cfa926c7b"},"vehicle_type_id":"4","last_reported":1745579302,"current_range_meters":17200,"station_id":"st_cvj6r9ubvosntc0bgbag","pricing_plan_id":"cebpf4jnsgd1na2vs0mg"},{"bike_id":"987d7900-bb2a-45cb-bed7-6d69f6fd4fa3","system_id":"levelo_inurba_marseille","lat":43.28508,"lon":5.38464,"is_reserved":false,"is_disabled":false,"rental_uris":{"android":"levelo://app?vid=987d7900-bb2a-45cb-bed7-6d69f6fd4fa3","ios":"levelo://app?vid=987d7900-bb2a-45cb-bed7-6d69f6fd4fa3"},"vehicle_type_id":"4","last_reported":1745579302,"current_range_meters":17200,"station_id":"","pricing_plan_id":"cebpf4jnsgd1na2vs0mg"},{"bike_id":"5d90e8c4-88f9-42f1-bfd8-e31a43c95b58","system_id":"levelo_inurba_marseille","lat":43.32505,"lon":5.36591,"is_reserved":false,"is_disabled":false,"rental_uris":{"android":"levelo://app?vid=5d90e8c4-88f9-42f1-bfd8-e31a43c95b58","ios":"levelo://app?vid=5d90e8c4-88f9-42f1-bfd8-e31a43c95b58"},"vehicle_type_id":"4","last_reported":1745579302,"current_range_meters":17200,"station_id":"ce4bhs12rcd13ifvqhvg","pricing_plan_id":"cebpf4jnsgd1na2vs0mg"},{"bike_id":"58b7a27a-e4e8-4060-b0b1-37aa0cb59419","system_id":"levelo_inurba_marseille","lat":43.29582,"lon":5.36743,"is_reserved":false,"is_disabled":false,"rental_uris":{"android":"levelo://app?vid=58b7a27a-e4e8-4060-b0b1-37aa0cb59419","ios":"levelo://app?vid=58b7a27a-e4e8-4060-b0b1-37aa0cb59419"},"vehicle_type_id":"4","last_reported":1745579302,"current_range_meters":17200,"station_id":"ce4bgph2rcd13ifvqc2g","pricing_plan_id":"cebpf4jnsgd1na2vs0mg"},{"bike_id":"78e440e7-8bbc-44b4-9c74-197f80a59205","system_id":"levelo_inurba_marseille","lat":43.24166,"lon":5.36397,"is_reserved":false,"is_disabled":false,"rental_uris":{"android":"levelo://app?vid=78e440e7-8bbc-44b4-9c74-197f80a59205","ios":"levelo://app?vid=78e440e7-8bbc-44b4-9c74-197f80a59205"},"vehicle_type_id":"4","last_reported":1745579302,"current_range_meters":17600,"station_id":"cpo36qri1sfpv3e86is0","pricing_plan_id":"cebpf4jnsgd1na2vs0mg"},{"bike_id":"9199862c-f028-44f5-a0bd-939fcabcf63b","system_id":"levelo_inurba_marseille","lat":43.27938,"lon":5.41035,"is_reserved":false,"is_disabled":false,"rental_uris":{"android":"levelo://app?vid=9199862c-f028-44f5-a0bd-939fcabcf63b","ios":"levelo://app?vid=9199862c-f028-44f5-a0bd-939fcabcf63b"},"vehicle_type_id":"4","last_reported":1745579302,"current_range_meters":17600,"station_id":"ce4bhnp2rcd13ifvqh0g","pricing_plan_id":"cebpf4jnsgd1na2vs0mg"},{"bike_id":"94b7da04-5082-421d-aeef-f6f9b0ab2015","system_id":"levelo_inurba_marseille","lat":43.265547,"lon":5.37285,"is_reserved":false,"is_disabled":false,"rental_uris":{"android":"levelo://app?vid=94b7da04-5082-421d-aeef-f6f9b0ab2015","ios":"levelo://app?vid=94b7da04-5082-421d-aeef-f6f9b0ab2015"},"vehicle_type_id":"4","last_reported":1745579302,"current_range_meters":17600,"station_id":"ce4bhg12rcd13ifvqf70","pricing_plan_id":"cebpf4jnsgd1na2vs0mg"},{"bike_id":"bdd0222f-8955-4090-86de-0be16c2ab322","system_id":"levelo_inurba_marseille","lat":43.29896,"lon":5.43666,"is_reserved":false,"is_disabled":false,"rental_uris":{"android":"levelo://app?vid=bdd0222f-8955-4090-86de-0be16c2ab322","ios":"levelo://app?vid=bdd0222f-8955-4090-86de-0be16c2ab322"},"vehicle_type_id":"4","last_reported":1745579302,"current_range_meters":17600,"station_id":"ce4bhpp2rcd13ifvqhfg","pricing_plan_id":"cebpf4jnsgd1na2vs0mg"},{"bike_id":"f8f8335f-86d9-4b21-bf11-2d0fe4e96f07","system_id":"levelo_inurba_marseille","lat":43.27187,"lon":5.40989,"is_reserved":false,"is_disabled":false,"rental_uris":{"android":"levelo://app?vid=f8f8335f-86d9-4b21-bf11-2d0fe4e96f07","ios":"levelo://app?vid=f8f8335f-86d9-4b21-bf11-2d0fe4e96f07"},"vehicle_type_id":"4","last_reported":1745579302,"current_range_meters":17600,"station_id":"ce4bhl12rcd13ifvqgf0","pricing_plan_id":"cebpf4jnsgd1na2vs0mg"},{"bike_id":"29bba4d7-28d9-4ab7-9189-8e82a88e92aa","system_id":"levelo_inurba_marseille","lat":43.30307,"lon":5.39211,"is_reserved":false,"is_disabled":false,"rental_uris":{"android":"levelo://app?vid=29bba4d7-28d9-4ab7-9189-8e82a88e92aa","ios":"levelo://app?vid=29bba4d7-28d9-4ab7-9189-8e82a88e92aa"},"vehicle_type_id":"4","last_reported":1745579302,"current_range_meters":18000,"station_id":"ce4bgkh2rcd13ifvqbk0","pricing_plan_id":"cebpf4jnsgd1na2vs0mg"},{"bike_id":"8b8bd9b0-acb1-46f9-8b53-f589167bc055","system_id":"levelo_inurba_marseille","lat":43.33023,"lon":5.39043,"is_reserved":false,"is_disabled":false,"rental_uris":{"android":"levelo://app?vid=8b8bd9b0-acb1-46f9-8b53-f589167bc055","ios":"levelo://app?vid=8b8bd9b0-acb1-46f9-8b53-f589167bc055"},"vehicle_type_id":"4","last_reported":1745579302,"current_range_meters":18000,"station_id":"ce4bhr92rcd13ifvqhrg","pricing_plan_id":"cebpf4jnsgd1na2vs0mg"},{"bike_id":"13731016-9cf7-4d91-a42f-f54be16a7958","system_id":"levelo_inurba_marseille","lat":43.21189,"lon":5.3507,"is_reserved":false,"is_disabled":false,"rental_uris":{"android":"levelo://app?vid=13731016-9cf7-4d91-a42f-f54be16a7958","ios":"levelo://app?vid=13731016-9cf7-4d91-a42f-f54be16a7958"},"vehicle_type_id":"4","last_reported":1745579302,"current_range_meters":18000,"station_id":"st_cvj6sg6p6f1abm77japg","pricing_plan_id":"cebpf4jnsgd1na2vs0mg"},{"bike_id":"c3c17059-be0a-4b9d-a913-aecad89e20e1","system_id":"levelo_inurba_marseille","lat":43.3047,"lon":5.37913,"is_reserved":false,"is_disabled":false,"rental_uris":{"android":"levelo://app?vid=c3c17059-be0a-4b9d-a913-aecad89e20e1","ios":"levelo://app?vid=c3c17059-be0a-4b9d-a913-aecad89e20e1"},"vehicle_type_id":"4","last_reported":1745579302,"current_range_meters":17600,"station_id":"ce4bgup2rcd13ifvqcn0","pricing_plan_id":"cebpf4jnsgd1na2vs0mg"},{"bike_id":"ce635803-bedf-40bc-9360-b1dbbf17902e","system_id":"levelo_inurba_marseille","lat":43.28613,"lon":5.35099,"is_reserved":false,"is_disabled":false,"rental_uris":{"android":"levelo://app?vid=ce635803-bedf-40bc-9360-b1dbbf17902e","ios":"levelo://app?vid=ce635803-bedf-40bc-9360-b1dbbf17902e"},"vehicle_type_id":"4","last_reported":1745579302,"current_range_meters":18000,"station_id":"ce4bhch2rcd13ifvqeug","pricing_plan_id":"cebpf4jnsgd1na2vs0mg"},{"bike_id":"51a4b1f4-4cfb-4b9e-b7e6-50254ee4c796","system_id":"levelo_inurba_marseille","lat":43.28604,"lon":5.37067,"is_reserved":false,"is_disabled":true,"rental_uris":{"android":"levelo://app?vid=51a4b1f4-4cfb-4b9e-b7e6-50254ee4c796","ios":"levelo://app?vid=51a4b1f4-4cfb-4b9e-b7e6-50254ee4c796"},"vehicle_type_id":"4","last_reported":1745579302,"current_range_meters":18000,"station_id":"ce4bht12rcd13ifvqi60","pricing_plan_id":"cebpf4jnsgd1na2vs0mg"},{"bike_id":"0f65e79f-2560-4de3-9252-6695104a6f13","system_id":"levelo_inurba_marseille","lat":43.294167,"lon":5.386281,"is_reserved":false,"is_disabled":false,"rental_uris":{"android":"levelo://app?vid=0f65e79f-2560-4de3-9252-6695104a6f13","ios":"levelo://app?vid=0f65e79f-2560-4de3-9252-6695104a6f13"},"vehicle_type_id":"4","last_reported":1745579302,"current_range_meters":19200,"station_id":"ce4bhb92rcd13ifvqen0","pricing_plan_id":"cebpf4jnsgd1na2vs0mg"},{"bike_id":"b6cce916-00ab-4b48-90ec-261226219ca7","system_id":"levelo_inurba_marseille","lat":43.29918,"lon":5.38152,"is_reserved":false,"is_disabled":true,"rental_uris":{"android":"levelo://app?vid=b6cce916-00ab-4b48-90ec-261226219ca7","ios":"levelo://app?vid=b6cce916-00ab-4b48-90ec-261226219ca7"},"vehicle_type_id":"4","last_reported":1745579302,"current_range_meters":18800,"station_id":"ce4bgj12rcd13ifvqbc0","pricing_plan_id":"cebpf4jnsgd1na2vs0mg"},{"bike_id":"cd087707-fd41-43c5-9b15-a64d709b0196","system_id":"levelo_inurba_marseille","lat":43.305474,"lon":5.36535,"is_reserved":false,"is_disabled":false,"rental_uris":{"android":"levelo://app?vid=cd087707-fd41-43c5-9b15-a64d709b0196","ios":"levelo://app?vid=cd087707-fd41-43c5-9b15-a64d709b0196"},"vehicle_type_id":"4","last_reported":1745579302,"current_range_meters":18800,"station_id":"ce4bgs12rcd13ifvqcag","pricing_plan_id":"cebpf4jnsgd1na2vs0mg"},{"bike_id":"4046a82f-66e8-4b55-bd0a-356edea772d8","system_id":"levelo_inurba_marseille","lat":43.30813,"lon":5.37294,"is_reserved":false,"is_disabled":false,"rental_uris":{"android":"levelo://app?vid=4046a82f-66e8-4b55-bd0a-356edea772d8","ios":"levelo://app?vid=4046a82f-66e8-4b55-bd0a-356edea772d8"},"vehicle_type_id":"4","last_reported":1745579302,"current_range_meters":19200,"station_id":"","pricing_plan_id":"cebpf4jnsgd1na2vs0mg"},{"bike_id":"8658079e-0ed4-4185-bb3e-309e48096e75","system_id":"levelo_inurba_marseille","lat":43.29928,"lon":5.38139,"is_reserved":false,"is_disabled":true,"rental_uris":{"android":"levelo://app?vid=8658079e-0ed4-4185-bb3e-309e48096e75","ios":"levelo://app?vid=8658079e-0ed4-4185-bb3e-309e48096e75"},"vehicle_type_id":"4","last_reported":1745579302,"current_range_meters":19200,"station_id":"ce4bgj12rcd13ifvqbc0","pricing_plan_id":"cebpf4jnsgd1na2vs0mg"},{"bike_id":"66f4a16c-5526-4170-b0c8-0b023a7e2dde","system_id":"levelo_inurba_marseille","lat":43.31523,"lon":5.37314,"is_reserved":false,"is_disabled":false,"rental_uris":{"android":"levelo://app?vid=66f4a16c-5526-4170-b0c8-0b023a7e2dde","ios":"levelo://app?vid=66f4a16c-5526-4170-b0c8-0b023a7e2dde"},"vehicle_type_id":"4","last_reported":1745579302,"current_range_meters":19200,"station_id":"ce4bgt12rcd13ifvqcd0","pricing_plan_id":"cebpf4jnsgd1na2vs0mg"},{"bike_id":"f1ac634c-7a0d-4ce2-b92f-26a2bd593acc","system_id":"levelo_inurba_marseille","lat":43.30915,"lon":5.3686,"is_reserved":false,"is_disabled":false,"rental_uris":{"android":"levelo://app?vid=f1ac634c-7a0d-4ce2-b92f-26a2bd593acc","ios":"levelo://app?vid=f1ac634c-7a0d-4ce2-b92f-26a2bd593acc"},"vehicle_type_id":"4","last_reported":1745579302,"current_range_meters":19200,"station_id":"ce4bgn92rcd13ifvqbvg","pricing_plan_id":"cebpf4jnsgd1na2vs0mg"},{"bike_id":"87d230e1-3701-4811-bc52-b6bcde5161e4","system_id":"levelo_inurba_marseille","lat":43.25923,"lon":5.40859,"is_reserved":false,"is_disabled":false,"rental_uris":{"android":"levelo://app?vid=87d230e1-3701-4811-bc52-b6bcde5161e4","ios":"levelo://app?vid=87d230e1-3701-4811-bc52-b6bcde5161e4"},"vehicle_type_id":"4","last_reported":1745579302,"current_range_meters":19200,"station_id":"ce4bhm92rcd13ifvqglg","pricing_plan_id":"cebpf4jnsgd1na2vs0mg"},{"bike_id":"a9784e4d-72f3-45a0-bc5c-6a48517d28d6","system_id":"levelo_inurba_marseille","lat":43.33038,"lon":5.39034,"is_reserved":false,"is_disabled":false,"rental_uris":{"android":"levelo://app?vid=a9784e4d-72f3-45a0-bc5c-6a48517d28d6","ios":"levelo://app?vid=a9784e4d-72f3-45a0-bc5c-6a48517d28d6"},"vehicle_type_id":"4","last_reported":1745579302,"current_range_meters":19200,"station_id":"ce4bhr92rcd13ifvqhrg","pricing_plan_id":"cebpf4jnsgd1na2vs0mg"},{"bike_id":"d7b2bfc5-cdb8-407c-b8fb-5b12bb88e021","system_id":"levelo_inurba_marseille","lat":43.28428,"lon":5.34984,"is_reserved":false,"is_disabled":false,"rental_uris":{"android":"levelo://app?vid=d7b2bfc5-cdb8-407c-b8fb-5b12bb88e021","ios":"levelo://app?vid=d7b2bfc5-cdb8-407c-b8fb-5b12bb88e021"},"vehicle_type_id":"4","last_reported":1745579302,"current_range_meters":19200,"station_id":"ce4bhbh2rcd13ifvqepg","pricing_plan_id":"cebpf4jnsgd1na2vs0mg"},{"bike_id":"9b04ae9c-096a-4079-95b7-c0bb7aa70e44","system_id":"levelo_inurba_marseille","lat":43.2318,"lon":5.39991,"is_reserved":false,"is_disabled":false,"rental_uris":{"android":"levelo://app?vid=9b04ae9c-096a-4079-95b7-c0bb7aa70e44","ios":"levelo://app?vid=9b04ae9c-096a-4079-95b7-c0bb7aa70e44"},"vehicle_type_id":"4","last_reported":1745579302,"current_range_meters":19200,"station_id":"ce4bhn12rcd13ifvqgqg","pricing_plan_id":"cebpf4jnsgd1na2vs0mg"},{"bike_id":"f223e9ae-dff0-4f52-be98-16bc16bd345e","system_id":"levelo_inurba_marseille","lat":43.23152,"lon":5.43717,"is_reserved":false,"is_disabled":false,"rental_uris":{"android":"levelo://app?vid=f223e9ae-dff0-4f52-be98-16bc16bd345e","ios":"levelo://app?vid=f223e9ae-dff0-4f52-be98-16bc16bd345e"},"vehicle_type_id":"4","last_reported":1745579302,"current_range_meters":19600,"station_id":"ce4bhmp2rcd13ifvqgog","pricing_plan_id":"cebpf4jnsgd1na2vs0mg"},{"bike_id":"4e0dca03-569c-4ad9-875a-0ed080a8f6f1","system_id":"levelo_inurba_marseille","lat":43.284035,"lon":5.34996,"is_reserved":false,"is_disabled":false,"rental_uris":{"android":"levelo://app?vid=4e0dca03-569c-4ad9-875a-0ed080a8f6f1","ios":"levelo://app?vid=4e0dca03-569c-4ad9-875a-0ed080a8f6f1"},"vehicle_type_id":"4","last_reported":1745579302,"current_range_meters":19600,"station_id":"ce4bhch2rcd13ifvqeug","pricing_plan_id":"cebpf4jnsgd1na2vs0mg"},{"bike_id":"a50d0966-bcd9-455e-a24c-4ba768460204","system_id":"levelo_inurba_marseille","lat":43.23957,"lon":5.36621,"is_reserved":false,"is_disabled":true,"rental_uris":{"android":"levelo://app?vid=a50d0966-bcd9-455e-a24c-4ba768460204","ios":"levelo://app?vid=a50d0966-bcd9-455e-a24c-4ba768460204"},"vehicle_type_id":"4","last_reported":1745579302,"current_range_meters":19600,"station_id":"ce4bhi12rcd13ifvqfp0","pricing_plan_id":"cebpf4jnsgd1na2vs0mg"},{"bike_id":"d28bf9af-5868-40cf-bc78-dd7cb5c022b5","system_id":"levelo_inurba_marseille","lat":43.29964,"lon":5.38496,"is_reserved":false,"is_disabled":true,"rental_uris":{"android":"levelo://app?vid=d28bf9af-5868-40cf-bc78-dd7cb5c022b5","ios":"levelo://app?vid=d28bf9af-5868-40cf-bc78-dd7cb5c022b5"},"vehicle_type_id":"4","last_reported":1745579302,"current_range_meters":19600,"station_id":"ce4bgj92rcd13ifvqbd0","pricing_plan_id":"cebpf4jnsgd1na2vs0mg"},{"bike_id":"d8e97106-e130-4c8b-9d94-2cb0ebaadf8e","system_id":"levelo_inurba_marseille","lat":43.3118,"lon":5.38717,"is_reserved":false,"is_disabled":false,"rental_uris":{"android":"levelo://app?vid=d8e97106-e130-4c8b-9d94-2cb0ebaadf8e","ios":"levelo://app?vid=d8e97106-e130-4c8b-9d94-2cb0ebaadf8e"},"vehicle_type_id":"4","last_reported":1745579302,"current_range_meters":19600,"station_id":"ce4bgv12rcd13ifvqcp0","pricing_plan_id":"cebpf4jnsgd1na2vs0mg"},{"bike_id":"fa2cc361-ee8f-48ac-9946-738579b776fb","system_id":"levelo_inurba_marseille","lat":43.25072,"lon":5.39521,"is_reserved":false,"is_disabled":false,"rental_uris":{"android":"levelo://app?vid=fa2cc361-ee8f-48ac-9946-738579b776fb","ios":"levelo://app?vid=fa2cc361-ee8f-48ac-9946-738579b776fb"},"vehicle_type_id":"4","last_reported":1745579302,"current_range_meters":19600,"station_id":"ce4bhm12rcd13ifvqgkg","pricing_plan_id":"cebpf4jnsgd1na2vs0mg"},{"bike_id":"fb81db3c-12e2-44b7-8142-2689708da6f1","system_id":"levelo_inurba_marseille","lat":43.3089,"lon":5.37191,"is_reserved":false,"is_disabled":false,"rental_uris":{"android":"levelo://app?vid=fb81db3c-12e2-44b7-8142-2689708da6f1","ios":"levelo://app?vid=fb81db3c-12e2-44b7-8142-2689708da6f1"},"vehicle_type_id":"4","last_reported":1745579302,"current_range_meters":19600,"station_id":"ce4bguh2rcd13ifvqckg","pricing_plan_id":"cebpf4jnsgd1na2vs0mg"},{"bike_id":"d9c63e1b-4913-4440-86c0-9cf25efa8b1b","system_id":"levelo_inurba_marseille","lat":43.28641,"lon":5.35056,"is_reserved":false,"is_disabled":false,"rental_uris":{"android":"levelo://app?vid=d9c63e1b-4913-4440-86c0-9cf25efa8b1b","ios":"levelo://app?vid=d9c63e1b-4913-4440-86c0-9cf25efa8b1b"},"vehicle_type_id":"4","last_reported":1745579302,"current_range_meters":19600,"station_id":"ce4bhch2rcd13ifvqeug","pricing_plan_id":"cebpf4jnsgd1na2vs0mg"},{"bike_id":"79ffd577-c06f-4898-b813-2dd8142120d9","system_id":"levelo_inurba_marseille","lat":43.28615,"lon":5.35097,"is_reserved":false,"is_disabled":false,"rental_uris":{"android":"levelo://app?vid=79ffd577-c06f-4898-b813-2dd8142120d9","ios":"levelo://app?vid=79ffd577-c06f-4898-b813-2dd8142120d9"},"vehicle_type_id":"4","last_reported":1745579302,"current_range_meters":19600,"station_id":"ce4bhch2rcd13ifvqeug","pricing_plan_id":"cebpf4jnsgd1na2vs0mg"},{"bike_id":"be4386cd-f004-4b47-84a8-6c549acb4a55","system_id":"levelo_inurba_marseille","lat":43.31118,"lon":5.37772,"is_reserved":false,"is_disabled":false,"rental_uris":{"android":"levelo://app?vid=be4386cd-f004-4b47-84a8-6c549acb4a55","ios":"levelo://app?vid=be4386cd-f004-4b47-84a8-6c549acb4a55"},"vehicle_type_id":"4","last_reported":1745579302,"current_range_meters":19600,"station_id":"ce4bgt92rcd13ifvqcg0","pricing_plan_id":"cebpf4jnsgd1na2vs0mg"},{"bike_id":"5a7d5f58-55b9-43f0-ada2-3de3e119a779","system_id":"levelo_inurba_marseille","lat":43.26222,"lon":5.37435,"is_reserved":false,"is_disabled":false,"rental_uris":{"android":"levelo://app?vid=5a7d5f58-55b9-43f0-ada2-3de3e119a779","ios":"levelo://app?vid=5a7d5f58-55b9-43f0-ada2-3de3e119a779"},"vehicle_type_id":"4","last_reported":1745579302,"current_range_meters":19600,"station_id":"ce4bhgp2rcd13ifvqfc0","pricing_plan_id":"cebpf4jnsgd1na2vs0mg"},{"bike_id":"659dfa27-7120-4d45-9c19-8e09e2cf820b","system_id":"levelo_inurba_marseille","lat":43.27818,"lon":5.40718,"is_reserved":false,"is_disabled":false,"rental_uris":{"android":"levelo://app?vid=659dfa27-7120-4d45-9c19-8e09e2cf820b","ios":"levelo://app?vid=659dfa27-7120-4d45-9c19-8e09e2cf820b"},"vehicle_type_id":"4","last_reported":1745579302,"current_range_meters":19600,"station_id":"ce4bhnh2rcd13ifvqgtg","pricing_plan_id":"cebpf4jnsgd1na2vs0mg"},{"bike_id":"0b85b0a3-a65d-4543-8e5f-c3d82c6a8f5e","system_id":"levelo_inurba_marseille","lat":43.23194,"lon":5.35552,"is_reserved":false,"is_disabled":false,"rental_uris":{"android":"levelo://app?vid=0b85b0a3-a65d-4543-8e5f-c3d82c6a8f5e","ios":"levelo://app?vid=0b85b0a3-a65d-4543-8e5f-c3d82c6a8f5e"},"vehicle_type_id":"4","last_reported":1745579302,"current_range_meters":19600,"station_id":"ce4bhu92rcd13ifvqi70","pricing_plan_id":"cebpf4jnsgd1na2vs0mg"},{"bike_id":"2fecc9dd-8ad1-4f62-97d5-a3f4d2b62114","system_id":"levelo_inurba_marseille","lat":43.24164,"lon":5.36391,"is_reserved":false,"is_disabled":false,"rental_uris":{"android":"levelo://app?vid=2fecc9dd-8ad1-4f62-97d5-a3f4d2b62114","ios":"levelo://app?vid=2fecc9dd-8ad1-4f62-97d5-a3f4d2b62114"},"vehicle_type_id":"4","last_reported":1745579302,"current_range_meters":19600,"station_id":"cpo36qri1sfpv3e86is0","pricing_plan_id":"cebpf4jnsgd1na2vs0mg"},{"bike_id":"834bed20-0bfc-4ad7-a557-cff1b8189b56","system_id":"levelo_inurba_marseille","lat":43.29897,"lon":5.43666,"is_reserved":false,"is_disabled":false,"rental_uris":{"android":"levelo://app?vid=834bed20-0bfc-4ad7-a557-cff1b8189b56","ios":"levelo://app?vid=834bed20-0bfc-4ad7-a557-cff1b8189b56"},"vehicle_type_id":"4","last_reported":1745579302,"current_range_meters":20000,"station_id":"ce4bhpp2rcd13ifvqhfg","pricing_plan_id":"cebpf4jnsgd1na2vs0mg"},{"bike_id":"197530f0-0e24-420a-a608-bf6b24e8cd54","system_id":"levelo_inurba_marseille","lat":43.27176,"lon":5.40993,"is_reserved":false,"is_disabled":false,"rental_uris":{"android":"levelo://app?vid=197530f0-0e24-420a-a608-bf6b24e8cd54","ios":"levelo://app?vid=197530f0-0e24-420a-a608-bf6b24e8cd54"},"vehicle_type_id":"4","last_reported":1745579302,"current_range_meters":20000,"station_id":"ce4bhl12rcd13ifvqgf0","pricing_plan_id":"cebpf4jnsgd1na2vs0mg"},{"bike_id":"d7f7d912-dd6f-42ed-a272-1f86b737036d","system_id":"levelo_inurba_marseille","lat":43.26581,"lon":5.39005,"is_reserved":false,"is_disabled":false,"rental_uris":{"android":"levelo://app?vid=d7f7d912-dd6f-42ed-a272-1f86b737036d","ios":"levelo://app?vid=d7f7d912-dd6f-42ed-a272-1f86b737036d"},"vehicle_type_id":"4","last_reported":1745579302,"current_range_meters":20000,"station_id":"ce4bhe12rcd13ifvqf30","pricing_plan_id":"cebpf4jnsgd1na2vs0mg"},{"bike_id":"4d664fc7-b6f2-4311-9f08-116d33cdd5c5","system_id":"levelo_inurba_marseille","lat":43.28409,"lon":5.34985,"is_reserved":false,"is_disabled":false,"rental_uris":{"android":"levelo://app?vid=4d664fc7-b6f2-4311-9f08-116d33cdd5c5","ios":"levelo://app?vid=4d664fc7-b6f2-4311-9f08-116d33cdd5c5"},"vehicle_type_id":"4","last_reported":1745579302,"current_range_meters":20000,"station_id":"ce4bhbh2rcd13ifvqepg","pricing_plan_id":"cebpf4jnsgd1na2vs0mg"},{"bike_id":"617fbf20-bb15-4117-b0a0-f63054ce20f7","system_id":"levelo_inurba_marseille","lat":43.21187,"lon":5.35074,"is_reserved":false,"is_disabled":false,"rental_uris":{"android":"levelo://app?vid=617fbf20-bb15-4117-b0a0-f63054ce20f7","ios":"levelo://app?vid=617fbf20-bb15-4117-b0a0-f63054ce20f7"},"vehicle_type_id":"4","last_reported":1745579302,"current_range_meters":20000,"station_id":"st_cvj6sg6p6f1abm77japg","pricing_plan_id":"cebpf4jnsgd1na2vs0mg"},{"bike_id":"e92565b1-0dda-4426-8c0d-cf38ecdda8a2","system_id":"levelo_inurba_marseille","lat":43.21757,"lon":5.34601,"is_reserved":false,"is_disabled":false,"rental_uris":{"android":"levelo://app?vid=e92565b1-0dda-4426-8c0d-cf38ecdda8a2","ios":"levelo://app?vid=e92565b1-0dda-4426-8c0d-cf38ecdda8a2"},"vehicle_type_id":"4","last_reported":1745579302,"current_range_meters":20000,"station_id":"st_cvj6r9ubvosntc0bgbag","pricing_plan_id":"cebpf4jnsgd1na2vs0mg"},{"bike_id":"aced4b86-9577-4479-81b8-479ceb9ab607","system_id":"levelo_inurba_marseille","lat":43.32033,"lon":5.41557,"is_reserved":false,"is_disabled":false,"rental_uris":{"android":"levelo://app?vid=aced4b86-9577-4479-81b8-479ceb9ab607","ios":"levelo://app?vid=aced4b86-9577-4479-81b8-479ceb9ab607"},"vehicle_type_id":"4","last_reported":1745579302,"current_range_meters":20400,"station_id":"ce4bhq92rcd13ifvqhkg","pricing_plan_id":"cebpf4jnsgd1na2vs0mg"},{"bike_id":"e5416c74-0a6c-4f6c-a2f6-c7e99d1737a5","system_id":"levelo_inurba_marseille","lat":43.28276,"lon":5.35068,"is_reserved":false,"is_disabled":false,"rental_uris":{"android":"levelo://app?vid=e5416c74-0a6c-4f6c-a2f6-c7e99d1737a5","ios":"levelo://app?vid=e5416c74-0a6c-4f6c-a2f6-c7e99d1737a5"},"vehicle_type_id":"4","last_reported":1745579302,"current_range_meters":20400,"station_id":"ce4bhbp2rcd13ifvqerg","pricing_plan_id":"cebpf4jnsgd1na2vs0mg"},{"bike_id":"59246155-34e4-4581-8f32-7869165499f1","system_id":"levelo_inurba_marseille","lat":43.26196,"lon":5.37447,"is_reserved":false,"is_disabled":false,"rental_uris":{"android":"levelo://app?vid=59246155-34e4-4581-8f32-7869165499f1","ios":"levelo://app?vid=59246155-34e4-4581-8f32-7869165499f1"},"vehicle_type_id":"4","last_reported":1745579302,"current_range_meters":20400,"station_id":"ce4bhgp2rcd13ifvqfc0","pricing_plan_id":"cebpf4jnsgd1na2vs0mg"},{"bike_id":"e78e3841-f1dc-4d0b-aa53-fc1bc7f59cfc","system_id":"levelo_inurba_marseille","lat":43.29016,"lon":5.35612,"is_reserved":false,"is_disabled":false,"rental_uris":{"android":"levelo://app?vid=e78e3841-f1dc-4d0b-aa53-fc1bc7f59cfc","ios":"levelo://app?vid=e78e3841-f1dc-4d0b-aa53-fc1bc7f59cfc"},"vehicle_type_id":"4","last_reported":1745579302,"current_range_meters":20800,"station_id":"ce4bhb92rcd13ifvqen0","pricing_plan_id":"cebpf4jnsgd1na2vs0mg"},{"bike_id":"20db2207-b754-465d-bc44-5dd6149e8faa","system_id":"levelo_inurba_marseille","lat":43.31492,"lon":5.373,"is_reserved":false,"is_disabled":false,"rental_uris":{"android":"levelo://app?vid=20db2207-b754-465d-bc44-5dd6149e8faa","ios":"levelo://app?vid=20db2207-b754-465d-bc44-5dd6149e8faa"},"vehicle_type_id":"4","last_reported":1745579302,"current_range_meters":20800,"station_id":"ce4bgt12rcd13ifvqcd0","pricing_plan_id":"cebpf4jnsgd1na2vs0mg"},{"bike_id":"60c69759-123a-4dd8-9e34-dde148c3cae0","system_id":"levelo_inurba_marseille","lat":43.25098,"lon":5.39507,"is_reserved":false,"is_disabled":false,"rental_uris":{"android":"levelo://app?vid=60c69759-123a-4dd8-9e34-dde148c3cae0","ios":"levelo://app?vid=60c69759-123a-4dd8-9e34-dde148c3cae0"},"vehicle_type_id":"4","last_reported":1745579302,"current_range_meters":21600,"station_id":"ce4bhm12rcd13ifvqgkg","pricing_plan_id":"cebpf4jnsgd1na2vs0mg"},{"bike_id":"4b12207f-3248-492d-bd2a-d81ffd975159","system_id":"levelo_inurba_marseille","lat":43.30547,"lon":5.36536,"is_reserved":false,"is_disabled":false,"rental_uris":{"android":"levelo://app?vid=4b12207f-3248-492d-bd2a-d81ffd975159","ios":"levelo://app?vid=4b12207f-3248-492d-bd2a-d81ffd975159"},"vehicle_type_id":"4","last_reported":1745579302,"current_range_meters":21600,"station_id":"ce4bgs12rcd13ifvqcag","pricing_plan_id":"cebpf4jnsgd1na2vs0mg"},{"bike_id":"c84a57d0-d785-4d99-9cbd-cebfcd9a7e6f","system_id":"levelo_inurba_marseille","lat":43.25935,"lon":5.40914,"is_reserved":false,"is_disabled":false,"rental_uris":{"android":"levelo://app?vid=c84a57d0-d785-4d99-9cbd-cebfcd9a7e6f","ios":"levelo://app?vid=c84a57d0-d785-4d99-9cbd-cebfcd9a7e6f"},"vehicle_type_id":"4","last_reported":1745579302,"current_range_meters":21600,"station_id":"ce4bhm92rcd13ifvqglg","pricing_plan_id":"cebpf4jnsgd1na2vs0mg"},{"bike_id":"ee23d7b4-995b-47d5-b00a-5ec0a8bb7cfd","system_id":"levelo_inurba_marseille","lat":43.29017,"lon":5.35627,"is_reserved":false,"is_disabled":false,"rental_uris":{"android":"levelo://app?vid=ee23d7b4-995b-47d5-b00a-5ec0a8bb7cfd","ios":"levelo://app?vid=ee23d7b4-995b-47d5-b00a-5ec0a8bb7cfd"},"vehicle_type_id":"4","last_reported":1745579302,"current_range_meters":21600,"station_id":"ce4bhb92rcd13ifvqen0","pricing_plan_id":"cebpf4jnsgd1na2vs0mg"},{"bike_id":"c4a53509-be92-4892-a8fe-317213f579a2","system_id":"levelo_inurba_marseille","lat":43.286148,"lon":5.350982,"is_reserved":false,"is_disabled":true,"rental_uris":{"android":"levelo://app?vid=c4a53509-be92-4892-a8fe-317213f579a2","ios":"levelo://app?vid=c4a53509-be92-4892-a8fe-317213f579a2"},"vehicle_type_id":"4","last_reported":1745579302,"current_range_meters":21600,"station_id":"ce4bhch2rcd13ifvqeug","pricing_plan_id":"cebpf4jnsgd1na2vs0mg"},{"bike_id":"5753d312-87ce-4eb0-a768-bf99afedcb8f","system_id":"levelo_inurba_marseille","lat":43.29691,"lon":5.37302,"is_reserved":false,"is_disabled":false,"rental_uris":{"android":"levelo://app?vid=5753d312-87ce-4eb0-a768-bf99afedcb8f","ios":"levelo://app?vid=5753d312-87ce-4eb0-a768-bf99afedcb8f"},"vehicle_type_id":"4","last_reported":1745579302,"current_range_meters":22000,"station_id":"ce4bgk12rcd13ifvqbj0","pricing_plan_id":"cebpf4jnsgd1na2vs0mg"},{"bike_id":"e6f0b5a2-c895-4d4d-b478-a988bec1679c","system_id":"levelo_inurba_marseille","lat":43.21201,"lon":5.35072,"is_reserved":false,"is_disabled":false,"rental_uris":{"android":"levelo://app?vid=e6f0b5a2-c895-4d4d-b478-a988bec1679c","ios":"levelo://app?vid=e6f0b5a2-c895-4d4d-b478-a988bec1679c"},"vehicle_type_id":"4","last_reported":1745579302,"current_range_meters":22000,"station_id":"st_cvj6sg6p6f1abm77japg","pricing_plan_id":"cebpf4jnsgd1na2vs0mg"},{"bike_id":"d7edd326-1f63-4585-952e-80b37980d45b","system_id":"levelo_inurba_marseille","lat":43.3143,"lon":5.36633,"is_reserved":false,"is_disabled":false,"rental_uris":{"android":"levelo://app?vid=d7edd326-1f63-4585-952e-80b37980d45b","ios":"levelo://app?vid=d7edd326-1f63-4585-952e-80b37980d45b"},"vehicle_type_id":"4","last_reported":1745579302,"current_range_meters":22000,"station_id":"ce4bgr92rcd13ifvqc6g","pricing_plan_id":"cebpf4jnsgd1na2vs0mg"},{"bike_id":"537eb7eb-f545-4388-bce8-ac7407bf1393","system_id":"levelo_inurba_marseille","lat":43.28412,"lon":5.34987,"is_reserved":false,"is_disabled":false,"rental_uris":{"android":"levelo://app?vid=537eb7eb-f545-4388-bce8-ac7407bf1393","ios":"levelo://app?vid=537eb7eb-f545-4388-bce8-ac7407bf1393"},"vehicle_type_id":"4","last_reported":1745579302,"current_range_meters":22000,"station_id":"ce4bhbh2rcd13ifvqepg","pricing_plan_id":"cebpf4jnsgd1na2vs0mg"},{"bike_id":"e258b3a9-7aeb-4022-a575-5ab4d1883623","system_id":"levelo_inurba_marseille","lat":43.29786,"lon":5.38107,"is_reserved":false,"is_disabled":true,"rental_uris":{"android":"levelo://app?vid=e258b3a9-7aeb-4022-a575-5ab4d1883623","ios":"levelo://app?vid=e258b3a9-7aeb-4022-a575-5ab4d1883623"},"vehicle_type_id":"4","last_reported":1745579302,"current_range_meters":22000,"station_id":"ce4bgip2rcd13ifvqbb0","pricing_plan_id":"cebpf4jnsgd1na2vs0mg"},{"bike_id":"1bdb2556-b3ca-42ff-8580-f080cc1d09f1","system_id":"levelo_inurba_marseille","lat":43.3055,"lon":5.36541,"is_reserved":false,"is_disabled":false,"rental_uris":{"android":"levelo://app?vid=1bdb2556-b3ca-42ff-8580-f080cc1d09f1","ios":"levelo://app?vid=1bdb2556-b3ca-42ff-8580-f080cc1d09f1"},"vehicle_type_id":"4","last_reported":1745579302,"current_range_meters":22000,"station_id":"ce4bgs12rcd13ifvqcag","pricing_plan_id":"cebpf4jnsgd1na2vs0mg"},{"bike_id":"50d5bda6-69e1-4b45-a14a-944f6eb70469","system_id":"levelo_inurba_marseille","lat":43.25918,"lon":5.40878,"is_reserved":false,"is_disabled":false,"rental_uris":{"android":"levelo://app?vid=50d5bda6-69e1-4b45-a14a-944f6eb70469","ios":"levelo://app?vid=50d5bda6-69e1-4b45-a14a-944f6eb70469"},"vehicle_type_id":"4","last_reported":1745579302,"current_range_meters":22000,"station_id":"ce4bhm92rcd13ifvqglg","pricing_plan_id":"cebpf4jnsgd1na2vs0mg"},{"bike_id":"fc54a058-4a8c-4813-94cf-1fd6335b51bb","system_id":"levelo_inurba_marseille","lat":43.23148,"lon":5.43707,"is_reserved":false,"is_disabled":false,"rental_uris":{"android":"levelo://app?vid=fc54a058-4a8c-4813-94cf-1fd6335b51bb","ios":"levelo://app?vid=fc54a058-4a8c-4813-94cf-1fd6335b51bb"},"vehicle_type_id":"4","last_reported":1745579302,"current_range_meters":22000,"station_id":"ce4bhmp2rcd13ifvqgog","pricing_plan_id":"cebpf4jnsgd1na2vs0mg"},{"bike_id":"ec92d192-d767-4d42-b0d8-2aadeb0f54e1","system_id":"levelo_inurba_marseille","lat":43.27807,"lon":5.40707,"is_reserved":false,"is_disabled":false,"rental_uris":{"android":"levelo://app?vid=ec92d192-d767-4d42-b0d8-2aadeb0f54e1","ios":"levelo://app?vid=ec92d192-d767-4d42-b0d8-2aadeb0f54e1"},"vehicle_type_id":"4","last_reported":1745579302,"current_range_meters":22400,"station_id":"ce4bhnh2rcd13ifvqgtg","pricing_plan_id":"cebpf4jnsgd1na2vs0mg"},{"bike_id":"b0b7f35f-4cb3-4d33-93d3-9b68f12ad999","system_id":"levelo_inurba_marseille","lat":43.28974,"lon":5.37837,"is_reserved":false,"is_disabled":false,"rental_uris":{"android":"levelo://app?vid=b0b7f35f-4cb3-4d33-93d3-9b68f12ad999","ios":"levelo://app?vid=b0b7f35f-4cb3-4d33-93d3-9b68f12ad999"},"vehicle_type_id":"4","last_reported":1745579302,"current_range_meters":22400,"station_id":"ce4bh9p2rcd13ifvqed0","pricing_plan_id":"cebpf4jnsgd1na2vs0mg"},{"bike_id":"86f37705-8e51-40c0-abe0-03b8af00ae28","system_id":"levelo_inurba_marseille","lat":43.30214,"lon":5.39463,"is_reserved":false,"is_disabled":false,"rental_uris":{"android":"levelo://app?vid=86f37705-8e51-40c0-abe0-03b8af00ae28","ios":"levelo://app?vid=86f37705-8e51-40c0-abe0-03b8af00ae28"},"vehicle_type_id":"4","last_reported":1745579302,"current_range_meters":22400,"station_id":"ce4bh0p2rcd13ifvqd70","pricing_plan_id":"cebpf4jnsgd1na2vs0mg"},{"bike_id":"3ea242bb-dc31-44a9-8d1d-ecdbc103752c","system_id":"levelo_inurba_marseille","lat":43.28425,"lon":5.34989,"is_reserved":false,"is_disabled":false,"rental_uris":{"android":"levelo://app?vid=3ea242bb-dc31-44a9-8d1d-ecdbc103752c","ios":"levelo://app?vid=3ea242bb-dc31-44a9-8d1d-ecdbc103752c"},"vehicle_type_id":"4","last_reported":1745579302,"current_range_meters":22400,"station_id":"ce4bhbh2rcd13ifvqepg","pricing_plan_id":"cebpf4jnsgd1na2vs0mg"},{"bike_id":"df940c2f-82db-4a84-b256-62b69b5de06f","system_id":"levelo_inurba_marseille","lat":43.28401,"lon":5.34983,"is_reserved":false,"is_disabled":false,"rental_uris":{"android":"levelo://app?vid=df940c2f-82db-4a84-b256-62b69b5de06f","ios":"levelo://app?vid=df940c2f-82db-4a84-b256-62b69b5de06f"},"vehicle_type_id":"4","last_reported":1745579302,"current_range_meters":22400,"station_id":"ce4bhbh2rcd13ifvqepg","pricing_plan_id":"cebpf4jnsgd1na2vs0mg"},{"bike_id":"1504a7b4-3c2b-41cd-85cd-57aa88641e7e","system_id":"levelo_inurba_marseille","lat":43.29708,"lon":5.36633,"is_reserved":false,"is_disabled":true,"rental_uris":{"android":"levelo://app?vid=1504a7b4-3c2b-41cd-85cd-57aa88641e7e","ios":"levelo://app?vid=1504a7b4-3c2b-41cd-85cd-57aa88641e7e"},"vehicle_type_id":"4","last_reported":1745579302,"current_range_meters":22400,"station_id":"ce4bgn12rcd13ifvqbt0","pricing_plan_id":"cebpf4jnsgd1na2vs0mg"},{"bike_id":"5cc280b6-ab12-45ee-98ff-b58940ce6cc3","system_id":"levelo_inurba_marseille","lat":43.28691,"lon":5.39981,"is_reserved":false,"is_disabled":false,"rental_uris":{"android":"levelo://app?vid=5cc280b6-ab12-45ee-98ff-b58940ce6cc3","ios":"levelo://app?vid=5cc280b6-ab12-45ee-98ff-b58940ce6cc3"},"vehicle_type_id":"4","last_reported":1745579302,"current_range_meters":22400,"station_id":"ce4bho92rcd13ifvqh3g","pricing_plan_id":"cebpf4jnsgd1na2vs0mg"},{"bike_id":"3f3e2a9d-001b-44fd-83c8-c14163fb32f3","system_id":"levelo_inurba_marseille","lat":43.30466,"lon":5.37907,"is_reserved":false,"is_disabled":false,"rental_uris":{"android":"levelo://app?vid=3f3e2a9d-001b-44fd-83c8-c14163fb32f3","ios":"levelo://app?vid=3f3e2a9d-001b-44fd-83c8-c14163fb32f3"},"vehicle_type_id":"4","last_reported":1745579302,"current_range_meters":22400,"station_id":"ce4bgup2rcd13ifvqcn0","pricing_plan_id":"cebpf4jnsgd1na2vs0mg"},{"bike_id":"faa8334f-d698-4b2b-8f65-d27f28dd59cc","system_id":"levelo_inurba_marseille","lat":43.33748,"lon":5.39178,"is_reserved":false,"is_disabled":false,"rental_uris":{"android":"levelo://app?vid=faa8334f-d698-4b2b-8f65-d27f28dd59cc","ios":"levelo://app?vid=faa8334f-d698-4b2b-8f65-d27f28dd59cc"},"vehicle_type_id":"4","last_reported":1745579302,"current_range_meters":22400,"station_id":"ce4bhr92rcd13ifvqhsg","pricing_plan_id":"cebpf4jnsgd1na2vs0mg"},{"bike_id":"e10849ab-f14c-42eb-bf35-8ad4ea47ec28","system_id":"levelo_inurba_marseille","lat":43.30336,"lon":5.40443,"is_reserved":false,"is_disabled":true,"rental_uris":{"android":"levelo://app?vid=e10849ab-f14c-42eb-bf35-8ad4ea47ec28","ios":"levelo://app?vid=e10849ab-f14c-42eb-bf35-8ad4ea47ec28"},"vehicle_type_id":"4","last_reported":1745579302,"current_range_meters":22800,"station_id":"ce4bh012rcd13ifvqd10","pricing_plan_id":"cebpf4jnsgd1na2vs0mg"},{"bike_id":"2d9579cf-a208-4326-b096-b627e6b4bbc2","system_id":"levelo_inurba_marseille","lat":43.24181,"lon":5.39731,"is_reserved":false,"is_disabled":false,"rental_uris":{"android":"levelo://app?vid=2d9579cf-a208-4326-b096-b627e6b4bbc2","ios":"levelo://app?vid=2d9579cf-a208-4326-b096-b627e6b4bbc2"},"vehicle_type_id":"4","last_reported":1745579302,"current_range_meters":22800,"station_id":"ce4bhn12rcd13ifvqgpg","pricing_plan_id":"cebpf4jnsgd1na2vs0mg"},{"bike_id":"11a75062-441b-446a-8a8b-75913b0a0b66","system_id":"levelo_inurba_marseille","lat":43.23973,"lon":5.36611,"is_reserved":false,"is_disabled":false,"rental_uris":{"android":"levelo://app?vid=11a75062-441b-446a-8a8b-75913b0a0b66","ios":"levelo://app?vid=11a75062-441b-446a-8a8b-75913b0a0b66"},"vehicle_type_id":"4","last_reported":1745579302,"current_range_meters":22800,"station_id":"ce4bhi12rcd13ifvqfp0","pricing_plan_id":"cebpf4jnsgd1na2vs0mg"},{"bike_id":"21d7e086-4f41-40e3-aacb-8ba3caaa8f7e","system_id":"levelo_inurba_marseille","lat":43.31085,"lon":5.42432,"is_reserved":false,"is_disabled":false,"rental_uris":{"android":"levelo://app?vid=21d7e086-4f41-40e3-aacb-8ba3caaa8f7e","ios":"levelo://app?vid=21d7e086-4f41-40e3-aacb-8ba3caaa8f7e"},"vehicle_type_id":"4","last_reported":1745579302,"current_range_meters":22400,"station_id":"ce4bhp92rcd13ifvqhag","pricing_plan_id":"cebpf4jnsgd1na2vs0mg"},{"bike_id":"ebcd9348-8522-479f-bee0-22fd32e9716b","system_id":"levelo_inurba_marseille","lat":43.27174,"lon":5.4099,"is_reserved":false,"is_disabled":false,"rental_uris":{"android":"levelo://app?vid=ebcd9348-8522-479f-bee0-22fd32e9716b","ios":"levelo://app?vid=ebcd9348-8522-479f-bee0-22fd32e9716b"},"vehicle_type_id":"4","last_reported":1745579302,"current_range_meters":22800,"station_id":"ce4bhl12rcd13ifvqgf0","pricing_plan_id":"cebpf4jnsgd1na2vs0mg"},{"bike_id":"586a9560-e195-49db-87da-295974d8b67a","system_id":"levelo_inurba_marseille","lat":43.2932,"lon":5.37177,"is_reserved":false,"is_disabled":true,"rental_uris":{"android":"levelo://app?vid=586a9560-e195-49db-87da-295974d8b67a","ios":"levelo://app?vid=586a9560-e195-49db-87da-295974d8b67a"},"vehicle_type_id":"4","last_reported":1745579302,"current_range_meters":22800,"station_id":"ce4bgh92rcd13ifvqb40","pricing_plan_id":"cebpf4jnsgd1na2vs0mg"},{"bike_id":"9eff3f79-455f-40a8-b46e-eef3cb1d5402","system_id":"levelo_inurba_marseille","lat":43.28045,"lon":5.36943,"is_reserved":false,"is_disabled":false,"rental_uris":{"android":"levelo://app?vid=9eff3f79-455f-40a8-b46e-eef3cb1d5402","ios":"levelo://app?vid=9eff3f79-455f-40a8-b46e-eef3cb1d5402"},"vehicle_type_id":"4","last_reported":1745579302,"current_range_meters":22400,"station_id":"ce4bha12rcd13ifvqef0","pricing_plan_id":"cebpf4jnsgd1na2vs0mg"},{"bike_id":"79ddf610-9732-4cde-8a2b-40d7e282f228","system_id":"levelo_inurba_marseille","lat":43.24169,"lon":5.36397,"is_reserved":false,"is_disabled":false,"rental_uris":{"android":"levelo://app?vid=79ddf610-9732-4cde-8a2b-40d7e282f228","ios":"levelo://app?vid=79ddf610-9732-4cde-8a2b-40d7e282f228"},"vehicle_type_id":"4","last_reported":1745579302,"current_range_meters":22800,"station_id":"cpo36qri1sfpv3e86is0","pricing_plan_id":"cebpf4jnsgd1na2vs0mg"},