{"last_updated":1703279159,"ttl":30,"version":"2.2","data":{"bikes":[{"bike_id":"e018b8a7-48df-4bc2-b8c7-34411c208c26","system_id":"levelo_inurba_marseille","lat":43.305368,"lon":5.367343,"is_reserved":false,"is_disabled":false,"rental_uris":{"android":"levelo://app?vid=e018b8a7-48df-4bc2-b8c7-34411c208c26","ios":"levelo://app?vid=e018b8a7-48df-4bc2-b8c7-34411c208c26"},"vehicle_type_id":"4","last_reported":1703279159,"current_range_meters":8400,"station_id":"ce4bgrp2rcd13ifvqc9g","pricing_plan_id":"free"},{"bike_id":"7af536a5-2ed0-4945-baf1-eb1fee060034","system_id":"levelo_inurba_marseille","lat":43.305706,"lon":5.365654,"is_reserved":false,"is_disabled":false,"rental_uris":{"android":"levelo://app?vid=7af536a5-2ed0-4945-baf1-eb1fee060034","ios":"levelo://app?vid=7af536a5-2ed0-4945-baf1-eb1fee060034"},"vehicle_type_id":"4","last_reported":1703279159,"current_range_meters":1200,"station_id":"ce4bgs12rcd13ifvqcag","pricing_plan_id":"free"},{"bike_id":"1ea026f7-d936-4455-ae92-061aa91aea8f","system_id":"levelo_inurba_marseille","lat":43.311125,"lon":5.377624,"is_reserved":false,"is_disabled":false,"rental_uris":{"android":"levelo://app?vid=1ea026f7-d936-4455-ae92-061aa91aea8f","ios":"levelo://app?vid=1ea026f7-d936-4455-ae92-061aa91aea8f"},"vehicle_type_id":"4","last_reported":1703279159,"current_range_meters":10000,"station_id":"ce4bgt92rcd13ifvqcg0","pricing_plan_id":"free"},{"bike_id":"78fcf7ee-99fd-4a67-971e-b6ec835be1b0","system_id":"levelo_inurba_marseille","lat":43.307945,"lon":5.376487,"is_reserved":false,"is_disabled":false,"rental_uris":{"android":"levelo://app?vid=78fcf7ee-99fd-4a67-971e-b6ec835be1b0","ios":"levelo://app?vid=78fcf7ee-99fd-4a67-971e-b6ec835be1b0"},"vehicle_type_id":"4","last_reported":1703279159,"current_range_meters":28000,"station_id":"ce4bgv92rcd13ifvqcq0","pricing_plan_id":"free"},{"bike_id":"31064d41-982a-4d68-957c-a6ab36a1327f","system_id":"levelo_inurba_marseille","lat":43.317075,"lon":5.377367,"is_reserved":false,"is_disabled":false,"rental_uris":{"android":"levelo://app?vid=31064d41-982a-4d68-957c-a6ab36a1327f","ios":"levelo://app?vid=31064d41-982a-4d68-957c-a6ab36a1327f"},"vehicle_type_id":"4","last_reported":1703279159,"current_range_meters":26400,"station_id":"ce4bgth2rcd13ifvqch0","pricing_plan_id":"free"},{"bike_id":"bc74c432-90ab-4b82-bc0b-9716a4ccf6b2","system_id":"levelo_inurba_marseille","lat":43.317075,"lon":5.377367,"is_reserved":false,"is_disabled":false,"rental_uris":{"android":"levelo://app?vid=bc74c432-90ab-4b82-bc0b-9716a4ccf6b2","ios":"levelo://app?vid=bc74c432-90ab-4b82-bc0b-9716a4ccf6b2"},"vehicle_type_id":"4","last_reported":1703279159,"current_range_meters":16800,"station_id":"ce4bgth2rcd13ifvqch0","pricing_plan_id":"free"},{"bike_id":"d2a20330-7d63-4c58-b62b-0e00da829c12","system_id":"levelo_inurba_marseille","lat":43.308012,"lon":5.381511,"is_reserved":false,"is_disabled":false,"rental_uris":{"android":"levelo://app?vid=d2a20330-7d63-4c58-b62b-0e00da829c12","ios":"levelo://app?vid=d2a20330-7d63-4c58-b62b-0e00da829c12"},"vehicle_type_id":"4","last_reported":1703279159,"current_range_meters":23600,"station_id":"ce4bgt12rcd13ifvqce0","pricing_plan_id":"free"},{"bike_id":"36f1a8df-12f4-4964-a04c-794f6bd21ac3","system_id":"levelo_inurba_marseille","lat":43.308012,"lon":5.381511,"is_reserved":false,"is_disabled":false,"rental_uris":{"android":"levelo://app?vid=36f1a8df-12f4-4964-a04c-794f6bd21ac3","ios":"levelo://app?vid=36f1a8df-12f4-4964-a04c-794f6bd21ac3"},"vehicle_type_id":"4","last_reported":1703279159,"current_range_meters":21600,"station_id":"ce4bgt12rcd13ifvqce0","pricing_plan_id":"free"},{"bike_id":"6676e4b4-d3d7-408d-9354-9a08ef7e19d2","system_id":"levelo_inurba_marseille","lat":43.304606,"lon":5.379026,"is_reserved":false,"is_disabled":false,"rental_uris":{"android":"levelo://app?vid=6676e4b4-d3d7-408d-9354-9a08ef7e19d2","ios":"levelo://app?vid=6676e4b4-d3d7-408d-9354-9a08ef7e19d2"},"vehicle_type_id":"4","last_reported":1703279159,"current_range_meters":26000,"station_id":"ce4bgup2rcd13ifvqcn0","pricing_plan_id":"free"},{"bike_id":"d49856a3-44f0-421b-b491-b14da2392901","system_id":"levelo_inurba_marseille","lat":43.304606,"lon":5.379026,"is_reserved":false,"is_disabled":false,"rental_uris":{"android":"levelo://app?vid=d49856a3-44f0-421b-b491-b14da2392901","ios":"levelo://app?vid=d49856a3-44f0-421b-b491-b14da2392901"},"vehicle_type_id":"4","last_reported":1703279159,"current_range_meters":25200,"station_id":"ce4bgup2rcd13ifvqcn0","pricing_plan_id":"free"},{"bike_id":"f66b2c3a-dca4-44e4-83aa-0408996240b7","system_id":"levelo_inurba_marseille","lat":43.304606,"lon":5.379026,"is_reserved":false,"is_disabled":false,"rental_uris":{"android":"levelo://app?vid=f66b2c3a-dca4-44e4-83aa-0408996240b7","ios":"levelo://app?vid=f66b2c3a-dca4-44e4-83aa-0408996240b7"},"vehicle_type_id":"4","last_reported":1703279159,"current_range_meters":31200,"station_id":"ce4bgup2rcd13ifvqcn0","pricing_plan_id":"free"},{"bike_id":"5173c815-5ad8-4866-809e-c9042bb14333","system_id":"levelo_inurba_marseille","lat":43.304606,"lon":5.379026,"is_reserved":false,"is_disabled":false,"rental_uris":{"android":"levelo://app?vid=5173c815-5ad8-4866-809e-c9042bb14333","ios":"levelo://app?vid=5173c815-5ad8-4866-809e-c9042bb14333"},"vehicle_type_id":"4","last_reported":1703279159,"current_range_meters":22800,"station_id":"ce4bgup2rcd13ifvqcn0","pricing_plan_id":"free"},{"bike_id":"00192217-4083-4c24-b3dc-41e4ad6320b2","system_id":"levelo_inurba_marseille","lat":43.304606,"lon":5.379026,"is_reserved":false,"is_disabled":false,"rental_uris":{"android":"levelo://app?vid=00192217-4083-4c24-b3dc-41e4ad6320b2","ios":"levelo://app?vid=00192217-4083-4c24-b3dc-41e4ad6320b2"},"vehicle_type_id":"4","last_reported":1703279159,"current_range_meters":27600,"station_id":"ce4bgup2rcd13ifvqcn0","pricing_plan_id":"free"},{"bike_id":"0f12f4a1-9d18-4087-b872-4b0ae162eb1d","system_id":"levelo_inurba_marseille","lat":43.324771,"lon":5.36557,"is_reserved":false,"is_disabled":false,"rental_uris":{"android":"levelo://app?vid=0f12f4a1-9d18-4087-b872-4b0ae162eb1d","ios":"levelo://app?vid=0f12f4a1-9d18-4087-b872-4b0ae162eb1d"},"vehicle_type_id":"4","last_reported":1703279159,"current_range_meters":0,"station_id":"ce4bhs12rcd13ifvqhvg","pricing_plan_id":"free"},{"bike_id":"69599836-e945-413a-a849-741769f44bc7","system_id":"levelo_inurba_marseille","lat":43.302784,"lon":5.377158,"is_reserved":false,"is_disabled":false,"rental_uris":{"android":"levelo://app?vid=69599836-e945-413a-a849-741769f44bc7","ios":"levelo://app?vid=69599836-e945-413a-a849-741769f44bc7"},"vehicle_type_id":"4","last_reported":1703279159,"current_range_meters":17200,"station_id":"ce4bguh2rcd13ifvqcj0","pricing_plan_id":"free"},{"bike_id":"a007f74f-8188-4986-bcf7-d8f09aba2c84","system_id":"levelo_inurba_marseille","lat":43.30143,"lon":5.37413,"is_reserved":false,"is_disabled":false,"rental_uris":{"android":"levelo://app?vid=a007f74f-8188-4986-bcf7-d8f09aba2c84","ios":"levelo://app?vid=a007f74f-8188-4986-bcf7-d8f09aba2c84"},"vehicle_type_id":"4","last_reported":1703279159,"current_range_meters":25600,"station_id":"ce4bgs92rcd13ifvqcc0","pricing_plan_id":"free"},{"bike_id":"c616a760-5d15-46bb-9d75-552ebc124cb7","system_id":"levelo_inurba_marseille","lat":43.319935,"lon":5.381699,"is_reserved":false,"is_disabled":false,"rental_uris":{"android":"levelo://app?vid=c616a760-5d15-46bb-9d75-552ebc124cb7","ios":"levelo://app?vid=c616a760-5d15-46bb-9d75-552ebc124cb7"},"vehicle_type_id":"4","last_reported":1703279159,"current_range_meters":19200,"station_id":"ce4bhr12rcd13ifvqhpg","pricing_plan_id":"free"},{"bike_id":"dc0f6af5-c02c-4610-baea-e5c6ca16f530","system_id":"levelo_inurba_marseille","lat":43.3199,"lon":5.38146,"is_reserved":false,"is_disabled":false,"rental_uris":{"android":"levelo://app?vid=dc0f6af5-c02c-4610-baea-e5c6ca16f530","ios":"levelo://app?vid=dc0f6af5-c02c-4610-baea-e5c6ca16f530"},"vehicle_type_id":"4","last_reported":1703279159,"current_range_meters":28000,"station_id":"ce4bhr12rcd13ifvqhpg","pricing_plan_id":"free"},{"bike_id":"9c231161-337f-4eba-87d3-44d75eaa84aa","system_id":"levelo_inurba_marseille","lat":43.319935,"lon":5.381699,"is_reserved":false,"is_disabled":false,"rental_uris":{"android":"levelo://app?vid=9c231161-337f-4eba-87d3-44d75eaa84aa","ios":"levelo://app?vid=9c231161-337f-4eba-87d3-44d75eaa84aa"},"vehicle_type_id":"4","last_reported":1703279159,"current_range_meters":30400,"station_id":"ce4bhr12rcd13ifvqhpg","pricing_plan_id":"free"},{"bike_id":"82b7c1aa-506b-4cff-953c-bb835d7847c3","system_id":"levelo_inurba_marseille","lat":43.319935,"lon":5.381699,"is_reserved":false,"is_disabled":false,"rental_uris":{"android":"levelo://app?vid=82b7c1aa-506b-4cff-953c-bb835d7847c3","ios":"levelo://app?vid=82b7c1aa-506b-4cff-953c-bb835d7847c3"},"vehicle_type_id":"4","last_reported":1703279159,"current_range_meters":14000,"station_id":"ce4bhr12rcd13ifvqhpg","pricing_plan_id":"free"},{"bike_id":"a4d91f4c-0227-4bc9-a904-969806ef4ac5","system_id":"levelo_inurba_marseille","lat":43.319935,"lon":5.381699,"is_reserved":false,"is_disabled":false,"rental_uris":{"android":"levelo://app?vid=a4d91f4c-0227-4bc9-a904-969806ef4ac5","ios":"levelo://app?vid=a4d91f4c-0227-4bc9-a904-969806ef4ac5"},"vehicle_type_id":"4","last_reported":1703279159,"current_range_meters":21600,"station_id":"ce4bhr12rcd13ifvqhpg","pricing_plan_id":"free"},{"bike_id":"0660b770-dd60-4e90-8802-23f4be821afa","system_id":"levelo_inurba_marseille","lat":43.319935,"lon":5.381699,"is_reserved":false,"is_disabled":false,"rental_uris":{"android":"levelo://app?vid=0660b770-dd60-4e90-8802-23f4be821afa","ios":"levelo://app?vid=0660b770-dd60-4e90-8802-23f4be821afa"},"vehicle_type_id":"4","last_reported":1703279159,"current_range_meters":5200,"station_id":"ce4bhr12rcd13ifvqhpg","pricing_plan_id":"free"},{"bike_id":"7f17d550-d32d-4490-8e9d-12fbd3d7571d","system_id":"levelo_inurba_marseille","lat":43.319935,"lon":5.381699,"is_reserved":false,"is_disabled":false,"rental_uris":{"android":"levelo://app?vid=7f17d550-d32d-4490-8e9d-12fbd3d7571d","ios":"levelo://app?vid=7f17d550-d32d-4490-8e9d-12fbd3d7571d"},"vehicle_type_id":"4","last_reported":1703279159,"current_range_meters":22000,"station_id":"ce4bhr12rcd13ifvqhpg","pricing_plan_id":"free"},{"bike_id":"965cf9c4-61d5-49c2-b8b1-76508d620af4","system_id":"levelo_inurba_marseille","lat":43.319935,"lon":5.381699,"is_reserved":false,"is_disabled":false,"rental_uris":{"android":"levelo://app?vid=965cf9c4-61d5-49c2-b8b1-76508d620af4","ios":"levelo://app?vid=965cf9c4-61d5-49c2-b8b1-76508d620af4"},"vehicle_type_id":"4","last_reported":1703279159,"current_range_meters":19600,"station_id":"ce4bhr12rcd13ifvqhpg","pricing_plan_id":"free"},{"bike_id":"418db413-a207-4393-943b-eeb597f51177","system_id":"levelo_inurba_marseille","lat":43.313571,"lon":5.384829,"is_reserved":false,"is_disabled":false,"rental_uris":{"android":"levelo://app?vid=418db413-a207-4393-943b-eeb597f51177","ios":"levelo://app?vid=418db413-a207-4393-943b-eeb597f51177"},"vehicle_type_id":"4","last_reported":1703279159,"current_range_meters":11200,"station_id":"ce4bgt92rcd13ifvqcf0","pricing_plan_id":"free"},{"bike_id":"85365f80-7a02-4629-b766-05ecb443a81e","system_id":"levelo_inurba_marseille","lat":43.313571,"lon":5.384829,"is_reserved":false,"is_disabled":false,"rental_uris":{"android":"levelo://app?vid=85365f80-7a02-4629-b766-05ecb443a81e","ios":"levelo://app?vid=85365f80-7a02-4629-b766-05ecb443a81e"},"vehicle_type_id":"4","last_reported":1703279159,"current_range_meters":6400,"station_id":"ce4bgt92rcd13ifvqcf0","pricing_plan_id":"free"},{"bike_id":"340deee9-a8d1-4273-accf-2f044ad8fe7d","system_id":"levelo_inurba_marseille","lat":43.313571,"lon":5.384829,"is_reserved":false,"is_disabled":false,"rental_uris":{"android":"levelo://app?vid=340deee9-a8d1-4273-accf-2f044ad8fe7d","ios":"levelo://app?vid=340deee9-a8d1-4273-accf-2f044ad8fe7d"},"vehicle_type_id":"4","last_reported":1703279159,"current_range_meters":28400,"station_id":"ce4bgt92rcd13ifvqcf0","pricing_plan_id":"free"},{"bike_id":"9bcc76d5-cfef-4169-a8dd-fa38fe80a4d0","system_id":"levelo_inurba_marseille","lat":43.29978,"lon":5.37166,"is_reserved":false,"is_disabled":false,"rental_uris":{"android":"levelo://app?vid=9bcc76d5-cfef-4169-a8dd-fa38fe80a4d0","ios":"levelo://app?vid=9bcc76d5-cfef-4169-a8dd-fa38fe80a4d0"},"vehicle_type_id":"4","last_reported":1703279159,"current_range_meters":4400,"station_id":"ce4bgr92rcd13ifvqc7g","pricing_plan_id":"free"},{"bike_id":"1e2ae72d-4a0f-4817-be6f-232d7ac49957","system_id":"levelo_inurba_marseille","lat":43.305364,"lon":5.384119,"is_reserved":false,"is_disabled":false,"rental_uris":{"android":"levelo://app?vid=1e2ae72d-4a0f-4817-be6f-232d7ac49957","ios":"levelo://app?vid=1e2ae72d-4a0f-4817-be6f-232d7ac49957"},"vehicle_type_id":"4","last_reported":1703279159,"current_range_meters":16400,"station_id":"ce4bgg92rcd13ifvqb30","pricing_plan_id":"free"},{"bike_id":"c8e613c1-e2f6-49a4-af32-186e98df160c","system_id":"levelo_inurba_marseille","lat":43.299243,"lon":5.374807,"is_reserved":false,"is_disabled":false,"rental_uris":{"android":"levelo://app?vid=c8e613c1-e2f6-49a4-af32-186e98df160c","ios":"levelo://app?vid=c8e613c1-e2f6-49a4-af32-186e98df160c"},"vehicle_type_id":"4","last_reported":1703279159,"current_range_meters":4000,"station_id":"ce4bgjh2rcd13ifvqbg0","pricing_plan_id":"free"},{"bike_id":"c481a43d-6862-4d89-9672-508007c5a6f2","system_id":"levelo_inurba_marseille","lat":43.311722,"lon":5.387247,"is_reserved":false,"is_disabled":false,"rental_uris":{"android":"levelo://app?vid=c481a43d-6862-4d89-9672-508007c5a6f2","ios":"levelo://app?vid=c481a43d-6862-4d89-9672-508007c5a6f2"},"vehicle_type_id":"4","last_reported":1703279159,"current_range_meters":12400,"station_id":"ce4bgv12rcd13ifvqcp0","pricing_plan_id":"free"},{"bike_id":"71684833-1aa8-4c1d-a58f-565c67dbe783","system_id":"levelo_inurba_marseille","lat":43.297794,"lon":5.370888,"is_reserved":false,"is_disabled":false,"rental_uris":{"android":"levelo://app?vid=71684833-1aa8-4c1d-a58f-565c67dbe783","ios":"levelo://app?vid=71684833-1aa8-4c1d-a58f-565c67dbe783"},"vehicle_type_id":"4","last_reported":1703279159,"current_range_meters":22400,"station_id":"ce4bgop2rcd13ifvqc1g","pricing_plan_id":"free"},{"bike_id":"ad4f7638-19dd-4636-900b-8086c329e450","system_id":"levelo_inurba_marseille","lat":43.297774,"lon":5.370875,"is_reserved":false,"is_disabled":false,"rental_uris":{"android":"levelo://app?vid=ad4f7638-19dd-4636-900b-8086c329e450","ios":"levelo://app?vid=ad4f7638-19dd-4636-900b-8086c329e450"},"vehicle_type_id":"4","last_reported":1703279159,"current_range_meters":13200,"station_id":"ce4bgop2rcd13ifvqc1g","pricing_plan_id":"free"},{"bike_id":"f5987233-1d3e-4901-8b4d-56e1ca83344b","system_id":"levelo_inurba_marseille","lat":43.322872,"lon":5.382756,"is_reserved":false,"is_disabled":false,"rental_uris":{"android":"levelo://app?vid=f5987233-1d3e-4901-8b4d-56e1ca83344b","ios":"levelo://app?vid=f5987233-1d3e-4901-8b4d-56e1ca83344b"},"vehicle_type_id":"4","last_reported":1703279159,"current_range_meters":31600,"station_id":"ce4bhr12rcd13ifvqhqg","pricing_plan_id":"free"},{"bike_id":"6ef56fd5-1a7c-4c71-8bf8-33afeff899ef","system_id":"levelo_inurba_marseille","lat":43.322872,"lon":5.382756,"is_reserved":false,"is_disabled":false,"rental_uris":{"android":"levelo://app?vid=6ef56fd5-1a7c-4c71-8bf8-33afeff899ef","ios":"levelo://app?vid=6ef56fd5-1a7c-4c71-8bf8-33afeff899ef"},"vehicle_type_id":"4","last_reported":1703279159,"current_range_meters":19600,"station_id":"ce4bhr12rcd13ifvqhqg","pricing_plan_id":"free"},{"bike_id":"62a0e181-56c1-4aad-a05b-240ecf27baec","system_id":"levelo_inurba_marseille","lat":43.322872,"lon":5.382756,"is_reserved":false,"is_disabled":false,"rental_uris":{"android":"levelo://app?vid=62a0e181-56c1-4aad-a05b-240ecf27baec","ios":"levelo://app?vid=62a0e181-56c1-4aad-a05b-240ecf27baec"},"vehicle_type_id":"4","last_reported":1703279159,"current_range_meters":31600,"station_id":"ce4bhr12rcd13ifvqhqg","pricing_plan_id":"free"},{"bike_id":"e4cf6f6e-7d8c-4b7e-ab01-7de3c446c970","system_id":"levelo_inurba_marseille","lat":43.322872,"lon":5.382756,"is_reserved":false,"is_disabled":false,"rental_uris":{"android":"levelo://app?vid=e4cf6f6e-7d8c-4b7e-ab01-7de3c446c970","ios":"levelo://app?vid=e4cf6f6e-7d8c-4b7e-ab01-7de3c446c970"},"vehicle_type_id":"4","last_reported":1703279159,"current_range_meters":29600,"station_id":"ce4bhr12rcd13ifvqhqg","pricing_plan_id":"free"},{"bike_id":"d728a8b4-bece-4be0-a14a-8abb6b425cd7","system_id":"levelo_inurba_marseille","lat":43.328371,"lon":5.366909,"is_reserved":false,"is_disabled":false,"rental_uris":{"android":"levelo://app?vid=d728a8b4-bece-4be0-a14a-8abb6b425cd7","ios":"levelo://app?vid=d728a8b4-bece-4be0-a14a-8abb6b425cd7"},"vehicle_type_id":"4","last_reported":1703279159,"current_range_meters":16000,"station_id":"ce4bhs92rcd13ifvqi0g","pricing_plan_id":"free"},{"bike_id":"525f6ec1-c089-48ad-8216-d8e073aa768d","system_id":"levelo_inurba_marseille","lat":43.32827,"lon":5.36676,"is_reserved":false,"is_disabled":false,"rental_uris":{"android":"levelo://app?vid=525f6ec1-c089-48ad-8216-d8e073aa768d","ios":"levelo://app?vid=525f6ec1-c089-48ad-8216-d8e073aa768d"},"vehicle_type_id":"4","last_reported":1703279159,"current_range_meters":6400,"station_id":"ce4bhs92rcd13ifvqi0g","pricing_plan_id":"free"},{"bike_id":"d2be49f4-d512-450f-80de-370a6da97420","system_id":"levelo_inurba_marseille","lat":43.328371,"lon":5.366909,"is_reserved":false,"is_disabled":false,"rental_uris":{"android":"levelo://app?vid=d2be49f4-d512-450f-80de-370a6da97420","ios":"levelo://app?vid=d2be49f4-d512-450f-80de-370a6da97420"},"vehicle_type_id":"4","last_reported":1703279159,"current_range_meters":4000,"station_id":"ce4bhs92rcd13ifvqi0g","pricing_plan_id":"free"},{"bike_id":"aa3fb6e4-1c03-44e5-96a0-f8edc6b5e34f","system_id":"levelo_inurba_marseille","lat":43.328371,"lon":5.366909,"is_reserved":false,"is_disabled":false,"rental_uris":{"android":"levelo://app?vid=aa3fb6e4-1c03-44e5-96a0-f8edc6b5e34f","ios":"levelo://app?vid=aa3fb6e4-1c03-44e5-96a0-f8edc6b5e34f"},"vehicle_type_id":"4","last_reported":1703279159,"current_range_meters":0,"station_id":"ce4bhs92rcd13ifvqi0g","pricing_plan_id":"free"},{"bike_id":"35885570-4683-4059-8e33-5f256f01c4d9","system_id":"levelo_inurba_marseille","lat":43.297163,"lon":5.365866,"is_reserved":false,"is_disabled":false,"rental_uris":{"android":"levelo://app?vid=35885570-4683-4059-8e33-5f256f01c4d9","ios":"levelo://app?vid=35885570-4683-4059-8e33-5f256f01c4d9"},"vehicle_type_id":"4","last_reported":1703279159,"current_range_meters":24800,"station_id":"ce4bgn12rcd13ifvqbt0","pricing_plan_id":"free"},{"bike_id":"6cba446c-9ee9-4546-8c3c-626825b73b1e","system_id":"levelo_inurba_marseille","lat":43.328371,"lon":5.366909,"is_reserved":false,"is_disabled":false,"rental_uris":{"android":"levelo://app?vid=6cba446c-9ee9-4546-8c3c-626825b73b1e","ios":"levelo://app?vid=6cba446c-9ee9-4546-8c3c-626825b73b1e"},"vehicle_type_id":"4","last_reported":1703279159,"current_range_meters":6400,"station_id":"ce4bhs92rcd13ifvqi0g","pricing_plan_id":"free"},{"bike_id":"558ec63f-134c-4e7a-9858-e5ff95d1d8fa","system_id":"levelo_inurba_marseille","lat":43.296026,"lon":5.367851,"is_reserved":false,"is_disabled":false,"rental_uris":{"android":"levelo://app?vid=558ec63f-134c-4e7a-9858-e5ff95d1d8fa","ios":"levelo://app?vid=558ec63f-134c-4e7a-9858-e5ff95d1d8fa"},"vehicle_type_id":"4","last_reported":1703279159,"current_range_meters":13200,"station_id":"ce4bgph2rcd13ifvqc2g","pricing_plan_id":"free"},{"bike_id":"b403e6b0-50a3-4e6a-80ff-538a53db017c","system_id":"levelo_inurba_marseille","lat":43.29587,"lon":5.36746,"is_reserved":false,"is_disabled":false,"rental_uris":{"android":"levelo://app?vid=b403e6b0-50a3-4e6a-80ff-538a53db017c","ios":"levelo://app?vid=b403e6b0-50a3-4e6a-80ff-538a53db017c"},"vehicle_type_id":"4","last_reported":1703279159,"current_range_meters":12400,"station_id":"ce4bgph2rcd13ifvqc2g","pricing_plan_id":"free"},{"bike_id":"7eada8fb-8c59-41ea-ae15-1164bd9fc1af","system_id":"levelo_inurba_marseille","lat":43.32176,"lon":5.38767,"is_reserved":false,"is_disabled":false,"rental_uris":{"android":"levelo://app?vid=7eada8fb-8c59-41ea-ae15-1164bd9fc1af","ios":"levelo://app?vid=7eada8fb-8c59-41ea-ae15-1164bd9fc1af"},"vehicle_type_id":"4","last_reported":1703279159,"current_range_meters":29600,"station_id":"","pricing_plan_id":"free"},{"bike_id":"d39682ea-d8f1-45a4-b2b8-5a732fb091bc","system_id":"levelo_inurba_marseille","lat":43.317557,"lon":5.390173,"is_reserved":false,"is_disabled":false,"rental_uris":{"android":"levelo://app?vid=d39682ea-d8f1-45a4-b2b8-5a732fb091bc","ios":"levelo://app?vid=d39682ea-d8f1-45a4-b2b8-5a732fb091bc"},"vehicle_type_id":"4","last_reported":1703279159,"current_range_meters":31200,"station_id":"ce4bhqp2rcd13ifvqhng","pricing_plan_id":"free"},{"bike_id":"43855516-4c02-494d-aefa-3c215dbc6b85","system_id":"levelo_inurba_marseille","lat":43.317557,"lon":5.390173,"is_reserved":false,"is_disabled":false,"rental_uris":{"android":"levelo://app?vid=43855516-4c02-494d-aefa-3c215dbc6b85","ios":"levelo://app?vid=43855516-4c02-494d-aefa-3c215dbc6b85"},"vehicle_type_id":"4","last_reported":1703279159,"current_range_meters":800,"station_id":"ce4bhqp2rcd13ifvqhng","pricing_plan_id":"free"},{"bike_id":"cdb3d701-5381-4219-9cdd-c446bf2fa9ab","system_id":"levelo_inurba_marseille","lat":43.295322,"lon":5.361142,"is_reserved":false,"is_disabled":false,"rental_uris":{"android":"levelo://app?vid=cdb3d701-5381-4219-9cdd-c446bf2fa9ab","ios":"levelo://app?vid=cdb3d701-5381-4219-9cdd-c446bf2fa9ab"},"vehicle_type_id":"4","last_reported":1703279159,"current_range_meters":7200,"station_id":"","pricing_plan_id":"free"},{"bike_id":"751abed5-dd5a-4e93-af76-564fc4c5a6ce","system_id":"levelo_inurba_marseille","lat":43.295748,"lon":5.37522,"is_reserved":false,"is_disabled":false,"rental_uris":{"android":"levelo://app?vid=751abed5-dd5a-4e93-af76-564fc4c5a6ce","ios":"levelo://app?vid=751abed5-dd5a-4e93-af76-564fc4c5a6ce"},"vehicle_type_id":"4","last_reported":1703279159,"current_range_meters":18400,"station_id":"ce4bgh92rcd13ifvqb50","pricing_plan_id":"free"},{"bike_id":"9589c280-ecde-457a-914d-fdfffc4db58d","system_id":"levelo_inurba_marseille","lat":43.295748,"lon":5.37522,"is_reserved":false,"is_disabled":false,"rental_uris":{"android":"levelo://app?vid=9589c280-ecde-457a-914d-fdfffc4db58d","ios":"levelo://app?vid=9589c280-ecde-457a-914d-fdfffc4db58d"},"vehicle_type_id":"4","last_reported":1703279159,"current_range_meters":21200,"station_id":"ce4bgh92rcd13ifvqb50","pricing_plan_id":"free"},{"bike_id":"af9499c7-8902-4195-acb2-149e7ab366df","system_id":"levelo_inurba_marseille","lat":43.295279,"lon":5.375048,"is_reserved":false,"is_disabled":false,"rental_uris":{"android":"levelo://app?vid=af9499c7-8902-4195-acb2-149e7ab366df","ios":"levelo://app?vid=af9499c7-8902-4195-acb2-149e7ab366df"},"vehicle_type_id":"4","last_reported":1703279159,"current_range_meters":28400,"station_id":"ce4bgkp2rcd13ifvqbmg","pricing_plan_id":"free"},{"bike_id":"1378810b-812d-44e5-847a-1b7aeb90e4c4","system_id":"levelo_inurba_marseille","lat":43.299,"lon":5.38357,"is_reserved":false,"is_disabled":false,"rental_uris":{"android":"levelo://app?vid=1378810b-812d-44e5-847a-1b7aeb90e4c4","ios":"levelo://app?vid=1378810b-812d-44e5-847a-1b7aeb90e4c4"},"vehicle_type_id":"4","last_reported":1703279159,"current_range_meters":0,"station_id":"","pricing_plan_id":"free"},{"bike_id":"f10abdc3-6f5c-47db-92d6-1fd85ad8bddf","system_id":"levelo_inurba_marseille","lat":43.299717,"lon":5.384845,"is_reserved":false,"is_disabled":false,"rental_uris":{"android":"levelo://app?vid=f10abdc3-6f5c-47db-92d6-1fd85ad8bddf","ios":"levelo://app?vid=f10abdc3-6f5c-47db-92d6-1fd85ad8bddf"},"vehicle_type_id":"4","last_reported":1703279159,"current_range_meters":15200,"station_id":"ce4bgj92rcd13ifvqbd0","pricing_plan_id":"free"},{"bike_id":"7d26959c-9983-400b-b0e7-eca1cdbaabf3","system_id":"levelo_inurba_marseille","lat":43.299707,"lon":5.384859,"is_reserved":false,"is_disabled":false,"rental_uris":{"android":"levelo://app?vid=7d26959c-9983-400b-b0e7-eca1cdbaabf3","ios":"levelo://app?vid=7d26959c-9983-400b-b0e7-eca1cdbaabf3"},"vehicle_type_id":"4","last_reported":1703279159,"current_range_meters":31200,"station_id":"ce4bgj92rcd13ifvqbd0","pricing_plan_id":"free"},{"bike_id":"fb803c70-a754-4cf5-8a7a-8c2b2c950940","system_id":"levelo_inurba_marseille","lat":43.295279,"lon":5.375048,"is_reserved":false,"is_disabled":false,"rental_uris":{"android":"levelo://app?vid=fb803c70-a754-4cf5-8a7a-8c2b2c950940","ios":"levelo://app?vid=fb803c70-a754-4cf5-8a7a-8c2b2c950940"},"vehicle_type_id":"4","last_reported":1703279159,"current_range_meters":8400,"station_id":"ce4bgkp2rcd13ifvqbmg","pricing_plan_id":"free"},{"bike_id":"90604aac-855a-476e-8ec3-49541958c0ba","system_id":"levelo_inurba_marseille","lat":43.295279,"lon":5.375048,"is_reserved":false,"is_disabled":false,"rental_uris":{"android":"levelo://app?vid=90604aac-855a-476e-8ec3-49541958c0ba","ios":"levelo://app?vid=90604aac-855a-476e-8ec3-49541958c0ba"},"vehicle_type_id":"4","last_reported":1703279159,"current_range_meters":22000,"station_id":"ce4bgkp2rcd13ifvqbmg","pricing_plan_id":"free"},{"bike_id":"9ddc5689-f4dd-4957-942a-3f2c63757cf5","system_id":"levelo_inurba_marseille","lat":43.299717,"lon":5.384845,"is_reserved":false,"is_disabled":false,"rental_uris":{"android":"levelo://app?vid=9ddc5689-f4dd-4957-942a-3f2c63757cf5","ios":"levelo://app?vid=9ddc5689-f4dd-4957-942a-3f2c63757cf5"},"vehicle_type_id":"4","last_reported":1703279159,"current_range_meters":4000,"station_id":"ce4bgj92rcd13ifvqbd0","pricing_plan_id":"free"},{"bike_id":"2a213056-ee19-4ae3-bca7-0984aab96cbf","system_id":"levelo_inurba_marseille","lat":43.295279,"lon":5.375048,"is_reserved":false,"is_disabled":false,"rental_uris":{"android":"levelo://app?vid=2a213056-ee19-4ae3-bca7-0984aab96cbf","ios":"levelo://app?vid=2a213056-ee19-4ae3-bca7-0984aab96cbf"},"vehicle_type_id":"4","last_reported":1703279159,"current_range_meters":20000,"station_id":"ce4bgkp2rcd13ifvqbmg","pricing_plan_id":"free"},{"bike_id":"27d270ce-54e1-47de-9de1-e845aa894523","system_id":"levelo_inurba_marseille","lat":43.299707,"lon":5.384859,"is_reserved":false,"is_disabled":false,"rental_uris":{"android":"levelo://app?vid=27d270ce-54e1-47de-9de1-e845aa894523","ios":"levelo://app?vid=27d270ce-54e1-47de-9de1-e845aa894523"},"vehicle_type_id":"4","last_reported":1703279159,"current_range_meters":7200,"station_id":"ce4bgj92rcd13ifvqbd0","pricing_plan_id":"free"},{"bike_id":"80bda835-1a54-4498-aa05-c858905f235e","system_id":"levelo_inurba_marseille","lat":43.295279,"lon":5.375048,"is_reserved":false,"is_disabled":false,"rental_uris":{"android":"levelo://app?vid=80bda835-1a54-4498-aa05-c858905f235e","ios":"levelo://app?vid=80bda835-1a54-4498-aa05-c858905f235e"},"vehicle_type_id":"4","last_reported":1703279159,"current_range_meters":6000,"station_id":"ce4bgkp2rcd13ifvqbmg","pricing_plan_id":"free"},{"bike_id":"dc576f31-c21e-42d2-97a4-815b145b7f58","system_id":"levelo_inurba_marseille","lat":43.32367,"lon":5.388836,"is_reserved":false,"is_disabled":false,"rental_uris":{"android":"levelo://app?vid=dc576f31-c21e-42d2-97a4-815b145b7f58","ios":"levelo://app?vid=dc576f31-c21e-42d2-97a4-815b145b7f58"},"vehicle_type_id":"4","last_reported":1703279159,"current_range_meters":2000,"station_id":"ce4bhqp2rcd13ifvqhog","pricing_plan_id":"free"},{"bike_id":"035ba96c-8560-4c70-973e-f7eb3e99c40c","system_id":"levelo_inurba_marseille","lat":43.32367,"lon":5.388836,"is_reserved":false,"is_disabled":false,"rental_uris":{"android":"levelo://app?vid=035ba96c-8560-4c70-973e-f7eb3e99c40c","ios":"levelo://app?vid=035ba96c-8560-4c70-973e-f7eb3e99c40c"},"vehicle_type_id":"4","last_reported":1703279159,"current_range_meters":20000,"station_id":"ce4bhqp2rcd13ifvqhog","pricing_plan_id":"free"},{"bike_id":"50b8a951-b97d-4db7-9a3d-5f00fb7b52db","system_id":"levelo_inurba_marseille","lat":43.305994,"lon":5.393687,"is_reserved":false,"is_disabled":false,"rental_uris":{"android":"levelo://app?vid=50b8a951-b97d-4db7-9a3d-5f00fb7b52db","ios":"levelo://app?vid=50b8a951-b97d-4db7-9a3d-5f00fb7b52db"},"vehicle_type_id":"4","last_reported":1703279159,"current_range_meters":31200,"station_id":"ce4bh0p2rcd13ifvqd80","pricing_plan_id":"free"},{"bike_id":"e09aac6f-c379-4816-90f9-82fd8b8c09d8","system_id":"levelo_inurba_marseille","lat":43.293009,"lon":5.374584,"is_reserved":false,"is_disabled":false,"rental_uris":{"android":"levelo://app?vid=e09aac6f-c379-4816-90f9-82fd8b8c09d8","ios":"levelo://app?vid=e09aac6f-c379-4816-90f9-82fd8b8c09d8"},"vehicle_type_id":"4","last_reported":1703279159,"current_range_meters":23200,"station_id":"ce4bgi12rcd13ifvqb70","pricing_plan_id":"free"},{"bike_id":"ef4b4492-a5fd-443b-8737-f64cb86b9453","system_id":"levelo_inurba_marseille","lat":43.293009,"lon":5.374584,"is_reserved":false,"is_disabled":false,"rental_uris":{"android":"levelo://app?vid=ef4b4492-a5fd-443b-8737-f64cb86b9453","ios":"levelo://app?vid=ef4b4492-a5fd-443b-8737-f64cb86b9453"},"vehicle_type_id":"4","last_reported":1703279159,"current_range_meters":13600,"station_id":"ce4bgi12rcd13ifvqb70","pricing_plan_id":"free"},{"bike_id":"c6a83b09-b16e-45ed-8bb4-75d04d392aee","system_id":"levelo_inurba_marseille","lat":43.305994,"lon":5.393687,"is_reserved":false,"is_disabled":false,"rental_uris":{"android":"levelo://app?vid=c6a83b09-b16e-45ed-8bb4-75d04d392aee","ios":"levelo://app?vid=c6a83b09-b16e-45ed-8bb4-75d04d392aee"},"vehicle_type_id":"4","last_reported":1703279159,"current_range_meters":21200,"station_id":"ce4bh0p2rcd13ifvqd80","pricing_plan_id":"free"},{"bike_id":"8c22edc2-1058-42e7-9f43-b1cbb5b25abf","system_id":"levelo_inurba_marseille","lat":43.302992,"lon":5.392136,"is_reserved":false,"is_disabled":false,"rental_uris":{"android":"levelo://app?vid=8c22edc2-1058-42e7-9f43-b1cbb5b25abf","ios":"levelo://app?vid=8c22edc2-1058-42e7-9f43-b1cbb5b25abf"},"vehicle_type_id":"4","last_reported":1703279159,"current_range_meters":26400,"station_id":"ce4bgkh2rcd13ifvqbk0","pricing_plan_id":"free"},{"bike_id":"1c9f9c7d-f616-4d76-9e4b-305bb4afae9b","system_id":"levelo_inurba_marseille","lat":43.2936,"lon":5.37835,"is_reserved":false,"is_disabled":false,"rental_uris":{"android":"levelo://app?vid=1c9f9c7d-f616-4d76-9e4b-305bb4afae9b","ios":"levelo://app?vid=1c9f9c7d-f616-4d76-9e4b-305bb4afae9b"},"vehicle_type_id":"4","last_reported":1703279159,"current_range_meters":21600,"station_id":"ce4bgjh2rcd13ifvqbf0","pricing_plan_id":"free"},{"bike_id":"ddd45a12-8629-4dfc-900d-fbe35bd1e378","system_id":"levelo_inurba_marseille","lat":43.292311,"lon":5.360731,"is_reserved":false,"is_disabled":false,"rental_uris":{"android":"levelo://app?vid=ddd45a12-8629-4dfc-900d-fbe35bd1e378","ios":"levelo://app?vid=ddd45a12-8629-4dfc-900d-fbe35bd1e378"},"vehicle_type_id":"4","last_reported":1703279159,"current_range_meters":4000,"station_id":"ce4bhbh2rcd13ifvqeqg","pricing_plan_id":"free"},{"bike_id":"557000a1-02d5-45c6-b20c-951b70bf4f82","system_id":"levelo_inurba_marseille","lat":43.300983,"lon":5.390867,"is_reserved":false,"is_disabled":false,"rental_uris":{"android":"levelo://app?vid=557000a1-02d5-45c6-b20c-951b70bf4f82","ios":"levelo://app?vid=557000a1-02d5-45c6-b20c-951b70bf4f82"},"vehicle_type_id":"4","last_reported":1703279159,"current_range_meters":0,"station_id":"","pricing_plan_id":"free"},{"bike_id":"05d8c298-1352-4e1c-868c-e603126aa691","system_id":"levelo_inurba_marseille","lat":43.291675,"lon":5.371583,"is_reserved":false,"is_disabled":false,"rental_uris":{"android":"levelo://app?vid=05d8c298-1352-4e1c-868c-e603126aa691","ios":"levelo://app?vid=05d8c298-1352-4e1c-868c-e603126aa691"},"vehicle_type_id":"4","last_reported":1703279159,"current_range_meters":12800,"station_id":"ce4bha92rcd13ifvqeh0","pricing_plan_id":"free"},{"bike_id":"94a79b1b-d4da-4f52-b1fc-7a613f9e3b62","system_id":"levelo_inurba_marseille","lat":43.29871,"lon":5.3891,"is_reserved":false,"is_disabled":false,"rental_uris":{"android":"levelo://app?vid=94a79b1b-d4da-4f52-b1fc-7a613f9e3b62","ios":"levelo://app?vid=94a79b1b-d4da-4f52-b1fc-7a613f9e3b62"},"vehicle_type_id":"4","last_reported":1703279159,"current_range_meters":21600,"station_id":"","pricing_plan_id":"free"},{"bike_id":"58cd2f8a-199a-497e-b063-29597504a54c","system_id":"levelo_inurba_marseille","lat":43.29866,"lon":5.3891,"is_reserved":false,"is_disabled":false,"rental_uris":{"android":"levelo://app?vid=58cd2f8a-199a-497e-b063-29597504a54c","ios":"levelo://app?vid=58cd2f8a-199a-497e-b063-29597504a54c"},"vehicle_type_id":"4","last_reported":1703279159,"current_range_meters":3200,"station_id":"","pricing_plan_id":"free"},{"bike_id":"d24a6b7b-da49-49c7-829b-2e032599b918","system_id":"levelo_inurba_marseille","lat":43.291994,"lon":5.357886,"is_reserved":false,"is_disabled":false,"rental_uris":{"android":"levelo://app?vid=d24a6b7b-da49-49c7-829b-2e032599b918","ios":"levelo://app?vid=d24a6b7b-da49-49c7-829b-2e032599b918"},"vehicle_type_id":"4","last_reported":1703279159,"current_range_meters":11200,"station_id":"ce4bhb12rcd13ifvqel0","pricing_plan_id":"free"},{"bike_id":"af4eb44c-b6c6-4ffb-9294-38dd5d5dc4b6","system_id":"levelo_inurba_marseille","lat":43.31327,"lon":5.39691,"is_reserved":false,"is_disabled":false,"rental_uris":{"android":"levelo://app?vid=af4eb44c-b6c6-4ffb-9294-38dd5d5dc4b6","ios":"levelo://app?vid=af4eb44c-b6c6-4ffb-9294-38dd5d5dc4b6"},"vehicle_type_id":"4","last_reported":1703279159,"current_range_meters":20800,"station_id":"ce4bgvp2rcd13ifvqcu0","pricing_plan_id":"free"},{"bike_id":"38d8ffb9-ac7c-4e14-9721-daaee9d23c1a","system_id":"levelo_inurba_marseille","lat":43.313291,"lon":5.396838,"is_reserved":false,"is_disabled":false,"rental_uris":{"android":"levelo://app?vid=38d8ffb9-ac7c-4e14-9721-daaee9d23c1a","ios":"levelo://app?vid=38d8ffb9-ac7c-4e14-9721-daaee9d23c1a"},"vehicle_type_id":"4","last_reported":1703279159,"current_range_meters":30000,"station_id":"ce4bgvp2rcd13ifvqcu0","pricing_plan_id":"free"},{"bike_id":"a90b8b83-e596-4fc1-8b62-b201f740b064","system_id":"levelo_inurba_marseille","lat":43.313291,"lon":5.396838,"is_reserved":false,"is_disabled":false,"rental_uris":{"android":"levelo://app?vid=a90b8b83-e596-4fc1-8b62-b201f740b064","ios":"levelo://app?vid=a90b8b83-e596-4fc1-8b62-b201f740b064"},"vehicle_type_id":"4","last_reported":1703279159,"current_range_meters":24800,"station_id":"ce4bgvp2rcd13ifvqcu0","pricing_plan_id":"free"},{"bike_id":"cbc62839-3c9d-4d9e-963f-bbabfe928114","system_id":"levelo_inurba_marseille","lat":43.313291,"lon":5.396838,"is_reserved":false,"is_disabled":false,"rental_uris":{"android":"levelo://app?vid=cbc62839-3c9d-4d9e-963f-bbabfe928114","ios":"levelo://app?vid=cbc62839-3c9d-4d9e-963f-bbabfe928114"},"vehicle_type_id":"4","last_reported":1703279159,"current_range_meters":18000,"station_id":"ce4bgvp2rcd13ifvqcu0","pricing_plan_id":"free"},{"bike_id":"fa38fcc7-ca87-4463-a289-03c7cd4e6723","system_id":"levelo_inurba_marseille","lat":43.313291,"lon":5.396838,"is_reserved":false,"is_disabled":false,"rental_uris":{"android":"levelo://app?vid=fa38fcc7-ca87-4463-a289-03c7cd4e6723","ios":"levelo://app?vid=fa38fcc7-ca87-4463-a289-03c7cd4e6723"},"vehicle_type_id":"4","last_reported":1703279159,"current_range_meters":28400,"station_id":"ce4bgvp2rcd13ifvqcu0","pricing_plan_id":"free"},{"bike_id":"365351fb-9dc0-4763-85db-886ebe3b10db","system_id":"levelo_inurba_marseille","lat":43.313291,"lon":5.396838,"is_reserved":false,"is_disabled":false,"rental_uris":{"android":"levelo://app?vid=365351fb-9dc0-4763-85db-886ebe3b10db","ios":"levelo://app?vid=365351fb-9dc0-4763-85db-886ebe3b10db"},"vehicle_type_id":"4","last_reported":1703279159,"current_range_meters":7600,"station_id":"ce4bgvp2rcd13ifvqcu0","pricing_plan_id":"free"},{"bike_id":"c4b5c253-f844-42fd-82a6-50cb9b8a64cd","system_id":"levelo_inurba_marseille","lat":43.313291,"lon":5.396838,"is_reserved":false,"is_disabled":false,"rental_uris":{"android":"levelo://app?vid=c4b5c253-f844-42fd-82a6-50cb9b8a64cd","ios":"levelo://app?vid=c4b5c253-f844-42fd-82a6-50cb9b8a64cd"},"vehicle_type_id":"4","last_reported":1703279159,"current_range_meters":31600,"station_id":"ce4bgvp2rcd13ifvqcu0","pricing_plan_id":"free"},{"bike_id":"f933215d-6626-4c32-b02f-641c93ecbb55","system_id":"levelo_inurba_marseille","lat":43.309038,"lon":5.396546,"is_reserved":false,"is_disabled":false,"rental_uris":{"android":"levelo://app?vid=f933215d-6626-4c32-b02f-641c93ecbb55","ios":"levelo://app?vid=f933215d-6626-4c32-b02f-641c93ecbb55"},"vehicle_type_id":"4","last_reported":1703279159,"current_range_meters":5600,"station_id":"ce4bh012rcd13ifvqcv0","pricing_plan_id":"free"},{"bike_id":"eceb5307-053e-422d-bbd0-9af032e873b8","system_id":"levelo_inurba_marseille","lat":43.313291,"lon":5.396838,"is_reserved":false,"is_disabled":false,"rental_uris":{"android":"levelo://app?vid=eceb5307-053e-422d-bbd0-9af032e873b8","ios":"levelo://app?vid=eceb5307-053e-422d-bbd0-9af032e873b8"},"vehicle_type_id":"4","last_reported":1703279159,"current_range_meters":25600,"station_id":"ce4bgvp2rcd13ifvqcu0","pricing_plan_id":"free"},{"bike_id":"155c9fe9-c508-4cda-9841-f95a11134658","system_id":"levelo_inurba_marseille","lat":43.309038,"lon":5.396546,"is_reserved":false,"is_disabled":false,"rental_uris":{"android":"levelo://app?vid=155c9fe9-c508-4cda-9841-f95a11134658","ios":"levelo://app?vid=155c9fe9-c508-4cda-9841-f95a11134658"},"vehicle_type_id":"4","last_reported":1703279159,"current_range_meters":22800,"station_id":"ce4bh012rcd13ifvqcv0","pricing_plan_id":"free"},{"bike_id":"1c53378b-8e96-4648-8299-2ce4fc698ff4","system_id":"levelo_inurba_marseille","lat":43.309047,"lon":5.396551,"is_reserved":false,"is_disabled":false,"rental_uris":{"android":"levelo://app?vid=1c53378b-8e96-4648-8299-2ce4fc698ff4","ios":"levelo://app?vid=1c53378b-8e96-4648-8299-2ce4fc698ff4"},"vehicle_type_id":"4","last_reported":1703279159,"current_range_meters":9200,"station_id":"ce4bh012rcd13ifvqcv0","pricing_plan_id":"free"},{"bike_id":"8574d9c3-1f5d-45bc-b840-34b822fa2f5a","system_id":"levelo_inurba_marseille","lat":43.309047,"lon":5.396551,"is_reserved":false,"is_disabled":false,"rental_uris":{"android":"levelo://app?vid=8574d9c3-1f5d-45bc-b840-34b822fa2f5a","ios":"levelo://app?vid=8574d9c3-1f5d-45bc-b840-34b822fa2f5a"},"vehicle_type_id":"4","last_reported":1703279159,"current_range_meters":20400,"station_id":"ce4bh012rcd13ifvqcv0","pricing_plan_id":"free"},{"bike_id":"b2695943-07fd-49b6-a987-ac2d9d2b0c81","system_id":"levelo_inurba_marseille","lat":43.309038,"lon":5.396546,"is_reserved":false,"is_disabled":false,"rental_uris":{"android":"levelo://app?vid=b2695943-07fd-49b6-a987-ac2d9d2b0c81","ios":"levelo://app?vid=b2695943-07fd-49b6-a987-ac2d9d2b0c81"},"vehicle_type_id":"4","last_reported":1703279159,"current_range_meters":13200,"station_id":"ce4bh012rcd13ifvqcv0","pricing_plan_id":"free"},{"bike_id":"75010e95-6090-49a5-abe9-7665f1325710","system_id":"levelo_inurba_marseille","lat":43.309038,"lon":5.396546,"is_reserved":false,"is_disabled":false,"rental_uris":{"android":"levelo://app?vid=75010e95-6090-49a5-abe9-7665f1325710","ios":"levelo://app?vid=75010e95-6090-49a5-abe9-7665f1325710"},"vehicle_type_id":"4","last_reported":1703279159,"current_range_meters":12400,"station_id":"ce4bh012rcd13ifvqcv0","pricing_plan_id":"free"},{"bike_id":"d6b7b7c5-92ae-46d1-916a-aca8d8ace2d3","system_id":"levelo_inurba_marseille","lat":43.29529,"lon":5.385581,"is_reserved":false,"is_disabled":false,"rental_uris":{"android":"levelo://app?vid=d6b7b7c5-92ae-46d1-916a-aca8d8ace2d3","ios":"levelo://app?vid=d6b7b7c5-92ae-46d1-916a-aca8d8ace2d3"},"vehicle_type_id":"4","last_reported":1703279159,"current_range_meters":2800,"station_id":"ce4bgih2rcd13ifvqba0","pricing_plan_id":"free"},{"bike_id":"2fd4bec6-112e-41a0-88ab-cd7b4f4f3a2f","system_id":"levelo_inurba_marseille","lat":43.29529,"lon":5.385581,"is_reserved":false,"is_disabled":false,"rental_uris":{"android":"levelo://app?vid=2fd4bec6-112e-41a0-88ab-cd7b4f4f3a2f","ios":"levelo://app?vid=2fd4bec6-112e-41a0-88ab-cd7b4f4f3a2f"},"vehicle_type_id":"4","last_reported":1703279159,"current_range_meters":22400,"station_id":"ce4bgih2rcd13ifvqba0","pricing_plan_id":"free"},{"bike_id":"a91591f1-076d-4a62-a102-562e8624b379","system_id":"levelo_inurba_marseille","lat":43.29534,"lon":5.38546,"is_reserved":false,"is_disabled":false,"rental_uris":{"android":"levelo://app?vid=a91591f1-076d-4a62-a102-562e8624b379","ios":"levelo://app?vid=a91591f1-076d-4a62-a102-562e8624b379"},"vehicle_type_id":"4","last_reported":1703279159,"current_range_meters":2400,"station_id":"ce4bgih2rcd13ifvqba0","pricing_plan_id":"free"},{"bike_id":"f3fadc2e-ab44-46a7-b5f6-998404051c6b","system_id":"levelo_inurba_marseille","lat":43.29529,"lon":5.385581,"is_reserved":false,"is_disabled":false,"rental_uris":{"android":"levelo://app?vid=f3fadc2e-ab44-46a7-b5f6-998404051c6b","ios":"levelo://app?vid=f3fadc2e-ab44-46a7-b5f6-998404051c6b"},"vehicle_type_id":"4","last_reported":1703279159,"current_range_meters":25200,"station_id":"ce4bgih2rcd13ifvqba0","pricing_plan_id":"free"},{"bike_id":"b9dfbc3d-0db8-4e73-afbf-f143ba1f2902","system_id":"levelo_inurba_marseille","lat":43.302008,"lon":5.394694,"is_reserved":false,"is_disabled":false,"rental_uris":{"android":"levelo://app?vid=b9dfbc3d-0db8-4e73-afbf-f143ba1f2902","ios":"levelo://app?vid=b9dfbc3d-0db8-4e73-afbf-f143ba1f2902"},"vehicle_type_id":"4","last_reported":1703279159,"current_range_meters":26400,"station_id":"ce4bh0p2rcd13ifvqd70","pricing_plan_id":"free"},{"bike_id":"ee4a5d41-dc9c-4a77-93e6-9a65efd6ce04","system_id":"levelo_inurba_marseille","lat":43.290631,"lon":5.359244,"is_reserved":false,"is_disabled":false,"rental_uris":{"android":"levelo://app?vid=ee4a5d41-dc9c-4a77-93e6-9a65efd6ce04","ios":"levelo://app?vid=ee4a5d41-dc9c-4a77-93e6-9a65efd6ce04"},"vehicle_type_id":"4","last_reported":1703279159,"current_range_meters":6800,"station_id":"ce4bha92rcd13ifvqeg0","pricing_plan_id":"free"},{"bike_id":"81ecd235-69e4-434d-8b01-82b37874aab3","system_id":"levelo_inurba_marseille","lat":43.290631,"lon":5.359244,"is_reserved":false,"is_disabled":false,"rental_uris":{"android":"levelo://app?vid=81ecd235-69e4-434d-8b01-82b37874aab3","ios":"levelo://app?vid=81ecd235-69e4-434d-8b01-82b37874aab3"},"vehicle_type_id":"4","last_reported":1703279159,"current_range_meters":28800,"station_id":"ce4bha92rcd13ifvqeg0","pricing_plan_id":"free"},{"bike_id":"7be86662-caca-4e65-a2dd-848ef3cd8a95","system_id":"levelo_inurba_marseille","lat":43.294153,"lon":5.386305,"is_reserved":false,"is_disabled":false,"rental_uris":{"android":"levelo://app?vid=7be86662-caca-4e65-a2dd-848ef3cd8a95","ios":"levelo://app?vid=7be86662-caca-4e65-a2dd-848ef3cd8a95"},"vehicle_type_id":"4","last_reported":1703279159,"current_range_meters":400,"station_id":"ce4bh2h2rcd13ifvqdh0","pricing_plan_id":"free"},{"bike_id":"c8fd0fcb-c393-42b9-867d-97643c1473c2","system_id":"levelo_inurba_marseille","lat":43.289184,"lon":5.366408,"is_reserved":false,"is_disabled":false,"rental_uris":{"android":"levelo://app?vid=c8fd0fcb-c393-42b9-867d-97643c1473c2","ios":"levelo://app?vid=c8fd0fcb-c393-42b9-867d-97643c1473c2"},"vehicle_type_id":"4","last_reported":1703279159,"current_range_meters":22000,"station_id":"ce4bhap2rcd13ifvqek0","pricing_plan_id":"free"},{"bike_id":"a8ee3438-3f49-448a-9ad4-96b995db011d","system_id":"levelo_inurba_marseille","lat":43.289184,"lon":5.366408,"is_reserved":false,"is_disabled":false,"rental_uris":{"android":"levelo://app?vid=a8ee3438-3f49-448a-9ad4-96b995db011d","ios":"levelo://app?vid=a8ee3438-3f49-448a-9ad4-96b995db011d"},"vehicle_type_id":"4","last_reported":1703279159,"current_range_meters":22400,"station_id":"ce4bhap2rcd13ifvqek0","pricing_plan_id":"free"},{"bike_id":"f373e165-c493-49db-acab-e37a7e0617f9","system_id":"levelo_inurba_marseille","lat":43.292642,"lon":5.384254,"is_reserved":false,"is_disabled":false,"rental_uris":{"android":"levelo://app?vid=f373e165-c493-49db-acab-e37a7e0617f9","ios":"levelo://app?vid=f373e165-c493-49db-acab-e37a7e0617f9"},"vehicle_type_id":"4","last_reported":1703279159,"current_range_meters":24400,"station_id":"ce4bh692rcd13ifvqea0","pricing_plan_id":"free"},{"bike_id":"e369e8ba-a40e-49da-9a3c-1cf7dcc68df8","system_id":"levelo_inurba_marseille","lat":43.292642,"lon":5.384254,"is_reserved":false,"is_disabled":false,"rental_uris":{"android":"levelo://app?vid=e369e8ba-a40e-49da-9a3c-1cf7dcc68df8","ios":"levelo://app?vid=e369e8ba-a40e-49da-9a3c-1cf7dcc68df8"},"vehicle_type_id":"4","last_reported":1703279159,"current_range_meters":26400,"station_id":"ce4bh692rcd13ifvqea0","pricing_plan_id":"free"},{"bike_id":"ddaf8a1c-9238-4566-9687-97f75b74deda","system_id":"levelo_inurba_marseille","lat":43.292642,"lon":5.384254,"is_reserved":false,"is_disabled":false,"rental_uris":{"android":"levelo://app?vid=ddaf8a1c-9238-4566-9687-97f75b74deda","ios":"levelo://app?vid=ddaf8a1c-9238-4566-9687-97f75b74deda"},"vehicle_type_id":"4","last_reported":1703279159,"current_range_meters":18000,"station_id":"ce4bh692rcd13ifvqea0","pricing_plan_id":"free"},{"bike_id":"79c46138-2270-49f5-94a9-4d97c4bb4197","system_id":"levelo_inurba_marseille","lat":43.292642,"lon":5.384254,"is_reserved":false,"is_disabled":false,"rental_uris":{"android":"levelo://app?vid=79c46138-2270-49f5-94a9-4d97c4bb4197","ios":"levelo://app?vid=79c46138-2270-49f5-94a9-4d97c4bb4197"},"vehicle_type_id":"4","last_reported":1703279159,"current_range_meters":4000,"station_id":"ce4bh692rcd13ifvqea0","pricing_plan_id":"free"},{"bike_id":"0774dd71-6226-419d-bf37-6c3f270322f5","system_id":"levelo_inurba_marseille","lat":43.292644,"lon":5.384257,"is_reserved":false,"is_disabled":false,"rental_uris":{"android":"levelo://app?vid=0774dd71-6226-419d-bf37-6c3f270322f5","ios":"levelo://app?vid=0774dd71-6226-419d-bf37-6c3f270322f5"},"vehicle_type_id":"4","last_reported":1703279159,"current_range_meters":23200,"station_id":"ce4bh692rcd13ifvqea0","pricing_plan_id":"free"},{"bike_id":"ad49f3bb-9ac6-424a-b167-cee7bb3212d4","system_id":"levelo_inurba_marseille","lat":43.292644,"lon":5.384257,"is_reserved":false,"is_disabled":false,"rental_uris":{"android":"levelo://app?vid=ad49f3bb-9ac6-424a-b167-cee7bb3212d4","ios":"levelo://app?vid=ad49f3bb-9ac6-424a-b167-cee7bb3212d4"},"vehicle_type_id":"4","last_reported":1703279159,"current_range_meters":31200,"station_id":"ce4bh692rcd13ifvqea0","pricing_plan_id":"free"},{"bike_id":"9d13c3ed-c6a7-4b55-b608-8a993d42d896","system_id":"levelo_inurba_marseille","lat":43.292644,"lon":5.384257,"is_reserved":false,"is_disabled":false,"rental_uris":{"android":"levelo://app?vid=9d13c3ed-c6a7-4b55-b608-8a993d42d896","ios":"levelo://app?vid=9d13c3ed-c6a7-4b55-b608-8a993d42d896"},"vehicle_type_id":"4","last_reported":1703279159,"current_range_meters":28800,"station_id":"ce4bh692rcd13ifvqea0","pricing_plan_id":"free"},{"bike_id":"31d9408e-66ee-45b0-b457-b27a1d67c41a","system_id":"levelo_inurba_marseille","lat":43.292642,"lon":5.384254,"is_reserved":false,"is_disabled":false,"rental_uris":{"android":"levelo://app?vid=31d9408e-66ee-45b0-b457-b27a1d67c41a","ios":"levelo://app?vid=31d9408e-66ee-45b0-b457-b27a1d67c41a"},"vehicle_type_id":"4","last_reported":1703279159,"current_range_meters":5600,"station_id":"ce4bh692rcd13ifvqea0","pricing_plan_id":"free"},{"bike_id":"a67b137e-d11d-40e9-97ab-e5a29d559756","system_id":"levelo_inurba_marseille","lat":43.290995,"lon":5.381361,"is_reserved":false,"is_disabled":false,"rental_uris":{"android":"levelo://app?vid=a67b137e-d11d-40e9-97ab-e5a29d559756","ios":"levelo://app?vid=a67b137e-d11d-40e9-97ab-e5a29d559756"},"vehicle_type_id":"4","last_reported":1703279159,"current_range_meters":26800,"station_id":"ce4bh512rcd13ifvqe2g","pricing_plan_id":"free"},{"bike_id":"d3456a4e-a9e0-4fc7-b3df-0515be5ca2a6","system_id":"levelo_inurba_marseille","lat":43.29796,"lon":5.39336,"is_reserved":false,"is_disabled":false,"rental_uris":{"android":"levelo://app?vid=d3456a4e-a9e0-4fc7-b3df-0515be5ca2a6","ios":"levelo://app?vid=d3456a4e-a9e0-4fc7-b3df-0515be5ca2a6"},"vehicle_type_id":"4","last_reported":1703279159,"current_range_meters":0,"station_id":"chh1huq6cuj3fo74tm60","pricing_plan_id":"free"},{"bike_id":"bb7b116d-3237-47af-be86-a72d107efc27","system_id":"levelo_inurba_marseille","lat":43.297944,"lon":5.393366,"is_reserved":false,"is_disabled":false,"rental_uris":{"android":"levelo://app?vid=bb7b116d-3237-47af-be86-a72d107efc27","ios":"levelo://app?vid=bb7b116d-3237-47af-be86-a72d107efc27"},"vehicle_type_id":"4","last_reported":1703279159,"current_range_meters":13200,"station_id":"chh1huq6cuj3fo74tm60","pricing_plan_id":"free"},{"bike_id":"28bd0799-2d1f-44f9-bb5d-3b37f12e8dd4","system_id":"levelo_inurba_marseille","lat":43.297832,"lon":5.393322,"is_reserved":false,"is_disabled":false,"rental_uris":{"android":"levelo://app?vid=28bd0799-2d1f-44f9-bb5d-3b37f12e8dd4","ios":"levelo://app?vid=28bd0799-2d1f-44f9-bb5d-3b37f12e8dd4"},"vehicle_type_id":"4","last_reported":1703279159,"current_range_meters":800,"station_id":"chh1huq6cuj3fo74tm60","pricing_plan_id":"free"},{"bike_id":"f55f0520-6a6f-421a-8f9f-ad6437be90db","system_id":"levelo_inurba_marseille","lat":43.29789,"lon":5.39345,"is_reserved":false,"is_disabled":false,"rental_uris":{"android":"levelo://app?vid=f55f0520-6a6f-421a-8f9f-ad6437be90db","ios":"levelo://app?vid=f55f0520-6a6f-421a-8f9f-ad6437be90db"},"vehicle_type_id":"4","last_reported":1703279159,"current_range_meters":9600,"station_id":"chh1huq6cuj3fo74tm60","pricing_plan_id":"free"},{"bike_id":"5d493969-578d-4ecd-9d25-2d165dc669df","system_id":"levelo_inurba_marseille","lat":43.303263,"lon":5.397763,"is_reserved":false,"is_disabled":false,"rental_uris":{"android":"levelo://app?vid=5d493969-578d-4ecd-9d25-2d165dc669df","ios":"levelo://app?vid=5d493969-578d-4ecd-9d25-2d165dc669df"},"vehicle_type_id":"4","last_reported":1703279159,"current_range_meters":0,"station_id":"","pricing_plan_id":"free"},{"bike_id":"9650fdd3-2bba-4c7b-8d7d-9c89c9bf7bcc","system_id":"levelo_inurba_marseille","lat":43.297815,"lon":5.393548,"is_reserved":false,"is_disabled":false,"rental_uris":{"android":"levelo://app?vid=9650fdd3-2bba-4c7b-8d7d-9c89c9bf7bcc","ios":"levelo://app?vid=9650fdd3-2bba-4c7b-8d7d-9c89c9bf7bcc"},"vehicle_type_id":"4","last_reported":1703279159,"current_range_meters":29200,"station_id":"chh1huq6cuj3fo74tm60","pricing_plan_id":"free"},{"bike_id":"34e339cb-cec2-4213-a0dc-a9babc90b632","system_id":"levelo_inurba_marseille","lat":43.297815,"lon":5.393548,"is_reserved":false,"is_disabled":false,"rental_uris":{"android":"levelo://app?vid=34e339cb-cec2-4213-a0dc-a9babc90b632","ios":"levelo://app?vid=34e339cb-cec2-4213-a0dc-a9babc90b632"},"vehicle_type_id":"4","last_reported":1703279159,"current_range_meters":27200,"station_id":"chh1huq6cuj3fo74tm60","pricing_plan_id":"free"},{"bike_id":"e12972cc-6790-49f6-b985-6bd97f171776","system_id":"levelo_inurba_marseille","lat":43.289741,"lon":5.378306,"is_reserved":false,"is_disabled":false,"rental_uris":{"android":"levelo://app?vid=e12972cc-6790-49f6-b985-6bd97f171776","ios":"levelo://app?vid=e12972cc-6790-49f6-b985-6bd97f171776"},"vehicle_type_id":"4","last_reported":1703279159,"current_range_meters":8000,"station_id":"ce4bh9p2rcd13ifvqed0","pricing_plan_id":"free"},{"bike_id":"0d846f03-b5be-468e-8b6e-f0cc64392a46","system_id":"levelo_inurba_marseille","lat":43.289743,"lon":5.378304,"is_reserved":false,"is_disabled":false,"rental_uris":{"android":"levelo://app?vid=0d846f03-b5be-468e-8b6e-f0cc64392a46","ios":"levelo://app?vid=0d846f03-b5be-468e-8b6e-f0cc64392a46"},"vehicle_type_id":"4","last_reported":1703279159,"current_range_meters":26000,"station_id":"ce4bh9p2rcd13ifvqed0","pricing_plan_id":"free"},{"bike_id":"380b5fb8-f35b-4de6-ab77-4298ae0cfb0e","system_id":"levelo_inurba_marseille","lat":43.297815,"lon":5.393548,"is_reserved":false,"is_disabled":false,"rental_uris":{"android":"levelo://app?vid=380b5fb8-f35b-4de6-ab77-4298ae0cfb0e","ios":"levelo://app?vid=380b5fb8-f35b-4de6-ab77-4298ae0cfb0e"},"vehicle_type_id":"4","last_reported":1703279159,"current_range_meters":15600,"station_id":"chh1huq6cuj3fo74tm60","pricing_plan_id":"free"},{"bike_id":"fb93d971-aeb9-46f1-b8bc-cb91bc8ab0cc","system_id":"levelo_inurba_marseille","lat":43.295169,"lon":5.390426,"is_reserved":false,"is_disabled":false,"rental_uris":{"android":"levelo://app?vid=fb93d971-aeb9-46f1-b8bc-cb91bc8ab0cc","ios":"levelo://app?vid=fb93d971-aeb9-46f1-b8bc-cb91bc8ab0cc"},"vehicle_type_id":"4","last_reported":1703279159,"current_range_meters":17200,"station_id":"ce4bh3p2rcd13ifvqdp0","pricing_plan_id":"free"},{"bike_id":"547d004f-a4da-48b2-8ab5-97c388aa564c","system_id":"levelo_inurba_marseille","lat":43.290094,"lon":5.381264,"is_reserved":false,"is_disabled":false,"rental_uris":{"android":"levelo://app?vid=547d004f-a4da-48b2-8ab5-97c388aa564c","ios":"levelo://app?vid=547d004f-a4da-48b2-8ab5-97c388aa564c"},"vehicle_type_id":"4","last_reported":1703279159,"current_range_meters":4000,"station_id":"ce4bh4p2rcd13ifvqe1g","pricing_plan_id":"free"},{"bike_id":"f61deeec-d31b-4349-b677-8bd5c5176c68","system_id":"levelo_inurba_marseille","lat":43.28856,"lon":5.358371,"is_reserved":false,"is_disabled":false,"rental_uris":{"android":"levelo://app?vid=f61deeec-d31b-4349-b677-8bd5c5176c68","ios":"levelo://app?vid=f61deeec-d31b-4349-b677-8bd5c5176c68"},"vehicle_type_id":"4","last_reported":1703279159,"current_range_meters":0,"station_id":"ce4bhb12rcd13ifvqem0","pricing_plan_id":"free"},{"bike_id":"b9c8fefe-fcf2-4e1c-95c9-c0ffed42221d","system_id":"levelo_inurba_marseille","lat":43.33759,"lon":5.37434,"is_reserved":false,"is_disabled":false,"rental_uris":{"android":"levelo://app?vid=b9c8fefe-fcf2-4e1c-95c9-c0ffed42221d","ios":"levelo://app?vid=b9c8fefe-fcf2-4e1c-95c9-c0ffed42221d"},"vehicle_type_id":"4","last_reported":1703279159,"current_range_meters":12800,"station_id":"","pricing_plan_id":"free"},{"bike_id":"697e2cfc-3140-482d-85e9-5ef4b3c17f25","system_id":"levelo_inurba_marseille","lat":43.337599,"lon":5.374365,"is_reserved":false,"is_disabled":false,"rental_uris":{"android":"levelo://app?vid=697e2cfc-3140-482d-85e9-5ef4b3c17f25","ios":"levelo://app?vid=697e2cfc-3140-482d-85e9-5ef4b3c17f25"},"vehicle_type_id":"4","last_reported":1703279159,"current_range_meters":25600,"station_id":"","pricing_plan_id":"free"},{"bike_id":"5ead1464-77c6-4df9-9688-a6faea1fbd31","system_id":"levelo_inurba_marseille","lat":43.30642,"lon":5.401031,"is_reserved":false,"is_disabled":false,"rental_uris":{"android":"levelo://app?vid=5ead1464-77c6-4df9-9688-a6faea1fbd31","ios":"levelo://app?vid=5ead1464-77c6-4df9-9688-a6faea1fbd31"},"vehicle_type_id":"4","last_reported":1703279159,"current_range_meters":8400,"station_id":"ce4bh112rcd13ifvqda0","pricing_plan_id":"free"},{"bike_id":"62e22e3e-8174-4ec7-90f7-4445322daa77","system_id":"levelo_inurba_marseille","lat":43.33771,"lon":5.3743,"is_reserved":false,"is_disabled":false,"rental_uris":{"android":"levelo://app?vid=62e22e3e-8174-4ec7-90f7-4445322daa77","ios":"levelo://app?vid=62e22e3e-8174-4ec7-90f7-4445322daa77"},"vehicle_type_id":"4","last_reported":1703279159,"current_range_meters":29600,"station_id":"","pricing_plan_id":"free"},{"bike_id":"48960040-786c-42c4-b839-4c2a3decb7c3","system_id":"levelo_inurba_marseille","lat":43.28727,"lon":5.36078,"is_reserved":false,"is_disabled":false,"rental_uris":{"android":"levelo://app?vid=48960040-786c-42c4-b839-4c2a3decb7c3","ios":"levelo://app?vid=48960040-786c-42c4-b839-4c2a3decb7c3"},"vehicle_type_id":"4","last_reported":1703279159,"current_range_meters":3600,"station_id":"cki0cbj6b192h4jlfktg","pricing_plan_id":"free"},{"bike_id":"0033355c-48e3-487f-83f1-2a6ccbb3045c","system_id":"levelo_inurba_marseille","lat":43.28727,"lon":5.36078,"is_reserved":false,"is_disabled":false,"rental_uris":{"android":"levelo://app?vid=0033355c-48e3-487f-83f1-2a6ccbb3045c","ios":"levelo://app?vid=0033355c-48e3-487f-83f1-2a6ccbb3045c"},"vehicle_type_id":"4","last_reported":1703279159,"current_range_meters":31200,"station_id":"cki0cbj6b192h4jlfktg","pricing_plan_id":"free"},{"bike_id":"17a9cb6c-0138-4954-8c74-af30ed51bc33","system_id":"levelo_inurba_marseille","lat":43.286591,"lon":5.363346,"is_reserved":false,"is_disabled":false,"rental_uris":{"android":"levelo://app?vid=17a9cb6c-0138-4954-8c74-af30ed51bc33","ios":"levelo://app?vid=17a9cb6c-0138-4954-8c74-af30ed51bc33"},"vehicle_type_id":"4","last_reported":1703279159,"current_range_meters":25600,"station_id":"ce4bhah2rcd13ifvqej0","pricing_plan_id":"free"},{"bike_id":"f7656d93-9c5a-4918-9ac1-855cabca9f04","system_id":"levelo_inurba_marseille","lat":43.29877,"lon":5.39741,"is_reserved":false,"is_disabled":false,"rental_uris":{"android":"levelo://app?vid=f7656d93-9c5a-4918-9ac1-855cabca9f04","ios":"levelo://app?vid=f7656d93-9c5a-4918-9ac1-855cabca9f04"},"vehicle_type_id":"4","last_reported":1703279159,"current_range_meters":0,"station_id":"ce4bh0h2rcd13ifvqd50","pricing_plan_id":"free"},{"bike_id":"a6efb37b-2ef6-49dc-872c-d915832fefb8","system_id":"levelo_inurba_marseille","lat":43.28701,"lon":5.37388,"is_reserved":false,"is_disabled":false,"rental_uris":{"android":"levelo://app?vid=a6efb37b-2ef6-49dc-872c-d915832fefb8","ios":"levelo://app?vid=a6efb37b-2ef6-49dc-872c-d915832fefb8"},"vehicle_type_id":"4","last_reported":1703279159,"current_range_meters":29200,"station_id":"ce4bh3p2rcd13ifvqdq0","pricing_plan_id":"free"},{"bike_id":"a850dc1b-0815-4c4a-a814-4eaeaa4411d2","system_id":"levelo_inurba_marseille","lat":43.28702,"lon":5.37403,"is_reserved":false,"is_disabled":false,"rental_uris":{"android":"levelo://app?vid=a850dc1b-0815-4c4a-a814-4eaeaa4411d2","ios":"levelo://app?vid=a850dc1b-0815-4c4a-a814-4eaeaa4411d2"},"vehicle_type_id":"4","last_reported":1703279159,"current_range_meters":2400,"station_id":"ce4bh3p2rcd13ifvqdq0","pricing_plan_id":"free"},{"bike_id":"e2d88cbf-0f64-4bd5-94d7-9c3c482f0a89","system_id":"levelo_inurba_marseille","lat":43.298681,"lon":5.397225,"is_reserved":false,"is_disabled":false,"rental_uris":{"android":"levelo://app?vid=e2d88cbf-0f64-4bd5-94d7-9c3c482f0a89","ios":"levelo://app?vid=e2d88cbf-0f64-4bd5-94d7-9c3c482f0a89"},"vehicle_type_id":"4","last_reported":1703279159,"current_range_meters":30000,"station_id":"ce4bh0h2rcd13ifvqd50","pricing_plan_id":"free"},{"bike_id":"98e48ef2-398c-425e-851f-0b6ac0708f0c","system_id":"levelo_inurba_marseille","lat":43.28699,"lon":5.37402,"is_reserved":false,"is_disabled":false,"rental_uris":{"android":"levelo://app?vid=98e48ef2-398c-425e-851f-0b6ac0708f0c","ios":"levelo://app?vid=98e48ef2-398c-425e-851f-0b6ac0708f0c"},"vehicle_type_id":"4","last_reported":1703279159,"current_range_meters":26000,"station_id":"ce4bh3p2rcd13ifvqdq0","pricing_plan_id":"free"},{"bike_id":"180aabb0-70d8-4d51-9c1b-29d82762c3c9","system_id":"levelo_inurba_marseille","lat":43.28696,"lon":5.37396,"is_reserved":false,"is_disabled":false,"rental_uris":{"android":"levelo://app?vid=180aabb0-70d8-4d51-9c1b-29d82762c3c9","ios":"levelo://app?vid=180aabb0-70d8-4d51-9c1b-29d82762c3c9"},"vehicle_type_id":"4","last_reported":1703279159,"current_range_meters":11600,"station_id":"ce4bh3p2rcd13ifvqdq0","pricing_plan_id":"free"},{"bike_id":"128efa03-4166-4506-a699-835c18168f6c","system_id":"levelo_inurba_marseille","lat":43.289307,"lon":5.38406,"is_reserved":false,"is_disabled":false,"rental_uris":{"android":"levelo://app?vid=128efa03-4166-4506-a699-835c18168f6c","ios":"levelo://app?vid=128efa03-4166-4506-a699-835c18168f6c"},"vehicle_type_id":"4","last_reported":1703279159,"current_range_meters":8800,"station_id":"ce4bh612rcd13ifvqe6g","pricing_plan_id":"free"},{"bike_id":"48ddc2ca-5e8b-4715-913f-1f808556fb3a","system_id":"levelo_inurba_marseille","lat":43.286039,"lon":5.370679,"is_reserved":false,"is_disabled":false,"rental_uris":{"android":"levelo://app?vid=48ddc2ca-5e8b-4715-913f-1f808556fb3a","ios":"levelo://app?vid=48ddc2ca-5e8b-4715-913f-1f808556fb3a"},"vehicle_type_id":"4","last_reported":1703279159,"current_range_meters":18400,"station_id":"ce4bht12rcd13ifvqi60","pricing_plan_id":"free"},{"bike_id":"52ff36c7-2493-4d9f-8020-128debc456d6","system_id":"levelo_inurba_marseille","lat":43.282744,"lon":5.350533,"is_reserved":false,"is_disabled":false,"rental_uris":{"android":"levelo://app?vid=52ff36c7-2493-4d9f-8020-128debc456d6","ios":"levelo://app?vid=52ff36c7-2493-4d9f-8020-128debc456d6"},"vehicle_type_id":"4","last_reported":1703279159,"current_range_meters":25200,"station_id":"ce4bhbp2rcd13ifvqerg","pricing_plan_id":"free"},{"bike_id":"0a2e800b-fa74-4150-afbb-edb394aedf99","system_id":"levelo_inurba_marseille","lat":43.291994,"lon":5.392907,"is_reserved":false,"is_disabled":false,"rental_uris":{"android":"levelo://app?vid=0a2e800b-fa74-4150-afbb-edb394aedf99","ios":"levelo://app?vid=0a2e800b-fa74-4150-afbb-edb394aedf99"},"vehicle_type_id":"4","last_reported":1703279159,"current_range_meters":6800,"station_id":"ce4bh192rcd13ifvqdd0","pricing_plan_id":"free"},{"bike_id":"e2adfa7c-882e-48a1-9ee4-b36e6186ebbf","system_id":"levelo_inurba_marseille","lat":43.330912,"lon":5.396935,"is_reserved":false,"is_disabled":false,"rental_uris":{"android":"levelo://app?vid=e2adfa7c-882e-48a1-9ee4-b36e6186ebbf","ios":"levelo://app?vid=e2adfa7c-882e-48a1-9ee4-b36e6186ebbf"},"vehicle_type_id":"4","last_reported":1703279159,"current_range_meters":17200,"station_id":"","pricing_plan_id":"free"},{"bike_id":"6681f091-8cae-40db-82be-2afedc79afec","system_id":"levelo_inurba_marseille","lat":43.297888,"lon":5.40072,"is_reserved":false,"is_disabled":false,"rental_uris":{"android":"levelo://app?vid=6681f091-8cae-40db-82be-2afedc79afec","ios":"levelo://app?vid=6681f091-8cae-40db-82be-2afedc79afec"},"vehicle_type_id":"4","last_reported":1703279159,"current_range_meters":4800,"station_id":"","pricing_plan_id":"free"},{"bike_id":"924533ae-2896-4d73-b37a-2936fb14ac9e","system_id":"levelo_inurba_marseille","lat":43.285856,"lon":5.350771,"is_reserved":false,"is_disabled":false,"rental_uris":{"android":"levelo://app?vid=924533ae-2896-4d73-b37a-2936fb14ac9e","ios":"levelo://app?vid=924533ae-2896-4d73-b37a-2936fb14ac9e"},"vehicle_type_id":"4","last_reported":1703279159,"current_range_meters":21600,"station_id":"ce4bhch2rcd13ifvqeug","pricing_plan_id":"free"},{"bike_id":"332c11d5-f538-4df8-8bc3-ad949227abe2","system_id":"levelo_inurba_marseille","lat":43.283998,"lon":5.375062,"is_reserved":false,"is_disabled":false,"rental_uris":{"android":"levelo://app?vid=332c11d5-f538-4df8-8bc3-ad949227abe2","ios":"levelo://app?vid=332c11d5-f538-4df8-8bc3-ad949227abe2"},"vehicle_type_id":"4","last_reported":1703279159,"current_range_meters":14800,"station_id":"ce4bh412rcd13ifvqds0","pricing_plan_id":"free"},{"bike_id":"3b7e3ec0-988e-4aeb-bcf3-3017c628b5d3","system_id":"levelo_inurba_marseille","lat":43.33717,"lon":5.391857,"is_reserved":false,"is_disabled":false,"rental_uris":{"android":"levelo://app?vid=3b7e3ec0-988e-4aeb-bcf3-3017c628b5d3","ios":"levelo://app?vid=3b7e3ec0-988e-4aeb-bcf3-3017c628b5d3"},"vehicle_type_id":"4","last_reported":1703279159,"current_range_meters":30000,"station_id":"ce4bhr92rcd13ifvqhsg","pricing_plan_id":"free"},{"bike_id":"b7c71217-6fce-490c-9bd4-073ff8143718","system_id":"levelo_inurba_marseille","lat":43.33717,"lon":5.391857,"is_reserved":false,"is_disabled":false,"rental_uris":{"android":"levelo://app?vid=b7c71217-6fce-490c-9bd4-073ff8143718","ios":"levelo://app?vid=b7c71217-6fce-490c-9bd4-073ff8143718"},"vehicle_type_id":"4","last_reported":1703279159,"current_range_meters":30000,"station_id":"ce4bhr92rcd13ifvqhsg","pricing_plan_id":"free"},{"bike_id":"b306bef3-61ce-4097-b249-eebc7da08ee6","system_id":"levelo_inurba_marseille","lat":43.323464,"lon":5.406297,"is_reserved":false,"is_disabled":false,"rental_uris":{"android":"levelo://app?vid=b306bef3-61ce-4097-b249-eebc7da08ee6","ios":"levelo://app?vid=b306bef3-61ce-4097-b249-eebc7da08ee6"},"vehicle_type_id":"4","last_reported":1703279159,"current_range_meters":27200,"station_id":"ce4bhq92rcd13ifvqhjg","pricing_plan_id":"free"},{"bike_id":"bbd59cec-883d-493a-bf33-93dbdd0809f6","system_id":"levelo_inurba_marseille","lat":43.284793,"lon":5.384113,"is_reserved":false,"is_disabled":false,"rental_uris":{"android":"levelo://app?vid=bbd59cec-883d-493a-bf33-93dbdd0809f6","ios":"levelo://app?vid=bbd59cec-883d-493a-bf33-93dbdd0809f6"},"vehicle_type_id":"4","last_reported":1703279159,"current_range_meters":8400,"station_id":"ce4bh512rcd13ifvqe3g","pricing_plan_id":"free"},{"bike_id":"dd2ac6e4-348a-4f96-83a7-377ab70537d4","system_id":"levelo_inurba_marseille","lat":43.284793,"lon":5.384113,"is_reserved":false,"is_disabled":false,"rental_uris":{"android":"levelo://app?vid=dd2ac6e4-348a-4f96-83a7-377ab70537d4","ios":"levelo://app?vid=dd2ac6e4-348a-4f96-83a7-377ab70537d4"},"vehicle_type_id":"4","last_reported":1703279159,"current_range_meters":6000,"station_id":"ce4bh512rcd13ifvqe3g","pricing_plan_id":"free"},{"bike_id":"15cb422d-23f8-464c-882f-b4695fe55579","system_id":"levelo_inurba_marseille","lat":43.28483,"lon":5.3842,"is_reserved":false,"is_disabled":false,"rental_uris":{"android":"levelo://app?vid=15cb422d-23f8-464c-882f-b4695fe55579","ios":"levelo://app?vid=15cb422d-23f8-464c-882f-b4695fe55579"},"vehicle_type_id":"4","last_reported":1703279159,"current_range_meters":27200,"station_id":"ce4bh512rcd13ifvqe3g","pricing_plan_id":"free"},{"bike_id":"21dfe4ee-e0d8-43dc-a445-17834023ca68","system_id":"levelo_inurba_marseille","lat":43.28485,"lon":5.3843,"is_reserved":false,"is_disabled":false,"rental_uris":{"android":"levelo://app?vid=21dfe4ee-e0d8-43dc-a445-17834023ca68","ios":"levelo://app?vid=21dfe4ee-e0d8-43dc-a445-17834023ca68"},"vehicle_type_id":"4","last_reported":1703279159,"current_range_meters":0,"station_id":"ce4bh512rcd13ifvqe3g","pricing_plan_id":"free"},{"bike_id":"5be57a31-e272-4470-b842-59ce33dc96ca","system_id":"levelo_inurba_marseille","lat":43.28854,"lon":5.39301,"is_reserved":false,"is_disabled":false,"rental_uris":{"android":"levelo://app?vid=5be57a31-e272-4470-b842-59ce33dc96ca","ios":"levelo://app?vid=5be57a31-e272-4470-b842-59ce33dc96ca"},"vehicle_type_id":"4","last_reported":1703279159,"current_range_meters":23600,"station_id":"ce4bh2p2rcd13ifvqdi0","pricing_plan_id":"free"},{"bike_id":"be8bbf5c-d83d-4a3f-b4a3-d2c596d20664","system_id":"levelo_inurba_marseille","lat":43.297946,"lon":5.404063,"is_reserved":false,"is_disabled":false,"rental_uris":{"android":"levelo://app?vid=be8bbf5c-d83d-4a3f-b4a3-d2c596d20664","ios":"levelo://app?vid=be8bbf5c-d83d-4a3f-b4a3-d2c596d20664"},"vehicle_type_id":"4","last_reported":1703279159,"current_range_meters":25600,"station_id":"ce4bh112rcd13ifvqd90","pricing_plan_id":"free"},{"bike_id":"99fbcaf3-06b8-48d3-85cd-14b821be89b8","system_id":"levelo_inurba_marseille","lat":43.288501,"lon":5.393087,"is_reserved":false,"is_disabled":false,"rental_uris":{"android":"levelo://app?vid=99fbcaf3-06b8-48d3-85cd-14b821be89b8","ios":"levelo://app?vid=99fbcaf3-06b8-48d3-85cd-14b821be89b8"},"vehicle_type_id":"4","last_reported":1703279159,"current_range_meters":21600,"station_id":"ce4bh2p2rcd13ifvqdi0","pricing_plan_id":"free"},{"bike_id":"dd2c3ceb-e73c-4214-a147-8ddf55655284","system_id":"levelo_inurba_marseille","lat":43.288501,"lon":5.393087,"is_reserved":false,"is_disabled":false,"rental_uris":{"android":"levelo://app?vid=dd2c3ceb-e73c-4214-a147-8ddf55655284","ios":"levelo://app?vid=dd2c3ceb-e73c-4214-a147-8ddf55655284"},"vehicle_type_id":"4","last_reported":1703279159,"current_range_meters":26000,"station_id":"ce4bh2p2rcd13ifvqdi0","pricing_plan_id":"free"},{"bike_id":"b02feee7-8174-41b3-95be-62f87df2ecbb","system_id":"levelo_inurba_marseille","lat":43.283494,"lon":5.380945,"is_reserved":false,"is_disabled":false,"rental_uris":{"android":"levelo://app?vid=b02feee7-8174-41b3-95be-62f87df2ecbb","ios":"levelo://app?vid=b02feee7-8174-41b3-95be-62f87df2ecbb"},"vehicle_type_id":"4","last_reported":1703279159,"current_range_meters":4800,"station_id":"ce4bh412rcd13ifvqdr0","pricing_plan_id":"free"},{"bike_id":"b9c3ee26-ebde-4464-a27c-db7a20a2b420","system_id":"levelo_inurba_marseille","lat":43.284219,"lon":5.3497,"is_reserved":false,"is_disabled":false,"rental_uris":{"android":"levelo://app?vid=b9c3ee26-ebde-4464-a27c-db7a20a2b420","ios":"levelo://app?vid=b9c3ee26-ebde-4464-a27c-db7a20a2b420"},"vehicle_type_id":"4","last_reported":1703279159,"current_range_meters":28000,"station_id":"ce4bhbh2rcd13ifvqepg","pricing_plan_id":"free"},{"bike_id":"b6f1f3de-4488-4b2c-932e-085734e4f1f1","system_id":"levelo_inurba_marseille","lat":43.284217,"lon":5.349697,"is_reserved":false,"is_disabled":false,"rental_uris":{"android":"levelo://app?vid=b6f1f3de-4488-4b2c-932e-085734e4f1f1","ios":"levelo://app?vid=b6f1f3de-4488-4b2c-932e-085734e4f1f1"},"vehicle_type_id":"4","last_reported":1703279159,"current_range_meters":10000,"station_id":"ce4bhbh2rcd13ifvqepg","pricing_plan_id":"free"},{"bike_id":"13efcf0e-b269-41af-9d4c-08402ca62774","system_id":"levelo_inurba_marseille","lat":43.292724,"lon":5.401131,"is_reserved":false,"is_disabled":false,"rental_uris":{"android":"levelo://app?vid=13efcf0e-b269-41af-9d4c-08402ca62774","ios":"levelo://app?vid=13efcf0e-b269-41af-9d4c-08402ca62774"},"vehicle_type_id":"4","last_reported":1703279159,"current_range_meters":12800,"station_id":"ce4bh312rcd13ifvqdk0","pricing_plan_id":"free"},{"bike_id":"8c390459-bc7b-427a-9b73-2c1c9e96a676","system_id":"levelo_inurba_marseille","lat":43.282744,"lon":5.350533,"is_reserved":false,"is_disabled":false,"rental_uris":{"android":"levelo://app?vid=8c390459-bc7b-427a-9b73-2c1c9e96a676","ios":"levelo://app?vid=8c390459-bc7b-427a-9b73-2c1c9e96a676"},"vehicle_type_id":"4","last_reported":1703279159,"current_range_meters":24400,"station_id":"ce4bhbp2rcd13ifvqerg","pricing_plan_id":"free"},{"bike_id":"0c07039d-f042-4577-ad3b-2eb17b5732ec","system_id":"levelo_inurba_marseille","lat":43.28269,"lon":5.35074,"is_reserved":false,"is_disabled":false,"rental_uris":{"android":"levelo://app?vid=0c07039d-f042-4577-ad3b-2eb17b5732ec","ios":"levelo://app?vid=0c07039d-f042-4577-ad3b-2eb17b5732ec"},"vehicle_type_id":"4","last_reported":1703279159,"current_range_meters":10400,"station_id":"ce4bhbp2rcd13ifvqerg","pricing_plan_id":"free"},{"bike_id":"5dfbda82-9999-48e9-9779-7781fbf040e2","system_id":"levelo_inurba_marseille","lat":43.28265,"lon":5.35081,"is_reserved":false,"is_disabled":false,"rental_uris":{"android":"levelo://app?vid=5dfbda82-9999-48e9-9779-7781fbf040e2","ios":"levelo://app?vid=5dfbda82-9999-48e9-9779-7781fbf040e2"},"vehicle_type_id":"4","last_reported":1703279159,"current_range_meters":30000,"station_id":"ce4bhbp2rcd13ifvqerg","pricing_plan_id":"free"},{"bike_id":"0bb11488-f524-43ac-b0ef-26d7b8df5763","system_id":"levelo_inurba_marseille","lat":43.28265,"lon":5.35058,"is_reserved":false,"is_disabled":false,"rental_uris":{"android":"levelo://app?vid=0bb11488-f524-43ac-b0ef-26d7b8df5763","ios":"levelo://app?vid=0bb11488-f524-43ac-b0ef-26d7b8df5763"},"vehicle_type_id":"4","last_reported":1703279159,"current_range_meters":11600,"station_id":"ce4bhbp2rcd13ifvqerg","pricing_plan_id":"free"},{"bike_id":"4eef49c0-0c90-4442-8ed3-697eff8d5ad9","system_id":"levelo_inurba_marseille","lat":43.28039,"lon":5.369297,"is_reserved":false,"is_disabled":false,"rental_uris":{"android":"levelo://app?vid=4eef49c0-0c90-4442-8ed3-697eff8d5ad9","ios":"levelo://app?vid=4eef49c0-0c90-4442-8ed3-697eff8d5ad9"},"vehicle_type_id":"4","last_reported":1703279159,"current_range_meters":4000,"station_id":"ce4bha12rcd13ifvqef0","pricing_plan_id":"free"},{"bike_id":"9ffa4a69-810c-42c6-9d79-aa115e6abcaf","system_id":"levelo_inurba_marseille","lat":43.28039,"lon":5.369297,"is_reserved":false,"is_disabled":false,"rental_uris":{"android":"levelo://app?vid=9ffa4a69-810c-42c6-9d79-aa115e6abcaf","ios":"levelo://app?vid=9ffa4a69-810c-42c6-9d79-aa115e6abcaf"},"vehicle_type_id":"4","last_reported":1703279159,"current_range_meters":4000,"station_id":"ce4bha12rcd13ifvqef0","pricing_plan_id":"free"},{"bike_id":"9aa0c091-58b0-40e4-8c53-8abed4c0875d","system_id":"levelo_inurba_marseille","lat":43.282744,"lon":5.350533,"is_reserved":false,"is_disabled":false,"rental_uris":{"android":"levelo://app?vid=9aa0c091-58b0-40e4-8c53-8abed4c0875d","ios":"levelo://app?vid=9aa0c091-58b0-40e4-8c53-8abed4c0875d"},"vehicle_type_id":"4","last_reported":1703279159,"current_range_meters":15600,"station_id":"ce4bhbp2rcd13ifvqerg","pricing_plan_id":"free"},{"bike_id":"97d80501-33bc-4972-ad91-912885aebdbb","system_id":"levelo_inurba_marseille","lat":43.280382,"lon":5.369291,"is_reserved":false,"is_disabled":false,"rental_uris":{"android":"levelo://app?vid=97d80501-33bc-4972-ad91-912885aebdbb","ios":"levelo://app?vid=97d80501-33bc-4972-ad91-912885aebdbb"},"vehicle_type_id":"4","last_reported":1703279159,"current_range_meters":23600,"station_id":"ce4bha12rcd13ifvqef0","pricing_plan_id":"free"},{"bike_id":"2024a61b-7173-4785-8359-84679011d211","system_id":"levelo_inurba_marseille","lat":43.280382,"lon":5.369291,"is_reserved":false,"is_disabled":false,"rental_uris":{"android":"levelo://app?vid=2024a61b-7173-4785-8359-84679011d211","ios":"levelo://app?vid=2024a61b-7173-4785-8359-84679011d211"},"vehicle_type_id":"4","last_reported":1703279159,"current_range_meters":8400,"station_id":"ce4bha12rcd13ifvqef0","pricing_plan_id":"free"},{"bike_id":"9ffafec3-6611-4556-9571-530e1d819b18","system_id":"levelo_inurba_marseille","lat":43.280382,"lon":5.369291,"is_reserved":false,"is_disabled":false,"rental_uris":{"android":"levelo://app?vid=9ffafec3-6611-4556-9571-530e1d819b18","ios":"levelo://app?vid=9ffafec3-6611-4556-9571-530e1d819b18"},"vehicle_type_id":"4","last_reported":1703279159,"current_range_meters":17200,"station_id":"ce4bha12rcd13ifvqef0","pricing_plan_id":"free"},{"bike_id":"1bb9feff-3e8b-46d2-8c5c-420eb3be4d2c","system_id":"levelo_inurba_marseille","lat":43.28039,"lon":5.369297,"is_reserved":false,"is_disabled":false,"rental_uris":{"android":"levelo://app?vid=1bb9feff-3e8b-46d2-8c5c-420eb3be4d2c","ios":"levelo://app?vid=1bb9feff-3e8b-46d2-8c5c-420eb3be4d2c"},"vehicle_type_id":"4","last_reported":1703279159,"current_range_meters":30000,"station_id":"ce4bha12rcd13ifvqef0","pricing_plan_id":"free"},{"bike_id":"ec771f13-a6f7-4502-b81f-19d6b7b2be5f","system_id":"levelo_inurba_marseille","lat":43.28039,"lon":5.369297,"is_reserved":false,"is_disabled":false,"rental_uris":{"android":"levelo://app?vid=ec771f13-a6f7-4502-b81f-19d6b7b2be5f","ios":"levelo://app?vid=ec771f13-a6f7-4502-b81f-19d6b7b2be5f"},"vehicle_type_id":"4","last_reported":1703279159,"current_range_meters":27600,"station_id":"ce4bha12rcd13ifvqef0","pricing_plan_id":"free"},{"bike_id":"8379dd3c-9b88-4dae-95f2-cf66f3df6a33","system_id":"levelo_inurba_marseille","lat":43.281044,"lon":5.378308,"is_reserved":false,"is_disabled":false,"rental_uris":{"android":"levelo://app?vid=8379dd3c-9b88-4dae-95f2-cf66f3df6a33","ios":"levelo://app?vid=8379dd3c-9b88-4dae-95f2-cf66f3df6a33"},"vehicle_type_id":"4","last_reported":1703279159,"current_range_meters":2800,"station_id":"ce4bha12rcd13ifvqee0","pricing_plan_id":"free"},{"bike_id":"4c43b076-ecab-4426-a7e6-d095a83b2ead","system_id":"levelo_inurba_marseille","lat":43.284462,"lon":5.392121,"is_reserved":false,"is_disabled":false,"rental_uris":{"android":"levelo://app?vid=4c43b076-ecab-4426-a7e6-d095a83b2ead","ios":"levelo://app?vid=4c43b076-ecab-4426-a7e6-d095a83b2ead"},"vehicle_type_id":"4","last_reported":1703279159,"current_range_meters":27200,"station_id":"ce4bhoh2rcd13ifvqh5g","pricing_plan_id":"free"},{"bike_id":"8d89e252-3ce4-4bbd-a528-b01be5a6b4f3","system_id":"levelo_inurba_marseille","lat":43.28573,"lon":5.394992,"is_reserved":false,"is_disabled":false,"rental_uris":{"android":"levelo://app?vid=8d89e252-3ce4-4bbd-a528-b01be5a6b4f3","ios":"levelo://app?vid=8d89e252-3ce4-4bbd-a528-b01be5a6b4f3"},"vehicle_type_id":"4","last_reported":1703279159,"current_range_meters":28800,"station_id":"ce4bh292rcd13ifvqdg0","pricing_plan_id":"free"},{"bike_id":"07915d1e-dc07-4e56-afb9-9d66caf9a477","system_id":"levelo_inurba_marseille","lat":43.28573,"lon":5.394992,"is_reserved":false,"is_disabled":false,"rental_uris":{"android":"levelo://app?vid=07915d1e-dc07-4e56-afb9-9d66caf9a477","ios":"levelo://app?vid=07915d1e-dc07-4e56-afb9-9d66caf9a477"},"vehicle_type_id":"4","last_reported":1703279159,"current_range_meters":22800,"station_id":"ce4bh292rcd13ifvqdg0","pricing_plan_id":"free"},{"bike_id":"921b424d-ad0d-4c7a-9d74-66e3a49bfa19","system_id":"levelo_inurba_marseille","lat":43.326605,"lon":5.409903,"is_reserved":false,"is_disabled":false,"rental_uris":{"android":"levelo://app?vid=921b424d-ad0d-4c7a-9d74-66e3a49bfa19","ios":"levelo://app?vid=921b424d-ad0d-4c7a-9d74-66e3a49bfa19"},"vehicle_type_id":"4","last_reported":1703279159,"current_range_meters":17200,"station_id":"ce4bhpp2rcd13ifvqhgg","pricing_plan_id":"free"},{"bike_id":"2dce41b4-f1e9-4565-979b-d206af37124f","system_id":"levelo_inurba_marseille","lat":43.326605,"lon":5.409903,"is_reserved":false,"is_disabled":false,"rental_uris":{"android":"levelo://app?vid=2dce41b4-f1e9-4565-979b-d206af37124f","ios":"levelo://app?vid=2dce41b4-f1e9-4565-979b-d206af37124f"},"vehicle_type_id":"4","last_reported":1703279159,"current_range_meters":31600,"station_id":"ce4bhpp2rcd13ifvqhgg","pricing_plan_id":"free"},{"bike_id":"49d73e02-e5c2-4882-b44f-d8c5e2af2b78","system_id":"levelo_inurba_marseille","lat":43.326605,"lon":5.409903,"is_reserved":false,"is_disabled":false,"rental_uris":{"android":"levelo://app?vid=49d73e02-e5c2-4882-b44f-d8c5e2af2b78","ios":"levelo://app?vid=49d73e02-e5c2-4882-b44f-d8c5e2af2b78"},"vehicle_type_id":"4","last_reported":1703279159,"current_range_meters":18400,"station_id":"ce4bhpp2rcd13ifvqhgg","pricing_plan_id":"free"},{"bike_id":"3facbe4d-388c-40d0-82e4-59c677c06a34","system_id":"levelo_inurba_marseille","lat":43.30422,"lon":5.4128,"is_reserved":false,"is_disabled":false,"rental_uris":{"android":"levelo://app?vid=3facbe4d-388c-40d0-82e4-59c677c06a34","ios":"levelo://app?vid=3facbe4d-388c-40d0-82e4-59c677c06a34"},"vehicle_type_id":"4","last_reported":1703279159,"current_range_meters":4800,"station_id":"ce4bhop2rcd13ifvqh8g","pricing_plan_id":"free"},{"bike_id":"7f89473b-4ee2-4ba8-86bf-bc53e18d4702","system_id":"levelo_inurba_marseille","lat":43.304158,"lon":5.412792,"is_reserved":false,"is_disabled":false,"rental_uris":{"android":"levelo://app?vid=7f89473b-4ee2-4ba8-86bf-bc53e18d4702","ios":"levelo://app?vid=7f89473b-4ee2-4ba8-86bf-bc53e18d4702"},"vehicle_type_id":"4","last_reported":1703279159,"current_range_meters":3200,"station_id":"ce4bhop2rcd13ifvqh8g","pricing_plan_id":"free"},{"bike_id":"2994219f-f282-434d-a4a5-dcac2f9151e5","system_id":"levelo_inurba_marseille","lat":43.304176,"lon":5.412812,"is_reserved":false,"is_disabled":false,"rental_uris":{"android":"levelo://app?vid=2994219f-f282-434d-a4a5-dcac2f9151e5","ios":"levelo://app?vid=2994219f-f282-434d-a4a5-dcac2f9151e5"},"vehicle_type_id":"4","last_reported":1703279159,"current_range_meters":14000,"station_id":"ce4bhop2rcd13ifvqh8g","pricing_plan_id":"free"},{"bike_id":"f2a735b9-b183-4b03-acbe-8b823bd40b24","system_id":"levelo_inurba_marseille","lat":43.304165,"lon":5.412873,"is_reserved":false,"is_disabled":false,"rental_uris":{"android":"levelo://app?vid=f2a735b9-b183-4b03-acbe-8b823bd40b24","ios":"levelo://app?vid=f2a735b9-b183-4b03-acbe-8b823bd40b24"},"vehicle_type_id":"4","last_reported":1703279159,"current_range_meters":31200,"station_id":"ce4bhop2rcd13ifvqh8g","pricing_plan_id":"free"},{"bike_id":"4fc3eaa3-b5e5-4ef0-972e-8a11d75e9279","system_id":"levelo_inurba_marseille","lat":43.279087,"lon":5.380114,"is_reserved":false,"is_disabled":false,"rental_uris":{"android":"levelo://app?vid=4fc3eaa3-b5e5-4ef0-972e-8a11d75e9279","ios":"levelo://app?vid=4fc3eaa3-b5e5-4ef0-972e-8a11d75e9279"},"vehicle_type_id":"4","last_reported":1703279159,"current_range_meters":25200,"station_id":"ce4bhf92rcd13ifvqf50","pricing_plan_id":"free"},{"bike_id":"15fe0276-d30a-4e95-bafb-cf8ed08e6c29","system_id":"levelo_inurba_marseille","lat":43.287154,"lon":5.399979,"is_reserved":false,"is_disabled":false,"rental_uris":{"android":"levelo://app?vid=15fe0276-d30a-4e95-bafb-cf8ed08e6c29","ios":"levelo://app?vid=15fe0276-d30a-4e95-bafb-cf8ed08e6c29"},"vehicle_type_id":"4","last_reported":1703279159,"current_range_meters":2000,"station_id":"ce4bho92rcd13ifvqh3g","pricing_plan_id":"free"},{"bike_id":"e65707fe-acdc-43d1-a628-21bc5cd92b56","system_id":"levelo_inurba_marseille","lat":43.292569,"lon":5.409107,"is_reserved":false,"is_disabled":false,"rental_uris":{"android":"levelo://app?vid=e65707fe-acdc-43d1-a628-21bc5cd92b56","ios":"levelo://app?vid=e65707fe-acdc-43d1-a628-21bc5cd92b56"},"vehicle_type_id":"4","last_reported":1703279159,"current_range_meters":25200,"station_id":"ce4bh192rcd13ifvqdc0","pricing_plan_id":"free"},{"bike_id":"3c990e90-1eed-4343-9b72-6fb2ce5c8fda","system_id":"levelo_inurba_marseille","lat":43.27618,"lon":5.3612,"is_reserved":false,"is_disabled":false,"rental_uris":{"android":"levelo://app?vid=3c990e90-1eed-4343-9b72-6fb2ce5c8fda","ios":"levelo://app?vid=3c990e90-1eed-4343-9b72-6fb2ce5c8fda"},"vehicle_type_id":"4","last_reported":1703279159,"current_range_meters":3200,"station_id":"ce4bgj92rcd13ifvqbe0","pricing_plan_id":"free"},{"bike_id":"db2046b0-697a-4d2e-8814-6af0aeab90a8","system_id":"levelo_inurba_marseille","lat":43.276179,"lon":5.361009,"is_reserved":false,"is_disabled":false,"rental_uris":{"android":"levelo://app?vid=db2046b0-697a-4d2e-8814-6af0aeab90a8","ios":"levelo://app?vid=db2046b0-697a-4d2e-8814-6af0aeab90a8"},"vehicle_type_id":"4","last_reported":1703279159,"current_range_meters":6000,"station_id":"ce4bgj92rcd13ifvqbe0","pricing_plan_id":"free"},{"bike_id":"c12ecd71-e07b-450d-9d97-1dc91421e645","system_id":"levelo_inurba_marseille","lat":43.280784,"lon":5.396622,"is_reserved":false,"is_disabled":false,"rental_uris":{"android":"levelo://app?vid=c12ecd71-e07b-450d-9d97-1dc91421e645","ios":"levelo://app?vid=c12ecd71-e07b-450d-9d97-1dc91421e645"},"vehicle_type_id":"4","last_reported":1703279159,"current_range_meters":22400,"station_id":"ce4bho12rcd13ifvqh2g","pricing_plan_id":"free"},{"bike_id":"e5af3670-68f2-4e5c-9bf4-21ce1330df16","system_id":"levelo_inurba_marseille","lat":43.280784,"lon":5.396622,"is_reserved":false,"is_disabled":false,"rental_uris":{"android":"levelo://app?vid=e5af3670-68f2-4e5c-9bf4-21ce1330df16","ios":"levelo://app?vid=e5af3670-68f2-4e5c-9bf4-21ce1330df16"},"vehicle_type_id":"4","last_reported":1703279159,"current_range_meters":32000,"station_id":"ce4bho12rcd13ifvqh2g","pricing_plan_id":"free"},{"bike_id":"92652a21-0cc0-4a5f-8e5f-31ffc502ba29","system_id":"levelo_inurba_marseille","lat":43.303837,"lon":5.418724,"is_reserved":false,"is_disabled":false,"rental_uris":{"android":"levelo://app?vid=92652a21-0cc0-4a5f-8e5f-31ffc502ba29","ios":"levelo://app?vid=92652a21-0cc0-4a5f-8e5f-31ffc502ba29"},"vehicle_type_id":"4","last_reported":1703279159,"current_range_meters":12800,"station_id":"ce4bhop2rcd13ifvqh7g","pricing_plan_id":"free"},{"bike_id":"03b14f24-ad2a-40bf-a8a4-d789d50cd69a","system_id":"levelo_inurba_marseille","lat":43.303837,"lon":5.418724,"is_reserved":false,"is_disabled":false,"rental_uris":{"android":"levelo://app?vid=03b14f24-ad2a-40bf-a8a4-d789d50cd69a","ios":"levelo://app?vid=03b14f24-ad2a-40bf-a8a4-d789d50cd69a"},"vehicle_type_id":"4","last_reported":1703279159,"current_range_meters":30400,"station_id":"ce4bhop2rcd13ifvqh7g","pricing_plan_id":"free"},{"bike_id":"95c8f149-5924-4aae-9291-6a1e2abd6a5d","system_id":"levelo_inurba_marseille","lat":43.336134,"lon":5.410341,"is_reserved":false,"is_disabled":false,"rental_uris":{"android":"levelo://app?vid=95c8f149-5924-4aae-9291-6a1e2abd6a5d","ios":"levelo://app?vid=95c8f149-5924-4aae-9291-6a1e2abd6a5d"},"vehicle_type_id":"4","last_reported":1703279159,"current_range_meters":22800,"station_id":"ce4bhqh2rcd13ifvqhmg","pricing_plan_id":"free"},{"bike_id":"c50421df-854d-41f7-bdc6-cd53b5eaafbc","system_id":"levelo_inurba_marseille","lat":43.275625,"lon":5.384392,"is_reserved":false,"is_disabled":false,"rental_uris":{"android":"levelo://app?vid=c50421df-854d-41f7-bdc6-cd53b5eaafbc","ios":"levelo://app?vid=c50421df-854d-41f7-bdc6-cd53b5eaafbc"},"vehicle_type_id":"4","last_reported":1703279159,"current_range_meters":11600,"station_id":"ce4bhh92rcd13ifvqfi0","pricing_plan_id":"free"},{"bike_id":"48cb72d6-5769-46dd-a4f2-54dfd0bfb283","system_id":"levelo_inurba_marseille","lat":43.273613,"lon":5.362705,"is_reserved":false,"is_disabled":false,"rental_uris":{"android":"levelo://app?vid=48cb72d6-5769-46dd-a4f2-54dfd0bfb283","ios":"levelo://app?vid=48cb72d6-5769-46dd-a4f2-54dfd0bfb283"},"vehicle_type_id":"4","last_reported":1703279159,"current_range_meters":28800,"station_id":"ce4bhbh2rcd13ifvqeo0","pricing_plan_id":"free"},{"bike_id":"843de36b-095c-4afd-830d-de0e9d07ea09","system_id":"levelo_inurba_marseille","lat":43.273613,"lon":5.362705,"is_reserved":false,"is_disabled":false,"rental_uris":{"android":"levelo://app?vid=843de36b-095c-4afd-830d-de0e9d07ea09","ios":"levelo://app?vid=843de36b-095c-4afd-830d-de0e9d07ea09"},"vehicle_type_id":"4","last_reported":1703279159,"current_range_meters":30000,"station_id":"ce4bhbh2rcd13ifvqeo0","pricing_plan_id":"free"},{"bike_id":"e09a6d18-e62b-45bc-ba72-f8db6df2fcf5","system_id":"levelo_inurba_marseille","lat":43.273609,"lon":5.362708,"is_reserved":false,"is_disabled":false,"rental_uris":{"android":"levelo://app?vid=e09a6d18-e62b-45bc-ba72-f8db6df2fcf5","ios":"levelo://app?vid=e09a6d18-e62b-45bc-ba72-f8db6df2fcf5"},"vehicle_type_id":"4","last_reported":1703279159,"current_range_meters":30000,"station_id":"ce4bhbh2rcd13ifvqeo0","pricing_plan_id":"free"},{"bike_id":"92495b89-a8a0-4296-9885-51742c225068","system_id":"levelo_inurba_marseille","lat":43.275625,"lon":5.384392,"is_reserved":false,"is_disabled":false,"rental_uris":{"android":"levelo://app?vid=92495b89-a8a0-4296-9885-51742c225068","ios":"levelo://app?vid=92495b89-a8a0-4296-9885-51742c225068"},"vehicle_type_id":"4","last_reported":1703279159,"current_range_meters":21200,"station_id":"ce4bhh92rcd13ifvqfi0","pricing_plan_id":"free"},{"bike_id":"d25de747-3cec-4576-99a5-27d47914b475","system_id":"levelo_inurba_marseille","lat":43.336134,"lon":5.410341,"is_reserved":false,"is_disabled":false,"rental_uris":{"android":"levelo://app?vid=d25de747-3cec-4576-99a5-27d47914b475","ios":"levelo://app?vid=d25de747-3cec-4576-99a5-27d47914b475"},"vehicle_type_id":"4","last_reported":1703279159,"current_range_meters":9600,"station_id":"ce4bhqh2rcd13ifvqhmg","pricing_plan_id":"free"},{"bike_id":"4e7c720f-a163-40bc-90c8-0f58c96c2a52","system_id":"levelo_inurba_marseille","lat":43.279975,"lon":5.40009,"is_reserved":false,"is_disabled":false,"rental_uris":{"android":"levelo://app?vid=4e7c720f-a163-40bc-90c8-0f58c96c2a52","ios":"levelo://app?vid=4e7c720f-a163-40bc-90c8-0f58c96c2a52"},"vehicle_type_id":"4","last_reported":1703279159,"current_range_meters":19600,"station_id":"ce4bho92rcd13ifvqh4g","pricing_plan_id":"free"},{"bike_id":"744d2255-f40e-4d97-99d3-32b2cec2531f","system_id":"levelo_inurba_marseille","lat":43.279975,"lon":5.40009,"is_reserved":false,"is_disabled":false,"rental_uris":{"android":"levelo://app?vid=744d2255-f40e-4d97-99d3-32b2cec2531f","ios":"levelo://app?vid=744d2255-f40e-4d97-99d3-32b2cec2531f"},"vehicle_type_id":"4","last_reported":1703279159,"current_range_meters":9600,"station_id":"ce4bho92rcd13ifvqh4g","pricing_plan_id":"free"},{"bike_id":"9d8a300c-7356-461f-8e60-7c138328974e","system_id":"levelo_inurba_marseille","lat":43.317121,"lon":5.423936,"is_reserved":false,"is_disabled":false,"rental_uris":{"android":"levelo://app?vid=9d8a300c-7356-461f-8e60-7c138328974e","ios":"levelo://app?vid=9d8a300c-7356-461f-8e60-7c138328974e"},"vehicle_type_id":"4","last_reported":1703279159,"current_range_meters":28400,"station_id":"ce4bhp92rcd13ifvqhbg","pricing_plan_id":"free"},{"bike_id":"7c92ac06-9f8b-4771-8927-7d3efcae43ac","system_id":"levelo_inurba_marseille","lat":43.310785,"lon":5.424305,"is_reserved":false,"is_disabled":false,"rental_uris":{"android":"levelo://app?vid=7c92ac06-9f8b-4771-8927-7d3efcae43ac","ios":"levelo://app?vid=7c92ac06-9f8b-4771-8927-7d3efcae43ac"},"vehicle_type_id":"4","last_reported":1703279159,"current_range_meters":18400,"station_id":"ce4bhp92rcd13ifvqhag","pricing_plan_id":"free"},{"bike_id":"b2bae555-70b7-4476-bc50-e1d2a40076e2","system_id":"levelo_inurba_marseille","lat":43.295511,"lon":5.422926,"is_reserved":false,"is_disabled":false,"rental_uris":{"android":"levelo://app?vid=b2bae555-70b7-4476-bc50-e1d2a40076e2","ios":"levelo://app?vid=b2bae555-70b7-4476-bc50-e1d2a40076e2"},"vehicle_type_id":"4","last_reported":1703279159,"current_range_meters":24000,"station_id":"ce4bhph2rcd13ifvqhdg","pricing_plan_id":"free"},{"bike_id":"aae3d177-3e9e-405a-bda1-ee0a0d357d08","system_id":"levelo_inurba_marseille","lat":43.27207,"lon":5.39192,"is_reserved":false,"is_disabled":false,"rental_uris":{"android":"levelo://app?vid=aae3d177-3e9e-405a-bda1-ee0a0d357d08","ios":"levelo://app?vid=aae3d177-3e9e-405a-bda1-ee0a0d357d08"},"vehicle_type_id":"4","last_reported":1703279159,"current_range_meters":0,"station_id":"ce4bhhp2rcd13ifvqfm0","pricing_plan_id":"free"},{"bike_id":"8fd88a0b-eea5-4114-8101-6bc043a84bfe","system_id":"levelo_inurba_marseille","lat":43.272116,"lon":5.391747,"is_reserved":false,"is_disabled":false,"rental_uris":{"android":"levelo://app?vid=8fd88a0b-eea5-4114-8101-6bc043a84bfe","ios":"levelo://app?vid=8fd88a0b-eea5-4114-8101-6bc043a84bfe"},"vehicle_type_id":"4","last_reported":1703279159,"current_range_meters":15600,"station_id":"ce4bhhp2rcd13ifvqfm0","pricing_plan_id":"free"},{"bike_id":"8b6c6e5d-efb8-449f-902b-2f6033ff09f0","system_id":"levelo_inurba_marseille","lat":43.278128,"lon":5.407195,"is_reserved":false,"is_disabled":false,"rental_uris":{"android":"levelo://app?vid=8b6c6e5d-efb8-449f-902b-2f6033ff09f0","ios":"levelo://app?vid=8b6c6e5d-efb8-449f-902b-2f6033ff09f0"},"vehicle_type_id":"4","last_reported":1703279159,"current_range_meters":6400,"station_id":"ce4bhnh2rcd13ifvqgtg","pricing_plan_id":"free"},{"bike_id":"17477f7e-7e27-47f1-99a4-9717c464e350","system_id":"levelo_inurba_marseille","lat":43.278128,"lon":5.407195,"is_reserved":false,"is_disabled":false,"rental_uris":{"android":"levelo://app?vid=17477f7e-7e27-47f1-99a4-9717c464e350","ios":"levelo://app?vid=17477f7e-7e27-47f1-99a4-9717c464e350"},"vehicle_type_id":"4","last_reported":1703279159,"current_range_meters":24400,"station_id":"ce4bhnh2rcd13ifvqgtg","pricing_plan_id":"free"},{"bike_id":"dff1eb90-cdbe-4deb-9eca-73f6e9e78318","system_id":"levelo_inurba_marseille","lat":43.279465,"lon":5.410561,"is_reserved":false,"is_disabled":false,"rental_uris":{"android":"levelo://app?vid=dff1eb90-cdbe-4deb-9eca-73f6e9e78318","ios":"levelo://app?vid=dff1eb90-cdbe-4deb-9eca-73f6e9e78318"},"vehicle_type_id":"4","last_reported":1703279159,"current_range_meters":20800,"station_id":"ce4bhnp2rcd13ifvqh0g","pricing_plan_id":"free"},{"bike_id":"9f64aafd-c841-405b-aa4d-882e9d32084c","system_id":"levelo_inurba_marseille","lat":43.26552,"lon":5.37287,"is_reserved":false,"is_disabled":false,"rental_uris":{"android":"levelo://app?vid=9f64aafd-c841-405b-aa4d-882e9d32084c","ios":"levelo://app?vid=9f64aafd-c841-405b-aa4d-882e9d32084c"},"vehicle_type_id":"4","last_reported":1703279159,"current_range_meters":21600,"station_id":"ce4bhg12rcd13ifvqf70","pricing_plan_id":"free"},{"bike_id":"0e9c0f5f-3d8b-4160-a4c4-e847a0c2f4d1","system_id":"levelo_inurba_marseille","lat":43.265513,"lon":5.3729,"is_reserved":false,"is_disabled":false,"rental_uris":{"android":"levelo://app?vid=0e9c0f5f-3d8b-4160-a4c4-e847a0c2f4d1","ios":"levelo://app?vid=0e9c0f5f-3d8b-4160-a4c4-e847a0c2f4d1"},"vehicle_type_id":"4","last_reported":1703279159,"current_range_meters":20000,"station_id":"ce4bhg12rcd13ifvqf70","pricing_plan_id":"free"},{"bike_id":"88817245-a575-4a77-9745-e38ee687440a","system_id":"levelo_inurba_marseille","lat":43.308051,"lon":5.43527,"is_reserved":false,"is_disabled":false,"rental_uris":{"android":"levelo://app?vid=88817245-a575-4a77-9745-e38ee687440a","ios":"levelo://app?vid=88817245-a575-4a77-9745-e38ee687440a"},"vehicle_type_id":"4","last_reported":1703279159,"current_range_meters":1600,"station_id":"ce4bhph2rcd13ifvqheg","pricing_plan_id":"free"},{"bike_id":"04856091-6154-4709-aa6f-1b2c52cd2fe2","system_id":"levelo_inurba_marseille","lat":43.265571,"lon":5.390032,"is_reserved":false,"is_disabled":false,"rental_uris":{"android":"levelo://app?vid=04856091-6154-4709-aa6f-1b2c52cd2fe2","ios":"levelo://app?vid=04856091-6154-4709-aa6f-1b2c52cd2fe2"},"vehicle_type_id":"4","last_reported":1703279159,"current_range_meters":0,"station_id":"ce4bhe12rcd13ifvqf30","pricing_plan_id":"free"},{"bike_id":"25da4067-3a54-48f0-b298-b48ae16a0b38","system_id":"levelo_inurba_marseille","lat":43.265569,"lon":5.390047,"is_reserved":false,"is_disabled":false,"rental_uris":{"android":"levelo://app?vid=25da4067-3a54-48f0-b298-b48ae16a0b38","ios":"levelo://app?vid=25da4067-3a54-48f0-b298-b48ae16a0b38"},"vehicle_type_id":"4","last_reported":1703279159,"current_range_meters":9600,"station_id":"ce4bhe12rcd13ifvqf30","pricing_plan_id":"free"},{"bike_id":"a00c63e0-8f9b-49e7-a6c0-743857ff5370","system_id":"levelo_inurba_marseille","lat":43.265569,"lon":5.390047,"is_reserved":false,"is_disabled":false,"rental_uris":{"android":"levelo://app?vid=a00c63e0-8f9b-49e7-a6c0-743857ff5370","ios":"levelo://app?vid=a00c63e0-8f9b-49e7-a6c0-743857ff5370"},"vehicle_type_id":"4","last_reported":1703279159,"current_range_meters":0,"station_id":"ce4bhe12rcd13ifvqf30","pricing_plan_id":"free"},{"bike_id":"4d55073d-7549-4fee-be80-9f3a613e19de","system_id":"levelo_inurba_marseille","lat":43.26949,"lon":5.40262,"is_reserved":false,"is_disabled":false,"rental_uris":{"android":"levelo://app?vid=4d55073d-7549-4fee-be80-9f3a613e19de","ios":"levelo://app?vid=4d55073d-7549-4fee-be80-9f3a613e19de"},"vehicle_type_id":"4","last_reported":1703279159,"current_range_meters":11600,"station_id":"cjm6bp8fraef2m0cb0m0","pricing_plan_id":"free"},{"bike_id":"c46d2d6c-d439-470a-99b2-00fccc9917e9","system_id":"levelo_inurba_marseille","lat":43.261782,"lon":5.374515,"is_reserved":false,"is_disabled":false,"rental_uris":{"android":"levelo://app?vid=c46d2d6c-d439-470a-99b2-00fccc9917e9","ios":"levelo://app?vid=c46d2d6c-d439-470a-99b2-00fccc9917e9"},"vehicle_type_id":"4","last_reported":1703279159,"current_range_meters":16000,"station_id":"ce4bhgp2rcd13ifvqfc0","pricing_plan_id":"free"},{"bike_id":"12456cb0-9c07-4f25-9efc-9cad551529d7","system_id":"levelo_inurba_marseille","lat":43.261782,"lon":5.374515,"is_reserved":false,"is_disabled":false,"rental_uris":{"android":"levelo://app?vid=12456cb0-9c07-4f25-9efc-9cad551529d7","ios":"levelo://app?vid=12456cb0-9c07-4f25-9efc-9cad551529d7"},"vehicle_type_id":"4","last_reported":1703279159,"current_range_meters":0,"station_id":"ce4bhgp2rcd13ifvqfc0","pricing_plan_id":"free"},{"bike_id":"a36e5938-cfe7-4a1e-b899-9e1c72d03485","system_id":"levelo_inurba_marseille","lat":43.317104,"lon":5.436818,"is_reserved":false,"is_disabled":false,"rental_uris":{"android":"levelo://app?vid=a36e5938-cfe7-4a1e-b899-9e1c72d03485","ios":"levelo://app?vid=a36e5938-cfe7-4a1e-b899-9e1c72d03485"},"vehicle_type_id":"4","last_reported":1703279159,"current_range_meters":7600,"station_id":"ce4bhp92rcd13ifvqhcg","pricing_plan_id":"free"},{"bike_id":"7fbe02a0-b05d-40e2-885a-21861b971e54","system_id":"levelo_inurba_marseille","lat":43.317104,"lon":5.436818,"is_reserved":false,"is_disabled":false,"rental_uris":{"android":"levelo://app?vid=7fbe02a0-b05d-40e2-885a-21861b971e54","ios":"levelo://app?vid=7fbe02a0-b05d-40e2-885a-21861b971e54"},"vehicle_type_id":"4","last_reported":1703279159,"current_range_meters":10800,"station_id":"ce4bhp92rcd13ifvqhcg","pricing_plan_id":"free"},{"bike_id":"9a22b759-cb02-4a9f-b32d-4de2997c4531","system_id":"levelo_inurba_marseille","lat":43.317104,"lon":5.436818,"is_reserved":false,"is_disabled":false,"rental_uris":{"android":"levelo://app?vid=9a22b759-cb02-4a9f-b32d-4de2997c4531","ios":"levelo://app?vid=9a22b759-cb02-4a9f-b32d-4de2997c4531"},"vehicle_type_id":"4","last_reported":1703279159,"current_range_meters":2000,"station_id":"ce4bhp92rcd13ifvqhcg","pricing_plan_id":"free"},{"bike_id":"4e68cc02-5179-4162-a2d3-aa51415e2ffc","system_id":"levelo_inurba_marseille","lat":43.261782,"lon":5.374515,"is_reserved":false,"is_disabled":false,"rental_uris":{"android":"levelo://app?vid=4e68cc02-5179-4162-a2d3-aa51415e2ffc","ios":"levelo://app?vid=4e68cc02-5179-4162-a2d3-aa51415e2ffc"},"vehicle_type_id":"4","last_reported":1703279159,"current_range_meters":31200,"station_id":"ce4bhgp2rcd13ifvqfc0","pricing_plan_id":"free"},{"bike_id":"3c97a8a7-622c-4d01-a316-783cde5fc7f9","system_id":"levelo_inurba_marseille","lat":43.317104,"lon":5.436818,"is_reserved":false,"is_disabled":false,"rental_uris":{"android":"levelo://app?vid=3c97a8a7-622c-4d01-a316-783cde5fc7f9","ios":"levelo://app?vid=3c97a8a7-622c-4d01-a316-783cde5fc7f9"},"vehicle_type_id":"4","last_reported":1703279159,"current_range_meters":25200,"station_id":"ce4bhp92rcd13ifvqhcg","pricing_plan_id":"free"},{"bike_id":"cb3bedef-14c4-4d98-84e3-b4d224805958","system_id":"levelo_inurba_marseille","lat":43.271368,"lon":5.40928,"is_reserved":false,"is_disabled":false,"rental_uris":{"android":"levelo://app?vid=cb3bedef-14c4-4d98-84e3-b4d224805958","ios":"levelo://app?vid=cb3bedef-14c4-4d98-84e3-b4d224805958"},"vehicle_type_id":"4","last_reported":1703279159,"current_range_meters":13200,"station_id":"ce4bhl12rcd13ifvqgf0","pricing_plan_id":"free"},{"bike_id":"e6a27536-93bf-4353-bc30-ffcc5c9c33d5","system_id":"levelo_inurba_marseille","lat":43.271368,"lon":5.40928,"is_reserved":false,"is_disabled":false,"rental_uris":{"android":"levelo://app?vid=e6a27536-93bf-4353-bc30-ffcc5c9c33d5","ios":"levelo://app?vid=e6a27536-93bf-4353-bc30-ffcc5c9c33d5"},"vehicle_type_id":"4","last_reported":1703279159,"current_range_meters":15600,"station_id":"ce4bhl12rcd13ifvqgf0","pricing_plan_id":"free"},{"bike_id":"ecded0b1-26e9-4178-868a-0ff40f1e2ee0","system_id":"levelo_inurba_marseille","lat":43.271388,"lon":5.409269,"is_reserved":false,"is_disabled":false,"rental_uris":{"android":"levelo://app?vid=ecded0b1-26e9-4178-868a-0ff40f1e2ee0","ios":"levelo://app?vid=ecded0b1-26e9-4178-868a-0ff40f1e2ee0"},"vehicle_type_id":"4","last_reported":1703279159,"current_range_meters":30400,"station_id":"ce4bhl12rcd13ifvqgf0","pricing_plan_id":"free"},{"bike_id":"e8fa3cc4-24c5-46cd-837e-b47808dfd25b","system_id":"levelo_inurba_marseille","lat":43.267959,"lon":5.402685,"is_reserved":false,"is_disabled":false,"rental_uris":{"android":"levelo://app?vid=e8fa3cc4-24c5-46cd-837e-b47808dfd25b","ios":"levelo://app?vid=e8fa3cc4-24c5-46cd-837e-b47808dfd25b"},"vehicle_type_id":"4","last_reported":1703279159,"current_range_meters":27200,"station_id":"ce501612rcd8frsf0b60","pricing_plan_id":"free"},{"bike_id":"0131924d-5605-48f3-988f-22a5f29a2c50","system_id":"levelo_inurba_marseille","lat":43.298768,"lon":5.43643,"is_reserved":false,"is_disabled":false,"rental_uris":{"android":"levelo://app?vid=0131924d-5605-48f3-988f-22a5f29a2c50","ios":"levelo://app?vid=0131924d-5605-48f3-988f-22a5f29a2c50"},"vehicle_type_id":"4","last_reported":1703279159,"current_range_meters":26000,"station_id":"ce4bhpp2rcd13ifvqhfg","pricing_plan_id":"free"},{"bike_id":"68bf5348-716b-4b6e-aaf3-3e6f5e38c2c0","system_id":"levelo_inurba_marseille","lat":43.260219,"lon":5.37546,"is_reserved":false,"is_disabled":false,"rental_uris":{"android":"levelo://app?vid=68bf5348-716b-4b6e-aaf3-3e6f5e38c2c0","ios":"levelo://app?vid=68bf5348-716b-4b6e-aaf3-3e6f5e38c2c0"},"vehicle_type_id":"4","last_reported":1703279159,"current_range_meters":22000,"station_id":"ce4bhgh2rcd13ifvqfa0","pricing_plan_id":"free"},