{"last_updated":1727698691,"ttl":60,"version":"2.2","data":{"bikes":[{"bike_id":"aaeb8852-85a6-4347-a4a3-60033d754830","system_id":"levelo_inurba_marseille","lat":43.29267,"lon":5.38437,"is_reserved":false,"is_disabled":false,"rental_uris":{"android":"levelo://app?vid=aaeb8852-85a6-4347-a4a3-60033d754830","ios":"levelo://app?vid=aaeb8852-85a6-4347-a4a3-60033d754830"},"vehicle_type_id":"4","last_reported":1727698692,"current_range_meters":16000,"station_id":"ce4bh692rcd13ifvqea0","pricing_plan_id":"cebpf4jnsgd1na2vs0mg"},{"bike_id":"9d32dcbc-8ead-4d60-b9de-9a6f184651e1","system_id":"levelo_inurba_marseille","lat":43.27814,"lon":5.4072,"is_reserved":false,"is_disabled":false,"rental_uris":{"android":"levelo://app?vid=9d32dcbc-8ead-4d60-b9de-9a6f184651e1","ios":"levelo://app?vid=9d32dcbc-8ead-4d60-b9de-9a6f184651e1"},"vehicle_type_id":"4","last_reported":1727698692,"current_range_meters":12000,"station_id":"ce4bhnh2rcd13ifvqgtg","pricing_plan_id":"cebpf4jnsgd1na2vs0mg"},{"bike_id":"4ddbf793-90a5-4ea8-a90c-0500fcea6f5c","system_id":"levelo_inurba_marseille","lat":43.29968,"lon":5.38499,"is_reserved":false,"is_disabled":false,"rental_uris":{"android":"levelo://app?vid=4ddbf793-90a5-4ea8-a90c-0500fcea6f5c","ios":"levelo://app?vid=4ddbf793-90a5-4ea8-a90c-0500fcea6f5c"},"vehicle_type_id":"4","last_reported":1727698692,"current_range_meters":19200,"station_id":"ce4bgj92rcd13ifvqbd0","pricing_plan_id":"cebpf4jnsgd1na2vs0mg"},{"bike_id":"f241e90a-f4fa-48aa-afbe-b3fdaba286cd","system_id":"levelo_inurba_marseille","lat":43.28578,"lon":5.39503,"is_reserved":false,"is_disabled":false,"rental_uris":{"android":"levelo://app?vid=f241e90a-f4fa-48aa-afbe-b3fdaba286cd","ios":"levelo://app?vid=f241e90a-f4fa-48aa-afbe-b3fdaba286cd"},"vehicle_type_id":"4","last_reported":1727698692,"current_range_meters":16800,"station_id":"ce4bh292rcd13ifvqdg0","pricing_plan_id":"cebpf4jnsgd1na2vs0mg"},{"bike_id":"85b7e542-d9aa-4411-8363-a890de08af0a","system_id":"levelo_inurba_marseille","lat":43.30924,"lon":5.36819,"is_reserved":false,"is_disabled":false,"rental_uris":{"android":"levelo://app?vid=85b7e542-d9aa-4411-8363-a890de08af0a","ios":"levelo://app?vid=85b7e542-d9aa-4411-8363-a890de08af0a"},"vehicle_type_id":"4","last_reported":1727698692,"current_range_meters":28400,"station_id":"ce4bgn92rcd13ifvqbvg","pricing_plan_id":"cebpf4jnsgd1na2vs0mg"},{"bike_id":"a64d2604-8992-49e7-bfbe-4c73da1546c0","system_id":"levelo_inurba_marseille","lat":43.30543,"lon":5.36522,"is_reserved":false,"is_disabled":false,"rental_uris":{"android":"levelo://app?vid=a64d2604-8992-49e7-bfbe-4c73da1546c0","ios":"levelo://app?vid=a64d2604-8992-49e7-bfbe-4c73da1546c0"},"vehicle_type_id":"4","last_reported":1727698692,"current_range_meters":25200,"station_id":"ce4bgs12rcd13ifvqcag","pricing_plan_id":"cebpf4jnsgd1na2vs0mg"},{"bike_id":"3ad168c0-f1fc-4900-bb75-ce190d3920b3","system_id":"levelo_inurba_marseille","lat":43.33754,"lon":5.37466,"is_reserved":false,"is_disabled":false,"rental_uris":{"android":"levelo://app?vid=3ad168c0-f1fc-4900-bb75-ce190d3920b3","ios":"levelo://app?vid=3ad168c0-f1fc-4900-bb75-ce190d3920b3"},"vehicle_type_id":"4","last_reported":1727698692,"current_range_meters":36400,"station_id":"","pricing_plan_id":"cebpf4jnsgd1na2vs0mg"},{"bike_id":"78aa72d4-8380-4402-ab88-c8f0b841f7b7","system_id":"levelo_inurba_marseille","lat":43.30141,"lon":5.38074,"is_reserved":false,"is_disabled":false,"rental_uris":{"android":"levelo://app?vid=78aa72d4-8380-4402-ab88-c8f0b841f7b7","ios":"levelo://app?vid=78aa72d4-8380-4402-ab88-c8f0b841f7b7"},"vehicle_type_id":"4","last_reported":1727698692,"current_range_meters":2800,"station_id":"ce4bgjp2rcd13ifvqbh0","pricing_plan_id":"cebpf4jnsgd1na2vs0mg"},{"bike_id":"73d0d5df-4401-40c0-89eb-aa4e1f20a05f","system_id":"levelo_inurba_marseille","lat":43.29332,"lon":5.41167,"is_reserved":false,"is_disabled":false,"rental_uris":{"android":"levelo://app?vid=73d0d5df-4401-40c0-89eb-aa4e1f20a05f","ios":"levelo://app?vid=73d0d5df-4401-40c0-89eb-aa4e1f20a05f"},"vehicle_type_id":"4","last_reported":1727698692,"current_range_meters":27600,"station_id":"","pricing_plan_id":"cebpf4jnsgd1na2vs0mg"},{"bike_id":"76e34cad-0ed0-4625-87d2-dd2a19fc63b1","system_id":"levelo_inurba_marseille","lat":43.30543,"lon":5.36547,"is_reserved":false,"is_disabled":false,"rental_uris":{"android":"levelo://app?vid=76e34cad-0ed0-4625-87d2-dd2a19fc63b1","ios":"levelo://app?vid=76e34cad-0ed0-4625-87d2-dd2a19fc63b1"},"vehicle_type_id":"4","last_reported":1727698692,"current_range_meters":35200,"station_id":"ce4bgs12rcd13ifvqcag","pricing_plan_id":"cebpf4jnsgd1na2vs0mg"},{"bike_id":"43defcf7-27fa-4722-b56f-e45a1dfc2de3","system_id":"levelo_inurba_marseille","lat":43.31862,"lon":5.387,"is_reserved":false,"is_disabled":false,"rental_uris":{"android":"levelo://app?vid=43defcf7-27fa-4722-b56f-e45a1dfc2de3","ios":"levelo://app?vid=43defcf7-27fa-4722-b56f-e45a1dfc2de3"},"vehicle_type_id":"4","last_reported":1727698692,"current_range_meters":20800,"station_id":"","pricing_plan_id":"cebpf4jnsgd1na2vs0mg"},{"bike_id":"df2b664d-5bac-465f-88e7-ae06dcb5ed98","system_id":"levelo_inurba_marseille","lat":43.24171,"lon":5.36405,"is_reserved":false,"is_disabled":false,"rental_uris":{"android":"levelo://app?vid=df2b664d-5bac-465f-88e7-ae06dcb5ed98","ios":"levelo://app?vid=df2b664d-5bac-465f-88e7-ae06dcb5ed98"},"vehicle_type_id":"4","last_reported":1727698692,"current_range_meters":20400,"station_id":"cpo36qri1sfpv3e86is0","pricing_plan_id":"cebpf4jnsgd1na2vs0mg"},{"bike_id":"ce3b3e18-c5f9-4f6d-9731-c710603bbc0d","system_id":"levelo_inurba_marseille","lat":43.30892,"lon":5.37188,"is_reserved":false,"is_disabled":false,"rental_uris":{"android":"levelo://app?vid=ce3b3e18-c5f9-4f6d-9731-c710603bbc0d","ios":"levelo://app?vid=ce3b3e18-c5f9-4f6d-9731-c710603bbc0d"},"vehicle_type_id":"4","last_reported":1727698692,"current_range_meters":11200,"station_id":"ce4bguh2rcd13ifvqckg","pricing_plan_id":"cebpf4jnsgd1na2vs0mg"},{"bike_id":"35bd9ef2-762d-4408-8f3a-2b4658fd3c6f","system_id":"levelo_inurba_marseille","lat":43.30886,"lon":5.37194,"is_reserved":false,"is_disabled":false,"rental_uris":{"android":"levelo://app?vid=35bd9ef2-762d-4408-8f3a-2b4658fd3c6f","ios":"levelo://app?vid=35bd9ef2-762d-4408-8f3a-2b4658fd3c6f"},"vehicle_type_id":"4","last_reported":1727698692,"current_range_meters":25200,"station_id":"ce4bguh2rcd13ifvqckg","pricing_plan_id":"cebpf4jnsgd1na2vs0mg"},{"bike_id":"7c7310d8-0ff7-4710-8fc2-acd5e5e9e782","system_id":"levelo_inurba_marseille","lat":43.23168,"lon":5.43729,"is_reserved":false,"is_disabled":false,"rental_uris":{"android":"levelo://app?vid=7c7310d8-0ff7-4710-8fc2-acd5e5e9e782","ios":"levelo://app?vid=7c7310d8-0ff7-4710-8fc2-acd5e5e9e782"},"vehicle_type_id":"4","last_reported":1727698692,"current_range_meters":39200,"station_id":"ce4bhmp2rcd13ifvqgog","pricing_plan_id":"cebpf4jnsgd1na2vs0mg"},{"bike_id":"3bf0a32a-7e32-422e-bdd4-82164e871c17","system_id":"levelo_inurba_marseille","lat":43.3122,"lon":5.36858,"is_reserved":false,"is_disabled":false,"rental_uris":{"android":"levelo://app?vid=3bf0a32a-7e32-422e-bdd4-82164e871c17","ios":"levelo://app?vid=3bf0a32a-7e32-422e-bdd4-82164e871c17"},"vehicle_type_id":"4","last_reported":1727698692,"current_range_meters":38800,"station_id":"ce4bgl92rcd13ifvqbq0","pricing_plan_id":"cebpf4jnsgd1na2vs0mg"},{"bike_id":"365dfba5-918f-44ac-8c71-9138dda11f13","system_id":"levelo_inurba_marseille","lat":43.28271,"lon":5.35071,"is_reserved":false,"is_disabled":false,"rental_uris":{"android":"levelo://app?vid=365dfba5-918f-44ac-8c71-9138dda11f13","ios":"levelo://app?vid=365dfba5-918f-44ac-8c71-9138dda11f13"},"vehicle_type_id":"4","last_reported":1727698692,"current_range_meters":18000,"station_id":"ce4bhbp2rcd13ifvqerg","pricing_plan_id":"cebpf4jnsgd1na2vs0mg"},{"bike_id":"406c309b-ea89-491e-997b-f4f2213d2560","system_id":"levelo_inurba_marseille","lat":43.35308,"lon":5.35749,"is_reserved":false,"is_disabled":false,"rental_uris":{"android":"levelo://app?vid=406c309b-ea89-491e-997b-f4f2213d2560","ios":"levelo://app?vid=406c309b-ea89-491e-997b-f4f2213d2560"},"vehicle_type_id":"4","last_reported":1727698692,"current_range_meters":36000,"station_id":"ce4bhs12rcd13ifvqhvg","pricing_plan_id":"cebpf4jnsgd1na2vs0mg"},{"bike_id":"3d2ec761-84ea-4ed8-97f9-555645709b77","system_id":"levelo_inurba_marseille","lat":43.28936,"lon":5.36411,"is_reserved":false,"is_disabled":false,"rental_uris":{"android":"levelo://app?vid=3d2ec761-84ea-4ed8-97f9-555645709b77","ios":"levelo://app?vid=3d2ec761-84ea-4ed8-97f9-555645709b77"},"vehicle_type_id":"4","last_reported":1727698692,"current_range_meters":11600,"station_id":"ce4bhc92rcd13ifvqetg","pricing_plan_id":"cebpf4jnsgd1na2vs0mg"},{"bike_id":"950f0ed1-e694-4a3a-b1c7-4108814836c9","system_id":"levelo_inurba_marseille","lat":43.26677,"lon":5.38272,"is_reserved":false,"is_disabled":false,"rental_uris":{"android":"levelo://app?vid=950f0ed1-e694-4a3a-b1c7-4108814836c9","ios":"levelo://app?vid=950f0ed1-e694-4a3a-b1c7-4108814836c9"},"vehicle_type_id":"4","last_reported":1727698692,"current_range_meters":29600,"station_id":"ce4bhg92rcd13ifvqf90","pricing_plan_id":"cebpf4jnsgd1na2vs0mg"},{"bike_id":"a8d64e1e-2bd8-460f-bff5-2b61686240d9","system_id":"levelo_inurba_marseille","lat":43.23151,"lon":5.43714,"is_reserved":false,"is_disabled":false,"rental_uris":{"android":"levelo://app?vid=a8d64e1e-2bd8-460f-bff5-2b61686240d9","ios":"levelo://app?vid=a8d64e1e-2bd8-460f-bff5-2b61686240d9"},"vehicle_type_id":"4","last_reported":1727698692,"current_range_meters":5600,"station_id":"ce4bhmp2rcd13ifvqgog","pricing_plan_id":"cebpf4jnsgd1na2vs0mg"},{"bike_id":"79fb8106-e796-4554-98ae-c1b831aefe47","system_id":"levelo_inurba_marseille","lat":43.30207,"lon":5.39465,"is_reserved":false,"is_disabled":false,"rental_uris":{"android":"levelo://app?vid=79fb8106-e796-4554-98ae-c1b831aefe47","ios":"levelo://app?vid=79fb8106-e796-4554-98ae-c1b831aefe47"},"vehicle_type_id":"4","last_reported":1727698692,"current_range_meters":28800,"station_id":"ce4bh0p2rcd13ifvqd70","pricing_plan_id":"cebpf4jnsgd1na2vs0mg"},{"bike_id":"dbf820e9-fc5f-48a7-b12b-d310e6262f3d","system_id":"levelo_inurba_marseille","lat":43.25827,"lon":5.39438,"is_reserved":false,"is_disabled":false,"rental_uris":{"android":"levelo://app?vid=dbf820e9-fc5f-48a7-b12b-d310e6262f3d","ios":"levelo://app?vid=dbf820e9-fc5f-48a7-b12b-d310e6262f3d"},"vehicle_type_id":"4","last_reported":1727698692,"current_range_meters":24400,"station_id":"ce4bhip2rcd13ifvqft0","pricing_plan_id":"cebpf4jnsgd1na2vs0mg"},{"bike_id":"380892d5-0c07-4382-989e-ba79e6cba25e","system_id":"levelo_inurba_marseille","lat":43.28015,"lon":5.36085,"is_reserved":false,"is_disabled":false,"rental_uris":{"android":"levelo://app?vid=380892d5-0c07-4382-989e-ba79e6cba25e","ios":"levelo://app?vid=380892d5-0c07-4382-989e-ba79e6cba25e"},"vehicle_type_id":"4","last_reported":1727698692,"current_range_meters":18800,"station_id":"","pricing_plan_id":"cebpf4jnsgd1na2vs0mg"},{"bike_id":"0622bb0a-1d8f-4063-b5ab-98e6a936542c","system_id":"levelo_inurba_marseille","lat":43.28413,"lon":5.37526,"is_reserved":false,"is_disabled":false,"rental_uris":{"android":"levelo://app?vid=0622bb0a-1d8f-4063-b5ab-98e6a936542c","ios":"levelo://app?vid=0622bb0a-1d8f-4063-b5ab-98e6a936542c"},"vehicle_type_id":"4","last_reported":1727698692,"current_range_meters":12800,"station_id":"ce4bh412rcd13ifvqds0","pricing_plan_id":"cebpf4jnsgd1na2vs0mg"},{"bike_id":"98846a64-6c39-4e5f-b5cd-cb5585578d9d","system_id":"levelo_inurba_marseille","lat":43.2749,"lon":5.42457,"is_reserved":false,"is_disabled":false,"rental_uris":{"android":"levelo://app?vid=98846a64-6c39-4e5f-b5cd-cb5585578d9d","ios":"levelo://app?vid=98846a64-6c39-4e5f-b5cd-cb5585578d9d"},"vehicle_type_id":"4","last_reported":1727698692,"current_range_meters":32400,"station_id":"ce4bhn92rcd13ifvqgrg","pricing_plan_id":"cebpf4jnsgd1na2vs0mg"},{"bike_id":"098efc31-36e9-43b4-b9fb-6b32a500c7f4","system_id":"levelo_inurba_marseille","lat":43.28,"lon":5.41662,"is_reserved":false,"is_disabled":false,"rental_uris":{"android":"levelo://app?vid=098efc31-36e9-43b4-b9fb-6b32a500c7f4","ios":"levelo://app?vid=098efc31-36e9-43b4-b9fb-6b32a500c7f4"},"vehicle_type_id":"4","last_reported":1727698692,"current_range_meters":6400,"station_id":"ce4bho12rcd13ifvqh1g","pricing_plan_id":"cebpf4jnsgd1na2vs0mg"},{"bike_id":"880a62e6-54cc-475f-89c5-ef99ba470485","system_id":"levelo_inurba_marseille","lat":43.30422,"lon":5.38018,"is_reserved":false,"is_disabled":false,"rental_uris":{"android":"levelo://app?vid=880a62e6-54cc-475f-89c5-ef99ba470485","ios":"levelo://app?vid=880a62e6-54cc-475f-89c5-ef99ba470485"},"vehicle_type_id":"4","last_reported":1727698692,"current_range_meters":30000,"station_id":"ce4bgup2rcd13ifvqcn0","pricing_plan_id":"cebpf4jnsgd1na2vs0mg"},{"bike_id":"2781c9d5-86e8-43d9-a819-20df714453ba","system_id":"levelo_inurba_marseille","lat":43.25716,"lon":5.41109,"is_reserved":false,"is_disabled":false,"rental_uris":{"android":"levelo://app?vid=2781c9d5-86e8-43d9-a819-20df714453ba","ios":"levelo://app?vid=2781c9d5-86e8-43d9-a819-20df714453ba"},"vehicle_type_id":"4","last_reported":1727698692,"current_range_meters":35600,"station_id":"ce4bhkp2rcd13ifvqgd0","pricing_plan_id":"cebpf4jnsgd1na2vs0mg"},{"bike_id":"4fd32a8b-5c64-472b-a152-f61f23a6b158","system_id":"levelo_inurba_marseille","lat":43.29253,"lon":5.40915,"is_reserved":false,"is_disabled":false,"rental_uris":{"android":"levelo://app?vid=4fd32a8b-5c64-472b-a152-f61f23a6b158","ios":"levelo://app?vid=4fd32a8b-5c64-472b-a152-f61f23a6b158"},"vehicle_type_id":"4","last_reported":1727698692,"current_range_meters":20000,"station_id":"ce4bh192rcd13ifvqdc0","pricing_plan_id":"cebpf4jnsgd1na2vs0mg"},{"bike_id":"763b7586-66ee-45db-901a-8b9d20791cea","system_id":"levelo_inurba_marseille","lat":43.32533,"lon":5.41443,"is_reserved":false,"is_disabled":false,"rental_uris":{"android":"levelo://app?vid=763b7586-66ee-45db-901a-8b9d20791cea","ios":"levelo://app?vid=763b7586-66ee-45db-901a-8b9d20791cea"},"vehicle_type_id":"4","last_reported":1727698692,"current_range_meters":36400,"station_id":"ce4bhq12rcd13ifvqhhg","pricing_plan_id":"cebpf4jnsgd1na2vs0mg"},{"bike_id":"4da857fe-840f-4131-8000-1901903cf630","system_id":"levelo_inurba_marseille","lat":43.29194,"lon":5.35805,"is_reserved":false,"is_disabled":false,"rental_uris":{"android":"levelo://app?vid=4da857fe-840f-4131-8000-1901903cf630","ios":"levelo://app?vid=4da857fe-840f-4131-8000-1901903cf630"},"vehicle_type_id":"4","last_reported":1727698692,"current_range_meters":38400,"station_id":"ce4bhb12rcd13ifvqel0","pricing_plan_id":"cebpf4jnsgd1na2vs0mg"},{"bike_id":"06c365e2-ada5-4784-b552-01f94928c737","system_id":"levelo_inurba_marseille","lat":43.326975,"lon":5.375053,"is_reserved":false,"is_disabled":false,"rental_uris":{"android":"levelo://app?vid=06c365e2-ada5-4784-b552-01f94928c737","ios":"levelo://app?vid=06c365e2-ada5-4784-b552-01f94928c737"},"vehicle_type_id":"4","last_reported":1727698692,"current_range_meters":12400,"station_id":"","pricing_plan_id":"cebpf4jnsgd1na2vs0mg"},{"bike_id":"6b351f70-bf97-4830-b286-54e106272b22","system_id":"levelo_inurba_marseille","lat":43.27494,"lon":5.42449,"is_reserved":false,"is_disabled":false,"rental_uris":{"android":"levelo://app?vid=6b351f70-bf97-4830-b286-54e106272b22","ios":"levelo://app?vid=6b351f70-bf97-4830-b286-54e106272b22"},"vehicle_type_id":"4","last_reported":1727698692,"current_range_meters":4800,"station_id":"ce4bhn92rcd13ifvqgrg","pricing_plan_id":"cebpf4jnsgd1na2vs0mg"},{"bike_id":"286aa82d-ab6e-4581-a76b-cc97a72f25e3","system_id":"levelo_inurba_marseille","lat":43.29572,"lon":5.37513,"is_reserved":false,"is_disabled":false,"rental_uris":{"android":"levelo://app?vid=286aa82d-ab6e-4581-a76b-cc97a72f25e3","ios":"levelo://app?vid=286aa82d-ab6e-4581-a76b-cc97a72f25e3"},"vehicle_type_id":"4","last_reported":1727698692,"current_range_meters":28800,"station_id":"ce4bgh92rcd13ifvqb50","pricing_plan_id":"cebpf4jnsgd1na2vs0mg"},{"bike_id":"683cdf7a-d3ac-4930-b554-580cc9b590bb","system_id":"levelo_inurba_marseille","lat":43.3055,"lon":5.36527,"is_reserved":false,"is_disabled":false,"rental_uris":{"android":"levelo://app?vid=683cdf7a-d3ac-4930-b554-580cc9b590bb","ios":"levelo://app?vid=683cdf7a-d3ac-4930-b554-580cc9b590bb"},"vehicle_type_id":"4","last_reported":1727698692,"current_range_meters":32800,"station_id":"ce4bgs12rcd13ifvqcag","pricing_plan_id":"cebpf4jnsgd1na2vs0mg"},{"bike_id":"7f65494c-bb0c-463b-b3a3-c11c60597589","system_id":"levelo_inurba_marseille","lat":43.24386,"lon":5.37067,"is_reserved":false,"is_disabled":false,"rental_uris":{"android":"levelo://app?vid=7f65494c-bb0c-463b-b3a3-c11c60597589","ios":"levelo://app?vid=7f65494c-bb0c-463b-b3a3-c11c60597589"},"vehicle_type_id":"4","last_reported":1727698692,"current_range_meters":38000,"station_id":"ce4bhhh2rcd13ifvqfk0","pricing_plan_id":"cebpf4jnsgd1na2vs0mg"},{"bike_id":"918a76fa-3501-4977-94c9-aac2efae816d","system_id":"levelo_inurba_marseille","lat":43.32474,"lon":5.36561,"is_reserved":false,"is_disabled":false,"rental_uris":{"android":"levelo://app?vid=918a76fa-3501-4977-94c9-aac2efae816d","ios":"levelo://app?vid=918a76fa-3501-4977-94c9-aac2efae816d"},"vehicle_type_id":"4","last_reported":1727698692,"current_range_meters":39200,"station_id":"ce4bhs12rcd13ifvqhvg","pricing_plan_id":"cebpf4jnsgd1na2vs0mg"},{"bike_id":"2d25d77a-e209-4315-964a-30397645aedc","system_id":"levelo_inurba_marseille","lat":43.28571,"lon":5.39505,"is_reserved":false,"is_disabled":false,"rental_uris":{"android":"levelo://app?vid=2d25d77a-e209-4315-964a-30397645aedc","ios":"levelo://app?vid=2d25d77a-e209-4315-964a-30397645aedc"},"vehicle_type_id":"4","last_reported":1727698692,"current_range_meters":36400,"station_id":"ce4bh292rcd13ifvqdg0","pricing_plan_id":"cebpf4jnsgd1na2vs0mg"},{"bike_id":"a7fb10a9-dc16-4906-b0ba-9989c45ad162","system_id":"levelo_inurba_marseille","lat":43.27648,"lon":5.35809,"is_reserved":false,"is_disabled":false,"rental_uris":{"android":"levelo://app?vid=a7fb10a9-dc16-4906-b0ba-9989c45ad162","ios":"levelo://app?vid=a7fb10a9-dc16-4906-b0ba-9989c45ad162"},"vehicle_type_id":"4","last_reported":1727698692,"current_range_meters":8000,"station_id":"ce4bha92rcd13ifvqeh0","pricing_plan_id":"cebpf4jnsgd1na2vs0mg"},{"bike_id":"07bbc0d3-41eb-4657-b5b7-66e4b01ce091","system_id":"levelo_inurba_marseille","lat":43.29621,"lon":5.3718,"is_reserved":false,"is_disabled":false,"rental_uris":{"android":"levelo://app?vid=07bbc0d3-41eb-4657-b5b7-66e4b01ce091","ios":"levelo://app?vid=07bbc0d3-41eb-4657-b5b7-66e4b01ce091"},"vehicle_type_id":"4","last_reported":1727698692,"current_range_meters":6400,"station_id":"ce4bgnh2rcd13ifvqc0g","pricing_plan_id":"cebpf4jnsgd1na2vs0mg"},{"bike_id":"4d0fccb9-f9c7-4fe1-8379-b8c8341f3761","system_id":"levelo_inurba_marseille","lat":43.28855,"lon":5.39302,"is_reserved":false,"is_disabled":false,"rental_uris":{"android":"levelo://app?vid=4d0fccb9-f9c7-4fe1-8379-b8c8341f3761","ios":"levelo://app?vid=4d0fccb9-f9c7-4fe1-8379-b8c8341f3761"},"vehicle_type_id":"4","last_reported":1727698692,"current_range_meters":3200,"station_id":"ce4bh2p2rcd13ifvqdi0","pricing_plan_id":"cebpf4jnsgd1na2vs0mg"},{"bike_id":"fcc0bb07-98b7-46c7-ada3-2b13762b4210","system_id":"levelo_inurba_marseille","lat":43.30468,"lon":5.37905,"is_reserved":false,"is_disabled":false,"rental_uris":{"android":"levelo://app?vid=fcc0bb07-98b7-46c7-ada3-2b13762b4210","ios":"levelo://app?vid=fcc0bb07-98b7-46c7-ada3-2b13762b4210"},"vehicle_type_id":"4","last_reported":1727698692,"current_range_meters":16400,"station_id":"ce4bgup2rcd13ifvqcn0","pricing_plan_id":"cebpf4jnsgd1na2vs0mg"},{"bike_id":"680f5edc-c922-43cc-ade0-414e3a347732","system_id":"levelo_inurba_marseille","lat":43.24083,"lon":5.37753,"is_reserved":false,"is_disabled":false,"rental_uris":{"android":"levelo://app?vid=680f5edc-c922-43cc-ade0-414e3a347732","ios":"levelo://app?vid=680f5edc-c922-43cc-ade0-414e3a347732"},"vehicle_type_id":"4","last_reported":1727698692,"current_range_meters":23200,"station_id":"ce4bhnp2rcd13ifvqgvg","pricing_plan_id":"cebpf4jnsgd1na2vs0mg"},{"bike_id":"b95d9d76-f014-42b9-acca-a225c137258f","system_id":"levelo_inurba_marseille","lat":43.28441,"lon":5.39188,"is_reserved":false,"is_disabled":false,"rental_uris":{"android":"levelo://app?vid=b95d9d76-f014-42b9-acca-a225c137258f","ios":"levelo://app?vid=b95d9d76-f014-42b9-acca-a225c137258f"},"vehicle_type_id":"4","last_reported":1727698692,"current_range_meters":11200,"station_id":"ce4bhoh2rcd13ifvqh5g","pricing_plan_id":"cebpf4jnsgd1na2vs0mg"},{"bike_id":"95f864cd-3d33-4a22-9e76-46c0e49460f2","system_id":"levelo_inurba_marseille","lat":43.30537,"lon":5.36544,"is_reserved":false,"is_disabled":false,"rental_uris":{"android":"levelo://app?vid=95f864cd-3d33-4a22-9e76-46c0e49460f2","ios":"levelo://app?vid=95f864cd-3d33-4a22-9e76-46c0e49460f2"},"vehicle_type_id":"4","last_reported":1727698692,"current_range_meters":8000,"station_id":"ce4bgs12rcd13ifvqcag","pricing_plan_id":"cebpf4jnsgd1na2vs0mg"},{"bike_id":"65b81cad-d8c4-4688-a851-db55e68aac95","system_id":"levelo_inurba_marseille","lat":43.31344,"lon":5.36702,"is_reserved":false,"is_disabled":false,"rental_uris":{"android":"levelo://app?vid=65b81cad-d8c4-4688-a851-db55e68aac95","ios":"levelo://app?vid=65b81cad-d8c4-4688-a851-db55e68aac95"},"vehicle_type_id":"4","last_reported":1727698692,"current_range_meters":37600,"station_id":"ce4bgr92rcd13ifvqc6g","pricing_plan_id":"cebpf4jnsgd1na2vs0mg"},{"bike_id":"43c06965-23b9-4d30-b7e8-7a5ba49ffbec","system_id":"levelo_inurba_marseille","lat":43.3231,"lon":5.38297,"is_reserved":false,"is_disabled":false,"rental_uris":{"android":"levelo://app?vid=43c06965-23b9-4d30-b7e8-7a5ba49ffbec","ios":"levelo://app?vid=43c06965-23b9-4d30-b7e8-7a5ba49ffbec"},"vehicle_type_id":"4","last_reported":1727698692,"current_range_meters":33200,"station_id":"ce4bhr12rcd13ifvqhqg","pricing_plan_id":"cebpf4jnsgd1na2vs0mg"},{"bike_id":"5b800d39-ba23-48e7-941c-fd0fa9bc4b89","system_id":"levelo_inurba_marseille","lat":43.31237,"lon":5.36843,"is_reserved":false,"is_disabled":false,"rental_uris":{"android":"levelo://app?vid=5b800d39-ba23-48e7-941c-fd0fa9bc4b89","ios":"levelo://app?vid=5b800d39-ba23-48e7-941c-fd0fa9bc4b89"},"vehicle_type_id":"4","last_reported":1727698692,"current_range_meters":3600,"station_id":"ce4bgl92rcd13ifvqbq0","pricing_plan_id":"cebpf4jnsgd1na2vs0mg"},{"bike_id":"096d2f41-d9e5-4c72-ab4f-f4dcf50964cb","system_id":"levelo_inurba_marseille","lat":43.28434,"lon":5.39187,"is_reserved":false,"is_disabled":false,"rental_uris":{"android":"levelo://app?vid=096d2f41-d9e5-4c72-ab4f-f4dcf50964cb","ios":"levelo://app?vid=096d2f41-d9e5-4c72-ab4f-f4dcf50964cb"},"vehicle_type_id":"4","last_reported":1727698692,"current_range_meters":37600,"station_id":"ce4bhoh2rcd13ifvqh5g","pricing_plan_id":"cebpf4jnsgd1na2vs0mg"},{"bike_id":"bcd51f7a-7c17-4d96-a6bb-c22dd1877d25","system_id":"levelo_inurba_marseille","lat":43.27496,"lon":5.4245,"is_reserved":false,"is_disabled":false,"rental_uris":{"android":"levelo://app?vid=bcd51f7a-7c17-4d96-a6bb-c22dd1877d25","ios":"levelo://app?vid=bcd51f7a-7c17-4d96-a6bb-c22dd1877d25"},"vehicle_type_id":"4","last_reported":1727698692,"current_range_meters":25200,"station_id":"ce4bhn92rcd13ifvqgrg","pricing_plan_id":"cebpf4jnsgd1na2vs0mg"},{"bike_id":"1b019db2-ef06-4c36-bae6-d19a82dfd8bc","system_id":"levelo_inurba_marseille","lat":43.24077,"lon":5.37746,"is_reserved":false,"is_disabled":false,"rental_uris":{"android":"levelo://app?vid=1b019db2-ef06-4c36-bae6-d19a82dfd8bc","ios":"levelo://app?vid=1b019db2-ef06-4c36-bae6-d19a82dfd8bc"},"vehicle_type_id":"4","last_reported":1727698692,"current_range_meters":11600,"station_id":"ce4bhnp2rcd13ifvqgvg","pricing_plan_id":"cebpf4jnsgd1na2vs0mg"},{"bike_id":"3e8426f6-fb6a-4a55-800f-632d22a11d67","system_id":"levelo_inurba_marseille","lat":43.248078,"lon":5.374595,"is_reserved":false,"is_disabled":false,"rental_uris":{"android":"levelo://app?vid=3e8426f6-fb6a-4a55-800f-632d22a11d67","ios":"levelo://app?vid=3e8426f6-fb6a-4a55-800f-632d22a11d67"},"vehicle_type_id":"4","last_reported":1727698692,"current_range_meters":9200,"station_id":"ce4bhgh2rcd13ifvqfb0","pricing_plan_id":"cebpf4jnsgd1na2vs0mg"},{"bike_id":"6ee2de4a-ddd1-4839-a49f-27e11835bf3d","system_id":"levelo_inurba_marseille","lat":43.30207,"lon":5.36624,"is_reserved":false,"is_disabled":false,"rental_uris":{"android":"levelo://app?vid=6ee2de4a-ddd1-4839-a49f-27e11835bf3d","ios":"levelo://app?vid=6ee2de4a-ddd1-4839-a49f-27e11835bf3d"},"vehicle_type_id":"4","last_reported":1727698692,"current_range_meters":25200,"station_id":"ce4bgrh2rcd13ifvqc8g","pricing_plan_id":"cebpf4jnsgd1na2vs0mg"},{"bike_id":"1123f35f-7ca2-40da-8d0d-2660f6ddca34","system_id":"levelo_inurba_marseille","lat":43.26789,"lon":5.39425,"is_reserved":false,"is_disabled":false,"rental_uris":{"android":"levelo://app?vid=1123f35f-7ca2-40da-8d0d-2660f6ddca34","ios":"levelo://app?vid=1123f35f-7ca2-40da-8d0d-2660f6ddca34"},"vehicle_type_id":"4","last_reported":1727698692,"current_range_meters":16800,"station_id":"","pricing_plan_id":"cebpf4jnsgd1na2vs0mg"},{"bike_id":"2dadae6c-624e-453c-9c9e-53a1814a9c2c","system_id":"levelo_inurba_marseille","lat":43.28414,"lon":5.34989,"is_reserved":false,"is_disabled":false,"rental_uris":{"android":"levelo://app?vid=2dadae6c-624e-453c-9c9e-53a1814a9c2c","ios":"levelo://app?vid=2dadae6c-624e-453c-9c9e-53a1814a9c2c"},"vehicle_type_id":"4","last_reported":1727698692,"current_range_meters":38800,"station_id":"ce4bhbh2rcd13ifvqepg","pricing_plan_id":"cebpf4jnsgd1na2vs0mg"},{"bike_id":"af8726ce-1f41-4136-ae0b-14a0449a0611","system_id":"levelo_inurba_marseille","lat":43.23962,"lon":5.36637,"is_reserved":false,"is_disabled":false,"rental_uris":{"android":"levelo://app?vid=af8726ce-1f41-4136-ae0b-14a0449a0611","ios":"levelo://app?vid=af8726ce-1f41-4136-ae0b-14a0449a0611"},"vehicle_type_id":"4","last_reported":1727698692,"current_range_meters":28000,"station_id":"ce4bhi12rcd13ifvqfp0","pricing_plan_id":"cebpf4jnsgd1na2vs0mg"},{"bike_id":"2722a8ac-38e3-4f87-91d0-ab9a53110d97","system_id":"levelo_inurba_marseille","lat":43.26941,"lon":5.38628,"is_reserved":false,"is_disabled":false,"rental_uris":{"android":"levelo://app?vid=2722a8ac-38e3-4f87-91d0-ab9a53110d97","ios":"levelo://app?vid=2722a8ac-38e3-4f87-91d0-ab9a53110d97"},"vehicle_type_id":"4","last_reported":1727698692,"current_range_meters":35200,"station_id":"ce4bhh92rcd13ifvqfh0","pricing_plan_id":"cebpf4jnsgd1na2vs0mg"},{"bike_id":"817674d9-c3c7-4a02-9e2e-39ba75079a4f","system_id":"levelo_inurba_marseille","lat":43.30309,"lon":5.39215,"is_reserved":false,"is_disabled":false,"rental_uris":{"android":"levelo://app?vid=817674d9-c3c7-4a02-9e2e-39ba75079a4f","ios":"levelo://app?vid=817674d9-c3c7-4a02-9e2e-39ba75079a4f"},"vehicle_type_id":"4","last_reported":1727698692,"current_range_meters":20400,"station_id":"ce4bgkh2rcd13ifvqbk0","pricing_plan_id":"cebpf4jnsgd1na2vs0mg"},{"bike_id":"58303d09-2231-4d94-8ee6-9f07e0a1e318","system_id":"levelo_inurba_marseille","lat":43.29898,"lon":5.43672,"is_reserved":false,"is_disabled":false,"rental_uris":{"android":"levelo://app?vid=58303d09-2231-4d94-8ee6-9f07e0a1e318","ios":"levelo://app?vid=58303d09-2231-4d94-8ee6-9f07e0a1e318"},"vehicle_type_id":"4","last_reported":1727698692,"current_range_meters":38800,"station_id":"ce4bhpp2rcd13ifvqhfg","pricing_plan_id":"cebpf4jnsgd1na2vs0mg"},{"bike_id":"860dd3a5-1b22-4ebe-b7bf-881fabd604ce","system_id":"levelo_inurba_marseille","lat":43.31486,"lon":5.37306,"is_reserved":false,"is_disabled":false,"rental_uris":{"android":"levelo://app?vid=860dd3a5-1b22-4ebe-b7bf-881fabd604ce","ios":"levelo://app?vid=860dd3a5-1b22-4ebe-b7bf-881fabd604ce"},"vehicle_type_id":"4","last_reported":1727698692,"current_range_meters":18000,"station_id":"ce4bgt12rcd13ifvqcd0","pricing_plan_id":"cebpf4jnsgd1na2vs0mg"},{"bike_id":"86020f78-7dd5-4a2e-a162-9339ff282ac4","system_id":"levelo_inurba_marseille","lat":43.28942,"lon":5.36414,"is_reserved":false,"is_disabled":false,"rental_uris":{"android":"levelo://app?vid=86020f78-7dd5-4a2e-a162-9339ff282ac4","ios":"levelo://app?vid=86020f78-7dd5-4a2e-a162-9339ff282ac4"},"vehicle_type_id":"4","last_reported":1727698692,"current_range_meters":10000,"station_id":"ce4bhc92rcd13ifvqetg","pricing_plan_id":"cebpf4jnsgd1na2vs0mg"},{"bike_id":"4f3587cb-8b87-47c7-bfb4-4d02e0e95214","system_id":"levelo_inurba_marseille","lat":43.26942,"lon":5.38632,"is_reserved":false,"is_disabled":false,"rental_uris":{"android":"levelo://app?vid=4f3587cb-8b87-47c7-bfb4-4d02e0e95214","ios":"levelo://app?vid=4f3587cb-8b87-47c7-bfb4-4d02e0e95214"},"vehicle_type_id":"4","last_reported":1727698692,"current_range_meters":31200,"station_id":"ce4bhh92rcd13ifvqfh0","pricing_plan_id":"cebpf4jnsgd1na2vs0mg"},{"bike_id":"f9ab2f40-2aa7-4215-b746-767e881314dc","system_id":"levelo_inurba_marseille","lat":43.30909,"lon":5.36846,"is_reserved":false,"is_disabled":false,"rental_uris":{"android":"levelo://app?vid=f9ab2f40-2aa7-4215-b746-767e881314dc","ios":"levelo://app?vid=f9ab2f40-2aa7-4215-b746-767e881314dc"},"vehicle_type_id":"4","last_reported":1727698692,"current_range_meters":23200,"station_id":"ce4bgn92rcd13ifvqbvg","pricing_plan_id":"cebpf4jnsgd1na2vs0mg"},{"bike_id":"62110c18-ba6e-4a54-8b88-fbfbaf57e32e","system_id":"levelo_inurba_marseille","lat":43.32549,"lon":5.41419,"is_reserved":false,"is_disabled":false,"rental_uris":{"android":"levelo://app?vid=62110c18-ba6e-4a54-8b88-fbfbaf57e32e","ios":"levelo://app?vid=62110c18-ba6e-4a54-8b88-fbfbaf57e32e"},"vehicle_type_id":"4","last_reported":1727698692,"current_range_meters":38800,"station_id":"ce4bhq12rcd13ifvqhhg","pricing_plan_id":"cebpf4jnsgd1na2vs0mg"},{"bike_id":"5e71ae77-b20f-4683-a026-704f02d58cdb","system_id":"levelo_inurba_marseille","lat":43.26941,"lon":5.38629,"is_reserved":false,"is_disabled":false,"rental_uris":{"android":"levelo://app?vid=5e71ae77-b20f-4683-a026-704f02d58cdb","ios":"levelo://app?vid=5e71ae77-b20f-4683-a026-704f02d58cdb"},"vehicle_type_id":"4","last_reported":1727698692,"current_range_meters":27200,"station_id":"ce4bhh92rcd13ifvqfh0","pricing_plan_id":"cebpf4jnsgd1na2vs0mg"},{"bike_id":"db26dac6-2983-4536-aa72-41278f143525","system_id":"levelo_inurba_marseille","lat":43.22931,"lon":5.35379,"is_reserved":false,"is_disabled":false,"rental_uris":{"android":"levelo://app?vid=db26dac6-2983-4536-aa72-41278f143525","ios":"levelo://app?vid=db26dac6-2983-4536-aa72-41278f143525"},"vehicle_type_id":"4","last_reported":1727698692,"current_range_meters":16800,"station_id":"cpo3532slgdg3j2ikp40","pricing_plan_id":"cebpf4jnsgd1na2vs0mg"},{"bike_id":"0d4a15b2-3df7-4a30-a28e-5d4bc276e27e","system_id":"levelo_inurba_marseille","lat":43.29607,"lon":5.38104,"is_reserved":false,"is_disabled":false,"rental_uris":{"android":"levelo://app?vid=0d4a15b2-3df7-4a30-a28e-5d4bc276e27e","ios":"levelo://app?vid=0d4a15b2-3df7-4a30-a28e-5d4bc276e27e"},"vehicle_type_id":"4","last_reported":1727698692,"current_range_meters":8000,"station_id":"ce4bgl12rcd13ifvqbo0","pricing_plan_id":"cebpf4jnsgd1na2vs0mg"},{"bike_id":"482d624e-c264-4c96-afac-b00a1fd6ac37","system_id":"levelo_inurba_marseille","lat":43.30459,"lon":5.37913,"is_reserved":false,"is_disabled":false,"rental_uris":{"android":"levelo://app?vid=482d624e-c264-4c96-afac-b00a1fd6ac37","ios":"levelo://app?vid=482d624e-c264-4c96-afac-b00a1fd6ac37"},"vehicle_type_id":"4","last_reported":1727698692,"current_range_meters":14000,"station_id":"ce4bgup2rcd13ifvqcn0","pricing_plan_id":"cebpf4jnsgd1na2vs0mg"},{"bike_id":"fc000178-2a9f-49f3-96a7-94c32b0a9854","system_id":"levelo_inurba_marseille","lat":43.26956,"lon":5.3864,"is_reserved":false,"is_disabled":false,"rental_uris":{"android":"levelo://app?vid=fc000178-2a9f-49f3-96a7-94c32b0a9854","ios":"levelo://app?vid=fc000178-2a9f-49f3-96a7-94c32b0a9854"},"vehicle_type_id":"4","last_reported":1727698692,"current_range_meters":23200,"station_id":"ce4bhh92rcd13ifvqfh0","pricing_plan_id":"cebpf4jnsgd1na2vs0mg"},{"bike_id":"8c631702-096a-40ec-9a04-ea88840a73d4","system_id":"levelo_inurba_marseille","lat":43.305417,"lon":5.384297,"is_reserved":false,"is_disabled":false,"rental_uris":{"android":"levelo://app?vid=8c631702-096a-40ec-9a04-ea88840a73d4","ios":"levelo://app?vid=8c631702-096a-40ec-9a04-ea88840a73d4"},"vehicle_type_id":"4","last_reported":1727698692,"current_range_meters":3200,"station_id":"ce4bgg92rcd13ifvqb30","pricing_plan_id":"cebpf4jnsgd1na2vs0mg"},{"bike_id":"44b3be37-5f9e-498a-a752-7653734d4ef1","system_id":"levelo_inurba_marseille","lat":43.24545,"lon":5.3953,"is_reserved":false,"is_disabled":false,"rental_uris":{"android":"levelo://app?vid=44b3be37-5f9e-498a-a752-7653734d4ef1","ios":"levelo://app?vid=44b3be37-5f9e-498a-a752-7653734d4ef1"},"vehicle_type_id":"4","last_reported":1727698692,"current_range_meters":23200,"station_id":"ce4bhlp2rcd13ifvqgjg","pricing_plan_id":"cebpf4jnsgd1na2vs0mg"},{"bike_id":"a1bc21e8-0918-44cf-ae4d-e4103e7fb6ee","system_id":"levelo_inurba_marseille","lat":43.27488,"lon":5.42459,"is_reserved":false,"is_disabled":false,"rental_uris":{"android":"levelo://app?vid=a1bc21e8-0918-44cf-ae4d-e4103e7fb6ee","ios":"levelo://app?vid=a1bc21e8-0918-44cf-ae4d-e4103e7fb6ee"},"vehicle_type_id":"4","last_reported":1727698692,"current_range_meters":14400,"station_id":"ce4bhn92rcd13ifvqgrg","pricing_plan_id":"cebpf4jnsgd1na2vs0mg"},{"bike_id":"344f4cd2-4975-4c5f-a923-aa6984a61b0c","system_id":"levelo_inurba_marseille","lat":43.25871,"lon":5.39898,"is_reserved":false,"is_disabled":false,"rental_uris":{"android":"levelo://app?vid=344f4cd2-4975-4c5f-a923-aa6984a61b0c","ios":"levelo://app?vid=344f4cd2-4975-4c5f-a923-aa6984a61b0c"},"vehicle_type_id":"4","last_reported":1727698692,"current_range_meters":20000,"station_id":"ce4bhl92rcd13ifvqghg","pricing_plan_id":"cebpf4jnsgd1na2vs0mg"},{"bike_id":"356e7954-cbf0-4199-9914-d21539cf7cef","system_id":"levelo_inurba_marseille","lat":43.30461,"lon":5.3792,"is_reserved":false,"is_disabled":false,"rental_uris":{"android":"levelo://app?vid=356e7954-cbf0-4199-9914-d21539cf7cef","ios":"levelo://app?vid=356e7954-cbf0-4199-9914-d21539cf7cef"},"vehicle_type_id":"4","last_reported":1727698692,"current_range_meters":30400,"station_id":"ce4bgup2rcd13ifvqcn0","pricing_plan_id":"cebpf4jnsgd1na2vs0mg"},{"bike_id":"6536c0ca-8c69-4ec8-8828-5295de60b883","system_id":"levelo_inurba_marseille","lat":43.32373,"lon":5.40641,"is_reserved":false,"is_disabled":false,"rental_uris":{"android":"levelo://app?vid=6536c0ca-8c69-4ec8-8828-5295de60b883","ios":"levelo://app?vid=6536c0ca-8c69-4ec8-8828-5295de60b883"},"vehicle_type_id":"4","last_reported":1727698692,"current_range_meters":26000,"station_id":"ce4bhq92rcd13ifvqhjg","pricing_plan_id":"cebpf4jnsgd1na2vs0mg"},{"bike_id":"560eec86-d20e-4632-be2b-0f04c3e3f7f0","system_id":"levelo_inurba_marseille","lat":43.27067,"lon":5.42271,"is_reserved":false,"is_disabled":false,"rental_uris":{"android":"levelo://app?vid=560eec86-d20e-4632-be2b-0f04c3e3f7f0","ios":"levelo://app?vid=560eec86-d20e-4632-be2b-0f04c3e3f7f0"},"vehicle_type_id":"4","last_reported":1727698692,"current_range_meters":28800,"station_id":"ce4bhk92rcd13ifvqgb0","pricing_plan_id":"cebpf4jnsgd1na2vs0mg"},{"bike_id":"791778cb-b9b1-46da-80e8-ce0940cdd61d","system_id":"levelo_inurba_marseille","lat":43.23198,"lon":5.35548,"is_reserved":false,"is_disabled":false,"rental_uris":{"android":"levelo://app?vid=791778cb-b9b1-46da-80e8-ce0940cdd61d","ios":"levelo://app?vid=791778cb-b9b1-46da-80e8-ce0940cdd61d"},"vehicle_type_id":"4","last_reported":1727698692,"current_range_meters":10800,"station_id":"ce4bhu92rcd13ifvqi70","pricing_plan_id":"cebpf4jnsgd1na2vs0mg"},{"bike_id":"c91b2253-767b-4237-82bc-49763653b489","system_id":"levelo_inurba_marseille","lat":43.30417,"lon":5.41289,"is_reserved":false,"is_disabled":false,"rental_uris":{"android":"levelo://app?vid=c91b2253-767b-4237-82bc-49763653b489","ios":"levelo://app?vid=c91b2253-767b-4237-82bc-49763653b489"},"vehicle_type_id":"4","last_reported":1727698692,"current_range_meters":38800,"station_id":"ce4bhop2rcd13ifvqh8g","pricing_plan_id":"cebpf4jnsgd1na2vs0mg"},{"bike_id":"0569ffd9-5d73-439a-979a-a1c88b9a1061","system_id":"levelo_inurba_marseille","lat":43.32911,"lon":5.39058,"is_reserved":false,"is_disabled":false,"rental_uris":{"android":"levelo://app?vid=0569ffd9-5d73-439a-979a-a1c88b9a1061","ios":"levelo://app?vid=0569ffd9-5d73-439a-979a-a1c88b9a1061"},"vehicle_type_id":"4","last_reported":1727698692,"current_range_meters":33200,"station_id":"","pricing_plan_id":"cebpf4jnsgd1na2vs0mg"},{"bike_id":"b513442b-6c10-4d05-9961-8edafb74c6b5","system_id":"levelo_inurba_marseille","lat":43.285828,"lon":5.350848,"is_reserved":false,"is_disabled":false,"rental_uris":{"android":"levelo://app?vid=b513442b-6c10-4d05-9961-8edafb74c6b5","ios":"levelo://app?vid=b513442b-6c10-4d05-9961-8edafb74c6b5"},"vehicle_type_id":"4","last_reported":1727698692,"current_range_meters":8400,"station_id":"ce4bha92rcd13ifvqeg0","pricing_plan_id":"cebpf4jnsgd1na2vs0mg"},{"bike_id":"80e06d63-e4bc-451b-a7e9-c06cc1bc640e","system_id":"levelo_inurba_marseille","lat":43.2707,"lon":5.42276,"is_reserved":false,"is_disabled":false,"rental_uris":{"android":"levelo://app?vid=80e06d63-e4bc-451b-a7e9-c06cc1bc640e","ios":"levelo://app?vid=80e06d63-e4bc-451b-a7e9-c06cc1bc640e"},"vehicle_type_id":"4","last_reported":1727698692,"current_range_meters":8000,"station_id":"ce4bhk92rcd13ifvqgb0","pricing_plan_id":"cebpf4jnsgd1na2vs0mg"},{"bike_id":"9ebe0d80-8171-42b4-a03d-483fd82f58ed","system_id":"levelo_inurba_marseille","lat":43.2905,"lon":5.39991,"is_reserved":false,"is_disabled":false,"rental_uris":{"android":"levelo://app?vid=9ebe0d80-8171-42b4-a03d-483fd82f58ed","ios":"levelo://app?vid=9ebe0d80-8171-42b4-a03d-483fd82f58ed"},"vehicle_type_id":"4","last_reported":1727698692,"current_range_meters":26000,"station_id":"ce4bh392rcd13ifvqdm0","pricing_plan_id":"cebpf4jnsgd1na2vs0mg"},{"bike_id":"29cd1976-89d1-43cb-84d2-80e4439db4b1","system_id":"levelo_inurba_marseille","lat":43.31209,"lon":5.36861,"is_reserved":false,"is_disabled":false,"rental_uris":{"android":"levelo://app?vid=29cd1976-89d1-43cb-84d2-80e4439db4b1","ios":"levelo://app?vid=29cd1976-89d1-43cb-84d2-80e4439db4b1"},"vehicle_type_id":"4","last_reported":1727698692,"current_range_meters":39200,"station_id":"ce4bgl92rcd13ifvqbq0","pricing_plan_id":"cebpf4jnsgd1na2vs0mg"},{"bike_id":"8642a6ab-ca1b-4748-aad4-e0879f8a1734","system_id":"levelo_inurba_marseille","lat":43.24065,"lon":5.3776,"is_reserved":false,"is_disabled":false,"rental_uris":{"android":"levelo://app?vid=8642a6ab-ca1b-4748-aad4-e0879f8a1734","ios":"levelo://app?vid=8642a6ab-ca1b-4748-aad4-e0879f8a1734"},"vehicle_type_id":"4","last_reported":1727698692,"current_range_meters":38000,"station_id":"ce4bhnp2rcd13ifvqgvg","pricing_plan_id":"cebpf4jnsgd1na2vs0mg"},{"bike_id":"6f120d20-cd20-49eb-b6f7-e460b1921912","system_id":"levelo_inurba_marseille","lat":43.26787,"lon":5.3942,"is_reserved":false,"is_disabled":false,"rental_uris":{"android":"levelo://app?vid=6f120d20-cd20-49eb-b6f7-e460b1921912","ios":"levelo://app?vid=6f120d20-cd20-49eb-b6f7-e460b1921912"},"vehicle_type_id":"4","last_reported":1727698692,"current_range_meters":30800,"station_id":"ce4bhh12rcd13ifvqfg0","pricing_plan_id":"cebpf4jnsgd1na2vs0mg"},{"bike_id":"5d569071-0c14-49cc-9190-57ebb30210b2","system_id":"levelo_inurba_marseille","lat":43.27995,"lon":5.40033,"is_reserved":false,"is_disabled":false,"rental_uris":{"android":"levelo://app?vid=5d569071-0c14-49cc-9190-57ebb30210b2","ios":"levelo://app?vid=5d569071-0c14-49cc-9190-57ebb30210b2"},"vehicle_type_id":"4","last_reported":1727698692,"current_range_meters":12000,"station_id":"ce4bho92rcd13ifvqh4g","pricing_plan_id":"cebpf4jnsgd1na2vs0mg"},{"bike_id":"995aa1ff-2139-4621-9eea-9356c2016c29","system_id":"levelo_inurba_marseille","lat":43.27488,"lon":5.42453,"is_reserved":false,"is_disabled":false,"rental_uris":{"android":"levelo://app?vid=995aa1ff-2139-4621-9eea-9356c2016c29","ios":"levelo://app?vid=995aa1ff-2139-4621-9eea-9356c2016c29"},"vehicle_type_id":"4","last_reported":1727698692,"current_range_meters":14800,"station_id":"ce4bhn92rcd13ifvqgrg","pricing_plan_id":"cebpf4jnsgd1na2vs0mg"},{"bike_id":"bd86acbb-18ff-4457-8d99-e11793cb14a0","system_id":"levelo_inurba_marseille","lat":43.27082,"lon":5.42275,"is_reserved":false,"is_disabled":false,"rental_uris":{"android":"levelo://app?vid=bd86acbb-18ff-4457-8d99-e11793cb14a0","ios":"levelo://app?vid=bd86acbb-18ff-4457-8d99-e11793cb14a0"},"vehicle_type_id":"4","last_reported":1727698692,"current_range_meters":31200,"station_id":"ce4bhk92rcd13ifvqgb0","pricing_plan_id":"cebpf4jnsgd1na2vs0mg"},{"bike_id":"53b8b279-3e36-4185-b3b0-4688e1a414fb","system_id":"levelo_inurba_marseille","lat":43.28424,"lon":5.35,"is_reserved":false,"is_disabled":false,"rental_uris":{"android":"levelo://app?vid=53b8b279-3e36-4185-b3b0-4688e1a414fb","ios":"levelo://app?vid=53b8b279-3e36-4185-b3b0-4688e1a414fb"},"vehicle_type_id":"4","last_reported":1727698692,"current_range_meters":36400,"station_id":"ce4bhbh2rcd13ifvqepg","pricing_plan_id":"cebpf4jnsgd1na2vs0mg"},{"bike_id":"8d9d197c-59bf-4daf-9e78-32671be06413","system_id":"levelo_inurba_marseille","lat":43.27495,"lon":5.42454,"is_reserved":false,"is_disabled":false,"rental_uris":{"android":"levelo://app?vid=8d9d197c-59bf-4daf-9e78-32671be06413","ios":"levelo://app?vid=8d9d197c-59bf-4daf-9e78-32671be06413"},"vehicle_type_id":"4","last_reported":1727698692,"current_range_meters":8000,"station_id":"ce4bhn92rcd13ifvqgrg","pricing_plan_id":"cebpf4jnsgd1na2vs0mg"},{"bike_id":"3ea05e8b-dcf6-4f60-a396-3d9a74f783ed","system_id":"levelo_inurba_marseille","lat":43.2315,"lon":5.43715,"is_reserved":false,"is_disabled":false,"rental_uris":{"android":"levelo://app?vid=3ea05e8b-dcf6-4f60-a396-3d9a74f783ed","ios":"levelo://app?vid=3ea05e8b-dcf6-4f60-a396-3d9a74f783ed"},"vehicle_type_id":"4","last_reported":1727698692,"current_range_meters":24400,"station_id":"ce4bhmp2rcd13ifvqgog","pricing_plan_id":"cebpf4jnsgd1na2vs0mg"},{"bike_id":"7ebef0d5-ad33-4431-ac87-a11795f91fb2","system_id":"levelo_inurba_marseille","lat":43.31757,"lon":5.39014,"is_reserved":false,"is_disabled":false,"rental_uris":{"android":"levelo://app?vid=7ebef0d5-ad33-4431-ac87-a11795f91fb2","ios":"levelo://app?vid=7ebef0d5-ad33-4431-ac87-a11795f91fb2"},"vehicle_type_id":"4","last_reported":1727698692,"current_range_meters":18000,"station_id":"ce4bhqp2rcd13ifvqhng","pricing_plan_id":"cebpf4jnsgd1na2vs0mg"},{"bike_id":"ff4ab032-b736-4dcb-aaae-7074ae538479","system_id":"levelo_inurba_marseille","lat":43.3054,"lon":5.36709,"is_reserved":false,"is_disabled":false,"rental_uris":{"android":"levelo://app?vid=ff4ab032-b736-4dcb-aaae-7074ae538479","ios":"levelo://app?vid=ff4ab032-b736-4dcb-aaae-7074ae538479"},"vehicle_type_id":"4","last_reported":1727698692,"current_range_meters":15200,"station_id":"ce4bgrp2rcd13ifvqc9g","pricing_plan_id":"cebpf4jnsgd1na2vs0mg"},{"bike_id":"be986557-1383-4bcd-adf6-c4eed6cc372c","system_id":"levelo_inurba_marseille","lat":43.26946,"lon":5.38648,"is_reserved":false,"is_disabled":false,"rental_uris":{"android":"levelo://app?vid=be986557-1383-4bcd-adf6-c4eed6cc372c","ios":"levelo://app?vid=be986557-1383-4bcd-adf6-c4eed6cc372c"},"vehicle_type_id":"4","last_reported":1727698692,"current_range_meters":32000,"station_id":"ce4bhh92rcd13ifvqfh0","pricing_plan_id":"cebpf4jnsgd1na2vs0mg"},{"bike_id":"0fee37a2-78c9-46bd-9b7b-4f9c5c7cf259","system_id":"levelo_inurba_marseille","lat":43.28479,"lon":5.38415,"is_reserved":false,"is_disabled":false,"rental_uris":{"android":"levelo://app?vid=0fee37a2-78c9-46bd-9b7b-4f9c5c7cf259","ios":"levelo://app?vid=0fee37a2-78c9-46bd-9b7b-4f9c5c7cf259"},"vehicle_type_id":"4","last_reported":1727698692,"current_range_meters":14000,"station_id":"ce4bh512rcd13ifvqe3g","pricing_plan_id":"cebpf4jnsgd1na2vs0mg"},{"bike_id":"b5ec9262-49bc-4223-95ae-f05faa8a9fe6","system_id":"levelo_inurba_marseille","lat":43.28153,"lon":5.36821,"is_reserved":false,"is_disabled":false,"rental_uris":{"android":"levelo://app?vid=b5ec9262-49bc-4223-95ae-f05faa8a9fe6","ios":"levelo://app?vid=b5ec9262-49bc-4223-95ae-f05faa8a9fe6"},"vehicle_type_id":"4","last_reported":1727698692,"current_range_meters":6800,"station_id":"","pricing_plan_id":"cebpf4jnsgd1na2vs0mg"},{"bike_id":"205f72a9-49aa-4a30-962f-ae859e4b271b","system_id":"levelo_inurba_marseille","lat":43.265015,"lon":5.395357,"is_reserved":false,"is_disabled":false,"rental_uris":{"android":"levelo://app?vid=205f72a9-49aa-4a30-962f-ae859e4b271b","ios":"levelo://app?vid=205f72a9-49aa-4a30-962f-ae859e4b271b"},"vehicle_type_id":"4","last_reported":1727698692,"current_range_meters":12400,"station_id":"ce4bhgp2rcd13ifvqfd0","pricing_plan_id":"cebpf4jnsgd1na2vs0mg"},{"bike_id":"133fb6b7-5e38-4c3d-aafc-569467201556","system_id":"levelo_inurba_marseille","lat":43.23145,"lon":5.43714,"is_reserved":false,"is_disabled":false,"rental_uris":{"android":"levelo://app?vid=133fb6b7-5e38-4c3d-aafc-569467201556","ios":"levelo://app?vid=133fb6b7-5e38-4c3d-aafc-569467201556"},"vehicle_type_id":"4","last_reported":1727698692,"current_range_meters":17200,"station_id":"ce4bhmp2rcd13ifvqgog","pricing_plan_id":"cebpf4jnsgd1na2vs0mg"},{"bike_id":"5890614c-8f6e-468c-b760-f9855cffa13b","system_id":"levelo_inurba_marseille","lat":43.24084,"lon":5.37748,"is_reserved":false,"is_disabled":false,"rental_uris":{"android":"levelo://app?vid=5890614c-8f6e-468c-b760-f9855cffa13b","ios":"levelo://app?vid=5890614c-8f6e-468c-b760-f9855cffa13b"},"vehicle_type_id":"4","last_reported":1727698692,"current_range_meters":19600,"station_id":"ce4bhnp2rcd13ifvqgvg","pricing_plan_id":"cebpf4jnsgd1na2vs0mg"},{"bike_id":"b78633e4-9f07-4ccc-8cee-fac0ab743730","system_id":"levelo_inurba_marseille","lat":43.30886,"lon":5.39649,"is_reserved":false,"is_disabled":false,"rental_uris":{"android":"levelo://app?vid=b78633e4-9f07-4ccc-8cee-fac0ab743730","ios":"levelo://app?vid=b78633e4-9f07-4ccc-8cee-fac0ab743730"},"vehicle_type_id":"4","last_reported":1727698692,"current_range_meters":38800,"station_id":"ce4bh012rcd13ifvqcv0","pricing_plan_id":"cebpf4jnsgd1na2vs0mg"},{"bike_id":"e20f59d4-4a2f-45f5-8f55-b006519a7083","system_id":"levelo_inurba_marseille","lat":43.23968,"lon":5.36622,"is_reserved":false,"is_disabled":false,"rental_uris":{"android":"levelo://app?vid=e20f59d4-4a2f-45f5-8f55-b006519a7083","ios":"levelo://app?vid=e20f59d4-4a2f-45f5-8f55-b006519a7083"},"vehicle_type_id":"4","last_reported":1727698692,"current_range_meters":28800,"station_id":"ce4bhi12rcd13ifvqfp0","pricing_plan_id":"cebpf4jnsgd1na2vs0mg"},{"bike_id":"f3f00dbf-323a-42a8-ace3-4a4195aa797c","system_id":"levelo_inurba_marseille","lat":43.27903,"lon":5.38006,"is_reserved":false,"is_disabled":false,"rental_uris":{"android":"levelo://app?vid=f3f00dbf-323a-42a8-ace3-4a4195aa797c","ios":"levelo://app?vid=f3f00dbf-323a-42a8-ace3-4a4195aa797c"},"vehicle_type_id":"4","last_reported":1727698692,"current_range_meters":25600,"station_id":"ce4bhf92rcd13ifvqf50","pricing_plan_id":"cebpf4jnsgd1na2vs0mg"},{"bike_id":"a5ad6562-88eb-421b-a152-64a49b224269","system_id":"levelo_inurba_marseille","lat":43.31345,"lon":5.36718,"is_reserved":false,"is_disabled":false,"rental_uris":{"android":"levelo://app?vid=a5ad6562-88eb-421b-a152-64a49b224269","ios":"levelo://app?vid=a5ad6562-88eb-421b-a152-64a49b224269"},"vehicle_type_id":"4","last_reported":1727698692,"current_range_meters":32000,"station_id":"ce4bgr92rcd13ifvqc6g","pricing_plan_id":"cebpf4jnsgd1na2vs0mg"},{"bike_id":"82938b1a-17d9-415a-a06e-2bc87d35d274","system_id":"levelo_inurba_marseille","lat":43.23152,"lon":5.43706,"is_reserved":false,"is_disabled":false,"rental_uris":{"android":"levelo://app?vid=82938b1a-17d9-415a-a06e-2bc87d35d274","ios":"levelo://app?vid=82938b1a-17d9-415a-a06e-2bc87d35d274"},"vehicle_type_id":"4","last_reported":1727698692,"current_range_meters":27600,"station_id":"ce4bhmp2rcd13ifvqgog","pricing_plan_id":"cebpf4jnsgd1na2vs0mg"},{"bike_id":"7bd89c2a-5cd9-49ed-83ed-dd2d91ea9a0e","system_id":"levelo_inurba_marseille","lat":43.31212,"lon":5.3686,"is_reserved":false,"is_disabled":false,"rental_uris":{"android":"levelo://app?vid=7bd89c2a-5cd9-49ed-83ed-dd2d91ea9a0e","ios":"levelo://app?vid=7bd89c2a-5cd9-49ed-83ed-dd2d91ea9a0e"},"vehicle_type_id":"4","last_reported":1727698692,"current_range_meters":39200,"station_id":"ce4bgl92rcd13ifvqbq0","pricing_plan_id":"cebpf4jnsgd1na2vs0mg"},{"bike_id":"fce1d7f5-5c96-4913-8c00-9ee4526fccbd","system_id":"levelo_inurba_marseille","lat":43.30128,"lon":5.3878,"is_reserved":false,"is_disabled":false,"rental_uris":{"android":"levelo://app?vid=fce1d7f5-5c96-4913-8c00-9ee4526fccbd","ios":"levelo://app?vid=fce1d7f5-5c96-4913-8c00-9ee4526fccbd"},"vehicle_type_id":"4","last_reported":1727698692,"current_range_meters":38800,"station_id":"ce4bghh2rcd13ifvqb60","pricing_plan_id":"cebpf4jnsgd1na2vs0mg"},{"bike_id":"e254f4aa-e734-49b4-b53e-66b568232443","system_id":"levelo_inurba_marseille","lat":43.29902,"lon":5.43662,"is_reserved":false,"is_disabled":false,"rental_uris":{"android":"levelo://app?vid=e254f4aa-e734-49b4-b53e-66b568232443","ios":"levelo://app?vid=e254f4aa-e734-49b4-b53e-66b568232443"},"vehicle_type_id":"4","last_reported":1727698692,"current_range_meters":19600,"station_id":"ce4bhpp2rcd13ifvqhfg","pricing_plan_id":"cebpf4jnsgd1na2vs0mg"},{"bike_id":"37fedf9a-76e1-453f-8da7-1305a98b3e9b","system_id":"levelo_inurba_marseille","lat":43.30898,"lon":5.36863,"is_reserved":false,"is_disabled":false,"rental_uris":{"android":"levelo://app?vid=37fedf9a-76e1-453f-8da7-1305a98b3e9b","ios":"levelo://app?vid=37fedf9a-76e1-453f-8da7-1305a98b3e9b"},"vehicle_type_id":"4","last_reported":1727698692,"current_range_meters":25600,"station_id":"ce4bgn92rcd13ifvqbvg","pricing_plan_id":"cebpf4jnsgd1na2vs0mg"},{"bike_id":"20945a55-1cab-447d-931e-6c27c629010d","system_id":"levelo_inurba_marseille","lat":43.30154,"lon":5.38078,"is_reserved":false,"is_disabled":false,"rental_uris":{"android":"levelo://app?vid=20945a55-1cab-447d-931e-6c27c629010d","ios":"levelo://app?vid=20945a55-1cab-447d-931e-6c27c629010d"},"vehicle_type_id":"4","last_reported":1727698692,"current_range_meters":32400,"station_id":"ce4bgjp2rcd13ifvqbh0","pricing_plan_id":"cebpf4jnsgd1na2vs0mg"},{"bike_id":"ac2405f9-17a7-48ab-9146-288f5a259d12","system_id":"levelo_inurba_marseille","lat":43.27968,"lon":5.38719,"is_reserved":false,"is_disabled":false,"rental_uris":{"android":"levelo://app?vid=ac2405f9-17a7-48ab-9146-288f5a259d12","ios":"levelo://app?vid=ac2405f9-17a7-48ab-9146-288f5a259d12"},"vehicle_type_id":"4","last_reported":1727698692,"current_range_meters":32000,"station_id":"ce4bhg12rcd13ifvqf80","pricing_plan_id":"cebpf4jnsgd1na2vs0mg"},{"bike_id":"cae21632-1c2b-45c9-9ec0-d14e73170a2e","system_id":"levelo_inurba_marseille","lat":43.30795,"lon":5.38149,"is_reserved":false,"is_disabled":false,"rental_uris":{"android":"levelo://app?vid=cae21632-1c2b-45c9-9ec0-d14e73170a2e","ios":"levelo://app?vid=cae21632-1c2b-45c9-9ec0-d14e73170a2e"},"vehicle_type_id":"4","last_reported":1727698692,"current_range_meters":38800,"station_id":"ce4bgt12rcd13ifvqce0","pricing_plan_id":"cebpf4jnsgd1na2vs0mg"},{"bike_id":"137d478a-69d8-4b77-ad5f-e7af690c0925","system_id":"levelo_inurba_marseille","lat":43.24082,"lon":5.37744,"is_reserved":false,"is_disabled":false,"rental_uris":{"android":"levelo://app?vid=137d478a-69d8-4b77-ad5f-e7af690c0925","ios":"levelo://app?vid=137d478a-69d8-4b77-ad5f-e7af690c0925"},"vehicle_type_id":"4","last_reported":1727698692,"current_range_meters":8000,"station_id":"ce4bhnp2rcd13ifvqgvg","pricing_plan_id":"cebpf4jnsgd1na2vs0mg"},{"bike_id":"318262dc-85f7-4629-9884-6167fafac465","system_id":"levelo_inurba_marseille","lat":43.23155,"lon":5.43699,"is_reserved":false,"is_disabled":false,"rental_uris":{"android":"levelo://app?vid=318262dc-85f7-4629-9884-6167fafac465","ios":"levelo://app?vid=318262dc-85f7-4629-9884-6167fafac465"},"vehicle_type_id":"4","last_reported":1727698692,"current_range_meters":36400,"station_id":"ce4bhmp2rcd13ifvqgog","pricing_plan_id":"cebpf4jnsgd1na2vs0mg"},{"bike_id":"4c074567-e49b-4723-a78c-ce8798f65327","system_id":"levelo_inurba_marseille","lat":43.33753,"lon":5.37446,"is_reserved":false,"is_disabled":false,"rental_uris":{"android":"levelo://app?vid=4c074567-e49b-4723-a78c-ce8798f65327","ios":"levelo://app?vid=4c074567-e49b-4723-a78c-ce8798f65327"},"vehicle_type_id":"4","last_reported":1727698692,"current_range_meters":38000,"station_id":"","pricing_plan_id":"cebpf4jnsgd1na2vs0mg"},{"bike_id":"7977a9c9-5512-4fa7-9026-3e7c33952b44","system_id":"levelo_inurba_marseille","lat":43.26707,"lon":5.40138,"is_reserved":false,"is_disabled":false,"rental_uris":{"android":"levelo://app?vid=7977a9c9-5512-4fa7-9026-3e7c33952b44","ios":"levelo://app?vid=7977a9c9-5512-4fa7-9026-3e7c33952b44"},"vehicle_type_id":"4","last_reported":1727698692,"current_range_meters":18800,"station_id":"ce4bhm92rcd13ifvqglg","pricing_plan_id":"cebpf4jnsgd1na2vs0mg"},{"bike_id":"4aafa0b0-8e0b-4fb6-99d0-aa86985e66f8","system_id":"levelo_inurba_marseille","lat":43.24076,"lon":5.3776,"is_reserved":false,"is_disabled":false,"rental_uris":{"android":"levelo://app?vid=4aafa0b0-8e0b-4fb6-99d0-aa86985e66f8","ios":"levelo://app?vid=4aafa0b0-8e0b-4fb6-99d0-aa86985e66f8"},"vehicle_type_id":"4","last_reported":1727698692,"current_range_meters":17600,"station_id":"ce4bhnp2rcd13ifvqgvg","pricing_plan_id":"cebpf4jnsgd1na2vs0mg"},{"bike_id":"927f89eb-ec9f-463d-89aa-08f3b60c72f8","system_id":"levelo_inurba_marseille","lat":43.30454,"lon":5.37911,"is_reserved":false,"is_disabled":false,"rental_uris":{"android":"levelo://app?vid=927f89eb-ec9f-463d-89aa-08f3b60c72f8","ios":"levelo://app?vid=927f89eb-ec9f-463d-89aa-08f3b60c72f8"},"vehicle_type_id":"4","last_reported":1727698692,"current_range_meters":18800,"station_id":"ce4bgup2rcd13ifvqcn0","pricing_plan_id":"cebpf4jnsgd1na2vs0mg"},{"bike_id":"01249a06-5553-4c7a-b7b9-c3d34c4c73e4","system_id":"levelo_inurba_marseille","lat":43.25108,"lon":5.40324,"is_reserved":false,"is_disabled":false,"rental_uris":{"android":"levelo://app?vid=01249a06-5553-4c7a-b7b9-c3d34c4c73e4","ios":"levelo://app?vid=01249a06-5553-4c7a-b7b9-c3d34c4c73e4"},"vehicle_type_id":"4","last_reported":1727698692,"current_range_meters":28000,"station_id":"ce4bhlh2rcd13ifvqgig","pricing_plan_id":"cebpf4jnsgd1na2vs0mg"},{"bike_id":"6dfa70f1-708a-4405-90ab-7f6e750e4545","system_id":"levelo_inurba_marseille","lat":43.2988,"lon":5.39733,"is_reserved":false,"is_disabled":false,"rental_uris":{"android":"levelo://app?vid=6dfa70f1-708a-4405-90ab-7f6e750e4545","ios":"levelo://app?vid=6dfa70f1-708a-4405-90ab-7f6e750e4545"},"vehicle_type_id":"4","last_reported":1727698692,"current_range_meters":9600,"station_id":"ce4bh0h2rcd13ifvqd50","pricing_plan_id":"cebpf4jnsgd1na2vs0mg"},{"bike_id":"908021a4-c1b6-4d63-8e7a-87eb8947eb54","system_id":"levelo_inurba_marseille","lat":43.24083,"lon":5.37749,"is_reserved":false,"is_disabled":false,"rental_uris":{"android":"levelo://app?vid=908021a4-c1b6-4d63-8e7a-87eb8947eb54","ios":"levelo://app?vid=908021a4-c1b6-4d63-8e7a-87eb8947eb54"},"vehicle_type_id":"4","last_reported":1727698692,"current_range_meters":4800,"station_id":"ce4bhnp2rcd13ifvqgvg","pricing_plan_id":"cebpf4jnsgd1na2vs0mg"},{"bike_id":"198c6525-69f6-4d89-bcbd-1175e992d462","system_id":"levelo_inurba_marseille","lat":43.33759,"lon":5.3745,"is_reserved":false,"is_disabled":false,"rental_uris":{"android":"levelo://app?vid=198c6525-69f6-4d89-bcbd-1175e992d462","ios":"levelo://app?vid=198c6525-69f6-4d89-bcbd-1175e992d462"},"vehicle_type_id":"4","last_reported":1727698692,"current_range_meters":37600,"station_id":"","pricing_plan_id":"cebpf4jnsgd1na2vs0mg"},{"bike_id":"605d2914-d3c6-4ce1-bf72-419b15445aef","system_id":"levelo_inurba_marseille","lat":43.30888,"lon":5.37199,"is_reserved":false,"is_disabled":false,"rental_uris":{"android":"levelo://app?vid=605d2914-d3c6-4ce1-bf72-419b15445aef","ios":"levelo://app?vid=605d2914-d3c6-4ce1-bf72-419b15445aef"},"vehicle_type_id":"4","last_reported":1727698692,"current_range_meters":32000,"station_id":"ce4bguh2rcd13ifvqckg","pricing_plan_id":"cebpf4jnsgd1na2vs0mg"},{"bike_id":"0079a2ab-35ac-44a9-a3fb-2b221435dedf","system_id":"levelo_inurba_marseille","lat":43.2407,"lon":5.37762,"is_reserved":false,"is_disabled":false,"rental_uris":{"android":"levelo://app?vid=0079a2ab-35ac-44a9-a3fb-2b221435dedf","ios":"levelo://app?vid=0079a2ab-35ac-44a9-a3fb-2b221435dedf"},"vehicle_type_id":"4","last_reported":1727698692,"current_range_meters":17600,"station_id":"ce4bhnp2rcd13ifvqgvg","pricing_plan_id":"cebpf4jnsgd1na2vs0mg"},{"bike_id":"cb5786dd-5f7d-4f36-889b-fd027391aadd","system_id":"levelo_inurba_marseille","lat":43.32047,"lon":5.41566,"is_reserved":false,"is_disabled":false,"rental_uris":{"android":"levelo://app?vid=cb5786dd-5f7d-4f36-889b-fd027391aadd","ios":"levelo://app?vid=cb5786dd-5f7d-4f36-889b-fd027391aadd"},"vehicle_type_id":"4","last_reported":1727698692,"current_range_meters":22800,"station_id":"ce4bhq92rcd13ifvqhkg","pricing_plan_id":"cebpf4jnsgd1na2vs0mg"},{"bike_id":"2a4f744d-4171-42a9-b0cb-dfb324aae8c3","system_id":"levelo_inurba_marseille","lat":43.23148,"lon":5.43725,"is_reserved":false,"is_disabled":false,"rental_uris":{"android":"levelo://app?vid=2a4f744d-4171-42a9-b0cb-dfb324aae8c3","ios":"levelo://app?vid=2a4f744d-4171-42a9-b0cb-dfb324aae8c3"},"vehicle_type_id":"4","last_reported":1727698692,"current_range_meters":25600,"station_id":"ce4bhmp2rcd13ifvqgog","pricing_plan_id":"cebpf4jnsgd1na2vs0mg"},{"bike_id":"863e0f56-c542-4857-8c4c-05ef4d4aee03","system_id":"levelo_inurba_marseille","lat":43.26559,"lon":5.37287,"is_reserved":false,"is_disabled":false,"rental_uris":{"android":"levelo://app?vid=863e0f56-c542-4857-8c4c-05ef4d4aee03","ios":"levelo://app?vid=863e0f56-c542-4857-8c4c-05ef4d4aee03"},"vehicle_type_id":"4","last_reported":1727698692,"current_range_meters":36800,"station_id":"ce4bhg12rcd13ifvqf70","pricing_plan_id":"cebpf4jnsgd1na2vs0mg"},{"bike_id":"e87a1725-8344-4e98-bd8e-0e9915d5fdea","system_id":"levelo_inurba_marseille","lat":43.24072,"lon":5.37761,"is_reserved":false,"is_disabled":false,"rental_uris":{"android":"levelo://app?vid=e87a1725-8344-4e98-bd8e-0e9915d5fdea","ios":"levelo://app?vid=e87a1725-8344-4e98-bd8e-0e9915d5fdea"},"vehicle_type_id":"4","last_reported":1727698692,"current_range_meters":31200,"station_id":"ce4bhnp2rcd13ifvqgvg","pricing_plan_id":"cebpf4jnsgd1na2vs0mg"},{"bike_id":"5f5feaf6-953c-4ab3-b1b9-502fc5ee8b0f","system_id":"levelo_inurba_marseille","lat":43.23194,"lon":5.35556,"is_reserved":false,"is_disabled":false,"rental_uris":{"android":"levelo://app?vid=5f5feaf6-953c-4ab3-b1b9-502fc5ee8b0f","ios":"levelo://app?vid=5f5feaf6-953c-4ab3-b1b9-502fc5ee8b0f"},"vehicle_type_id":"4","last_reported":1727698692,"current_range_meters":19200,"station_id":"ce4bhu92rcd13ifvqi70","pricing_plan_id":"cebpf4jnsgd1na2vs0mg"},{"bike_id":"3ccef2c3-34ca-4350-8733-bdef0b66f68d","system_id":"levelo_inurba_marseille","lat":43.26685,"lon":5.38274,"is_reserved":false,"is_disabled":false,"rental_uris":{"android":"levelo://app?vid=3ccef2c3-34ca-4350-8733-bdef0b66f68d","ios":"levelo://app?vid=3ccef2c3-34ca-4350-8733-bdef0b66f68d"},"vehicle_type_id":"4","last_reported":1727698692,"current_range_meters":34000,"station_id":"ce4bhg92rcd13ifvqf90","pricing_plan_id":"cebpf4jnsgd1na2vs0mg"},{"bike_id":"757306db-bc8b-4147-85a6-62da2b338c0f","system_id":"levelo_inurba_marseille","lat":43.25725,"lon":5.41111,"is_reserved":false,"is_disabled":false,"rental_uris":{"android":"levelo://app?vid=757306db-bc8b-4147-85a6-62da2b338c0f","ios":"levelo://app?vid=757306db-bc8b-4147-85a6-62da2b338c0f"},"vehicle_type_id":"4","last_reported":1727698692,"current_range_meters":24400,"station_id":"ce4bhkp2rcd13ifvqgd0","pricing_plan_id":"cebpf4jnsgd1na2vs0mg"},{"bike_id":"7b3013a1-964c-40e5-872d-644b2c85569a","system_id":"levelo_inurba_marseille","lat":43.27821,"lon":5.40723,"is_reserved":false,"is_disabled":false,"rental_uris":{"android":"levelo://app?vid=7b3013a1-964c-40e5-872d-644b2c85569a","ios":"levelo://app?vid=7b3013a1-964c-40e5-872d-644b2c85569a"},"vehicle_type_id":"4","last_reported":1727698692,"current_range_meters":36800,"station_id":"ce4bhnh2rcd13ifvqgtg","pricing_plan_id":"cebpf4jnsgd1na2vs0mg"},{"bike_id":"917e5486-e110-4358-a075-527001b4be1e","system_id":"levelo_inurba_marseille","lat":43.25582,"lon":5.38227,"is_reserved":false,"is_disabled":false,"rental_uris":{"android":"levelo://app?vid=917e5486-e110-4358-a075-527001b4be1e","ios":"levelo://app?vid=917e5486-e110-4358-a075-527001b4be1e"},"vehicle_type_id":"4","last_reported":1727698692,"current_range_meters":18000,"station_id":"ce4bhih2rcd13ifvqfs0","pricing_plan_id":"cebpf4jnsgd1na2vs0mg"},{"bike_id":"cf33b555-cac1-43f8-89f7-e84b64897cfd","system_id":"levelo_inurba_marseille","lat":43.28381,"lon":5.3729,"is_reserved":false,"is_disabled":false,"rental_uris":{"android":"levelo://app?vid=cf33b555-cac1-43f8-89f7-e84b64897cfd","ios":"levelo://app?vid=cf33b555-cac1-43f8-89f7-e84b64897cfd"},"vehicle_type_id":"4","last_reported":1727698692,"current_range_meters":4800,"station_id":"","pricing_plan_id":"cebpf4jnsgd1na2vs0mg"},{"bike_id":"764b9528-a210-4e61-a10e-5b5385d20bf2","system_id":"levelo_inurba_marseille","lat":43.30951,"lon":5.39032,"is_reserved":false,"is_disabled":false,"rental_uris":{"android":"levelo://app?vid=764b9528-a210-4e61-a10e-5b5385d20bf2","ios":"levelo://app?vid=764b9528-a210-4e61-a10e-5b5385d20bf2"},"vehicle_type_id":"4","last_reported":1727698692,"current_range_meters":34800,"station_id":"ce4bgup2rcd13ifvqco0","pricing_plan_id":"cebpf4jnsgd1na2vs0mg"},{"bike_id":"9f21f75a-c83d-4499-90a7-3687dad6c2d5","system_id":"levelo_inurba_marseille","lat":43.2439,"lon":5.37056,"is_reserved":false,"is_disabled":false,"rental_uris":{"android":"levelo://app?vid=9f21f75a-c83d-4499-90a7-3687dad6c2d5","ios":"levelo://app?vid=9f21f75a-c83d-4499-90a7-3687dad6c2d5"},"vehicle_type_id":"4","last_reported":1727698692,"current_range_meters":2800,"station_id":"ce4bhhh2rcd13ifvqfk0","pricing_plan_id":"cebpf4jnsgd1na2vs0mg"},{"bike_id":"775b821b-1e28-4064-a50b-b93c8b7ffd3b","system_id":"levelo_inurba_marseille","lat":43.24087,"lon":5.37746,"is_reserved":false,"is_disabled":false,"rental_uris":{"android":"levelo://app?vid=775b821b-1e28-4064-a50b-b93c8b7ffd3b","ios":"levelo://app?vid=775b821b-1e28-4064-a50b-b93c8b7ffd3b"},"vehicle_type_id":"4","last_reported":1727698692,"current_range_meters":38800,"station_id":"ce4bhnp2rcd13ifvqgvg","pricing_plan_id":"cebpf4jnsgd1na2vs0mg"},{"bike_id":"4a423705-6c3e-4b14-9d3c-3d66995ef40c","system_id":"levelo_inurba_marseille","lat":43.28342,"lon":5.38114,"is_reserved":false,"is_disabled":false,"rental_uris":{"android":"levelo://app?vid=4a423705-6c3e-4b14-9d3c-3d66995ef40c","ios":"levelo://app?vid=4a423705-6c3e-4b14-9d3c-3d66995ef40c"},"vehicle_type_id":"4","last_reported":1727698692,"current_range_meters":9200,"station_id":"ce4bh412rcd13ifvqdr0","pricing_plan_id":"cebpf4jnsgd1na2vs0mg"},{"bike_id":"57ef25ef-c4c8-49fc-9cb9-dcf163f81726","system_id":"levelo_inurba_marseille","lat":43.31756,"lon":5.3902,"is_reserved":false,"is_disabled":false,"rental_uris":{"android":"levelo://app?vid=57ef25ef-c4c8-49fc-9cb9-dcf163f81726","ios":"levelo://app?vid=57ef25ef-c4c8-49fc-9cb9-dcf163f81726"},"vehicle_type_id":"4","last_reported":1727698692,"current_range_meters":38800,"station_id":"ce4bhqp2rcd13ifvqhng","pricing_plan_id":"cebpf4jnsgd1na2vs0mg"},{"bike_id":"fccbf3e6-5544-49b0-9b2e-1ac91a97c9f4","system_id":"levelo_inurba_marseille","lat":43.30549,"lon":5.36553,"is_reserved":false,"is_disabled":false,"rental_uris":{"android":"levelo://app?vid=fccbf3e6-5544-49b0-9b2e-1ac91a97c9f4","ios":"levelo://app?vid=fccbf3e6-5544-49b0-9b2e-1ac91a97c9f4"},"vehicle_type_id":"4","last_reported":1727698692,"current_range_meters":32800,"station_id":"ce4bgs12rcd13ifvqcag","pricing_plan_id":"cebpf4jnsgd1na2vs0mg"},{"bike_id":"f41e6ac7-d39b-432c-a205-b5e52984b1b4","system_id":"levelo_inurba_marseille","lat":43.33027,"lon":5.39371,"is_reserved":false,"is_disabled":false,"rental_uris":{"android":"levelo://app?vid=f41e6ac7-d39b-432c-a205-b5e52984b1b4","ios":"levelo://app?vid=f41e6ac7-d39b-432c-a205-b5e52984b1b4"},"vehicle_type_id":"4","last_reported":1727698692,"current_range_meters":36400,"station_id":"","pricing_plan_id":"cebpf4jnsgd1na2vs0mg"},{"bike_id":"bd4818fc-c3a3-49ae-88f0-5543b2bac4d1","system_id":"levelo_inurba_marseille","lat":43.2396,"lon":5.36633,"is_reserved":false,"is_disabled":false,"rental_uris":{"android":"levelo://app?vid=bd4818fc-c3a3-49ae-88f0-5543b2bac4d1","ios":"levelo://app?vid=bd4818fc-c3a3-49ae-88f0-5543b2bac4d1"},"vehicle_type_id":"4","last_reported":1727698692,"current_range_meters":39200,"station_id":"ce4bhi12rcd13ifvqfp0","pricing_plan_id":"cebpf4jnsgd1na2vs0mg"},{"bike_id":"1cc1c045-5937-4158-a672-110e45b76c94","system_id":"levelo_inurba_marseille","lat":43.29071,"lon":5.37166,"is_reserved":false,"is_disabled":false,"rental_uris":{"android":"levelo://app?vid=1cc1c045-5937-4158-a672-110e45b76c94","ios":"levelo://app?vid=1cc1c045-5937-4158-a672-110e45b76c94"},"vehicle_type_id":"4","last_reported":1727698692,"current_range_meters":9200,"station_id":"ce4bh5p2rcd13ifvqe4g","pricing_plan_id":"cebpf4jnsgd1na2vs0mg"},{"bike_id":"269ac999-dad6-460a-aa43-d5c4c71dd1a3","system_id":"levelo_inurba_marseille","lat":43.23139,"lon":5.43716,"is_reserved":false,"is_disabled":false,"rental_uris":{"android":"levelo://app?vid=269ac999-dad6-460a-aa43-d5c4c71dd1a3","ios":"levelo://app?vid=269ac999-dad6-460a-aa43-d5c4c71dd1a3"},"vehicle_type_id":"4","last_reported":1727698692,"current_range_meters":16400,"station_id":"ce4bhmp2rcd13ifvqgog","pricing_plan_id":"cebpf4jnsgd1na2vs0mg"},{"bike_id":"e2d96cbd-5057-4d2f-9436-03670229e573","system_id":"levelo_inurba_marseille","lat":43.23153,"lon":5.43711,"is_reserved":false,"is_disabled":false,"rental_uris":{"android":"levelo://app?vid=e2d96cbd-5057-4d2f-9436-03670229e573","ios":"levelo://app?vid=e2d96cbd-5057-4d2f-9436-03670229e573"},"vehicle_type_id":"4","last_reported":1727698692,"current_range_meters":14800,"station_id":"ce4bhmp2rcd13ifvqgog","pricing_plan_id":"cebpf4jnsgd1na2vs0mg"},{"bike_id":"c0e9760f-13d1-4e62-aa6d-242c608bd412","system_id":"levelo_inurba_marseille","lat":43.30178,"lon":5.36616,"is_reserved":false,"is_disabled":false,"rental_uris":{"android":"levelo://app?vid=c0e9760f-13d1-4e62-aa6d-242c608bd412","ios":"levelo://app?vid=c0e9760f-13d1-4e62-aa6d-242c608bd412"},"vehicle_type_id":"4","last_reported":1727698692,"current_range_meters":38800,"station_id":"ce4bgrh2rcd13ifvqc8g","pricing_plan_id":"cebpf4jnsgd1na2vs0mg"},{"bike_id":"a445cba9-b3fc-4860-be71-863a2689d96a","system_id":"levelo_inurba_marseille","lat":43.30215,"lon":5.39475,"is_reserved":false,"is_disabled":false,"rental_uris":{"android":"levelo://app?vid=a445cba9-b3fc-4860-be71-863a2689d96a","ios":"levelo://app?vid=a445cba9-b3fc-4860-be71-863a2689d96a"},"vehicle_type_id":"4","last_reported":1727698692,"current_range_meters":37600,"station_id":"ce4bh0p2rcd13ifvqd70","pricing_plan_id":"cebpf4jnsgd1na2vs0mg"},{"bike_id":"6b8929d5-ad92-409d-a69a-a9e49ae36445","system_id":"levelo_inurba_marseille","lat":43.24168,"lon":5.36395,"is_reserved":false,"is_disabled":false,"rental_uris":{"android":"levelo://app?vid=6b8929d5-ad92-409d-a69a-a9e49ae36445","ios":"levelo://app?vid=6b8929d5-ad92-409d-a69a-a9e49ae36445"},"vehicle_type_id":"4","last_reported":1727698692,"current_range_meters":8400,"station_id":"cpo36qri1sfpv3e86is0","pricing_plan_id":"cebpf4jnsgd1na2vs0mg"},{"bike_id":"d6dfd7d6-6a33-453b-a236-2fc9845dc842","system_id":"levelo_inurba_marseille","lat":43.28,"lon":5.40011,"is_reserved":false,"is_disabled":false,"rental_uris":{"android":"levelo://app?vid=d6dfd7d6-6a33-453b-a236-2fc9845dc842","ios":"levelo://app?vid=d6dfd7d6-6a33-453b-a236-2fc9845dc842"},"vehicle_type_id":"4","last_reported":1727698692,"current_range_meters":38800,"station_id":"ce4bho92rcd13ifvqh4g","pricing_plan_id":"cebpf4jnsgd1na2vs0mg"},{"bike_id":"be3577c7-2a90-4f20-99da-dd64110a8f3f","system_id":"levelo_inurba_marseille","lat":43.24082,"lon":5.37754,"is_reserved":false,"is_disabled":false,"rental_uris":{"android":"levelo://app?vid=be3577c7-2a90-4f20-99da-dd64110a8f3f","ios":"levelo://app?vid=be3577c7-2a90-4f20-99da-dd64110a8f3f"},"vehicle_type_id":"4","last_reported":1727698692,"current_range_meters":14000,"station_id":"ce4bhnp2rcd13ifvqgvg","pricing_plan_id":"cebpf4jnsgd1na2vs0mg"},{"bike_id":"3dc02e90-07ec-4b9c-ae98-f92e543c6339","system_id":"levelo_inurba_marseille","lat":43.32047,"lon":5.41552,"is_reserved":false,"is_disabled":false,"rental_uris":{"android":"levelo://app?vid=3dc02e90-07ec-4b9c-ae98-f92e543c6339","ios":"levelo://app?vid=3dc02e90-07ec-4b9c-ae98-f92e543c6339"},"vehicle_type_id":"4","last_reported":1727698692,"current_range_meters":4000,"station_id":"ce4bhq92rcd13ifvqhkg","pricing_plan_id":"cebpf4jnsgd1na2vs0mg"},{"bike_id":"d1a4e3ee-6415-46fb-989a-8ab06e589b76","system_id":"levelo_inurba_marseille","lat":43.30915,"lon":5.36857,"is_reserved":false,"is_disabled":false,"rental_uris":{"android":"levelo://app?vid=d1a4e3ee-6415-46fb-989a-8ab06e589b76","ios":"levelo://app?vid=d1a4e3ee-6415-46fb-989a-8ab06e589b76"},"vehicle_type_id":"4","last_reported":1727698692,"current_range_meters":39200,"station_id":"ce4bgn92rcd13ifvqbvg","pricing_plan_id":"cebpf4jnsgd1na2vs0mg"},{"bike_id":"85852a52-0af1-40ff-ab30-823b906efd08","system_id":"levelo_inurba_marseille","lat":43.23188,"lon":5.35546,"is_reserved":false,"is_disabled":false,"rental_uris":{"android":"levelo://app?vid=85852a52-0af1-40ff-ab30-823b906efd08","ios":"levelo://app?vid=85852a52-0af1-40ff-ab30-823b906efd08"},"vehicle_type_id":"4","last_reported":1727698692,"current_range_meters":4000,"station_id":"ce4bhu92rcd13ifvqi70","pricing_plan_id":"cebpf4jnsgd1na2vs0mg"},{"bike_id":"368eef9e-723c-4e6b-9adc-0edb8115cf53","system_id":"levelo_inurba_marseille","lat":43.24074,"lon":5.37757,"is_reserved":false,"is_disabled":false,"rental_uris":{"android":"levelo://app?vid=368eef9e-723c-4e6b-9adc-0edb8115cf53","ios":"levelo://app?vid=368eef9e-723c-4e6b-9adc-0edb8115cf53"},"vehicle_type_id":"4","last_reported":1727698692,"current_range_meters":9200,"station_id":"ce4bhnp2rcd13ifvqgvg","pricing_plan_id":"cebpf4jnsgd1na2vs0mg"},{"bike_id":"f71b7f63-17f8-4803-ba81-e0aaab220a33","system_id":"levelo_inurba_marseille","lat":43.30545,"lon":5.36537,"is_reserved":false,"is_disabled":false,"rental_uris":{"android":"levelo://app?vid=f71b7f63-17f8-4803-ba81-e0aaab220a33","ios":"levelo://app?vid=f71b7f63-17f8-4803-ba81-e0aaab220a33"},"vehicle_type_id":"4","last_reported":1727698692,"current_range_meters":40000,"station_id":"ce4bgs12rcd13ifvqcag","pricing_plan_id":"cebpf4jnsgd1na2vs0mg"},{"bike_id":"9bd3559d-075b-45ea-8808-41bdc2102bfa","system_id":"levelo_inurba_marseille","lat":43.29272,"lon":5.36851,"is_reserved":false,"is_disabled":false,"rental_uris":{"android":"levelo://app?vid=9bd3559d-075b-45ea-8808-41bdc2102bfa","ios":"levelo://app?vid=9bd3559d-075b-45ea-8808-41bdc2102bfa"},"vehicle_type_id":"4","last_reported":1727698692,"current_range_meters":38800,"station_id":"ce4bhbp2rcd13ifvqesg","pricing_plan_id":"cebpf4jnsgd1na2vs0mg"},{"bike_id":"0543b8e8-5dd4-4482-bde3-1803715fd434","system_id":"levelo_inurba_marseille","lat":43.3254,"lon":5.4144,"is_reserved":false,"is_disabled":false,"rental_uris":{"android":"levelo://app?vid=0543b8e8-5dd4-4482-bde3-1803715fd434","ios":"levelo://app?vid=0543b8e8-5dd4-4482-bde3-1803715fd434"},"vehicle_type_id":"4","last_reported":1727698692,"current_range_meters":33200,"station_id":"ce4bhq12rcd13ifvqhhg","pricing_plan_id":"cebpf4jnsgd1na2vs0mg"},{"bike_id":"3b3605c4-5280-4461-b1a2-890a0ed544fb","system_id":"levelo_inurba_marseille","lat":43.26567,"lon":5.39015,"is_reserved":false,"is_disabled":false,"rental_uris":{"android":"levelo://app?vid=3b3605c4-5280-4461-b1a2-890a0ed544fb","ios":"levelo://app?vid=3b3605c4-5280-4461-b1a2-890a0ed544fb"},"vehicle_type_id":"4","last_reported":1727698692,"current_range_meters":12800,"station_id":"ce4bhe12rcd13ifvqf30","pricing_plan_id":"cebpf4jnsgd1na2vs0mg"},{"bike_id":"92a377c1-c83e-4ce0-8033-a37f64060b32","system_id":"levelo_inurba_marseille","lat":43.29897,"lon":5.43666,"is_reserved":false,"is_disabled":false,"rental_uris":{"android":"levelo://app?vid=92a377c1-c83e-4ce0-8033-a37f64060b32","ios":"levelo://app?vid=92a377c1-c83e-4ce0-8033-a37f64060b32"},"vehicle_type_id":"4","last_reported":1727698692,"current_range_meters":23200,"station_id":"ce4bhpp2rcd13ifvqhfg","pricing_plan_id":"cebpf4jnsgd1na2vs0mg"},{"bike_id":"5de761cc-02ec-42a8-8916-f305b8388a5b","system_id":"levelo_inurba_marseille","lat":43.26941,"lon":5.40257,"is_reserved":false,"is_disabled":false,"rental_uris":{"android":"levelo://app?vid=5de761cc-02ec-42a8-8916-f305b8388a5b","ios":"levelo://app?vid=5de761cc-02ec-42a8-8916-f305b8388a5b"},"vehicle_type_id":"4","last_reported":1727698692,"current_range_meters":28000,"station_id":"ce4bgjh2rcd13ifvqbg0","pricing_plan_id":"cebpf4jnsgd1na2vs0mg"},{"bike_id":"66c626da-c5b2-4c5c-abb5-549a9ee9c938","system_id":"levelo_inurba_marseille","lat":43.27492,"lon":5.42453,"is_reserved":false,"is_disabled":false,"rental_uris":{"android":"levelo://app?vid=66c626da-c5b2-4c5c-abb5-549a9ee9c938","ios":"levelo://app?vid=66c626da-c5b2-4c5c-abb5-549a9ee9c938"},"vehicle_type_id":"4","last_reported":1727698692,"current_range_meters":22800,"station_id":"ce4bhn92rcd13ifvqgrg","pricing_plan_id":"cebpf4jnsgd1na2vs0mg"},{"bike_id":"aa13e22f-d10c-4033-abd7-5dceb19d6816","system_id":"levelo_inurba_marseille","lat":43.30434,"lon":5.38886,"is_reserved":false,"is_disabled":false,"rental_uris":{"android":"levelo://app?vid=aa13e22f-d10c-4033-abd7-5dceb19d6816","ios":"levelo://app?vid=aa13e22f-d10c-4033-abd7-5dceb19d6816"},"vehicle_type_id":"4","last_reported":1727698692,"current_range_meters":33200,"station_id":"ce4bgk12rcd13ifvqbi0","pricing_plan_id":"cebpf4jnsgd1na2vs0mg"},{"bike_id":"a3c774c4-fd72-4b56-9ae2-8a187c6aa284","system_id":"levelo_inurba_marseille","lat":43.32286,"lon":5.38266,"is_reserved":false,"is_disabled":false,"rental_uris":{"android":"levelo://app?vid=a3c774c4-fd72-4b56-9ae2-8a187c6aa284","ios":"levelo://app?vid=a3c774c4-fd72-4b56-9ae2-8a187c6aa284"},"vehicle_type_id":"4","last_reported":1727698692,"current_range_meters":38800,"station_id":"ce4bhr12rcd13ifvqhqg","pricing_plan_id":"cebpf4jnsgd1na2vs0mg"},{"bike_id":"6dc7b44d-9d0d-42f9-bc6f-4dff416c688a","system_id":"levelo_inurba_marseille","lat":43.3134,"lon":5.36704,"is_reserved":false,"is_disabled":false,"rental_uris":{"android":"levelo://app?vid=6dc7b44d-9d0d-42f9-bc6f-4dff416c688a","ios":"levelo://app?vid=6dc7b44d-9d0d-42f9-bc6f-4dff416c688a"},"vehicle_type_id":"4","last_reported":1727698692,"current_range_meters":17600,"station_id":"ce4bgr92rcd13ifvqc6g","pricing_plan_id":"cebpf4jnsgd1na2vs0mg"},{"bike_id":"a3aaac64-fffa-4c76-8ee4-bfceec847ce6","system_id":"levelo_inurba_marseille","lat":43.23153,"lon":5.43711,"is_reserved":false,"is_disabled":false,"rental_uris":{"android":"levelo://app?vid=a3aaac64-fffa-4c76-8ee4-bfceec847ce6","ios":"levelo://app?vid=a3aaac64-fffa-4c76-8ee4-bfceec847ce6"},"vehicle_type_id":"4","last_reported":1727698692,"current_range_meters":20000,"station_id":"ce4bhmp2rcd13ifvqgog","pricing_plan_id":"cebpf4jnsgd1na2vs0mg"},{"bike_id":"7267344b-d071-407a-99ce-1ec821932d37","system_id":"levelo_inurba_marseille","lat":43.30912,"lon":5.36849,"is_reserved":false,"is_disabled":false,"rental_uris":{"android":"levelo://app?vid=7267344b-d071-407a-99ce-1ec821932d37","ios":"levelo://app?vid=7267344b-d071-407a-99ce-1ec821932d37"},"vehicle_type_id":"4","last_reported":1727698692,"current_range_meters":19600,"station_id":"ce4bgn92rcd13ifvqbvg","pricing_plan_id":"cebpf4jnsgd1na2vs0mg"},{"bike_id":"032e7c89-c31d-4a53-8018-0872ec21df6d","system_id":"levelo_inurba_marseille","lat":43.28574,"lon":5.37759,"is_reserved":false,"is_disabled":false,"rental_uris":{"android":"levelo://app?vid=032e7c89-c31d-4a53-8018-0872ec21df6d","ios":"levelo://app?vid=032e7c89-c31d-4a53-8018-0872ec21df6d"},"vehicle_type_id":"4","last_reported":1727698692,"current_range_meters":20800,"station_id":"","pricing_plan_id":"cebpf4jnsgd1na2vs0mg"},{"bike_id":"3658bbe6-1d83-49e9-ae55-529ae3b5ea81","system_id":"levelo_inurba_marseille","lat":43.30543,"lon":5.36531,"is_reserved":false,"is_disabled":false,"rental_uris":{"android":"levelo://app?vid=3658bbe6-1d83-49e9-ae55-529ae3b5ea81","ios":"levelo://app?vid=3658bbe6-1d83-49e9-ae55-529ae3b5ea81"},"vehicle_type_id":"4","last_reported":1727698692,"current_range_meters":22000,"station_id":"ce4bgs12rcd13ifvqcag","pricing_plan_id":"cebpf4jnsgd1na2vs0mg"},{"bike_id":"fe875b08-7bdb-47a5-a96d-d38c7513f927","system_id":"levelo_inurba_marseille","lat":43.31493,"lon":5.37305,"is_reserved":false,"is_disabled":false,"rental_uris":{"android":"levelo://app?vid=fe875b08-7bdb-47a5-a96d-d38c7513f927","ios":"levelo://app?vid=fe875b08-7bdb-47a5-a96d-d38c7513f927"},"vehicle_type_id":"4","last_reported":1727698692,"current_range_meters":15200,"station_id":"ce4bgt12rcd13ifvqcd0","pricing_plan_id":"cebpf4jnsgd1na2vs0mg"},{"bike_id":"fbcca567-9467-4529-92a9-0f3b18c5de3f","system_id":"levelo_inurba_marseille","lat":43.29267,"lon":5.40124,"is_reserved":false,"is_disabled":false,"rental_uris":{"android":"levelo://app?vid=fbcca567-9467-4529-92a9-0f3b18c5de3f","ios":"levelo://app?vid=fbcca567-9467-4529-92a9-0f3b18c5de3f"},"vehicle_type_id":"4","last_reported":1727698692,"current_range_meters":38000,"station_id":"ce4bh312rcd13ifvqdk0","pricing_plan_id":"cebpf4jnsgd1na2vs0mg"},{"bike_id":"8fb67863-1696-4887-9cac-a36c614d3a72","system_id":"levelo_inurba_marseille","lat":43.27809,"lon":5.40713,"is_reserved":false,"is_disabled":false,"rental_uris":{"android":"levelo://app?vid=8fb67863-1696-4887-9cac-a36c614d3a72","ios":"levelo://app?vid=8fb67863-1696-4887-9cac-a36c614d3a72"},"vehicle_type_id":"4","last_reported":1727698692,"current_range_meters":22400,"station_id":"ce4bhnh2rcd13ifvqgtg","pricing_plan_id":"cebpf4jnsgd1na2vs0mg"},{"bike_id":"8899af5b-9f62-4731-b7cd-121df8ac8752","system_id":"levelo_inurba_marseille","lat":43.30916,"lon":5.36853,"is_reserved":false,"is_disabled":false,"rental_uris":{"android":"levelo://app?vid=8899af5b-9f62-4731-b7cd-121df8ac8752","ios":"levelo://app?vid=8899af5b-9f62-4731-b7cd-121df8ac8752"},"vehicle_type_id":"4","last_reported":1727698692,"current_range_meters":38800,"station_id":"ce4bgn92rcd13ifvqbvg","pricing_plan_id":"cebpf4jnsgd1na2vs0mg"},{"bike_id":"dae991a2-44be-44c1-824a-8a45af6903ca","system_id":"levelo_inurba_marseille","lat":43.30462,"lon":5.37919,"is_reserved":false,"is_disabled":false,"rental_uris":{"android":"levelo://app?vid=dae991a2-44be-44c1-824a-8a45af6903ca","ios":"levelo://app?vid=dae991a2-44be-44c1-824a-8a45af6903ca"},"vehicle_type_id":"4","last_reported":1727698692,"current_range_meters":39200,"station_id":"ce4bgup2rcd13ifvqcn0","pricing_plan_id":"cebpf4jnsgd1na2vs0mg"},{"bike_id":"bbfa4e14-7fa4-4aa7-91bf-e112b9082e51","system_id":"levelo_inurba_marseille","lat":43.23155,"lon":5.43711,"is_reserved":false,"is_disabled":false,"rental_uris":{"android":"levelo://app?vid=bbfa4e14-7fa4-4aa7-91bf-e112b9082e51","ios":"levelo://app?vid=bbfa4e14-7fa4-4aa7-91bf-e112b9082e51"},"vehicle_type_id":"4","last_reported":1727698692,"current_range_meters":24400,"station_id":"ce4bhmp2rcd13ifvqgog","pricing_plan_id":"cebpf4jnsgd1na2vs0mg"},{"bike_id":"97ed4417-a914-498b-9f9d-47d1b82eea1b","system_id":"levelo_inurba_marseille","lat":43.2408,"lon":5.37756,"is_reserved":false,"is_disabled":false,"rental_uris":{"android":"levelo://app?vid=97ed4417-a914-498b-9f9d-47d1b82eea1b","ios":"levelo://app?vid=97ed4417-a914-498b-9f9d-47d1b82eea1b"},"vehicle_type_id":"4","last_reported":1727698692,"current_range_meters":6400,"station_id":"ce4bhnp2rcd13ifvqgvg","pricing_plan_id":"cebpf4jnsgd1na2vs0mg"},{"bike_id":"af40e50c-ac96-46b6-a4bc-f7889d06829a","system_id":"levelo_inurba_marseille","lat":43.29792,"lon":5.38103,"is_reserved":false,"is_disabled":false,"rental_uris":{"android":"levelo://app?vid=af40e50c-ac96-46b6-a4bc-f7889d06829a","ios":"levelo://app?vid=af40e50c-ac96-46b6-a4bc-f7889d06829a"},"vehicle_type_id":"4","last_reported":1727698692,"current_range_meters":27200,"station_id":"ce4bgip2rcd13ifvqbb0","pricing_plan_id":"cebpf4jnsgd1na2vs0mg"},{"bike_id":"8490e44e-0aff-4d7e-8a96-481d57cd3987","system_id":"levelo_inurba_marseille","lat":43.28525,"lon":5.39116,"is_reserved":false,"is_disabled":false,"rental_uris":{"android":"levelo://app?vid=8490e44e-0aff-4d7e-8a96-481d57cd3987","ios":"levelo://app?vid=8490e44e-0aff-4d7e-8a96-481d57cd3987"},"vehicle_type_id":"4","last_reported":1727698692,"current_range_meters":24000,"station_id":"ce4bh3p2rcd13ifvqdp0","pricing_plan_id":"cebpf4jnsgd1na2vs0mg"},{"bike_id":"adfd0cb7-20ed-4460-aa6e-bd1e91678e1a","system_id":"levelo_inurba_marseille","lat":43.29441,"lon":5.39742,"is_reserved":false,"is_disabled":false,"rental_uris":{"android":"levelo://app?vid=adfd0cb7-20ed-4460-aa6e-bd1e91678e1a","ios":"levelo://app?vid=adfd0cb7-20ed-4460-aa6e-bd1e91678e1a"},"vehicle_type_id":"4","last_reported":1727698692,"current_range_meters":36400,"station_id":"ce4bh3h2rcd13ifvqdo0","pricing_plan_id":"cebpf4jnsgd1na2vs0mg"},{"bike_id":"0b8fcb16-ebb4-4d29-8e62-274e095aa50e","system_id":"levelo_inurba_marseille","lat":43.291637,"lon":5.371614,"is_reserved":false,"is_disabled":false,"rental_uris":{"android":"levelo://app?vid=0b8fcb16-ebb4-4d29-8e62-274e095aa50e","ios":"levelo://app?vid=0b8fcb16-ebb4-4d29-8e62-274e095aa50e"},"vehicle_type_id":"4","last_reported":1727698692,"current_range_meters":11200,"station_id":"ce4bgj92rcd13ifvqbd0","pricing_plan_id":"cebpf4jnsgd1na2vs0mg"},{"bike_id":"81766707-7478-4563-b73b-833a28b5fc00","system_id":"levelo_inurba_marseille","lat":43.28712,"lon":5.37383,"is_reserved":false,"is_disabled":false,"rental_uris":{"android":"levelo://app?vid=81766707-7478-4563-b73b-833a28b5fc00","ios":"levelo://app?vid=81766707-7478-4563-b73b-833a28b5fc00"},"vehicle_type_id":"4","last_reported":1727698692,"current_range_meters":38800,"station_id":"ce4bh3p2rcd13ifvqdq0","pricing_plan_id":"cebpf4jnsgd1na2vs0mg"},{"bike_id":"218c8345-47a1-443e-b581-a48005fd3532","system_id":"levelo_inurba_marseille","lat":43.24388,"lon":5.37068,"is_reserved":false,"is_disabled":false,"rental_uris":{"android":"levelo://app?vid=218c8345-47a1-443e-b581-a48005fd3532","ios":"levelo://app?vid=218c8345-47a1-443e-b581-a48005fd3532"},"vehicle_type_id":"4","last_reported":1727698692,"current_range_meters":4000,"station_id":"ce4bhhh2rcd13ifvqfk0","pricing_plan_id":"cebpf4jnsgd1na2vs0mg"},{"bike_id":"63faf4e9-706b-4f67-b7c2-3bd955804fdd","system_id":"levelo_inurba_marseille","lat":43.28355,"lon":5.38108,"is_reserved":false,"is_disabled":false,"rental_uris":{"android":"levelo://app?vid=63faf4e9-706b-4f67-b7c2-3bd955804fdd","ios":"levelo://app?vid=63faf4e9-706b-4f67-b7c2-3bd955804fdd"},"vehicle_type_id":"4","last_reported":1727698692,"current_range_meters":19600,"station_id":"ce4bh412rcd13ifvqdr0","pricing_plan_id":"cebpf4jnsgd1na2vs0mg"},{"bike_id":"8393874d-53a6-4c5a-b4bd-b3872c983c1f","system_id":"levelo_inurba_marseille","lat":43.303131,"lon":5.369059,"is_reserved":false,"is_disabled":false,"rental_uris":{"android":"levelo://app?vid=8393874d-53a6-4c5a-b4bd-b3872c983c1f","ios":"levelo://app?vid=8393874d-53a6-4c5a-b4bd-b3872c983c1f"},"vehicle_type_id":"4","last_reported":1727698692,"current_range_meters":25200,"station_id":"ce4bgqh2rcd13ifvqc5g","pricing_plan_id":"cebpf4jnsgd1na2vs0mg"},{"bike_id":"80c75f90-5eea-4c0f-bc68-02e4df9849ec","system_id":"levelo_inurba_marseille","lat":43.32401,"lon":5.40826,"is_reserved":false,"is_disabled":false,"rental_uris":{"android":"levelo://app?vid=80c75f90-5eea-4c0f-bc68-02e4df9849ec","ios":"levelo://app?vid=80c75f90-5eea-4c0f-bc68-02e4df9849ec"},"vehicle_type_id":"4","last_reported":1727698692,"current_range_meters":27200,"station_id":"ce4bhq92rcd13ifvqhjg","pricing_plan_id":"cebpf4jnsgd1na2vs0mg"},{"bike_id":"f54334eb-2195-4db5-889a-3481da52f9df","system_id":"levelo_inurba_marseille","lat":43.32284,"lon":5.38266,"is_reserved":false,"is_disabled":false,"rental_uris":{"android":"levelo://app?vid=f54334eb-2195-4db5-889a-3481da52f9df","ios":"levelo://app?vid=f54334eb-2195-4db5-889a-3481da52f9df"},"vehicle_type_id":"4","last_reported":1727698692,"current_range_meters":38800,"station_id":"ce4bhr12rcd13ifvqhqg","pricing_plan_id":"cebpf4jnsgd1na2vs0mg"},{"bike_id":"5b8f26ab-6b51-4c9d-ac3e-b872a6071183","system_id":"levelo_inurba_marseille","lat":43.31212,"lon":5.36856,"is_reserved":false,"is_disabled":false,"rental_uris":{"android":"levelo://app?vid=5b8f26ab-6b51-4c9d-ac3e-b872a6071183","ios":"levelo://app?vid=5b8f26ab-6b51-4c9d-ac3e-b872a6071183"},"vehicle_type_id":"4","last_reported":1727698692,"current_range_meters":39200,"station_id":"ce4bgl92rcd13ifvqbq0","pricing_plan_id":"cebpf4jnsgd1na2vs0mg"},{"bike_id":"6f081863-a512-4723-836e-629c741eb794","system_id":"levelo_inurba_marseille","lat":43.29978,"lon":5.38487,"is_reserved":false,"is_disabled":false,"rental_uris":{"android":"levelo://app?vid=6f081863-a512-4723-836e-629c741eb794","ios":"levelo://app?vid=6f081863-a512-4723-836e-629c741eb794"},"vehicle_type_id":"4","last_reported":1727698692,"current_range_meters":36800,"station_id":"ce4bgj92rcd13ifvqbd0","pricing_plan_id":"cebpf4jnsgd1na2vs0mg"},{"bike_id":"8c16c166-7d5c-4846-9062-5e565f5f0e20","system_id":"levelo_inurba_marseille","lat":43.28441,"lon":5.3919,"is_reserved":false,"is_disabled":false,"rental_uris":{"android":"levelo://app?vid=8c16c166-7d5c-4846-9062-5e565f5f0e20","ios":"levelo://app?vid=8c16c166-7d5c-4846-9062-5e565f5f0e20"},"vehicle_type_id":"4","last_reported":1727698692,"current_range_meters":36800,"station_id":"ce4bhoh2rcd13ifvqh5g","pricing_plan_id":"cebpf4jnsgd1na2vs0mg"},{"bike_id":"4a0ff530-475e-4a0f-8202-b4672c96f2ee","system_id":"levelo_inurba_marseille","lat":43.2718,"lon":5.40988,"is_reserved":false,"is_disabled":false,"rental_uris":{"android":"levelo://app?vid=4a0ff530-475e-4a0f-8202-b4672c96f2ee","ios":"levelo://app?vid=4a0ff530-475e-4a0f-8202-b4672c96f2ee"},"vehicle_type_id":"4","last_reported":1727698692,"current_range_meters":24000,"station_id":"ce4bhl12rcd13ifvqgf0","pricing_plan_id":"cebpf4jnsgd1na2vs0mg"},{"bike_id":"ef026c7b-d2a8-4dad-a992-8e68858282f5","system_id":"levelo_inurba_marseille","lat":43.27816,"lon":5.40717,"is_reserved":false,"is_disabled":false,"rental_uris":{"android":"levelo://app?vid=ef026c7b-d2a8-4dad-a992-8e68858282f5","ios":"levelo://app?vid=ef026c7b-d2a8-4dad-a992-8e68858282f5"},"vehicle_type_id":"4","last_reported":1727698692,"current_range_meters":24800,"station_id":"ce4bhnh2rcd13ifvqgtg","pricing_plan_id":"cebpf4jnsgd1na2vs0mg"},{"bike_id":"308cc213-702e-4ebb-8c55-d51375650cfe","system_id":"levelo_inurba_marseille","lat":43.27493,"lon":5.4245,"is_reserved":false,"is_disabled":false,"rental_uris":{"android":"levelo://app?vid=308cc213-702e-4ebb-8c55-d51375650cfe","ios":"levelo://app?vid=308cc213-702e-4ebb-8c55-d51375650cfe"},"vehicle_type_id":"4","last_reported":1727698692,"current_range_meters":20400,"station_id":"ce4bhn92rcd13ifvqgrg","pricing_plan_id":"cebpf4jnsgd1na2vs0mg"},{"bike_id":"5dfd9658-fa7f-46fc-b68f-ea8f76487a17","system_id":"levelo_inurba_marseille","lat":43.337444,"lon":5.374475,"is_reserved":false,"is_disabled":false,"rental_uris":{"android":"levelo://app?vid=5dfd9658-fa7f-46fc-b68f-ea8f76487a17","ios":"levelo://app?vid=5dfd9658-fa7f-46fc-b68f-ea8f76487a17"},"vehicle_type_id":"4","last_reported":1727698692,"current_range_meters":22000,"station_id":"","pricing_plan_id":"cebpf4jnsgd1na2vs0mg"},{"bike_id":"d24b4923-f968-45cf-89ff-2d3d90b63f0c","system_id":"levelo_inurba_marseille","lat":43.29626,"lon":5.37706,"is_reserved":false,"is_disabled":false,"rental_uris":{"android":"levelo://app?vid=d24b4923-f968-45cf-89ff-2d3d90b63f0c","ios":"levelo://app?vid=d24b4923-f968-45cf-89ff-2d3d90b63f0c"},"vehicle_type_id":"4","last_reported":1727698692,"current_range_meters":21600,"station_id":"ce4bgi92rcd13ifvqb90","pricing_plan_id":"cebpf4jnsgd1na2vs0mg"},{"bike_id":"eab30390-0c07-449c-a891-cba8bee1096b","system_id":"levelo_inurba_marseille","lat":43.32309,"lon":5.38291,"is_reserved":false,"is_disabled":false,"rental_uris":{"android":"levelo://app?vid=eab30390-0c07-449c-a891-cba8bee1096b","ios":"levelo://app?vid=eab30390-0c07-449c-a891-cba8bee1096b"},"vehicle_type_id":"4","last_reported":1727698692,"current_range_meters":36800,"station_id":"ce4bhr12rcd13ifvqhqg","pricing_plan_id":"cebpf4jnsgd1na2vs0mg"},{"bike_id":"fdef7ae9-ba96-44b0-b95b-7baf90afc649","system_id":"levelo_inurba_marseille","lat":43.23962,"lon":5.36616,"is_reserved":false,"is_disabled":false,"rental_uris":{"android":"levelo://app?vid=fdef7ae9-ba96-44b0-b95b-7baf90afc649","ios":"levelo://app?vid=fdef7ae9-ba96-44b0-b95b-7baf90afc649"},"vehicle_type_id":"4","last_reported":1727698692,"current_range_meters":24800,"station_id":"ce4bhi12rcd13ifvqfp0","pricing_plan_id":"cebpf4jnsgd1na2vs0mg"},{"bike_id":"bd88e84d-effc-4286-aa53-a5e8160df57c","system_id":"levelo_inurba_marseille","lat":43.30782,"lon":5.37655,"is_reserved":false,"is_disabled":false,"rental_uris":{"android":"levelo://app?vid=bd88e84d-effc-4286-aa53-a5e8160df57c","ios":"levelo://app?vid=bd88e84d-effc-4286-aa53-a5e8160df57c"},"vehicle_type_id":"4","last_reported":1727698692,"current_range_meters":14000,"station_id":"ce4bgv92rcd13ifvqcq0","pricing_plan_id":"cebpf4jnsgd1na2vs0mg"},{"bike_id":"9ded30a3-9971-42c9-8b1b-57a894865ef3","system_id":"levelo_inurba_marseille","lat":43.3046,"lon":5.37904,"is_reserved":false,"is_disabled":false,"rental_uris":{"android":"levelo://app?vid=9ded30a3-9971-42c9-8b1b-57a894865ef3","ios":"levelo://app?vid=9ded30a3-9971-42c9-8b1b-57a894865ef3"},"vehicle_type_id":"4","last_reported":1727698692,"current_range_meters":38400,"station_id":"ce4bgup2rcd13ifvqcn0","pricing_plan_id":"cebpf4jnsgd1na2vs0mg"},{"bike_id":"c0c8c03d-4188-4687-a851-55265decc810","system_id":"levelo_inurba_marseille","lat":43.34145,"lon":5.40901,"is_reserved":false,"is_disabled":false,"rental_uris":{"android":"levelo://app?vid=c0c8c03d-4188-4687-a851-55265decc810","ios":"levelo://app?vid=c0c8c03d-4188-4687-a851-55265decc810"},"vehicle_type_id":"4","last_reported":1727698692,"current_range_meters":30800,"station_id":"ce4bhqh2rcd13ifvqhlg","pricing_plan_id":"cebpf4jnsgd1na2vs0mg"},{"bike_id":"f5a28856-4a3c-4572-8360-3ab62b961f47","system_id":"levelo_inurba_marseille","lat":43.29976,"lon":5.385,"is_reserved":false,"is_disabled":false,"rental_uris":{"android":"levelo://app?vid=f5a28856-4a3c-4572-8360-3ab62b961f47","ios":"levelo://app?vid=f5a28856-4a3c-4572-8360-3ab62b961f47"},"vehicle_type_id":"4","last_reported":1727698692,"current_range_meters":16400,"station_id":"ce4bgj92rcd13ifvqbd0","pricing_plan_id":"cebpf4jnsgd1na2vs0mg"},{"bike_id":"072ddce5-c30a-42a8-b5dd-4dacbc16f020","system_id":"levelo_inurba_marseille","lat":43.29302,"lon":5.37454,"is_reserved":false,"is_disabled":false,"rental_uris":{"android":"levelo://app?vid=072ddce5-c30a-42a8-b5dd-4dacbc16f020","ios":"levelo://app?vid=072ddce5-c30a-42a8-b5dd-4dacbc16f020"},"vehicle_type_id":"4","last_reported":1727698692,"current_range_meters":26800,"station_id":"ce4bgi12rcd13ifvqb70","pricing_plan_id":"cebpf4jnsgd1na2vs0mg"},{"bike_id":"a5fcb8cf-b27f-476f-adda-1d825e6a4907","system_id":"levelo_inurba_marseille","lat":43.28404,"lon":5.37521,"is_reserved":false,"is_disabled":false,"rental_uris":{"android":"levelo://app?vid=a5fcb8cf-b27f-476f-adda-1d825e6a4907","ios":"levelo://app?vid=a5fcb8cf-b27f-476f-adda-1d825e6a4907"},"vehicle_type_id":"4","last_reported":1727698692,"current_range_meters":31200,"station_id":"ce4bh412rcd13ifvqds0","pricing_plan_id":"cebpf4jnsgd1na2vs0mg"},{"bike_id":"a9d94fc0-5899-49ba-a07e-e9ffffddb5c4","system_id":"levelo_inurba_marseille","lat":43.23068,"lon":5.35495,"is_reserved":false,"is_disabled":false,"rental_uris":{"android":"levelo://app?vid=a9d94fc0-5899-49ba-a07e-e9ffffddb5c4","ios":"levelo://app?vid=a9d94fc0-5899-49ba-a07e-e9ffffddb5c4"},"vehicle_type_id":"4","last_reported":1727698692,"current_range_meters":24800,"station_id":"cpo3342slgdg3j2ifvpg","pricing_plan_id":"cebpf4jnsgd1na2vs0mg"},{"bike_id":"d555eb86-384a-4de4-ab02-c161cadb5fa6","system_id":"levelo_inurba_marseille","lat":43.28844,"lon":5.35853,"is_reserved":false,"is_disabled":false,"rental_uris":{"android":"levelo://app?vid=d555eb86-384a-4de4-ab02-c161cadb5fa6","ios":"levelo://app?vid=d555eb86-384a-4de4-ab02-c161cadb5fa6"},"vehicle_type_id":"4","last_reported":1727698692,"current_range_meters":26000,"station_id":"ce4bhb12rcd13ifvqem0","pricing_plan_id":"cebpf4jnsgd1na2vs0mg"},{"bike_id":"6f2d35b1-0278-43da-99ef-8d608ea1f489","system_id":"levelo_inurba_marseille","lat":43.23157,"lon":5.4372,"is_reserved":false,"is_disabled":false,"rental_uris":{"android":"levelo://app?vid=6f2d35b1-0278-43da-99ef-8d608ea1f489","ios":"levelo://app?vid=6f2d35b1-0278-43da-99ef-8d608ea1f489"},"vehicle_type_id":"4","last_reported":1727698692,"current_range_meters":22000,"station_id":"ce4bhmp2rcd13ifvqgog","pricing_plan_id":"cebpf4jnsgd1na2vs0mg"},{"bike_id":"70aec609-eba9-4fad-a75a-cddec6bf4ef1","system_id":"levelo_inurba_marseille","lat":43.29539,"lon":5.39401,"is_reserved":false,"is_disabled":false,"rental_uris":{"android":"levelo://app?vid=70aec609-eba9-4fad-a75a-cddec6bf4ef1","ios":"levelo://app?vid=70aec609-eba9-4fad-a75a-cddec6bf4ef1"},"vehicle_type_id":"4","last_reported":1727698692,"current_range_meters":35200,"station_id":"ce4bh292rcd13ifvqdf0","pricing_plan_id":"cebpf4jnsgd1na2vs0mg"},{"bike_id":"b74ef9f7-e5c2-48bb-b27a-6e28a28b9b1c","system_id":"levelo_inurba_marseille","lat":43.26062,"lon":5.39391,"is_reserved":false,"is_disabled":false,"rental_uris":{"android":"levelo://app?vid=b74ef9f7-e5c2-48bb-b27a-6e28a28b9b1c","ios":"levelo://app?vid=b74ef9f7-e5c2-48bb-b27a-6e28a28b9b1c"},"vehicle_type_id":"4","last_reported":1727698692,"current_range_meters":9600,"station_id":"ce4bhh92rcd13ifvqfj0","pricing_plan_id":"cebpf4jnsgd1na2vs0mg"},{"bike_id":"ce0a6298-7234-4702-b5b4-87c097f2e621","system_id":"levelo_inurba_marseille","lat":43.22931,"lon":5.35384,"is_reserved":false,"is_disabled":false,"rental_uris":{"android":"levelo://app?vid=ce0a6298-7234-4702-b5b4-87c097f2e621","ios":"levelo://app?vid=ce0a6298-7234-4702-b5b4-87c097f2e621"},"vehicle_type_id":"4","last_reported":1727698692,"current_range_meters":12400,"station_id":"cpo3532slgdg3j2ikp40","pricing_plan_id":"cebpf4jnsgd1na2vs0mg"},{"bike_id":"512bb4ed-c2e7-473f-aa47-7ed3f92d1436","system_id":"levelo_inurba_marseille","lat":43.27496,"lon":5.42457,"is_reserved":false,"is_disabled":false,"rental_uris":{"android":"levelo://app?vid=512bb4ed-c2e7-473f-aa47-7ed3f92d1436","ios":"levelo://app?vid=512bb4ed-c2e7-473f-aa47-7ed3f92d1436"},"vehicle_type_id":"4","last_reported":1727698692,"current_range_meters":34800,"station_id":"ce4bhn92rcd13ifvqgrg","pricing_plan_id":"cebpf4jnsgd1na2vs0mg"},{"bike_id":"b9a6b6ae-cba9-400e-818a-8dbfd5036d91","system_id":"levelo_inurba_marseille","lat":43.31081,"lon":5.4243,"is_reserved":false,"is_disabled":false,"rental_uris":{"android":"levelo://app?vid=b9a6b6ae-cba9-400e-818a-8dbfd5036d91","ios":"levelo://app?vid=b9a6b6ae-cba9-400e-818a-8dbfd5036d91"},"vehicle_type_id":"4","last_reported":1727698692,"current_range_meters":38000,"station_id":"ce4bhp92rcd13ifvqhag","pricing_plan_id":"cebpf4jnsgd1na2vs0mg"},{"bike_id":"0b792a66-9851-427d-af98-406cd940f51f","system_id":"levelo_inurba_marseille","lat":43.28416,"lon":5.34995,"is_reserved":false,"is_disabled":false,"rental_uris":{"android":"levelo://app?vid=0b792a66-9851-427d-af98-406cd940f51f","ios":"levelo://app?vid=0b792a66-9851-427d-af98-406cd940f51f"},"vehicle_type_id":"4","last_reported":1727698692,"current_range_meters":27200,"station_id":"ce4bhbh2rcd13ifvqepg","pricing_plan_id":"cebpf4jnsgd1na2vs0mg"},{"bike_id":"6b67d0e4-69d4-4bc5-8360-566b22e4bb8e","system_id":"levelo_inurba_marseille","lat":43.284954,"lon":5.385569,"is_reserved":false,"is_disabled":false,"rental_uris":{"android":"levelo://app?vid=6b67d0e4-69d4-4bc5-8360-566b22e4bb8e","ios":"levelo://app?vid=6b67d0e4-69d4-4bc5-8360-566b22e4bb8e"},"vehicle_type_id":"4","last_reported":1727698692,"current_range_meters":21600,"station_id":"ce4bhh92rcd13ifvqfh0","pricing_plan_id":"cebpf4jnsgd1na2vs0mg"},{"bike_id":"9365334e-83e7-4d3e-8bab-2b019e510e4b","system_id":"levelo_inurba_marseille","lat":43.24546,"lon":5.39523,"is_reserved":false,"is_disabled":false,"rental_uris":{"android":"levelo://app?vid=9365334e-83e7-4d3e-8bab-2b019e510e4b","ios":"levelo://app?vid=9365334e-83e7-4d3e-8bab-2b019e510e4b"},"vehicle_type_id":"4","last_reported":1727698692,"current_range_meters":4000,"station_id":"ce4bhlp2rcd13ifvqgjg","pricing_plan_id":"cebpf4jnsgd1na2vs0mg"},{"bike_id":"b54a9626-109e-4d4b-bfb3-41424061170c","system_id":"levelo_inurba_marseille","lat":43.2749,"lon":5.4246,"is_reserved":false,"is_disabled":false,"rental_uris":{"android":"levelo://app?vid=b54a9626-109e-4d4b-bfb3-41424061170c","ios":"levelo://app?vid=b54a9626-109e-4d4b-bfb3-41424061170c"},"vehicle_type_id":"4","last_reported":1727698692,"current_range_meters":27600,"station_id":"ce4bhn92rcd13ifvqgrg","pricing_plan_id":"cebpf4jnsgd1na2vs0mg"},{"bike_id":"c8180270-ef2b-4b3d-a858-b6e655e27062","system_id":"levelo_inurba_marseille","lat":43.27296,"lon":5.39139,"is_reserved":false,"is_disabled":false,"rental_uris":{"android":"levelo://app?vid=c8180270-ef2b-4b3d-a858-b6e655e27062","ios":"levelo://app?vid=c8180270-ef2b-4b3d-a858-b6e655e27062"},"vehicle_type_id":"4","last_reported":1727698692,"current_range_meters":26000,"station_id":"ce4bhgp2rcd13ifvqfe0","pricing_plan_id":"cebpf4jnsgd1na2vs0mg"},{"bike_id":"5feffe5f-2046-4e9e-9092-0bf36a1385a2","system_id":"levelo_inurba_marseille","lat":43.26676,"lon":5.3827,"is_reserved":false,"is_disabled":false,"rental_uris":{"android":"levelo://app?vid=5feffe5f-2046-4e9e-9092-0bf36a1385a2","ios":"levelo://app?vid=5feffe5f-2046-4e9e-9092-0bf36a1385a2"},"vehicle_type_id":"4","last_reported":1727698692,"current_range_meters":26000,"station_id":"ce4bhg92rcd13ifvqf90","pricing_plan_id":"cebpf4jnsgd1na2vs0mg"},{"bike_id":"1304d0f0-1633-4420-8fc8-2f3b93b7e428","system_id":"levelo_inurba_marseille","lat":43.27477,"lon":5.42461,"is_reserved":false,"is_disabled":false,"rental_uris":{"android":"levelo://app?vid=1304d0f0-1633-4420-8fc8-2f3b93b7e428","ios":"levelo://app?vid=1304d0f0-1633-4420-8fc8-2f3b93b7e428"},"vehicle_type_id":"4","last_reported":1727698692,"current_range_meters":2000,"station_id":"ce4bhn92rcd13ifvqgrg","pricing_plan_id":"cebpf4jnsgd1na2vs0mg"},{"bike_id":"f72c63ff-aa8d-4a9b-a3d5-e40de81da1b6","system_id":"levelo_inurba_marseille","lat":43.28938,"lon":5.36637,"is_reserved":false,"is_disabled":false,"rental_uris":{"android":"levelo://app?vid=f72c63ff-aa8d-4a9b-a3d5-e40de81da1b6","ios":"levelo://app?vid=f72c63ff-aa8d-4a9b-a3d5-e40de81da1b6"},"vehicle_type_id":"4","last_reported":1727698692,"current_range_meters":37600,"station_id":"ce4bhap2rcd13ifvqek0","pricing_plan_id":"cebpf4jnsgd1na2vs0mg"},{"bike_id":"064fbc96-87b4-421e-af03-f3f5f0c253eb","system_id":"levelo_inurba_marseille","lat":43.32111,"lon":5.36766,"is_reserved":false,"is_disabled":false,"rental_uris":{"android":"levelo://app?vid=064fbc96-87b4-421e-af03-f3f5f0c253eb","ios":"levelo://app?vid=064fbc96-87b4-421e-af03-f3f5f0c253eb"},"vehicle_type_id":"4","last_reported":1727698692,"current_range_meters":26800,"station_id":"ce4bhrh2rcd13ifvqhug","pricing_plan_id":"cebpf4jnsgd1na2vs0mg"},{"bike_id":"dcca5eb1-337d-4677-b150-3612f0c83882","system_id":"levelo_inurba_marseille","lat":43.31344,"lon":5.36707,"is_reserved":false,"is_disabled":false,"rental_uris":{"android":"levelo://app?vid=dcca5eb1-337d-4677-b150-3612f0c83882","ios":"levelo://app?vid=dcca5eb1-337d-4677-b150-3612f0c83882"},"vehicle_type_id":"4","last_reported":1727698692,"current_range_meters":30400,"station_id":"ce4bgr92rcd13ifvqc6g","pricing_plan_id":"cebpf4jnsgd1na2vs0mg"},