{"last_updated":1720631220,"ttl":30,"version":"2.2","data":{"bikes":[{"bike_id":"d4737ec1-f620-427b-85f2-9376cbd7ffea","system_id":"levelo_inurba_marseille","lat":43.31334,"lon":5.37276,"is_reserved":false,"is_disabled":false,"rental_uris":{"android":"levelo://app?vid=d4737ec1-f620-427b-85f2-9376cbd7ffea","ios":"levelo://app?vid=d4737ec1-f620-427b-85f2-9376cbd7ffea"},"vehicle_type_id":"4","last_reported":1720631220,"current_range_meters":4800,"station_id":"","pricing_plan_id":"cebpf4jnsgd1na2vs0mg"},{"bike_id":"e90f0897-7a85-45a1-8c0e-fcfafa6cca3a","system_id":"levelo_inurba_marseille","lat":43.314811,"lon":5.373103,"is_reserved":false,"is_disabled":false,"rental_uris":{"android":"levelo://app?vid=e90f0897-7a85-45a1-8c0e-fcfafa6cca3a","ios":"levelo://app?vid=e90f0897-7a85-45a1-8c0e-fcfafa6cca3a"},"vehicle_type_id":"4","last_reported":1720631220,"current_range_meters":0,"station_id":"ce4bgt12rcd13ifvqcd0","pricing_plan_id":"cebpf4jnsgd1na2vs0mg"},{"bike_id":"183c2746-cf25-4e2a-8dfb-9c7f51787d22","system_id":"levelo_inurba_marseille","lat":43.309039,"lon":5.371797,"is_reserved":false,"is_disabled":false,"rental_uris":{"android":"levelo://app?vid=183c2746-cf25-4e2a-8dfb-9c7f51787d22","ios":"levelo://app?vid=183c2746-cf25-4e2a-8dfb-9c7f51787d22"},"vehicle_type_id":"4","last_reported":1720631220,"current_range_meters":30800,"station_id":"ce4bguh2rcd13ifvqckg","pricing_plan_id":"cebpf4jnsgd1na2vs0mg"},{"bike_id":"b1fedb8f-f9ae-4630-b67f-6835099d6039","system_id":"levelo_inurba_marseille","lat":43.317,"lon":5.37658,"is_reserved":false,"is_disabled":false,"rental_uris":{"android":"levelo://app?vid=b1fedb8f-f9ae-4630-b67f-6835099d6039","ios":"levelo://app?vid=b1fedb8f-f9ae-4630-b67f-6835099d6039"},"vehicle_type_id":"4","last_reported":1720631220,"current_range_meters":7600,"station_id":"","pricing_plan_id":"cebpf4jnsgd1na2vs0mg"},{"bike_id":"e3e3b76a-7c0b-4448-a7b1-60bc4da44c05","system_id":"levelo_inurba_marseille","lat":43.308177,"lon":5.37664,"is_reserved":false,"is_disabled":false,"rental_uris":{"android":"levelo://app?vid=e3e3b76a-7c0b-4448-a7b1-60bc4da44c05","ios":"levelo://app?vid=e3e3b76a-7c0b-4448-a7b1-60bc4da44c05"},"vehicle_type_id":"4","last_reported":1720631220,"current_range_meters":27200,"station_id":"ce4bgv92rcd13ifvqcq0","pricing_plan_id":"cebpf4jnsgd1na2vs0mg"},{"bike_id":"059c2158-03a4-4abd-90c3-8d38dce80afd","system_id":"levelo_inurba_marseille","lat":43.30779,"lon":5.37654,"is_reserved":false,"is_disabled":false,"rental_uris":{"android":"levelo://app?vid=059c2158-03a4-4abd-90c3-8d38dce80afd","ios":"levelo://app?vid=059c2158-03a4-4abd-90c3-8d38dce80afd"},"vehicle_type_id":"4","last_reported":1720631220,"current_range_meters":25200,"station_id":"ce4bgv92rcd13ifvqcq0","pricing_plan_id":"cebpf4jnsgd1na2vs0mg"},{"bike_id":"069ca937-e9e1-49de-a845-886240f774da","system_id":"levelo_inurba_marseille","lat":43.311414,"lon":5.379445,"is_reserved":false,"is_disabled":false,"rental_uris":{"android":"levelo://app?vid=069ca937-e9e1-49de-a845-886240f774da","ios":"levelo://app?vid=069ca937-e9e1-49de-a845-886240f774da"},"vehicle_type_id":"4","last_reported":1720631220,"current_range_meters":2800,"station_id":"","pricing_plan_id":"cebpf4jnsgd1na2vs0mg"},{"bike_id":"8b78313f-87ab-4714-babf-ae38a1a68a8c","system_id":"levelo_inurba_marseille","lat":43.30951,"lon":5.379413,"is_reserved":false,"is_disabled":false,"rental_uris":{"android":"levelo://app?vid=8b78313f-87ab-4714-babf-ae38a1a68a8c","ios":"levelo://app?vid=8b78313f-87ab-4714-babf-ae38a1a68a8c"},"vehicle_type_id":"4","last_reported":1720631220,"current_range_meters":0,"station_id":"","pricing_plan_id":"cebpf4jnsgd1na2vs0mg"},{"bike_id":"9c425441-78ae-4eb1-8f00-b415f2533bfe","system_id":"levelo_inurba_marseille","lat":43.310744,"lon":5.381111,"is_reserved":false,"is_disabled":false,"rental_uris":{"android":"levelo://app?vid=9c425441-78ae-4eb1-8f00-b415f2533bfe","ios":"levelo://app?vid=9c425441-78ae-4eb1-8f00-b415f2533bfe"},"vehicle_type_id":"4","last_reported":1720631220,"current_range_meters":15200,"station_id":"","pricing_plan_id":"cebpf4jnsgd1na2vs0mg"},{"bike_id":"c8cfb9eb-aa56-42e4-9323-936ceccb7aae","system_id":"levelo_inurba_marseille","lat":43.308072,"lon":5.381506,"is_reserved":false,"is_disabled":false,"rental_uris":{"android":"levelo://app?vid=c8cfb9eb-aa56-42e4-9323-936ceccb7aae","ios":"levelo://app?vid=c8cfb9eb-aa56-42e4-9323-936ceccb7aae"},"vehicle_type_id":"4","last_reported":1720631220,"current_range_meters":13200,"station_id":"","pricing_plan_id":"cebpf4jnsgd1na2vs0mg"},{"bike_id":"7aa3483e-0968-4d74-8d59-49cf9441330a","system_id":"levelo_inurba_marseille","lat":43.308012,"lon":5.381511,"is_reserved":false,"is_disabled":false,"rental_uris":{"android":"levelo://app?vid=7aa3483e-0968-4d74-8d59-49cf9441330a","ios":"levelo://app?vid=7aa3483e-0968-4d74-8d59-49cf9441330a"},"vehicle_type_id":"4","last_reported":1720631220,"current_range_meters":14400,"station_id":"ce4bgt12rcd13ifvqce0","pricing_plan_id":"cebpf4jnsgd1na2vs0mg"},{"bike_id":"6c28157c-02f9-44e1-8b74-96f08a27a357","system_id":"levelo_inurba_marseille","lat":43.308012,"lon":5.381511,"is_reserved":false,"is_disabled":false,"rental_uris":{"android":"levelo://app?vid=6c28157c-02f9-44e1-8b74-96f08a27a357","ios":"levelo://app?vid=6c28157c-02f9-44e1-8b74-96f08a27a357"},"vehicle_type_id":"4","last_reported":1720631220,"current_range_meters":4800,"station_id":"ce4bgt12rcd13ifvqce0","pricing_plan_id":"cebpf4jnsgd1na2vs0mg"},{"bike_id":"eb988d52-e35e-4963-a88d-fce707ab2d8c","system_id":"levelo_inurba_marseille","lat":43.30802,"lon":5.38162,"is_reserved":false,"is_disabled":false,"rental_uris":{"android":"levelo://app?vid=eb988d52-e35e-4963-a88d-fce707ab2d8c","ios":"levelo://app?vid=eb988d52-e35e-4963-a88d-fce707ab2d8c"},"vehicle_type_id":"4","last_reported":1720631220,"current_range_meters":28800,"station_id":"ce4bgt12rcd13ifvqce0","pricing_plan_id":"cebpf4jnsgd1na2vs0mg"},{"bike_id":"e92bba56-b6d6-451d-b39e-6e87b23c384f","system_id":"levelo_inurba_marseille","lat":43.308012,"lon":5.381511,"is_reserved":false,"is_disabled":false,"rental_uris":{"android":"levelo://app?vid=e92bba56-b6d6-451d-b39e-6e87b23c384f","ios":"levelo://app?vid=e92bba56-b6d6-451d-b39e-6e87b23c384f"},"vehicle_type_id":"4","last_reported":1720631220,"current_range_meters":11600,"station_id":"ce4bgt12rcd13ifvqce0","pricing_plan_id":"cebpf4jnsgd1na2vs0mg"},{"bike_id":"68f471b2-436e-4524-93fe-03eaa45f86cd","system_id":"levelo_inurba_marseille","lat":43.304606,"lon":5.379026,"is_reserved":false,"is_disabled":false,"rental_uris":{"android":"levelo://app?vid=68f471b2-436e-4524-93fe-03eaa45f86cd","ios":"levelo://app?vid=68f471b2-436e-4524-93fe-03eaa45f86cd"},"vehicle_type_id":"4","last_reported":1720631220,"current_range_meters":400,"station_id":"ce4bgup2rcd13ifvqcn0","pricing_plan_id":"cebpf4jnsgd1na2vs0mg"},{"bike_id":"853b96f8-67d9-4de6-be5a-aefe96c8574a","system_id":"levelo_inurba_marseille","lat":43.324771,"lon":5.36557,"is_reserved":false,"is_disabled":false,"rental_uris":{"android":"levelo://app?vid=853b96f8-67d9-4de6-be5a-aefe96c8574a","ios":"levelo://app?vid=853b96f8-67d9-4de6-be5a-aefe96c8574a"},"vehicle_type_id":"4","last_reported":1720631220,"current_range_meters":21600,"station_id":"ce4bhs12rcd13ifvqhvg","pricing_plan_id":"cebpf4jnsgd1na2vs0mg"},{"bike_id":"c58b9972-705e-4580-82ce-0494af9e6444","system_id":"levelo_inurba_marseille","lat":43.32476,"lon":5.3659,"is_reserved":false,"is_disabled":false,"rental_uris":{"android":"levelo://app?vid=c58b9972-705e-4580-82ce-0494af9e6444","ios":"levelo://app?vid=c58b9972-705e-4580-82ce-0494af9e6444"},"vehicle_type_id":"4","last_reported":1720631220,"current_range_meters":11600,"station_id":"ce4bhs12rcd13ifvqhvg","pricing_plan_id":"cebpf4jnsgd1na2vs0mg"},{"bike_id":"cfc95ea4-70fe-46fd-bd2d-c0af804d2a19","system_id":"levelo_inurba_marseille","lat":43.32476,"lon":5.36588,"is_reserved":false,"is_disabled":false,"rental_uris":{"android":"levelo://app?vid=cfc95ea4-70fe-46fd-bd2d-c0af804d2a19","ios":"levelo://app?vid=cfc95ea4-70fe-46fd-bd2d-c0af804d2a19"},"vehicle_type_id":"4","last_reported":1720631220,"current_range_meters":2400,"station_id":"ce4bhs12rcd13ifvqhvg","pricing_plan_id":"cebpf4jnsgd1na2vs0mg"},{"bike_id":"70ad2269-9ab7-4228-a0e9-f8e445f62d69","system_id":"levelo_inurba_marseille","lat":43.3248,"lon":5.36569,"is_reserved":false,"is_disabled":false,"rental_uris":{"android":"levelo://app?vid=70ad2269-9ab7-4228-a0e9-f8e445f62d69","ios":"levelo://app?vid=70ad2269-9ab7-4228-a0e9-f8e445f62d69"},"vehicle_type_id":"4","last_reported":1720631220,"current_range_meters":13200,"station_id":"ce4bhs12rcd13ifvqhvg","pricing_plan_id":"cebpf4jnsgd1na2vs0mg"},{"bike_id":"637e9e7d-197c-4455-99bc-f2cb8552a987","system_id":"levelo_inurba_marseille","lat":43.324771,"lon":5.36557,"is_reserved":false,"is_disabled":false,"rental_uris":{"android":"levelo://app?vid=637e9e7d-197c-4455-99bc-f2cb8552a987","ios":"levelo://app?vid=637e9e7d-197c-4455-99bc-f2cb8552a987"},"vehicle_type_id":"4","last_reported":1720631220,"current_range_meters":21200,"station_id":"ce4bhs12rcd13ifvqhvg","pricing_plan_id":"cebpf4jnsgd1na2vs0mg"},{"bike_id":"cda51581-678f-49fe-a31d-316d946d7d99","system_id":"levelo_inurba_marseille","lat":43.32482,"lon":5.3659,"is_reserved":false,"is_disabled":false,"rental_uris":{"android":"levelo://app?vid=cda51581-678f-49fe-a31d-316d946d7d99","ios":"levelo://app?vid=cda51581-678f-49fe-a31d-316d946d7d99"},"vehicle_type_id":"4","last_reported":1720631220,"current_range_meters":11200,"station_id":"ce4bhs12rcd13ifvqhvg","pricing_plan_id":"cebpf4jnsgd1na2vs0mg"},{"bike_id":"3273df88-ac91-404a-99aa-821fa8388f8a","system_id":"levelo_inurba_marseille","lat":43.324771,"lon":5.36557,"is_reserved":false,"is_disabled":false,"rental_uris":{"android":"levelo://app?vid=3273df88-ac91-404a-99aa-821fa8388f8a","ios":"levelo://app?vid=3273df88-ac91-404a-99aa-821fa8388f8a"},"vehicle_type_id":"4","last_reported":1720631220,"current_range_meters":11200,"station_id":"ce4bhs12rcd13ifvqhvg","pricing_plan_id":"cebpf4jnsgd1na2vs0mg"},{"bike_id":"e9aaa764-2d4d-4429-91ea-b7708367b6b2","system_id":"levelo_inurba_marseille","lat":43.32482,"lon":5.36577,"is_reserved":false,"is_disabled":false,"rental_uris":{"android":"levelo://app?vid=e9aaa764-2d4d-4429-91ea-b7708367b6b2","ios":"levelo://app?vid=e9aaa764-2d4d-4429-91ea-b7708367b6b2"},"vehicle_type_id":"4","last_reported":1720631220,"current_range_meters":21200,"station_id":"ce4bhs12rcd13ifvqhvg","pricing_plan_id":"cebpf4jnsgd1na2vs0mg"},{"bike_id":"122627aa-5889-42de-b5ff-45cf3df1a29f","system_id":"levelo_inurba_marseille","lat":43.32482,"lon":5.36574,"is_reserved":false,"is_disabled":false,"rental_uris":{"android":"levelo://app?vid=122627aa-5889-42de-b5ff-45cf3df1a29f","ios":"levelo://app?vid=122627aa-5889-42de-b5ff-45cf3df1a29f"},"vehicle_type_id":"4","last_reported":1720631220,"current_range_meters":15600,"station_id":"ce4bhs12rcd13ifvqhvg","pricing_plan_id":"cebpf4jnsgd1na2vs0mg"},{"bike_id":"399bb279-3311-4e61-be15-23cbbde8a194","system_id":"levelo_inurba_marseille","lat":43.324771,"lon":5.36557,"is_reserved":false,"is_disabled":false,"rental_uris":{"android":"levelo://app?vid=399bb279-3311-4e61-be15-23cbbde8a194","ios":"levelo://app?vid=399bb279-3311-4e61-be15-23cbbde8a194"},"vehicle_type_id":"4","last_reported":1720631220,"current_range_meters":19200,"station_id":"ce4bhs12rcd13ifvqhvg","pricing_plan_id":"cebpf4jnsgd1na2vs0mg"},{"bike_id":"3beed82c-a180-4907-86be-101b2d2a76bc","system_id":"levelo_inurba_marseille","lat":43.324771,"lon":5.36557,"is_reserved":false,"is_disabled":false,"rental_uris":{"android":"levelo://app?vid=3beed82c-a180-4907-86be-101b2d2a76bc","ios":"levelo://app?vid=3beed82c-a180-4907-86be-101b2d2a76bc"},"vehicle_type_id":"4","last_reported":1720631220,"current_range_meters":31600,"station_id":"ce4bhs12rcd13ifvqhvg","pricing_plan_id":"cebpf4jnsgd1na2vs0mg"},{"bike_id":"043f4b1f-cf38-4021-8dda-72e86311f0b5","system_id":"levelo_inurba_marseille","lat":43.324771,"lon":5.36557,"is_reserved":false,"is_disabled":false,"rental_uris":{"android":"levelo://app?vid=043f4b1f-cf38-4021-8dda-72e86311f0b5","ios":"levelo://app?vid=043f4b1f-cf38-4021-8dda-72e86311f0b5"},"vehicle_type_id":"4","last_reported":1720631220,"current_range_meters":31600,"station_id":"ce4bhs12rcd13ifvqhvg","pricing_plan_id":"cebpf4jnsgd1na2vs0mg"},{"bike_id":"c6856a0e-cfb7-4bbd-846b-f912b298551f","system_id":"levelo_inurba_marseille","lat":43.32483,"lon":5.36553,"is_reserved":false,"is_disabled":false,"rental_uris":{"android":"levelo://app?vid=c6856a0e-cfb7-4bbd-846b-f912b298551f","ios":"levelo://app?vid=c6856a0e-cfb7-4bbd-846b-f912b298551f"},"vehicle_type_id":"4","last_reported":1720631220,"current_range_meters":31200,"station_id":"ce4bhs12rcd13ifvqhvg","pricing_plan_id":"cebpf4jnsgd1na2vs0mg"},{"bike_id":"f14a9ec1-5c3f-4565-9d9a-4c0e539bdf2f","system_id":"levelo_inurba_marseille","lat":43.324771,"lon":5.36557,"is_reserved":false,"is_disabled":false,"rental_uris":{"android":"levelo://app?vid=f14a9ec1-5c3f-4565-9d9a-4c0e539bdf2f","ios":"levelo://app?vid=f14a9ec1-5c3f-4565-9d9a-4c0e539bdf2f"},"vehicle_type_id":"4","last_reported":1720631220,"current_range_meters":7200,"station_id":"ce4bhs12rcd13ifvqhvg","pricing_plan_id":"cebpf4jnsgd1na2vs0mg"},{"bike_id":"1ffcf217-239f-4bd8-bca0-a05fc462a744","system_id":"levelo_inurba_marseille","lat":43.301429,"lon":5.37413,"is_reserved":false,"is_disabled":false,"rental_uris":{"android":"levelo://app?vid=1ffcf217-239f-4bd8-bca0-a05fc462a744","ios":"levelo://app?vid=1ffcf217-239f-4bd8-bca0-a05fc462a744"},"vehicle_type_id":"4","last_reported":1720631220,"current_range_meters":21200,"station_id":"ce4bgs92rcd13ifvqcc0","pricing_plan_id":"cebpf4jnsgd1na2vs0mg"},{"bike_id":"215ab65f-28ac-424a-becd-571a7567d5dc","system_id":"levelo_inurba_marseille","lat":43.301429,"lon":5.37413,"is_reserved":false,"is_disabled":false,"rental_uris":{"android":"levelo://app?vid=215ab65f-28ac-424a-becd-571a7567d5dc","ios":"levelo://app?vid=215ab65f-28ac-424a-becd-571a7567d5dc"},"vehicle_type_id":"4","last_reported":1720631220,"current_range_meters":12400,"station_id":"ce4bgs92rcd13ifvqcc0","pricing_plan_id":"cebpf4jnsgd1na2vs0mg"},{"bike_id":"436e4355-9157-4bb3-8ccc-7d8e51b5dc6b","system_id":"levelo_inurba_marseille","lat":43.31108,"lon":5.38396,"is_reserved":false,"is_disabled":false,"rental_uris":{"android":"levelo://app?vid=436e4355-9157-4bb3-8ccc-7d8e51b5dc6b","ios":"levelo://app?vid=436e4355-9157-4bb3-8ccc-7d8e51b5dc6b"},"vehicle_type_id":"4","last_reported":1720631220,"current_range_meters":21200,"station_id":"","pricing_plan_id":"cebpf4jnsgd1na2vs0mg"},{"bike_id":"faae650a-e436-404b-9f51-5d1c0f4f3d8e","system_id":"levelo_inurba_marseille","lat":43.305947,"lon":5.381703,"is_reserved":false,"is_disabled":false,"rental_uris":{"android":"levelo://app?vid=faae650a-e436-404b-9f51-5d1c0f4f3d8e","ios":"levelo://app?vid=faae650a-e436-404b-9f51-5d1c0f4f3d8e"},"vehicle_type_id":"4","last_reported":1720631220,"current_range_meters":16400,"station_id":"","pricing_plan_id":"cebpf4jnsgd1na2vs0mg"},{"bike_id":"5170e5a4-a346-48b0-9cfa-e3b6cda1ad54","system_id":"levelo_inurba_marseille","lat":43.319935,"lon":5.381699,"is_reserved":false,"is_disabled":false,"rental_uris":{"android":"levelo://app?vid=5170e5a4-a346-48b0-9cfa-e3b6cda1ad54","ios":"levelo://app?vid=5170e5a4-a346-48b0-9cfa-e3b6cda1ad54"},"vehicle_type_id":"4","last_reported":1720631220,"current_range_meters":12000,"station_id":"ce4bhr12rcd13ifvqhpg","pricing_plan_id":"cebpf4jnsgd1na2vs0mg"},{"bike_id":"cca699bb-bf42-4643-a1fc-43112d702fcc","system_id":"levelo_inurba_marseille","lat":43.319935,"lon":5.381699,"is_reserved":false,"is_disabled":false,"rental_uris":{"android":"levelo://app?vid=cca699bb-bf42-4643-a1fc-43112d702fcc","ios":"levelo://app?vid=cca699bb-bf42-4643-a1fc-43112d702fcc"},"vehicle_type_id":"4","last_reported":1720631220,"current_range_meters":23600,"station_id":"ce4bhr12rcd13ifvqhpg","pricing_plan_id":"cebpf4jnsgd1na2vs0mg"},{"bike_id":"da26a013-178c-4e7f-8f93-879f3b16728d","system_id":"levelo_inurba_marseille","lat":43.319935,"lon":5.381699,"is_reserved":false,"is_disabled":false,"rental_uris":{"android":"levelo://app?vid=da26a013-178c-4e7f-8f93-879f3b16728d","ios":"levelo://app?vid=da26a013-178c-4e7f-8f93-879f3b16728d"},"vehicle_type_id":"4","last_reported":1720631220,"current_range_meters":0,"station_id":"ce4bhr12rcd13ifvqhpg","pricing_plan_id":"cebpf4jnsgd1na2vs0mg"},{"bike_id":"117efc0c-2a62-4bfc-9e7a-551f181cbe04","system_id":"levelo_inurba_marseille","lat":43.29842,"lon":5.36268,"is_reserved":false,"is_disabled":false,"rental_uris":{"android":"levelo://app?vid=117efc0c-2a62-4bfc-9e7a-551f181cbe04","ios":"levelo://app?vid=117efc0c-2a62-4bfc-9e7a-551f181cbe04"},"vehicle_type_id":"4","last_reported":1720631220,"current_range_meters":6000,"station_id":"ce4bgpp2rcd13ifvqc3g","pricing_plan_id":"cebpf4jnsgd1na2vs0mg"},{"bike_id":"c9a5a74f-84f9-4eea-a3d2-967063f6ad01","system_id":"levelo_inurba_marseille","lat":43.31171,"lon":5.38716,"is_reserved":false,"is_disabled":false,"rental_uris":{"android":"levelo://app?vid=c9a5a74f-84f9-4eea-a3d2-967063f6ad01","ios":"levelo://app?vid=c9a5a74f-84f9-4eea-a3d2-967063f6ad01"},"vehicle_type_id":"4","last_reported":1720631220,"current_range_meters":0,"station_id":"ce4bgv12rcd13ifvqcp0","pricing_plan_id":"cebpf4jnsgd1na2vs0mg"},{"bike_id":"da833381-e863-4abd-ad7e-7a91477c1f41","system_id":"levelo_inurba_marseille","lat":43.299243,"lon":5.37481,"is_reserved":false,"is_disabled":false,"rental_uris":{"android":"levelo://app?vid=da833381-e863-4abd-ad7e-7a91477c1f41","ios":"levelo://app?vid=da833381-e863-4abd-ad7e-7a91477c1f41"},"vehicle_type_id":"4","last_reported":1720631220,"current_range_meters":2000,"station_id":"ce4bgjh2rcd13ifvqbg0","pricing_plan_id":"cebpf4jnsgd1na2vs0mg"},{"bike_id":"d2222721-e06d-4623-824a-d462b0a4f899","system_id":"levelo_inurba_marseille","lat":43.31164,"lon":5.38717,"is_reserved":false,"is_disabled":false,"rental_uris":{"android":"levelo://app?vid=d2222721-e06d-4623-824a-d462b0a4f899","ios":"levelo://app?vid=d2222721-e06d-4623-824a-d462b0a4f899"},"vehicle_type_id":"4","last_reported":1720631220,"current_range_meters":0,"station_id":"ce4bgv12rcd13ifvqcp0","pricing_plan_id":"cebpf4jnsgd1na2vs0mg"},{"bike_id":"4ece2a14-7bcc-409c-a2dd-babcff4fd292","system_id":"levelo_inurba_marseille","lat":43.311722,"lon":5.387247,"is_reserved":false,"is_disabled":false,"rental_uris":{"android":"levelo://app?vid=4ece2a14-7bcc-409c-a2dd-babcff4fd292","ios":"levelo://app?vid=4ece2a14-7bcc-409c-a2dd-babcff4fd292"},"vehicle_type_id":"4","last_reported":1720631220,"current_range_meters":9600,"station_id":"ce4bgv12rcd13ifvqcp0","pricing_plan_id":"cebpf4jnsgd1na2vs0mg"},{"bike_id":"5edca9be-7c68-4ce4-9133-30fc8b28ec12","system_id":"levelo_inurba_marseille","lat":43.297774,"lon":5.370875,"is_reserved":false,"is_disabled":false,"rental_uris":{"android":"levelo://app?vid=5edca9be-7c68-4ce4-9133-30fc8b28ec12","ios":"levelo://app?vid=5edca9be-7c68-4ce4-9133-30fc8b28ec12"},"vehicle_type_id":"4","last_reported":1720631220,"current_range_meters":13200,"station_id":"ce4bgop2rcd13ifvqc1g","pricing_plan_id":"cebpf4jnsgd1na2vs0mg"},{"bike_id":"ffa4ba3f-6478-424f-94a4-79aa9c07d7cf","system_id":"levelo_inurba_marseille","lat":43.322872,"lon":5.382756,"is_reserved":false,"is_disabled":false,"rental_uris":{"android":"levelo://app?vid=ffa4ba3f-6478-424f-94a4-79aa9c07d7cf","ios":"levelo://app?vid=ffa4ba3f-6478-424f-94a4-79aa9c07d7cf"},"vehicle_type_id":"4","last_reported":1720631220,"current_range_meters":11200,"station_id":"ce4bhr12rcd13ifvqhqg","pricing_plan_id":"cebpf4jnsgd1na2vs0mg"},{"bike_id":"d0c9390f-839d-4bf6-9d11-f6d2b044971b","system_id":"levelo_inurba_marseille","lat":43.297165,"lon":5.36618,"is_reserved":false,"is_disabled":false,"rental_uris":{"android":"levelo://app?vid=d0c9390f-839d-4bf6-9d11-f6d2b044971b","ios":"levelo://app?vid=d0c9390f-839d-4bf6-9d11-f6d2b044971b"},"vehicle_type_id":"4","last_reported":1720631220,"current_range_meters":31200,"station_id":"ce4bgn12rcd13ifvqbt0","pricing_plan_id":"cebpf4jnsgd1na2vs0mg"},{"bike_id":"66f47d27-08c5-4b17-aae4-cf9d9cc26d9f","system_id":"levelo_inurba_marseille","lat":43.297163,"lon":5.365866,"is_reserved":false,"is_disabled":false,"rental_uris":{"android":"levelo://app?vid=66f47d27-08c5-4b17-aae4-cf9d9cc26d9f","ios":"levelo://app?vid=66f47d27-08c5-4b17-aae4-cf9d9cc26d9f"},"vehicle_type_id":"4","last_reported":1720631220,"current_range_meters":7200,"station_id":"ce4bgn12rcd13ifvqbt0","pricing_plan_id":"cebpf4jnsgd1na2vs0mg"},{"bike_id":"1ef7d49e-fe86-4ab5-b08b-e319be667369","system_id":"levelo_inurba_marseille","lat":43.297163,"lon":5.365866,"is_reserved":false,"is_disabled":false,"rental_uris":{"android":"levelo://app?vid=1ef7d49e-fe86-4ab5-b08b-e319be667369","ios":"levelo://app?vid=1ef7d49e-fe86-4ab5-b08b-e319be667369"},"vehicle_type_id":"4","last_reported":1720631220,"current_range_meters":4400,"station_id":"ce4bgn12rcd13ifvqbt0","pricing_plan_id":"cebpf4jnsgd1na2vs0mg"},{"bike_id":"1d3ce130-e244-4140-91bc-fb28adcf1575","system_id":"levelo_inurba_marseille","lat":43.29613,"lon":5.36998,"is_reserved":false,"is_disabled":false,"rental_uris":{"android":"levelo://app?vid=1d3ce130-e244-4140-91bc-fb28adcf1575","ios":"levelo://app?vid=1d3ce130-e244-4140-91bc-fb28adcf1575"},"vehicle_type_id":"4","last_reported":1720631220,"current_range_meters":17200,"station_id":"","pricing_plan_id":"cebpf4jnsgd1na2vs0mg"},{"bike_id":"22c12eae-97b8-449f-93d2-f76c99f37cf9","system_id":"levelo_inurba_marseille","lat":43.299028,"lon":5.381509,"is_reserved":false,"is_disabled":false,"rental_uris":{"android":"levelo://app?vid=22c12eae-97b8-449f-93d2-f76c99f37cf9","ios":"levelo://app?vid=22c12eae-97b8-449f-93d2-f76c99f37cf9"},"vehicle_type_id":"4","last_reported":1720631220,"current_range_meters":0,"station_id":"ce4bgj12rcd13ifvqbc0","pricing_plan_id":"cebpf4jnsgd1na2vs0mg"},{"bike_id":"30f8401e-c74c-45c5-9afd-22292452d22c","system_id":"levelo_inurba_marseille","lat":43.309589,"lon":5.390258,"is_reserved":false,"is_disabled":false,"rental_uris":{"android":"levelo://app?vid=30f8401e-c74c-45c5-9afd-22292452d22c","ios":"levelo://app?vid=30f8401e-c74c-45c5-9afd-22292452d22c"},"vehicle_type_id":"4","last_reported":1720631220,"current_range_meters":19200,"station_id":"ce4bgup2rcd13ifvqco0","pricing_plan_id":"cebpf4jnsgd1na2vs0mg"},{"bike_id":"5f300c84-1a28-427a-b6f1-a7b3d61a2477","system_id":"levelo_inurba_marseille","lat":43.317557,"lon":5.390173,"is_reserved":false,"is_disabled":false,"rental_uris":{"android":"levelo://app?vid=5f300c84-1a28-427a-b6f1-a7b3d61a2477","ios":"levelo://app?vid=5f300c84-1a28-427a-b6f1-a7b3d61a2477"},"vehicle_type_id":"4","last_reported":1720631220,"current_range_meters":18400,"station_id":"ce4bhqp2rcd13ifvqhng","pricing_plan_id":"cebpf4jnsgd1na2vs0mg"},{"bike_id":"7d8973c9-5925-4eba-bda6-f91edcd9acfb","system_id":"levelo_inurba_marseille","lat":43.317557,"lon":5.390173,"is_reserved":false,"is_disabled":false,"rental_uris":{"android":"levelo://app?vid=7d8973c9-5925-4eba-bda6-f91edcd9acfb","ios":"levelo://app?vid=7d8973c9-5925-4eba-bda6-f91edcd9acfb"},"vehicle_type_id":"4","last_reported":1720631220,"current_range_meters":13200,"station_id":"ce4bhqp2rcd13ifvqhng","pricing_plan_id":"cebpf4jnsgd1na2vs0mg"},{"bike_id":"62e83dc6-92ec-4c1b-ab19-66d206eb4dbf","system_id":"levelo_inurba_marseille","lat":43.298037,"lon":5.381066,"is_reserved":false,"is_disabled":false,"rental_uris":{"android":"levelo://app?vid=62e83dc6-92ec-4c1b-ab19-66d206eb4dbf","ios":"levelo://app?vid=62e83dc6-92ec-4c1b-ab19-66d206eb4dbf"},"vehicle_type_id":"4","last_reported":1720631220,"current_range_meters":9600,"station_id":"ce4bgip2rcd13ifvqbb0","pricing_plan_id":"cebpf4jnsgd1na2vs0mg"},{"bike_id":"927ef807-ca97-4482-8f90-6e3604ecc340","system_id":"levelo_inurba_marseille","lat":43.298037,"lon":5.381066,"is_reserved":false,"is_disabled":false,"rental_uris":{"android":"levelo://app?vid=927ef807-ca97-4482-8f90-6e3604ecc340","ios":"levelo://app?vid=927ef807-ca97-4482-8f90-6e3604ecc340"},"vehicle_type_id":"4","last_reported":1720631220,"current_range_meters":0,"station_id":"ce4bgip2rcd13ifvqbb0","pricing_plan_id":"cebpf4jnsgd1na2vs0mg"},{"bike_id":"e2618e18-b621-40a3-af9c-6bbf8a1dccf9","system_id":"levelo_inurba_marseille","lat":43.295748,"lon":5.37522,"is_reserved":false,"is_disabled":false,"rental_uris":{"android":"levelo://app?vid=e2618e18-b621-40a3-af9c-6bbf8a1dccf9","ios":"levelo://app?vid=e2618e18-b621-40a3-af9c-6bbf8a1dccf9"},"vehicle_type_id":"4","last_reported":1720631220,"current_range_meters":0,"station_id":"ce4bgh92rcd13ifvqb50","pricing_plan_id":"cebpf4jnsgd1na2vs0mg"},{"bike_id":"524bac2d-f06c-49a7-91c7-c6106ed808d3","system_id":"levelo_inurba_marseille","lat":43.29619,"lon":5.37721,"is_reserved":false,"is_disabled":false,"rental_uris":{"android":"levelo://app?vid=524bac2d-f06c-49a7-91c7-c6106ed808d3","ios":"levelo://app?vid=524bac2d-f06c-49a7-91c7-c6106ed808d3"},"vehicle_type_id":"4","last_reported":1720631220,"current_range_meters":11200,"station_id":"ce4bgi92rcd13ifvqb90","pricing_plan_id":"cebpf4jnsgd1na2vs0mg"},{"bike_id":"90f5c478-2a18-4d73-9b74-b18bcd3eb974","system_id":"levelo_inurba_marseille","lat":43.298037,"lon":5.381066,"is_reserved":false,"is_disabled":false,"rental_uris":{"android":"levelo://app?vid=90f5c478-2a18-4d73-9b74-b18bcd3eb974","ios":"levelo://app?vid=90f5c478-2a18-4d73-9b74-b18bcd3eb974"},"vehicle_type_id":"4","last_reported":1720631220,"current_range_meters":7200,"station_id":"ce4bgip2rcd13ifvqbb0","pricing_plan_id":"cebpf4jnsgd1na2vs0mg"},{"bike_id":"17a51afb-45e5-49c4-ae48-ffe27042dac0","system_id":"levelo_inurba_marseille","lat":43.299717,"lon":5.384845,"is_reserved":false,"is_disabled":false,"rental_uris":{"android":"levelo://app?vid=17a51afb-45e5-49c4-ae48-ffe27042dac0","ios":"levelo://app?vid=17a51afb-45e5-49c4-ae48-ffe27042dac0"},"vehicle_type_id":"4","last_reported":1720631220,"current_range_meters":0,"station_id":"ce4bgj92rcd13ifvqbd0","pricing_plan_id":"cebpf4jnsgd1na2vs0mg"},{"bike_id":"8b0b9d4e-e922-4e80-8236-e4b9da6e2215","system_id":"levelo_inurba_marseille","lat":43.301396,"lon":5.387812,"is_reserved":false,"is_disabled":false,"rental_uris":{"android":"levelo://app?vid=8b0b9d4e-e922-4e80-8236-e4b9da6e2215","ios":"levelo://app?vid=8b0b9d4e-e922-4e80-8236-e4b9da6e2215"},"vehicle_type_id":"4","last_reported":1720631220,"current_range_meters":400,"station_id":"ce4bghh2rcd13ifvqb60","pricing_plan_id":"cebpf4jnsgd1na2vs0mg"},{"bike_id":"e7af831d-1449-4094-a6ea-2b3baf472790","system_id":"levelo_inurba_marseille","lat":43.32367,"lon":5.388836,"is_reserved":false,"is_disabled":false,"rental_uris":{"android":"levelo://app?vid=e7af831d-1449-4094-a6ea-2b3baf472790","ios":"levelo://app?vid=e7af831d-1449-4094-a6ea-2b3baf472790"},"vehicle_type_id":"4","last_reported":1720631220,"current_range_meters":18000,"station_id":"ce4bhqp2rcd13ifvqhog","pricing_plan_id":"cebpf4jnsgd1na2vs0mg"},{"bike_id":"87a3d191-e1ba-4086-a6ff-0a0cbb43bfd3","system_id":"levelo_inurba_marseille","lat":43.293259,"lon":5.371586,"is_reserved":false,"is_disabled":false,"rental_uris":{"android":"levelo://app?vid=87a3d191-e1ba-4086-a6ff-0a0cbb43bfd3","ios":"levelo://app?vid=87a3d191-e1ba-4086-a6ff-0a0cbb43bfd3"},"vehicle_type_id":"4","last_reported":1720631220,"current_range_meters":24800,"station_id":"ce4bgh92rcd13ifvqb40","pricing_plan_id":"cebpf4jnsgd1na2vs0mg"},{"bike_id":"2993f327-f315-4d54-8787-95b756b85ccb","system_id":"levelo_inurba_marseille","lat":43.29602,"lon":5.381084,"is_reserved":false,"is_disabled":false,"rental_uris":{"android":"levelo://app?vid=2993f327-f315-4d54-8787-95b756b85ccb","ios":"levelo://app?vid=2993f327-f315-4d54-8787-95b756b85ccb"},"vehicle_type_id":"4","last_reported":1720631220,"current_range_meters":6000,"station_id":"ce4bgl12rcd13ifvqbo0","pricing_plan_id":"cebpf4jnsgd1na2vs0mg"},{"bike_id":"57a4437c-2a00-4e13-8f92-5cacf8f1b87f","system_id":"levelo_inurba_marseille","lat":43.29602,"lon":5.381084,"is_reserved":false,"is_disabled":false,"rental_uris":{"android":"levelo://app?vid=57a4437c-2a00-4e13-8f92-5cacf8f1b87f","ios":"levelo://app?vid=57a4437c-2a00-4e13-8f92-5cacf8f1b87f"},"vehicle_type_id":"4","last_reported":1720631220,"current_range_meters":2000,"station_id":"ce4bgl12rcd13ifvqbo0","pricing_plan_id":"cebpf4jnsgd1na2vs0mg"},{"bike_id":"9742d37b-d4b7-4205-98ee-218d9c01e7eb","system_id":"levelo_inurba_marseille","lat":43.29601,"lon":5.381084,"is_reserved":false,"is_disabled":false,"rental_uris":{"android":"levelo://app?vid=9742d37b-d4b7-4205-98ee-218d9c01e7eb","ios":"levelo://app?vid=9742d37b-d4b7-4205-98ee-218d9c01e7eb"},"vehicle_type_id":"4","last_reported":1720631220,"current_range_meters":25200,"station_id":"ce4bgl12rcd13ifvqbo0","pricing_plan_id":"cebpf4jnsgd1na2vs0mg"},{"bike_id":"56f9819d-88de-47f4-a593-c390f65147e0","system_id":"levelo_inurba_marseille","lat":43.293259,"lon":5.371586,"is_reserved":false,"is_disabled":false,"rental_uris":{"android":"levelo://app?vid=56f9819d-88de-47f4-a593-c390f65147e0","ios":"levelo://app?vid=56f9819d-88de-47f4-a593-c390f65147e0"},"vehicle_type_id":"4","last_reported":1720631220,"current_range_meters":18400,"station_id":"ce4bgh92rcd13ifvqb40","pricing_plan_id":"cebpf4jnsgd1na2vs0mg"},{"bike_id":"b27b8628-599e-4dd1-a5b5-54f4d91b1c50","system_id":"levelo_inurba_marseille","lat":43.29308,"lon":5.3718,"is_reserved":false,"is_disabled":false,"rental_uris":{"android":"levelo://app?vid=b27b8628-599e-4dd1-a5b5-54f4d91b1c50","ios":"levelo://app?vid=b27b8628-599e-4dd1-a5b5-54f4d91b1c50"},"vehicle_type_id":"4","last_reported":1720631220,"current_range_meters":0,"station_id":"ce4bgh92rcd13ifvqb40","pricing_plan_id":"cebpf4jnsgd1na2vs0mg"},{"bike_id":"3f843629-6b34-47ab-9f18-82965c6faecc","system_id":"levelo_inurba_marseille","lat":43.293259,"lon":5.371586,"is_reserved":false,"is_disabled":false,"rental_uris":{"android":"levelo://app?vid=3f843629-6b34-47ab-9f18-82965c6faecc","ios":"levelo://app?vid=3f843629-6b34-47ab-9f18-82965c6faecc"},"vehicle_type_id":"4","last_reported":1720631220,"current_range_meters":30400,"station_id":"ce4bgh92rcd13ifvqb40","pricing_plan_id":"cebpf4jnsgd1na2vs0mg"},{"bike_id":"4b6d6443-e11c-45ad-ae0e-9a9c4a979979","system_id":"levelo_inurba_marseille","lat":43.293259,"lon":5.371586,"is_reserved":false,"is_disabled":false,"rental_uris":{"android":"levelo://app?vid=4b6d6443-e11c-45ad-ae0e-9a9c4a979979","ios":"levelo://app?vid=4b6d6443-e11c-45ad-ae0e-9a9c4a979979"},"vehicle_type_id":"4","last_reported":1720631220,"current_range_meters":6400,"station_id":"ce4bgh92rcd13ifvqb40","pricing_plan_id":"cebpf4jnsgd1na2vs0mg"},{"bike_id":"bb7788d0-e040-41d6-a3eb-364096aeb736","system_id":"levelo_inurba_marseille","lat":43.29299,"lon":5.3745,"is_reserved":false,"is_disabled":false,"rental_uris":{"android":"levelo://app?vid=bb7788d0-e040-41d6-a3eb-364096aeb736","ios":"levelo://app?vid=bb7788d0-e040-41d6-a3eb-364096aeb736"},"vehicle_type_id":"4","last_reported":1720631220,"current_range_meters":0,"station_id":"ce4bgi12rcd13ifvqb70","pricing_plan_id":"cebpf4jnsgd1na2vs0mg"},{"bike_id":"a8c5a4a9-1266-4063-8950-8e9836a1ee46","system_id":"levelo_inurba_marseille","lat":43.29301,"lon":5.37467,"is_reserved":false,"is_disabled":false,"rental_uris":{"android":"levelo://app?vid=a8c5a4a9-1266-4063-8950-8e9836a1ee46","ios":"levelo://app?vid=a8c5a4a9-1266-4063-8950-8e9836a1ee46"},"vehicle_type_id":"4","last_reported":1720631220,"current_range_meters":0,"station_id":"ce4bgi12rcd13ifvqb70","pricing_plan_id":"cebpf4jnsgd1na2vs0mg"},{"bike_id":"28744e08-21b6-4534-8892-25338976544b","system_id":"levelo_inurba_marseille","lat":43.29297,"lon":5.37459,"is_reserved":false,"is_disabled":false,"rental_uris":{"android":"levelo://app?vid=28744e08-21b6-4534-8892-25338976544b","ios":"levelo://app?vid=28744e08-21b6-4534-8892-25338976544b"},"vehicle_type_id":"4","last_reported":1720631220,"current_range_meters":0,"station_id":"ce4bgi12rcd13ifvqb70","pricing_plan_id":"cebpf4jnsgd1na2vs0mg"},{"bike_id":"fbffc6c5-504a-43f2-9485-58e7e65b2a3a","system_id":"levelo_inurba_marseille","lat":43.2936,"lon":5.37835,"is_reserved":false,"is_disabled":false,"rental_uris":{"android":"levelo://app?vid=fbffc6c5-504a-43f2-9485-58e7e65b2a3a","ios":"levelo://app?vid=fbffc6c5-504a-43f2-9485-58e7e65b2a3a"},"vehicle_type_id":"4","last_reported":1720631220,"current_range_meters":22800,"station_id":"ce4bgjh2rcd13ifvqbf0","pricing_plan_id":"cebpf4jnsgd1na2vs0mg"},{"bike_id":"7c6e0fe3-8779-4214-bd96-65ddceb5a108","system_id":"levelo_inurba_marseille","lat":43.303002,"lon":5.392142,"is_reserved":false,"is_disabled":false,"rental_uris":{"android":"levelo://app?vid=7c6e0fe3-8779-4214-bd96-65ddceb5a108","ios":"levelo://app?vid=7c6e0fe3-8779-4214-bd96-65ddceb5a108"},"vehicle_type_id":"4","last_reported":1720631220,"current_range_meters":19200,"station_id":"ce4bgkh2rcd13ifvqbk0","pricing_plan_id":"cebpf4jnsgd1na2vs0mg"},{"bike_id":"4f07bd14-1a34-43e5-99f9-3478d641f19c","system_id":"levelo_inurba_marseille","lat":43.2936,"lon":5.37835,"is_reserved":false,"is_disabled":false,"rental_uris":{"android":"levelo://app?vid=4f07bd14-1a34-43e5-99f9-3478d641f19c","ios":"levelo://app?vid=4f07bd14-1a34-43e5-99f9-3478d641f19c"},"vehicle_type_id":"4","last_reported":1720631220,"current_range_meters":0,"station_id":"ce4bgjh2rcd13ifvqbf0","pricing_plan_id":"cebpf4jnsgd1na2vs0mg"},{"bike_id":"1505fb34-d961-4e4c-a3a7-a3340f9e923c","system_id":"levelo_inurba_marseille","lat":43.303553,"lon":5.392653,"is_reserved":false,"is_disabled":false,"rental_uris":{"android":"levelo://app?vid=1505fb34-d961-4e4c-a3a7-a3340f9e923c","ios":"levelo://app?vid=1505fb34-d961-4e4c-a3a7-a3340f9e923c"},"vehicle_type_id":"4","last_reported":1720631220,"current_range_meters":0,"station_id":"","pricing_plan_id":"cebpf4jnsgd1na2vs0mg"},{"bike_id":"f94521e8-584c-4263-b986-724c05467cc2","system_id":"levelo_inurba_marseille","lat":43.2936,"lon":5.37835,"is_reserved":false,"is_disabled":false,"rental_uris":{"android":"levelo://app?vid=f94521e8-584c-4263-b986-724c05467cc2","ios":"levelo://app?vid=f94521e8-584c-4263-b986-724c05467cc2"},"vehicle_type_id":"4","last_reported":1720631220,"current_range_meters":3200,"station_id":"ce4bgjh2rcd13ifvqbf0","pricing_plan_id":"cebpf4jnsgd1na2vs0mg"},{"bike_id":"3be53d44-89ad-4ad8-b9cb-9fb38c7fe9a7","system_id":"levelo_inurba_marseille","lat":43.292311,"lon":5.360731,"is_reserved":false,"is_disabled":false,"rental_uris":{"android":"levelo://app?vid=3be53d44-89ad-4ad8-b9cb-9fb38c7fe9a7","ios":"levelo://app?vid=3be53d44-89ad-4ad8-b9cb-9fb38c7fe9a7"},"vehicle_type_id":"4","last_reported":1720631220,"current_range_meters":19600,"station_id":"ce4bhbh2rcd13ifvqeqg","pricing_plan_id":"cebpf4jnsgd1na2vs0mg"},{"bike_id":"e6e0d4b6-622c-4da3-971d-30aad218f120","system_id":"levelo_inurba_marseille","lat":43.292256,"lon":5.360722,"is_reserved":false,"is_disabled":false,"rental_uris":{"android":"levelo://app?vid=e6e0d4b6-622c-4da3-971d-30aad218f120","ios":"levelo://app?vid=e6e0d4b6-622c-4da3-971d-30aad218f120"},"vehicle_type_id":"4","last_reported":1720631220,"current_range_meters":4800,"station_id":"ce4bhbh2rcd13ifvqeqg","pricing_plan_id":"cebpf4jnsgd1na2vs0mg"},{"bike_id":"80297b60-6cff-4374-938f-ff2dcfe443e3","system_id":"levelo_inurba_marseille","lat":43.29225,"lon":5.36071,"is_reserved":false,"is_disabled":false,"rental_uris":{"android":"levelo://app?vid=80297b60-6cff-4374-938f-ff2dcfe443e3","ios":"levelo://app?vid=80297b60-6cff-4374-938f-ff2dcfe443e3"},"vehicle_type_id":"4","last_reported":1720631220,"current_range_meters":25600,"station_id":"ce4bhbh2rcd13ifvqeqg","pricing_plan_id":"cebpf4jnsgd1na2vs0mg"},{"bike_id":"b62499c5-ecba-40b9-9617-7586c931e5e8","system_id":"levelo_inurba_marseille","lat":43.29225,"lon":5.36071,"is_reserved":false,"is_disabled":false,"rental_uris":{"android":"levelo://app?vid=b62499c5-ecba-40b9-9617-7586c931e5e8","ios":"levelo://app?vid=b62499c5-ecba-40b9-9617-7586c931e5e8"},"vehicle_type_id":"4","last_reported":1720631220,"current_range_meters":26800,"station_id":"ce4bhbh2rcd13ifvqeqg","pricing_plan_id":"cebpf4jnsgd1na2vs0mg"},{"bike_id":"13778097-fe78-45df-a49a-e1aac7a2efd1","system_id":"levelo_inurba_marseille","lat":43.292311,"lon":5.360731,"is_reserved":false,"is_disabled":false,"rental_uris":{"android":"levelo://app?vid=13778097-fe78-45df-a49a-e1aac7a2efd1","ios":"levelo://app?vid=13778097-fe78-45df-a49a-e1aac7a2efd1"},"vehicle_type_id":"4","last_reported":1720631220,"current_range_meters":27600,"station_id":"ce4bhbh2rcd13ifvqeqg","pricing_plan_id":"cebpf4jnsgd1na2vs0mg"},{"bike_id":"b7f17dc9-fdb8-4fa2-920c-aaa0eaa063f3","system_id":"levelo_inurba_marseille","lat":43.292311,"lon":5.360731,"is_reserved":false,"is_disabled":false,"rental_uris":{"android":"levelo://app?vid=b7f17dc9-fdb8-4fa2-920c-aaa0eaa063f3","ios":"levelo://app?vid=b7f17dc9-fdb8-4fa2-920c-aaa0eaa063f3"},"vehicle_type_id":"4","last_reported":1720631220,"current_range_meters":28800,"station_id":"ce4bhbh2rcd13ifvqeqg","pricing_plan_id":"cebpf4jnsgd1na2vs0mg"},{"bike_id":"5aa21277-ae83-4fe7-98cd-280461899d31","system_id":"levelo_inurba_marseille","lat":43.292311,"lon":5.360731,"is_reserved":false,"is_disabled":false,"rental_uris":{"android":"levelo://app?vid=5aa21277-ae83-4fe7-98cd-280461899d31","ios":"levelo://app?vid=5aa21277-ae83-4fe7-98cd-280461899d31"},"vehicle_type_id":"4","last_reported":1720631220,"current_range_meters":23200,"station_id":"ce4bhbh2rcd13ifvqeqg","pricing_plan_id":"cebpf4jnsgd1na2vs0mg"},{"bike_id":"3959cdd7-ff6c-4f56-96f4-6b63a4f7cc9b","system_id":"levelo_inurba_marseille","lat":43.292311,"lon":5.360731,"is_reserved":false,"is_disabled":false,"rental_uris":{"android":"levelo://app?vid=3959cdd7-ff6c-4f56-96f4-6b63a4f7cc9b","ios":"levelo://app?vid=3959cdd7-ff6c-4f56-96f4-6b63a4f7cc9b"},"vehicle_type_id":"4","last_reported":1720631220,"current_range_meters":29200,"station_id":"ce4bhbh2rcd13ifvqeqg","pricing_plan_id":"cebpf4jnsgd1na2vs0mg"},{"bike_id":"c9db311e-ebf7-4deb-a4de-6979be98cadc","system_id":"levelo_inurba_marseille","lat":43.29875,"lon":5.38909,"is_reserved":false,"is_disabled":false,"rental_uris":{"android":"levelo://app?vid=c9db311e-ebf7-4deb-a4de-6979be98cadc","ios":"levelo://app?vid=c9db311e-ebf7-4deb-a4de-6979be98cadc"},"vehicle_type_id":"4","last_reported":1720631220,"current_range_meters":8400,"station_id":"ce4bh392rcd13ifvqdl0","pricing_plan_id":"cebpf4jnsgd1na2vs0mg"},{"bike_id":"b99682b8-87bf-406e-8a8d-1328ea2b1fab","system_id":"levelo_inurba_marseille","lat":43.291994,"lon":5.357886,"is_reserved":false,"is_disabled":false,"rental_uris":{"android":"levelo://app?vid=b99682b8-87bf-406e-8a8d-1328ea2b1fab","ios":"levelo://app?vid=b99682b8-87bf-406e-8a8d-1328ea2b1fab"},"vehicle_type_id":"4","last_reported":1720631220,"current_range_meters":2800,"station_id":"ce4bhb12rcd13ifvqel0","pricing_plan_id":"cebpf4jnsgd1na2vs0mg"},{"bike_id":"7a430a80-7c96-4eb8-999b-0e948102a2ac","system_id":"levelo_inurba_marseille","lat":43.309047,"lon":5.396551,"is_reserved":false,"is_disabled":false,"rental_uris":{"android":"levelo://app?vid=7a430a80-7c96-4eb8-999b-0e948102a2ac","ios":"levelo://app?vid=7a430a80-7c96-4eb8-999b-0e948102a2ac"},"vehicle_type_id":"4","last_reported":1720631220,"current_range_meters":0,"station_id":"ce4bh012rcd13ifvqcv0","pricing_plan_id":"cebpf4jnsgd1na2vs0mg"},{"bike_id":"8000f79e-a4de-43cb-889d-5829e6b54cae","system_id":"levelo_inurba_marseille","lat":43.291994,"lon":5.357886,"is_reserved":false,"is_disabled":false,"rental_uris":{"android":"levelo://app?vid=8000f79e-a4de-43cb-889d-5829e6b54cae","ios":"levelo://app?vid=8000f79e-a4de-43cb-889d-5829e6b54cae"},"vehicle_type_id":"4","last_reported":1720631220,"current_range_meters":2800,"station_id":"ce4bhb12rcd13ifvqel0","pricing_plan_id":"cebpf4jnsgd1na2vs0mg"},{"bike_id":"c1395945-5523-4cd6-9750-e01e40ea2cd6","system_id":"levelo_inurba_marseille","lat":43.313291,"lon":5.396838,"is_reserved":false,"is_disabled":false,"rental_uris":{"android":"levelo://app?vid=c1395945-5523-4cd6-9750-e01e40ea2cd6","ios":"levelo://app?vid=c1395945-5523-4cd6-9750-e01e40ea2cd6"},"vehicle_type_id":"4","last_reported":1720631220,"current_range_meters":14800,"station_id":"ce4bgvp2rcd13ifvqcu0","pricing_plan_id":"cebpf4jnsgd1na2vs0mg"},{"bike_id":"a2bbc359-ee12-49b9-9aef-e9a825d442d9","system_id":"levelo_inurba_marseille","lat":43.309047,"lon":5.396551,"is_reserved":false,"is_disabled":false,"rental_uris":{"android":"levelo://app?vid=a2bbc359-ee12-49b9-9aef-e9a825d442d9","ios":"levelo://app?vid=a2bbc359-ee12-49b9-9aef-e9a825d442d9"},"vehicle_type_id":"4","last_reported":1720631220,"current_range_meters":23200,"station_id":"ce4bh012rcd13ifvqcv0","pricing_plan_id":"cebpf4jnsgd1na2vs0mg"},{"bike_id":"f1212fa8-874c-4f43-bb39-ff1a7c87abf7","system_id":"levelo_inurba_marseille","lat":43.309038,"lon":5.396546,"is_reserved":false,"is_disabled":false,"rental_uris":{"android":"levelo://app?vid=f1212fa8-874c-4f43-bb39-ff1a7c87abf7","ios":"levelo://app?vid=f1212fa8-874c-4f43-bb39-ff1a7c87abf7"},"vehicle_type_id":"4","last_reported":1720631220,"current_range_meters":12400,"station_id":"ce4bh012rcd13ifvqcv0","pricing_plan_id":"cebpf4jnsgd1na2vs0mg"},{"bike_id":"a8540c09-cc5f-416a-9f16-cac22b514cc2","system_id":"levelo_inurba_marseille","lat":43.290624,"lon":5.359245,"is_reserved":false,"is_disabled":false,"rental_uris":{"android":"levelo://app?vid=a8540c09-cc5f-416a-9f16-cac22b514cc2","ios":"levelo://app?vid=a8540c09-cc5f-416a-9f16-cac22b514cc2"},"vehicle_type_id":"4","last_reported":1720631220,"current_range_meters":22000,"station_id":"ce4bha92rcd13ifvqeg0","pricing_plan_id":"cebpf4jnsgd1na2vs0mg"},{"bike_id":"0aa6eb67-77ed-4aa2-baf6-ec1406a5eefe","system_id":"levelo_inurba_marseille","lat":43.29418,"lon":5.38624,"is_reserved":false,"is_disabled":false,"rental_uris":{"android":"levelo://app?vid=0aa6eb67-77ed-4aa2-baf6-ec1406a5eefe","ios":"levelo://app?vid=0aa6eb67-77ed-4aa2-baf6-ec1406a5eefe"},"vehicle_type_id":"4","last_reported":1720631220,"current_range_meters":30400,"station_id":"ce4bh2h2rcd13ifvqdh0","pricing_plan_id":"cebpf4jnsgd1na2vs0mg"},{"bike_id":"6e312cd8-b088-4df0-be06-d83f1e09ea00","system_id":"levelo_inurba_marseille","lat":43.29416,"lon":5.38623,"is_reserved":false,"is_disabled":false,"rental_uris":{"android":"levelo://app?vid=6e312cd8-b088-4df0-be06-d83f1e09ea00","ios":"levelo://app?vid=6e312cd8-b088-4df0-be06-d83f1e09ea00"},"vehicle_type_id":"4","last_reported":1720631220,"current_range_meters":0,"station_id":"ce4bh2h2rcd13ifvqdh0","pricing_plan_id":"cebpf4jnsgd1na2vs0mg"},{"bike_id":"4a4362e1-de17-4bf2-ab24-5f6b6a7c8a31","system_id":"levelo_inurba_marseille","lat":43.2941,"lon":5.38626,"is_reserved":false,"is_disabled":false,"rental_uris":{"android":"levelo://app?vid=4a4362e1-de17-4bf2-ab24-5f6b6a7c8a31","ios":"levelo://app?vid=4a4362e1-de17-4bf2-ab24-5f6b6a7c8a31"},"vehicle_type_id":"4","last_reported":1720631220,"current_range_meters":30800,"station_id":"ce4bh2h2rcd13ifvqdh0","pricing_plan_id":"cebpf4jnsgd1na2vs0mg"},{"bike_id":"a788c4a5-2792-41e4-9fbe-3f17a33df63a","system_id":"levelo_inurba_marseille","lat":43.289468,"lon":5.363719,"is_reserved":false,"is_disabled":false,"rental_uris":{"android":"levelo://app?vid=a788c4a5-2792-41e4-9fbe-3f17a33df63a","ios":"levelo://app?vid=a788c4a5-2792-41e4-9fbe-3f17a33df63a"},"vehicle_type_id":"4","last_reported":1720631220,"current_range_meters":10000,"station_id":"ce4bhc92rcd13ifvqetg","pricing_plan_id":"cebpf4jnsgd1na2vs0mg"},{"bike_id":"7b652415-0e19-4a09-9b97-de8d66e4592d","system_id":"levelo_inurba_marseille","lat":43.29512,"lon":5.38881,"is_reserved":false,"is_disabled":false,"rental_uris":{"android":"levelo://app?vid=7b652415-0e19-4a09-9b97-de8d66e4592d","ios":"levelo://app?vid=7b652415-0e19-4a09-9b97-de8d66e4592d"},"vehicle_type_id":"4","last_reported":1720631220,"current_range_meters":28400,"station_id":"","pricing_plan_id":"cebpf4jnsgd1na2vs0mg"},{"bike_id":"98db2d4c-8170-46f4-a6af-c44c9376f446","system_id":"levelo_inurba_marseille","lat":43.29261,"lon":5.38445,"is_reserved":false,"is_disabled":false,"rental_uris":{"android":"levelo://app?vid=98db2d4c-8170-46f4-a6af-c44c9376f446","ios":"levelo://app?vid=98db2d4c-8170-46f4-a6af-c44c9376f446"},"vehicle_type_id":"4","last_reported":1720631220,"current_range_meters":0,"station_id":"ce4bh692rcd13ifvqea0","pricing_plan_id":"cebpf4jnsgd1na2vs0mg"},{"bike_id":"5866e632-7838-440f-9925-22e11fdd3b80","system_id":"levelo_inurba_marseille","lat":43.29006,"lon":5.35609,"is_reserved":false,"is_disabled":false,"rental_uris":{"android":"levelo://app?vid=5866e632-7838-440f-9925-22e11fdd3b80","ios":"levelo://app?vid=5866e632-7838-440f-9925-22e11fdd3b80"},"vehicle_type_id":"4","last_reported":1720631220,"current_range_meters":11600,"station_id":"ce4bhb92rcd13ifvqen0","pricing_plan_id":"cebpf4jnsgd1na2vs0mg"},{"bike_id":"6d2780c8-beaf-4030-9a2c-a8e93dccc99e","system_id":"levelo_inurba_marseille","lat":43.290104,"lon":5.356111,"is_reserved":false,"is_disabled":false,"rental_uris":{"android":"levelo://app?vid=6d2780c8-beaf-4030-9a2c-a8e93dccc99e","ios":"levelo://app?vid=6d2780c8-beaf-4030-9a2c-a8e93dccc99e"},"vehicle_type_id":"4","last_reported":1720631220,"current_range_meters":0,"station_id":"ce4bhb92rcd13ifvqen0","pricing_plan_id":"cebpf4jnsgd1na2vs0mg"},{"bike_id":"e49d9b32-4024-4e78-8781-42db40dc484d","system_id":"levelo_inurba_marseille","lat":43.29001,"lon":5.35617,"is_reserved":false,"is_disabled":false,"rental_uris":{"android":"levelo://app?vid=e49d9b32-4024-4e78-8781-42db40dc484d","ios":"levelo://app?vid=e49d9b32-4024-4e78-8781-42db40dc484d"},"vehicle_type_id":"4","last_reported":1720631220,"current_range_meters":14000,"station_id":"ce4bgi92rcd13ifvqb90","pricing_plan_id":"cebpf4jnsgd1na2vs0mg"},{"bike_id":"ec56a92a-e526-4df8-995e-c06adc2b5798","system_id":"levelo_inurba_marseille","lat":43.290104,"lon":5.356111,"is_reserved":false,"is_disabled":false,"rental_uris":{"android":"levelo://app?vid=ec56a92a-e526-4df8-995e-c06adc2b5798","ios":"levelo://app?vid=ec56a92a-e526-4df8-995e-c06adc2b5798"},"vehicle_type_id":"4","last_reported":1720631220,"current_range_meters":0,"station_id":"ce4bhb92rcd13ifvqen0","pricing_plan_id":"cebpf4jnsgd1na2vs0mg"},{"bike_id":"06f3392a-6fc2-42c6-9928-be10c96da642","system_id":"levelo_inurba_marseille","lat":43.290027,"lon":5.35606,"is_reserved":false,"is_disabled":false,"rental_uris":{"android":"levelo://app?vid=06f3392a-6fc2-42c6-9928-be10c96da642","ios":"levelo://app?vid=06f3392a-6fc2-42c6-9928-be10c96da642"},"vehicle_type_id":"4","last_reported":1720631220,"current_range_meters":6400,"station_id":"ce4bhb92rcd13ifvqen0","pricing_plan_id":"cebpf4jnsgd1na2vs0mg"},{"bike_id":"402e1c29-b34d-4ed7-aa25-23f226ba9eb5","system_id":"levelo_inurba_marseille","lat":43.290031,"lon":5.378263,"is_reserved":false,"is_disabled":false,"rental_uris":{"android":"levelo://app?vid=402e1c29-b34d-4ed7-aa25-23f226ba9eb5","ios":"levelo://app?vid=402e1c29-b34d-4ed7-aa25-23f226ba9eb5"},"vehicle_type_id":"4","last_reported":1720631220,"current_range_meters":0,"station_id":"ce4bhgp2rcd13ifvqfe0","pricing_plan_id":"cebpf4jnsgd1na2vs0mg"},{"bike_id":"da91ffba-9667-483e-bcaf-d0adff29c010","system_id":"levelo_inurba_marseille","lat":43.290995,"lon":5.381361,"is_reserved":false,"is_disabled":false,"rental_uris":{"android":"levelo://app?vid=da91ffba-9667-483e-bcaf-d0adff29c010","ios":"levelo://app?vid=da91ffba-9667-483e-bcaf-d0adff29c010"},"vehicle_type_id":"4","last_reported":1720631220,"current_range_meters":16000,"station_id":"ce4bh512rcd13ifvqe2g","pricing_plan_id":"cebpf4jnsgd1na2vs0mg"},{"bike_id":"7156f625-4c92-42d0-93fc-8bc6b173e269","system_id":"levelo_inurba_marseille","lat":43.289743,"lon":5.378304,"is_reserved":false,"is_disabled":false,"rental_uris":{"android":"levelo://app?vid=7156f625-4c92-42d0-93fc-8bc6b173e269","ios":"levelo://app?vid=7156f625-4c92-42d0-93fc-8bc6b173e269"},"vehicle_type_id":"4","last_reported":1720631220,"current_range_meters":0,"station_id":"ce4bh9p2rcd13ifvqed0","pricing_plan_id":"cebpf4jnsgd1na2vs0mg"},{"bike_id":"80de48d9-cc2e-45f1-9ad4-55651344ceed","system_id":"levelo_inurba_marseille","lat":43.33022,"lon":5.39043,"is_reserved":false,"is_disabled":false,"rental_uris":{"android":"levelo://app?vid=80de48d9-cc2e-45f1-9ad4-55651344ceed","ios":"levelo://app?vid=80de48d9-cc2e-45f1-9ad4-55651344ceed"},"vehicle_type_id":"4","last_reported":1720631220,"current_range_meters":0,"station_id":"ce4bhr92rcd13ifvqhrg","pricing_plan_id":"cebpf4jnsgd1na2vs0mg"},{"bike_id":"4921a454-0874-4297-9e70-006d83e5c906","system_id":"levelo_inurba_marseille","lat":43.31072,"lon":5.40096,"is_reserved":false,"is_disabled":false,"rental_uris":{"android":"levelo://app?vid=4921a454-0874-4297-9e70-006d83e5c906","ios":"levelo://app?vid=4921a454-0874-4297-9e70-006d83e5c906"},"vehicle_type_id":"4","last_reported":1720631220,"current_range_meters":30400,"station_id":"","pricing_plan_id":"cebpf4jnsgd1na2vs0mg"},{"bike_id":"f281698e-15c5-41ea-9c8f-3c89bb998571","system_id":"levelo_inurba_marseille","lat":43.28856,"lon":5.358371,"is_reserved":false,"is_disabled":false,"rental_uris":{"android":"levelo://app?vid=f281698e-15c5-41ea-9c8f-3c89bb998571","ios":"levelo://app?vid=f281698e-15c5-41ea-9c8f-3c89bb998571"},"vehicle_type_id":"4","last_reported":1720631220,"current_range_meters":31600,"station_id":"ce4bhb12rcd13ifvqem0","pricing_plan_id":"cebpf4jnsgd1na2vs0mg"},{"bike_id":"018ca3c8-f444-4fe1-b415-8bad5f7ad5f0","system_id":"levelo_inurba_marseille","lat":43.28856,"lon":5.358371,"is_reserved":false,"is_disabled":false,"rental_uris":{"android":"levelo://app?vid=018ca3c8-f444-4fe1-b415-8bad5f7ad5f0","ios":"levelo://app?vid=018ca3c8-f444-4fe1-b415-8bad5f7ad5f0"},"vehicle_type_id":"4","last_reported":1720631220,"current_range_meters":18800,"station_id":"ce4bhb12rcd13ifvqem0","pricing_plan_id":"cebpf4jnsgd1na2vs0mg"},{"bike_id":"dcf4f783-b7c4-46f1-a067-c2aa0614b726","system_id":"levelo_inurba_marseille","lat":43.28856,"lon":5.358371,"is_reserved":false,"is_disabled":false,"rental_uris":{"android":"levelo://app?vid=dcf4f783-b7c4-46f1-a067-c2aa0614b726","ios":"levelo://app?vid=dcf4f783-b7c4-46f1-a067-c2aa0614b726"},"vehicle_type_id":"4","last_reported":1720631220,"current_range_meters":16800,"station_id":"ce4bhb12rcd13ifvqem0","pricing_plan_id":"cebpf4jnsgd1na2vs0mg"},{"bike_id":"1b03c6ce-4fa8-4789-8789-a0795f519dfe","system_id":"levelo_inurba_marseille","lat":43.28856,"lon":5.358371,"is_reserved":false,"is_disabled":false,"rental_uris":{"android":"levelo://app?vid=1b03c6ce-4fa8-4789-8789-a0795f519dfe","ios":"levelo://app?vid=1b03c6ce-4fa8-4789-8789-a0795f519dfe"},"vehicle_type_id":"4","last_reported":1720631220,"current_range_meters":30400,"station_id":"ce4bhb12rcd13ifvqem0","pricing_plan_id":"cebpf4jnsgd1na2vs0mg"},{"bike_id":"b6954197-01d2-4d77-88d4-e5c3de2d118d","system_id":"levelo_inurba_marseille","lat":43.28856,"lon":5.358371,"is_reserved":false,"is_disabled":false,"rental_uris":{"android":"levelo://app?vid=b6954197-01d2-4d77-88d4-e5c3de2d118d","ios":"levelo://app?vid=b6954197-01d2-4d77-88d4-e5c3de2d118d"},"vehicle_type_id":"4","last_reported":1720631220,"current_range_meters":0,"station_id":"ce4bhb12rcd13ifvqem0","pricing_plan_id":"cebpf4jnsgd1na2vs0mg"},{"bike_id":"3ee5cc6c-ce81-4c6d-9276-58dc0fc9fc4c","system_id":"levelo_inurba_marseille","lat":43.28856,"lon":5.358371,"is_reserved":false,"is_disabled":false,"rental_uris":{"android":"levelo://app?vid=3ee5cc6c-ce81-4c6d-9276-58dc0fc9fc4c","ios":"levelo://app?vid=3ee5cc6c-ce81-4c6d-9276-58dc0fc9fc4c"},"vehicle_type_id":"4","last_reported":1720631220,"current_range_meters":31200,"station_id":"ce4bhb12rcd13ifvqem0","pricing_plan_id":"cebpf4jnsgd1na2vs0mg"},{"bike_id":"b2ced3f6-be8d-4fd5-bb5e-1b1542429136","system_id":"levelo_inurba_marseille","lat":43.298037,"lon":5.381066,"is_reserved":false,"is_disabled":false,"rental_uris":{"android":"levelo://app?vid=b2ced3f6-be8d-4fd5-bb5e-1b1542429136","ios":"levelo://app?vid=b2ced3f6-be8d-4fd5-bb5e-1b1542429136"},"vehicle_type_id":"4","last_reported":1720631220,"current_range_meters":16000,"station_id":"ce4bgip2rcd13ifvqbb0","pricing_plan_id":"cebpf4jnsgd1na2vs0mg"},{"bike_id":"882430bc-7dcf-4f6c-b066-c0aa0470d819","system_id":"levelo_inurba_marseille","lat":43.33745,"lon":5.37456,"is_reserved":false,"is_disabled":false,"rental_uris":{"android":"levelo://app?vid=882430bc-7dcf-4f6c-b066-c0aa0470d819","ios":"levelo://app?vid=882430bc-7dcf-4f6c-b066-c0aa0470d819"},"vehicle_type_id":"4","last_reported":1720631220,"current_range_meters":10800,"station_id":"","pricing_plan_id":"cebpf4jnsgd1na2vs0mg"},{"bike_id":"e9df3164-c6df-48e3-a184-a32ef3473ac8","system_id":"levelo_inurba_marseille","lat":43.309371,"lon":5.401449,"is_reserved":false,"is_disabled":false,"rental_uris":{"android":"levelo://app?vid=e9df3164-c6df-48e3-a184-a32ef3473ac8","ios":"levelo://app?vid=e9df3164-c6df-48e3-a184-a32ef3473ac8"},"vehicle_type_id":"4","last_reported":1720631220,"current_range_meters":0,"station_id":"ce4bgvp2rcd13ifvqct0","pricing_plan_id":"cebpf4jnsgd1na2vs0mg"},{"bike_id":"d75e0188-26d0-43e4-b616-6321688cb7bc","system_id":"levelo_inurba_marseille","lat":43.33756,"lon":5.37454,"is_reserved":false,"is_disabled":false,"rental_uris":{"android":"levelo://app?vid=d75e0188-26d0-43e4-b616-6321688cb7bc","ios":"levelo://app?vid=d75e0188-26d0-43e4-b616-6321688cb7bc"},"vehicle_type_id":"4","last_reported":1720631220,"current_range_meters":22800,"station_id":"","pricing_plan_id":"cebpf4jnsgd1na2vs0mg"},{"bike_id":"ff209a93-70fc-4906-b500-6ed1a9cde8f9","system_id":"levelo_inurba_marseille","lat":43.337645,"lon":5.374338,"is_reserved":false,"is_disabled":false,"rental_uris":{"android":"levelo://app?vid=ff209a93-70fc-4906-b500-6ed1a9cde8f9","ios":"levelo://app?vid=ff209a93-70fc-4906-b500-6ed1a9cde8f9"},"vehicle_type_id":"4","last_reported":1720631220,"current_range_meters":15600,"station_id":"","pricing_plan_id":"cebpf4jnsgd1na2vs0mg"},{"bike_id":"7f5e8b40-6f2f-4173-8f3b-49740d847f81","system_id":"levelo_inurba_marseille","lat":43.3377,"lon":5.37427,"is_reserved":false,"is_disabled":false,"rental_uris":{"android":"levelo://app?vid=7f5e8b40-6f2f-4173-8f3b-49740d847f81","ios":"levelo://app?vid=7f5e8b40-6f2f-4173-8f3b-49740d847f81"},"vehicle_type_id":"4","last_reported":1720631220,"current_range_meters":25200,"station_id":"","pricing_plan_id":"cebpf4jnsgd1na2vs0mg"},{"bike_id":"d580294d-55ab-4f86-b7fb-931e1810aedf","system_id":"levelo_inurba_marseille","lat":43.3014,"lon":5.39856,"is_reserved":false,"is_disabled":false,"rental_uris":{"android":"levelo://app?vid=d580294d-55ab-4f86-b7fb-931e1810aedf","ios":"levelo://app?vid=d580294d-55ab-4f86-b7fb-931e1810aedf"},"vehicle_type_id":"4","last_reported":1720631220,"current_range_meters":0,"station_id":"ce4bh0h2rcd13ifvqd40","pricing_plan_id":"cebpf4jnsgd1na2vs0mg"},{"bike_id":"b06a9b0a-4557-44f3-951f-079e6d2a30ed","system_id":"levelo_inurba_marseille","lat":43.30137,"lon":5.39854,"is_reserved":false,"is_disabled":false,"rental_uris":{"android":"levelo://app?vid=b06a9b0a-4557-44f3-951f-079e6d2a30ed","ios":"levelo://app?vid=b06a9b0a-4557-44f3-951f-079e6d2a30ed"},"vehicle_type_id":"4","last_reported":1720631220,"current_range_meters":0,"station_id":"ce4bh0h2rcd13ifvqd40","pricing_plan_id":"cebpf4jnsgd1na2vs0mg"},{"bike_id":"53eeb53a-301b-4176-9df5-89b87969e8e2","system_id":"levelo_inurba_marseille","lat":43.301117,"lon":5.398795,"is_reserved":false,"is_disabled":false,"rental_uris":{"android":"levelo://app?vid=53eeb53a-301b-4176-9df5-89b87969e8e2","ios":"levelo://app?vid=53eeb53a-301b-4176-9df5-89b87969e8e2"},"vehicle_type_id":"4","last_reported":1720631220,"current_range_meters":2400,"station_id":"ce4bh0h2rcd13ifvqd40","pricing_plan_id":"cebpf4jnsgd1na2vs0mg"},{"bike_id":"1c6c9332-daf8-403d-bdd2-77e40d60d6e0","system_id":"levelo_inurba_marseille","lat":43.28727,"lon":5.36078,"is_reserved":false,"is_disabled":false,"rental_uris":{"android":"levelo://app?vid=1c6c9332-daf8-403d-bdd2-77e40d60d6e0","ios":"levelo://app?vid=1c6c9332-daf8-403d-bdd2-77e40d60d6e0"},"vehicle_type_id":"4","last_reported":1720631220,"current_range_meters":0,"station_id":"cki0cbj6b192h4jlfktg","pricing_plan_id":"cebpf4jnsgd1na2vs0mg"},{"bike_id":"ac234dfc-10aa-43c7-8fbf-294ed7485ee3","system_id":"levelo_inurba_marseille","lat":43.286628,"lon":5.363463,"is_reserved":false,"is_disabled":false,"rental_uris":{"android":"levelo://app?vid=ac234dfc-10aa-43c7-8fbf-294ed7485ee3","ios":"levelo://app?vid=ac234dfc-10aa-43c7-8fbf-294ed7485ee3"},"vehicle_type_id":"4","last_reported":1720631220,"current_range_meters":0,"station_id":"ce4bhah2rcd13ifvqej0","pricing_plan_id":"cebpf4jnsgd1na2vs0mg"},{"bike_id":"b9ac063c-7c31-4518-b88f-e866cd0a7e54","system_id":"levelo_inurba_marseille","lat":43.28658,"lon":5.36351,"is_reserved":false,"is_disabled":false,"rental_uris":{"android":"levelo://app?vid=b9ac063c-7c31-4518-b88f-e866cd0a7e54","ios":"levelo://app?vid=b9ac063c-7c31-4518-b88f-e866cd0a7e54"},"vehicle_type_id":"4","last_reported":1720631220,"current_range_meters":0,"station_id":"ce4bhah2rcd13ifvqej0","pricing_plan_id":"cebpf4jnsgd1na2vs0mg"},{"bike_id":"4fd7fe06-1465-491e-a062-c21b60f48c42","system_id":"levelo_inurba_marseille","lat":43.286961,"lon":5.373785,"is_reserved":false,"is_disabled":false,"rental_uris":{"android":"levelo://app?vid=4fd7fe06-1465-491e-a062-c21b60f48c42","ios":"levelo://app?vid=4fd7fe06-1465-491e-a062-c21b60f48c42"},"vehicle_type_id":"4","last_reported":1720631220,"current_range_meters":29600,"station_id":"ce4bh3p2rcd13ifvqdq0","pricing_plan_id":"cebpf4jnsgd1na2vs0mg"},{"bike_id":"13ddc323-4e04-4b1a-904f-0cd451eec177","system_id":"levelo_inurba_marseille","lat":43.286961,"lon":5.373785,"is_reserved":false,"is_disabled":false,"rental_uris":{"android":"levelo://app?vid=13ddc323-4e04-4b1a-904f-0cd451eec177","ios":"levelo://app?vid=13ddc323-4e04-4b1a-904f-0cd451eec177"},"vehicle_type_id":"4","last_reported":1720631220,"current_range_meters":0,"station_id":"ce4bh3p2rcd13ifvqdq0","pricing_plan_id":"cebpf4jnsgd1na2vs0mg"},{"bike_id":"ec78d3eb-df54-4726-9789-ca28989383bb","system_id":"levelo_inurba_marseille","lat":43.290336,"lon":5.386425,"is_reserved":false,"is_disabled":false,"rental_uris":{"android":"levelo://app?vid=ec78d3eb-df54-4726-9789-ca28989383bb","ios":"levelo://app?vid=ec78d3eb-df54-4726-9789-ca28989383bb"},"vehicle_type_id":"4","last_reported":1720631220,"current_range_meters":16400,"station_id":"ce4bh4p2rcd13ifvqe0g","pricing_plan_id":"cebpf4jnsgd1na2vs0mg"},{"bike_id":"689c05fa-85e9-4ebb-9d5d-148ff5e9c5d1","system_id":"levelo_inurba_marseille","lat":43.28929,"lon":5.384,"is_reserved":false,"is_disabled":false,"rental_uris":{"android":"levelo://app?vid=689c05fa-85e9-4ebb-9d5d-148ff5e9c5d1","ios":"levelo://app?vid=689c05fa-85e9-4ebb-9d5d-148ff5e9c5d1"},"vehicle_type_id":"4","last_reported":1720631220,"current_range_meters":0,"station_id":"ce4bh612rcd13ifvqe6g","pricing_plan_id":"cebpf4jnsgd1na2vs0mg"},{"bike_id":"d2141802-3919-4db5-8bea-9f4087627cb9","system_id":"levelo_inurba_marseille","lat":43.290336,"lon":5.386425,"is_reserved":false,"is_disabled":false,"rental_uris":{"android":"levelo://app?vid=d2141802-3919-4db5-8bea-9f4087627cb9","ios":"levelo://app?vid=d2141802-3919-4db5-8bea-9f4087627cb9"},"vehicle_type_id":"4","last_reported":1720631220,"current_range_meters":0,"station_id":"ce4bh4p2rcd13ifvqe0g","pricing_plan_id":"cebpf4jnsgd1na2vs0mg"},{"bike_id":"995733c1-9268-42f9-be5c-a8afc07fcb03","system_id":"levelo_inurba_marseille","lat":43.28923,"lon":5.38396,"is_reserved":false,"is_disabled":false,"rental_uris":{"android":"levelo://app?vid=995733c1-9268-42f9-be5c-a8afc07fcb03","ios":"levelo://app?vid=995733c1-9268-42f9-be5c-a8afc07fcb03"},"vehicle_type_id":"4","last_reported":1720631220,"current_range_meters":0,"station_id":"ce4bh612rcd13ifvqe6g","pricing_plan_id":"cebpf4jnsgd1na2vs0mg"},{"bike_id":"52ac643b-27dd-47b4-ba92-5c24a6c92ce7","system_id":"levelo_inurba_marseille","lat":43.302759,"lon":5.400793,"is_reserved":false,"is_disabled":false,"rental_uris":{"android":"levelo://app?vid=52ac643b-27dd-47b4-ba92-5c24a6c92ce7","ios":"levelo://app?vid=52ac643b-27dd-47b4-ba92-5c24a6c92ce7"},"vehicle_type_id":"4","last_reported":1720631220,"current_range_meters":0,"station_id":"ce4bgvh2rcd13ifvqcs0","pricing_plan_id":"cebpf4jnsgd1na2vs0mg"},{"bike_id":"9173af09-42d1-4cec-a5dc-80a147356f9c","system_id":"levelo_inurba_marseille","lat":43.302759,"lon":5.400793,"is_reserved":false,"is_disabled":false,"rental_uris":{"android":"levelo://app?vid=9173af09-42d1-4cec-a5dc-80a147356f9c","ios":"levelo://app?vid=9173af09-42d1-4cec-a5dc-80a147356f9c"},"vehicle_type_id":"4","last_reported":1720631220,"current_range_meters":12000,"station_id":"ce4bgvh2rcd13ifvqcs0","pricing_plan_id":"cebpf4jnsgd1na2vs0mg"},{"bike_id":"d7b6ca11-6fd3-41e4-b22f-4bee2cc311f2","system_id":"levelo_inurba_marseille","lat":43.312055,"lon":5.403589,"is_reserved":false,"is_disabled":false,"rental_uris":{"android":"levelo://app?vid=d7b6ca11-6fd3-41e4-b22f-4bee2cc311f2","ios":"levelo://app?vid=d7b6ca11-6fd3-41e4-b22f-4bee2cc311f2"},"vehicle_type_id":"4","last_reported":1720631220,"current_range_meters":0,"station_id":"","pricing_plan_id":"cebpf4jnsgd1na2vs0mg"},{"bike_id":"7679b4f9-a2b6-40bd-b7f8-9c194040be08","system_id":"levelo_inurba_marseille","lat":43.28912,"lon":5.38424,"is_reserved":false,"is_disabled":false,"rental_uris":{"android":"levelo://app?vid=7679b4f9-a2b6-40bd-b7f8-9c194040be08","ios":"levelo://app?vid=7679b4f9-a2b6-40bd-b7f8-9c194040be08"},"vehicle_type_id":"4","last_reported":1720631220,"current_range_meters":0,"station_id":"ce4bh612rcd13ifvqe6g","pricing_plan_id":"cebpf4jnsgd1na2vs0mg"},{"bike_id":"6ea732e9-0995-455e-9f4c-59fc64500b73","system_id":"levelo_inurba_marseille","lat":43.28611,"lon":5.37072,"is_reserved":false,"is_disabled":false,"rental_uris":{"android":"levelo://app?vid=6ea732e9-0995-455e-9f4c-59fc64500b73","ios":"levelo://app?vid=6ea732e9-0995-455e-9f4c-59fc64500b73"},"vehicle_type_id":"4","last_reported":1720631220,"current_range_meters":6400,"station_id":"","pricing_plan_id":"cebpf4jnsgd1na2vs0mg"},{"bike_id":"b9a3d040-c592-4d8b-9158-99a0c4548666","system_id":"levelo_inurba_marseille","lat":43.287184,"lon":5.37937,"is_reserved":false,"is_disabled":false,"rental_uris":{"android":"levelo://app?vid=b9a3d040-c592-4d8b-9158-99a0c4548666","ios":"levelo://app?vid=b9a3d040-c592-4d8b-9158-99a0c4548666"},"vehicle_type_id":"4","last_reported":1720631220,"current_range_meters":400,"station_id":"ce4bh9p2rcd13ifvqec0","pricing_plan_id":"cebpf4jnsgd1na2vs0mg"},{"bike_id":"1e52f798-ab4e-46d4-ba4a-08ec92e713e1","system_id":"levelo_inurba_marseille","lat":43.3182,"lon":5.40382,"is_reserved":false,"is_disabled":false,"rental_uris":{"android":"levelo://app?vid=1e52f798-ab4e-46d4-ba4a-08ec92e713e1","ios":"levelo://app?vid=1e52f798-ab4e-46d4-ba4a-08ec92e713e1"},"vehicle_type_id":"4","last_reported":1720631220,"current_range_meters":15600,"station_id":"","pricing_plan_id":"cebpf4jnsgd1na2vs0mg"},{"bike_id":"d4966466-2762-4242-89ea-5d4610d54c7d","system_id":"levelo_inurba_marseille","lat":43.291994,"lon":5.392907,"is_reserved":false,"is_disabled":false,"rental_uris":{"android":"levelo://app?vid=d4966466-2762-4242-89ea-5d4610d54c7d","ios":"levelo://app?vid=d4966466-2762-4242-89ea-5d4610d54c7d"},"vehicle_type_id":"4","last_reported":1720631220,"current_range_meters":31600,"station_id":"ce4bh192rcd13ifvqdd0","pricing_plan_id":"cebpf4jnsgd1na2vs0mg"},{"bike_id":"50c23212-8fb1-4d02-a0ef-c7e61b896ea2","system_id":"levelo_inurba_marseille","lat":43.30792,"lon":5.40549,"is_reserved":false,"is_disabled":false,"rental_uris":{"android":"levelo://app?vid=50c23212-8fb1-4d02-a0ef-c7e61b896ea2","ios":"levelo://app?vid=50c23212-8fb1-4d02-a0ef-c7e61b896ea2"},"vehicle_type_id":"4","last_reported":1720631220,"current_range_meters":9200,"station_id":"","pricing_plan_id":"cebpf4jnsgd1na2vs0mg"},{"bike_id":"a9b375d2-1cfd-4b68-9c6b-6043191f1bcb","system_id":"levelo_inurba_marseille","lat":43.284538,"lon":5.358657,"is_reserved":false,"is_disabled":false,"rental_uris":{"android":"levelo://app?vid=a9b375d2-1cfd-4b68-9c6b-6043191f1bcb","ios":"levelo://app?vid=a9b375d2-1cfd-4b68-9c6b-6043191f1bcb"},"vehicle_type_id":"4","last_reported":1720631220,"current_range_meters":13600,"station_id":"ce4bhah2rcd13ifvqei0","pricing_plan_id":"cebpf4jnsgd1na2vs0mg"},{"bike_id":"77211811-5fd5-4c65-b9b7-777fd4487e31","system_id":"levelo_inurba_marseille","lat":43.284538,"lon":5.358657,"is_reserved":false,"is_disabled":false,"rental_uris":{"android":"levelo://app?vid=77211811-5fd5-4c65-b9b7-777fd4487e31","ios":"levelo://app?vid=77211811-5fd5-4c65-b9b7-777fd4487e31"},"vehicle_type_id":"4","last_reported":1720631220,"current_range_meters":23600,"station_id":"ce4bhah2rcd13ifvqei0","pricing_plan_id":"cebpf4jnsgd1na2vs0mg"},{"bike_id":"3df4a243-2ad3-408b-bcd3-62c84d21978f","system_id":"levelo_inurba_marseille","lat":43.28461,"lon":5.35896,"is_reserved":false,"is_disabled":false,"rental_uris":{"android":"levelo://app?vid=3df4a243-2ad3-408b-bcd3-62c84d21978f","ios":"levelo://app?vid=3df4a243-2ad3-408b-bcd3-62c84d21978f"},"vehicle_type_id":"4","last_reported":1720631220,"current_range_meters":30800,"station_id":"ce4bhah2rcd13ifvqei0","pricing_plan_id":"cebpf4jnsgd1na2vs0mg"},{"bike_id":"fcc73e0a-e710-4478-a717-c5e00a7543fa","system_id":"levelo_inurba_marseille","lat":43.284612,"lon":5.358919,"is_reserved":false,"is_disabled":false,"rental_uris":{"android":"levelo://app?vid=fcc73e0a-e710-4478-a717-c5e00a7543fa","ios":"levelo://app?vid=fcc73e0a-e710-4478-a717-c5e00a7543fa"},"vehicle_type_id":"4","last_reported":1720631220,"current_range_meters":31600,"station_id":"ce4bhah2rcd13ifvqei0","pricing_plan_id":"cebpf4jnsgd1na2vs0mg"},{"bike_id":"360fdd89-02f6-4b0e-a994-4732c22b86cc","system_id":"levelo_inurba_marseille","lat":43.2846,"lon":5.35895,"is_reserved":false,"is_disabled":false,"rental_uris":{"android":"levelo://app?vid=360fdd89-02f6-4b0e-a994-4732c22b86cc","ios":"levelo://app?vid=360fdd89-02f6-4b0e-a994-4732c22b86cc"},"vehicle_type_id":"4","last_reported":1720631220,"current_range_meters":31200,"station_id":"ce4bhah2rcd13ifvqei0","pricing_plan_id":"cebpf4jnsgd1na2vs0mg"},{"bike_id":"02422f8f-dbb2-4e78-a14c-14070c1e5aeb","system_id":"levelo_inurba_marseille","lat":43.284538,"lon":5.358657,"is_reserved":false,"is_disabled":false,"rental_uris":{"android":"levelo://app?vid=02422f8f-dbb2-4e78-a14c-14070c1e5aeb","ios":"levelo://app?vid=02422f8f-dbb2-4e78-a14c-14070c1e5aeb"},"vehicle_type_id":"4","last_reported":1720631220,"current_range_meters":28400,"station_id":"ce4bhah2rcd13ifvqei0","pricing_plan_id":"cebpf4jnsgd1na2vs0mg"},{"bike_id":"1eecd21f-9b74-4148-a03f-7ff7ec3bad1c","system_id":"levelo_inurba_marseille","lat":43.29446,"lon":5.3974,"is_reserved":false,"is_disabled":false,"rental_uris":{"android":"levelo://app?vid=1eecd21f-9b74-4148-a03f-7ff7ec3bad1c","ios":"levelo://app?vid=1eecd21f-9b74-4148-a03f-7ff7ec3bad1c"},"vehicle_type_id":"4","last_reported":1720631220,"current_range_meters":0,"station_id":"ce4bh3h2rcd13ifvqdo0","pricing_plan_id":"cebpf4jnsgd1na2vs0mg"},{"bike_id":"4323a8f1-b562-4936-b9d1-0189b65670ff","system_id":"levelo_inurba_marseille","lat":43.284538,"lon":5.358657,"is_reserved":false,"is_disabled":false,"rental_uris":{"android":"levelo://app?vid=4323a8f1-b562-4936-b9d1-0189b65670ff","ios":"levelo://app?vid=4323a8f1-b562-4936-b9d1-0189b65670ff"},"vehicle_type_id":"4","last_reported":1720631220,"current_range_meters":4800,"station_id":"ce4bhah2rcd13ifvqei0","pricing_plan_id":"cebpf4jnsgd1na2vs0mg"},{"bike_id":"13fed170-6e40-438f-8c5c-d30d218bb964","system_id":"levelo_inurba_marseille","lat":43.284538,"lon":5.358657,"is_reserved":false,"is_disabled":false,"rental_uris":{"android":"levelo://app?vid=13fed170-6e40-438f-8c5c-d30d218bb964","ios":"levelo://app?vid=13fed170-6e40-438f-8c5c-d30d218bb964"},"vehicle_type_id":"4","last_reported":1720631220,"current_range_meters":2000,"station_id":"ce4bhah2rcd13ifvqei0","pricing_plan_id":"cebpf4jnsgd1na2vs0mg"},{"bike_id":"57fe2f99-7a45-47e0-915d-8116aea94d04","system_id":"levelo_inurba_marseille","lat":43.284538,"lon":5.358657,"is_reserved":false,"is_disabled":false,"rental_uris":{"android":"levelo://app?vid=57fe2f99-7a45-47e0-915d-8116aea94d04","ios":"levelo://app?vid=57fe2f99-7a45-47e0-915d-8116aea94d04"},"vehicle_type_id":"4","last_reported":1720631220,"current_range_meters":4400,"station_id":"ce4bhah2rcd13ifvqei0","pricing_plan_id":"cebpf4jnsgd1na2vs0mg"},{"bike_id":"ead40c91-b654-473f-ba49-c30d5268900b","system_id":"levelo_inurba_marseille","lat":43.294314,"lon":5.397498,"is_reserved":false,"is_disabled":false,"rental_uris":{"android":"levelo://app?vid=ead40c91-b654-473f-ba49-c30d5268900b","ios":"levelo://app?vid=ead40c91-b654-473f-ba49-c30d5268900b"},"vehicle_type_id":"4","last_reported":1720631220,"current_range_meters":27600,"station_id":"ce4bh3h2rcd13ifvqdo0","pricing_plan_id":"cebpf4jnsgd1na2vs0mg"},{"bike_id":"3e971ae7-17d3-40ab-9d22-ba22d7edc60b","system_id":"levelo_inurba_marseille","lat":43.28623,"lon":5.35104,"is_reserved":false,"is_disabled":false,"rental_uris":{"android":"levelo://app?vid=3e971ae7-17d3-40ab-9d22-ba22d7edc60b","ios":"levelo://app?vid=3e971ae7-17d3-40ab-9d22-ba22d7edc60b"},"vehicle_type_id":"4","last_reported":1720631220,"current_range_meters":6400,"station_id":"ce4bhch2rcd13ifvqeug","pricing_plan_id":"cebpf4jnsgd1na2vs0mg"},{"bike_id":"9e42959c-2323-4062-8099-e971d460101f","system_id":"levelo_inurba_marseille","lat":43.2862,"lon":5.35109,"is_reserved":false,"is_disabled":false,"rental_uris":{"android":"levelo://app?vid=9e42959c-2323-4062-8099-e971d460101f","ios":"levelo://app?vid=9e42959c-2323-4062-8099-e971d460101f"},"vehicle_type_id":"4","last_reported":1720631220,"current_range_meters":3200,"station_id":"ce4bhch2rcd13ifvqeug","pricing_plan_id":"cebpf4jnsgd1na2vs0mg"},{"bike_id":"cfdc16eb-8615-47e9-bf53-5072085b7a4a","system_id":"levelo_inurba_marseille","lat":43.28623,"lon":5.35099,"is_reserved":false,"is_disabled":false,"rental_uris":{"android":"levelo://app?vid=cfdc16eb-8615-47e9-bf53-5072085b7a4a","ios":"levelo://app?vid=cfdc16eb-8615-47e9-bf53-5072085b7a4a"},"vehicle_type_id":"4","last_reported":1720631220,"current_range_meters":28400,"station_id":"ce4bhch2rcd13ifvqeug","pricing_plan_id":"cebpf4jnsgd1na2vs0mg"},{"bike_id":"264ac401-4cd1-435e-ba78-68444da456e6","system_id":"levelo_inurba_marseille","lat":43.2862,"lon":5.35108,"is_reserved":false,"is_disabled":false,"rental_uris":{"android":"levelo://app?vid=264ac401-4cd1-435e-ba78-68444da456e6","ios":"levelo://app?vid=264ac401-4cd1-435e-ba78-68444da456e6"},"vehicle_type_id":"4","last_reported":1720631220,"current_range_meters":0,"station_id":"ce4bhch2rcd13ifvqeug","pricing_plan_id":"cebpf4jnsgd1na2vs0mg"},{"bike_id":"50c4c553-197d-4087-8abb-90219cbf0244","system_id":"levelo_inurba_marseille","lat":43.28618,"lon":5.35111,"is_reserved":false,"is_disabled":false,"rental_uris":{"android":"levelo://app?vid=50c4c553-197d-4087-8abb-90219cbf0244","ios":"levelo://app?vid=50c4c553-197d-4087-8abb-90219cbf0244"},"vehicle_type_id":"4","last_reported":1720631220,"current_range_meters":31200,"station_id":"ce4bhch2rcd13ifvqeug","pricing_plan_id":"cebpf4jnsgd1na2vs0mg"},{"bike_id":"12b147a8-0b16-4e11-8487-98c91e6bf253","system_id":"levelo_inurba_marseille","lat":43.28621,"lon":5.35101,"is_reserved":false,"is_disabled":false,"rental_uris":{"android":"levelo://app?vid=12b147a8-0b16-4e11-8487-98c91e6bf253","ios":"levelo://app?vid=12b147a8-0b16-4e11-8487-98c91e6bf253"},"vehicle_type_id":"4","last_reported":1720631220,"current_range_meters":17600,"station_id":"ce4bhch2rcd13ifvqeug","pricing_plan_id":"cebpf4jnsgd1na2vs0mg"},{"bike_id":"028d2665-d097-40c8-83d6-618b42cbb4ed","system_id":"levelo_inurba_marseille","lat":43.285848,"lon":5.350787,"is_reserved":false,"is_disabled":false,"rental_uris":{"android":"levelo://app?vid=028d2665-d097-40c8-83d6-618b42cbb4ed","ios":"levelo://app?vid=028d2665-d097-40c8-83d6-618b42cbb4ed"},"vehicle_type_id":"4","last_reported":1720631220,"current_range_meters":15600,"station_id":"ce4bhch2rcd13ifvqeug","pricing_plan_id":"cebpf4jnsgd1na2vs0mg"},{"bike_id":"bcba933e-c74a-4e58-805a-b76bde5815cd","system_id":"levelo_inurba_marseille","lat":43.285856,"lon":5.350771,"is_reserved":false,"is_disabled":false,"rental_uris":{"android":"levelo://app?vid=bcba933e-c74a-4e58-805a-b76bde5815cd","ios":"levelo://app?vid=bcba933e-c74a-4e58-805a-b76bde5815cd"},"vehicle_type_id":"4","last_reported":1720631220,"current_range_meters":14400,"station_id":"ce4bhch2rcd13ifvqeug","pricing_plan_id":"cebpf4jnsgd1na2vs0mg"},{"bike_id":"0a011e0d-d5b1-4e61-ae40-1abd1c0326eb","system_id":"levelo_inurba_marseille","lat":43.2862,"lon":5.35098,"is_reserved":false,"is_disabled":false,"rental_uris":{"android":"levelo://app?vid=0a011e0d-d5b1-4e61-ae40-1abd1c0326eb","ios":"levelo://app?vid=0a011e0d-d5b1-4e61-ae40-1abd1c0326eb"},"vehicle_type_id":"4","last_reported":1720631220,"current_range_meters":31200,"station_id":"ce4bhch2rcd13ifvqeug","pricing_plan_id":"cebpf4jnsgd1na2vs0mg"},{"bike_id":"23761f91-bc77-483d-9ed9-f652ff2624b7","system_id":"levelo_inurba_marseille","lat":43.285856,"lon":5.350771,"is_reserved":false,"is_disabled":false,"rental_uris":{"android":"levelo://app?vid=23761f91-bc77-483d-9ed9-f652ff2624b7","ios":"levelo://app?vid=23761f91-bc77-483d-9ed9-f652ff2624b7"},"vehicle_type_id":"4","last_reported":1720631220,"current_range_meters":28400,"station_id":"ce4bhch2rcd13ifvqeug","pricing_plan_id":"cebpf4jnsgd1na2vs0mg"},{"bike_id":"4e7f2ae9-35c4-4afa-85f8-c7c7e6f9c80a","system_id":"levelo_inurba_marseille","lat":43.285848,"lon":5.350787,"is_reserved":false,"is_disabled":false,"rental_uris":{"android":"levelo://app?vid=4e7f2ae9-35c4-4afa-85f8-c7c7e6f9c80a","ios":"levelo://app?vid=4e7f2ae9-35c4-4afa-85f8-c7c7e6f9c80a"},"vehicle_type_id":"4","last_reported":1720631220,"current_range_meters":0,"station_id":"ce4bhch2rcd13ifvqeug","pricing_plan_id":"cebpf4jnsgd1na2vs0mg"},{"bike_id":"188f8ef9-9c39-4e5e-9691-60d259915d86","system_id":"levelo_inurba_marseille","lat":43.285848,"lon":5.350787,"is_reserved":false,"is_disabled":false,"rental_uris":{"android":"levelo://app?vid=188f8ef9-9c39-4e5e-9691-60d259915d86","ios":"levelo://app?vid=188f8ef9-9c39-4e5e-9691-60d259915d86"},"vehicle_type_id":"4","last_reported":1720631220,"current_range_meters":0,"station_id":"ce4bhch2rcd13ifvqeug","pricing_plan_id":"cebpf4jnsgd1na2vs0mg"},{"bike_id":"78b3be3e-54d2-4de9-abc0-5e52f79a53e0","system_id":"levelo_inurba_marseille","lat":43.28617,"lon":5.35106,"is_reserved":false,"is_disabled":false,"rental_uris":{"android":"levelo://app?vid=78b3be3e-54d2-4de9-abc0-5e52f79a53e0","ios":"levelo://app?vid=78b3be3e-54d2-4de9-abc0-5e52f79a53e0"},"vehicle_type_id":"4","last_reported":1720631220,"current_range_meters":800,"station_id":"ce4bhch2rcd13ifvqeug","pricing_plan_id":"cebpf4jnsgd1na2vs0mg"},{"bike_id":"fb89b981-659e-4e15-94aa-c338a31caa78","system_id":"levelo_inurba_marseille","lat":43.28618,"lon":5.351,"is_reserved":false,"is_disabled":false,"rental_uris":{"android":"levelo://app?vid=fb89b981-659e-4e15-94aa-c338a31caa78","ios":"levelo://app?vid=fb89b981-659e-4e15-94aa-c338a31caa78"},"vehicle_type_id":"4","last_reported":1720631220,"current_range_meters":20800,"station_id":"ce4bhch2rcd13ifvqeug","pricing_plan_id":"cebpf4jnsgd1na2vs0mg"},{"bike_id":"d221ab95-7263-47e3-b723-ff0df104aae4","system_id":"levelo_inurba_marseille","lat":43.28619,"lon":5.35095,"is_reserved":false,"is_disabled":false,"rental_uris":{"android":"levelo://app?vid=d221ab95-7263-47e3-b723-ff0df104aae4","ios":"levelo://app?vid=d221ab95-7263-47e3-b723-ff0df104aae4"},"vehicle_type_id":"4","last_reported":1720631220,"current_range_meters":30800,"station_id":"ce4bhch2rcd13ifvqeug","pricing_plan_id":"cebpf4jnsgd1na2vs0mg"},{"bike_id":"e999341e-ee79-4e42-aaac-fc88501b4a92","system_id":"levelo_inurba_marseille","lat":43.285848,"lon":5.350787,"is_reserved":false,"is_disabled":false,"rental_uris":{"android":"levelo://app?vid=e999341e-ee79-4e42-aaac-fc88501b4a92","ios":"levelo://app?vid=e999341e-ee79-4e42-aaac-fc88501b4a92"},"vehicle_type_id":"4","last_reported":1720631220,"current_range_meters":8800,"station_id":"ce4bhch2rcd13ifvqeug","pricing_plan_id":"cebpf4jnsgd1na2vs0mg"},{"bike_id":"b1e3e0cf-f016-4029-aadc-968c0d0578fc","system_id":"levelo_inurba_marseille","lat":43.285848,"lon":5.350787,"is_reserved":false,"is_disabled":false,"rental_uris":{"android":"levelo://app?vid=b1e3e0cf-f016-4029-aadc-968c0d0578fc","ios":"levelo://app?vid=b1e3e0cf-f016-4029-aadc-968c0d0578fc"},"vehicle_type_id":"4","last_reported":1720631220,"current_range_meters":30000,"station_id":"ce4bhch2rcd13ifvqeug","pricing_plan_id":"cebpf4jnsgd1na2vs0mg"},{"bike_id":"65ed4905-09d0-412f-bc3f-8657dbf963d6","system_id":"levelo_inurba_marseille","lat":43.28616,"lon":5.35101,"is_reserved":false,"is_disabled":false,"rental_uris":{"android":"levelo://app?vid=65ed4905-09d0-412f-bc3f-8657dbf963d6","ios":"levelo://app?vid=65ed4905-09d0-412f-bc3f-8657dbf963d6"},"vehicle_type_id":"4","last_reported":1720631220,"current_range_meters":27200,"station_id":"ce4bhch2rcd13ifvqeug","pricing_plan_id":"cebpf4jnsgd1na2vs0mg"},{"bike_id":"ac6f9480-0cf3-47c7-a345-d0a5aad80463","system_id":"levelo_inurba_marseille","lat":43.28615,"lon":5.35103,"is_reserved":false,"is_disabled":false,"rental_uris":{"android":"levelo://app?vid=ac6f9480-0cf3-47c7-a345-d0a5aad80463","ios":"levelo://app?vid=ac6f9480-0cf3-47c7-a345-d0a5aad80463"},"vehicle_type_id":"4","last_reported":1720631220,"current_range_meters":17200,"station_id":"ce4bhch2rcd13ifvqeug","pricing_plan_id":"cebpf4jnsgd1na2vs0mg"},{"bike_id":"71039486-d71d-40b5-b8d0-d0bcf1f51a1d","system_id":"levelo_inurba_marseille","lat":43.28615,"lon":5.35103,"is_reserved":false,"is_disabled":false,"rental_uris":{"android":"levelo://app?vid=71039486-d71d-40b5-b8d0-d0bcf1f51a1d","ios":"levelo://app?vid=71039486-d71d-40b5-b8d0-d0bcf1f51a1d"},"vehicle_type_id":"4","last_reported":1720631220,"current_range_meters":16000,"station_id":"ce4bhch2rcd13ifvqeug","pricing_plan_id":"cebpf4jnsgd1na2vs0mg"},{"bike_id":"2b0bb0e6-154e-44a0-81e6-6b5e92642df5","system_id":"levelo_inurba_marseille","lat":43.285848,"lon":5.350787,"is_reserved":false,"is_disabled":false,"rental_uris":{"android":"levelo://app?vid=2b0bb0e6-154e-44a0-81e6-6b5e92642df5","ios":"levelo://app?vid=2b0bb0e6-154e-44a0-81e6-6b5e92642df5"},"vehicle_type_id":"4","last_reported":1720631220,"current_range_meters":21600,"station_id":"ce4bhch2rcd13ifvqeug","pricing_plan_id":"cebpf4jnsgd1na2vs0mg"},{"bike_id":"4d4aebba-b411-4120-b0a6-d3ddc035c8b6","system_id":"levelo_inurba_marseille","lat":43.28616,"lon":5.35096,"is_reserved":false,"is_disabled":false,"rental_uris":{"android":"levelo://app?vid=4d4aebba-b411-4120-b0a6-d3ddc035c8b6","ios":"levelo://app?vid=4d4aebba-b411-4120-b0a6-d3ddc035c8b6"},"vehicle_type_id":"4","last_reported":1720631220,"current_range_meters":31200,"station_id":"ce4bhch2rcd13ifvqeug","pricing_plan_id":"cebpf4jnsgd1na2vs0mg"},{"bike_id":"b9262af8-336b-4b1d-a683-708c305f437c","system_id":"levelo_inurba_marseille","lat":43.286143,"lon":5.351003,"is_reserved":false,"is_disabled":false,"rental_uris":{"android":"levelo://app?vid=b9262af8-336b-4b1d-a683-708c305f437c","ios":"levelo://app?vid=b9262af8-336b-4b1d-a683-708c305f437c"},"vehicle_type_id":"4","last_reported":1720631220,"current_range_meters":13600,"station_id":"ce4bhch2rcd13ifvqeug","pricing_plan_id":"cebpf4jnsgd1na2vs0mg"},{"bike_id":"a87e9d9d-4770-493f-9346-d1f836f57706","system_id":"levelo_inurba_marseille","lat":43.285856,"lon":5.350771,"is_reserved":false,"is_disabled":false,"rental_uris":{"android":"levelo://app?vid=a87e9d9d-4770-493f-9346-d1f836f57706","ios":"levelo://app?vid=a87e9d9d-4770-493f-9346-d1f836f57706"},"vehicle_type_id":"4","last_reported":1720631220,"current_range_meters":3200,"station_id":"ce4bhch2rcd13ifvqeug","pricing_plan_id":"cebpf4jnsgd1na2vs0mg"},{"bike_id":"044e2d25-3494-4039-a7c7-becdddb60424","system_id":"levelo_inurba_marseille","lat":43.28612,"lon":5.35107,"is_reserved":false,"is_disabled":false,"rental_uris":{"android":"levelo://app?vid=044e2d25-3494-4039-a7c7-becdddb60424","ios":"levelo://app?vid=044e2d25-3494-4039-a7c7-becdddb60424"},"vehicle_type_id":"4","last_reported":1720631220,"current_range_meters":7600,"station_id":"ce4bhch2rcd13ifvqeug","pricing_plan_id":"cebpf4jnsgd1na2vs0mg"},{"bike_id":"96370400-8b81-48e0-b523-533c53576c9e","system_id":"levelo_inurba_marseille","lat":43.28611,"lon":5.3511,"is_reserved":false,"is_disabled":false,"rental_uris":{"android":"levelo://app?vid=96370400-8b81-48e0-b523-533c53576c9e","ios":"levelo://app?vid=96370400-8b81-48e0-b523-533c53576c9e"},"vehicle_type_id":"4","last_reported":1720631220,"current_range_meters":20400,"station_id":"ce4bhch2rcd13ifvqeug","pricing_plan_id":"cebpf4jnsgd1na2vs0mg"},{"bike_id":"eabb4816-184f-46ec-b8f8-b989ad362fbf","system_id":"levelo_inurba_marseille","lat":43.286117,"lon":5.351057,"is_reserved":false,"is_disabled":false,"rental_uris":{"android":"levelo://app?vid=eabb4816-184f-46ec-b8f8-b989ad362fbf","ios":"levelo://app?vid=eabb4816-184f-46ec-b8f8-b989ad362fbf"},"vehicle_type_id":"4","last_reported":1720631220,"current_range_meters":20400,"station_id":"ce4bhch2rcd13ifvqeug","pricing_plan_id":"cebpf4jnsgd1na2vs0mg"},{"bike_id":"3531693f-b2b7-4113-ab43-ccaf11191fd2","system_id":"levelo_inurba_marseille","lat":43.286123,"lon":5.351027,"is_reserved":false,"is_disabled":false,"rental_uris":{"android":"levelo://app?vid=3531693f-b2b7-4113-ab43-ccaf11191fd2","ios":"levelo://app?vid=3531693f-b2b7-4113-ab43-ccaf11191fd2"},"vehicle_type_id":"4","last_reported":1720631220,"current_range_meters":0,"station_id":"ce4bhch2rcd13ifvqeug","pricing_plan_id":"cebpf4jnsgd1na2vs0mg"},{"bike_id":"dd098db7-6f77-4181-9aff-e1869d388779","system_id":"levelo_inurba_marseille","lat":43.28612,"lon":5.35103,"is_reserved":false,"is_disabled":false,"rental_uris":{"android":"levelo://app?vid=dd098db7-6f77-4181-9aff-e1869d388779","ios":"levelo://app?vid=dd098db7-6f77-4181-9aff-e1869d388779"},"vehicle_type_id":"4","last_reported":1720631220,"current_range_meters":1200,"station_id":"ce4bhch2rcd13ifvqeug","pricing_plan_id":"cebpf4jnsgd1na2vs0mg"},{"bike_id":"b0fff10f-6b31-47bd-830b-880dae430bcc","system_id":"levelo_inurba_marseille","lat":43.28613,"lon":5.35098,"is_reserved":false,"is_disabled":false,"rental_uris":{"android":"levelo://app?vid=b0fff10f-6b31-47bd-830b-880dae430bcc","ios":"levelo://app?vid=b0fff10f-6b31-47bd-830b-880dae430bcc"},"vehicle_type_id":"4","last_reported":1720631220,"current_range_meters":31200,"station_id":"ce4bhch2rcd13ifvqeug","pricing_plan_id":"cebpf4jnsgd1na2vs0mg"},{"bike_id":"a1fbe738-93c7-467d-98c3-e83d9088d94f","system_id":"levelo_inurba_marseille","lat":43.2861,"lon":5.35106,"is_reserved":false,"is_disabled":false,"rental_uris":{"android":"levelo://app?vid=a1fbe738-93c7-467d-98c3-e83d9088d94f","ios":"levelo://app?vid=a1fbe738-93c7-467d-98c3-e83d9088d94f"},"vehicle_type_id":"4","last_reported":1720631220,"current_range_meters":5600,"station_id":"ce4bhch2rcd13ifvqeug","pricing_plan_id":"cebpf4jnsgd1na2vs0mg"},{"bike_id":"82967faf-003d-40a8-84df-e02e5ab01833","system_id":"levelo_inurba_marseille","lat":43.295703,"lon":5.399537,"is_reserved":false,"is_disabled":false,"rental_uris":{"android":"levelo://app?vid=82967faf-003d-40a8-84df-e02e5ab01833","ios":"levelo://app?vid=82967faf-003d-40a8-84df-e02e5ab01833"},"vehicle_type_id":"4","last_reported":1720631220,"current_range_meters":0,"station_id":"ce4bh312rcd13ifvqdj0","pricing_plan_id":"cebpf4jnsgd1na2vs0mg"},{"bike_id":"3fc6e2c5-7cd9-4164-a2b3-b19b94ae6fb0","system_id":"levelo_inurba_marseille","lat":43.29574,"lon":5.39966,"is_reserved":false,"is_disabled":false,"rental_uris":{"android":"levelo://app?vid=3fc6e2c5-7cd9-4164-a2b3-b19b94ae6fb0","ios":"levelo://app?vid=3fc6e2c5-7cd9-4164-a2b3-b19b94ae6fb0"},"vehicle_type_id":"4","last_reported":1720631220,"current_range_meters":14000,"station_id":"ce4bh312rcd13ifvqdj0","pricing_plan_id":"cebpf4jnsgd1na2vs0mg"},{"bike_id":"0ba956f1-961b-49fb-b3c5-57e76a580088","system_id":"levelo_inurba_marseille","lat":43.286595,"lon":5.386795,"is_reserved":false,"is_disabled":false,"rental_uris":{"android":"levelo://app?vid=0ba956f1-961b-49fb-b3c5-57e76a580088","ios":"levelo://app?vid=0ba956f1-961b-49fb-b3c5-57e76a580088"},"vehicle_type_id":"4","last_reported":1720631220,"current_range_meters":1600,"station_id":"ce4bh492rcd13ifvqdug","pricing_plan_id":"cebpf4jnsgd1na2vs0mg"},{"bike_id":"783cc535-255a-4289-beb9-248c463ceb53","system_id":"levelo_inurba_marseille","lat":43.323464,"lon":5.406297,"is_reserved":false,"is_disabled":false,"rental_uris":{"android":"levelo://app?vid=783cc535-255a-4289-beb9-248c463ceb53","ios":"levelo://app?vid=783cc535-255a-4289-beb9-248c463ceb53"},"vehicle_type_id":"4","last_reported":1720631220,"current_range_meters":4400,"station_id":"ce4bhq92rcd13ifvqhjg","pricing_plan_id":"cebpf4jnsgd1na2vs0mg"},{"bike_id":"b751a7e5-8b1c-4774-abe1-ba3d978f5685","system_id":"levelo_inurba_marseille","lat":43.28473,"lon":5.38415,"is_reserved":false,"is_disabled":false,"rental_uris":{"android":"levelo://app?vid=b751a7e5-8b1c-4774-abe1-ba3d978f5685","ios":"levelo://app?vid=b751a7e5-8b1c-4774-abe1-ba3d978f5685"},"vehicle_type_id":"4","last_reported":1720631220,"current_range_meters":0,"station_id":"ce4bh512rcd13ifvqe3g","pricing_plan_id":"cebpf4jnsgd1na2vs0mg"},{"bike_id":"4fa2a0ae-af89-4fa4-b33c-98d7dd5eabdf","system_id":"levelo_inurba_marseille","lat":43.283494,"lon":5.380945,"is_reserved":false,"is_disabled":false,"rental_uris":{"android":"levelo://app?vid=4fa2a0ae-af89-4fa4-b33c-98d7dd5eabdf","ios":"levelo://app?vid=4fa2a0ae-af89-4fa4-b33c-98d7dd5eabdf"},"vehicle_type_id":"4","last_reported":1720631220,"current_range_meters":1200,"station_id":"ce4bh412rcd13ifvqdr0","pricing_plan_id":"cebpf4jnsgd1na2vs0mg"},{"bike_id":"af2ecb0b-1bf1-4266-a211-4bdf4e194488","system_id":"levelo_inurba_marseille","lat":43.31744,"lon":5.409,"is_reserved":false,"is_disabled":false,"rental_uris":{"android":"levelo://app?vid=af2ecb0b-1bf1-4266-a211-4bdf4e194488","ios":"levelo://app?vid=af2ecb0b-1bf1-4266-a211-4bdf4e194488"},"vehicle_type_id":"4","last_reported":1720631220,"current_range_meters":31600,"station_id":"","pricing_plan_id":"cebpf4jnsgd1na2vs0mg"},{"bike_id":"c66283db-d7e8-4417-8c72-1b8884a699d9","system_id":"levelo_inurba_marseille","lat":43.28425,"lon":5.34993,"is_reserved":false,"is_disabled":false,"rental_uris":{"android":"levelo://app?vid=c66283db-d7e8-4417-8c72-1b8884a699d9","ios":"levelo://app?vid=c66283db-d7e8-4417-8c72-1b8884a699d9"},"vehicle_type_id":"4","last_reported":1720631220,"current_range_meters":22000,"station_id":"ce4bhbh2rcd13ifvqepg","pricing_plan_id":"cebpf4jnsgd1na2vs0mg"},{"bike_id":"e6c46b94-1eba-4e1a-a7ae-4a2f7bc81e43","system_id":"levelo_inurba_marseille","lat":43.284261,"lon":5.349891,"is_reserved":false,"is_disabled":false,"rental_uris":{"android":"levelo://app?vid=e6c46b94-1eba-4e1a-a7ae-4a2f7bc81e43","ios":"levelo://app?vid=e6c46b94-1eba-4e1a-a7ae-4a2f7bc81e43"},"vehicle_type_id":"4","last_reported":1720631220,"current_range_meters":30800,"station_id":"ce4bhbh2rcd13ifvqepg","pricing_plan_id":"cebpf4jnsgd1na2vs0mg"},{"bike_id":"a24631bb-3bfe-47e0-9dd9-2ee545aeea94","system_id":"levelo_inurba_marseille","lat":43.284257,"lon":5.349903,"is_reserved":false,"is_disabled":false,"rental_uris":{"android":"levelo://app?vid=a24631bb-3bfe-47e0-9dd9-2ee545aeea94","ios":"levelo://app?vid=a24631bb-3bfe-47e0-9dd9-2ee545aeea94"},"vehicle_type_id":"4","last_reported":1720631220,"current_range_meters":30800,"station_id":"ce4bhbh2rcd13ifvqepg","pricing_plan_id":"cebpf4jnsgd1na2vs0mg"},{"bike_id":"4c649fef-0d92-44a6-bec3-551e1c4ec6be","system_id":"levelo_inurba_marseille","lat":43.284214,"lon":5.349706,"is_reserved":false,"is_disabled":false,"rental_uris":{"android":"levelo://app?vid=4c649fef-0d92-44a6-bec3-551e1c4ec6be","ios":"levelo://app?vid=4c649fef-0d92-44a6-bec3-551e1c4ec6be"},"vehicle_type_id":"4","last_reported":1720631220,"current_range_meters":31200,"station_id":"ce4bhbh2rcd13ifvqepg","pricing_plan_id":"cebpf4jnsgd1na2vs0mg"},{"bike_id":"d5900dc6-91ae-4195-bb67-d69b48425020","system_id":"levelo_inurba_marseille","lat":43.28422,"lon":5.349985,"is_reserved":false,"is_disabled":false,"rental_uris":{"android":"levelo://app?vid=d5900dc6-91ae-4195-bb67-d69b48425020","ios":"levelo://app?vid=d5900dc6-91ae-4195-bb67-d69b48425020"},"vehicle_type_id":"4","last_reported":1720631220,"current_range_meters":15200,"station_id":"ce4bhbh2rcd13ifvqepg","pricing_plan_id":"cebpf4jnsgd1na2vs0mg"},{"bike_id":"5d44cc59-e949-40d5-8786-1335a69e3759","system_id":"levelo_inurba_marseille","lat":43.284243,"lon":5.349907,"is_reserved":false,"is_disabled":false,"rental_uris":{"android":"levelo://app?vid=5d44cc59-e949-40d5-8786-1335a69e3759","ios":"levelo://app?vid=5d44cc59-e949-40d5-8786-1335a69e3759"},"vehicle_type_id":"4","last_reported":1720631220,"current_range_meters":30800,"station_id":"ce4bhbh2rcd13ifvqepg","pricing_plan_id":"cebpf4jnsgd1na2vs0mg"},{"bike_id":"58425e36-3797-4d42-bfe1-c720a14fdc77","system_id":"levelo_inurba_marseille","lat":43.284219,"lon":5.3497,"is_reserved":false,"is_disabled":false,"rental_uris":{"android":"levelo://app?vid=58425e36-3797-4d42-bfe1-c720a14fdc77","ios":"levelo://app?vid=58425e36-3797-4d42-bfe1-c720a14fdc77"},"vehicle_type_id":"4","last_reported":1720631220,"current_range_meters":31600,"station_id":"ce4bhbh2rcd13ifvqepg","pricing_plan_id":"cebpf4jnsgd1na2vs0mg"},{"bike_id":"12d305d5-6dc6-46a3-9139-9eb053e015a9","system_id":"levelo_inurba_marseille","lat":43.284776,"lon":5.385603,"is_reserved":false,"is_disabled":false,"rental_uris":{"android":"levelo://app?vid=12d305d5-6dc6-46a3-9139-9eb053e015a9","ios":"levelo://app?vid=12d305d5-6dc6-46a3-9139-9eb053e015a9"},"vehicle_type_id":"4","last_reported":1720631220,"current_range_meters":20400,"station_id":"ce4bh8p2rcd13ifvqeb0","pricing_plan_id":"cebpf4jnsgd1na2vs0mg"},{"bike_id":"4e5e1b7e-45f4-4ee6-9930-c74da8d2efdd","system_id":"levelo_inurba_marseille","lat":43.28422,"lon":5.34988,"is_reserved":false,"is_disabled":false,"rental_uris":{"android":"levelo://app?vid=4e5e1b7e-45f4-4ee6-9930-c74da8d2efdd","ios":"levelo://app?vid=4e5e1b7e-45f4-4ee6-9930-c74da8d2efdd"},"vehicle_type_id":"4","last_reported":1720631220,"current_range_meters":31200,"station_id":"ce4bhbh2rcd13ifvqepg","pricing_plan_id":"cebpf4jnsgd1na2vs0mg"},{"bike_id":"9d87edfa-868b-4849-9fe4-d276b9484292","system_id":"levelo_inurba_marseille","lat":43.2842,"lon":5.34994,"is_reserved":false,"is_disabled":false,"rental_uris":{"android":"levelo://app?vid=9d87edfa-868b-4849-9fe4-d276b9484292","ios":"levelo://app?vid=9d87edfa-868b-4849-9fe4-d276b9484292"},"vehicle_type_id":"4","last_reported":1720631220,"current_range_meters":23600,"station_id":"ce4bhbh2rcd13ifvqepg","pricing_plan_id":"cebpf4jnsgd1na2vs0mg"},{"bike_id":"e52fd75d-4232-42da-a7c6-4dd20ee1fd24","system_id":"levelo_inurba_marseille","lat":43.2842,"lon":5.34992,"is_reserved":false,"is_disabled":false,"rental_uris":{"android":"levelo://app?vid=e52fd75d-4232-42da-a7c6-4dd20ee1fd24","ios":"levelo://app?vid=e52fd75d-4232-42da-a7c6-4dd20ee1fd24"},"vehicle_type_id":"4","last_reported":1720631220,"current_range_meters":19200,"station_id":"ce4bhbh2rcd13ifvqepg","pricing_plan_id":"cebpf4jnsgd1na2vs0mg"},{"bike_id":"f74c812d-f0bb-479a-9259-e8cdfa9a5be9","system_id":"levelo_inurba_marseille","lat":43.284219,"lon":5.3497,"is_reserved":false,"is_disabled":false,"rental_uris":{"android":"levelo://app?vid=f74c812d-f0bb-479a-9259-e8cdfa9a5be9","ios":"levelo://app?vid=f74c812d-f0bb-479a-9259-e8cdfa9a5be9"},"vehicle_type_id":"4","last_reported":1720631220,"current_range_meters":23200,"station_id":"ce4bhbh2rcd13ifvqepg","pricing_plan_id":"cebpf4jnsgd1na2vs0mg"},{"bike_id":"e9017186-a11f-47e2-95c3-aba602331986","system_id":"levelo_inurba_marseille","lat":43.284214,"lon":5.349861,"is_reserved":false,"is_disabled":false,"rental_uris":{"android":"levelo://app?vid=e9017186-a11f-47e2-95c3-aba602331986","ios":"levelo://app?vid=e9017186-a11f-47e2-95c3-aba602331986"},"vehicle_type_id":"4","last_reported":1720631220,"current_range_meters":15600,"station_id":"ce4bhbh2rcd13ifvqepg","pricing_plan_id":"cebpf4jnsgd1na2vs0mg"},{"bike_id":"d37dd71d-7d48-4a7d-8af3-c653fddc1878","system_id":"levelo_inurba_marseille","lat":43.28422,"lon":5.34983,"is_reserved":false,"is_disabled":false,"rental_uris":{"android":"levelo://app?vid=d37dd71d-7d48-4a7d-8af3-c653fddc1878","ios":"levelo://app?vid=d37dd71d-7d48-4a7d-8af3-c653fddc1878"},"vehicle_type_id":"4","last_reported":1720631220,"current_range_meters":26800,"station_id":"ce4bhbh2rcd13ifvqepg","pricing_plan_id":"cebpf4jnsgd1na2vs0mg"},{"bike_id":"46e5026d-e519-4e97-961d-b65af7f3d3a1","system_id":"levelo_inurba_marseille","lat":43.28421,"lon":5.34984,"is_reserved":false,"is_disabled":false,"rental_uris":{"android":"levelo://app?vid=46e5026d-e519-4e97-961d-b65af7f3d3a1","ios":"levelo://app?vid=46e5026d-e519-4e97-961d-b65af7f3d3a1"},"vehicle_type_id":"4","last_reported":1720631220,"current_range_meters":22400,"station_id":"ce4bhbh2rcd13ifvqepg","pricing_plan_id":"cebpf4jnsgd1na2vs0mg"},{"bike_id":"825efbd9-5e56-4da7-a6bf-c165dd74a5d0","system_id":"levelo_inurba_marseille","lat":43.28425,"lon":5.34971,"is_reserved":false,"is_disabled":false,"rental_uris":{"android":"levelo://app?vid=825efbd9-5e56-4da7-a6bf-c165dd74a5d0","ios":"levelo://app?vid=825efbd9-5e56-4da7-a6bf-c165dd74a5d0"},"vehicle_type_id":"4","last_reported":1720631220,"current_range_meters":13200,"station_id":"ce4bhbh2rcd13ifvqepg","pricing_plan_id":"cebpf4jnsgd1na2vs0mg"},{"bike_id":"06261994-3902-42d7-81ba-0883e33f5eea","system_id":"levelo_inurba_marseille","lat":43.284213,"lon":5.349823,"is_reserved":false,"is_disabled":false,"rental_uris":{"android":"levelo://app?vid=06261994-3902-42d7-81ba-0883e33f5eea","ios":"levelo://app?vid=06261994-3902-42d7-81ba-0883e33f5eea"},"vehicle_type_id":"4","last_reported":1720631220,"current_range_meters":8400,"station_id":"ce4bhbh2rcd13ifvqepg","pricing_plan_id":"cebpf4jnsgd1na2vs0mg"},{"bike_id":"8ef41767-80a3-476e-bb54-68cd416d7689","system_id":"levelo_inurba_marseille","lat":43.284219,"lon":5.3497,"is_reserved":false,"is_disabled":false,"rental_uris":{"android":"levelo://app?vid=8ef41767-80a3-476e-bb54-68cd416d7689","ios":"levelo://app?vid=8ef41767-80a3-476e-bb54-68cd416d7689"},"vehicle_type_id":"4","last_reported":1720631220,"current_range_meters":22800,"station_id":"ce4bhbh2rcd13ifvqepg","pricing_plan_id":"cebpf4jnsgd1na2vs0mg"},{"bike_id":"b57a7409-f2b0-481f-9897-481a7b0ad5ae","system_id":"levelo_inurba_marseille","lat":43.28422,"lon":5.34979,"is_reserved":false,"is_disabled":false,"rental_uris":{"android":"levelo://app?vid=b57a7409-f2b0-481f-9897-481a7b0ad5ae","ios":"levelo://app?vid=b57a7409-f2b0-481f-9897-481a7b0ad5ae"},"vehicle_type_id":"4","last_reported":1720631220,"current_range_meters":4000,"station_id":"ce4bhbh2rcd13ifvqepg","pricing_plan_id":"cebpf4jnsgd1na2vs0mg"},{"bike_id":"04dad645-ce50-4c16-b127-19334630d62a","system_id":"levelo_inurba_marseille","lat":43.284214,"lon":5.349706,"is_reserved":false,"is_disabled":false,"rental_uris":{"android":"levelo://app?vid=04dad645-ce50-4c16-b127-19334630d62a","ios":"levelo://app?vid=04dad645-ce50-4c16-b127-19334630d62a"},"vehicle_type_id":"4","last_reported":1720631220,"current_range_meters":30000,"station_id":"ce4bhbh2rcd13ifvqepg","pricing_plan_id":"cebpf4jnsgd1na2vs0mg"},{"bike_id":"9da78a6b-5a70-46ea-b5ef-aeed6ba60158","system_id":"levelo_inurba_marseille","lat":43.28418,"lon":5.34989,"is_reserved":false,"is_disabled":false,"rental_uris":{"android":"levelo://app?vid=9da78a6b-5a70-46ea-b5ef-aeed6ba60158","ios":"levelo://app?vid=9da78a6b-5a70-46ea-b5ef-aeed6ba60158"},"vehicle_type_id":"4","last_reported":1720631220,"current_range_meters":18000,"station_id":"ce4bhbh2rcd13ifvqepg","pricing_plan_id":"cebpf4jnsgd1na2vs0mg"},{"bike_id":"8cf38db4-ff94-434d-8b5a-b377dcf4c9a1","system_id":"levelo_inurba_marseille","lat":43.284214,"lon":5.349706,"is_reserved":false,"is_disabled":false,"rental_uris":{"android":"levelo://app?vid=8cf38db4-ff94-434d-8b5a-b377dcf4c9a1","ios":"levelo://app?vid=8cf38db4-ff94-434d-8b5a-b377dcf4c9a1"},"vehicle_type_id":"4","last_reported":1720631220,"current_range_meters":28000,"station_id":"ce4bhbh2rcd13ifvqepg","pricing_plan_id":"cebpf4jnsgd1na2vs0mg"},{"bike_id":"f07e3473-1166-4464-8e75-5de4c3d088b6","system_id":"levelo_inurba_marseille","lat":43.284214,"lon":5.349706,"is_reserved":false,"is_disabled":false,"rental_uris":{"android":"levelo://app?vid=f07e3473-1166-4464-8e75-5de4c3d088b6","ios":"levelo://app?vid=f07e3473-1166-4464-8e75-5de4c3d088b6"},"vehicle_type_id":"4","last_reported":1720631220,"current_range_meters":26400,"station_id":"ce4bhbh2rcd13ifvqepg","pricing_plan_id":"cebpf4jnsgd1na2vs0mg"},{"bike_id":"abb3c03b-c753-4585-81ce-5b537e1ed8de","system_id":"levelo_inurba_marseille","lat":43.284179,"lon":5.349832,"is_reserved":false,"is_disabled":false,"rental_uris":{"android":"levelo://app?vid=abb3c03b-c753-4585-81ce-5b537e1ed8de","ios":"levelo://app?vid=abb3c03b-c753-4585-81ce-5b537e1ed8de"},"vehicle_type_id":"4","last_reported":1720631220,"current_range_meters":22400,"station_id":"ce4bhbh2rcd13ifvqepg","pricing_plan_id":"cebpf4jnsgd1na2vs0mg"},{"bike_id":"2f65603c-1fb3-4640-89f3-8c0eba350a5c","system_id":"levelo_inurba_marseille","lat":43.284214,"lon":5.349706,"is_reserved":false,"is_disabled":false,"rental_uris":{"android":"levelo://app?vid=2f65603c-1fb3-4640-89f3-8c0eba350a5c","ios":"levelo://app?vid=2f65603c-1fb3-4640-89f3-8c0eba350a5c"},"vehicle_type_id":"4","last_reported":1720631220,"current_range_meters":26400,"station_id":"ce4bhbh2rcd13ifvqepg","pricing_plan_id":"cebpf4jnsgd1na2vs0mg"},{"bike_id":"c8572620-d452-4f33-b608-398cb54a2a25","system_id":"levelo_inurba_marseille","lat":43.284164,"lon":5.349858,"is_reserved":false,"is_disabled":false,"rental_uris":{"android":"levelo://app?vid=c8572620-d452-4f33-b608-398cb54a2a25","ios":"levelo://app?vid=c8572620-d452-4f33-b608-398cb54a2a25"},"vehicle_type_id":"4","last_reported":1720631220,"current_range_meters":7600,"station_id":"ce4bhbh2rcd13ifvqepg","pricing_plan_id":"cebpf4jnsgd1na2vs0mg"},{"bike_id":"64c83263-3325-4f9e-a6ab-704c203c740e","system_id":"levelo_inurba_marseille","lat":43.284171,"lon":5.349834,"is_reserved":false,"is_disabled":false,"rental_uris":{"android":"levelo://app?vid=64c83263-3325-4f9e-a6ab-704c203c740e","ios":"levelo://app?vid=64c83263-3325-4f9e-a6ab-704c203c740e"},"vehicle_type_id":"4","last_reported":1720631220,"current_range_meters":26000,"station_id":"ce4bhbh2rcd13ifvqepg","pricing_plan_id":"cebpf4jnsgd1na2vs0mg"},{"bike_id":"6ee91654-9e9a-4e54-8e87-6e2bf95146b6","system_id":"levelo_inurba_marseille","lat":43.28419,"lon":5.34977,"is_reserved":false,"is_disabled":false,"rental_uris":{"android":"levelo://app?vid=6ee91654-9e9a-4e54-8e87-6e2bf95146b6","ios":"levelo://app?vid=6ee91654-9e9a-4e54-8e87-6e2bf95146b6"},"vehicle_type_id":"4","last_reported":1720631220,"current_range_meters":22000,"station_id":"ce4bhbh2rcd13ifvqepg","pricing_plan_id":"cebpf4jnsgd1na2vs0mg"},{"bike_id":"bf0fbce3-32d2-4220-b76d-442dfd8e67a6","system_id":"levelo_inurba_marseille","lat":43.28416,"lon":5.34986,"is_reserved":false,"is_disabled":false,"rental_uris":{"android":"levelo://app?vid=bf0fbce3-32d2-4220-b76d-442dfd8e67a6","ios":"levelo://app?vid=bf0fbce3-32d2-4220-b76d-442dfd8e67a6"},"vehicle_type_id":"4","last_reported":1720631220,"current_range_meters":31200,"station_id":"ce4bhbh2rcd13ifvqepg","pricing_plan_id":"cebpf4jnsgd1na2vs0mg"},{"bike_id":"d9fb3f13-9b84-4dfc-b413-e200b6fe0ca9","system_id":"levelo_inurba_marseille","lat":43.28418,"lon":5.34978,"is_reserved":false,"is_disabled":false,"rental_uris":{"android":"levelo://app?vid=d9fb3f13-9b84-4dfc-b413-e200b6fe0ca9","ios":"levelo://app?vid=d9fb3f13-9b84-4dfc-b413-e200b6fe0ca9"},"vehicle_type_id":"4","last_reported":1720631220,"current_range_meters":8800,"station_id":"ce4bhbh2rcd13ifvqepg","pricing_plan_id":"cebpf4jnsgd1na2vs0mg"},