{"last_updated":1729796833,"ttl":60,"version":"2.2","data":{"bikes":[{"bike_id":"22ff754d-6181-4120-bc43-5033a05cdc3b","system_id":"levelo_inurba_marseille","lat":43.31067,"lon":5.38363,"is_reserved":false,"is_disabled":false,"rental_uris":{"android":"levelo://app?vid=22ff754d-6181-4120-bc43-5033a05cdc3b","ios":"levelo://app?vid=22ff754d-6181-4120-bc43-5033a05cdc3b"},"vehicle_type_id":"4","last_reported":1729796833,"current_range_meters":6000,"station_id":"ce4bgv92rcd13ifvqcr0","pricing_plan_id":"cebpf4jnsgd1na2vs0mg"},{"bike_id":"1568e98d-3e80-4d3a-913a-84af01bba11e","system_id":"levelo_inurba_marseille","lat":43.28146,"lon":5.42638,"is_reserved":false,"is_disabled":false,"rental_uris":{"android":"levelo://app?vid=1568e98d-3e80-4d3a-913a-84af01bba11e","ios":"levelo://app?vid=1568e98d-3e80-4d3a-913a-84af01bba11e"},"vehicle_type_id":"4","last_reported":1729796833,"current_range_meters":37600,"station_id":"ce4bhnh2rcd13ifvqgug","pricing_plan_id":"cebpf4jnsgd1na2vs0mg"},{"bike_id":"4e718520-217c-4986-8e4a-4dbcae9b7210","system_id":"levelo_inurba_marseille","lat":43.27994,"lon":5.41659,"is_reserved":false,"is_disabled":false,"rental_uris":{"android":"levelo://app?vid=4e718520-217c-4986-8e4a-4dbcae9b7210","ios":"levelo://app?vid=4e718520-217c-4986-8e4a-4dbcae9b7210"},"vehicle_type_id":"4","last_reported":1729796833,"current_range_meters":8400,"station_id":"ce4bho12rcd13ifvqh1g","pricing_plan_id":"cebpf4jnsgd1na2vs0mg"},{"bike_id":"02b88303-f07a-410b-8e09-9fbc37dda972","system_id":"levelo_inurba_marseille","lat":43.31061,"lon":5.38342,"is_reserved":false,"is_disabled":false,"rental_uris":{"android":"levelo://app?vid=02b88303-f07a-410b-8e09-9fbc37dda972","ios":"levelo://app?vid=02b88303-f07a-410b-8e09-9fbc37dda972"},"vehicle_type_id":"4","last_reported":1729796833,"current_range_meters":38800,"station_id":"ce4bgv92rcd13ifvqcr0","pricing_plan_id":"cebpf4jnsgd1na2vs0mg"},{"bike_id":"d92add26-76e1-4b54-9d4c-db7be93d0502","system_id":"levelo_inurba_marseille","lat":43.2407,"lon":5.37768,"is_reserved":false,"is_disabled":false,"rental_uris":{"android":"levelo://app?vid=d92add26-76e1-4b54-9d4c-db7be93d0502","ios":"levelo://app?vid=d92add26-76e1-4b54-9d4c-db7be93d0502"},"vehicle_type_id":"4","last_reported":1729796833,"current_range_meters":9600,"station_id":"ce4bhnp2rcd13ifvqgvg","pricing_plan_id":"cebpf4jnsgd1na2vs0mg"},{"bike_id":"5134f3b1-3ef2-40bd-bb7b-0664f2444bbd","system_id":"levelo_inurba_marseille","lat":43.32034,"lon":5.41564,"is_reserved":false,"is_disabled":false,"rental_uris":{"android":"levelo://app?vid=5134f3b1-3ef2-40bd-bb7b-0664f2444bbd","ios":"levelo://app?vid=5134f3b1-3ef2-40bd-bb7b-0664f2444bbd"},"vehicle_type_id":"4","last_reported":1729796833,"current_range_meters":38800,"station_id":"ce4bhq92rcd13ifvqhkg","pricing_plan_id":"cebpf4jnsgd1na2vs0mg"},{"bike_id":"f7222677-c01d-49ff-941b-cc7fe8090c5a","system_id":"levelo_inurba_marseille","lat":43.27492,"lon":5.42454,"is_reserved":false,"is_disabled":false,"rental_uris":{"android":"levelo://app?vid=f7222677-c01d-49ff-941b-cc7fe8090c5a","ios":"levelo://app?vid=f7222677-c01d-49ff-941b-cc7fe8090c5a"},"vehicle_type_id":"4","last_reported":1729796833,"current_range_meters":28000,"station_id":"ce4bhn92rcd13ifvqgrg","pricing_plan_id":"cebpf4jnsgd1na2vs0mg"},{"bike_id":"d412bf4d-a15c-4572-8e8b-5bfd1e3a3a5b","system_id":"levelo_inurba_marseille","lat":43.23966,"lon":5.36632,"is_reserved":false,"is_disabled":false,"rental_uris":{"android":"levelo://app?vid=d412bf4d-a15c-4572-8e8b-5bfd1e3a3a5b","ios":"levelo://app?vid=d412bf4d-a15c-4572-8e8b-5bfd1e3a3a5b"},"vehicle_type_id":"4","last_reported":1729796833,"current_range_meters":25600,"station_id":"ce4bhi12rcd13ifvqfp0","pricing_plan_id":"cebpf4jnsgd1na2vs0mg"},{"bike_id":"0d780d82-1ae2-4253-9394-4863df867e9f","system_id":"levelo_inurba_marseille","lat":43.29893,"lon":5.37467,"is_reserved":false,"is_disabled":false,"rental_uris":{"android":"levelo://app?vid=0d780d82-1ae2-4253-9394-4863df867e9f","ios":"levelo://app?vid=0d780d82-1ae2-4253-9394-4863df867e9f"},"vehicle_type_id":"4","last_reported":1729796833,"current_range_meters":37600,"station_id":"ce4bgjh2rcd13ifvqbg0","pricing_plan_id":"cebpf4jnsgd1na2vs0mg"},{"bike_id":"c7c47c7a-b2ce-47cf-ab57-cd0aae99dfe3","system_id":"levelo_inurba_marseille","lat":43.29534,"lon":5.38547,"is_reserved":false,"is_disabled":false,"rental_uris":{"android":"levelo://app?vid=c7c47c7a-b2ce-47cf-ab57-cd0aae99dfe3","ios":"levelo://app?vid=c7c47c7a-b2ce-47cf-ab57-cd0aae99dfe3"},"vehicle_type_id":"4","last_reported":1729796833,"current_range_meters":38800,"station_id":"ce4bgih2rcd13ifvqba0","pricing_plan_id":"cebpf4jnsgd1na2vs0mg"},{"bike_id":"225f50c3-989b-4754-b1fa-d259b85b14ce","system_id":"levelo_inurba_marseille","lat":43.26061,"lon":5.39398,"is_reserved":false,"is_disabled":false,"rental_uris":{"android":"levelo://app?vid=225f50c3-989b-4754-b1fa-d259b85b14ce","ios":"levelo://app?vid=225f50c3-989b-4754-b1fa-d259b85b14ce"},"vehicle_type_id":"4","last_reported":1729796833,"current_range_meters":24000,"station_id":"ce4bhh92rcd13ifvqfj0","pricing_plan_id":"cebpf4jnsgd1na2vs0mg"},{"bike_id":"7a39ac62-f73e-405f-baad-436efacf2521","system_id":"levelo_inurba_marseille","lat":43.25729,"lon":5.41113,"is_reserved":false,"is_disabled":false,"rental_uris":{"android":"levelo://app?vid=7a39ac62-f73e-405f-baad-436efacf2521","ios":"levelo://app?vid=7a39ac62-f73e-405f-baad-436efacf2521"},"vehicle_type_id":"4","last_reported":1729796833,"current_range_meters":30000,"station_id":"ce4bhk92rcd13ifvqgb0","pricing_plan_id":"cebpf4jnsgd1na2vs0mg"},{"bike_id":"e130cf78-8420-42ef-935c-589ad91611cf","system_id":"levelo_inurba_marseille","lat":43.32653,"lon":5.40994,"is_reserved":false,"is_disabled":false,"rental_uris":{"android":"levelo://app?vid=e130cf78-8420-42ef-935c-589ad91611cf","ios":"levelo://app?vid=e130cf78-8420-42ef-935c-589ad91611cf"},"vehicle_type_id":"4","last_reported":1729796833,"current_range_meters":20000,"station_id":"ce4bhpp2rcd13ifvqhgg","pricing_plan_id":"cebpf4jnsgd1na2vs0mg"},{"bike_id":"3e21bbdd-1ec6-439d-ae78-84f09e37582f","system_id":"levelo_inurba_marseille","lat":43.2972,"lon":5.36609,"is_reserved":false,"is_disabled":false,"rental_uris":{"android":"levelo://app?vid=3e21bbdd-1ec6-439d-ae78-84f09e37582f","ios":"levelo://app?vid=3e21bbdd-1ec6-439d-ae78-84f09e37582f"},"vehicle_type_id":"4","last_reported":1729796833,"current_range_meters":6000,"station_id":"ce4bgn12rcd13ifvqbt0","pricing_plan_id":"cebpf4jnsgd1na2vs0mg"},{"bike_id":"7d925cae-34ec-4eef-8854-568a6befbdb6","system_id":"levelo_inurba_marseille","lat":43.29312,"lon":5.37172,"is_reserved":false,"is_disabled":false,"rental_uris":{"android":"levelo://app?vid=7d925cae-34ec-4eef-8854-568a6befbdb6","ios":"levelo://app?vid=7d925cae-34ec-4eef-8854-568a6befbdb6"},"vehicle_type_id":"4","last_reported":1729796833,"current_range_meters":37600,"station_id":"ce4bgh92rcd13ifvqb40","pricing_plan_id":"cebpf4jnsgd1na2vs0mg"},{"bike_id":"e1cd323d-9b2f-476f-b58c-18a3a2f49179","system_id":"levelo_inurba_marseille","lat":43.29816,"lon":5.38129,"is_reserved":false,"is_disabled":false,"rental_uris":{"android":"levelo://app?vid=e1cd323d-9b2f-476f-b58c-18a3a2f49179","ios":"levelo://app?vid=e1cd323d-9b2f-476f-b58c-18a3a2f49179"},"vehicle_type_id":"4","last_reported":1729796833,"current_range_meters":33600,"station_id":"ce4bgip2rcd13ifvqbb0","pricing_plan_id":"cebpf4jnsgd1na2vs0mg"},{"bike_id":"6c4013cf-d5d9-4042-bddc-4c129844519f","system_id":"levelo_inurba_marseille","lat":43.29251,"lon":5.40913,"is_reserved":false,"is_disabled":false,"rental_uris":{"android":"levelo://app?vid=6c4013cf-d5d9-4042-bddc-4c129844519f","ios":"levelo://app?vid=6c4013cf-d5d9-4042-bddc-4c129844519f"},"vehicle_type_id":"4","last_reported":1729796833,"current_range_meters":20000,"station_id":"ce4bh192rcd13ifvqdc0","pricing_plan_id":"cebpf4jnsgd1na2vs0mg"},{"bike_id":"5d7e855d-d0e4-4cc3-8449-d0b666ee367d","system_id":"levelo_inurba_marseille","lat":43.337444,"lon":5.374475,"is_reserved":false,"is_disabled":false,"rental_uris":{"android":"levelo://app?vid=5d7e855d-d0e4-4cc3-8449-d0b666ee367d","ios":"levelo://app?vid=5d7e855d-d0e4-4cc3-8449-d0b666ee367d"},"vehicle_type_id":"4","last_reported":1729796833,"current_range_meters":2800,"station_id":"","pricing_plan_id":"cebpf4jnsgd1na2vs0mg"},{"bike_id":"aa27344f-9d23-4289-bba9-038fae767d20","system_id":"levelo_inurba_marseille","lat":43.306091,"lon":5.372214,"is_reserved":false,"is_disabled":false,"rental_uris":{"android":"levelo://app?vid=aa27344f-9d23-4289-bba9-038fae767d20","ios":"levelo://app?vid=aa27344f-9d23-4289-bba9-038fae767d20"},"vehicle_type_id":"4","last_reported":1729796833,"current_range_meters":34000,"station_id":"ce4bgqh2rcd13ifvqc4g","pricing_plan_id":"cebpf4jnsgd1na2vs0mg"},{"bike_id":"f529000e-e9bf-47da-a17d-86241bc726f7","system_id":"levelo_inurba_marseille","lat":43.24499,"lon":5.3804,"is_reserved":false,"is_disabled":false,"rental_uris":{"android":"levelo://app?vid=f529000e-e9bf-47da-a17d-86241bc726f7","ios":"levelo://app?vid=f529000e-e9bf-47da-a17d-86241bc726f7"},"vehicle_type_id":"4","last_reported":1729796833,"current_range_meters":38000,"station_id":"ce4bhu92rcd13ifvqi70","pricing_plan_id":"cebpf4jnsgd1na2vs0mg"},{"bike_id":"ce3eef46-b9e3-41dc-9130-106cb5f09144","system_id":"levelo_inurba_marseille","lat":43.24645,"lon":5.38894,"is_reserved":false,"is_disabled":false,"rental_uris":{"android":"levelo://app?vid=ce3eef46-b9e3-41dc-9130-106cb5f09144","ios":"levelo://app?vid=ce3eef46-b9e3-41dc-9130-106cb5f09144"},"vehicle_type_id":"4","last_reported":1729796833,"current_range_meters":36000,"station_id":"ce4bhg12rcd13ifvqf60","pricing_plan_id":"cebpf4jnsgd1na2vs0mg"},{"bike_id":"5d6eea9d-fa1c-4428-abf9-014d614acdc1","system_id":"levelo_inurba_marseille","lat":43.30143,"lon":5.37415,"is_reserved":false,"is_disabled":false,"rental_uris":{"android":"levelo://app?vid=5d6eea9d-fa1c-4428-abf9-014d614acdc1","ios":"levelo://app?vid=5d6eea9d-fa1c-4428-abf9-014d614acdc1"},"vehicle_type_id":"4","last_reported":1729796833,"current_range_meters":9600,"station_id":"ce4bgs92rcd13ifvqcc0","pricing_plan_id":"cebpf4jnsgd1na2vs0mg"},{"bike_id":"0f47b5e4-3d65-447f-a831-706089cb1ae9","system_id":"levelo_inurba_marseille","lat":43.26569,"lon":5.3901,"is_reserved":false,"is_disabled":false,"rental_uris":{"android":"levelo://app?vid=0f47b5e4-3d65-447f-a831-706089cb1ae9","ios":"levelo://app?vid=0f47b5e4-3d65-447f-a831-706089cb1ae9"},"vehicle_type_id":"4","last_reported":1729796833,"current_range_meters":18000,"station_id":"ce4bhe12rcd13ifvqf30","pricing_plan_id":"cebpf4jnsgd1na2vs0mg"},{"bike_id":"32b9b17f-afdb-463f-bfe8-ab7f0218a291","system_id":"levelo_inurba_marseille","lat":43.30175,"lon":5.37406,"is_reserved":false,"is_disabled":false,"rental_uris":{"android":"levelo://app?vid=32b9b17f-afdb-463f-bfe8-ab7f0218a291","ios":"levelo://app?vid=32b9b17f-afdb-463f-bfe8-ab7f0218a291"},"vehicle_type_id":"4","last_reported":1729796833,"current_range_meters":38800,"station_id":"ce4bgs92rcd13ifvqcc0","pricing_plan_id":"cebpf4jnsgd1na2vs0mg"},{"bike_id":"97ce6431-cdfe-4c86-8575-534875aed7f5","system_id":"levelo_inurba_marseille","lat":43.3053,"lon":5.36659,"is_reserved":false,"is_disabled":false,"rental_uris":{"android":"levelo://app?vid=97ce6431-cdfe-4c86-8575-534875aed7f5","ios":"levelo://app?vid=97ce6431-cdfe-4c86-8575-534875aed7f5"},"vehicle_type_id":"4","last_reported":1729796833,"current_range_meters":6000,"station_id":"","pricing_plan_id":"cebpf4jnsgd1na2vs0mg"},{"bike_id":"5aec575d-65da-4a41-bc29-5f76abd13273","system_id":"levelo_inurba_marseille","lat":43.30532,"lon":5.36705,"is_reserved":false,"is_disabled":false,"rental_uris":{"android":"levelo://app?vid=5aec575d-65da-4a41-bc29-5f76abd13273","ios":"levelo://app?vid=5aec575d-65da-4a41-bc29-5f76abd13273"},"vehicle_type_id":"4","last_reported":1729796833,"current_range_meters":38000,"station_id":"ce4bgrp2rcd13ifvqc9g","pricing_plan_id":"cebpf4jnsgd1na2vs0mg"},{"bike_id":"ae543776-75ee-42a8-a677-3e246bf772ec","system_id":"levelo_inurba_marseille","lat":43.31709,"lon":5.43705,"is_reserved":false,"is_disabled":false,"rental_uris":{"android":"levelo://app?vid=ae543776-75ee-42a8-a677-3e246bf772ec","ios":"levelo://app?vid=ae543776-75ee-42a8-a677-3e246bf772ec"},"vehicle_type_id":"4","last_reported":1729796833,"current_range_meters":7200,"station_id":"ce4bhp92rcd13ifvqhcg","pricing_plan_id":"cebpf4jnsgd1na2vs0mg"},{"bike_id":"2ed220f3-e29e-4052-9996-5e7e06c0254a","system_id":"levelo_inurba_marseille","lat":43.30149,"lon":5.38062,"is_reserved":false,"is_disabled":false,"rental_uris":{"android":"levelo://app?vid=2ed220f3-e29e-4052-9996-5e7e06c0254a","ios":"levelo://app?vid=2ed220f3-e29e-4052-9996-5e7e06c0254a"},"vehicle_type_id":"4","last_reported":1729796833,"current_range_meters":27600,"station_id":"ce4bgjp2rcd13ifvqbh0","pricing_plan_id":"cebpf4jnsgd1na2vs0mg"},{"bike_id":"334e9050-29c3-43a0-b2bb-4fc7f06bf291","system_id":"levelo_inurba_marseille","lat":43.246409,"lon":5.38893,"is_reserved":false,"is_disabled":false,"rental_uris":{"android":"levelo://app?vid=334e9050-29c3-43a0-b2bb-4fc7f06bf291","ios":"levelo://app?vid=334e9050-29c3-43a0-b2bb-4fc7f06bf291"},"vehicle_type_id":"4","last_reported":1729796833,"current_range_meters":16000,"station_id":"ce4bhg12rcd13ifvqf60","pricing_plan_id":"cebpf4jnsgd1na2vs0mg"},{"bike_id":"3416557b-1536-448a-ac57-bb27af24b942","system_id":"levelo_inurba_marseille","lat":43.33731,"lon":5.39188,"is_reserved":false,"is_disabled":false,"rental_uris":{"android":"levelo://app?vid=3416557b-1536-448a-ac57-bb27af24b942","ios":"levelo://app?vid=3416557b-1536-448a-ac57-bb27af24b942"},"vehicle_type_id":"4","last_reported":1729796833,"current_range_meters":18800,"station_id":"ce4bhr92rcd13ifvqhsg","pricing_plan_id":"cebpf4jnsgd1na2vs0mg"},{"bike_id":"c70dc1e7-d574-49de-90da-08570e8dcf3b","system_id":"levelo_inurba_marseille","lat":43.29528,"lon":5.38538,"is_reserved":false,"is_disabled":false,"rental_uris":{"android":"levelo://app?vid=c70dc1e7-d574-49de-90da-08570e8dcf3b","ios":"levelo://app?vid=c70dc1e7-d574-49de-90da-08570e8dcf3b"},"vehicle_type_id":"4","last_reported":1729796833,"current_range_meters":38800,"station_id":"ce4bgih2rcd13ifvqba0","pricing_plan_id":"cebpf4jnsgd1na2vs0mg"},{"bike_id":"c47ee947-2909-41a5-bbe0-603cbb5c8694","system_id":"levelo_inurba_marseille","lat":43.27953,"lon":5.41043,"is_reserved":false,"is_disabled":false,"rental_uris":{"android":"levelo://app?vid=c47ee947-2909-41a5-bbe0-603cbb5c8694","ios":"levelo://app?vid=c47ee947-2909-41a5-bbe0-603cbb5c8694"},"vehicle_type_id":"4","last_reported":1729796833,"current_range_meters":16400,"station_id":"ce4bhnp2rcd13ifvqh0g","pricing_plan_id":"cebpf4jnsgd1na2vs0mg"},{"bike_id":"8486fe9d-9ef0-4e60-ba73-6eb6a17c52a8","system_id":"levelo_inurba_marseille","lat":43.31558,"lon":5.40569,"is_reserved":false,"is_disabled":false,"rental_uris":{"android":"levelo://app?vid=8486fe9d-9ef0-4e60-ba73-6eb6a17c52a8","ios":"levelo://app?vid=8486fe9d-9ef0-4e60-ba73-6eb6a17c52a8"},"vehicle_type_id":"4","last_reported":1729796833,"current_range_meters":12400,"station_id":"","pricing_plan_id":"cebpf4jnsgd1na2vs0mg"},{"bike_id":"b48947e1-7e12-40ba-a507-f4d12699b827","system_id":"levelo_inurba_marseille","lat":43.266968,"lon":5.382903,"is_reserved":false,"is_disabled":false,"rental_uris":{"android":"levelo://app?vid=b48947e1-7e12-40ba-a507-f4d12699b827","ios":"levelo://app?vid=b48947e1-7e12-40ba-a507-f4d12699b827"},"vehicle_type_id":"4","last_reported":1729796833,"current_range_meters":28400,"station_id":"ce4bhlp2rcd13ifvqgjg","pricing_plan_id":"cebpf4jnsgd1na2vs0mg"},{"bike_id":"dda4a36c-79b5-42cc-bd67-2abe044c6bd4","system_id":"levelo_inurba_marseille","lat":43.28614,"lon":5.35099,"is_reserved":false,"is_disabled":false,"rental_uris":{"android":"levelo://app?vid=dda4a36c-79b5-42cc-bd67-2abe044c6bd4","ios":"levelo://app?vid=dda4a36c-79b5-42cc-bd67-2abe044c6bd4"},"vehicle_type_id":"4","last_reported":1729796833,"current_range_meters":38800,"station_id":"ce4bhch2rcd13ifvqeug","pricing_plan_id":"cebpf4jnsgd1na2vs0mg"},{"bike_id":"0f65ea62-19f0-4cb2-8680-8484d1f1f90a","system_id":"levelo_inurba_marseille","lat":43.2512,"lon":5.4032,"is_reserved":false,"is_disabled":false,"rental_uris":{"android":"levelo://app?vid=0f65ea62-19f0-4cb2-8680-8484d1f1f90a","ios":"levelo://app?vid=0f65ea62-19f0-4cb2-8680-8484d1f1f90a"},"vehicle_type_id":"4","last_reported":1729796833,"current_range_meters":18000,"station_id":"ce4bhlh2rcd13ifvqgig","pricing_plan_id":"cebpf4jnsgd1na2vs0mg"},{"bike_id":"2a3abc40-cd31-4942-bbdf-231938835e61","system_id":"levelo_inurba_marseille","lat":43.296478,"lon":5.376627,"is_reserved":false,"is_disabled":false,"rental_uris":{"android":"levelo://app?vid=2a3abc40-cd31-4942-bbdf-231938835e61","ios":"levelo://app?vid=2a3abc40-cd31-4942-bbdf-231938835e61"},"vehicle_type_id":"4","last_reported":1729796833,"current_range_meters":28000,"station_id":"ce4bguh2rcd13ifvqcj0","pricing_plan_id":"cebpf4jnsgd1na2vs0mg"},{"bike_id":"5dd6605c-92e4-49f1-a49f-c3854c3757dd","system_id":"levelo_inurba_marseille","lat":43.3138,"lon":5.38495,"is_reserved":false,"is_disabled":false,"rental_uris":{"android":"levelo://app?vid=5dd6605c-92e4-49f1-a49f-c3854c3757dd","ios":"levelo://app?vid=5dd6605c-92e4-49f1-a49f-c3854c3757dd"},"vehicle_type_id":"4","last_reported":1729796833,"current_range_meters":38800,"station_id":"ce4bgt92rcd13ifvqcf0","pricing_plan_id":"cebpf4jnsgd1na2vs0mg"},{"bike_id":"dd31a14a-ff96-4c89-9794-f14b8c2702fd","system_id":"levelo_inurba_marseille","lat":43.23177,"lon":5.39985,"is_reserved":false,"is_disabled":false,"rental_uris":{"android":"levelo://app?vid=dd31a14a-ff96-4c89-9794-f14b8c2702fd","ios":"levelo://app?vid=dd31a14a-ff96-4c89-9794-f14b8c2702fd"},"vehicle_type_id":"4","last_reported":1729796833,"current_range_meters":16800,"station_id":"ce4bhn12rcd13ifvqgqg","pricing_plan_id":"cebpf4jnsgd1na2vs0mg"},{"bike_id":"44d2db11-0df2-433b-a6f6-6a3b8a3d3bba","system_id":"levelo_inurba_marseille","lat":43.26945,"lon":5.38625,"is_reserved":false,"is_disabled":false,"rental_uris":{"android":"levelo://app?vid=44d2db11-0df2-433b-a6f6-6a3b8a3d3bba","ios":"levelo://app?vid=44d2db11-0df2-433b-a6f6-6a3b8a3d3bba"},"vehicle_type_id":"4","last_reported":1729796833,"current_range_meters":30000,"station_id":"ce4bhh92rcd13ifvqfh0","pricing_plan_id":"cebpf4jnsgd1na2vs0mg"},{"bike_id":"8dc3d884-ea78-4d85-a7b1-4cc0ca174e23","system_id":"levelo_inurba_marseille","lat":43.2927,"lon":5.38437,"is_reserved":false,"is_disabled":false,"rental_uris":{"android":"levelo://app?vid=8dc3d884-ea78-4d85-a7b1-4cc0ca174e23","ios":"levelo://app?vid=8dc3d884-ea78-4d85-a7b1-4cc0ca174e23"},"vehicle_type_id":"4","last_reported":1729796833,"current_range_meters":11600,"station_id":"ce4bh692rcd13ifvqea0","pricing_plan_id":"cebpf4jnsgd1na2vs0mg"},{"bike_id":"30c5e63c-28cb-48f9-abb5-2da6c67a2dc5","system_id":"levelo_inurba_marseille","lat":43.24545,"lon":5.39524,"is_reserved":false,"is_disabled":false,"rental_uris":{"android":"levelo://app?vid=30c5e63c-28cb-48f9-abb5-2da6c67a2dc5","ios":"levelo://app?vid=30c5e63c-28cb-48f9-abb5-2da6c67a2dc5"},"vehicle_type_id":"4","last_reported":1729796833,"current_range_meters":28800,"station_id":"ce4bhlp2rcd13ifvqgjg","pricing_plan_id":"cebpf4jnsgd1na2vs0mg"},{"bike_id":"29b25be5-2292-4af8-b85e-04f4a7e72e17","system_id":"levelo_inurba_marseille","lat":43.231842,"lon":5.399884,"is_reserved":false,"is_disabled":false,"rental_uris":{"android":"levelo://app?vid=29b25be5-2292-4af8-b85e-04f4a7e72e17","ios":"levelo://app?vid=29b25be5-2292-4af8-b85e-04f4a7e72e17"},"vehicle_type_id":"4","last_reported":1729796833,"current_range_meters":14400,"station_id":"ce4bhn12rcd13ifvqgqg","pricing_plan_id":"cebpf4jnsgd1na2vs0mg"},{"bike_id":"c200fada-50bd-4d43-a48e-e61cfcc7c610","system_id":"levelo_inurba_marseille","lat":43.25824,"lon":5.3943,"is_reserved":false,"is_disabled":false,"rental_uris":{"android":"levelo://app?vid=c200fada-50bd-4d43-a48e-e61cfcc7c610","ios":"levelo://app?vid=c200fada-50bd-4d43-a48e-e61cfcc7c610"},"vehicle_type_id":"4","last_reported":1729796833,"current_range_meters":36000,"station_id":"ce4bhip2rcd13ifvqft0","pricing_plan_id":"cebpf4jnsgd1na2vs0mg"},{"bike_id":"a5334f96-78a8-4aa7-8fa4-e2d73879bf5a","system_id":"levelo_inurba_marseille","lat":43.287,"lon":5.39988,"is_reserved":false,"is_disabled":false,"rental_uris":{"android":"levelo://app?vid=a5334f96-78a8-4aa7-8fa4-e2d73879bf5a","ios":"levelo://app?vid=a5334f96-78a8-4aa7-8fa4-e2d73879bf5a"},"vehicle_type_id":"4","last_reported":1729796833,"current_range_meters":8000,"station_id":"ce4bho92rcd13ifvqh3g","pricing_plan_id":"cebpf4jnsgd1na2vs0mg"},{"bike_id":"4c555ec8-a1fe-4759-a184-f03802a4dcf2","system_id":"levelo_inurba_marseille","lat":43.272062,"lon":5.391846,"is_reserved":false,"is_disabled":false,"rental_uris":{"android":"levelo://app?vid=4c555ec8-a1fe-4759-a184-f03802a4dcf2","ios":"levelo://app?vid=4c555ec8-a1fe-4759-a184-f03802a4dcf2"},"vehicle_type_id":"4","last_reported":1729796833,"current_range_meters":38800,"station_id":"ce4bhhp2rcd13ifvqfm0","pricing_plan_id":"cebpf4jnsgd1na2vs0mg"},{"bike_id":"933557ef-e951-4c8f-adab-063805190575","system_id":"levelo_inurba_marseille","lat":43.27496,"lon":5.42449,"is_reserved":false,"is_disabled":false,"rental_uris":{"android":"levelo://app?vid=933557ef-e951-4c8f-adab-063805190575","ios":"levelo://app?vid=933557ef-e951-4c8f-adab-063805190575"},"vehicle_type_id":"4","last_reported":1729796833,"current_range_meters":26000,"station_id":"ce4bhn92rcd13ifvqgrg","pricing_plan_id":"cebpf4jnsgd1na2vs0mg"},{"bike_id":"b5092dab-0958-4b93-8d9d-8a9df626b28c","system_id":"levelo_inurba_marseille","lat":43.25726,"lon":5.41111,"is_reserved":false,"is_disabled":false,"rental_uris":{"android":"levelo://app?vid=b5092dab-0958-4b93-8d9d-8a9df626b28c","ios":"levelo://app?vid=b5092dab-0958-4b93-8d9d-8a9df626b28c"},"vehicle_type_id":"4","last_reported":1729796833,"current_range_meters":6400,"station_id":"ce4bhkp2rcd13ifvqgd0","pricing_plan_id":"cebpf4jnsgd1na2vs0mg"},{"bike_id":"407d3a17-511a-4ab6-9df5-e20fc50d90ad","system_id":"levelo_inurba_marseille","lat":43.25582,"lon":5.38235,"is_reserved":false,"is_disabled":false,"rental_uris":{"android":"levelo://app?vid=407d3a17-511a-4ab6-9df5-e20fc50d90ad","ios":"levelo://app?vid=407d3a17-511a-4ab6-9df5-e20fc50d90ad"},"vehicle_type_id":"4","last_reported":1729796833,"current_range_meters":32400,"station_id":"ce4bhih2rcd13ifvqfs0","pricing_plan_id":"cebpf4jnsgd1na2vs0mg"},{"bike_id":"9beba0bb-73b8-4818-8d27-d144509fb288","system_id":"levelo_inurba_marseille","lat":43.27994,"lon":5.40015,"is_reserved":false,"is_disabled":false,"rental_uris":{"android":"levelo://app?vid=9beba0bb-73b8-4818-8d27-d144509fb288","ios":"levelo://app?vid=9beba0bb-73b8-4818-8d27-d144509fb288"},"vehicle_type_id":"4","last_reported":1729796833,"current_range_meters":10800,"station_id":"ce4bho92rcd13ifvqh4g","pricing_plan_id":"cebpf4jnsgd1na2vs0mg"},{"bike_id":"be8fbca4-3dcd-4e0e-96d2-8c570f59713c","system_id":"levelo_inurba_marseille","lat":43.32479,"lon":5.36571,"is_reserved":false,"is_disabled":false,"rental_uris":{"android":"levelo://app?vid=be8fbca4-3dcd-4e0e-96d2-8c570f59713c","ios":"levelo://app?vid=be8fbca4-3dcd-4e0e-96d2-8c570f59713c"},"vehicle_type_id":"4","last_reported":1729796833,"current_range_meters":24000,"station_id":"ce4bhs12rcd13ifvqhvg","pricing_plan_id":"cebpf4jnsgd1na2vs0mg"},{"bike_id":"d475b82c-0d7f-4622-ae10-5ba370aaed37","system_id":"levelo_inurba_marseille","lat":43.30631,"lon":5.37352,"is_reserved":false,"is_disabled":false,"rental_uris":{"android":"levelo://app?vid=d475b82c-0d7f-4622-ae10-5ba370aaed37","ios":"levelo://app?vid=d475b82c-0d7f-4622-ae10-5ba370aaed37"},"vehicle_type_id":"4","last_reported":1729796833,"current_range_meters":12800,"station_id":"","pricing_plan_id":"cebpf4jnsgd1na2vs0mg"},{"bike_id":"2c83906e-34b2-4de1-a842-6d257980343c","system_id":"levelo_inurba_marseille","lat":43.32359,"lon":5.38888,"is_reserved":false,"is_disabled":false,"rental_uris":{"android":"levelo://app?vid=2c83906e-34b2-4de1-a842-6d257980343c","ios":"levelo://app?vid=2c83906e-34b2-4de1-a842-6d257980343c"},"vehicle_type_id":"4","last_reported":1729796833,"current_range_meters":17600,"station_id":"ce4bhqp2rcd13ifvqhog","pricing_plan_id":"cebpf4jnsgd1na2vs0mg"},{"bike_id":"f6a0b76a-a003-4830-9be9-66274ad91ac1","system_id":"levelo_inurba_marseille","lat":43.28033,"lon":5.36948,"is_reserved":false,"is_disabled":false,"rental_uris":{"android":"levelo://app?vid=f6a0b76a-a003-4830-9be9-66274ad91ac1","ios":"levelo://app?vid=f6a0b76a-a003-4830-9be9-66274ad91ac1"},"vehicle_type_id":"4","last_reported":1729796833,"current_range_meters":19200,"station_id":"ce4bha12rcd13ifvqef0","pricing_plan_id":"cebpf4jnsgd1na2vs0mg"},{"bike_id":"d2eff34d-40c2-4deb-b708-85231e261d9f","system_id":"levelo_inurba_marseille","lat":43.29855,"lon":5.36285,"is_reserved":false,"is_disabled":false,"rental_uris":{"android":"levelo://app?vid=d2eff34d-40c2-4deb-b708-85231e261d9f","ios":"levelo://app?vid=d2eff34d-40c2-4deb-b708-85231e261d9f"},"vehicle_type_id":"4","last_reported":1729796833,"current_range_meters":3200,"station_id":"ce4bgpp2rcd13ifvqc3g","pricing_plan_id":"cebpf4jnsgd1na2vs0mg"},{"bike_id":"32745b13-c55b-4aa9-82ac-9fbdcc1e90be","system_id":"levelo_inurba_marseille","lat":43.28619,"lon":5.40122,"is_reserved":false,"is_disabled":false,"rental_uris":{"android":"levelo://app?vid=32745b13-c55b-4aa9-82ac-9fbdcc1e90be","ios":"levelo://app?vid=32745b13-c55b-4aa9-82ac-9fbdcc1e90be"},"vehicle_type_id":"4","last_reported":1729796833,"current_range_meters":2000,"station_id":"","pricing_plan_id":"cebpf4jnsgd1na2vs0mg"},{"bike_id":"7b34073d-0b10-4f56-8a2d-42f7b7151450","system_id":"levelo_inurba_marseille","lat":43.29776,"lon":5.37113,"is_reserved":false,"is_disabled":false,"rental_uris":{"android":"levelo://app?vid=7b34073d-0b10-4f56-8a2d-42f7b7151450","ios":"levelo://app?vid=7b34073d-0b10-4f56-8a2d-42f7b7151450"},"vehicle_type_id":"4","last_reported":1729796833,"current_range_meters":38400,"station_id":"ce4bgop2rcd13ifvqc1g","pricing_plan_id":"cebpf4jnsgd1na2vs0mg"},{"bike_id":"1b95b40c-622e-4262-aedf-502366ac096f","system_id":"levelo_inurba_marseille","lat":43.2841,"lon":5.37523,"is_reserved":false,"is_disabled":false,"rental_uris":{"android":"levelo://app?vid=1b95b40c-622e-4262-aedf-502366ac096f","ios":"levelo://app?vid=1b95b40c-622e-4262-aedf-502366ac096f"},"vehicle_type_id":"4","last_reported":1729796833,"current_range_meters":3200,"station_id":"ce4bh412rcd13ifvqds0","pricing_plan_id":"cebpf4jnsgd1na2vs0mg"},{"bike_id":"1c3303e4-5ddf-4485-b64b-c2fa2ff3c220","system_id":"levelo_inurba_marseille","lat":43.27953,"lon":5.41046,"is_reserved":false,"is_disabled":false,"rental_uris":{"android":"levelo://app?vid=1c3303e4-5ddf-4485-b64b-c2fa2ff3c220","ios":"levelo://app?vid=1c3303e4-5ddf-4485-b64b-c2fa2ff3c220"},"vehicle_type_id":"4","last_reported":1729796833,"current_range_meters":38800,"station_id":"ce4bhnp2rcd13ifvqh0g","pricing_plan_id":"cebpf4jnsgd1na2vs0mg"},{"bike_id":"11d8d8aa-ac8f-4069-9e3e-55f2a628b964","system_id":"levelo_inurba_marseille","lat":43.295935,"lon":5.38101,"is_reserved":false,"is_disabled":false,"rental_uris":{"android":"levelo://app?vid=11d8d8aa-ac8f-4069-9e3e-55f2a628b964","ios":"levelo://app?vid=11d8d8aa-ac8f-4069-9e3e-55f2a628b964"},"vehicle_type_id":"4","last_reported":1729796833,"current_range_meters":20400,"station_id":"ce4bgl12rcd13ifvqbo0","pricing_plan_id":"cebpf4jnsgd1na2vs0mg"},{"bike_id":"e8b49c6d-5d85-4d7a-828d-54467c4e3766","system_id":"levelo_inurba_marseille","lat":43.2707,"lon":5.42277,"is_reserved":false,"is_disabled":false,"rental_uris":{"android":"levelo://app?vid=e8b49c6d-5d85-4d7a-828d-54467c4e3766","ios":"levelo://app?vid=e8b49c6d-5d85-4d7a-828d-54467c4e3766"},"vehicle_type_id":"4","last_reported":1729796833,"current_range_meters":28400,"station_id":"ce4bhk92rcd13ifvqgb0","pricing_plan_id":"cebpf4jnsgd1na2vs0mg"},{"bike_id":"78725de7-f49a-4d1e-91ca-4dfc216e8ef0","system_id":"levelo_inurba_marseille","lat":43.29632,"lon":5.40591,"is_reserved":false,"is_disabled":false,"rental_uris":{"android":"levelo://app?vid=78725de7-f49a-4d1e-91ca-4dfc216e8ef0","ios":"levelo://app?vid=78725de7-f49a-4d1e-91ca-4dfc216e8ef0"},"vehicle_type_id":"4","last_reported":1729796833,"current_range_meters":37600,"station_id":"ce4bh0h2rcd13ifvqd60","pricing_plan_id":"cebpf4jnsgd1na2vs0mg"},{"bike_id":"b7059ac7-639c-4bfe-bf71-ec84d08ff8ba","system_id":"levelo_inurba_marseille","lat":43.31273,"lon":5.40168,"is_reserved":false,"is_disabled":false,"rental_uris":{"android":"levelo://app?vid=b7059ac7-639c-4bfe-bf71-ec84d08ff8ba","ios":"levelo://app?vid=b7059ac7-639c-4bfe-bf71-ec84d08ff8ba"},"vehicle_type_id":"4","last_reported":1729796833,"current_range_meters":38800,"station_id":"ce4bh092rcd13ifvqd30","pricing_plan_id":"cebpf4jnsgd1na2vs0mg"},{"bike_id":"46a7b501-b263-454a-971f-0cc6f3eb8d3e","system_id":"levelo_inurba_marseille","lat":43.26784,"lon":5.39421,"is_reserved":false,"is_disabled":false,"rental_uris":{"android":"levelo://app?vid=46a7b501-b263-454a-971f-0cc6f3eb8d3e","ios":"levelo://app?vid=46a7b501-b263-454a-971f-0cc6f3eb8d3e"},"vehicle_type_id":"4","last_reported":1729796833,"current_range_meters":36800,"station_id":"ce4bhh12rcd13ifvqfg0","pricing_plan_id":"cebpf4jnsgd1na2vs0mg"},{"bike_id":"f8c6f1bc-ea44-4ab8-b33c-f75f82cb071b","system_id":"levelo_inurba_marseille","lat":43.23185,"lon":5.39986,"is_reserved":false,"is_disabled":false,"rental_uris":{"android":"levelo://app?vid=f8c6f1bc-ea44-4ab8-b33c-f75f82cb071b","ios":"levelo://app?vid=f8c6f1bc-ea44-4ab8-b33c-f75f82cb071b"},"vehicle_type_id":"4","last_reported":1729796833,"current_range_meters":4400,"station_id":"ce4bhn12rcd13ifvqgqg","pricing_plan_id":"cebpf4jnsgd1na2vs0mg"},{"bike_id":"845c7045-fc56-4acf-b12f-6c1ac95c552b","system_id":"levelo_inurba_marseille","lat":43.27969,"lon":5.38726,"is_reserved":false,"is_disabled":false,"rental_uris":{"android":"levelo://app?vid=845c7045-fc56-4acf-b12f-6c1ac95c552b","ios":"levelo://app?vid=845c7045-fc56-4acf-b12f-6c1ac95c552b"},"vehicle_type_id":"4","last_reported":1729796833,"current_range_meters":12400,"station_id":"ce4bhg12rcd13ifvqf80","pricing_plan_id":"cebpf4jnsgd1na2vs0mg"},{"bike_id":"75ae0da9-9a8e-448f-aa17-c048e7c085b4","system_id":"levelo_inurba_marseille","lat":43.31069,"lon":5.38362,"is_reserved":false,"is_disabled":false,"rental_uris":{"android":"levelo://app?vid=75ae0da9-9a8e-448f-aa17-c048e7c085b4","ios":"levelo://app?vid=75ae0da9-9a8e-448f-aa17-c048e7c085b4"},"vehicle_type_id":"4","last_reported":1729796833,"current_range_meters":14000,"station_id":"ce4bgv92rcd13ifvqcr0","pricing_plan_id":"cebpf4jnsgd1na2vs0mg"},{"bike_id":"d2b1bdf2-4357-4fe1-9310-b780934b2159","system_id":"levelo_inurba_marseille","lat":43.32062,"lon":5.41575,"is_reserved":false,"is_disabled":false,"rental_uris":{"android":"levelo://app?vid=d2b1bdf2-4357-4fe1-9310-b780934b2159","ios":"levelo://app?vid=d2b1bdf2-4357-4fe1-9310-b780934b2159"},"vehicle_type_id":"4","last_reported":1729796833,"current_range_meters":38800,"station_id":"ce4bhq92rcd13ifvqhkg","pricing_plan_id":"cebpf4jnsgd1na2vs0mg"},{"bike_id":"f54dba40-53fe-4c04-804a-d9fa68459964","system_id":"levelo_inurba_marseille","lat":43.30196,"lon":5.39789,"is_reserved":false,"is_disabled":false,"rental_uris":{"android":"levelo://app?vid=f54dba40-53fe-4c04-804a-d9fa68459964","ios":"levelo://app?vid=f54dba40-53fe-4c04-804a-d9fa68459964"},"vehicle_type_id":"4","last_reported":1729796833,"current_range_meters":36400,"station_id":"ce4bgkh2rcd13ifvqbl0","pricing_plan_id":"cebpf4jnsgd1na2vs0mg"},{"bike_id":"6528ed69-c456-4e56-9558-c36e758d5302","system_id":"levelo_inurba_marseille","lat":43.3118,"lon":5.38718,"is_reserved":false,"is_disabled":false,"rental_uris":{"android":"levelo://app?vid=6528ed69-c456-4e56-9558-c36e758d5302","ios":"levelo://app?vid=6528ed69-c456-4e56-9558-c36e758d5302"},"vehicle_type_id":"4","last_reported":1729796833,"current_range_meters":11600,"station_id":"ce4bgv12rcd13ifvqcp0","pricing_plan_id":"cebpf4jnsgd1na2vs0mg"},{"bike_id":"e980b18d-e978-4420-8311-0cd0206d9023","system_id":"levelo_inurba_marseille","lat":43.24082,"lon":5.37759,"is_reserved":false,"is_disabled":false,"rental_uris":{"android":"levelo://app?vid=e980b18d-e978-4420-8311-0cd0206d9023","ios":"levelo://app?vid=e980b18d-e978-4420-8311-0cd0206d9023"},"vehicle_type_id":"4","last_reported":1729796833,"current_range_meters":10000,"station_id":"ce4bhnp2rcd13ifvqgvg","pricing_plan_id":"cebpf4jnsgd1na2vs0mg"},{"bike_id":"e8fb18d9-3dc4-481f-aa6a-be41126a152c","system_id":"levelo_inurba_marseille","lat":43.28001,"lon":5.40025,"is_reserved":false,"is_disabled":false,"rental_uris":{"android":"levelo://app?vid=e8fb18d9-3dc4-481f-aa6a-be41126a152c","ios":"levelo://app?vid=e8fb18d9-3dc4-481f-aa6a-be41126a152c"},"vehicle_type_id":"4","last_reported":1729796833,"current_range_meters":30400,"station_id":"ce4bho92rcd13ifvqh4g","pricing_plan_id":"cebpf4jnsgd1na2vs0mg"},{"bike_id":"4df89a2d-944a-4ac9-b9ea-41a3c92d5fbc","system_id":"levelo_inurba_marseille","lat":43.24664,"lon":5.38154,"is_reserved":false,"is_disabled":false,"rental_uris":{"android":"levelo://app?vid=4df89a2d-944a-4ac9-b9ea-41a3c92d5fbc","ios":"levelo://app?vid=4df89a2d-944a-4ac9-b9ea-41a3c92d5fbc"},"vehicle_type_id":"4","last_reported":1729796833,"current_range_meters":32800,"station_id":"ce4bhih2rcd13ifvqfr0","pricing_plan_id":"cebpf4jnsgd1na2vs0mg"},{"bike_id":"29eb94ee-80f1-4b97-b963-182d1bf946b1","system_id":"levelo_inurba_marseille","lat":43.29069,"lon":5.37172,"is_reserved":false,"is_disabled":false,"rental_uris":{"android":"levelo://app?vid=29eb94ee-80f1-4b97-b963-182d1bf946b1","ios":"levelo://app?vid=29eb94ee-80f1-4b97-b963-182d1bf946b1"},"vehicle_type_id":"4","last_reported":1729796833,"current_range_meters":19600,"station_id":"ce4bh5p2rcd13ifvqe4g","pricing_plan_id":"cebpf4jnsgd1na2vs0mg"},{"bike_id":"7bc82e81-2fe6-4845-95a5-cc7a3c8bbbde","system_id":"levelo_inurba_marseille","lat":43.28436,"lon":5.39184,"is_reserved":false,"is_disabled":false,"rental_uris":{"android":"levelo://app?vid=7bc82e81-2fe6-4845-95a5-cc7a3c8bbbde","ios":"levelo://app?vid=7bc82e81-2fe6-4845-95a5-cc7a3c8bbbde"},"vehicle_type_id":"4","last_reported":1729796833,"current_range_meters":2000,"station_id":"ce4bhoh2rcd13ifvqh5g","pricing_plan_id":"cebpf4jnsgd1na2vs0mg"},{"bike_id":"062af97d-c391-4f60-a36b-ffd19c80733b","system_id":"levelo_inurba_marseille","lat":43.2953,"lon":5.38539,"is_reserved":false,"is_disabled":false,"rental_uris":{"android":"levelo://app?vid=062af97d-c391-4f60-a36b-ffd19c80733b","ios":"levelo://app?vid=062af97d-c391-4f60-a36b-ffd19c80733b"},"vehicle_type_id":"4","last_reported":1729796833,"current_range_meters":38800,"station_id":"ce4bgih2rcd13ifvqba0","pricing_plan_id":"cebpf4jnsgd1na2vs0mg"},{"bike_id":"3644ece8-5e40-43b4-b800-52be5dc6b1aa","system_id":"levelo_inurba_marseille","lat":43.28438,"lon":5.39187,"is_reserved":false,"is_disabled":false,"rental_uris":{"android":"levelo://app?vid=3644ece8-5e40-43b4-b800-52be5dc6b1aa","ios":"levelo://app?vid=3644ece8-5e40-43b4-b800-52be5dc6b1aa"},"vehicle_type_id":"4","last_reported":1729796833,"current_range_meters":20400,"station_id":"ce4bhoh2rcd13ifvqh5g","pricing_plan_id":"cebpf4jnsgd1na2vs0mg"},{"bike_id":"fe0e212b-254a-4b86-a8d9-6b0b6965fd6c","system_id":"levelo_inurba_marseille","lat":43.31482,"lon":5.37311,"is_reserved":false,"is_disabled":false,"rental_uris":{"android":"levelo://app?vid=fe0e212b-254a-4b86-a8d9-6b0b6965fd6c","ios":"levelo://app?vid=fe0e212b-254a-4b86-a8d9-6b0b6965fd6c"},"vehicle_type_id":"4","last_reported":1729796833,"current_range_meters":32800,"station_id":"ce4bgt12rcd13ifvqcd0","pricing_plan_id":"cebpf4jnsgd1na2vs0mg"},{"bike_id":"e18e059b-9c9c-4c50-aedd-d288ff70c1ab","system_id":"levelo_inurba_marseille","lat":43.313009,"lon":5.385513,"is_reserved":false,"is_disabled":false,"rental_uris":{"android":"levelo://app?vid=e18e059b-9c9c-4c50-aedd-d288ff70c1ab","ios":"levelo://app?vid=e18e059b-9c9c-4c50-aedd-d288ff70c1ab"},"vehicle_type_id":"4","last_reported":1729796833,"current_range_meters":16000,"station_id":"ce4bh092rcd13ifvqd30","pricing_plan_id":"cebpf4jnsgd1na2vs0mg"},{"bike_id":"272e819b-db19-4571-879f-b4d908cbfc64","system_id":"levelo_inurba_marseille","lat":43.28896,"lon":5.36104,"is_reserved":false,"is_disabled":false,"rental_uris":{"android":"levelo://app?vid=272e819b-db19-4571-879f-b4d908cbfc64","ios":"levelo://app?vid=272e819b-db19-4571-879f-b4d908cbfc64"},"vehicle_type_id":"4","last_reported":1729796833,"current_range_meters":22400,"station_id":"","pricing_plan_id":"cebpf4jnsgd1na2vs0mg"},{"bike_id":"9da66e77-eb62-4ecf-8d46-3a5c2e9ae4b6","system_id":"levelo_inurba_marseille","lat":43.29027,"lon":5.38647,"is_reserved":false,"is_disabled":false,"rental_uris":{"android":"levelo://app?vid=9da66e77-eb62-4ecf-8d46-3a5c2e9ae4b6","ios":"levelo://app?vid=9da66e77-eb62-4ecf-8d46-3a5c2e9ae4b6"},"vehicle_type_id":"4","last_reported":1729796833,"current_range_meters":10000,"station_id":"ce4bh4p2rcd13ifvqe0g","pricing_plan_id":"cebpf4jnsgd1na2vs0mg"},{"bike_id":"034befd0-02e7-4666-8133-994da623de75","system_id":"levelo_inurba_marseille","lat":43.25584,"lon":5.38235,"is_reserved":false,"is_disabled":false,"rental_uris":{"android":"levelo://app?vid=034befd0-02e7-4666-8133-994da623de75","ios":"levelo://app?vid=034befd0-02e7-4666-8133-994da623de75"},"vehicle_type_id":"4","last_reported":1729796833,"current_range_meters":25200,"station_id":"ce4bhih2rcd13ifvqfs0","pricing_plan_id":"cebpf4jnsgd1na2vs0mg"},{"bike_id":"856d115a-8f1b-4d78-a4f5-e6563030d0a3","system_id":"levelo_inurba_marseille","lat":43.23961,"lon":5.36632,"is_reserved":false,"is_disabled":false,"rental_uris":{"android":"levelo://app?vid=856d115a-8f1b-4d78-a4f5-e6563030d0a3","ios":"levelo://app?vid=856d115a-8f1b-4d78-a4f5-e6563030d0a3"},"vehicle_type_id":"4","last_reported":1729796833,"current_range_meters":36800,"station_id":"ce4bhi12rcd13ifvqfp0","pricing_plan_id":"cebpf4jnsgd1na2vs0mg"},{"bike_id":"327d8b68-ed3b-4d8e-a82b-f862463fe5d6","system_id":"levelo_inurba_marseille","lat":43.29785,"lon":5.37109,"is_reserved":false,"is_disabled":false,"rental_uris":{"android":"levelo://app?vid=327d8b68-ed3b-4d8e-a82b-f862463fe5d6","ios":"levelo://app?vid=327d8b68-ed3b-4d8e-a82b-f862463fe5d6"},"vehicle_type_id":"4","last_reported":1729796833,"current_range_meters":24800,"station_id":"ce4bgop2rcd13ifvqc1g","pricing_plan_id":"cebpf4jnsgd1na2vs0mg"},{"bike_id":"97ec9672-eea4-4d9a-8a25-013f09b65b94","system_id":"levelo_inurba_marseille","lat":43.25574,"lon":5.38236,"is_reserved":false,"is_disabled":false,"rental_uris":{"android":"levelo://app?vid=97ec9672-eea4-4d9a-8a25-013f09b65b94","ios":"levelo://app?vid=97ec9672-eea4-4d9a-8a25-013f09b65b94"},"vehicle_type_id":"4","last_reported":1729796833,"current_range_meters":6400,"station_id":"ce4bhih2rcd13ifvqfs0","pricing_plan_id":"cebpf4jnsgd1na2vs0mg"},{"bike_id":"bebd8251-2a0e-424a-a2c9-94c8dedde414","system_id":"levelo_inurba_marseille","lat":43.28441,"lon":5.39188,"is_reserved":false,"is_disabled":false,"rental_uris":{"android":"levelo://app?vid=bebd8251-2a0e-424a-a2c9-94c8dedde414","ios":"levelo://app?vid=bebd8251-2a0e-424a-a2c9-94c8dedde414"},"vehicle_type_id":"4","last_reported":1729796833,"current_range_meters":2800,"station_id":"ce4bhoh2rcd13ifvqh5g","pricing_plan_id":"cebpf4jnsgd1na2vs0mg"},{"bike_id":"bf143a6e-ff0b-42b4-a733-6edaf22a14f9","system_id":"levelo_inurba_marseille","lat":43.29416,"lon":5.38619,"is_reserved":false,"is_disabled":false,"rental_uris":{"android":"levelo://app?vid=bf143a6e-ff0b-42b4-a733-6edaf22a14f9","ios":"levelo://app?vid=bf143a6e-ff0b-42b4-a733-6edaf22a14f9"},"vehicle_type_id":"4","last_reported":1729796833,"current_range_meters":18800,"station_id":"ce4bh2h2rcd13ifvqdh0","pricing_plan_id":"cebpf4jnsgd1na2vs0mg"},{"bike_id":"2efb9fc6-311a-4c1e-8d30-d0c4a1200de0","system_id":"levelo_inurba_marseille","lat":43.30148,"lon":5.38068,"is_reserved":false,"is_disabled":false,"rental_uris":{"android":"levelo://app?vid=2efb9fc6-311a-4c1e-8d30-d0c4a1200de0","ios":"levelo://app?vid=2efb9fc6-311a-4c1e-8d30-d0c4a1200de0"},"vehicle_type_id":"4","last_reported":1729796833,"current_range_meters":28800,"station_id":"ce4bgjp2rcd13ifvqbh0","pricing_plan_id":"cebpf4jnsgd1na2vs0mg"},{"bike_id":"ff59f0cd-d5b1-4718-8de8-f0f31f6658de","system_id":"levelo_inurba_marseille","lat":43.29027,"lon":5.38647,"is_reserved":false,"is_disabled":false,"rental_uris":{"android":"levelo://app?vid=ff59f0cd-d5b1-4718-8de8-f0f31f6658de","ios":"levelo://app?vid=ff59f0cd-d5b1-4718-8de8-f0f31f6658de"},"vehicle_type_id":"4","last_reported":1729796833,"current_range_meters":20000,"station_id":"ce4bh4p2rcd13ifvqe0g","pricing_plan_id":"cebpf4jnsgd1na2vs0mg"},{"bike_id":"3499d1ff-7a7e-4370-8310-b41c31a7e1b9","system_id":"levelo_inurba_marseille","lat":43.27618,"lon":5.36111,"is_reserved":false,"is_disabled":false,"rental_uris":{"android":"levelo://app?vid=3499d1ff-7a7e-4370-8310-b41c31a7e1b9","ios":"levelo://app?vid=3499d1ff-7a7e-4370-8310-b41c31a7e1b9"},"vehicle_type_id":"4","last_reported":1729796833,"current_range_meters":2800,"station_id":"ce4bgj92rcd13ifvqbe0","pricing_plan_id":"cebpf4jnsgd1na2vs0mg"},{"bike_id":"62614577-a5bf-499c-b571-1fe649c05774","system_id":"levelo_inurba_marseille","lat":43.30646,"lon":5.40081,"is_reserved":false,"is_disabled":false,"rental_uris":{"android":"levelo://app?vid=62614577-a5bf-499c-b571-1fe649c05774","ios":"levelo://app?vid=62614577-a5bf-499c-b571-1fe649c05774"},"vehicle_type_id":"4","last_reported":1729796833,"current_range_meters":16800,"station_id":"ce4bh112rcd13ifvqda0","pricing_plan_id":"cebpf4jnsgd1na2vs0mg"},{"bike_id":"16bd0a14-6126-4d4d-ab5a-55e7218ae5a5","system_id":"levelo_inurba_marseille","lat":43.29711,"lon":5.36332,"is_reserved":false,"is_disabled":false,"rental_uris":{"android":"levelo://app?vid=16bd0a14-6126-4d4d-ab5a-55e7218ae5a5","ios":"levelo://app?vid=16bd0a14-6126-4d4d-ab5a-55e7218ae5a5"},"vehicle_type_id":"4","last_reported":1729796833,"current_range_meters":36400,"station_id":"","pricing_plan_id":"cebpf4jnsgd1na2vs0mg"},{"bike_id":"4ca1bec4-8c28-4521-b183-9cd7fad0bbfd","system_id":"levelo_inurba_marseille","lat":43.291094,"lon":5.41742,"is_reserved":false,"is_disabled":false,"rental_uris":{"android":"levelo://app?vid=4ca1bec4-8c28-4521-b183-9cd7fad0bbfd","ios":"levelo://app?vid=4ca1bec4-8c28-4521-b183-9cd7fad0bbfd"},"vehicle_type_id":"4","last_reported":1729796833,"current_range_meters":14800,"station_id":"","pricing_plan_id":"cebpf4jnsgd1na2vs0mg"},{"bike_id":"9c980766-3696-42be-8e1a-d22fb6edb5c5","system_id":"levelo_inurba_marseille","lat":43.30669,"lon":5.38168,"is_reserved":false,"is_disabled":false,"rental_uris":{"android":"levelo://app?vid=9c980766-3696-42be-8e1a-d22fb6edb5c5","ios":"levelo://app?vid=9c980766-3696-42be-8e1a-d22fb6edb5c5"},"vehicle_type_id":"4","last_reported":1729796833,"current_range_meters":27600,"station_id":"","pricing_plan_id":"cebpf4jnsgd1na2vs0mg"},{"bike_id":"868c3d80-f79d-480c-a106-6cff97b6c614","system_id":"levelo_inurba_marseille","lat":43.29309,"lon":5.37171,"is_reserved":false,"is_disabled":false,"rental_uris":{"android":"levelo://app?vid=868c3d80-f79d-480c-a106-6cff97b6c614","ios":"levelo://app?vid=868c3d80-f79d-480c-a106-6cff97b6c614"},"vehicle_type_id":"4","last_reported":1729796833,"current_range_meters":21600,"station_id":"ce4bgh92rcd13ifvqb40","pricing_plan_id":"cebpf4jnsgd1na2vs0mg"},{"bike_id":"52f0e4a5-d535-4f96-b297-18be6815ac33","system_id":"levelo_inurba_marseille","lat":43.33722,"lon":5.39193,"is_reserved":false,"is_disabled":false,"rental_uris":{"android":"levelo://app?vid=52f0e4a5-d535-4f96-b297-18be6815ac33","ios":"levelo://app?vid=52f0e4a5-d535-4f96-b297-18be6815ac33"},"vehicle_type_id":"4","last_reported":1729796833,"current_range_meters":38800,"station_id":"ce4bhr92rcd13ifvqhsg","pricing_plan_id":"cebpf4jnsgd1na2vs0mg"},{"bike_id":"754334dc-7c77-42cd-ae7c-2bd7ea4eeedc","system_id":"levelo_inurba_marseille","lat":43.25088,"lon":5.3952,"is_reserved":false,"is_disabled":false,"rental_uris":{"android":"levelo://app?vid=754334dc-7c77-42cd-ae7c-2bd7ea4eeedc","ios":"levelo://app?vid=754334dc-7c77-42cd-ae7c-2bd7ea4eeedc"},"vehicle_type_id":"4","last_reported":1729796833,"current_range_meters":32000,"station_id":"ce4bhm12rcd13ifvqgkg","pricing_plan_id":"cebpf4jnsgd1na2vs0mg"},{"bike_id":"ddc9d34a-3a18-4656-afac-2c40e00335c6","system_id":"levelo_inurba_marseille","lat":43.26488,"lon":5.39557,"is_reserved":false,"is_disabled":false,"rental_uris":{"android":"levelo://app?vid=ddc9d34a-3a18-4656-afac-2c40e00335c6","ios":"levelo://app?vid=ddc9d34a-3a18-4656-afac-2c40e00335c6"},"vehicle_type_id":"4","last_reported":1729796833,"current_range_meters":16800,"station_id":"ce4bhi12rcd13ifvqfq0","pricing_plan_id":"cebpf4jnsgd1na2vs0mg"},{"bike_id":"9037cf40-4cd2-48a0-924f-d2172f0fabb6","system_id":"levelo_inurba_marseille","lat":43.2942,"lon":5.3861,"is_reserved":false,"is_disabled":false,"rental_uris":{"android":"levelo://app?vid=9037cf40-4cd2-48a0-924f-d2172f0fabb6","ios":"levelo://app?vid=9037cf40-4cd2-48a0-924f-d2172f0fabb6"},"vehicle_type_id":"4","last_reported":1729796833,"current_range_meters":30800,"station_id":"ce4bh2h2rcd13ifvqdh0","pricing_plan_id":"cebpf4jnsgd1na2vs0mg"},{"bike_id":"c2e6bf01-5700-4eb7-9416-867f674efc2c","system_id":"levelo_inurba_marseille","lat":43.31995,"lon":5.38162,"is_reserved":false,"is_disabled":false,"rental_uris":{"android":"levelo://app?vid=c2e6bf01-5700-4eb7-9416-867f674efc2c","ios":"levelo://app?vid=c2e6bf01-5700-4eb7-9416-867f674efc2c"},"vehicle_type_id":"4","last_reported":1729796833,"current_range_meters":14800,"station_id":"ce4bhr12rcd13ifvqhpg","pricing_plan_id":"cebpf4jnsgd1na2vs0mg"},{"bike_id":"2c1b7433-d417-416b-95fc-5f2de54616d0","system_id":"levelo_inurba_marseille","lat":43.2407,"lon":5.37769,"is_reserved":false,"is_disabled":false,"rental_uris":{"android":"levelo://app?vid=2c1b7433-d417-416b-95fc-5f2de54616d0","ios":"levelo://app?vid=2c1b7433-d417-416b-95fc-5f2de54616d0"},"vehicle_type_id":"4","last_reported":1729796833,"current_range_meters":30800,"station_id":"ce4bhnp2rcd13ifvqgvg","pricing_plan_id":"cebpf4jnsgd1na2vs0mg"},{"bike_id":"0de09ea7-d428-4e7c-8971-f54aa3edc19b","system_id":"levelo_inurba_marseille","lat":43.29868,"lon":5.3973,"is_reserved":false,"is_disabled":false,"rental_uris":{"android":"levelo://app?vid=0de09ea7-d428-4e7c-8971-f54aa3edc19b","ios":"levelo://app?vid=0de09ea7-d428-4e7c-8971-f54aa3edc19b"},"vehicle_type_id":"4","last_reported":1729796833,"current_range_meters":27600,"station_id":"ce4bh0h2rcd13ifvqd50","pricing_plan_id":"cebpf4jnsgd1na2vs0mg"},{"bike_id":"58186b97-8e69-45e7-b5e5-8903d373e41d","system_id":"levelo_inurba_marseille","lat":43.29872,"lon":5.39736,"is_reserved":false,"is_disabled":false,"rental_uris":{"android":"levelo://app?vid=58186b97-8e69-45e7-b5e5-8903d373e41d","ios":"levelo://app?vid=58186b97-8e69-45e7-b5e5-8903d373e41d"},"vehicle_type_id":"4","last_reported":1729796833,"current_range_meters":30400,"station_id":"ce4bh0h2rcd13ifvqd50","pricing_plan_id":"cebpf4jnsgd1na2vs0mg"},{"bike_id":"feda9bc1-b886-4640-ad92-201ddc16513e","system_id":"levelo_inurba_marseille","lat":43.3229,"lon":5.38264,"is_reserved":false,"is_disabled":false,"rental_uris":{"android":"levelo://app?vid=feda9bc1-b886-4640-ad92-201ddc16513e","ios":"levelo://app?vid=feda9bc1-b886-4640-ad92-201ddc16513e"},"vehicle_type_id":"4","last_reported":1729796833,"current_range_meters":39200,"station_id":"ce4bhr12rcd13ifvqhqg","pricing_plan_id":"cebpf4jnsgd1na2vs0mg"},{"bike_id":"6102734d-7415-4db1-b2ff-eac143ed6ea4","system_id":"levelo_inurba_marseille","lat":43.29522,"lon":5.39397,"is_reserved":false,"is_disabled":false,"rental_uris":{"android":"levelo://app?vid=6102734d-7415-4db1-b2ff-eac143ed6ea4","ios":"levelo://app?vid=6102734d-7415-4db1-b2ff-eac143ed6ea4"},"vehicle_type_id":"4","last_reported":1729796833,"current_range_meters":18000,"station_id":"ce4bh292rcd13ifvqdf0","pricing_plan_id":"cebpf4jnsgd1na2vs0mg"},{"bike_id":"4eae1563-adbb-433c-9769-81bc03b08dc2","system_id":"levelo_inurba_marseille","lat":43.30419,"lon":5.41287,"is_reserved":false,"is_disabled":false,"rental_uris":{"android":"levelo://app?vid=4eae1563-adbb-433c-9769-81bc03b08dc2","ios":"levelo://app?vid=4eae1563-adbb-433c-9769-81bc03b08dc2"},"vehicle_type_id":"4","last_reported":1729796833,"current_range_meters":24000,"station_id":"ce4bhop2rcd13ifvqh8g","pricing_plan_id":"cebpf4jnsgd1na2vs0mg"},{"bike_id":"2ebd03e7-4a0f-4e72-8fed-e45811dd58da","system_id":"levelo_inurba_marseille","lat":43.27952,"lon":5.41036,"is_reserved":false,"is_disabled":false,"rental_uris":{"android":"levelo://app?vid=2ebd03e7-4a0f-4e72-8fed-e45811dd58da","ios":"levelo://app?vid=2ebd03e7-4a0f-4e72-8fed-e45811dd58da"},"vehicle_type_id":"4","last_reported":1729796833,"current_range_meters":38800,"station_id":"ce4bhnp2rcd13ifvqh0g","pricing_plan_id":"cebpf4jnsgd1na2vs0mg"},{"bike_id":"780933e8-e1de-43da-994e-6eb184719c15","system_id":"levelo_inurba_marseille","lat":43.29417,"lon":5.3863,"is_reserved":false,"is_disabled":false,"rental_uris":{"android":"levelo://app?vid=780933e8-e1de-43da-994e-6eb184719c15","ios":"levelo://app?vid=780933e8-e1de-43da-994e-6eb184719c15"},"vehicle_type_id":"4","last_reported":1729796833,"current_range_meters":26800,"station_id":"ce4bh2h2rcd13ifvqdh0","pricing_plan_id":"cebpf4jnsgd1na2vs0mg"},{"bike_id":"8868fcb3-96df-4263-9338-577d1c0797d2","system_id":"levelo_inurba_marseille","lat":43.297119,"lon":5.416172,"is_reserved":false,"is_disabled":false,"rental_uris":{"android":"levelo://app?vid=8868fcb3-96df-4263-9338-577d1c0797d2","ios":"levelo://app?vid=8868fcb3-96df-4263-9338-577d1c0797d2"},"vehicle_type_id":"4","last_reported":1729796833,"current_range_meters":25600,"station_id":"ce4bh0h2rcd13ifvqd60","pricing_plan_id":"cebpf4jnsgd1na2vs0mg"},{"bike_id":"ed7871e6-6d36-4ef6-add3-59511b26fb6a","system_id":"levelo_inurba_marseille","lat":43.27954,"lon":5.41046,"is_reserved":false,"is_disabled":false,"rental_uris":{"android":"levelo://app?vid=ed7871e6-6d36-4ef6-add3-59511b26fb6a","ios":"levelo://app?vid=ed7871e6-6d36-4ef6-add3-59511b26fb6a"},"vehicle_type_id":"4","last_reported":1729796833,"current_range_meters":38800,"station_id":"ce4bhnp2rcd13ifvqh0g","pricing_plan_id":"cebpf4jnsgd1na2vs0mg"},{"bike_id":"72f41763-1d0a-46c3-becf-365e3000f516","system_id":"levelo_inurba_marseille","lat":43.24839,"lon":5.37908,"is_reserved":false,"is_disabled":false,"rental_uris":{"android":"levelo://app?vid=72f41763-1d0a-46c3-becf-365e3000f516","ios":"levelo://app?vid=72f41763-1d0a-46c3-becf-365e3000f516"},"vehicle_type_id":"4","last_reported":1729796833,"current_range_meters":22000,"station_id":"ce4bhih2rcd13ifvqfs0","pricing_plan_id":"cebpf4jnsgd1na2vs0mg"},{"bike_id":"7691659f-eea1-4b4d-8db5-2728fcde3a23","system_id":"levelo_inurba_marseille","lat":43.32323,"lon":5.38517,"is_reserved":false,"is_disabled":false,"rental_uris":{"android":"levelo://app?vid=7691659f-eea1-4b4d-8db5-2728fcde3a23","ios":"levelo://app?vid=7691659f-eea1-4b4d-8db5-2728fcde3a23"},"vehicle_type_id":"4","last_reported":1729796833,"current_range_meters":27600,"station_id":"ce4bhr12rcd13ifvqhqg","pricing_plan_id":"cebpf4jnsgd1na2vs0mg"},{"bike_id":"e453a8a6-3bd5-4d33-baa8-d4b519290d54","system_id":"levelo_inurba_marseille","lat":43.28452,"lon":5.35887,"is_reserved":false,"is_disabled":false,"rental_uris":{"android":"levelo://app?vid=e453a8a6-3bd5-4d33-baa8-d4b519290d54","ios":"levelo://app?vid=e453a8a6-3bd5-4d33-baa8-d4b519290d54"},"vehicle_type_id":"4","last_reported":1729796833,"current_range_meters":34800,"station_id":"ce4bhah2rcd13ifvqei0","pricing_plan_id":"cebpf4jnsgd1na2vs0mg"},{"bike_id":"d78a08dc-3ef1-4a84-9259-3846b9cba690","system_id":"levelo_inurba_marseille","lat":43.2794,"lon":5.41044,"is_reserved":false,"is_disabled":false,"rental_uris":{"android":"levelo://app?vid=d78a08dc-3ef1-4a84-9259-3846b9cba690","ios":"levelo://app?vid=d78a08dc-3ef1-4a84-9259-3846b9cba690"},"vehicle_type_id":"4","last_reported":1729796833,"current_range_meters":16000,"station_id":"ce4bhnp2rcd13ifvqh0g","pricing_plan_id":"cebpf4jnsgd1na2vs0mg"},{"bike_id":"8af9b822-2417-4b70-878a-a7ccaa01c7ba","system_id":"levelo_inurba_marseille","lat":43.26066,"lon":5.39396,"is_reserved":false,"is_disabled":false,"rental_uris":{"android":"levelo://app?vid=8af9b822-2417-4b70-878a-a7ccaa01c7ba","ios":"levelo://app?vid=8af9b822-2417-4b70-878a-a7ccaa01c7ba"},"vehicle_type_id":"4","last_reported":1729796833,"current_range_meters":36000,"station_id":"ce4bhh92rcd13ifvqfj0","pricing_plan_id":"cebpf4jnsgd1na2vs0mg"},{"bike_id":"228c2a65-a88a-474e-baae-39029ce20359","system_id":"levelo_inurba_marseille","lat":43.24072,"lon":5.37747,"is_reserved":false,"is_disabled":false,"rental_uris":{"android":"levelo://app?vid=228c2a65-a88a-474e-baae-39029ce20359","ios":"levelo://app?vid=228c2a65-a88a-474e-baae-39029ce20359"},"vehicle_type_id":"4","last_reported":1729796833,"current_range_meters":18000,"station_id":"ce4bhnp2rcd13ifvqgvg","pricing_plan_id":"cebpf4jnsgd1na2vs0mg"},{"bike_id":"86c61d06-d4c4-4a2c-9351-357b565e69e7","system_id":"levelo_inurba_marseille","lat":43.29278,"lon":5.38431,"is_reserved":false,"is_disabled":false,"rental_uris":{"android":"levelo://app?vid=86c61d06-d4c4-4a2c-9351-357b565e69e7","ios":"levelo://app?vid=86c61d06-d4c4-4a2c-9351-357b565e69e7"},"vehicle_type_id":"4","last_reported":1729796833,"current_range_meters":27200,"station_id":"ce4bh692rcd13ifvqea0","pricing_plan_id":"cebpf4jnsgd1na2vs0mg"},{"bike_id":"f6725a65-3f44-453e-9350-d809f9d15454","system_id":"levelo_inurba_marseille","lat":43.29416,"lon":5.38608,"is_reserved":false,"is_disabled":false,"rental_uris":{"android":"levelo://app?vid=f6725a65-3f44-453e-9350-d809f9d15454","ios":"levelo://app?vid=f6725a65-3f44-453e-9350-d809f9d15454"},"vehicle_type_id":"4","last_reported":1729796833,"current_range_meters":16800,"station_id":"ce4bh2h2rcd13ifvqdh0","pricing_plan_id":"cebpf4jnsgd1na2vs0mg"},{"bike_id":"5796fc8b-5291-47e2-aead-b08a302e690e","system_id":"levelo_inurba_marseille","lat":43.23193,"lon":5.35551,"is_reserved":false,"is_disabled":false,"rental_uris":{"android":"levelo://app?vid=5796fc8b-5291-47e2-aead-b08a302e690e","ios":"levelo://app?vid=5796fc8b-5291-47e2-aead-b08a302e690e"},"vehicle_type_id":"4","last_reported":1729796833,"current_range_meters":38000,"station_id":"ce4bhu92rcd13ifvqi70","pricing_plan_id":"cebpf4jnsgd1na2vs0mg"},{"bike_id":"ebaab6ee-7ac3-4d0a-be82-6ea0ba97f47f","system_id":"levelo_inurba_marseille","lat":43.29297,"lon":5.3746,"is_reserved":false,"is_disabled":false,"rental_uris":{"android":"levelo://app?vid=ebaab6ee-7ac3-4d0a-be82-6ea0ba97f47f","ios":"levelo://app?vid=ebaab6ee-7ac3-4d0a-be82-6ea0ba97f47f"},"vehicle_type_id":"4","last_reported":1729796833,"current_range_meters":6400,"station_id":"ce4bgi12rcd13ifvqb70","pricing_plan_id":"cebpf4jnsgd1na2vs0mg"},{"bike_id":"5291e557-c918-4db6-9386-b480fab8b930","system_id":"levelo_inurba_marseille","lat":43.24805,"lon":5.37459,"is_reserved":false,"is_disabled":false,"rental_uris":{"android":"levelo://app?vid=5291e557-c918-4db6-9386-b480fab8b930","ios":"levelo://app?vid=5291e557-c918-4db6-9386-b480fab8b930"},"vehicle_type_id":"4","last_reported":1729796833,"current_range_meters":10000,"station_id":"ce4bhgh2rcd13ifvqfb0","pricing_plan_id":"cebpf4jnsgd1na2vs0mg"},{"bike_id":"0ac2b4b1-8b19-423d-8023-dbb94d38427f","system_id":"levelo_inurba_marseille","lat":43.24071,"lon":5.37765,"is_reserved":false,"is_disabled":false,"rental_uris":{"android":"levelo://app?vid=0ac2b4b1-8b19-423d-8023-dbb94d38427f","ios":"levelo://app?vid=0ac2b4b1-8b19-423d-8023-dbb94d38427f"},"vehicle_type_id":"4","last_reported":1729796833,"current_range_meters":33600,"station_id":"ce4bhnp2rcd13ifvqgvg","pricing_plan_id":"cebpf4jnsgd1na2vs0mg"},{"bike_id":"11a9a214-b2c2-4f06-b0b4-b106c047126e","system_id":"levelo_inurba_marseille","lat":43.29525,"lon":5.39407,"is_reserved":false,"is_disabled":false,"rental_uris":{"android":"levelo://app?vid=11a9a214-b2c2-4f06-b0b4-b106c047126e","ios":"levelo://app?vid=11a9a214-b2c2-4f06-b0b4-b106c047126e"},"vehicle_type_id":"4","last_reported":1729796833,"current_range_meters":8800,"station_id":"ce4bh292rcd13ifvqdf0","pricing_plan_id":"cebpf4jnsgd1na2vs0mg"},{"bike_id":"fdd12acb-d8d2-418f-97be-fdec237e6fa4","system_id":"levelo_inurba_marseille","lat":43.23962,"lon":5.36624,"is_reserved":false,"is_disabled":false,"rental_uris":{"android":"levelo://app?vid=fdd12acb-d8d2-418f-97be-fdec237e6fa4","ios":"levelo://app?vid=fdd12acb-d8d2-418f-97be-fdec237e6fa4"},"vehicle_type_id":"4","last_reported":1729796833,"current_range_meters":9600,"station_id":"ce4bhi12rcd13ifvqfp0","pricing_plan_id":"cebpf4jnsgd1na2vs0mg"},{"bike_id":"66f020ae-5526-4ad0-8af9-6a968240ac52","system_id":"levelo_inurba_marseille","lat":43.32492,"lon":5.36578,"is_reserved":false,"is_disabled":false,"rental_uris":{"android":"levelo://app?vid=66f020ae-5526-4ad0-8af9-6a968240ac52","ios":"levelo://app?vid=66f020ae-5526-4ad0-8af9-6a968240ac52"},"vehicle_type_id":"4","last_reported":1729796833,"current_range_meters":38800,"station_id":"ce4bhs12rcd13ifvqhvg","pricing_plan_id":"cebpf4jnsgd1na2vs0mg"},{"bike_id":"16e3e0e5-bd85-4fd2-b857-f3c660d4ae0d","system_id":"levelo_inurba_marseille","lat":43.24076,"lon":5.37758,"is_reserved":false,"is_disabled":false,"rental_uris":{"android":"levelo://app?vid=16e3e0e5-bd85-4fd2-b857-f3c660d4ae0d","ios":"levelo://app?vid=16e3e0e5-bd85-4fd2-b857-f3c660d4ae0d"},"vehicle_type_id":"4","last_reported":1729796833,"current_range_meters":36800,"station_id":"ce4bhnp2rcd13ifvqgvg","pricing_plan_id":"cebpf4jnsgd1na2vs0mg"},{"bike_id":"d897818e-a5c8-4458-9452-797090737b17","system_id":"levelo_inurba_marseille","lat":43.28154,"lon":5.4264,"is_reserved":false,"is_disabled":false,"rental_uris":{"android":"levelo://app?vid=d897818e-a5c8-4458-9452-797090737b17","ios":"levelo://app?vid=d897818e-a5c8-4458-9452-797090737b17"},"vehicle_type_id":"4","last_reported":1729796833,"current_range_meters":37600,"station_id":"ce4bhnh2rcd13ifvqgug","pricing_plan_id":"cebpf4jnsgd1na2vs0mg"},{"bike_id":"b427b764-a0aa-4425-8240-3637a7b580ab","system_id":"levelo_inurba_marseille","lat":43.31689,"lon":5.40473,"is_reserved":false,"is_disabled":false,"rental_uris":{"android":"levelo://app?vid=b427b764-a0aa-4425-8240-3637a7b580ab","ios":"levelo://app?vid=b427b764-a0aa-4425-8240-3637a7b580ab"},"vehicle_type_id":"4","last_reported":1729796833,"current_range_meters":4400,"station_id":"ce4bh012rcd13ifvqd00","pricing_plan_id":"cebpf4jnsgd1na2vs0mg"},{"bike_id":"bfdaaba9-00ee-4476-b15d-93b7821ab8db","system_id":"levelo_inurba_marseille","lat":43.29265,"lon":5.38434,"is_reserved":false,"is_disabled":false,"rental_uris":{"android":"levelo://app?vid=bfdaaba9-00ee-4476-b15d-93b7821ab8db","ios":"levelo://app?vid=bfdaaba9-00ee-4476-b15d-93b7821ab8db"},"vehicle_type_id":"4","last_reported":1729796833,"current_range_meters":26800,"station_id":"ce4bh692rcd13ifvqea0","pricing_plan_id":"cebpf4jnsgd1na2vs0mg"},{"bike_id":"b7a5234c-b456-499e-9e39-8364a5fe813e","system_id":"levelo_inurba_marseille","lat":43.3014,"lon":5.37415,"is_reserved":false,"is_disabled":false,"rental_uris":{"android":"levelo://app?vid=b7a5234c-b456-499e-9e39-8364a5fe813e","ios":"levelo://app?vid=b7a5234c-b456-499e-9e39-8364a5fe813e"},"vehicle_type_id":"4","last_reported":1729796833,"current_range_meters":38800,"station_id":"ce4bgs92rcd13ifvqcc0","pricing_plan_id":"cebpf4jnsgd1na2vs0mg"},{"bike_id":"6a84c8ab-12f5-4103-b6b7-6249f5f73b1f","system_id":"levelo_inurba_marseille","lat":43.31754,"lon":5.39027,"is_reserved":false,"is_disabled":false,"rental_uris":{"android":"levelo://app?vid=6a84c8ab-12f5-4103-b6b7-6249f5f73b1f","ios":"levelo://app?vid=6a84c8ab-12f5-4103-b6b7-6249f5f73b1f"},"vehicle_type_id":"4","last_reported":1729796833,"current_range_meters":38800,"station_id":"ce4bhqp2rcd13ifvqhng","pricing_plan_id":"cebpf4jnsgd1na2vs0mg"},{"bike_id":"0bc90dc2-cf8c-457e-a6aa-9b91de95f992","system_id":"levelo_inurba_marseille","lat":43.22757,"lon":5.41577,"is_reserved":false,"is_disabled":false,"rental_uris":{"android":"levelo://app?vid=0bc90dc2-cf8c-457e-a6aa-9b91de95f992","ios":"levelo://app?vid=0bc90dc2-cf8c-457e-a6aa-9b91de95f992"},"vehicle_type_id":"4","last_reported":1729796833,"current_range_meters":31200,"station_id":"","pricing_plan_id":"cebpf4jnsgd1na2vs0mg"},{"bike_id":"f139bcbc-8d39-4dfc-921a-74c8b2a95379","system_id":"levelo_inurba_marseille","lat":43.29418,"lon":5.38624,"is_reserved":false,"is_disabled":false,"rental_uris":{"android":"levelo://app?vid=f139bcbc-8d39-4dfc-921a-74c8b2a95379","ios":"levelo://app?vid=f139bcbc-8d39-4dfc-921a-74c8b2a95379"},"vehicle_type_id":"4","last_reported":1729796833,"current_range_meters":28400,"station_id":"ce4bh2h2rcd13ifvqdh0","pricing_plan_id":"cebpf4jnsgd1na2vs0mg"},{"bike_id":"98e8ffd0-e672-4f87-84e8-1a3ba6583de7","system_id":"levelo_inurba_marseille","lat":43.29567,"lon":5.39975,"is_reserved":false,"is_disabled":false,"rental_uris":{"android":"levelo://app?vid=98e8ffd0-e672-4f87-84e8-1a3ba6583de7","ios":"levelo://app?vid=98e8ffd0-e672-4f87-84e8-1a3ba6583de7"},"vehicle_type_id":"4","last_reported":1729796833,"current_range_meters":39200,"station_id":"ce4bh312rcd13ifvqdj0","pricing_plan_id":"cebpf4jnsgd1na2vs0mg"},{"bike_id":"49fb16d2-6117-4fe1-9256-68ae1d341abd","system_id":"levelo_inurba_marseille","lat":43.28154,"lon":5.42649,"is_reserved":false,"is_disabled":false,"rental_uris":{"android":"levelo://app?vid=49fb16d2-6117-4fe1-9256-68ae1d341abd","ios":"levelo://app?vid=49fb16d2-6117-4fe1-9256-68ae1d341abd"},"vehicle_type_id":"4","last_reported":1729796833,"current_range_meters":23200,"station_id":"ce4bhnh2rcd13ifvqgug","pricing_plan_id":"cebpf4jnsgd1na2vs0mg"},{"bike_id":"a2473142-94f8-49f6-a40b-21cfc06b5795","system_id":"levelo_inurba_marseille","lat":43.26208,"lon":5.37929,"is_reserved":false,"is_disabled":false,"rental_uris":{"android":"levelo://app?vid=a2473142-94f8-49f6-a40b-21cfc06b5795","ios":"levelo://app?vid=a2473142-94f8-49f6-a40b-21cfc06b5795"},"vehicle_type_id":"4","last_reported":1729796833,"current_range_meters":18000,"station_id":"ce4bhjp2rcd13ifvqg90","pricing_plan_id":"cebpf4jnsgd1na2vs0mg"},{"bike_id":"97016870-edf0-4ee6-8329-29a4610e4f6d","system_id":"levelo_inurba_marseille","lat":43.29416,"lon":5.38624,"is_reserved":false,"is_disabled":false,"rental_uris":{"android":"levelo://app?vid=97016870-edf0-4ee6-8329-29a4610e4f6d","ios":"levelo://app?vid=97016870-edf0-4ee6-8329-29a4610e4f6d"},"vehicle_type_id":"4","last_reported":1729796833,"current_range_meters":14800,"station_id":"ce4bh2h2rcd13ifvqdh0","pricing_plan_id":"cebpf4jnsgd1na2vs0mg"},{"bike_id":"3d814bc8-7cde-42dc-be31-b3ae59f20bd8","system_id":"levelo_inurba_marseille","lat":43.30889,"lon":5.37181,"is_reserved":false,"is_disabled":false,"rental_uris":{"android":"levelo://app?vid=3d814bc8-7cde-42dc-be31-b3ae59f20bd8","ios":"levelo://app?vid=3d814bc8-7cde-42dc-be31-b3ae59f20bd8"},"vehicle_type_id":"4","last_reported":1729796833,"current_range_meters":36800,"station_id":"","pricing_plan_id":"cebpf4jnsgd1na2vs0mg"},{"bike_id":"2e5eb0cc-6b36-4bfc-9a88-42edc7708a32","system_id":"levelo_inurba_marseille","lat":43.29262,"lon":5.3844,"is_reserved":false,"is_disabled":false,"rental_uris":{"android":"levelo://app?vid=2e5eb0cc-6b36-4bfc-9a88-42edc7708a32","ios":"levelo://app?vid=2e5eb0cc-6b36-4bfc-9a88-42edc7708a32"},"vehicle_type_id":"4","last_reported":1729796833,"current_range_meters":17200,"station_id":"ce4bh692rcd13ifvqea0","pricing_plan_id":"cebpf4jnsgd1na2vs0mg"},{"bike_id":"a7723888-99c9-4ba3-916e-ca30da4945d8","system_id":"levelo_inurba_marseille","lat":43.24081,"lon":5.37755,"is_reserved":false,"is_disabled":false,"rental_uris":{"android":"levelo://app?vid=a7723888-99c9-4ba3-916e-ca30da4945d8","ios":"levelo://app?vid=a7723888-99c9-4ba3-916e-ca30da4945d8"},"vehicle_type_id":"4","last_reported":1729796833,"current_range_meters":13600,"station_id":"ce4bhnp2rcd13ifvqgvg","pricing_plan_id":"cebpf4jnsgd1na2vs0mg"},{"bike_id":"7c72f3d4-9f64-4313-b180-ed24ffe9acbd","system_id":"levelo_inurba_marseille","lat":43.29263,"lon":5.38436,"is_reserved":false,"is_disabled":false,"rental_uris":{"android":"levelo://app?vid=7c72f3d4-9f64-4313-b180-ed24ffe9acbd","ios":"levelo://app?vid=7c72f3d4-9f64-4313-b180-ed24ffe9acbd"},"vehicle_type_id":"4","last_reported":1729796833,"current_range_meters":26800,"station_id":"ce4bh692rcd13ifvqea0","pricing_plan_id":"cebpf4jnsgd1na2vs0mg"},{"bike_id":"6d8fdc70-2be0-4237-88e4-1801a1009a1c","system_id":"levelo_inurba_marseille","lat":43.29883,"lon":5.39741,"is_reserved":false,"is_disabled":false,"rental_uris":{"android":"levelo://app?vid=6d8fdc70-2be0-4237-88e4-1801a1009a1c","ios":"levelo://app?vid=6d8fdc70-2be0-4237-88e4-1801a1009a1c"},"vehicle_type_id":"4","last_reported":1729796833,"current_range_meters":24800,"station_id":"ce4bh0h2rcd13ifvqd50","pricing_plan_id":"cebpf4jnsgd1na2vs0mg"},{"bike_id":"c6be0f10-b145-4926-8b81-1189399cc5ea","system_id":"levelo_inurba_marseille","lat":43.30142,"lon":5.37408,"is_reserved":false,"is_disabled":false,"rental_uris":{"android":"levelo://app?vid=c6be0f10-b145-4926-8b81-1189399cc5ea","ios":"levelo://app?vid=c6be0f10-b145-4926-8b81-1189399cc5ea"},"vehicle_type_id":"4","last_reported":1729796833,"current_range_meters":38800,"station_id":"ce4bgs92rcd13ifvqcc0","pricing_plan_id":"cebpf4jnsgd1na2vs0mg"},{"bike_id":"64be391d-dcc1-4020-b24c-c666bdacd254","system_id":"levelo_inurba_marseille","lat":43.27175,"lon":5.40994,"is_reserved":false,"is_disabled":false,"rental_uris":{"android":"levelo://app?vid=64be391d-dcc1-4020-b24c-c666bdacd254","ios":"levelo://app?vid=64be391d-dcc1-4020-b24c-c666bdacd254"},"vehicle_type_id":"4","last_reported":1729796833,"current_range_meters":28400,"station_id":"ce4bhl12rcd13ifvqgf0","pricing_plan_id":"cebpf4jnsgd1na2vs0mg"},{"bike_id":"bfc9c85d-34bf-4429-900f-759b9b780caf","system_id":"levelo_inurba_marseille","lat":43.27989,"lon":5.40005,"is_reserved":false,"is_disabled":false,"rental_uris":{"android":"levelo://app?vid=bfc9c85d-34bf-4429-900f-759b9b780caf","ios":"levelo://app?vid=bfc9c85d-34bf-4429-900f-759b9b780caf"},"vehicle_type_id":"4","last_reported":1729796833,"current_range_meters":38800,"station_id":"ce4bho92rcd13ifvqh4g","pricing_plan_id":"cebpf4jnsgd1na2vs0mg"},{"bike_id":"36856ec2-b80b-4ae8-abff-10088c18f7e8","system_id":"levelo_inurba_marseille","lat":43.24167,"lon":5.36398,"is_reserved":false,"is_disabled":false,"rental_uris":{"android":"levelo://app?vid=36856ec2-b80b-4ae8-abff-10088c18f7e8","ios":"levelo://app?vid=36856ec2-b80b-4ae8-abff-10088c18f7e8"},"vehicle_type_id":"4","last_reported":1729796833,"current_range_meters":38800,"station_id":"cpo36qri1sfpv3e86is0","pricing_plan_id":"cebpf4jnsgd1na2vs0mg"},{"bike_id":"ab51a3b8-c20f-4045-a2d6-a52f1c751e56","system_id":"levelo_inurba_marseille","lat":43.298984,"lon":5.436683,"is_reserved":false,"is_disabled":false,"rental_uris":{"android":"levelo://app?vid=ab51a3b8-c20f-4045-a2d6-a52f1c751e56","ios":"levelo://app?vid=ab51a3b8-c20f-4045-a2d6-a52f1c751e56"},"vehicle_type_id":"4","last_reported":1729796833,"current_range_meters":13600,"station_id":"ce4bhpp2rcd13ifvqhfg","pricing_plan_id":"cebpf4jnsgd1na2vs0mg"},{"bike_id":"78dd4c6c-699f-4c6a-8ee5-1aa5251459a8","system_id":"levelo_inurba_marseille","lat":43.29897,"lon":5.43675,"is_reserved":false,"is_disabled":false,"rental_uris":{"android":"levelo://app?vid=78dd4c6c-699f-4c6a-8ee5-1aa5251459a8","ios":"levelo://app?vid=78dd4c6c-699f-4c6a-8ee5-1aa5251459a8"},"vehicle_type_id":"4","last_reported":1729796833,"current_range_meters":30000,"station_id":"ce4bhpp2rcd13ifvqhfg","pricing_plan_id":"cebpf4jnsgd1na2vs0mg"},{"bike_id":"5610c63b-3eb4-494a-ae4b-dde1eefda59f","system_id":"levelo_inurba_marseille","lat":43.30424,"lon":5.39757,"is_reserved":false,"is_disabled":false,"rental_uris":{"android":"levelo://app?vid=5610c63b-3eb4-494a-ae4b-dde1eefda59f","ios":"levelo://app?vid=5610c63b-3eb4-494a-ae4b-dde1eefda59f"},"vehicle_type_id":"4","last_reported":1729796833,"current_range_meters":38400,"station_id":"ce4bh092rcd13ifvqd20","pricing_plan_id":"cebpf4jnsgd1na2vs0mg"},{"bike_id":"1c85ffe2-3017-4ad6-bf6b-cfbddb19a473","system_id":"levelo_inurba_marseille","lat":43.30182,"lon":5.36618,"is_reserved":false,"is_disabled":false,"rental_uris":{"android":"levelo://app?vid=1c85ffe2-3017-4ad6-bf6b-cfbddb19a473","ios":"levelo://app?vid=1c85ffe2-3017-4ad6-bf6b-cfbddb19a473"},"vehicle_type_id":"4","last_reported":1729796833,"current_range_meters":38800,"station_id":"ce4bgrh2rcd13ifvqc8g","pricing_plan_id":"cebpf4jnsgd1na2vs0mg"},{"bike_id":"79aa6d1e-cc6a-4105-91b5-13648ff11554","system_id":"levelo_inurba_marseille","lat":43.2926,"lon":5.38432,"is_reserved":false,"is_disabled":false,"rental_uris":{"android":"levelo://app?vid=79aa6d1e-cc6a-4105-91b5-13648ff11554","ios":"levelo://app?vid=79aa6d1e-cc6a-4105-91b5-13648ff11554"},"vehicle_type_id":"4","last_reported":1729796833,"current_range_meters":14400,"station_id":"ce4bh692rcd13ifvqea0","pricing_plan_id":"cebpf4jnsgd1na2vs0mg"},{"bike_id":"2456b194-761a-4ef0-a148-cde280026346","system_id":"levelo_inurba_marseille","lat":43.29573,"lon":5.37529,"is_reserved":false,"is_disabled":false,"rental_uris":{"android":"levelo://app?vid=2456b194-761a-4ef0-a148-cde280026346","ios":"levelo://app?vid=2456b194-761a-4ef0-a148-cde280026346"},"vehicle_type_id":"4","last_reported":1729796833,"current_range_meters":32800,"station_id":"ce4bgh92rcd13ifvqb50","pricing_plan_id":"cebpf4jnsgd1na2vs0mg"},{"bike_id":"66270dfe-641c-42e9-b79a-37269edb6e60","system_id":"levelo_inurba_marseille","lat":43.29268,"lon":5.38439,"is_reserved":false,"is_disabled":false,"rental_uris":{"android":"levelo://app?vid=66270dfe-641c-42e9-b79a-37269edb6e60","ios":"levelo://app?vid=66270dfe-641c-42e9-b79a-37269edb6e60"},"vehicle_type_id":"4","last_reported":1729796833,"current_range_meters":38800,"station_id":"ce4bh692rcd13ifvqea0","pricing_plan_id":"cebpf4jnsgd1na2vs0mg"},{"bike_id":"8b1ecf10-a6a9-4de5-84cb-8fc79a8d014f","system_id":"levelo_inurba_marseille","lat":43.29419,"lon":5.38627,"is_reserved":false,"is_disabled":false,"rental_uris":{"android":"levelo://app?vid=8b1ecf10-a6a9-4de5-84cb-8fc79a8d014f","ios":"levelo://app?vid=8b1ecf10-a6a9-4de5-84cb-8fc79a8d014f"},"vehicle_type_id":"4","last_reported":1729796833,"current_range_meters":18800,"station_id":"ce4bh2h2rcd13ifvqdh0","pricing_plan_id":"cebpf4jnsgd1na2vs0mg"},{"bike_id":"365a5e76-e012-4983-b8a9-1a07480bde83","system_id":"levelo_inurba_marseille","lat":43.23192,"lon":5.35547,"is_reserved":false,"is_disabled":false,"rental_uris":{"android":"levelo://app?vid=365a5e76-e012-4983-b8a9-1a07480bde83","ios":"levelo://app?vid=365a5e76-e012-4983-b8a9-1a07480bde83"},"vehicle_type_id":"4","last_reported":1729796833,"current_range_meters":38800,"station_id":"ce4bhu92rcd13ifvqi70","pricing_plan_id":"cebpf4jnsgd1na2vs0mg"},{"bike_id":"aa5eb613-df14-46b1-a90c-6fde417be084","system_id":"levelo_inurba_marseille","lat":43.26805,"lon":5.40265,"is_reserved":false,"is_disabled":false,"rental_uris":{"android":"levelo://app?vid=aa5eb613-df14-46b1-a90c-6fde417be084","ios":"levelo://app?vid=aa5eb613-df14-46b1-a90c-6fde417be084"},"vehicle_type_id":"4","last_reported":1729796833,"current_range_meters":8400,"station_id":"ce501612rcd8frsf0b60","pricing_plan_id":"cebpf4jnsgd1na2vs0mg"},{"bike_id":"66b0e393-0cc2-45b1-afab-63a42ec24e44","system_id":"levelo_inurba_marseille","lat":43.29266,"lon":5.38445,"is_reserved":false,"is_disabled":false,"rental_uris":{"android":"levelo://app?vid=66b0e393-0cc2-45b1-afab-63a42ec24e44","ios":"levelo://app?vid=66b0e393-0cc2-45b1-afab-63a42ec24e44"},"vehicle_type_id":"4","last_reported":1729796833,"current_range_meters":19200,"station_id":"ce4bh692rcd13ifvqea0","pricing_plan_id":"cebpf4jnsgd1na2vs0mg"},{"bike_id":"f4ea3b9e-3917-4066-8561-650c9f717201","system_id":"levelo_inurba_marseille","lat":43.29263,"lon":5.40906,"is_reserved":false,"is_disabled":false,"rental_uris":{"android":"levelo://app?vid=f4ea3b9e-3917-4066-8561-650c9f717201","ios":"levelo://app?vid=f4ea3b9e-3917-4066-8561-650c9f717201"},"vehicle_type_id":"4","last_reported":1729796833,"current_range_meters":8400,"station_id":"ce4bh192rcd13ifvqdc0","pricing_plan_id":"cebpf4jnsgd1na2vs0mg"},{"bike_id":"f7d682ee-8665-4df3-9222-b1cc264702d1","system_id":"levelo_inurba_marseille","lat":43.26785,"lon":5.39417,"is_reserved":false,"is_disabled":false,"rental_uris":{"android":"levelo://app?vid=f7d682ee-8665-4df3-9222-b1cc264702d1","ios":"levelo://app?vid=f7d682ee-8665-4df3-9222-b1cc264702d1"},"vehicle_type_id":"4","last_reported":1729796833,"current_range_meters":12400,"station_id":"ce4bhh12rcd13ifvqfg0","pricing_plan_id":"cebpf4jnsgd1na2vs0mg"},{"bike_id":"12c6dc1f-3543-4346-b376-79d21c6f45dd","system_id":"levelo_inurba_marseille","lat":43.31171,"lon":5.38716,"is_reserved":false,"is_disabled":false,"rental_uris":{"android":"levelo://app?vid=12c6dc1f-3543-4346-b376-79d21c6f45dd","ios":"levelo://app?vid=12c6dc1f-3543-4346-b376-79d21c6f45dd"},"vehicle_type_id":"4","last_reported":1729796833,"current_range_meters":6400,"station_id":"ce4bgv12rcd13ifvqcp0","pricing_plan_id":"cebpf4jnsgd1na2vs0mg"},{"bike_id":"d4c3f55d-fd45-4f78-9f7c-d19fe141e9b6","system_id":"levelo_inurba_marseille","lat":43.31063,"lon":5.40094,"is_reserved":false,"is_disabled":false,"rental_uris":{"android":"levelo://app?vid=d4c3f55d-fd45-4f78-9f7c-d19fe141e9b6","ios":"levelo://app?vid=d4c3f55d-fd45-4f78-9f7c-d19fe141e9b6"},"vehicle_type_id":"4","last_reported":1729796833,"current_range_meters":34800,"station_id":"ce4bhpp2rcd13ifvqhfg","pricing_plan_id":"cebpf4jnsgd1na2vs0mg"},{"bike_id":"ce678286-b87f-4bbd-9015-95c00e9dc49b","system_id":"levelo_inurba_marseille","lat":43.24074,"lon":5.37763,"is_reserved":false,"is_disabled":false,"rental_uris":{"android":"levelo://app?vid=ce678286-b87f-4bbd-9015-95c00e9dc49b","ios":"levelo://app?vid=ce678286-b87f-4bbd-9015-95c00e9dc49b"},"vehicle_type_id":"4","last_reported":1729796833,"current_range_meters":27200,"station_id":"ce4bhnp2rcd13ifvqgvg","pricing_plan_id":"cebpf4jnsgd1na2vs0mg"},{"bike_id":"c742ee47-bef4-43a3-9e7f-d3c2ba6187f9","system_id":"levelo_inurba_marseille","lat":43.27298,"lon":5.39124,"is_reserved":false,"is_disabled":false,"rental_uris":{"android":"levelo://app?vid=c742ee47-bef4-43a3-9e7f-d3c2ba6187f9","ios":"levelo://app?vid=c742ee47-bef4-43a3-9e7f-d3c2ba6187f9"},"vehicle_type_id":"4","last_reported":1729796833,"current_range_meters":35200,"station_id":"ce4bhgp2rcd13ifvqfe0","pricing_plan_id":"cebpf4jnsgd1na2vs0mg"},{"bike_id":"3ec8f797-b457-4b3e-8189-7d11d80a06b2","system_id":"levelo_inurba_marseille","lat":43.27616,"lon":5.36106,"is_reserved":false,"is_disabled":false,"rental_uris":{"android":"levelo://app?vid=3ec8f797-b457-4b3e-8189-7d11d80a06b2","ios":"levelo://app?vid=3ec8f797-b457-4b3e-8189-7d11d80a06b2"},"vehicle_type_id":"4","last_reported":1729796833,"current_range_meters":17200,"station_id":"ce4bgj92rcd13ifvqbe0","pricing_plan_id":"cebpf4jnsgd1na2vs0mg"},{"bike_id":"5b0fce28-be2e-4800-a87b-010190a545d6","system_id":"levelo_inurba_marseille","lat":43.284576,"lon":5.358805,"is_reserved":false,"is_disabled":false,"rental_uris":{"android":"levelo://app?vid=5b0fce28-be2e-4800-a87b-010190a545d6","ios":"levelo://app?vid=5b0fce28-be2e-4800-a87b-010190a545d6"},"vehicle_type_id":"4","last_reported":1729796833,"current_range_meters":4000,"station_id":"ce4bgqh2rcd13ifvqc5g","pricing_plan_id":"cebpf4jnsgd1na2vs0mg"},{"bike_id":"01c2407e-850c-446d-b4a5-cf291136f37d","system_id":"levelo_inurba_marseille","lat":43.2798,"lon":5.41026,"is_reserved":false,"is_disabled":false,"rental_uris":{"android":"levelo://app?vid=01c2407e-850c-446d-b4a5-cf291136f37d","ios":"levelo://app?vid=01c2407e-850c-446d-b4a5-cf291136f37d"},"vehicle_type_id":"4","last_reported":1729796833,"current_range_meters":8000,"station_id":"ce4bhnh2rcd13ifvqgtg","pricing_plan_id":"cebpf4jnsgd1na2vs0mg"},{"bike_id":"9aa99984-3aab-4a38-a014-145c49eab468","system_id":"levelo_inurba_marseille","lat":43.24649,"lon":5.38891,"is_reserved":false,"is_disabled":false,"rental_uris":{"android":"levelo://app?vid=9aa99984-3aab-4a38-a014-145c49eab468","ios":"levelo://app?vid=9aa99984-3aab-4a38-a014-145c49eab468"},"vehicle_type_id":"4","last_reported":1729796833,"current_range_meters":8400,"station_id":"ce4bhg12rcd13ifvqf60","pricing_plan_id":"cebpf4jnsgd1na2vs0mg"},{"bike_id":"efe6bbd6-1ca4-4c77-8df0-eaef47e18b55","system_id":"levelo_inurba_marseille","lat":43.27181,"lon":5.40995,"is_reserved":false,"is_disabled":false,"rental_uris":{"android":"levelo://app?vid=efe6bbd6-1ca4-4c77-8df0-eaef47e18b55","ios":"levelo://app?vid=efe6bbd6-1ca4-4c77-8df0-eaef47e18b55"},"vehicle_type_id":"4","last_reported":1729796833,"current_range_meters":38800,"station_id":"ce4bhl12rcd13ifvqgf0","pricing_plan_id":"cebpf4jnsgd1na2vs0mg"},{"bike_id":"9c78078a-7e8b-4511-8541-a6915ed7654b","system_id":"levelo_inurba_marseille","lat":43.29532,"lon":5.38537,"is_reserved":false,"is_disabled":false,"rental_uris":{"android":"levelo://app?vid=9c78078a-7e8b-4511-8541-a6915ed7654b","ios":"levelo://app?vid=9c78078a-7e8b-4511-8541-a6915ed7654b"},"vehicle_type_id":"4","last_reported":1729796833,"current_range_meters":20400,"station_id":"ce4bgih2rcd13ifvqba0","pricing_plan_id":"cebpf4jnsgd1na2vs0mg"},{"bike_id":"76246192-9ac4-4edd-9f7b-00153fa9dfd1","system_id":"levelo_inurba_marseille","lat":43.3118,"lon":5.38712,"is_reserved":false,"is_disabled":false,"rental_uris":{"android":"levelo://app?vid=76246192-9ac4-4edd-9f7b-00153fa9dfd1","ios":"levelo://app?vid=76246192-9ac4-4edd-9f7b-00153fa9dfd1"},"vehicle_type_id":"4","last_reported":1729796833,"current_range_meters":38800,"station_id":"ce4bgv12rcd13ifvqcp0","pricing_plan_id":"cebpf4jnsgd1na2vs0mg"},{"bike_id":"7c1e729b-7c6a-4f7f-87cd-db2dd498acc3","system_id":"levelo_inurba_marseille","lat":43.25923,"lon":5.40898,"is_reserved":false,"is_disabled":false,"rental_uris":{"android":"levelo://app?vid=7c1e729b-7c6a-4f7f-87cd-db2dd498acc3","ios":"levelo://app?vid=7c1e729b-7c6a-4f7f-87cd-db2dd498acc3"},"vehicle_type_id":"4","last_reported":1729796833,"current_range_meters":25600,"station_id":"ce4bhm92rcd13ifvqglg","pricing_plan_id":"cebpf4jnsgd1na2vs0mg"},{"bike_id":"bb99c686-b07c-4af0-8837-e709a8664290","system_id":"levelo_inurba_marseille","lat":43.31187,"lon":5.38716,"is_reserved":false,"is_disabled":false,"rental_uris":{"android":"levelo://app?vid=bb99c686-b07c-4af0-8837-e709a8664290","ios":"levelo://app?vid=bb99c686-b07c-4af0-8837-e709a8664290"},"vehicle_type_id":"4","last_reported":1729796833,"current_range_meters":24000,"station_id":"","pricing_plan_id":"cebpf4jnsgd1na2vs0mg"},{"bike_id":"534c4532-53f4-4e3a-b75c-ff40e4b469a9","system_id":"levelo_inurba_marseille","lat":43.25823,"lon":5.39438,"is_reserved":false,"is_disabled":false,"rental_uris":{"android":"levelo://app?vid=534c4532-53f4-4e3a-b75c-ff40e4b469a9","ios":"levelo://app?vid=534c4532-53f4-4e3a-b75c-ff40e4b469a9"},"vehicle_type_id":"4","last_reported":1729796833,"current_range_meters":11200,"station_id":"ce4bhip2rcd13ifvqft0","pricing_plan_id":"cebpf4jnsgd1na2vs0mg"},{"bike_id":"aec32770-f6e4-4369-bb87-2586510d663d","system_id":"levelo_inurba_marseille","lat":43.31497,"lon":5.37313,"is_reserved":false,"is_disabled":false,"rental_uris":{"android":"levelo://app?vid=aec32770-f6e4-4369-bb87-2586510d663d","ios":"levelo://app?vid=aec32770-f6e4-4369-bb87-2586510d663d"},"vehicle_type_id":"4","last_reported":1729796833,"current_range_meters":12800,"station_id":"ce4bgt92rcd13ifvqcg0","pricing_plan_id":"cebpf4jnsgd1na2vs0mg"},{"bike_id":"8999d2f1-bd13-4dd6-88c3-2d9050045956","system_id":"levelo_inurba_marseille","lat":43.29914,"lon":5.37472,"is_reserved":false,"is_disabled":false,"rental_uris":{"android":"levelo://app?vid=8999d2f1-bd13-4dd6-88c3-2d9050045956","ios":"levelo://app?vid=8999d2f1-bd13-4dd6-88c3-2d9050045956"},"vehicle_type_id":"4","last_reported":1729796833,"current_range_meters":15200,"station_id":"ce4bgjh2rcd13ifvqbg0","pricing_plan_id":"cebpf4jnsgd1na2vs0mg"},{"bike_id":"5d20bc41-8158-402a-95c9-f72f3b7f4200","system_id":"levelo_inurba_marseille","lat":43.29525,"lon":5.39402,"is_reserved":false,"is_disabled":false,"rental_uris":{"android":"levelo://app?vid=5d20bc41-8158-402a-95c9-f72f3b7f4200","ios":"levelo://app?vid=5d20bc41-8158-402a-95c9-f72f3b7f4200"},"vehicle_type_id":"4","last_reported":1729796833,"current_range_meters":24400,"station_id":"ce4bh292rcd13ifvqdf0","pricing_plan_id":"cebpf4jnsgd1na2vs0mg"},{"bike_id":"64b170f8-2500-48ef-96a3-25f7c0707542","system_id":"levelo_inurba_marseille","lat":43.337444,"lon":5.374475,"is_reserved":false,"is_disabled":false,"rental_uris":{"android":"levelo://app?vid=64b170f8-2500-48ef-96a3-25f7c0707542","ios":"levelo://app?vid=64b170f8-2500-48ef-96a3-25f7c0707542"},"vehicle_type_id":"4","last_reported":1729796833,"current_range_meters":5600,"station_id":"","pricing_plan_id":"cebpf4jnsgd1na2vs0mg"},{"bike_id":"a888a0cf-ccad-4ca6-828d-20d8c81913ab","system_id":"levelo_inurba_marseille","lat":43.29104,"lon":5.38141,"is_reserved":false,"is_disabled":false,"rental_uris":{"android":"levelo://app?vid=a888a0cf-ccad-4ca6-828d-20d8c81913ab","ios":"levelo://app?vid=a888a0cf-ccad-4ca6-828d-20d8c81913ab"},"vehicle_type_id":"4","last_reported":1729796833,"current_range_meters":30800,"station_id":"ce4bh512rcd13ifvqe2g","pricing_plan_id":"cebpf4jnsgd1na2vs0mg"},{"bike_id":"4f409860-e0f7-4877-99ee-a24fed7f0e97","system_id":"levelo_inurba_marseille","lat":43.2781,"lon":5.40718,"is_reserved":false,"is_disabled":false,"rental_uris":{"android":"levelo://app?vid=4f409860-e0f7-4877-99ee-a24fed7f0e97","ios":"levelo://app?vid=4f409860-e0f7-4877-99ee-a24fed7f0e97"},"vehicle_type_id":"4","last_reported":1729796833,"current_range_meters":35600,"station_id":"ce4bhnh2rcd13ifvqgtg","pricing_plan_id":"cebpf4jnsgd1na2vs0mg"},{"bike_id":"8629bbd2-c025-4a07-8726-3ba170e6f41e","system_id":"levelo_inurba_marseille","lat":43.29247,"lon":5.40907,"is_reserved":false,"is_disabled":false,"rental_uris":{"android":"levelo://app?vid=8629bbd2-c025-4a07-8726-3ba170e6f41e","ios":"levelo://app?vid=8629bbd2-c025-4a07-8726-3ba170e6f41e"},"vehicle_type_id":"4","last_reported":1729796833,"current_range_meters":27200,"station_id":"ce4bh192rcd13ifvqdc0","pricing_plan_id":"cebpf4jnsgd1na2vs0mg"},{"bike_id":"9d5b6b22-a400-4336-951a-c4c2f69d2033","system_id":"levelo_inurba_marseille","lat":43.30414,"lon":5.4129,"is_reserved":false,"is_disabled":false,"rental_uris":{"android":"levelo://app?vid=9d5b6b22-a400-4336-951a-c4c2f69d2033","ios":"levelo://app?vid=9d5b6b22-a400-4336-951a-c4c2f69d2033"},"vehicle_type_id":"4","last_reported":1729796833,"current_range_meters":30000,"station_id":"ce4bhop2rcd13ifvqh8g","pricing_plan_id":"cebpf4jnsgd1na2vs0mg"},{"bike_id":"2256878b-8359-4329-ae13-f0751578ae3a","system_id":"levelo_inurba_marseille","lat":43.295286,"lon":5.385436,"is_reserved":false,"is_disabled":false,"rental_uris":{"android":"levelo://app?vid=2256878b-8359-4329-ae13-f0751578ae3a","ios":"levelo://app?vid=2256878b-8359-4329-ae13-f0751578ae3a"},"vehicle_type_id":"4","last_reported":1729796833,"current_range_meters":19200,"station_id":"ce4bgth2rcd13ifvqch0","pricing_plan_id":"cebpf4jnsgd1na2vs0mg"},{"bike_id":"d5c80f85-fa64-4374-b895-ba01d64aba63","system_id":"levelo_inurba_marseille","lat":43.29256,"lon":5.38439,"is_reserved":false,"is_disabled":false,"rental_uris":{"android":"levelo://app?vid=d5c80f85-fa64-4374-b895-ba01d64aba63","ios":"levelo://app?vid=d5c80f85-fa64-4374-b895-ba01d64aba63"},"vehicle_type_id":"4","last_reported":1729796833,"current_range_meters":34800,"station_id":"ce4bh692rcd13ifvqea0","pricing_plan_id":"cebpf4jnsgd1na2vs0mg"},{"bike_id":"b37a0ae1-907f-412d-8e1a-06a9de441401","system_id":"levelo_inurba_marseille","lat":43.25085,"lon":5.39526,"is_reserved":false,"is_disabled":false,"rental_uris":{"android":"levelo://app?vid=b37a0ae1-907f-412d-8e1a-06a9de441401","ios":"levelo://app?vid=b37a0ae1-907f-412d-8e1a-06a9de441401"},"vehicle_type_id":"4","last_reported":1729796833,"current_range_meters":26000,"station_id":"ce4bhm12rcd13ifvqgkg","pricing_plan_id":"cebpf4jnsgd1na2vs0mg"},{"bike_id":"5a5e5898-fc0e-440d-ac74-ca800eb47ab5","system_id":"levelo_inurba_marseille","lat":43.29417,"lon":5.3863,"is_reserved":false,"is_disabled":false,"rental_uris":{"android":"levelo://app?vid=5a5e5898-fc0e-440d-ac74-ca800eb47ab5","ios":"levelo://app?vid=5a5e5898-fc0e-440d-ac74-ca800eb47ab5"},"vehicle_type_id":"4","last_reported":1729796833,"current_range_meters":7200,"station_id":"ce4bh2h2rcd13ifvqdh0","pricing_plan_id":"cebpf4jnsgd1na2vs0mg"},{"bike_id":"305cd830-036b-45f1-884c-248e0fb2d0fc","system_id":"levelo_inurba_marseille","lat":43.31362,"lon":5.39725,"is_reserved":false,"is_disabled":false,"rental_uris":{"android":"levelo://app?vid=305cd830-036b-45f1-884c-248e0fb2d0fc","ios":"levelo://app?vid=305cd830-036b-45f1-884c-248e0fb2d0fc"},"vehicle_type_id":"4","last_reported":1729796833,"current_range_meters":13600,"station_id":"ce4bhq92rcd13ifvqhkg","pricing_plan_id":"cebpf4jnsgd1na2vs0mg"},{"bike_id":"d6bf3953-c4f6-4246-8c45-05a22bf0f56f","system_id":"levelo_inurba_marseille","lat":43.29528,"lon":5.38538,"is_reserved":false,"is_disabled":false,"rental_uris":{"android":"levelo://app?vid=d6bf3953-c4f6-4246-8c45-05a22bf0f56f","ios":"levelo://app?vid=d6bf3953-c4f6-4246-8c45-05a22bf0f56f"},"vehicle_type_id":"4","last_reported":1729796833,"current_range_meters":38800,"station_id":"ce4bgih2rcd13ifvqba0","pricing_plan_id":"cebpf4jnsgd1na2vs0mg"},{"bike_id":"442bc617-0461-460a-af58-22bd9f0e4ded","system_id":"levelo_inurba_marseille","lat":43.292114,"lon":5.392566,"is_reserved":false,"is_disabled":false,"rental_uris":{"android":"levelo://app?vid=442bc617-0461-460a-af58-22bd9f0e4ded","ios":"levelo://app?vid=442bc617-0461-460a-af58-22bd9f0e4ded"},"vehicle_type_id":"4","last_reported":1729796833,"current_range_meters":11200,"station_id":"ce4bh192rcd13ifvqdd0","pricing_plan_id":"cebpf4jnsgd1na2vs0mg"},{"bike_id":"a5bf98ea-6ef5-4311-ad2b-06ad2139a748","system_id":"levelo_inurba_marseille","lat":43.26939,"lon":5.40249,"is_reserved":false,"is_disabled":false,"rental_uris":{"android":"levelo://app?vid=a5bf98ea-6ef5-4311-ad2b-06ad2139a748","ios":"levelo://app?vid=a5bf98ea-6ef5-4311-ad2b-06ad2139a748"},"vehicle_type_id":"4","last_reported":1729796833,"current_range_meters":38800,"station_id":"cjm6bp8fraef2m0cb0m0","pricing_plan_id":"cebpf4jnsgd1na2vs0mg"},{"bike_id":"c013d0dc-fb80-477a-a207-766744138875","system_id":"levelo_inurba_marseille","lat":43.279995,"lon":5.400107,"is_reserved":false,"is_disabled":false,"rental_uris":{"android":"levelo://app?vid=c013d0dc-fb80-477a-a207-766744138875","ios":"levelo://app?vid=c013d0dc-fb80-477a-a207-766744138875"},"vehicle_type_id":"4","last_reported":1729796833,"current_range_meters":38800,"station_id":"ce4bho92rcd13ifvqh4g","pricing_plan_id":"cebpf4jnsgd1na2vs0mg"},{"bike_id":"89252a68-1d86-400d-ad7a-dae4a637f9d6","system_id":"levelo_inurba_marseille","lat":43.26959,"lon":5.403204,"is_reserved":false,"is_disabled":false,"rental_uris":{"android":"levelo://app?vid=89252a68-1d86-400d-ad7a-dae4a637f9d6","ios":"levelo://app?vid=89252a68-1d86-400d-ad7a-dae4a637f9d6"},"vehicle_type_id":"4","last_reported":1729796833,"current_range_meters":38800,"station_id":"cjm6bp8fraef2m0cb0m0","pricing_plan_id":"cebpf4jnsgd1na2vs0mg"},{"bike_id":"2d38c163-3e82-4853-b2c1-a238b3f1a51e","system_id":"levelo_inurba_marseille","lat":43.287201,"lon":5.379355,"is_reserved":false,"is_disabled":false,"rental_uris":{"android":"levelo://app?vid=2d38c163-3e82-4853-b2c1-a238b3f1a51e","ios":"levelo://app?vid=2d38c163-3e82-4853-b2c1-a238b3f1a51e"},"vehicle_type_id":"4","last_reported":1729796833,"current_range_meters":38000,"station_id":"ce4bh9p2rcd13ifvqec0","pricing_plan_id":"cebpf4jnsgd1na2vs0mg"},{"bike_id":"57fd181e-ee68-4f2a-a79a-f993b41ce332","system_id":"levelo_inurba_marseille","lat":43.28622,"lon":5.35111,"is_reserved":false,"is_disabled":false,"rental_uris":{"android":"levelo://app?vid=57fd181e-ee68-4f2a-a79a-f993b41ce332","ios":"levelo://app?vid=57fd181e-ee68-4f2a-a79a-f993b41ce332"},"vehicle_type_id":"4","last_reported":1729796833,"current_range_meters":38800,"station_id":"ce4bhch2rcd13ifvqeug","pricing_plan_id":"cebpf4jnsgd1na2vs0mg"},{"bike_id":"08f90f0c-e565-4b28-9c5f-1d64f94793d5","system_id":"levelo_inurba_marseille","lat":43.31994,"lon":5.38155,"is_reserved":false,"is_disabled":false,"rental_uris":{"android":"levelo://app?vid=08f90f0c-e565-4b28-9c5f-1d64f94793d5","ios":"levelo://app?vid=08f90f0c-e565-4b28-9c5f-1d64f94793d5"},"vehicle_type_id":"4","last_reported":1729796833,"current_range_meters":22400,"station_id":"ce4bhr12rcd13ifvqhpg","pricing_plan_id":"cebpf4jnsgd1na2vs0mg"},{"bike_id":"2aecb725-0fc0-4716-92ba-1eeca599457a","system_id":"levelo_inurba_marseille","lat":43.27615,"lon":5.36111,"is_reserved":false,"is_disabled":false,"rental_uris":{"android":"levelo://app?vid=2aecb725-0fc0-4716-92ba-1eeca599457a","ios":"levelo://app?vid=2aecb725-0fc0-4716-92ba-1eeca599457a"},"vehicle_type_id":"4","last_reported":1729796833,"current_range_meters":14400,"station_id":"ce4bgj92rcd13ifvqbe0","pricing_plan_id":"cebpf4jnsgd1na2vs0mg"},{"bike_id":"8f7856b2-c668-4f5d-940a-4d5f309812ca","system_id":"levelo_inurba_marseille","lat":43.24073,"lon":5.37759,"is_reserved":false,"is_disabled":false,"rental_uris":{"android":"levelo://app?vid=8f7856b2-c668-4f5d-940a-4d5f309812ca","ios":"levelo://app?vid=8f7856b2-c668-4f5d-940a-4d5f309812ca"},"vehicle_type_id":"4","last_reported":1729796833,"current_range_meters":32400,"station_id":"ce4bhnp2rcd13ifvqgvg","pricing_plan_id":"cebpf4jnsgd1na2vs0mg"},{"bike_id":"e6521e86-7046-4d78-addc-5f2f27173cb1","system_id":"levelo_inurba_marseille","lat":43.29263,"lon":5.38442,"is_reserved":false,"is_disabled":false,"rental_uris":{"android":"levelo://app?vid=e6521e86-7046-4d78-addc-5f2f27173cb1","ios":"levelo://app?vid=e6521e86-7046-4d78-addc-5f2f27173cb1"},"vehicle_type_id":"4","last_reported":1729796833,"current_range_meters":19600,"station_id":"ce4bh692rcd13ifvqea0","pricing_plan_id":"cebpf4jnsgd1na2vs0mg"},{"bike_id":"06a00349-ca36-4fa2-b558-23f552e05d70","system_id":"levelo_inurba_marseille","lat":43.31356,"lon":5.38494,"is_reserved":false,"is_disabled":false,"rental_uris":{"android":"levelo://app?vid=06a00349-ca36-4fa2-b558-23f552e05d70","ios":"levelo://app?vid=06a00349-ca36-4fa2-b558-23f552e05d70"},"vehicle_type_id":"4","last_reported":1729796833,"current_range_meters":10000,"station_id":"ce4bgt92rcd13ifvqcf0","pricing_plan_id":"cebpf4jnsgd1na2vs0mg"},{"bike_id":"789376d9-c9df-4eca-aca8-73071ef305b9","system_id":"levelo_inurba_marseille","lat":43.24073,"lon":5.37758,"is_reserved":false,"is_disabled":false,"rental_uris":{"android":"levelo://app?vid=789376d9-c9df-4eca-aca8-73071ef305b9","ios":"levelo://app?vid=789376d9-c9df-4eca-aca8-73071ef305b9"},"vehicle_type_id":"4","last_reported":1729796833,"current_range_meters":37600,"station_id":"ce4bhnp2rcd13ifvqgvg","pricing_plan_id":"cebpf4jnsgd1na2vs0mg"},{"bike_id":"c74aa290-7c05-4e7b-a600-a38ad026f1c1","system_id":"levelo_inurba_marseille","lat":43.28152,"lon":5.42643,"is_reserved":false,"is_disabled":false,"rental_uris":{"android":"levelo://app?vid=c74aa290-7c05-4e7b-a600-a38ad026f1c1","ios":"levelo://app?vid=c74aa290-7c05-4e7b-a600-a38ad026f1c1"},"vehicle_type_id":"4","last_reported":1729796833,"current_range_meters":36800,"station_id":"ce4bhnh2rcd13ifvqgug","pricing_plan_id":"cebpf4jnsgd1na2vs0mg"},{"bike_id":"9131424d-5f38-4003-a915-c4f2698059fa","system_id":"levelo_inurba_marseille","lat":43.24084,"lon":5.37742,"is_reserved":false,"is_disabled":false,"rental_uris":{"android":"levelo://app?vid=9131424d-5f38-4003-a915-c4f2698059fa","ios":"levelo://app?vid=9131424d-5f38-4003-a915-c4f2698059fa"},"vehicle_type_id":"4","last_reported":1729796833,"current_range_meters":37600,"station_id":"ce4bhnp2rcd13ifvqgvg","pricing_plan_id":"cebpf4jnsgd1na2vs0mg"},{"bike_id":"2ae542ef-dd9e-4dc5-b2ec-8d8246ea76bb","system_id":"levelo_inurba_marseille","lat":43.32108,"lon":5.3677,"is_reserved":false,"is_disabled":false,"rental_uris":{"android":"levelo://app?vid=2ae542ef-dd9e-4dc5-b2ec-8d8246ea76bb","ios":"levelo://app?vid=2ae542ef-dd9e-4dc5-b2ec-8d8246ea76bb"},"vehicle_type_id":"4","last_reported":1729796833,"current_range_meters":16400,"station_id":"ce4bhrh2rcd13ifvqhug","pricing_plan_id":"cebpf4jnsgd1na2vs0mg"},{"bike_id":"4ffbb36d-f6a7-43ba-b2c9-79f233eb2756","system_id":"levelo_inurba_marseille","lat":43.29496,"lon":5.3904,"is_reserved":false,"is_disabled":false,"rental_uris":{"android":"levelo://app?vid=4ffbb36d-f6a7-43ba-b2c9-79f233eb2756","ios":"levelo://app?vid=4ffbb36d-f6a7-43ba-b2c9-79f233eb2756"},"vehicle_type_id":"4","last_reported":1729796833,"current_range_meters":38800,"station_id":"ce4bh3p2rcd13ifvqdp0","pricing_plan_id":"cebpf4jnsgd1na2vs0mg"},{"bike_id":"f630798a-3b93-40e1-8d7b-72b6d9e894d8","system_id":"levelo_inurba_marseille","lat":43.24078,"lon":5.37751,"is_reserved":false,"is_disabled":false,"rental_uris":{"android":"levelo://app?vid=f630798a-3b93-40e1-8d7b-72b6d9e894d8","ios":"levelo://app?vid=f630798a-3b93-40e1-8d7b-72b6d9e894d8"},"vehicle_type_id":"4","last_reported":1729796833,"current_range_meters":36000,"station_id":"ce4bhnp2rcd13ifvqgvg","pricing_plan_id":"cebpf4jnsgd1na2vs0mg"},{"bike_id":"c1598c89-c688-4f04-95af-dbc92b8ebd13","system_id":"levelo_inurba_marseille","lat":43.29604,"lon":5.38109,"is_reserved":false,"is_disabled":false,"rental_uris":{"android":"levelo://app?vid=c1598c89-c688-4f04-95af-dbc92b8ebd13","ios":"levelo://app?vid=c1598c89-c688-4f04-95af-dbc92b8ebd13"},"vehicle_type_id":"4","last_reported":1729796833,"current_range_meters":6400,"station_id":"ce4bgl12rcd13ifvqbo0","pricing_plan_id":"cebpf4jnsgd1na2vs0mg"},{"bike_id":"1a5c0716-9d38-46ae-9bea-cbda1a338f70","system_id":"levelo_inurba_marseille","lat":43.32484,"lon":5.36577,"is_reserved":false,"is_disabled":false,"rental_uris":{"android":"levelo://app?vid=1a5c0716-9d38-46ae-9bea-cbda1a338f70","ios":"levelo://app?vid=1a5c0716-9d38-46ae-9bea-cbda1a338f70"},"vehicle_type_id":"4","last_reported":1729796833,"current_range_meters":39200,"station_id":"ce4bhs12rcd13ifvqhvg","pricing_plan_id":"cebpf4jnsgd1na2vs0mg"},{"bike_id":"365ae9df-1dff-4dcd-8b90-62fbd143751e","system_id":"levelo_inurba_marseille","lat":43.29872,"lon":5.39735,"is_reserved":false,"is_disabled":false,"rental_uris":{"android":"levelo://app?vid=365ae9df-1dff-4dcd-8b90-62fbd143751e","ios":"levelo://app?vid=365ae9df-1dff-4dcd-8b90-62fbd143751e"},"vehicle_type_id":"4","last_reported":1729796833,"current_range_meters":34000,"station_id":"ce4bh0h2rcd13ifvqd50","pricing_plan_id":"cebpf4jnsgd1na2vs0mg"},{"bike_id":"5dac752b-5f3e-449b-8933-09241deb391d","system_id":"levelo_inurba_marseille","lat":43.26828,"lon":5.41115,"is_reserved":false,"is_disabled":false,"rental_uris":{"android":"levelo://app?vid=5dac752b-5f3e-449b-8933-09241deb391d","ios":"levelo://app?vid=5dac752b-5f3e-449b-8933-09241deb391d"},"vehicle_type_id":"4","last_reported":1729796833,"current_range_meters":12800,"station_id":"","pricing_plan_id":"cebpf4jnsgd1na2vs0mg"},{"bike_id":"cd18e09f-87d0-4834-90f3-bfbe97ba5d63","system_id":"levelo_inurba_marseille","lat":43.23963,"lon":5.36631,"is_reserved":false,"is_disabled":false,"rental_uris":{"android":"levelo://app?vid=cd18e09f-87d0-4834-90f3-bfbe97ba5d63","ios":"levelo://app?vid=cd18e09f-87d0-4834-90f3-bfbe97ba5d63"},"vehicle_type_id":"4","last_reported":1729796833,"current_range_meters":24400,"station_id":"ce4bhi12rcd13ifvqfp0","pricing_plan_id":"cebpf4jnsgd1na2vs0mg"},{"bike_id":"7578718d-a2e5-4bbe-83c6-4311359f3800","system_id":"levelo_inurba_marseille","lat":43.29933,"lon":5.36537,"is_reserved":false,"is_disabled":false,"rental_uris":{"android":"levelo://app?vid=7578718d-a2e5-4bbe-83c6-4311359f3800","ios":"levelo://app?vid=7578718d-a2e5-4bbe-83c6-4311359f3800"},"vehicle_type_id":"4","last_reported":1729796833,"current_range_meters":4400,"station_id":"ce4bgm92rcd13ifvqbr0","pricing_plan_id":"cebpf4jnsgd1na2vs0mg"},{"bike_id":"69436c81-3c6d-4c01-bd2d-a3852ac2078d","system_id":"levelo_inurba_marseille","lat":43.24166,"lon":5.36393,"is_reserved":false,"is_disabled":false,"rental_uris":{"android":"levelo://app?vid=69436c81-3c6d-4c01-bd2d-a3852ac2078d","ios":"levelo://app?vid=69436c81-3c6d-4c01-bd2d-a3852ac2078d"},"vehicle_type_id":"4","last_reported":1729796833,"current_range_meters":4000,"station_id":"cpo36qri1sfpv3e86is0","pricing_plan_id":"cebpf4jnsgd1na2vs0mg"},{"bike_id":"fa08e7a9-0dda-480b-a9d7-5de93059247a","system_id":"levelo_inurba_marseille","lat":43.32025,"lon":5.41542,"is_reserved":false,"is_disabled":false,"rental_uris":{"android":"levelo://app?vid=fa08e7a9-0dda-480b-a9d7-5de93059247a","ios":"levelo://app?vid=fa08e7a9-0dda-480b-a9d7-5de93059247a"},"vehicle_type_id":"4","last_reported":1729796833,"current_range_meters":39200,"station_id":"ce4bhq92rcd13ifvqhkg","pricing_plan_id":"cebpf4jnsgd1na2vs0mg"},{"bike_id":"9b83d326-cd44-4d3e-b3e3-a72c1b8df673","system_id":"levelo_inurba_marseille","lat":43.28074,"lon":5.39662,"is_reserved":false,"is_disabled":false,"rental_uris":{"android":"levelo://app?vid=9b83d326-cd44-4d3e-b3e3-a72c1b8df673","ios":"levelo://app?vid=9b83d326-cd44-4d3e-b3e3-a72c1b8df673"},"vehicle_type_id":"4","last_reported":1729796833,"current_range_meters":4800,"station_id":"ce4bho12rcd13ifvqh2g","pricing_plan_id":"cebpf4jnsgd1na2vs0mg"},{"bike_id":"789bdc9f-283e-494a-b512-547f521154fd","system_id":"levelo_inurba_marseille","lat":43.2942,"lon":5.38622,"is_reserved":false,"is_disabled":false,"rental_uris":{"android":"levelo://app?vid=789bdc9f-283e-494a-b512-547f521154fd","ios":"levelo://app?vid=789bdc9f-283e-494a-b512-547f521154fd"},"vehicle_type_id":"4","last_reported":1729796833,"current_range_meters":4400,"station_id":"ce4bh2h2rcd13ifvqdh0","pricing_plan_id":"cebpf4jnsgd1na2vs0mg"},{"bike_id":"040dd73b-6f0f-491f-8796-81104ecab0f3","system_id":"levelo_inurba_marseille","lat":43.28075,"lon":5.39663,"is_reserved":false,"is_disabled":false,"rental_uris":{"android":"levelo://app?vid=040dd73b-6f0f-491f-8796-81104ecab0f3","ios":"levelo://app?vid=040dd73b-6f0f-491f-8796-81104ecab0f3"},"vehicle_type_id":"4","last_reported":1729796833,"current_range_meters":12400,"station_id":"ce4bho12rcd13ifvqh2g","pricing_plan_id":"cebpf4jnsgd1na2vs0mg"},{"bike_id":"cd8cc058-0f4c-4b68-9703-804e3ffc3c30","system_id":"levelo_inurba_marseille","lat":43.31083,"lon":5.42436,"is_reserved":false,"is_disabled":false,"rental_uris":{"android":"levelo://app?vid=cd8cc058-0f4c-4b68-9703-804e3ffc3c30","ios":"levelo://app?vid=cd8cc058-0f4c-4b68-9703-804e3ffc3c30"},"vehicle_type_id":"4","last_reported":1729796833,"current_range_meters":26000,"station_id":"ce4bhp92rcd13ifvqhag","pricing_plan_id":"cebpf4jnsgd1na2vs0mg"},{"bike_id":"433d97c6-5d30-4fca-ba78-37d55d837f46","system_id":"levelo_inurba_marseille","lat":43.265243,"lon":5.395888,"is_reserved":false,"is_disabled":false,"rental_uris":{"android":"levelo://app?vid=433d97c6-5d30-4fca-ba78-37d55d837f46","ios":"levelo://app?vid=433d97c6-5d30-4fca-ba78-37d55d837f46"},"vehicle_type_id":"4","last_reported":1729796833,"current_range_meters":15200,"station_id":"ce4bhi12rcd13ifvqfq0","pricing_plan_id":"cebpf4jnsgd1na2vs0mg"},{"bike_id":"40670dd6-b6b3-4075-aefc-6af82cc6a566","system_id":"levelo_inurba_marseille","lat":43.27373,"lon":5.36266,"is_reserved":false,"is_disabled":false,"rental_uris":{"android":"levelo://app?vid=40670dd6-b6b3-4075-aefc-6af82cc6a566","ios":"levelo://app?vid=40670dd6-b6b3-4075-aefc-6af82cc6a566"},"vehicle_type_id":"4","last_reported":1729796833,"current_range_meters":30000,"station_id":"ce4bhbh2rcd13ifvqeo0","pricing_plan_id":"cebpf4jnsgd1na2vs0mg"},{"bike_id":"412b0132-a316-489f-96bb-e773017e21ee","system_id":"levelo_inurba_marseille","lat":43.26574,"lon":5.39018,"is_reserved":false,"is_disabled":false,"rental_uris":{"android":"levelo://app?vid=412b0132-a316-489f-96bb-e773017e21ee","ios":"levelo://app?vid=412b0132-a316-489f-96bb-e773017e21ee"},"vehicle_type_id":"4","last_reported":1729796833,"current_range_meters":8000,"station_id":"ce4bhe12rcd13ifvqf30","pricing_plan_id":"cebpf4jnsgd1na2vs0mg"},