{"last_updated":1742786880,"ttl":60,"version":"2.2","data":{"bikes":[{"bike_id":"e6f49cb8-0786-4ec2-9267-b00ed3a09663","system_id":"levelo_inurba_marseille","lat":43.33602,"lon":5.4104,"is_reserved":false,"is_disabled":false,"rental_uris":{"android":"levelo://app?vid=e6f49cb8-0786-4ec2-9267-b00ed3a09663","ios":"levelo://app?vid=e6f49cb8-0786-4ec2-9267-b00ed3a09663"},"vehicle_type_id":"4","last_reported":1742786881,"current_range_meters":2800,"station_id":"ce4bhqh2rcd13ifvqhmg","pricing_plan_id":"cebpf4jnsgd1na2vs0mg"},{"bike_id":"fe239f3d-5c83-42bd-8b99-e0b3f3784fb5","system_id":"levelo_inurba_marseille","lat":43.24608,"lon":5.38406,"is_reserved":false,"is_disabled":false,"rental_uris":{"android":"levelo://app?vid=fe239f3d-5c83-42bd-8b99-e0b3f3784fb5","ios":"levelo://app?vid=fe239f3d-5c83-42bd-8b99-e0b3f3784fb5"},"vehicle_type_id":"4","last_reported":1742786881,"current_range_meters":2800,"station_id":"","pricing_plan_id":"cebpf4jnsgd1na2vs0mg"},{"bike_id":"d8edcd8c-4f6a-4a41-b974-deb509bc067f","system_id":"levelo_inurba_marseille","lat":43.286136,"lon":5.350939,"is_reserved":false,"is_disabled":true,"rental_uris":{"android":"levelo://app?vid=d8edcd8c-4f6a-4a41-b974-deb509bc067f","ios":"levelo://app?vid=d8edcd8c-4f6a-4a41-b974-deb509bc067f"},"vehicle_type_id":"4","last_reported":1742786881,"current_range_meters":3600,"station_id":"ce4bhch2rcd13ifvqeug","pricing_plan_id":"cebpf4jnsgd1na2vs0mg"},{"bike_id":"f025660c-3144-49f3-9173-167c6d45268b","system_id":"levelo_inurba_marseille","lat":43.31169,"lon":5.38738,"is_reserved":false,"is_disabled":true,"rental_uris":{"android":"levelo://app?vid=f025660c-3144-49f3-9173-167c6d45268b","ios":"levelo://app?vid=f025660c-3144-49f3-9173-167c6d45268b"},"vehicle_type_id":"4","last_reported":1742786881,"current_range_meters":3600,"station_id":"ce4bgv12rcd13ifvqcp0","pricing_plan_id":"cebpf4jnsgd1na2vs0mg"},{"bike_id":"3bc17e9f-c28e-42ac-ab2f-a661d914a8b7","system_id":"levelo_inurba_marseille","lat":43.2508,"lon":5.39522,"is_reserved":false,"is_disabled":true,"rental_uris":{"android":"levelo://app?vid=3bc17e9f-c28e-42ac-ab2f-a661d914a8b7","ios":"levelo://app?vid=3bc17e9f-c28e-42ac-ab2f-a661d914a8b7"},"vehicle_type_id":"4","last_reported":1742786881,"current_range_meters":3600,"station_id":"ce4bhm12rcd13ifvqgkg","pricing_plan_id":"cebpf4jnsgd1na2vs0mg"},{"bike_id":"33538c6b-3327-4496-b706-143d0d958d2d","system_id":"levelo_inurba_marseille","lat":43.30876,"lon":5.39642,"is_reserved":false,"is_disabled":true,"rental_uris":{"android":"levelo://app?vid=33538c6b-3327-4496-b706-143d0d958d2d","ios":"levelo://app?vid=33538c6b-3327-4496-b706-143d0d958d2d"},"vehicle_type_id":"4","last_reported":1742786881,"current_range_meters":4000,"station_id":"ce4bh012rcd13ifvqcv0","pricing_plan_id":"cebpf4jnsgd1na2vs0mg"},{"bike_id":"85c637a4-8d12-4cd7-88c2-760ebfe72ffc","system_id":"levelo_inurba_marseille","lat":43.26193,"lon":5.37926,"is_reserved":false,"is_disabled":false,"rental_uris":{"android":"levelo://app?vid=85c637a4-8d12-4cd7-88c2-760ebfe72ffc","ios":"levelo://app?vid=85c637a4-8d12-4cd7-88c2-760ebfe72ffc"},"vehicle_type_id":"4","last_reported":1742786881,"current_range_meters":4800,"station_id":"ce4bhjp2rcd13ifvqg90","pricing_plan_id":"cebpf4jnsgd1na2vs0mg"},{"bike_id":"1df0b3b2-8b10-4d59-a49f-c6ab72341a39","system_id":"levelo_inurba_marseille","lat":43.23063,"lon":5.35478,"is_reserved":false,"is_disabled":false,"rental_uris":{"android":"levelo://app?vid=1df0b3b2-8b10-4d59-a49f-c6ab72341a39","ios":"levelo://app?vid=1df0b3b2-8b10-4d59-a49f-c6ab72341a39"},"vehicle_type_id":"4","last_reported":1742786881,"current_range_meters":4800,"station_id":"cpo3342slgdg3j2ifvpg","pricing_plan_id":"cebpf4jnsgd1na2vs0mg"},{"bike_id":"768ca5e6-f1bb-42f2-ac3f-2632b474747d","system_id":"levelo_inurba_marseille","lat":43.25847,"lon":5.39446,"is_reserved":false,"is_disabled":false,"rental_uris":{"android":"levelo://app?vid=768ca5e6-f1bb-42f2-ac3f-2632b474747d","ios":"levelo://app?vid=768ca5e6-f1bb-42f2-ac3f-2632b474747d"},"vehicle_type_id":"4","last_reported":1742786881,"current_range_meters":4800,"station_id":"ce4bhip2rcd13ifvqft0","pricing_plan_id":"cebpf4jnsgd1na2vs0mg"},{"bike_id":"d5de00e1-6ae8-47b1-b972-16e9691acdbf","system_id":"levelo_inurba_marseille","lat":43.23961,"lon":5.3663,"is_reserved":false,"is_disabled":false,"rental_uris":{"android":"levelo://app?vid=d5de00e1-6ae8-47b1-b972-16e9691acdbf","ios":"levelo://app?vid=d5de00e1-6ae8-47b1-b972-16e9691acdbf"},"vehicle_type_id":"4","last_reported":1742786881,"current_range_meters":5600,"station_id":"ce4bhi12rcd13ifvqfp0","pricing_plan_id":"cebpf4jnsgd1na2vs0mg"},{"bike_id":"014cf003-1505-49cd-ba72-06250a2191ab","system_id":"levelo_inurba_marseille","lat":43.23052,"lon":5.35503,"is_reserved":false,"is_disabled":false,"rental_uris":{"android":"levelo://app?vid=014cf003-1505-49cd-ba72-06250a2191ab","ios":"levelo://app?vid=014cf003-1505-49cd-ba72-06250a2191ab"},"vehicle_type_id":"4","last_reported":1742786881,"current_range_meters":5600,"station_id":"cpo3342slgdg3j2ifvpg","pricing_plan_id":"cebpf4jnsgd1na2vs0mg"},{"bike_id":"ea375b77-5265-4f10-98eb-8a594992fa8c","system_id":"levelo_inurba_marseille","lat":43.23068,"lon":5.355041,"is_reserved":false,"is_disabled":false,"rental_uris":{"android":"levelo://app?vid=ea375b77-5265-4f10-98eb-8a594992fa8c","ios":"levelo://app?vid=ea375b77-5265-4f10-98eb-8a594992fa8c"},"vehicle_type_id":"4","last_reported":1742786881,"current_range_meters":6400,"station_id":"cpo3342slgdg3j2ifvpg","pricing_plan_id":"cebpf4jnsgd1na2vs0mg"},{"bike_id":"23aae21a-1ee8-4544-a323-476ec541691a","system_id":"levelo_inurba_marseille","lat":43.23193,"lon":5.39979,"is_reserved":false,"is_disabled":false,"rental_uris":{"android":"levelo://app?vid=23aae21a-1ee8-4544-a323-476ec541691a","ios":"levelo://app?vid=23aae21a-1ee8-4544-a323-476ec541691a"},"vehicle_type_id":"4","last_reported":1742786881,"current_range_meters":6400,"station_id":"ce4bhn12rcd13ifvqgqg","pricing_plan_id":"cebpf4jnsgd1na2vs0mg"},{"bike_id":"3ffabd3d-9e57-4f3b-a19e-fc6edcd39f1a","system_id":"levelo_inurba_marseille","lat":43.25721,"lon":5.41117,"is_reserved":false,"is_disabled":false,"rental_uris":{"android":"levelo://app?vid=3ffabd3d-9e57-4f3b-a19e-fc6edcd39f1a","ios":"levelo://app?vid=3ffabd3d-9e57-4f3b-a19e-fc6edcd39f1a"},"vehicle_type_id":"4","last_reported":1742786881,"current_range_meters":6400,"station_id":"ce4bhkp2rcd13ifvqgd0","pricing_plan_id":"cebpf4jnsgd1na2vs0mg"},{"bike_id":"5de93a4e-8597-44d3-b79a-a868c09960fb","system_id":"levelo_inurba_marseille","lat":43.26199,"lon":5.37455,"is_reserved":false,"is_disabled":true,"rental_uris":{"android":"levelo://app?vid=5de93a4e-8597-44d3-b79a-a868c09960fb","ios":"levelo://app?vid=5de93a4e-8597-44d3-b79a-a868c09960fb"},"vehicle_type_id":"4","last_reported":1742786881,"current_range_meters":6400,"station_id":"ce4bhgp2rcd13ifvqfc0","pricing_plan_id":"cebpf4jnsgd1na2vs0mg"},{"bike_id":"72123cf2-9d2b-41b8-9bee-4f35b0be3549","system_id":"levelo_inurba_marseille","lat":43.23051,"lon":5.35493,"is_reserved":false,"is_disabled":true,"rental_uris":{"android":"levelo://app?vid=72123cf2-9d2b-41b8-9bee-4f35b0be3549","ios":"levelo://app?vid=72123cf2-9d2b-41b8-9bee-4f35b0be3549"},"vehicle_type_id":"4","last_reported":1742786881,"current_range_meters":6400,"station_id":"cpo3342slgdg3j2ifvpg","pricing_plan_id":"cebpf4jnsgd1na2vs0mg"},{"bike_id":"8ed1ac19-a2dd-4532-af16-423d1df5a6d4","system_id":"levelo_inurba_marseille","lat":43.231271,"lon":5.413926,"is_reserved":false,"is_disabled":false,"rental_uris":{"android":"levelo://app?vid=8ed1ac19-a2dd-4532-af16-423d1df5a6d4","ios":"levelo://app?vid=8ed1ac19-a2dd-4532-af16-423d1df5a6d4"},"vehicle_type_id":"4","last_reported":1742786881,"current_range_meters":6400,"station_id":"","pricing_plan_id":"cebpf4jnsgd1na2vs0mg"},{"bike_id":"00b0b2a1-3e20-4518-a430-51f044271813","system_id":"levelo_inurba_marseille","lat":43.30093,"lon":5.39096,"is_reserved":false,"is_disabled":false,"rental_uris":{"android":"levelo://app?vid=00b0b2a1-3e20-4518-a430-51f044271813","ios":"levelo://app?vid=00b0b2a1-3e20-4518-a430-51f044271813"},"vehicle_type_id":"4","last_reported":1742786881,"current_range_meters":6400,"station_id":"ce4bh192rcd13ifvqdb0","pricing_plan_id":"cebpf4jnsgd1na2vs0mg"},{"bike_id":"f82d61b6-a985-4cdd-af91-32f19ae82d4c","system_id":"levelo_inurba_marseille","lat":43.262108,"lon":5.374414,"is_reserved":false,"is_disabled":false,"rental_uris":{"android":"levelo://app?vid=f82d61b6-a985-4cdd-af91-32f19ae82d4c","ios":"levelo://app?vid=f82d61b6-a985-4cdd-af91-32f19ae82d4c"},"vehicle_type_id":"4","last_reported":1742786881,"current_range_meters":6800,"station_id":"ce4bhgp2rcd13ifvqfc0","pricing_plan_id":"cebpf4jnsgd1na2vs0mg"},{"bike_id":"5294bd6a-aa3c-4d73-8575-d8c48204a8f4","system_id":"levelo_inurba_marseille","lat":43.24636,"lon":5.38911,"is_reserved":false,"is_disabled":false,"rental_uris":{"android":"levelo://app?vid=5294bd6a-aa3c-4d73-8575-d8c48204a8f4","ios":"levelo://app?vid=5294bd6a-aa3c-4d73-8575-d8c48204a8f4"},"vehicle_type_id":"4","last_reported":1742786881,"current_range_meters":6800,"station_id":"ce4bhg12rcd13ifvqf60","pricing_plan_id":"cebpf4jnsgd1na2vs0mg"},{"bike_id":"1db98baf-7e31-48e3-8a8a-dcfedb9e5490","system_id":"levelo_inurba_marseille","lat":43.23188,"lon":5.39984,"is_reserved":false,"is_disabled":false,"rental_uris":{"android":"levelo://app?vid=1db98baf-7e31-48e3-8a8a-dcfedb9e5490","ios":"levelo://app?vid=1db98baf-7e31-48e3-8a8a-dcfedb9e5490"},"vehicle_type_id":"4","last_reported":1742786881,"current_range_meters":6800,"station_id":"ce4bhn12rcd13ifvqgqg","pricing_plan_id":"cebpf4jnsgd1na2vs0mg"},{"bike_id":"a7a9d68a-b527-472d-b45c-c1363e8def55","system_id":"levelo_inurba_marseille","lat":43.26205,"lon":5.37489,"is_reserved":false,"is_disabled":true,"rental_uris":{"android":"levelo://app?vid=a7a9d68a-b527-472d-b45c-c1363e8def55","ios":"levelo://app?vid=a7a9d68a-b527-472d-b45c-c1363e8def55"},"vehicle_type_id":"4","last_reported":1742786881,"current_range_meters":6800,"station_id":"ce4bhgp2rcd13ifvqfc0","pricing_plan_id":"cebpf4jnsgd1na2vs0mg"},{"bike_id":"72503a27-a949-4a46-b139-c44d4f416a58","system_id":"levelo_inurba_marseille","lat":43.231896,"lon":5.355611,"is_reserved":false,"is_disabled":false,"rental_uris":{"android":"levelo://app?vid=72503a27-a949-4a46-b139-c44d4f416a58","ios":"levelo://app?vid=72503a27-a949-4a46-b139-c44d4f416a58"},"vehicle_type_id":"4","last_reported":1742786881,"current_range_meters":6800,"station_id":"ce4bhu92rcd13ifvqi70","pricing_plan_id":"cebpf4jnsgd1na2vs0mg"},{"bike_id":"42dac74d-cb0b-441e-84af-c9fc6427c0c9","system_id":"levelo_inurba_marseille","lat":43.27955,"lon":5.386969,"is_reserved":false,"is_disabled":false,"rental_uris":{"android":"levelo://app?vid=42dac74d-cb0b-441e-84af-c9fc6427c0c9","ios":"levelo://app?vid=42dac74d-cb0b-441e-84af-c9fc6427c0c9"},"vehicle_type_id":"4","last_reported":1742786881,"current_range_meters":6800,"station_id":"ce4bhg12rcd13ifvqf80","pricing_plan_id":"cebpf4jnsgd1na2vs0mg"},{"bike_id":"cbb9986d-439a-4ca9-b314-7f94120c4a86","system_id":"levelo_inurba_marseille","lat":43.24688,"lon":5.38171,"is_reserved":false,"is_disabled":false,"rental_uris":{"android":"levelo://app?vid=cbb9986d-439a-4ca9-b314-7f94120c4a86","ios":"levelo://app?vid=cbb9986d-439a-4ca9-b314-7f94120c4a86"},"vehicle_type_id":"4","last_reported":1742786881,"current_range_meters":6800,"station_id":"ce4bhih2rcd13ifvqfr0","pricing_plan_id":"cebpf4jnsgd1na2vs0mg"},{"bike_id":"ad263336-64b9-4f27-8f30-4a49fa7dcbf6","system_id":"levelo_inurba_marseille","lat":43.27629,"lon":5.42638,"is_reserved":false,"is_disabled":false,"rental_uris":{"android":"levelo://app?vid=ad263336-64b9-4f27-8f30-4a49fa7dcbf6","ios":"levelo://app?vid=ad263336-64b9-4f27-8f30-4a49fa7dcbf6"},"vehicle_type_id":"4","last_reported":1742786881,"current_range_meters":6800,"station_id":"","pricing_plan_id":"cebpf4jnsgd1na2vs0mg"},{"bike_id":"525e076a-3225-46f1-acfc-cf966b12abdd","system_id":"levelo_inurba_marseille","lat":43.24685,"lon":5.38183,"is_reserved":false,"is_disabled":false,"rental_uris":{"android":"levelo://app?vid=525e076a-3225-46f1-acfc-cf966b12abdd","ios":"levelo://app?vid=525e076a-3225-46f1-acfc-cf966b12abdd"},"vehicle_type_id":"4","last_reported":1742786881,"current_range_meters":6800,"station_id":"ce4bhih2rcd13ifvqfr0","pricing_plan_id":"cebpf4jnsgd1na2vs0mg"},{"bike_id":"97b13862-64cd-49d1-b4f1-989a03a88f74","system_id":"levelo_inurba_marseille","lat":43.279735,"lon":5.387455,"is_reserved":false,"is_disabled":false,"rental_uris":{"android":"levelo://app?vid=97b13862-64cd-49d1-b4f1-989a03a88f74","ios":"levelo://app?vid=97b13862-64cd-49d1-b4f1-989a03a88f74"},"vehicle_type_id":"4","last_reported":1742786881,"current_range_meters":6800,"station_id":"ce4bhg12rcd13ifvqf80","pricing_plan_id":"cebpf4jnsgd1na2vs0mg"},{"bike_id":"fa466123-b2eb-4626-a755-d4367398038d","system_id":"levelo_inurba_marseille","lat":43.31273,"lon":5.40172,"is_reserved":false,"is_disabled":false,"rental_uris":{"android":"levelo://app?vid=fa466123-b2eb-4626-a755-d4367398038d","ios":"levelo://app?vid=fa466123-b2eb-4626-a755-d4367398038d"},"vehicle_type_id":"4","last_reported":1742786881,"current_range_meters":7200,"station_id":"ce4bh092rcd13ifvqd30","pricing_plan_id":"cebpf4jnsgd1na2vs0mg"},{"bike_id":"787fb028-74e3-4ece-a600-b719e0014a09","system_id":"levelo_inurba_marseille","lat":43.24667,"lon":5.3816,"is_reserved":false,"is_disabled":false,"rental_uris":{"android":"levelo://app?vid=787fb028-74e3-4ece-a600-b719e0014a09","ios":"levelo://app?vid=787fb028-74e3-4ece-a600-b719e0014a09"},"vehicle_type_id":"4","last_reported":1742786881,"current_range_meters":7200,"station_id":"ce4bhih2rcd13ifvqfr0","pricing_plan_id":"cebpf4jnsgd1na2vs0mg"},{"bike_id":"dded0294-32f1-470c-8a38-f64890dd987e","system_id":"levelo_inurba_marseille","lat":43.262,"lon":5.37928,"is_reserved":false,"is_disabled":false,"rental_uris":{"android":"levelo://app?vid=dded0294-32f1-470c-8a38-f64890dd987e","ios":"levelo://app?vid=dded0294-32f1-470c-8a38-f64890dd987e"},"vehicle_type_id":"4","last_reported":1742786881,"current_range_meters":7200,"station_id":"ce4bhjp2rcd13ifvqg90","pricing_plan_id":"cebpf4jnsgd1na2vs0mg"},{"bike_id":"75239504-6411-4c5a-918c-ff12c7d01c06","system_id":"levelo_inurba_marseille","lat":43.27803,"lon":5.40697,"is_reserved":false,"is_disabled":false,"rental_uris":{"android":"levelo://app?vid=75239504-6411-4c5a-918c-ff12c7d01c06","ios":"levelo://app?vid=75239504-6411-4c5a-918c-ff12c7d01c06"},"vehicle_type_id":"4","last_reported":1742786881,"current_range_meters":7200,"station_id":"ce4bhnh2rcd13ifvqgtg","pricing_plan_id":"cebpf4jnsgd1na2vs0mg"},{"bike_id":"47da6e73-560d-4cd2-b77a-557b0123e6c0","system_id":"levelo_inurba_marseille","lat":43.278164,"lon":5.407026,"is_reserved":false,"is_disabled":false,"rental_uris":{"android":"levelo://app?vid=47da6e73-560d-4cd2-b77a-557b0123e6c0","ios":"levelo://app?vid=47da6e73-560d-4cd2-b77a-557b0123e6c0"},"vehicle_type_id":"4","last_reported":1742786881,"current_range_meters":7200,"station_id":"ce4bhnh2rcd13ifvqgtg","pricing_plan_id":"cebpf4jnsgd1na2vs0mg"},{"bike_id":"52390db3-1658-4d95-8474-5735938b9643","system_id":"levelo_inurba_marseille","lat":43.26221,"lon":5.40442,"is_reserved":false,"is_disabled":false,"rental_uris":{"android":"levelo://app?vid=52390db3-1658-4d95-8474-5735938b9643","ios":"levelo://app?vid=52390db3-1658-4d95-8474-5735938b9643"},"vehicle_type_id":"4","last_reported":1742786881,"current_range_meters":7200,"station_id":"ce4bhmh2rcd13ifvqgmg","pricing_plan_id":"cebpf4jnsgd1na2vs0mg"},{"bike_id":"c8640b41-71c1-41c0-9a82-2e1c71db64f1","system_id":"levelo_inurba_marseille","lat":43.27921,"lon":5.39572,"is_reserved":false,"is_disabled":false,"rental_uris":{"android":"levelo://app?vid=c8640b41-71c1-41c0-9a82-2e1c71db64f1","ios":"levelo://app?vid=c8640b41-71c1-41c0-9a82-2e1c71db64f1"},"vehicle_type_id":"4","last_reported":1742786881,"current_range_meters":8000,"station_id":"ce4bhf92rcd13ifvqf40","pricing_plan_id":"cebpf4jnsgd1na2vs0mg"},{"bike_id":"cd383773-4b9e-47b8-a0dc-4b9211546aa7","system_id":"levelo_inurba_marseille","lat":43.33611,"lon":5.40968,"is_reserved":false,"is_disabled":false,"rental_uris":{"android":"levelo://app?vid=cd383773-4b9e-47b8-a0dc-4b9211546aa7","ios":"levelo://app?vid=cd383773-4b9e-47b8-a0dc-4b9211546aa7"},"vehicle_type_id":"4","last_reported":1742786881,"current_range_meters":8000,"station_id":"","pricing_plan_id":"cebpf4jnsgd1na2vs0mg"},{"bike_id":"751ff1ed-b498-4578-9bd4-943bf6c9d8eb","system_id":"levelo_inurba_marseille","lat":43.2319,"lon":5.35549,"is_reserved":false,"is_disabled":false,"rental_uris":{"android":"levelo://app?vid=751ff1ed-b498-4578-9bd4-943bf6c9d8eb","ios":"levelo://app?vid=751ff1ed-b498-4578-9bd4-943bf6c9d8eb"},"vehicle_type_id":"4","last_reported":1742786881,"current_range_meters":8000,"station_id":"ce4bhu92rcd13ifvqi70","pricing_plan_id":"cebpf4jnsgd1na2vs0mg"},{"bike_id":"2fd4d927-0f70-4f4e-9269-8cd3b232bcd8","system_id":"levelo_inurba_marseille","lat":43.259412,"lon":5.409024,"is_reserved":false,"is_disabled":false,"rental_uris":{"android":"levelo://app?vid=2fd4d927-0f70-4f4e-9269-8cd3b232bcd8","ios":"levelo://app?vid=2fd4d927-0f70-4f4e-9269-8cd3b232bcd8"},"vehicle_type_id":"4","last_reported":1742786881,"current_range_meters":8000,"station_id":"ce4bhm92rcd13ifvqglg","pricing_plan_id":"cebpf4jnsgd1na2vs0mg"},{"bike_id":"e0b04000-368b-457e-a37d-61db34c47a62","system_id":"levelo_inurba_marseille","lat":43.30304,"lon":5.36891,"is_reserved":false,"is_disabled":false,"rental_uris":{"android":"levelo://app?vid=e0b04000-368b-457e-a37d-61db34c47a62","ios":"levelo://app?vid=e0b04000-368b-457e-a37d-61db34c47a62"},"vehicle_type_id":"4","last_reported":1742786881,"current_range_meters":8000,"station_id":"ce4bgqh2rcd13ifvqc5g","pricing_plan_id":"cebpf4jnsgd1na2vs0mg"},{"bike_id":"57b718e3-bece-43a6-8de5-6312d263582a","system_id":"levelo_inurba_marseille","lat":43.31063,"lon":5.38355,"is_reserved":false,"is_disabled":false,"rental_uris":{"android":"levelo://app?vid=57b718e3-bece-43a6-8de5-6312d263582a","ios":"levelo://app?vid=57b718e3-bece-43a6-8de5-6312d263582a"},"vehicle_type_id":"4","last_reported":1742786881,"current_range_meters":8000,"station_id":"ce4bgv92rcd13ifvqcr0","pricing_plan_id":"cebpf4jnsgd1na2vs0mg"},{"bike_id":"612a0c17-962e-4e78-b8bf-84b6c93d4dc8","system_id":"levelo_inurba_marseille","lat":43.32489,"lon":5.36566,"is_reserved":false,"is_disabled":false,"rental_uris":{"android":"levelo://app?vid=612a0c17-962e-4e78-b8bf-84b6c93d4dc8","ios":"levelo://app?vid=612a0c17-962e-4e78-b8bf-84b6c93d4dc8"},"vehicle_type_id":"4","last_reported":1742786881,"current_range_meters":8000,"station_id":"ce4bhs12rcd13ifvqhvg","pricing_plan_id":"cebpf4jnsgd1na2vs0mg"},{"bike_id":"2032e81a-8d24-4036-9cc6-bf67698b8322","system_id":"levelo_inurba_marseille","lat":43.24171,"lon":5.39702,"is_reserved":false,"is_disabled":false,"rental_uris":{"android":"levelo://app?vid=2032e81a-8d24-4036-9cc6-bf67698b8322","ios":"levelo://app?vid=2032e81a-8d24-4036-9cc6-bf67698b8322"},"vehicle_type_id":"4","last_reported":1742786881,"current_range_meters":8000,"station_id":"ce4bhn12rcd13ifvqgpg","pricing_plan_id":"cebpf4jnsgd1na2vs0mg"},{"bike_id":"ca7ca978-1fef-4a0e-9aa2-95e430214d5b","system_id":"levelo_inurba_marseille","lat":43.24162,"lon":5.36415,"is_reserved":false,"is_disabled":false,"rental_uris":{"android":"levelo://app?vid=ca7ca978-1fef-4a0e-9aa2-95e430214d5b","ios":"levelo://app?vid=ca7ca978-1fef-4a0e-9aa2-95e430214d5b"},"vehicle_type_id":"4","last_reported":1742786881,"current_range_meters":8000,"station_id":"cpo36qri1sfpv3e86is0","pricing_plan_id":"cebpf4jnsgd1na2vs0mg"},{"bike_id":"80bd481f-76dd-47f5-8a33-ce4926e26fff","system_id":"levelo_inurba_marseille","lat":43.26193,"lon":5.37449,"is_reserved":false,"is_disabled":true,"rental_uris":{"android":"levelo://app?vid=80bd481f-76dd-47f5-8a33-ce4926e26fff","ios":"levelo://app?vid=80bd481f-76dd-47f5-8a33-ce4926e26fff"},"vehicle_type_id":"4","last_reported":1742786881,"current_range_meters":8000,"station_id":"ce4bhgp2rcd13ifvqfc0","pricing_plan_id":"cebpf4jnsgd1na2vs0mg"},{"bike_id":"edacdc83-363a-4270-9a6d-6584be10301e","system_id":"levelo_inurba_marseille","lat":43.255841,"lon":5.382394,"is_reserved":false,"is_disabled":true,"rental_uris":{"android":"levelo://app?vid=edacdc83-363a-4270-9a6d-6584be10301e","ios":"levelo://app?vid=edacdc83-363a-4270-9a6d-6584be10301e"},"vehicle_type_id":"4","last_reported":1742786881,"current_range_meters":8400,"station_id":"ce4bhih2rcd13ifvqfs0","pricing_plan_id":"cebpf4jnsgd1na2vs0mg"},{"bike_id":"085ef65d-1c70-4528-b12f-795338c2d1da","system_id":"levelo_inurba_marseille","lat":43.31984,"lon":5.38163,"is_reserved":false,"is_disabled":false,"rental_uris":{"android":"levelo://app?vid=085ef65d-1c70-4528-b12f-795338c2d1da","ios":"levelo://app?vid=085ef65d-1c70-4528-b12f-795338c2d1da"},"vehicle_type_id":"4","last_reported":1742786881,"current_range_meters":8400,"station_id":"ce4bhr12rcd13ifvqhpg","pricing_plan_id":"cebpf4jnsgd1na2vs0mg"},{"bike_id":"e286c3ad-5aad-4e60-be2d-b5f6cad4b6bc","system_id":"levelo_inurba_marseille","lat":43.293007,"lon":5.374489,"is_reserved":false,"is_disabled":true,"rental_uris":{"android":"levelo://app?vid=e286c3ad-5aad-4e60-be2d-b5f6cad4b6bc","ios":"levelo://app?vid=e286c3ad-5aad-4e60-be2d-b5f6cad4b6bc"},"vehicle_type_id":"4","last_reported":1742786881,"current_range_meters":8400,"station_id":"ce4bgi12rcd13ifvqb70","pricing_plan_id":"cebpf4jnsgd1na2vs0mg"},{"bike_id":"f6c056a6-2322-4c01-af0a-8f6649999ef0","system_id":"levelo_inurba_marseille","lat":43.27578,"lon":5.38418,"is_reserved":false,"is_disabled":false,"rental_uris":{"android":"levelo://app?vid=f6c056a6-2322-4c01-af0a-8f6649999ef0","ios":"levelo://app?vid=f6c056a6-2322-4c01-af0a-8f6649999ef0"},"vehicle_type_id":"4","last_reported":1742786881,"current_range_meters":8400,"station_id":"ce4bhh92rcd13ifvqfi0","pricing_plan_id":"cebpf4jnsgd1na2vs0mg"},{"bike_id":"db96ab39-a5ac-46c4-b7dc-2e16e3f1c6e7","system_id":"levelo_inurba_marseille","lat":43.28501,"lon":5.35595,"is_reserved":false,"is_disabled":false,"rental_uris":{"android":"levelo://app?vid=db96ab39-a5ac-46c4-b7dc-2e16e3f1c6e7","ios":"levelo://app?vid=db96ab39-a5ac-46c4-b7dc-2e16e3f1c6e7"},"vehicle_type_id":"4","last_reported":1742786881,"current_range_meters":8400,"station_id":"","pricing_plan_id":"cebpf4jnsgd1na2vs0mg"},{"bike_id":"466b52b1-619d-4757-a4a2-7dbcc5ac0e91","system_id":"levelo_inurba_marseille","lat":43.30368,"lon":5.4249,"is_reserved":false,"is_disabled":false,"rental_uris":{"android":"levelo://app?vid=466b52b1-619d-4757-a4a2-7dbcc5ac0e91","ios":"levelo://app?vid=466b52b1-619d-4757-a4a2-7dbcc5ac0e91"},"vehicle_type_id":"4","last_reported":1742786881,"current_range_meters":8400,"station_id":"ce4bhoh2rcd13ifvqh6g","pricing_plan_id":"cebpf4jnsgd1na2vs0mg"},{"bike_id":"bdd85a69-2526-423f-83bc-580097d3e5b5","system_id":"levelo_inurba_marseille","lat":43.2305,"lon":5.35505,"is_reserved":false,"is_disabled":false,"rental_uris":{"android":"levelo://app?vid=bdd85a69-2526-423f-83bc-580097d3e5b5","ios":"levelo://app?vid=bdd85a69-2526-423f-83bc-580097d3e5b5"},"vehicle_type_id":"4","last_reported":1742786881,"current_range_meters":8400,"station_id":"cpo3342slgdg3j2ifvpg","pricing_plan_id":"cebpf4jnsgd1na2vs0mg"},{"bike_id":"d954b141-3cee-4de0-9c29-d5babd11cd82","system_id":"levelo_inurba_marseille","lat":43.25093,"lon":5.39519,"is_reserved":false,"is_disabled":false,"rental_uris":{"android":"levelo://app?vid=d954b141-3cee-4de0-9c29-d5babd11cd82","ios":"levelo://app?vid=d954b141-3cee-4de0-9c29-d5babd11cd82"},"vehicle_type_id":"4","last_reported":1742786881,"current_range_meters":8400,"station_id":"ce4bhm12rcd13ifvqgkg","pricing_plan_id":"cebpf4jnsgd1na2vs0mg"},{"bike_id":"801ac92f-133f-417e-90ff-e9cdca3569b0","system_id":"levelo_inurba_marseille","lat":43.24068,"lon":5.3776,"is_reserved":false,"is_disabled":false,"rental_uris":{"android":"levelo://app?vid=801ac92f-133f-417e-90ff-e9cdca3569b0","ios":"levelo://app?vid=801ac92f-133f-417e-90ff-e9cdca3569b0"},"vehicle_type_id":"4","last_reported":1742786881,"current_range_meters":8400,"station_id":"ce4bhnp2rcd13ifvqgvg","pricing_plan_id":"cebpf4jnsgd1na2vs0mg"},{"bike_id":"3bb33489-a82f-4739-bc09-2fe3082e2e8c","system_id":"levelo_inurba_marseille","lat":43.30811,"lon":5.37304,"is_reserved":false,"is_disabled":false,"rental_uris":{"android":"levelo://app?vid=3bb33489-a82f-4739-bc09-2fe3082e2e8c","ios":"levelo://app?vid=3bb33489-a82f-4739-bc09-2fe3082e2e8c"},"vehicle_type_id":"4","last_reported":1742786881,"current_range_meters":8400,"station_id":"","pricing_plan_id":"cebpf4jnsgd1na2vs0mg"},{"bike_id":"90d741ab-af2e-4b2c-b7ab-5eaa4381d69c","system_id":"levelo_inurba_marseille","lat":43.29797,"lon":5.39341,"is_reserved":false,"is_disabled":false,"rental_uris":{"android":"levelo://app?vid=90d741ab-af2e-4b2c-b7ab-5eaa4381d69c","ios":"levelo://app?vid=90d741ab-af2e-4b2c-b7ab-5eaa4381d69c"},"vehicle_type_id":"4","last_reported":1742786881,"current_range_meters":8800,"station_id":"chh1huq6cuj3fo74tm60","pricing_plan_id":"cebpf4jnsgd1na2vs0mg"},{"bike_id":"9f39ed43-46d0-459b-9c1a-8d899abe99b7","system_id":"levelo_inurba_marseille","lat":43.33605,"lon":5.410327,"is_reserved":false,"is_disabled":false,"rental_uris":{"android":"levelo://app?vid=9f39ed43-46d0-459b-9c1a-8d899abe99b7","ios":"levelo://app?vid=9f39ed43-46d0-459b-9c1a-8d899abe99b7"},"vehicle_type_id":"4","last_reported":1742786881,"current_range_meters":8800,"station_id":"ce4bhqh2rcd13ifvqhmg","pricing_plan_id":"cebpf4jnsgd1na2vs0mg"},{"bike_id":"a8054457-ef9c-4293-879f-1eab83000740","system_id":"levelo_inurba_marseille","lat":43.2417,"lon":5.36398,"is_reserved":false,"is_disabled":false,"rental_uris":{"android":"levelo://app?vid=a8054457-ef9c-4293-879f-1eab83000740","ios":"levelo://app?vid=a8054457-ef9c-4293-879f-1eab83000740"},"vehicle_type_id":"4","last_reported":1742786881,"current_range_meters":8800,"station_id":"cpo36qri1sfpv3e86is0","pricing_plan_id":"cebpf4jnsgd1na2vs0mg"},{"bike_id":"5932f5b5-0803-41be-ad57-2c62bb691349","system_id":"levelo_inurba_marseille","lat":43.24667,"lon":5.38182,"is_reserved":false,"is_disabled":false,"rental_uris":{"android":"levelo://app?vid=5932f5b5-0803-41be-ad57-2c62bb691349","ios":"levelo://app?vid=5932f5b5-0803-41be-ad57-2c62bb691349"},"vehicle_type_id":"4","last_reported":1742786881,"current_range_meters":8800,"station_id":"ce4bhih2rcd13ifvqfr0","pricing_plan_id":"cebpf4jnsgd1na2vs0mg"},{"bike_id":"8baa2ca8-9eb2-4942-ba47-ed90d166dad3","system_id":"levelo_inurba_marseille","lat":43.25351,"lon":5.40199,"is_reserved":false,"is_disabled":true,"rental_uris":{"android":"levelo://app?vid=8baa2ca8-9eb2-4942-ba47-ed90d166dad3","ios":"levelo://app?vid=8baa2ca8-9eb2-4942-ba47-ed90d166dad3"},"vehicle_type_id":"4","last_reported":1742786881,"current_range_meters":8800,"station_id":"","pricing_plan_id":"cebpf4jnsgd1na2vs0mg"},{"bike_id":"eadb6995-fd09-443d-b6f1-27e8434ddf1f","system_id":"levelo_inurba_marseille","lat":43.28721,"lon":5.36119,"is_reserved":false,"is_disabled":false,"rental_uris":{"android":"levelo://app?vid=eadb6995-fd09-443d-b6f1-27e8434ddf1f","ios":"levelo://app?vid=eadb6995-fd09-443d-b6f1-27e8434ddf1f"},"vehicle_type_id":"4","last_reported":1742786881,"current_range_meters":8800,"station_id":"cki0cbj6b192h4jlfktg","pricing_plan_id":"cebpf4jnsgd1na2vs0mg"},{"bike_id":"07541760-82c4-4d38-b58c-85ffff07e965","system_id":"levelo_inurba_marseille","lat":43.239557,"lon":5.36634,"is_reserved":false,"is_disabled":false,"rental_uris":{"android":"levelo://app?vid=07541760-82c4-4d38-b58c-85ffff07e965","ios":"levelo://app?vid=07541760-82c4-4d38-b58c-85ffff07e965"},"vehicle_type_id":"4","last_reported":1742786881,"current_range_meters":8800,"station_id":"ce4bhi12rcd13ifvqfp0","pricing_plan_id":"cebpf4jnsgd1na2vs0mg"},{"bike_id":"d19336df-f78d-467c-b46d-9799f2f84ee2","system_id":"levelo_inurba_marseille","lat":43.24673,"lon":5.38164,"is_reserved":false,"is_disabled":false,"rental_uris":{"android":"levelo://app?vid=d19336df-f78d-467c-b46d-9799f2f84ee2","ios":"levelo://app?vid=d19336df-f78d-467c-b46d-9799f2f84ee2"},"vehicle_type_id":"4","last_reported":1742786881,"current_range_meters":8800,"station_id":"ce4bhih2rcd13ifvqfr0","pricing_plan_id":"cebpf4jnsgd1na2vs0mg"},{"bike_id":"08fcbc8a-2ec7-4352-afeb-2a43a18f8a05","system_id":"levelo_inurba_marseille","lat":43.27612,"lon":5.36102,"is_reserved":false,"is_disabled":true,"rental_uris":{"android":"levelo://app?vid=08fcbc8a-2ec7-4352-afeb-2a43a18f8a05","ios":"levelo://app?vid=08fcbc8a-2ec7-4352-afeb-2a43a18f8a05"},"vehicle_type_id":"4","last_reported":1742786881,"current_range_meters":8800,"station_id":"ce4bgj92rcd13ifvqbe0","pricing_plan_id":"cebpf4jnsgd1na2vs0mg"},{"bike_id":"8d3ef3f2-f8b7-459f-8df7-06dc5a3fbeca","system_id":"levelo_inurba_marseille","lat":43.310696,"lon":5.383479,"is_reserved":false,"is_disabled":false,"rental_uris":{"android":"levelo://app?vid=8d3ef3f2-f8b7-459f-8df7-06dc5a3fbeca","ios":"levelo://app?vid=8d3ef3f2-f8b7-459f-8df7-06dc5a3fbeca"},"vehicle_type_id":"4","last_reported":1742786881,"current_range_meters":8800,"station_id":"ce4bgv92rcd13ifvqcr0","pricing_plan_id":"cebpf4jnsgd1na2vs0mg"},{"bike_id":"4c8a4056-48ac-48f3-aef0-9ae5cc16b399","system_id":"levelo_inurba_marseille","lat":43.278194,"lon":5.407026,"is_reserved":false,"is_disabled":false,"rental_uris":{"android":"levelo://app?vid=4c8a4056-48ac-48f3-aef0-9ae5cc16b399","ios":"levelo://app?vid=4c8a4056-48ac-48f3-aef0-9ae5cc16b399"},"vehicle_type_id":"4","last_reported":1742786881,"current_range_meters":8800,"station_id":"ce4bhnh2rcd13ifvqgtg","pricing_plan_id":"cebpf4jnsgd1na2vs0mg"},{"bike_id":"196e5527-f8ec-47c9-88d8-c0c49611574a","system_id":"levelo_inurba_marseille","lat":43.230524,"lon":5.354905,"is_reserved":false,"is_disabled":false,"rental_uris":{"android":"levelo://app?vid=196e5527-f8ec-47c9-88d8-c0c49611574a","ios":"levelo://app?vid=196e5527-f8ec-47c9-88d8-c0c49611574a"},"vehicle_type_id":"4","last_reported":1742786881,"current_range_meters":8800,"station_id":"cpo3342slgdg3j2ifvpg","pricing_plan_id":"cebpf4jnsgd1na2vs0mg"},{"bike_id":"529d4350-cf06-4849-927d-b43535494a24","system_id":"levelo_inurba_marseille","lat":43.28172,"lon":5.42652,"is_reserved":false,"is_disabled":false,"rental_uris":{"android":"levelo://app?vid=529d4350-cf06-4849-927d-b43535494a24","ios":"levelo://app?vid=529d4350-cf06-4849-927d-b43535494a24"},"vehicle_type_id":"4","last_reported":1742786881,"current_range_meters":8800,"station_id":"ce4bhnh2rcd13ifvqgug","pricing_plan_id":"cebpf4jnsgd1na2vs0mg"},{"bike_id":"b047f34a-fb44-4aef-a451-8284a7baa775","system_id":"levelo_inurba_marseille","lat":43.32493,"lon":5.36595,"is_reserved":false,"is_disabled":false,"rental_uris":{"android":"levelo://app?vid=b047f34a-fb44-4aef-a451-8284a7baa775","ios":"levelo://app?vid=b047f34a-fb44-4aef-a451-8284a7baa775"},"vehicle_type_id":"4","last_reported":1742786881,"current_range_meters":9200,"station_id":"ce4bhs12rcd13ifvqhvg","pricing_plan_id":"cebpf4jnsgd1na2vs0mg"},{"bike_id":"34ef24b7-c50d-49a2-b8c0-fe5632618554","system_id":"levelo_inurba_marseille","lat":43.25398,"lon":5.41858,"is_reserved":false,"is_disabled":false,"rental_uris":{"android":"levelo://app?vid=34ef24b7-c50d-49a2-b8c0-fe5632618554","ios":"levelo://app?vid=34ef24b7-c50d-49a2-b8c0-fe5632618554"},"vehicle_type_id":"4","last_reported":1742786881,"current_range_meters":9200,"station_id":"","pricing_plan_id":"cebpf4jnsgd1na2vs0mg"},{"bike_id":"769a31f7-6969-49ba-8b94-76d2acb92451","system_id":"levelo_inurba_marseille","lat":43.28461,"lon":5.35886,"is_reserved":false,"is_disabled":false,"rental_uris":{"android":"levelo://app?vid=769a31f7-6969-49ba-8b94-76d2acb92451","ios":"levelo://app?vid=769a31f7-6969-49ba-8b94-76d2acb92451"},"vehicle_type_id":"4","last_reported":1742786881,"current_range_meters":9200,"station_id":"ce4bhah2rcd13ifvqei0","pricing_plan_id":"cebpf4jnsgd1na2vs0mg"},{"bike_id":"8e49db1c-20fb-4921-beaf-26cf2404ebc7","system_id":"levelo_inurba_marseille","lat":43.28441,"lon":5.39177,"is_reserved":false,"is_disabled":false,"rental_uris":{"android":"levelo://app?vid=8e49db1c-20fb-4921-beaf-26cf2404ebc7","ios":"levelo://app?vid=8e49db1c-20fb-4921-beaf-26cf2404ebc7"},"vehicle_type_id":"4","last_reported":1742786881,"current_range_meters":9200,"station_id":"ce4bhoh2rcd13ifvqh5g","pricing_plan_id":"cebpf4jnsgd1na2vs0mg"},{"bike_id":"8ac76298-3375-4b96-8a90-9315b1510fa4","system_id":"levelo_inurba_marseille","lat":43.27824,"lon":5.4073,"is_reserved":false,"is_disabled":true,"rental_uris":{"android":"levelo://app?vid=8ac76298-3375-4b96-8a90-9315b1510fa4","ios":"levelo://app?vid=8ac76298-3375-4b96-8a90-9315b1510fa4"},"vehicle_type_id":"4","last_reported":1742786881,"current_range_meters":9200,"station_id":"ce4bhnh2rcd13ifvqgtg","pricing_plan_id":"cebpf4jnsgd1na2vs0mg"},{"bike_id":"daf705b5-817b-4bbc-bd5a-5101c6aa000f","system_id":"levelo_inurba_marseille","lat":43.27818,"lon":5.40712,"is_reserved":false,"is_disabled":true,"rental_uris":{"android":"levelo://app?vid=daf705b5-817b-4bbc-bd5a-5101c6aa000f","ios":"levelo://app?vid=daf705b5-817b-4bbc-bd5a-5101c6aa000f"},"vehicle_type_id":"4","last_reported":1742786881,"current_range_meters":9200,"station_id":"ce4bhnh2rcd13ifvqgtg","pricing_plan_id":"cebpf4jnsgd1na2vs0mg"},{"bike_id":"ab7c30a5-b6cd-4cff-90fa-57269011e5df","system_id":"levelo_inurba_marseille","lat":43.31326,"lon":5.39719,"is_reserved":false,"is_disabled":false,"rental_uris":{"android":"levelo://app?vid=ab7c30a5-b6cd-4cff-90fa-57269011e5df","ios":"levelo://app?vid=ab7c30a5-b6cd-4cff-90fa-57269011e5df"},"vehicle_type_id":"4","last_reported":1742786881,"current_range_meters":9200,"station_id":"ce4bgvp2rcd13ifvqcu0","pricing_plan_id":"cebpf4jnsgd1na2vs0mg"},{"bike_id":"12f0fd96-1943-423b-9d91-d4222abe9e05","system_id":"levelo_inurba_marseille","lat":43.30896,"lon":5.37175,"is_reserved":false,"is_disabled":false,"rental_uris":{"android":"levelo://app?vid=12f0fd96-1943-423b-9d91-d4222abe9e05","ios":"levelo://app?vid=12f0fd96-1943-423b-9d91-d4222abe9e05"},"vehicle_type_id":"4","last_reported":1742786881,"current_range_meters":9200,"station_id":"ce4bguh2rcd13ifvqckg","pricing_plan_id":"cebpf4jnsgd1na2vs0mg"},{"bike_id":"25ddb5fb-7014-4248-a312-42e299ace38a","system_id":"levelo_inurba_marseille","lat":43.28734,"lon":5.36073,"is_reserved":false,"is_disabled":false,"rental_uris":{"android":"levelo://app?vid=25ddb5fb-7014-4248-a312-42e299ace38a","ios":"levelo://app?vid=25ddb5fb-7014-4248-a312-42e299ace38a"},"vehicle_type_id":"4","last_reported":1742786881,"current_range_meters":9200,"station_id":"cki0cbj6b192h4jlfktg","pricing_plan_id":"cebpf4jnsgd1na2vs0mg"},{"bike_id":"25a0ef6e-c80f-4158-b343-cd8c322162eb","system_id":"levelo_inurba_marseille","lat":43.29563,"lon":5.39959,"is_reserved":false,"is_disabled":true,"rental_uris":{"android":"levelo://app?vid=25a0ef6e-c80f-4158-b343-cd8c322162eb","ios":"levelo://app?vid=25a0ef6e-c80f-4158-b343-cd8c322162eb"},"vehicle_type_id":"4","last_reported":1742786881,"current_range_meters":9200,"station_id":"ce4bh312rcd13ifvqdj0","pricing_plan_id":"cebpf4jnsgd1na2vs0mg"},{"bike_id":"e2b68c00-ea55-4d0f-ae98-6403b351276c","system_id":"levelo_inurba_marseille","lat":43.23072,"lon":5.3549,"is_reserved":false,"is_disabled":false,"rental_uris":{"android":"levelo://app?vid=e2b68c00-ea55-4d0f-ae98-6403b351276c","ios":"levelo://app?vid=e2b68c00-ea55-4d0f-ae98-6403b351276c"},"vehicle_type_id":"4","last_reported":1742786881,"current_range_meters":9600,"station_id":"cpo3342slgdg3j2ifvpg","pricing_plan_id":"cebpf4jnsgd1na2vs0mg"},{"bike_id":"2c23e571-6777-4280-9352-11236b35cc78","system_id":"levelo_inurba_marseille","lat":43.25081,"lon":5.39545,"is_reserved":false,"is_disabled":false,"rental_uris":{"android":"levelo://app?vid=2c23e571-6777-4280-9352-11236b35cc78","ios":"levelo://app?vid=2c23e571-6777-4280-9352-11236b35cc78"},"vehicle_type_id":"4","last_reported":1742786881,"current_range_meters":9600,"station_id":"ce4bhm12rcd13ifvqgkg","pricing_plan_id":"cebpf4jnsgd1na2vs0mg"},{"bike_id":"17238c44-02e8-4ba3-abe3-5ae6a9cab49f","system_id":"levelo_inurba_marseille","lat":43.31757,"lon":5.39024,"is_reserved":false,"is_disabled":true,"rental_uris":{"android":"levelo://app?vid=17238c44-02e8-4ba3-abe3-5ae6a9cab49f","ios":"levelo://app?vid=17238c44-02e8-4ba3-abe3-5ae6a9cab49f"},"vehicle_type_id":"4","last_reported":1742786881,"current_range_meters":9600,"station_id":"ce4bhqp2rcd13ifvqhng","pricing_plan_id":"cebpf4jnsgd1na2vs0mg"},{"bike_id":"4baf8c5d-e0fe-4a6c-97de-a71e960c5338","system_id":"levelo_inurba_marseille","lat":43.2417,"lon":5.36398,"is_reserved":false,"is_disabled":false,"rental_uris":{"android":"levelo://app?vid=4baf8c5d-e0fe-4a6c-97de-a71e960c5338","ios":"levelo://app?vid=4baf8c5d-e0fe-4a6c-97de-a71e960c5338"},"vehicle_type_id":"4","last_reported":1742786881,"current_range_meters":9600,"station_id":"cpo36qri1sfpv3e86is0","pricing_plan_id":"cebpf4jnsgd1na2vs0mg"},{"bike_id":"901ad870-67db-4efd-a3cc-2d5ce9510114","system_id":"levelo_inurba_marseille","lat":43.26817,"lon":5.39413,"is_reserved":false,"is_disabled":false,"rental_uris":{"android":"levelo://app?vid=901ad870-67db-4efd-a3cc-2d5ce9510114","ios":"levelo://app?vid=901ad870-67db-4efd-a3cc-2d5ce9510114"},"vehicle_type_id":"4","last_reported":1742786881,"current_range_meters":9600,"station_id":"ce4bhh12rcd13ifvqfg0","pricing_plan_id":"cebpf4jnsgd1na2vs0mg"},{"bike_id":"282809df-29b4-411f-b718-322266f75751","system_id":"levelo_inurba_marseille","lat":43.230526,"lon":5.354896,"is_reserved":false,"is_disabled":false,"rental_uris":{"android":"levelo://app?vid=282809df-29b4-411f-b718-322266f75751","ios":"levelo://app?vid=282809df-29b4-411f-b718-322266f75751"},"vehicle_type_id":"4","last_reported":1742786881,"current_range_meters":9600,"station_id":"cpo3342slgdg3j2ifvpg","pricing_plan_id":"cebpf4jnsgd1na2vs0mg"},{"bike_id":"9f9ff8c6-c1d7-4225-8258-7bae172f8989","system_id":"levelo_inurba_marseille","lat":43.28423,"lon":5.37511,"is_reserved":false,"is_disabled":false,"rental_uris":{"android":"levelo://app?vid=9f9ff8c6-c1d7-4225-8258-7bae172f8989","ios":"levelo://app?vid=9f9ff8c6-c1d7-4225-8258-7bae172f8989"},"vehicle_type_id":"4","last_reported":1742786881,"current_range_meters":9600,"station_id":"ce4bh412rcd13ifvqds0","pricing_plan_id":"cebpf4jnsgd1na2vs0mg"},{"bike_id":"a863f467-985c-49b2-8a3c-9a5203ee8f7f","system_id":"levelo_inurba_marseille","lat":43.29966,"lon":5.41309,"is_reserved":false,"is_disabled":true,"rental_uris":{"android":"levelo://app?vid=a863f467-985c-49b2-8a3c-9a5203ee8f7f","ios":"levelo://app?vid=a863f467-985c-49b2-8a3c-9a5203ee8f7f"},"vehicle_type_id":"4","last_reported":1742786881,"current_range_meters":10000,"station_id":"ce4bhp12rcd13ifvqh9g","pricing_plan_id":"cebpf4jnsgd1na2vs0mg"},{"bike_id":"ad233241-3078-4dca-86c6-f67c46ca86d5","system_id":"levelo_inurba_marseille","lat":43.31081,"lon":5.42432,"is_reserved":false,"is_disabled":false,"rental_uris":{"android":"levelo://app?vid=ad233241-3078-4dca-86c6-f67c46ca86d5","ios":"levelo://app?vid=ad233241-3078-4dca-86c6-f67c46ca86d5"},"vehicle_type_id":"4","last_reported":1742786881,"current_range_meters":10000,"station_id":"ce4bhp92rcd13ifvqhag","pricing_plan_id":"cebpf4jnsgd1na2vs0mg"},{"bike_id":"9bd66c75-2d6b-4709-91e0-c8130478cce4","system_id":"levelo_inurba_marseille","lat":43.25934,"lon":5.40883,"is_reserved":false,"is_disabled":false,"rental_uris":{"android":"levelo://app?vid=9bd66c75-2d6b-4709-91e0-c8130478cce4","ios":"levelo://app?vid=9bd66c75-2d6b-4709-91e0-c8130478cce4"},"vehicle_type_id":"4","last_reported":1742786881,"current_range_meters":10000,"station_id":"ce4bhm92rcd13ifvqglg","pricing_plan_id":"cebpf4jnsgd1na2vs0mg"},{"bike_id":"f7504e9b-86bc-45b6-8440-2c7ae94a444f","system_id":"levelo_inurba_marseille","lat":43.31116,"lon":5.37775,"is_reserved":false,"is_disabled":false,"rental_uris":{"android":"levelo://app?vid=f7504e9b-86bc-45b6-8440-2c7ae94a444f","ios":"levelo://app?vid=f7504e9b-86bc-45b6-8440-2c7ae94a444f"},"vehicle_type_id":"4","last_reported":1742786881,"current_range_meters":10000,"station_id":"ce4bgt92rcd13ifvqcg0","pricing_plan_id":"cebpf4jnsgd1na2vs0mg"},{"bike_id":"034718de-67f9-4b03-9b14-13a8fc4858ac","system_id":"levelo_inurba_marseille","lat":43.23188,"lon":5.35563,"is_reserved":false,"is_disabled":false,"rental_uris":{"android":"levelo://app?vid=034718de-67f9-4b03-9b14-13a8fc4858ac","ios":"levelo://app?vid=034718de-67f9-4b03-9b14-13a8fc4858ac"},"vehicle_type_id":"4","last_reported":1742786881,"current_range_meters":10000,"station_id":"ce4bhu92rcd13ifvqi70","pricing_plan_id":"cebpf4jnsgd1na2vs0mg"},{"bike_id":"83749387-4504-4259-a6ca-3b74b7ae7717","system_id":"levelo_inurba_marseille","lat":43.2316,"lon":5.43676,"is_reserved":false,"is_disabled":false,"rental_uris":{"android":"levelo://app?vid=83749387-4504-4259-a6ca-3b74b7ae7717","ios":"levelo://app?vid=83749387-4504-4259-a6ca-3b74b7ae7717"},"vehicle_type_id":"4","last_reported":1742786881,"current_range_meters":10000,"station_id":"ce4bhmp2rcd13ifvqgog","pricing_plan_id":"cebpf4jnsgd1na2vs0mg"},{"bike_id":"17fb5ce0-41df-4aee-8a39-011ce5565705","system_id":"levelo_inurba_marseille","lat":43.30815,"lon":5.38138,"is_reserved":false,"is_disabled":true,"rental_uris":{"android":"levelo://app?vid=17fb5ce0-41df-4aee-8a39-011ce5565705","ios":"levelo://app?vid=17fb5ce0-41df-4aee-8a39-011ce5565705"},"vehicle_type_id":"4","last_reported":1742786881,"current_range_meters":10000,"station_id":"ce4bgt12rcd13ifvqce0","pricing_plan_id":"cebpf4jnsgd1na2vs0mg"},{"bike_id":"91f3c8f5-ddd3-4ffa-b335-17ae90565c41","system_id":"levelo_inurba_marseille","lat":43.28456,"lon":5.35889,"is_reserved":false,"is_disabled":false,"rental_uris":{"android":"levelo://app?vid=91f3c8f5-ddd3-4ffa-b335-17ae90565c41","ios":"levelo://app?vid=91f3c8f5-ddd3-4ffa-b335-17ae90565c41"},"vehicle_type_id":"4","last_reported":1742786881,"current_range_meters":10000,"station_id":"ce4bhah2rcd13ifvqei0","pricing_plan_id":"cebpf4jnsgd1na2vs0mg"},{"bike_id":"a8b3cb95-f059-47ac-b672-1c7197ca6c51","system_id":"levelo_inurba_marseille","lat":43.28147,"lon":5.42646,"is_reserved":false,"is_disabled":false,"rental_uris":{"android":"levelo://app?vid=a8b3cb95-f059-47ac-b672-1c7197ca6c51","ios":"levelo://app?vid=a8b3cb95-f059-47ac-b672-1c7197ca6c51"},"vehicle_type_id":"4","last_reported":1742786881,"current_range_meters":10800,"station_id":"ce4bhnh2rcd13ifvqgug","pricing_plan_id":"cebpf4jnsgd1na2vs0mg"},{"bike_id":"d1275e34-17bb-457a-bd2d-af7a33ad43ca","system_id":"levelo_inurba_marseille","lat":43.31495,"lon":5.37304,"is_reserved":false,"is_disabled":false,"rental_uris":{"android":"levelo://app?vid=d1275e34-17bb-457a-bd2d-af7a33ad43ca","ios":"levelo://app?vid=d1275e34-17bb-457a-bd2d-af7a33ad43ca"},"vehicle_type_id":"4","last_reported":1742786881,"current_range_meters":10800,"station_id":"ce4bgt12rcd13ifvqcd0","pricing_plan_id":"cebpf4jnsgd1na2vs0mg"},{"bike_id":"e77d191c-b6c2-4af6-8798-46f31e387227","system_id":"levelo_inurba_marseille","lat":43.30071,"lon":5.37633,"is_reserved":false,"is_disabled":false,"rental_uris":{"android":"levelo://app?vid=e77d191c-b6c2-4af6-8798-46f31e387227","ios":"levelo://app?vid=e77d191c-b6c2-4af6-8798-46f31e387227"},"vehicle_type_id":"4","last_reported":1742786881,"current_range_meters":10800,"station_id":"","pricing_plan_id":"cebpf4jnsgd1na2vs0mg"},{"bike_id":"81c28995-a624-4bc5-ad4b-6d333e9d549b","system_id":"levelo_inurba_marseille","lat":43.24668,"lon":5.38153,"is_reserved":false,"is_disabled":false,"rental_uris":{"android":"levelo://app?vid=81c28995-a624-4bc5-ad4b-6d333e9d549b","ios":"levelo://app?vid=81c28995-a624-4bc5-ad4b-6d333e9d549b"},"vehicle_type_id":"4","last_reported":1742786881,"current_range_meters":10800,"station_id":"ce4bhih2rcd13ifvqfr0","pricing_plan_id":"cebpf4jnsgd1na2vs0mg"},{"bike_id":"b4033be0-5b35-45ca-9979-c7890f6c888e","system_id":"levelo_inurba_marseille","lat":43.311677,"lon":5.387185,"is_reserved":false,"is_disabled":false,"rental_uris":{"android":"levelo://app?vid=b4033be0-5b35-45ca-9979-c7890f6c888e","ios":"levelo://app?vid=b4033be0-5b35-45ca-9979-c7890f6c888e"},"vehicle_type_id":"4","last_reported":1742786881,"current_range_meters":10800,"station_id":"ce4bh612rcd13ifvqe6g","pricing_plan_id":"cebpf4jnsgd1na2vs0mg"},{"bike_id":"42fc6ff7-439d-4869-8fd9-721e2d9d9e36","system_id":"levelo_inurba_marseille","lat":43.31994,"lon":5.38139,"is_reserved":false,"is_disabled":false,"rental_uris":{"android":"levelo://app?vid=42fc6ff7-439d-4869-8fd9-721e2d9d9e36","ios":"levelo://app?vid=42fc6ff7-439d-4869-8fd9-721e2d9d9e36"},"vehicle_type_id":"4","last_reported":1742786881,"current_range_meters":10800,"station_id":"ce4bhr12rcd13ifvqhpg","pricing_plan_id":"cebpf4jnsgd1na2vs0mg"},{"bike_id":"794fb38b-1d82-45e0-bfb3-5bbb935a3b94","system_id":"levelo_inurba_marseille","lat":43.262189,"lon":5.374551,"is_reserved":false,"is_disabled":false,"rental_uris":{"android":"levelo://app?vid=794fb38b-1d82-45e0-bfb3-5bbb935a3b94","ios":"levelo://app?vid=794fb38b-1d82-45e0-bfb3-5bbb935a3b94"},"vehicle_type_id":"4","last_reported":1742786881,"current_range_meters":10800,"station_id":"ce4bhgp2rcd13ifvqfc0","pricing_plan_id":"cebpf4jnsgd1na2vs0mg"},{"bike_id":"bf2560bf-81fb-4a8a-998d-b6e794622bed","system_id":"levelo_inurba_marseille","lat":43.30314,"lon":5.36903,"is_reserved":false,"is_disabled":false,"rental_uris":{"android":"levelo://app?vid=bf2560bf-81fb-4a8a-998d-b6e794622bed","ios":"levelo://app?vid=bf2560bf-81fb-4a8a-998d-b6e794622bed"},"vehicle_type_id":"4","last_reported":1742786881,"current_range_meters":10800,"station_id":"ce4bgqh2rcd13ifvqc5g","pricing_plan_id":"cebpf4jnsgd1na2vs0mg"},{"bike_id":"587c4b09-c6c3-4755-8011-d820e3904490","system_id":"levelo_inurba_marseille","lat":43.239549,"lon":5.366357,"is_reserved":false,"is_disabled":false,"rental_uris":{"android":"levelo://app?vid=587c4b09-c6c3-4755-8011-d820e3904490","ios":"levelo://app?vid=587c4b09-c6c3-4755-8011-d820e3904490"},"vehicle_type_id":"4","last_reported":1742786881,"current_range_meters":10800,"station_id":"ce4bhi12rcd13ifvqfp0","pricing_plan_id":"cebpf4jnsgd1na2vs0mg"},{"bike_id":"24b77e8f-4e9e-4342-9950-404af23a4ef7","system_id":"levelo_inurba_marseille","lat":43.239562,"lon":5.366299,"is_reserved":false,"is_disabled":false,"rental_uris":{"android":"levelo://app?vid=24b77e8f-4e9e-4342-9950-404af23a4ef7","ios":"levelo://app?vid=24b77e8f-4e9e-4342-9950-404af23a4ef7"},"vehicle_type_id":"4","last_reported":1742786881,"current_range_meters":11200,"station_id":"ce4bhi12rcd13ifvqfp0","pricing_plan_id":"cebpf4jnsgd1na2vs0mg"},{"bike_id":"73f24004-486a-42ce-8b4c-437345158989","system_id":"levelo_inurba_marseille","lat":43.25939,"lon":5.40896,"is_reserved":false,"is_disabled":false,"rental_uris":{"android":"levelo://app?vid=73f24004-486a-42ce-8b4c-437345158989","ios":"levelo://app?vid=73f24004-486a-42ce-8b4c-437345158989"},"vehicle_type_id":"4","last_reported":1742786881,"current_range_meters":11200,"station_id":"ce4bhm92rcd13ifvqglg","pricing_plan_id":"cebpf4jnsgd1na2vs0mg"},{"bike_id":"f52d578c-2e92-468c-8d0d-6b48faf8734d","system_id":"levelo_inurba_marseille","lat":43.29881,"lon":5.3891,"is_reserved":false,"is_disabled":true,"rental_uris":{"android":"levelo://app?vid=f52d578c-2e92-468c-8d0d-6b48faf8734d","ios":"levelo://app?vid=f52d578c-2e92-468c-8d0d-6b48faf8734d"},"vehicle_type_id":"4","last_reported":1742786881,"current_range_meters":11200,"station_id":"ce4bh392rcd13ifvqdl0","pricing_plan_id":"cebpf4jnsgd1na2vs0mg"},{"bike_id":"362ce256-d873-44d5-8d0c-8eb3060da6b1","system_id":"levelo_inurba_marseille","lat":43.28182,"lon":5.42633,"is_reserved":false,"is_disabled":false,"rental_uris":{"android":"levelo://app?vid=362ce256-d873-44d5-8d0c-8eb3060da6b1","ios":"levelo://app?vid=362ce256-d873-44d5-8d0c-8eb3060da6b1"},"vehicle_type_id":"4","last_reported":1742786881,"current_range_meters":11200,"station_id":"ce4bhnh2rcd13ifvqgug","pricing_plan_id":"cebpf4jnsgd1na2vs0mg"},{"bike_id":"eb4a2c41-628d-4b10-b766-2b8f69e0c0c0","system_id":"levelo_inurba_marseille","lat":43.30908,"lon":5.36837,"is_reserved":false,"is_disabled":false,"rental_uris":{"android":"levelo://app?vid=eb4a2c41-628d-4b10-b766-2b8f69e0c0c0","ios":"levelo://app?vid=eb4a2c41-628d-4b10-b766-2b8f69e0c0c0"},"vehicle_type_id":"4","last_reported":1742786881,"current_range_meters":11200,"station_id":"ce4bgn92rcd13ifvqbvg","pricing_plan_id":"cebpf4jnsgd1na2vs0mg"},{"bike_id":"75c4418e-12f5-45ee-8c1f-91dc5829f101","system_id":"levelo_inurba_marseille","lat":43.28474,"lon":5.35882,"is_reserved":false,"is_disabled":false,"rental_uris":{"android":"levelo://app?vid=75c4418e-12f5-45ee-8c1f-91dc5829f101","ios":"levelo://app?vid=75c4418e-12f5-45ee-8c1f-91dc5829f101"},"vehicle_type_id":"4","last_reported":1742786881,"current_range_meters":11200,"station_id":"ce4bhah2rcd13ifvqei0","pricing_plan_id":"cebpf4jnsgd1na2vs0mg"},{"bike_id":"190b2064-fd76-48bb-8245-b597993b1043","system_id":"levelo_inurba_marseille","lat":43.27846,"lon":5.40654,"is_reserved":false,"is_disabled":false,"rental_uris":{"android":"levelo://app?vid=190b2064-fd76-48bb-8245-b597993b1043","ios":"levelo://app?vid=190b2064-fd76-48bb-8245-b597993b1043"},"vehicle_type_id":"4","last_reported":1742786881,"current_range_meters":11200,"station_id":"","pricing_plan_id":"cebpf4jnsgd1na2vs0mg"},{"bike_id":"d1c73b0a-1626-4c43-b19e-28df376e76ae","system_id":"levelo_inurba_marseille","lat":43.27997,"lon":5.40023,"is_reserved":false,"is_disabled":false,"rental_uris":{"android":"levelo://app?vid=d1c73b0a-1626-4c43-b19e-28df376e76ae","ios":"levelo://app?vid=d1c73b0a-1626-4c43-b19e-28df376e76ae"},"vehicle_type_id":"4","last_reported":1742786881,"current_range_meters":11200,"station_id":"ce4bho92rcd13ifvqh4g","pricing_plan_id":"cebpf4jnsgd1na2vs0mg"},{"bike_id":"32472832-a93e-47a2-925d-c37093eefcdd","system_id":"levelo_inurba_marseille","lat":43.240677,"lon":5.377606,"is_reserved":false,"is_disabled":false,"rental_uris":{"android":"levelo://app?vid=32472832-a93e-47a2-925d-c37093eefcdd","ios":"levelo://app?vid=32472832-a93e-47a2-925d-c37093eefcdd"},"vehicle_type_id":"4","last_reported":1742786881,"current_range_meters":11200,"station_id":"ce4bhnp2rcd13ifvqgvg","pricing_plan_id":"cebpf4jnsgd1na2vs0mg"},{"bike_id":"2ca0e00a-5797-4fdf-8ea8-686805ca80c9","system_id":"levelo_inurba_marseille","lat":43.30954,"lon":5.39026,"is_reserved":false,"is_disabled":true,"rental_uris":{"android":"levelo://app?vid=2ca0e00a-5797-4fdf-8ea8-686805ca80c9","ios":"levelo://app?vid=2ca0e00a-5797-4fdf-8ea8-686805ca80c9"},"vehicle_type_id":"4","last_reported":1742786881,"current_range_meters":11600,"station_id":"ce4bgup2rcd13ifvqco0","pricing_plan_id":"cebpf4jnsgd1na2vs0mg"},{"bike_id":"afba9c31-eda0-4874-b9f2-46f2dc35e785","system_id":"levelo_inurba_marseille","lat":43.28939,"lon":5.36386,"is_reserved":false,"is_disabled":false,"rental_uris":{"android":"levelo://app?vid=afba9c31-eda0-4874-b9f2-46f2dc35e785","ios":"levelo://app?vid=afba9c31-eda0-4874-b9f2-46f2dc35e785"},"vehicle_type_id":"4","last_reported":1742786881,"current_range_meters":11600,"station_id":"ce4bhc92rcd13ifvqetg","pricing_plan_id":"cebpf4jnsgd1na2vs0mg"},{"bike_id":"87e86a8c-06a5-4c7c-ad4c-f947c9935fa5","system_id":"levelo_inurba_marseille","lat":43.23194,"lon":5.3999,"is_reserved":false,"is_disabled":false,"rental_uris":{"android":"levelo://app?vid=87e86a8c-06a5-4c7c-ad4c-f947c9935fa5","ios":"levelo://app?vid=87e86a8c-06a5-4c7c-ad4c-f947c9935fa5"},"vehicle_type_id":"4","last_reported":1742786881,"current_range_meters":12000,"station_id":"ce4bhn12rcd13ifvqgqg","pricing_plan_id":"cebpf4jnsgd1na2vs0mg"},{"bike_id":"8db8e94c-5c15-452d-8525-723b319c3c7c","system_id":"levelo_inurba_marseille","lat":43.28858,"lon":5.39313,"is_reserved":false,"is_disabled":true,"rental_uris":{"android":"levelo://app?vid=8db8e94c-5c15-452d-8525-723b319c3c7c","ios":"levelo://app?vid=8db8e94c-5c15-452d-8525-723b319c3c7c"},"vehicle_type_id":"4","last_reported":1742786881,"current_range_meters":12000,"station_id":"ce4bh2p2rcd13ifvqdi0","pricing_plan_id":"cebpf4jnsgd1na2vs0mg"},{"bike_id":"7ccc6f88-15f6-4164-8a55-2ac59656555b","system_id":"levelo_inurba_marseille","lat":43.31897,"lon":5.40705,"is_reserved":false,"is_disabled":false,"rental_uris":{"android":"levelo://app?vid=7ccc6f88-15f6-4164-8a55-2ac59656555b","ios":"levelo://app?vid=7ccc6f88-15f6-4164-8a55-2ac59656555b"},"vehicle_type_id":"4","last_reported":1742786881,"current_range_meters":12000,"station_id":"ce4bhq12rcd13ifvqhig","pricing_plan_id":"cebpf4jnsgd1na2vs0mg"},{"bike_id":"3186ae2a-056b-4e99-878b-faf4d473860b","system_id":"levelo_inurba_marseille","lat":43.30889,"lon":5.39654,"is_reserved":false,"is_disabled":false,"rental_uris":{"android":"levelo://app?vid=3186ae2a-056b-4e99-878b-faf4d473860b","ios":"levelo://app?vid=3186ae2a-056b-4e99-878b-faf4d473860b"},"vehicle_type_id":"4","last_reported":1742786881,"current_range_meters":12400,"station_id":"ce4bh012rcd13ifvqcv0","pricing_plan_id":"cebpf4jnsgd1na2vs0mg"},{"bike_id":"d1f7ca60-4bb4-4dd9-9c90-e8069ceefa40","system_id":"levelo_inurba_marseille","lat":43.24173,"lon":5.36397,"is_reserved":false,"is_disabled":false,"rental_uris":{"android":"levelo://app?vid=d1f7ca60-4bb4-4dd9-9c90-e8069ceefa40","ios":"levelo://app?vid=d1f7ca60-4bb4-4dd9-9c90-e8069ceefa40"},"vehicle_type_id":"4","last_reported":1742786881,"current_range_meters":12400,"station_id":"cpo36qri1sfpv3e86is0","pricing_plan_id":"cebpf4jnsgd1na2vs0mg"},{"bike_id":"76757220-d8a3-400d-93c0-947089c24c8c","system_id":"levelo_inurba_marseille","lat":43.298982,"lon":5.43668,"is_reserved":false,"is_disabled":false,"rental_uris":{"android":"levelo://app?vid=76757220-d8a3-400d-93c0-947089c24c8c","ios":"levelo://app?vid=76757220-d8a3-400d-93c0-947089c24c8c"},"vehicle_type_id":"4","last_reported":1742786881,"current_range_meters":12400,"station_id":"ce4bhpp2rcd13ifvqhfg","pricing_plan_id":"cebpf4jnsgd1na2vs0mg"},{"bike_id":"2ba46124-a093-4345-928b-13702ad74f31","system_id":"levelo_inurba_marseille","lat":43.23074,"lon":5.35489,"is_reserved":false,"is_disabled":false,"rental_uris":{"android":"levelo://app?vid=2ba46124-a093-4345-928b-13702ad74f31","ios":"levelo://app?vid=2ba46124-a093-4345-928b-13702ad74f31"},"vehicle_type_id":"4","last_reported":1742786881,"current_range_meters":12400,"station_id":"cpo3342slgdg3j2ifvpg","pricing_plan_id":"cebpf4jnsgd1na2vs0mg"},{"bike_id":"1997b10d-1d35-44d3-85c4-29c84df0623c","system_id":"levelo_inurba_marseille","lat":43.24095,"lon":5.37731,"is_reserved":false,"is_disabled":false,"rental_uris":{"android":"levelo://app?vid=1997b10d-1d35-44d3-85c4-29c84df0623c","ios":"levelo://app?vid=1997b10d-1d35-44d3-85c4-29c84df0623c"},"vehicle_type_id":"4","last_reported":1742786881,"current_range_meters":12400,"station_id":"ce4bhnp2rcd13ifvqgvg","pricing_plan_id":"cebpf4jnsgd1na2vs0mg"},{"bike_id":"5cd3e5bf-29e6-4dab-a930-b49601feb04c","system_id":"levelo_inurba_marseille","lat":43.30139,"lon":5.3742,"is_reserved":false,"is_disabled":false,"rental_uris":{"android":"levelo://app?vid=5cd3e5bf-29e6-4dab-a930-b49601feb04c","ios":"levelo://app?vid=5cd3e5bf-29e6-4dab-a930-b49601feb04c"},"vehicle_type_id":"4","last_reported":1742786881,"current_range_meters":12400,"station_id":"ce4bgs92rcd13ifvqcc0","pricing_plan_id":"cebpf4jnsgd1na2vs0mg"},{"bike_id":"e550c819-1679-406b-a3b2-ca325b910ab7","system_id":"levelo_inurba_marseille","lat":43.29299,"lon":5.37175,"is_reserved":false,"is_disabled":false,"rental_uris":{"android":"levelo://app?vid=e550c819-1679-406b-a3b2-ca325b910ab7","ios":"levelo://app?vid=e550c819-1679-406b-a3b2-ca325b910ab7"},"vehicle_type_id":"4","last_reported":1742786881,"current_range_meters":12400,"station_id":"ce4bgh92rcd13ifvqb40","pricing_plan_id":"cebpf4jnsgd1na2vs0mg"},{"bike_id":"f19b6c24-facc-4cbc-b7a5-7e6ed0bf3fc5","system_id":"levelo_inurba_marseille","lat":43.28352,"lon":5.38096,"is_reserved":false,"is_disabled":false,"rental_uris":{"android":"levelo://app?vid=f19b6c24-facc-4cbc-b7a5-7e6ed0bf3fc5","ios":"levelo://app?vid=f19b6c24-facc-4cbc-b7a5-7e6ed0bf3fc5"},"vehicle_type_id":"4","last_reported":1742786881,"current_range_meters":12400,"station_id":"ce4bh412rcd13ifvqdr0","pricing_plan_id":"cebpf4jnsgd1na2vs0mg"},{"bike_id":"e784bcf0-e6f4-419c-acc0-929d2665a4b7","system_id":"levelo_inurba_marseille","lat":43.28153,"lon":5.42664,"is_reserved":false,"is_disabled":false,"rental_uris":{"android":"levelo://app?vid=e784bcf0-e6f4-419c-acc0-929d2665a4b7","ios":"levelo://app?vid=e784bcf0-e6f4-419c-acc0-929d2665a4b7"},"vehicle_type_id":"4","last_reported":1742786881,"current_range_meters":12800,"station_id":"ce4bhnh2rcd13ifvqgug","pricing_plan_id":"cebpf4jnsgd1na2vs0mg"},{"bike_id":"50db8333-3d43-4ff9-a1e0-a3db650ea4f6","system_id":"levelo_inurba_marseille","lat":43.310691,"lon":5.383542,"is_reserved":false,"is_disabled":false,"rental_uris":{"android":"levelo://app?vid=50db8333-3d43-4ff9-a1e0-a3db650ea4f6","ios":"levelo://app?vid=50db8333-3d43-4ff9-a1e0-a3db650ea4f6"},"vehicle_type_id":"4","last_reported":1742786881,"current_range_meters":12800,"station_id":"ce4bgv92rcd13ifvqcr0","pricing_plan_id":"cebpf4jnsgd1na2vs0mg"},{"bike_id":"6da13cbe-fe0b-42ba-8b7f-69afa665c6dc","system_id":"levelo_inurba_marseille","lat":43.30323,"lon":5.37566,"is_reserved":false,"is_disabled":false,"rental_uris":{"android":"levelo://app?vid=6da13cbe-fe0b-42ba-8b7f-69afa665c6dc","ios":"levelo://app?vid=6da13cbe-fe0b-42ba-8b7f-69afa665c6dc"},"vehicle_type_id":"4","last_reported":1742786881,"current_range_meters":12800,"station_id":"","pricing_plan_id":"cebpf4jnsgd1na2vs0mg"},{"bike_id":"f74b13c7-053c-4b7a-983a-625dd03e6fbb","system_id":"levelo_inurba_marseille","lat":43.231942,"lon":5.355629,"is_reserved":false,"is_disabled":false,"rental_uris":{"android":"levelo://app?vid=f74b13c7-053c-4b7a-983a-625dd03e6fbb","ios":"levelo://app?vid=f74b13c7-053c-4b7a-983a-625dd03e6fbb"},"vehicle_type_id":"4","last_reported":1742786881,"current_range_meters":13600,"station_id":"ce4bhu92rcd13ifvqi70","pricing_plan_id":"cebpf4jnsgd1na2vs0mg"},{"bike_id":"c15db21c-22fd-477d-a977-58f0850ac460","system_id":"levelo_inurba_marseille","lat":43.28462,"lon":5.35878,"is_reserved":false,"is_disabled":false,"rental_uris":{"android":"levelo://app?vid=c15db21c-22fd-477d-a977-58f0850ac460","ios":"levelo://app?vid=c15db21c-22fd-477d-a977-58f0850ac460"},"vehicle_type_id":"4","last_reported":1742786881,"current_range_meters":13600,"station_id":"ce4bhah2rcd13ifvqei0","pricing_plan_id":"cebpf4jnsgd1na2vs0mg"},{"bike_id":"ba298775-8350-4b57-9be0-99308773b5b4","system_id":"levelo_inurba_marseille","lat":43.28156,"lon":5.42649,"is_reserved":false,"is_disabled":false,"rental_uris":{"android":"levelo://app?vid=ba298775-8350-4b57-9be0-99308773b5b4","ios":"levelo://app?vid=ba298775-8350-4b57-9be0-99308773b5b4"},"vehicle_type_id":"4","last_reported":1742786881,"current_range_meters":13600,"station_id":"ce4bhnh2rcd13ifvqgug","pricing_plan_id":"cebpf4jnsgd1na2vs0mg"},{"bike_id":"6eba8d8c-22e7-439f-ab05-699ce76fecec","system_id":"levelo_inurba_marseille","lat":43.2797,"lon":5.38766,"is_reserved":false,"is_disabled":false,"rental_uris":{"android":"levelo://app?vid=6eba8d8c-22e7-439f-ab05-699ce76fecec","ios":"levelo://app?vid=6eba8d8c-22e7-439f-ab05-699ce76fecec"},"vehicle_type_id":"4","last_reported":1742786881,"current_range_meters":13600,"station_id":"ce4bhg12rcd13ifvqf80","pricing_plan_id":"cebpf4jnsgd1na2vs0mg"},{"bike_id":"65242f0b-a8aa-4cab-8697-be58691d098c","system_id":"levelo_inurba_marseille","lat":43.28877,"lon":5.40899,"is_reserved":false,"is_disabled":false,"rental_uris":{"android":"levelo://app?vid=65242f0b-a8aa-4cab-8697-be58691d098c","ios":"levelo://app?vid=65242f0b-a8aa-4cab-8697-be58691d098c"},"vehicle_type_id":"4","last_reported":1742786881,"current_range_meters":13600,"station_id":"","pricing_plan_id":"cebpf4jnsgd1na2vs0mg"},{"bike_id":"9b3dcaf5-b313-4c20-91dc-f1c16272632c","system_id":"levelo_inurba_marseille","lat":43.281591,"lon":5.426438,"is_reserved":false,"is_disabled":false,"rental_uris":{"android":"levelo://app?vid=9b3dcaf5-b313-4c20-91dc-f1c16272632c","ios":"levelo://app?vid=9b3dcaf5-b313-4c20-91dc-f1c16272632c"},"vehicle_type_id":"4","last_reported":1742786881,"current_range_meters":13600,"station_id":"ce4bhnh2rcd13ifvqgug","pricing_plan_id":"cebpf4jnsgd1na2vs0mg"},{"bike_id":"41c8b74c-362a-4ace-a8be-a871abb3ef89","system_id":"levelo_inurba_marseille","lat":43.261544,"lon":5.40559,"is_reserved":false,"is_disabled":false,"rental_uris":{"android":"levelo://app?vid=41c8b74c-362a-4ace-a8be-a871abb3ef89","ios":"levelo://app?vid=41c8b74c-362a-4ace-a8be-a871abb3ef89"},"vehicle_type_id":"4","last_reported":1742786881,"current_range_meters":13600,"station_id":"","pricing_plan_id":"cebpf4jnsgd1na2vs0mg"},{"bike_id":"316ee3eb-a775-4a55-b9bf-20781043eb06","system_id":"levelo_inurba_marseille","lat":43.251066,"lon":5.403311,"is_reserved":false,"is_disabled":false,"rental_uris":{"android":"levelo://app?vid=316ee3eb-a775-4a55-b9bf-20781043eb06","ios":"levelo://app?vid=316ee3eb-a775-4a55-b9bf-20781043eb06"},"vehicle_type_id":"4","last_reported":1742786881,"current_range_meters":14000,"station_id":"ce4bhlh2rcd13ifvqgig","pricing_plan_id":"cebpf4jnsgd1na2vs0mg"},{"bike_id":"c3ea81e6-8675-4847-b618-2dfb23c938f8","system_id":"levelo_inurba_marseille","lat":43.276171,"lon":5.361014,"is_reserved":false,"is_disabled":true,"rental_uris":{"android":"levelo://app?vid=c3ea81e6-8675-4847-b618-2dfb23c938f8","ios":"levelo://app?vid=c3ea81e6-8675-4847-b618-2dfb23c938f8"},"vehicle_type_id":"4","last_reported":1742786881,"current_range_meters":14000,"station_id":"ce4bgj92rcd13ifvqbe0","pricing_plan_id":"cebpf4jnsgd1na2vs0mg"},{"bike_id":"e33fbbfb-148e-44ea-9462-bf2efade9e85","system_id":"levelo_inurba_marseille","lat":43.29326,"lon":5.37192,"is_reserved":false,"is_disabled":false,"rental_uris":{"android":"levelo://app?vid=e33fbbfb-148e-44ea-9462-bf2efade9e85","ios":"levelo://app?vid=e33fbbfb-148e-44ea-9462-bf2efade9e85"},"vehicle_type_id":"4","last_reported":1742786881,"current_range_meters":14000,"station_id":"ce4bgh92rcd13ifvqb40","pricing_plan_id":"cebpf4jnsgd1na2vs0mg"},{"bike_id":"a02ebaf7-0361-4838-b9fa-4a254f1f05c3","system_id":"levelo_inurba_marseille","lat":43.23206,"lon":5.35534,"is_reserved":false,"is_disabled":true,"rental_uris":{"android":"levelo://app?vid=a02ebaf7-0361-4838-b9fa-4a254f1f05c3","ios":"levelo://app?vid=a02ebaf7-0361-4838-b9fa-4a254f1f05c3"},"vehicle_type_id":"4","last_reported":1742786881,"current_range_meters":14000,"station_id":"ce4bhu92rcd13ifvqi70","pricing_plan_id":"cebpf4jnsgd1na2vs0mg"},{"bike_id":"facc7174-84c5-40fb-bff7-afbd1ba0c34e","system_id":"levelo_inurba_marseille","lat":43.28356,"lon":5.36327,"is_reserved":false,"is_disabled":false,"rental_uris":{"android":"levelo://app?vid=facc7174-84c5-40fb-bff7-afbd1ba0c34e","ios":"levelo://app?vid=facc7174-84c5-40fb-bff7-afbd1ba0c34e"},"vehicle_type_id":"4","last_reported":1742786881,"current_range_meters":14400,"station_id":"","pricing_plan_id":"cebpf4jnsgd1na2vs0mg"},{"bike_id":"1ddc70ec-e444-4841-84e9-456f7aeb224f","system_id":"levelo_inurba_marseille","lat":43.30966,"lon":5.40466,"is_reserved":false,"is_disabled":false,"rental_uris":{"android":"levelo://app?vid=1ddc70ec-e444-4841-84e9-456f7aeb224f","ios":"levelo://app?vid=1ddc70ec-e444-4841-84e9-456f7aeb224f"},"vehicle_type_id":"4","last_reported":1742786881,"current_range_meters":14400,"station_id":"","pricing_plan_id":"cebpf4jnsgd1na2vs0mg"},{"bike_id":"64da6105-406b-402f-b4c9-ed2c19fbf402","system_id":"levelo_inurba_marseille","lat":43.292725,"lon":5.384452,"is_reserved":false,"is_disabled":false,"rental_uris":{"android":"levelo://app?vid=64da6105-406b-402f-b4c9-ed2c19fbf402","ios":"levelo://app?vid=64da6105-406b-402f-b4c9-ed2c19fbf402"},"vehicle_type_id":"4","last_reported":1742786881,"current_range_meters":14400,"station_id":"","pricing_plan_id":"cebpf4jnsgd1na2vs0mg"},{"bike_id":"a8f6394a-9d18-4b5e-baa7-ce40c4391112","system_id":"levelo_inurba_marseille","lat":43.23956,"lon":5.36639,"is_reserved":false,"is_disabled":false,"rental_uris":{"android":"levelo://app?vid=a8f6394a-9d18-4b5e-baa7-ce40c4391112","ios":"levelo://app?vid=a8f6394a-9d18-4b5e-baa7-ce40c4391112"},"vehicle_type_id":"4","last_reported":1742786881,"current_range_meters":14400,"station_id":"ce4bhi12rcd13ifvqfp0","pricing_plan_id":"cebpf4jnsgd1na2vs0mg"},{"bike_id":"8135a3e2-a50f-446f-8694-dfaa1c450829","system_id":"levelo_inurba_marseille","lat":43.28462,"lon":5.35886,"is_reserved":false,"is_disabled":true,"rental_uris":{"android":"levelo://app?vid=8135a3e2-a50f-446f-8694-dfaa1c450829","ios":"levelo://app?vid=8135a3e2-a50f-446f-8694-dfaa1c450829"},"vehicle_type_id":"4","last_reported":1742786881,"current_range_meters":14400,"station_id":"ce4bhah2rcd13ifvqei0","pricing_plan_id":"cebpf4jnsgd1na2vs0mg"},{"bike_id":"11f4a5ee-676e-429f-8679-1776cbfb5777","system_id":"levelo_inurba_marseille","lat":43.239614,"lon":5.366251,"is_reserved":false,"is_disabled":false,"rental_uris":{"android":"levelo://app?vid=11f4a5ee-676e-429f-8679-1776cbfb5777","ios":"levelo://app?vid=11f4a5ee-676e-429f-8679-1776cbfb5777"},"vehicle_type_id":"4","last_reported":1742786881,"current_range_meters":14400,"station_id":"ce4bhi12rcd13ifvqfp0","pricing_plan_id":"cebpf4jnsgd1na2vs0mg"},{"bike_id":"b97b8876-d969-4576-b7ab-db9b2177d974","system_id":"levelo_inurba_marseille","lat":43.27646,"lon":5.38915,"is_reserved":false,"is_disabled":false,"rental_uris":{"android":"levelo://app?vid=b97b8876-d969-4576-b7ab-db9b2177d974","ios":"levelo://app?vid=b97b8876-d969-4576-b7ab-db9b2177d974"},"vehicle_type_id":"4","last_reported":1742786881,"current_range_meters":14400,"station_id":"ce4bhi12rcd13ifvqfo0","pricing_plan_id":"cebpf4jnsgd1na2vs0mg"},{"bike_id":"074ef621-2343-421e-9821-ea27910008f6","system_id":"levelo_inurba_marseille","lat":43.236636,"lon":5.377634,"is_reserved":false,"is_disabled":false,"rental_uris":{"android":"levelo://app?vid=074ef621-2343-421e-9821-ea27910008f6","ios":"levelo://app?vid=074ef621-2343-421e-9821-ea27910008f6"},"vehicle_type_id":"4","last_reported":1742786881,"current_range_meters":14800,"station_id":"","pricing_plan_id":"cebpf4jnsgd1na2vs0mg"},{"bike_id":"a580ea46-2b7e-4f52-bd70-102d60727b02","system_id":"levelo_inurba_marseille","lat":43.23958,"lon":5.36643,"is_reserved":false,"is_disabled":false,"rental_uris":{"android":"levelo://app?vid=a580ea46-2b7e-4f52-bd70-102d60727b02","ios":"levelo://app?vid=a580ea46-2b7e-4f52-bd70-102d60727b02"},"vehicle_type_id":"4","last_reported":1742786881,"current_range_meters":14800,"station_id":"ce4bhi12rcd13ifvqfp0","pricing_plan_id":"cebpf4jnsgd1na2vs0mg"},{"bike_id":"b80f2311-8be3-4465-ad2e-0ab0455d6f63","system_id":"levelo_inurba_marseille","lat":43.29419,"lon":5.38618,"is_reserved":false,"is_disabled":true,"rental_uris":{"android":"levelo://app?vid=b80f2311-8be3-4465-ad2e-0ab0455d6f63","ios":"levelo://app?vid=b80f2311-8be3-4465-ad2e-0ab0455d6f63"},"vehicle_type_id":"4","last_reported":1742786881,"current_range_meters":14800,"station_id":"ce4bh2h2rcd13ifvqdh0","pricing_plan_id":"cebpf4jnsgd1na2vs0mg"},{"bike_id":"b8c55d8a-dbd2-455d-921a-196c9c89183e","system_id":"levelo_inurba_marseille","lat":43.30952,"lon":5.39038,"is_reserved":false,"is_disabled":true,"rental_uris":{"android":"levelo://app?vid=b8c55d8a-dbd2-455d-921a-196c9c89183e","ios":"levelo://app?vid=b8c55d8a-dbd2-455d-921a-196c9c89183e"},"vehicle_type_id":"4","last_reported":1742786881,"current_range_meters":14800,"station_id":"ce4bgup2rcd13ifvqco0","pricing_plan_id":"cebpf4jnsgd1na2vs0mg"},{"bike_id":"003b88bd-4567-4889-b3a0-c34cb5d46a0b","system_id":"levelo_inurba_marseille","lat":43.23959,"lon":5.3662,"is_reserved":false,"is_disabled":false,"rental_uris":{"android":"levelo://app?vid=003b88bd-4567-4889-b3a0-c34cb5d46a0b","ios":"levelo://app?vid=003b88bd-4567-4889-b3a0-c34cb5d46a0b"},"vehicle_type_id":"4","last_reported":1742786881,"current_range_meters":14800,"station_id":"ce4bhi12rcd13ifvqfp0","pricing_plan_id":"cebpf4jnsgd1na2vs0mg"},{"bike_id":"411f3bcd-8c10-4807-829c-d644d09dbe42","system_id":"levelo_inurba_marseille","lat":43.33027,"lon":5.39052,"is_reserved":false,"is_disabled":true,"rental_uris":{"android":"levelo://app?vid=411f3bcd-8c10-4807-829c-d644d09dbe42","ios":"levelo://app?vid=411f3bcd-8c10-4807-829c-d644d09dbe42"},"vehicle_type_id":"4","last_reported":1742786881,"current_range_meters":14800,"station_id":"ce4bhr92rcd13ifvqhrg","pricing_plan_id":"cebpf4jnsgd1na2vs0mg"},{"bike_id":"615bde58-958b-4047-8764-33279e26954c","system_id":"levelo_inurba_marseille","lat":43.29258,"lon":5.40122,"is_reserved":false,"is_disabled":false,"rental_uris":{"android":"levelo://app?vid=615bde58-958b-4047-8764-33279e26954c","ios":"levelo://app?vid=615bde58-958b-4047-8764-33279e26954c"},"vehicle_type_id":"4","last_reported":1742786881,"current_range_meters":14800,"station_id":"ce4bh312rcd13ifvqdk0","pricing_plan_id":"cebpf4jnsgd1na2vs0mg"},{"bike_id":"2837128b-27ec-48c9-9f29-25103435cee9","system_id":"levelo_inurba_marseille","lat":43.265732,"lon":5.39045,"is_reserved":false,"is_disabled":false,"rental_uris":{"android":"levelo://app?vid=2837128b-27ec-48c9-9f29-25103435cee9","ios":"levelo://app?vid=2837128b-27ec-48c9-9f29-25103435cee9"},"vehicle_type_id":"4","last_reported":1742786881,"current_range_meters":15200,"station_id":"ce4bhe12rcd13ifvqf30","pricing_plan_id":"cebpf4jnsgd1na2vs0mg"},{"bike_id":"5834dfcf-f290-419a-acc0-1e4a34af5222","system_id":"levelo_inurba_marseille","lat":43.239576,"lon":5.366297,"is_reserved":false,"is_disabled":false,"rental_uris":{"android":"levelo://app?vid=5834dfcf-f290-419a-acc0-1e4a34af5222","ios":"levelo://app?vid=5834dfcf-f290-419a-acc0-1e4a34af5222"},"vehicle_type_id":"4","last_reported":1742786881,"current_range_meters":15200,"station_id":"ce4bhi12rcd13ifvqfp0","pricing_plan_id":"cebpf4jnsgd1na2vs0mg"},{"bike_id":"873277f4-c89c-4630-85e5-13caa372d39a","system_id":"levelo_inurba_marseille","lat":43.24074,"lon":5.37754,"is_reserved":false,"is_disabled":false,"rental_uris":{"android":"levelo://app?vid=873277f4-c89c-4630-85e5-13caa372d39a","ios":"levelo://app?vid=873277f4-c89c-4630-85e5-13caa372d39a"},"vehicle_type_id":"4","last_reported":1742786881,"current_range_meters":15200,"station_id":"ce4bhnp2rcd13ifvqgvg","pricing_plan_id":"cebpf4jnsgd1na2vs0mg"},{"bike_id":"d73909ee-175a-44f4-8c83-059b0437edba","system_id":"levelo_inurba_marseille","lat":43.3169,"lon":5.40465,"is_reserved":false,"is_disabled":false,"rental_uris":{"android":"levelo://app?vid=d73909ee-175a-44f4-8c83-059b0437edba","ios":"levelo://app?vid=d73909ee-175a-44f4-8c83-059b0437edba"},"vehicle_type_id":"4","last_reported":1742786881,"current_range_meters":15200,"station_id":"ce4bh012rcd13ifvqd00","pricing_plan_id":"cebpf4jnsgd1na2vs0mg"},{"bike_id":"ef12f1df-58a7-44f9-a515-abbc046895de","system_id":"levelo_inurba_marseille","lat":43.241783,"lon":5.397335,"is_reserved":false,"is_disabled":false,"rental_uris":{"android":"levelo://app?vid=ef12f1df-58a7-44f9-a515-abbc046895de","ios":"levelo://app?vid=ef12f1df-58a7-44f9-a515-abbc046895de"},"vehicle_type_id":"4","last_reported":1742786881,"current_range_meters":16000,"station_id":"ce4bhn12rcd13ifvqgpg","pricing_plan_id":"cebpf4jnsgd1na2vs0mg"},{"bike_id":"3bdebdf2-56ae-437c-b382-19775de32079","system_id":"levelo_inurba_marseille","lat":43.298516,"lon":5.362863,"is_reserved":false,"is_disabled":false,"rental_uris":{"android":"levelo://app?vid=3bdebdf2-56ae-437c-b382-19775de32079","ios":"levelo://app?vid=3bdebdf2-56ae-437c-b382-19775de32079"},"vehicle_type_id":"4","last_reported":1742786881,"current_range_meters":16000,"station_id":"ce4bgpp2rcd13ifvqc3g","pricing_plan_id":"cebpf4jnsgd1na2vs0mg"},{"bike_id":"1b955d68-d785-405c-8c3a-7e5d20ee6fae","system_id":"levelo_inurba_marseille","lat":43.28455,"lon":5.35869,"is_reserved":false,"is_disabled":false,"rental_uris":{"android":"levelo://app?vid=1b955d68-d785-405c-8c3a-7e5d20ee6fae","ios":"levelo://app?vid=1b955d68-d785-405c-8c3a-7e5d20ee6fae"},"vehicle_type_id":"4","last_reported":1742786881,"current_range_meters":16000,"station_id":"ce4bhah2rcd13ifvqei0","pricing_plan_id":"cebpf4jnsgd1na2vs0mg"},{"bike_id":"f33f7b8f-1c12-4bf0-9ebd-87f326cc282a","system_id":"levelo_inurba_marseille","lat":43.26213,"lon":5.40449,"is_reserved":false,"is_disabled":false,"rental_uris":{"android":"levelo://app?vid=f33f7b8f-1c12-4bf0-9ebd-87f326cc282a","ios":"levelo://app?vid=f33f7b8f-1c12-4bf0-9ebd-87f326cc282a"},"vehicle_type_id":"4","last_reported":1742786881,"current_range_meters":16000,"station_id":"ce4bhmh2rcd13ifvqgmg","pricing_plan_id":"cebpf4jnsgd1na2vs0mg"},{"bike_id":"479067b0-fbf6-4767-934b-6c0d74f12f79","system_id":"levelo_inurba_marseille","lat":43.26187,"lon":5.37935,"is_reserved":false,"is_disabled":true,"rental_uris":{"android":"levelo://app?vid=479067b0-fbf6-4767-934b-6c0d74f12f79","ios":"levelo://app?vid=479067b0-fbf6-4767-934b-6c0d74f12f79"},"vehicle_type_id":"4","last_reported":1742786881,"current_range_meters":16000,"station_id":"ce4bhjp2rcd13ifvqg90","pricing_plan_id":"cebpf4jnsgd1na2vs0mg"},{"bike_id":"66c1e510-11fc-4c17-8eb0-fa9eee144cd7","system_id":"levelo_inurba_marseille","lat":43.28697,"lon":5.39975,"is_reserved":false,"is_disabled":false,"rental_uris":{"android":"levelo://app?vid=66c1e510-11fc-4c17-8eb0-fa9eee144cd7","ios":"levelo://app?vid=66c1e510-11fc-4c17-8eb0-fa9eee144cd7"},"vehicle_type_id":"4","last_reported":1742786881,"current_range_meters":16000,"station_id":"ce4bho92rcd13ifvqh3g","pricing_plan_id":"cebpf4jnsgd1na2vs0mg"},{"bike_id":"1a75159d-6eb4-45f3-ac89-6ff2d642b219","system_id":"levelo_inurba_marseille","lat":43.23192,"lon":5.35548,"is_reserved":false,"is_disabled":false,"rental_uris":{"android":"levelo://app?vid=1a75159d-6eb4-45f3-ac89-6ff2d642b219","ios":"levelo://app?vid=1a75159d-6eb4-45f3-ac89-6ff2d642b219"},"vehicle_type_id":"4","last_reported":1742786881,"current_range_meters":16000,"station_id":"ce4bhu92rcd13ifvqi70","pricing_plan_id":"cebpf4jnsgd1na2vs0mg"},{"bike_id":"989306f0-ec00-4c5a-a143-c730bd5bb983","system_id":"levelo_inurba_marseille","lat":43.26516,"lon":5.37308,"is_reserved":false,"is_disabled":false,"rental_uris":{"android":"levelo://app?vid=989306f0-ec00-4c5a-a143-c730bd5bb983","ios":"levelo://app?vid=989306f0-ec00-4c5a-a143-c730bd5bb983"},"vehicle_type_id":"4","last_reported":1742786881,"current_range_meters":16000,"station_id":"","pricing_plan_id":"cebpf4jnsgd1na2vs0mg"},{"bike_id":"de5ee395-27b0-47e4-ad82-2ba579efa4a0","system_id":"levelo_inurba_marseille","lat":43.24551,"lon":5.39513,"is_reserved":false,"is_disabled":false,"rental_uris":{"android":"levelo://app?vid=de5ee395-27b0-47e4-ad82-2ba579efa4a0","ios":"levelo://app?vid=de5ee395-27b0-47e4-ad82-2ba579efa4a0"},"vehicle_type_id":"4","last_reported":1742786881,"current_range_meters":16000,"station_id":"ce4bhlp2rcd13ifvqgjg","pricing_plan_id":"cebpf4jnsgd1na2vs0mg"},{"bike_id":"8b0044fa-37e4-42fc-bb47-64dd5d739dae","system_id":"levelo_inurba_marseille","lat":43.230564,"lon":5.354926,"is_reserved":false,"is_disabled":false,"rental_uris":{"android":"levelo://app?vid=8b0044fa-37e4-42fc-bb47-64dd5d739dae","ios":"levelo://app?vid=8b0044fa-37e4-42fc-bb47-64dd5d739dae"},"vehicle_type_id":"4","last_reported":1742786881,"current_range_meters":16000,"station_id":"cpo3342slgdg3j2ifvpg","pricing_plan_id":"cebpf4jnsgd1na2vs0mg"},{"bike_id":"07b2103e-4193-4858-b1c1-e886843ce84c","system_id":"levelo_inurba_marseille","lat":43.3361,"lon":5.41022,"is_reserved":false,"is_disabled":false,"rental_uris":{"android":"levelo://app?vid=07b2103e-4193-4858-b1c1-e886843ce84c","ios":"levelo://app?vid=07b2103e-4193-4858-b1c1-e886843ce84c"},"vehicle_type_id":"4","last_reported":1742786881,"current_range_meters":16000,"station_id":"ce4bhqh2rcd13ifvqhmg","pricing_plan_id":"cebpf4jnsgd1na2vs0mg"},{"bike_id":"7f8313f8-c365-4250-818a-aa69d6d38f05","system_id":"levelo_inurba_marseille","lat":43.30648,"lon":5.40069,"is_reserved":false,"is_disabled":false,"rental_uris":{"android":"levelo://app?vid=7f8313f8-c365-4250-818a-aa69d6d38f05","ios":"levelo://app?vid=7f8313f8-c365-4250-818a-aa69d6d38f05"},"vehicle_type_id":"4","last_reported":1742786881,"current_range_meters":15200,"station_id":"ce4bh112rcd13ifvqda0","pricing_plan_id":"cebpf4jnsgd1na2vs0mg"},{"bike_id":"2ded2aef-d386-4b12-bf94-6d80e6034554","system_id":"levelo_inurba_marseille","lat":43.336033,"lon":5.410231,"is_reserved":false,"is_disabled":false,"rental_uris":{"android":"levelo://app?vid=2ded2aef-d386-4b12-bf94-6d80e6034554","ios":"levelo://app?vid=2ded2aef-d386-4b12-bf94-6d80e6034554"},"vehicle_type_id":"4","last_reported":1742786881,"current_range_meters":16000,"station_id":"ce4bhqh2rcd13ifvqhmg","pricing_plan_id":"cebpf4jnsgd1na2vs0mg"},{"bike_id":"256ca4f1-c1b0-4993-8be3-66123844349d","system_id":"levelo_inurba_marseille","lat":43.23105,"lon":5.35445,"is_reserved":false,"is_disabled":false,"rental_uris":{"android":"levelo://app?vid=256ca4f1-c1b0-4993-8be3-66123844349d","ios":"levelo://app?vid=256ca4f1-c1b0-4993-8be3-66123844349d"},"vehicle_type_id":"4","last_reported":1742786881,"current_range_meters":16400,"station_id":"","pricing_plan_id":"cebpf4jnsgd1na2vs0mg"},{"bike_id":"dcac929e-bfc7-4642-a3fd-df1c23a9d9e2","system_id":"levelo_inurba_marseille","lat":43.30844,"lon":5.37842,"is_reserved":false,"is_disabled":false,"rental_uris":{"android":"levelo://app?vid=dcac929e-bfc7-4642-a3fd-df1c23a9d9e2","ios":"levelo://app?vid=dcac929e-bfc7-4642-a3fd-df1c23a9d9e2"},"vehicle_type_id":"4","last_reported":1742786881,"current_range_meters":16400,"station_id":"","pricing_plan_id":"cebpf4jnsgd1na2vs0mg"},{"bike_id":"2ba0f073-e0c1-4981-8b66-b0ecda6f1fe8","system_id":"levelo_inurba_marseille","lat":43.27826,"lon":5.40696,"is_reserved":false,"is_disabled":true,"rental_uris":{"android":"levelo://app?vid=2ba0f073-e0c1-4981-8b66-b0ecda6f1fe8","ios":"levelo://app?vid=2ba0f073-e0c1-4981-8b66-b0ecda6f1fe8"},"vehicle_type_id":"4","last_reported":1742786881,"current_range_meters":16400,"station_id":"ce4bhnh2rcd13ifvqgtg","pricing_plan_id":"cebpf4jnsgd1na2vs0mg"},{"bike_id":"60fc9dc0-aa89-46d1-a71a-98cd30570cb9","system_id":"levelo_inurba_marseille","lat":43.25722,"lon":5.41111,"is_reserved":false,"is_disabled":false,"rental_uris":{"android":"levelo://app?vid=60fc9dc0-aa89-46d1-a71a-98cd30570cb9","ios":"levelo://app?vid=60fc9dc0-aa89-46d1-a71a-98cd30570cb9"},"vehicle_type_id":"4","last_reported":1742786881,"current_range_meters":16400,"station_id":"ce4bhkp2rcd13ifvqgd0","pricing_plan_id":"cebpf4jnsgd1na2vs0mg"},{"bike_id":"5aa0b45f-be4e-4023-b733-8ed860543228","system_id":"levelo_inurba_marseille","lat":43.23068,"lon":5.35504,"is_reserved":false,"is_disabled":false,"rental_uris":{"android":"levelo://app?vid=5aa0b45f-be4e-4023-b733-8ed860543228","ios":"levelo://app?vid=5aa0b45f-be4e-4023-b733-8ed860543228"},"vehicle_type_id":"4","last_reported":1742786881,"current_range_meters":16400,"station_id":"cpo3342slgdg3j2ifvpg","pricing_plan_id":"cebpf4jnsgd1na2vs0mg"},{"bike_id":"d7c87d38-0942-463c-8872-fb476829e67a","system_id":"levelo_inurba_marseille","lat":43.28357,"lon":5.38101,"is_reserved":false,"is_disabled":false,"rental_uris":{"android":"levelo://app?vid=d7c87d38-0942-463c-8872-fb476829e67a","ios":"levelo://app?vid=d7c87d38-0942-463c-8872-fb476829e67a"},"vehicle_type_id":"4","last_reported":1742786881,"current_range_meters":16400,"station_id":"ce4bh412rcd13ifvqdr0","pricing_plan_id":"cebpf4jnsgd1na2vs0mg"},{"bike_id":"757e9d77-3e68-4058-adbb-ffeaa3762057","system_id":"levelo_inurba_marseille","lat":43.257311,"lon":5.411032,"is_reserved":false,"is_disabled":false,"rental_uris":{"android":"levelo://app?vid=757e9d77-3e68-4058-adbb-ffeaa3762057","ios":"levelo://app?vid=757e9d77-3e68-4058-adbb-ffeaa3762057"},"vehicle_type_id":"4","last_reported":1742786881,"current_range_meters":16400,"station_id":"ce4bhkp2rcd13ifvqgd0","pricing_plan_id":"cebpf4jnsgd1na2vs0mg"},{"bike_id":"b91e64e7-d25b-41c3-a6a4-73a829fb9e24","system_id":"levelo_inurba_marseille","lat":43.241809,"lon":5.397216,"is_reserved":false,"is_disabled":false,"rental_uris":{"android":"levelo://app?vid=b91e64e7-d25b-41c3-a6a4-73a829fb9e24","ios":"levelo://app?vid=b91e64e7-d25b-41c3-a6a4-73a829fb9e24"},"vehicle_type_id":"4","last_reported":1742786881,"current_range_meters":16400,"station_id":"ce4bhn12rcd13ifvqgpg","pricing_plan_id":"cebpf4jnsgd1na2vs0mg"},{"bike_id":"7bd602f0-1f1c-4c22-8929-ae54e4cfb395","system_id":"levelo_inurba_marseille","lat":43.2587,"lon":5.399,"is_reserved":false,"is_disabled":false,"rental_uris":{"android":"levelo://app?vid=7bd602f0-1f1c-4c22-8929-ae54e4cfb395","ios":"levelo://app?vid=7bd602f0-1f1c-4c22-8929-ae54e4cfb395"},"vehicle_type_id":"4","last_reported":1742786881,"current_range_meters":16400,"station_id":"ce4bhl92rcd13ifvqghg","pricing_plan_id":"cebpf4jnsgd1na2vs0mg"},{"bike_id":"b6c970cd-2d8d-46ab-9d13-f25a8d4252fd","system_id":"levelo_inurba_marseille","lat":43.28458,"lon":5.35887,"is_reserved":false,"is_disabled":false,"rental_uris":{"android":"levelo://app?vid=b6c970cd-2d8d-46ab-9d13-f25a8d4252fd","ios":"levelo://app?vid=b6c970cd-2d8d-46ab-9d13-f25a8d4252fd"},"vehicle_type_id":"4","last_reported":1742786881,"current_range_meters":16400,"station_id":"ce4bhah2rcd13ifvqei0","pricing_plan_id":"cebpf4jnsgd1na2vs0mg"},{"bike_id":"45d6743f-f416-4349-9c37-470c94203154","system_id":"levelo_inurba_marseille","lat":43.245438,"lon":5.395209,"is_reserved":false,"is_disabled":false,"rental_uris":{"android":"levelo://app?vid=45d6743f-f416-4349-9c37-470c94203154","ios":"levelo://app?vid=45d6743f-f416-4349-9c37-470c94203154"},"vehicle_type_id":"4","last_reported":1742786881,"current_range_meters":16800,"station_id":"ce4bhlp2rcd13ifvqgjg","pricing_plan_id":"cebpf4jnsgd1na2vs0mg"},{"bike_id":"afde9b95-1fdd-4403-b679-302abb462ed4","system_id":"levelo_inurba_marseille","lat":43.30053,"lon":5.37222,"is_reserved":false,"is_disabled":false,"rental_uris":{"android":"levelo://app?vid=afde9b95-1fdd-4403-b679-302abb462ed4","ios":"levelo://app?vid=afde9b95-1fdd-4403-b679-302abb462ed4"},"vehicle_type_id":"4","last_reported":1742786881,"current_range_meters":16800,"station_id":"","pricing_plan_id":"cebpf4jnsgd1na2vs0mg"},{"bike_id":"7c70aa3d-21d8-4e26-82cc-fe748c99f4f8","system_id":"levelo_inurba_marseille","lat":43.31082,"lon":5.38353,"is_reserved":false,"is_disabled":false,"rental_uris":{"android":"levelo://app?vid=7c70aa3d-21d8-4e26-82cc-fe748c99f4f8","ios":"levelo://app?vid=7c70aa3d-21d8-4e26-82cc-fe748c99f4f8"},"vehicle_type_id":"4","last_reported":1742786881,"current_range_meters":16800,"station_id":"ce4bgv92rcd13ifvqcr0","pricing_plan_id":"cebpf4jnsgd1na2vs0mg"},{"bike_id":"7e3abc21-d181-4421-b43f-ef9b5598e4d2","system_id":"levelo_inurba_marseille","lat":43.26563,"lon":5.38995,"is_reserved":false,"is_disabled":false,"rental_uris":{"android":"levelo://app?vid=7e3abc21-d181-4421-b43f-ef9b5598e4d2","ios":"levelo://app?vid=7e3abc21-d181-4421-b43f-ef9b5598e4d2"},"vehicle_type_id":"4","last_reported":1742786881,"current_range_meters":16800,"station_id":"ce4bhe12rcd13ifvqf30","pricing_plan_id":"cebpf4jnsgd1na2vs0mg"},{"bike_id":"5b63ba00-3c30-46af-82aa-cc888014a11b","system_id":"levelo_inurba_marseille","lat":43.29715,"lon":5.36623,"is_reserved":false,"is_disabled":false,"rental_uris":{"android":"levelo://app?vid=5b63ba00-3c30-46af-82aa-cc888014a11b","ios":"levelo://app?vid=5b63ba00-3c30-46af-82aa-cc888014a11b"},"vehicle_type_id":"4","last_reported":1742786881,"current_range_meters":16800,"station_id":"ce4bgn12rcd13ifvqbt0","pricing_plan_id":"cebpf4jnsgd1na2vs0mg"},{"bike_id":"5d6bf724-7672-4fba-b093-82ea9416d154","system_id":"levelo_inurba_marseille","lat":43.28728,"lon":5.37935,"is_reserved":false,"is_disabled":false,"rental_uris":{"android":"levelo://app?vid=5d6bf724-7672-4fba-b093-82ea9416d154","ios":"levelo://app?vid=5d6bf724-7672-4fba-b093-82ea9416d154"},"vehicle_type_id":"4","last_reported":1742786881,"current_range_meters":16800,"station_id":"ce4bh9p2rcd13ifvqec0","pricing_plan_id":"cebpf4jnsgd1na2vs0mg"},{"bike_id":"d1adfc43-e43c-4f7c-aa18-df37eb15e88e","system_id":"levelo_inurba_marseille","lat":43.299724,"lon":5.413402,"is_reserved":false,"is_disabled":true,"rental_uris":{"android":"levelo://app?vid=d1adfc43-e43c-4f7c-aa18-df37eb15e88e","ios":"levelo://app?vid=d1adfc43-e43c-4f7c-aa18-df37eb15e88e"},"vehicle_type_id":"4","last_reported":1742786881,"current_range_meters":17200,"station_id":"ce4bhp12rcd13ifvqh9g","pricing_plan_id":"cebpf4jnsgd1na2vs0mg"},{"bike_id":"32c52765-d7d0-4271-9921-e60cde98e516","system_id":"levelo_inurba_marseille","lat":43.30919,"lon":5.40106,"is_reserved":false,"is_disabled":true,"rental_uris":{"android":"levelo://app?vid=32c52765-d7d0-4271-9921-e60cde98e516","ios":"levelo://app?vid=32c52765-d7d0-4271-9921-e60cde98e516"},"vehicle_type_id":"4","last_reported":1742786881,"current_range_meters":17200,"station_id":"ce4bgvp2rcd13ifvqct0","pricing_plan_id":"cebpf4jnsgd1na2vs0mg"},{"bike_id":"f5b6c758-f9ac-4fbd-9057-723b47ec4814","system_id":"levelo_inurba_marseille","lat":43.30134,"lon":5.37419,"is_reserved":false,"is_disabled":false,"rental_uris":{"android":"levelo://app?vid=f5b6c758-f9ac-4fbd-9057-723b47ec4814","ios":"levelo://app?vid=f5b6c758-f9ac-4fbd-9057-723b47ec4814"},"vehicle_type_id":"4","last_reported":1742786881,"current_range_meters":17200,"station_id":"ce4bgs92rcd13ifvqcc0","pricing_plan_id":"cebpf4jnsgd1na2vs0mg"},{"bike_id":"3b92dbdd-25f3-4387-9d5a-02c5bf280819","system_id":"levelo_inurba_marseille","lat":43.2454,"lon":5.39523,"is_reserved":false,"is_disabled":false,"rental_uris":{"android":"levelo://app?vid=3b92dbdd-25f3-4387-9d5a-02c5bf280819","ios":"levelo://app?vid=3b92dbdd-25f3-4387-9d5a-02c5bf280819"},"vehicle_type_id":"4","last_reported":1742786881,"current_range_meters":17200,"station_id":"ce4bhlp2rcd13ifvqgjg","pricing_plan_id":"cebpf4jnsgd1na2vs0mg"},{"bike_id":"ce942f3c-c8bc-45ca-9166-50ef7d5bca2c","system_id":"levelo_inurba_marseille","lat":43.23056,"lon":5.35487,"is_reserved":false,"is_disabled":false,"rental_uris":{"android":"levelo://app?vid=ce942f3c-c8bc-45ca-9166-50ef7d5bca2c","ios":"levelo://app?vid=ce942f3c-c8bc-45ca-9166-50ef7d5bca2c"},"vehicle_type_id":"4","last_reported":1742786881,"current_range_meters":17200,"station_id":"cpo3342slgdg3j2ifvpg","pricing_plan_id":"cebpf4jnsgd1na2vs0mg"},{"bike_id":"0f04486c-4261-48f0-bbdd-18a64ad89c31","system_id":"levelo_inurba_marseille","lat":43.31656,"lon":5.39449,"is_reserved":false,"is_disabled":false,"rental_uris":{"android":"levelo://app?vid=0f04486c-4261-48f0-bbdd-18a64ad89c31","ios":"levelo://app?vid=0f04486c-4261-48f0-bbdd-18a64ad89c31"},"vehicle_type_id":"4","last_reported":1742786881,"current_range_meters":17200,"station_id":"","pricing_plan_id":"cebpf4jnsgd1na2vs0mg"},{"bike_id":"5a837cb4-7806-48ac-9b64-d6680b6ef0c7","system_id":"levelo_inurba_marseille","lat":43.29659,"lon":5.42732,"is_reserved":false,"is_disabled":false,"rental_uris":{"android":"levelo://app?vid=5a837cb4-7806-48ac-9b64-d6680b6ef0c7","ios":"levelo://app?vid=5a837cb4-7806-48ac-9b64-d6680b6ef0c7"},"vehicle_type_id":"4","last_reported":1742786881,"current_range_meters":17200,"station_id":"","pricing_plan_id":"cebpf4jnsgd1na2vs0mg"},{"bike_id":"d5dd8bf5-a9a8-4a8e-a06b-0318fcab55ec","system_id":"levelo_inurba_marseille","lat":43.29208,"lon":5.36072,"is_reserved":false,"is_disabled":false,"rental_uris":{"android":"levelo://app?vid=d5dd8bf5-a9a8-4a8e-a06b-0318fcab55ec","ios":"levelo://app?vid=d5dd8bf5-a9a8-4a8e-a06b-0318fcab55ec"},"vehicle_type_id":"4","last_reported":1742786881,"current_range_meters":17200,"station_id":"ce4bhbh2rcd13ifvqeqg","pricing_plan_id":"cebpf4jnsgd1na2vs0mg"},{"bike_id":"b13510bb-b59c-467b-a799-8f4c92f8cf31","system_id":"levelo_inurba_marseille","lat":43.27503,"lon":5.42453,"is_reserved":false,"is_disabled":false,"rental_uris":{"android":"levelo://app?vid=b13510bb-b59c-467b-a799-8f4c92f8cf31","ios":"levelo://app?vid=b13510bb-b59c-467b-a799-8f4c92f8cf31"},"vehicle_type_id":"4","last_reported":1742786881,"current_range_meters":17200,"station_id":"ce4bhn92rcd13ifvqgrg","pricing_plan_id":"cebpf4jnsgd1na2vs0mg"},{"bike_id":"68bf77d1-f7b2-4f13-a7d4-868a5c8aaa5b","system_id":"levelo_inurba_marseille","lat":43.246521,"lon":5.388934,"is_reserved":false,"is_disabled":false,"rental_uris":{"android":"levelo://app?vid=68bf77d1-f7b2-4f13-a7d4-868a5c8aaa5b","ios":"levelo://app?vid=68bf77d1-f7b2-4f13-a7d4-868a5c8aaa5b"},"vehicle_type_id":"4","last_reported":1742786881,"current_range_meters":17200,"station_id":"ce4bhg12rcd13ifvqf60","pricing_plan_id":"cebpf4jnsgd1na2vs0mg"},{"bike_id":"3c5f6d1c-8e84-4f98-930c-f2d0d12ae2dc","system_id":"levelo_inurba_marseille","lat":43.2975,"lon":5.37958,"is_reserved":false,"is_disabled":false,"rental_uris":{"android":"levelo://app?vid=3c5f6d1c-8e84-4f98-930c-f2d0d12ae2dc","ios":"levelo://app?vid=3c5f6d1c-8e84-4f98-930c-f2d0d12ae2dc"},"vehicle_type_id":"4","last_reported":1742786881,"current_range_meters":17600,"station_id":"","pricing_plan_id":"cebpf4jnsgd1na2vs0mg"},{"bike_id":"9e0aa70d-46be-49fd-ac8d-9cad19ef0031","system_id":"levelo_inurba_marseille","lat":43.308263,"lon":5.375291,"is_reserved":false,"is_disabled":false,"rental_uris":{"android":"levelo://app?vid=9e0aa70d-46be-49fd-ac8d-9cad19ef0031","ios":"levelo://app?vid=9e0aa70d-46be-49fd-ac8d-9cad19ef0031"},"vehicle_type_id":"4","last_reported":1742786881,"current_range_meters":17600,"station_id":"","pricing_plan_id":"cebpf4jnsgd1na2vs0mg"},{"bike_id":"a5446fa9-b2f7-45f6-bfb4-1335cb6018ff","system_id":"levelo_inurba_marseille","lat":43.23067,"lon":5.35492,"is_reserved":false,"is_disabled":false,"rental_uris":{"android":"levelo://app?vid=a5446fa9-b2f7-45f6-bfb4-1335cb6018ff","ios":"levelo://app?vid=a5446fa9-b2f7-45f6-bfb4-1335cb6018ff"},"vehicle_type_id":"4","last_reported":1742786881,"current_range_meters":17600,"station_id":"cpo3342slgdg3j2ifvpg","pricing_plan_id":"cebpf4jnsgd1na2vs0mg"},{"bike_id":"d1ada5b2-bae4-499b-8ed4-b1468cbfb662","system_id":"levelo_inurba_marseille","lat":43.258655,"lon":5.399001,"is_reserved":false,"is_disabled":false,"rental_uris":{"android":"levelo://app?vid=d1ada5b2-bae4-499b-8ed4-b1468cbfb662","ios":"levelo://app?vid=d1ada5b2-bae4-499b-8ed4-b1468cbfb662"},"vehicle_type_id":"4","last_reported":1742786881,"current_range_meters":17600,"station_id":"ce4bhl92rcd13ifvqghg","pricing_plan_id":"cebpf4jnsgd1na2vs0mg"},{"bike_id":"c4e0ceed-72d6-4fa7-9ddf-e6c2a29b629e","system_id":"levelo_inurba_marseille","lat":43.27816,"lon":5.40709,"is_reserved":false,"is_disabled":false,"rental_uris":{"android":"levelo://app?vid=c4e0ceed-72d6-4fa7-9ddf-e6c2a29b629e","ios":"levelo://app?vid=c4e0ceed-72d6-4fa7-9ddf-e6c2a29b629e"},"vehicle_type_id":"4","last_reported":1742786881,"current_range_meters":17600,"station_id":"ce4bhnh2rcd13ifvqgtg","pricing_plan_id":"cebpf4jnsgd1na2vs0mg"},{"bike_id":"0588399f-c86f-433c-b4af-e8e4e2319b08","system_id":"levelo_inurba_marseille","lat":43.321087,"lon":5.367719,"is_reserved":false,"is_disabled":false,"rental_uris":{"android":"levelo://app?vid=0588399f-c86f-433c-b4af-e8e4e2319b08","ios":"levelo://app?vid=0588399f-c86f-433c-b4af-e8e4e2319b08"},"vehicle_type_id":"4","last_reported":1742786881,"current_range_meters":17600,"station_id":"ce4bhrh2rcd13ifvqhug","pricing_plan_id":"cebpf4jnsgd1na2vs0mg"},{"bike_id":"89e7f1f5-5ca2-49b2-adc8-5c3c0e6adabc","system_id":"levelo_inurba_marseille","lat":43.2558,"lon":5.38245,"is_reserved":false,"is_disabled":false,"rental_uris":{"android":"levelo://app?vid=89e7f1f5-5ca2-49b2-adc8-5c3c0e6adabc","ios":"levelo://app?vid=89e7f1f5-5ca2-49b2-adc8-5c3c0e6adabc"},"vehicle_type_id":"4","last_reported":1742786881,"current_range_meters":18000,"station_id":"ce4bhih2rcd13ifvqfs0","pricing_plan_id":"cebpf4jnsgd1na2vs0mg"},{"bike_id":"d0378c28-2ab6-47f3-9248-f012c7b13062","system_id":"levelo_inurba_marseille","lat":43.27672,"lon":5.38893,"is_reserved":false,"is_disabled":true,"rental_uris":{"android":"levelo://app?vid=d0378c28-2ab6-47f3-9248-f012c7b13062","ios":"levelo://app?vid=d0378c28-2ab6-47f3-9248-f012c7b13062"},"vehicle_type_id":"4","last_reported":1742786881,"current_range_meters":18000,"station_id":"ce4bhi12rcd13ifvqfo0","pricing_plan_id":"cebpf4jnsgd1na2vs0mg"},{"bike_id":"45108df1-d8ff-4e14-9429-1c1dadf15cfe","system_id":"levelo_inurba_marseille","lat":43.2406,"lon":5.37753,"is_reserved":false,"is_disabled":false,"rental_uris":{"android":"levelo://app?vid=45108df1-d8ff-4e14-9429-1c1dadf15cfe","ios":"levelo://app?vid=45108df1-d8ff-4e14-9429-1c1dadf15cfe"},"vehicle_type_id":"4","last_reported":1742786881,"current_range_meters":18000,"station_id":"ce4bhnp2rcd13ifvqgvg","pricing_plan_id":"cebpf4jnsgd1na2vs0mg"},{"bike_id":"7f9b2e17-cff5-4571-89a8-faf216bdaffa","system_id":"levelo_inurba_marseille","lat":43.25375,"lon":5.41335,"is_reserved":false,"is_disabled":false,"rental_uris":{"android":"levelo://app?vid=7f9b2e17-cff5-4571-89a8-faf216bdaffa","ios":"levelo://app?vid=7f9b2e17-cff5-4571-89a8-faf216bdaffa"},"vehicle_type_id":"4","last_reported":1742786881,"current_range_meters":18000,"station_id":"","pricing_plan_id":"cebpf4jnsgd1na2vs0mg"},{"bike_id":"10cd0674-8ad1-4c13-958f-ed6aa40a0a2c","system_id":"levelo_inurba_marseille","lat":43.24151,"lon":5.39743,"is_reserved":false,"is_disabled":false,"rental_uris":{"android":"levelo://app?vid=10cd0674-8ad1-4c13-958f-ed6aa40a0a2c","ios":"levelo://app?vid=10cd0674-8ad1-4c13-958f-ed6aa40a0a2c"},"vehicle_type_id":"4","last_reported":1742786881,"current_range_meters":18000,"station_id":"ce4bhn12rcd13ifvqgpg","pricing_plan_id":"cebpf4jnsgd1na2vs0mg"},{"bike_id":"7a9b10f8-203a-4997-96be-f4d8c3f4d064","system_id":"levelo_inurba_marseille","lat":43.28698,"lon":5.39975,"is_reserved":false,"is_disabled":false,"rental_uris":{"android":"levelo://app?vid=7a9b10f8-203a-4997-96be-f4d8c3f4d064","ios":"levelo://app?vid=7a9b10f8-203a-4997-96be-f4d8c3f4d064"},"vehicle_type_id":"4","last_reported":1742786881,"current_range_meters":18000,"station_id":"ce4bho92rcd13ifvqh3g","pricing_plan_id":"cebpf4jnsgd1na2vs0mg"},{"bike_id":"90d86941-e048-4ccd-b98e-e1802345de6e","system_id":"levelo_inurba_marseille","lat":43.26064,"lon":5.39401,"is_reserved":false,"is_disabled":true,"rental_uris":{"android":"levelo://app?vid=90d86941-e048-4ccd-b98e-e1802345de6e","ios":"levelo://app?vid=90d86941-e048-4ccd-b98e-e1802345de6e"},"vehicle_type_id":"4","last_reported":1742786881,"current_range_meters":18000,"station_id":"ce4bhh92rcd13ifvqfj0","pricing_plan_id":"cebpf4jnsgd1na2vs0mg"},{"bike_id":"410d90ce-ebc7-41c9-afc5-e552e9ec6d8e","system_id":"levelo_inurba_marseille","lat":43.230702,"lon":5.354916,"is_reserved":false,"is_disabled":false,"rental_uris":{"android":"levelo://app?vid=410d90ce-ebc7-41c9-afc5-e552e9ec6d8e","ios":"levelo://app?vid=410d90ce-ebc7-41c9-afc5-e552e9ec6d8e"},"vehicle_type_id":"4","last_reported":1742786881,"current_range_meters":18000,"station_id":"cpo3342slgdg3j2ifvpg","pricing_plan_id":"cebpf4jnsgd1na2vs0mg"},{"bike_id":"63efce5d-ac8d-4433-9526-275c7a7c737d","system_id":"levelo_inurba_marseille","lat":43.24555,"lon":5.39505,"is_reserved":false,"is_disabled":false,"rental_uris":{"android":"levelo://app?vid=63efce5d-ac8d-4433-9526-275c7a7c737d","ios":"levelo://app?vid=63efce5d-ac8d-4433-9526-275c7a7c737d"},"vehicle_type_id":"4","last_reported":1742786881,"current_range_meters":18800,"station_id":"ce4bhlp2rcd13ifvqgjg","pricing_plan_id":"cebpf4jnsgd1na2vs0mg"},{"bike_id":"fb7a185f-7de9-4e66-b150-f4dd3549937c","system_id":"levelo_inurba_marseille","lat":43.23974,"lon":5.36613,"is_reserved":false,"is_disabled":false,"rental_uris":{"android":"levelo://app?vid=fb7a185f-7de9-4e66-b150-f4dd3549937c","ios":"levelo://app?vid=fb7a185f-7de9-4e66-b150-f4dd3549937c"},"vehicle_type_id":"4","last_reported":1742786881,"current_range_meters":18800,"station_id":"ce4bhi12rcd13ifvqfp0","pricing_plan_id":"cebpf4jnsgd1na2vs0mg"},{"bike_id":"2792520f-db46-421c-9e59-04fac01d4a36","system_id":"levelo_inurba_marseille","lat":43.28459,"lon":5.35874,"is_reserved":false,"is_disabled":false,"rental_uris":{"android":"levelo://app?vid=2792520f-db46-421c-9e59-04fac01d4a36","ios":"levelo://app?vid=2792520f-db46-421c-9e59-04fac01d4a36"},"vehicle_type_id":"4","last_reported":1742786881,"current_range_meters":18800,"station_id":"ce4bhah2rcd13ifvqei0","pricing_plan_id":"cebpf4jnsgd1na2vs0mg"},{"bike_id":"72e5425e-ce05-4f38-ae16-f1ce277e0479","system_id":"levelo_inurba_marseille","lat":43.284151,"lon":5.375155,"is_reserved":false,"is_disabled":false,"rental_uris":{"android":"levelo://app?vid=72e5425e-ce05-4f38-ae16-f1ce277e0479","ios":"levelo://app?vid=72e5425e-ce05-4f38-ae16-f1ce277e0479"},"vehicle_type_id":"4","last_reported":1742786881,"current_range_meters":18800,"station_id":"ce4bh412rcd13ifvqds0","pricing_plan_id":"cebpf4jnsgd1na2vs0mg"},{"bike_id":"5dcdce05-0588-44ec-ba89-81f3c18ff9e4","system_id":"levelo_inurba_marseille","lat":43.29233,"lon":5.40173,"is_reserved":false,"is_disabled":false,"rental_uris":{"android":"levelo://app?vid=5dcdce05-0588-44ec-ba89-81f3c18ff9e4","ios":"levelo://app?vid=5dcdce05-0588-44ec-ba89-81f3c18ff9e4"},"vehicle_type_id":"4","last_reported":1742786881,"current_range_meters":18800,"station_id":"ce4bh312rcd13ifvqdk0","pricing_plan_id":"cebpf4jnsgd1na2vs0mg"},{"bike_id":"cf6c2f75-7229-4eb6-b732-5d71aea52ea3","system_id":"levelo_inurba_marseille","lat":43.262095,"lon":5.374486,"is_reserved":false,"is_disabled":false,"rental_uris":{"android":"levelo://app?vid=cf6c2f75-7229-4eb6-b732-5d71aea52ea3","ios":"levelo://app?vid=cf6c2f75-7229-4eb6-b732-5d71aea52ea3"},"vehicle_type_id":"4","last_reported":1742786881,"current_range_meters":18800,"station_id":"ce4bhgp2rcd13ifvqfc0","pricing_plan_id":"cebpf4jnsgd1na2vs0mg"},{"bike_id":"3310b9f7-ea2d-4cae-a02a-3b993009f4b8","system_id":"levelo_inurba_marseille","lat":43.284064,"lon":5.375218,"is_reserved":false,"is_disabled":false,"rental_uris":{"android":"levelo://app?vid=3310b9f7-ea2d-4cae-a02a-3b993009f4b8","ios":"levelo://app?vid=3310b9f7-ea2d-4cae-a02a-3b993009f4b8"},"vehicle_type_id":"4","last_reported":1742786881,"current_range_meters":18800,"station_id":"ce4bh412rcd13ifvqds0","pricing_plan_id":"cebpf4jnsgd1na2vs0mg"},{"bike_id":"55ded349-a72a-49f8-8a7c-aeb199e364c4","system_id":"levelo_inurba_marseille","lat":43.307825,"lon":5.37679,"is_reserved":false,"is_disabled":false,"rental_uris":{"android":"levelo://app?vid=55ded349-a72a-49f8-8a7c-aeb199e364c4","ios":"levelo://app?vid=55ded349-a72a-49f8-8a7c-aeb199e364c4"},"vehicle_type_id":"4","last_reported":1742786881,"current_range_meters":18800,"station_id":"ce4bgv92rcd13ifvqcq0","pricing_plan_id":"cebpf4jnsgd1na2vs0mg"},{"bike_id":"cdf3d63b-f7a7-4420-925e-c955889bda0e","system_id":"levelo_inurba_marseille","lat":43.30306,"lon":5.39164,"is_reserved":false,"is_disabled":true,"rental_uris":{"android":"levelo://app?vid=cdf3d63b-f7a7-4420-925e-c955889bda0e","ios":"levelo://app?vid=cdf3d63b-f7a7-4420-925e-c955889bda0e"},"vehicle_type_id":"4","last_reported":1742786881,"current_range_meters":19200,"station_id":"ce4bgkh2rcd13ifvqbk0","pricing_plan_id":"cebpf4jnsgd1na2vs0mg"},{"bike_id":"767a4e7d-df85-43ef-9c2d-d4f5f297e1a3","system_id":"levelo_inurba_marseille","lat":43.30144,"lon":5.399,"is_reserved":false,"is_disabled":true,"rental_uris":{"android":"levelo://app?vid=767a4e7d-df85-43ef-9c2d-d4f5f297e1a3","ios":"levelo://app?vid=767a4e7d-df85-43ef-9c2d-d4f5f297e1a3"},"vehicle_type_id":"4","last_reported":1742786881,"current_range_meters":19200,"station_id":"ce4bh0h2rcd13ifvqd40","pricing_plan_id":"cebpf4jnsgd1na2vs0mg"},{"bike_id":"d986c5df-ac35-44a9-9b58-ccbbbcdad740","system_id":"levelo_inurba_marseille","lat":43.2395,"lon":5.36627,"is_reserved":false,"is_disabled":false,"rental_uris":{"android":"levelo://app?vid=d986c5df-ac35-44a9-9b58-ccbbbcdad740","ios":"levelo://app?vid=d986c5df-ac35-44a9-9b58-ccbbbcdad740"},"vehicle_type_id":"4","last_reported":1742786881,"current_range_meters":19200,"station_id":"ce4bhi12rcd13ifvqfp0","pricing_plan_id":"cebpf4jnsgd1na2vs0mg"},{"bike_id":"7c5e495e-a4fe-44d2-8a9d-3caa1e3e3f04","system_id":"levelo_inurba_marseille","lat":43.32491,"lon":5.36564,"is_reserved":false,"is_disabled":false,"rental_uris":{"android":"levelo://app?vid=7c5e495e-a4fe-44d2-8a9d-3caa1e3e3f04","ios":"levelo://app?vid=7c5e495e-a4fe-44d2-8a9d-3caa1e3e3f04"},