{"last_updated":1692205550,"ttl":30,"version":"2.2","data":{"bikes":[{"bike_id":"f3ff0919-d443-4b91-abbe-4672416fc530","system_id":"levelo_inurba_marseille","lat":43.30535,"lon":5.36703,"is_reserved":false,"is_disabled":false,"rental_uris":{"android":"levelo://app?vid=f3ff0919-d443-4b91-abbe-4672416fc530","ios":"levelo://app?vid=f3ff0919-d443-4b91-abbe-4672416fc530"},"vehicle_type_id":"4","last_reported":1692205552,"current_range_meters":4800,"station_id":"ce4bgrp2rcd13ifvqc9g","pricing_plan_id":"free"},{"bike_id":"9fbe6e18-d192-44c2-98b5-cafb68b41aa4","system_id":"levelo_inurba_marseille","lat":43.30527,"lon":5.36549,"is_reserved":false,"is_disabled":false,"rental_uris":{"android":"levelo://app?vid=9fbe6e18-d192-44c2-98b5-cafb68b41aa4","ios":"levelo://app?vid=9fbe6e18-d192-44c2-98b5-cafb68b41aa4"},"vehicle_type_id":"4","last_reported":1692205552,"current_range_meters":24800,"station_id":"ce4bgs12rcd13ifvqcag","pricing_plan_id":"free"},{"bike_id":"386ed8e3-b71e-4f68-86af-202c5b76503e","system_id":"levelo_inurba_marseille","lat":43.305989,"lon":5.37225,"is_reserved":false,"is_disabled":false,"rental_uris":{"android":"levelo://app?vid=386ed8e3-b71e-4f68-86af-202c5b76503e","ios":"levelo://app?vid=386ed8e3-b71e-4f68-86af-202c5b76503e"},"vehicle_type_id":"4","last_reported":1692205552,"current_range_meters":31200,"station_id":"ce4bgqh2rcd13ifvqc4g","pricing_plan_id":"free"},{"bike_id":"979741e3-695a-48b2-bb8c-d75d348bb2b4","system_id":"levelo_inurba_marseille","lat":43.317075,"lon":5.377367,"is_reserved":false,"is_disabled":false,"rental_uris":{"android":"levelo://app?vid=979741e3-695a-48b2-bb8c-d75d348bb2b4","ios":"levelo://app?vid=979741e3-695a-48b2-bb8c-d75d348bb2b4"},"vehicle_type_id":"4","last_reported":1692205552,"current_range_meters":26800,"station_id":"ce4bgth2rcd13ifvqch0","pricing_plan_id":"free"},{"bike_id":"be2dbf05-e75a-434c-8474-c4fc485123e4","system_id":"levelo_inurba_marseille","lat":43.317075,"lon":5.377367,"is_reserved":false,"is_disabled":false,"rental_uris":{"android":"levelo://app?vid=be2dbf05-e75a-434c-8474-c4fc485123e4","ios":"levelo://app?vid=be2dbf05-e75a-434c-8474-c4fc485123e4"},"vehicle_type_id":"4","last_reported":1692205552,"current_range_meters":31200,"station_id":"ce4bgth2rcd13ifvqch0","pricing_plan_id":"free"},{"bike_id":"92be00df-8df7-4b91-b678-616ccf916c98","system_id":"levelo_inurba_marseille","lat":43.31681,"lon":5.37773,"is_reserved":false,"is_disabled":false,"rental_uris":{"android":"levelo://app?vid=92be00df-8df7-4b91-b678-616ccf916c98","ios":"levelo://app?vid=92be00df-8df7-4b91-b678-616ccf916c98"},"vehicle_type_id":"4","last_reported":1692205552,"current_range_meters":25600,"station_id":"","pricing_plan_id":"free"},{"bike_id":"25559cf7-fd16-49d7-9379-469f1a9ff38e","system_id":"levelo_inurba_marseille","lat":43.31599,"lon":5.37899,"is_reserved":false,"is_disabled":false,"rental_uris":{"android":"levelo://app?vid=25559cf7-fd16-49d7-9379-469f1a9ff38e","ios":"levelo://app?vid=25559cf7-fd16-49d7-9379-469f1a9ff38e"},"vehicle_type_id":"4","last_reported":1692205552,"current_range_meters":20000,"station_id":"","pricing_plan_id":"free"},{"bike_id":"236caffd-6909-4fac-8017-3c779ea793ef","system_id":"levelo_inurba_marseille","lat":43.301939,"lon":5.366286,"is_reserved":false,"is_disabled":false,"rental_uris":{"android":"levelo://app?vid=236caffd-6909-4fac-8017-3c779ea793ef","ios":"levelo://app?vid=236caffd-6909-4fac-8017-3c779ea793ef"},"vehicle_type_id":"4","last_reported":1692205552,"current_range_meters":6000,"station_id":"ce4bgrh2rcd13ifvqc8g","pricing_plan_id":"free"},{"bike_id":"eea044cd-d53d-4f73-af1b-2997f5ffc0a5","system_id":"levelo_inurba_marseille","lat":43.308012,"lon":5.381511,"is_reserved":false,"is_disabled":false,"rental_uris":{"android":"levelo://app?vid=eea044cd-d53d-4f73-af1b-2997f5ffc0a5","ios":"levelo://app?vid=eea044cd-d53d-4f73-af1b-2997f5ffc0a5"},"vehicle_type_id":"4","last_reported":1692205552,"current_range_meters":400,"station_id":"ce4bgt12rcd13ifvqce0","pricing_plan_id":"free"},{"bike_id":"f4a507c0-ecb6-4110-a918-94be6dba13d1","system_id":"levelo_inurba_marseille","lat":43.304606,"lon":5.379026,"is_reserved":false,"is_disabled":false,"rental_uris":{"android":"levelo://app?vid=f4a507c0-ecb6-4110-a918-94be6dba13d1","ios":"levelo://app?vid=f4a507c0-ecb6-4110-a918-94be6dba13d1"},"vehicle_type_id":"4","last_reported":1692205552,"current_range_meters":1200,"station_id":"ce4bgup2rcd13ifvqcn0","pricing_plan_id":"free"},{"bike_id":"62c98c6d-edf2-4a5b-9245-1031d6c24b55","system_id":"levelo_inurba_marseille","lat":43.302784,"lon":5.377158,"is_reserved":false,"is_disabled":false,"rental_uris":{"android":"levelo://app?vid=62c98c6d-edf2-4a5b-9245-1031d6c24b55","ios":"levelo://app?vid=62c98c6d-edf2-4a5b-9245-1031d6c24b55"},"vehicle_type_id":"4","last_reported":1692205552,"current_range_meters":22800,"station_id":"ce4bguh2rcd13ifvqcj0","pricing_plan_id":"free"},{"bike_id":"7c7efc17-ac57-4ea4-99c6-d51a96c005c0","system_id":"levelo_inurba_marseille","lat":43.30274,"lon":5.37708,"is_reserved":false,"is_disabled":false,"rental_uris":{"android":"levelo://app?vid=7c7efc17-ac57-4ea4-99c6-d51a96c005c0","ios":"levelo://app?vid=7c7efc17-ac57-4ea4-99c6-d51a96c005c0"},"vehicle_type_id":"4","last_reported":1692205552,"current_range_meters":21200,"station_id":"","pricing_plan_id":"free"},{"bike_id":"b13c77a3-26db-4da7-926d-63a721239f78","system_id":"levelo_inurba_marseille","lat":43.302747,"lon":5.377188,"is_reserved":false,"is_disabled":false,"rental_uris":{"android":"levelo://app?vid=b13c77a3-26db-4da7-926d-63a721239f78","ios":"levelo://app?vid=b13c77a3-26db-4da7-926d-63a721239f78"},"vehicle_type_id":"4","last_reported":1692205552,"current_range_meters":27200,"station_id":"","pricing_plan_id":"free"},{"bike_id":"10ace6ff-ef76-4b4d-a04f-2ec52dd81c45","system_id":"levelo_inurba_marseille","lat":43.319935,"lon":5.381699,"is_reserved":false,"is_disabled":false,"rental_uris":{"android":"levelo://app?vid=10ace6ff-ef76-4b4d-a04f-2ec52dd81c45","ios":"levelo://app?vid=10ace6ff-ef76-4b4d-a04f-2ec52dd81c45"},"vehicle_type_id":"4","last_reported":1692205552,"current_range_meters":14400,"station_id":"ce4bhr12rcd13ifvqhpg","pricing_plan_id":"free"},{"bike_id":"f97c5ceb-259b-419d-bc78-a4dc5b296f64","system_id":"levelo_inurba_marseille","lat":43.319935,"lon":5.381699,"is_reserved":false,"is_disabled":false,"rental_uris":{"android":"levelo://app?vid=f97c5ceb-259b-419d-bc78-a4dc5b296f64","ios":"levelo://app?vid=f97c5ceb-259b-419d-bc78-a4dc5b296f64"},"vehicle_type_id":"4","last_reported":1692205552,"current_range_meters":12000,"station_id":"ce4bhr12rcd13ifvqhpg","pricing_plan_id":"free"},{"bike_id":"c1f6c1a8-a62e-405c-8c76-cc915537e573","system_id":"levelo_inurba_marseille","lat":43.313571,"lon":5.384829,"is_reserved":false,"is_disabled":false,"rental_uris":{"android":"levelo://app?vid=c1f6c1a8-a62e-405c-8c76-cc915537e573","ios":"levelo://app?vid=c1f6c1a8-a62e-405c-8c76-cc915537e573"},"vehicle_type_id":"4","last_reported":1692205552,"current_range_meters":9600,"station_id":"ce4bgt92rcd13ifvqcf0","pricing_plan_id":"free"},{"bike_id":"4d9ea92f-74cd-4587-9ea2-1ee9d22dc869","system_id":"levelo_inurba_marseille","lat":43.298433,"lon":5.362774,"is_reserved":false,"is_disabled":false,"rental_uris":{"android":"levelo://app?vid=4d9ea92f-74cd-4587-9ea2-1ee9d22dc869","ios":"levelo://app?vid=4d9ea92f-74cd-4587-9ea2-1ee9d22dc869"},"vehicle_type_id":"4","last_reported":1692205552,"current_range_meters":15600,"station_id":"ce4bgpp2rcd13ifvqc3g","pricing_plan_id":"free"},{"bike_id":"c53b8eb0-38ad-4c95-ba88-4c7e97cb6e9c","system_id":"levelo_inurba_marseille","lat":43.31174,"lon":5.38709,"is_reserved":false,"is_disabled":false,"rental_uris":{"android":"levelo://app?vid=c53b8eb0-38ad-4c95-ba88-4c7e97cb6e9c","ios":"levelo://app?vid=c53b8eb0-38ad-4c95-ba88-4c7e97cb6e9c"},"vehicle_type_id":"4","last_reported":1692205552,"current_range_meters":31200,"station_id":"","pricing_plan_id":"free"},{"bike_id":"280f0e3e-173f-400f-bc17-e1b7a1107dd5","system_id":"levelo_inurba_marseille","lat":43.311722,"lon":5.387247,"is_reserved":false,"is_disabled":false,"rental_uris":{"android":"levelo://app?vid=280f0e3e-173f-400f-bc17-e1b7a1107dd5","ios":"levelo://app?vid=280f0e3e-173f-400f-bc17-e1b7a1107dd5"},"vehicle_type_id":"4","last_reported":1692205552,"current_range_meters":31200,"station_id":"ce4bgv12rcd13ifvqcp0","pricing_plan_id":"free"},{"bike_id":"d5f66181-b475-42c3-87d5-5d692c0b0bec","system_id":"levelo_inurba_marseille","lat":43.299243,"lon":5.37481,"is_reserved":false,"is_disabled":false,"rental_uris":{"android":"levelo://app?vid=d5f66181-b475-42c3-87d5-5d692c0b0bec","ios":"levelo://app?vid=d5f66181-b475-42c3-87d5-5d692c0b0bec"},"vehicle_type_id":"4","last_reported":1692205552,"current_range_meters":13200,"station_id":"ce4bgjh2rcd13ifvqbg0","pricing_plan_id":"free"},{"bike_id":"6ae64159-878d-4794-a5bd-0609b3125684","system_id":"levelo_inurba_marseille","lat":43.297774,"lon":5.370875,"is_reserved":false,"is_disabled":false,"rental_uris":{"android":"levelo://app?vid=6ae64159-878d-4794-a5bd-0609b3125684","ios":"levelo://app?vid=6ae64159-878d-4794-a5bd-0609b3125684"},"vehicle_type_id":"4","last_reported":1692205552,"current_range_meters":6400,"station_id":"ce4bgop2rcd13ifvqc1g","pricing_plan_id":"free"},{"bike_id":"d8dde6ed-0a75-43e3-97b3-cfa34a43bc46","system_id":"levelo_inurba_marseille","lat":43.297774,"lon":5.370875,"is_reserved":false,"is_disabled":false,"rental_uris":{"android":"levelo://app?vid=d8dde6ed-0a75-43e3-97b3-cfa34a43bc46","ios":"levelo://app?vid=d8dde6ed-0a75-43e3-97b3-cfa34a43bc46"},"vehicle_type_id":"4","last_reported":1692205552,"current_range_meters":31600,"station_id":"ce4bgop2rcd13ifvqc1g","pricing_plan_id":"free"},{"bike_id":"e6cd4d72-7d78-4007-8d97-7aef340c5a35","system_id":"levelo_inurba_marseille","lat":43.297774,"lon":5.370875,"is_reserved":false,"is_disabled":false,"rental_uris":{"android":"levelo://app?vid=e6cd4d72-7d78-4007-8d97-7aef340c5a35","ios":"levelo://app?vid=e6cd4d72-7d78-4007-8d97-7aef340c5a35"},"vehicle_type_id":"4","last_reported":1692205552,"current_range_meters":12800,"station_id":"ce4bgop2rcd13ifvqc1g","pricing_plan_id":"free"},{"bike_id":"1bf667cf-3514-4a07-b0cc-6779ab8ce747","system_id":"levelo_inurba_marseille","lat":43.32294,"lon":5.38263,"is_reserved":false,"is_disabled":false,"rental_uris":{"android":"levelo://app?vid=1bf667cf-3514-4a07-b0cc-6779ab8ce747","ios":"levelo://app?vid=1bf667cf-3514-4a07-b0cc-6779ab8ce747"},"vehicle_type_id":"4","last_reported":1692205552,"current_range_meters":15600,"station_id":"ce4bhr12rcd13ifvqhqg","pricing_plan_id":"free"},{"bike_id":"7fe9d765-be11-47ec-95a5-b88fca545d8d","system_id":"levelo_inurba_marseille","lat":43.32294,"lon":5.38263,"is_reserved":false,"is_disabled":false,"rental_uris":{"android":"levelo://app?vid=7fe9d765-be11-47ec-95a5-b88fca545d8d","ios":"levelo://app?vid=7fe9d765-be11-47ec-95a5-b88fca545d8d"},"vehicle_type_id":"4","last_reported":1692205552,"current_range_meters":25600,"station_id":"ce4bhr12rcd13ifvqhqg","pricing_plan_id":"free"},{"bike_id":"821a7f22-fde1-438e-a58f-eb4a1981e1c9","system_id":"levelo_inurba_marseille","lat":43.328245,"lon":5.366934,"is_reserved":false,"is_disabled":false,"rental_uris":{"android":"levelo://app?vid=821a7f22-fde1-438e-a58f-eb4a1981e1c9","ios":"levelo://app?vid=821a7f22-fde1-438e-a58f-eb4a1981e1c9"},"vehicle_type_id":"4","last_reported":1692205552,"current_range_meters":20400,"station_id":"ce4bhs92rcd13ifvqi0g","pricing_plan_id":"free"},{"bike_id":"2cacf4ba-30f0-4f40-92af-cee799fe4c0c","system_id":"levelo_inurba_marseille","lat":43.328371,"lon":5.366909,"is_reserved":false,"is_disabled":false,"rental_uris":{"android":"levelo://app?vid=2cacf4ba-30f0-4f40-92af-cee799fe4c0c","ios":"levelo://app?vid=2cacf4ba-30f0-4f40-92af-cee799fe4c0c"},"vehicle_type_id":"4","last_reported":1692205552,"current_range_meters":26800,"station_id":"ce4bhs92rcd13ifvqi0g","pricing_plan_id":"free"},{"bike_id":"fa832a3b-a72f-42a2-8ac6-320395daaa8c","system_id":"levelo_inurba_marseille","lat":43.32828,"lon":5.36685,"is_reserved":false,"is_disabled":false,"rental_uris":{"android":"levelo://app?vid=fa832a3b-a72f-42a2-8ac6-320395daaa8c","ios":"levelo://app?vid=fa832a3b-a72f-42a2-8ac6-320395daaa8c"},"vehicle_type_id":"4","last_reported":1692205552,"current_range_meters":24800,"station_id":"ce4bhs92rcd13ifvqi0g","pricing_plan_id":"free"},{"bike_id":"6ece8e83-2d1d-4d08-ad69-51835c8252e1","system_id":"levelo_inurba_marseille","lat":43.3283,"lon":5.36687,"is_reserved":false,"is_disabled":false,"rental_uris":{"android":"levelo://app?vid=6ece8e83-2d1d-4d08-ad69-51835c8252e1","ios":"levelo://app?vid=6ece8e83-2d1d-4d08-ad69-51835c8252e1"},"vehicle_type_id":"4","last_reported":1692205552,"current_range_meters":24800,"station_id":"ce4bhs92rcd13ifvqi0g","pricing_plan_id":"free"},{"bike_id":"dd789220-e7b5-42c1-b9dc-dc4243148021","system_id":"levelo_inurba_marseille","lat":43.297163,"lon":5.365866,"is_reserved":false,"is_disabled":false,"rental_uris":{"android":"levelo://app?vid=dd789220-e7b5-42c1-b9dc-dc4243148021","ios":"levelo://app?vid=dd789220-e7b5-42c1-b9dc-dc4243148021"},"vehicle_type_id":"4","last_reported":1692205552,"current_range_meters":31200,"station_id":"ce4bgn12rcd13ifvqbt0","pricing_plan_id":"free"},{"bike_id":"4ed96fad-2e51-49a2-879d-e8c05ef80263","system_id":"levelo_inurba_marseille","lat":43.32831,"lon":5.36679,"is_reserved":false,"is_disabled":false,"rental_uris":{"android":"levelo://app?vid=4ed96fad-2e51-49a2-879d-e8c05ef80263","ios":"levelo://app?vid=4ed96fad-2e51-49a2-879d-e8c05ef80263"},"vehicle_type_id":"4","last_reported":1692205552,"current_range_meters":15200,"station_id":"ce4bhs92rcd13ifvqi0g","pricing_plan_id":"free"},{"bike_id":"dcb38f3d-00a9-47a5-892d-27a970edbd08","system_id":"levelo_inurba_marseille","lat":43.32831,"lon":5.36678,"is_reserved":false,"is_disabled":false,"rental_uris":{"android":"levelo://app?vid=dcb38f3d-00a9-47a5-892d-27a970edbd08","ios":"levelo://app?vid=dcb38f3d-00a9-47a5-892d-27a970edbd08"},"vehicle_type_id":"4","last_reported":1692205552,"current_range_meters":30000,"station_id":"ce4bhs92rcd13ifvqi0g","pricing_plan_id":"free"},{"bike_id":"d86e7b99-7484-476a-824e-ca64a2fdcfb6","system_id":"levelo_inurba_marseille","lat":43.32831,"lon":5.36674,"is_reserved":false,"is_disabled":false,"rental_uris":{"android":"levelo://app?vid=d86e7b99-7484-476a-824e-ca64a2fdcfb6","ios":"levelo://app?vid=d86e7b99-7484-476a-824e-ca64a2fdcfb6"},"vehicle_type_id":"4","last_reported":1692205552,"current_range_meters":29600,"station_id":"ce4bhs92rcd13ifvqi0g","pricing_plan_id":"free"},{"bike_id":"3dc8ddfd-e386-4774-938c-dc3a7b25274a","system_id":"levelo_inurba_marseille","lat":43.32833,"lon":5.36685,"is_reserved":false,"is_disabled":false,"rental_uris":{"android":"levelo://app?vid=3dc8ddfd-e386-4774-938c-dc3a7b25274a","ios":"levelo://app?vid=3dc8ddfd-e386-4774-938c-dc3a7b25274a"},"vehicle_type_id":"4","last_reported":1692205552,"current_range_meters":18000,"station_id":"ce4bhs92rcd13ifvqi0g","pricing_plan_id":"free"},{"bike_id":"154520f2-fd91-4cdf-914b-39adc14372e3","system_id":"levelo_inurba_marseille","lat":43.32834,"lon":5.36682,"is_reserved":false,"is_disabled":false,"rental_uris":{"android":"levelo://app?vid=154520f2-fd91-4cdf-914b-39adc14372e3","ios":"levelo://app?vid=154520f2-fd91-4cdf-914b-39adc14372e3"},"vehicle_type_id":"4","last_reported":1692205552,"current_range_meters":16400,"station_id":"ce4bhs92rcd13ifvqi0g","pricing_plan_id":"free"},{"bike_id":"5f8a6ca0-5dfe-4c06-929a-c1030bd48d99","system_id":"levelo_inurba_marseille","lat":43.32834,"lon":5.36677,"is_reserved":false,"is_disabled":false,"rental_uris":{"android":"levelo://app?vid=5f8a6ca0-5dfe-4c06-929a-c1030bd48d99","ios":"levelo://app?vid=5f8a6ca0-5dfe-4c06-929a-c1030bd48d99"},"vehicle_type_id":"4","last_reported":1692205552,"current_range_meters":14800,"station_id":"ce4bhs92rcd13ifvqi0g","pricing_plan_id":"free"},{"bike_id":"6e141567-ce27-4b20-810a-9ecf17c0647e","system_id":"levelo_inurba_marseille","lat":43.32836,"lon":5.36679,"is_reserved":false,"is_disabled":false,"rental_uris":{"android":"levelo://app?vid=6e141567-ce27-4b20-810a-9ecf17c0647e","ios":"levelo://app?vid=6e141567-ce27-4b20-810a-9ecf17c0647e"},"vehicle_type_id":"4","last_reported":1692205552,"current_range_meters":23200,"station_id":"ce4bhs92rcd13ifvqi0g","pricing_plan_id":"free"},{"bike_id":"94ca1dde-c62e-406c-a1ed-ce8078fc26e1","system_id":"levelo_inurba_marseille","lat":43.32837,"lon":5.36684,"is_reserved":false,"is_disabled":false,"rental_uris":{"android":"levelo://app?vid=94ca1dde-c62e-406c-a1ed-ce8078fc26e1","ios":"levelo://app?vid=94ca1dde-c62e-406c-a1ed-ce8078fc26e1"},"vehicle_type_id":"4","last_reported":1692205552,"current_range_meters":14000,"station_id":"ce4bhs92rcd13ifvqi0g","pricing_plan_id":"free"},{"bike_id":"0c16fd08-1d8d-44ab-8fd3-7ffb6e7e61a0","system_id":"levelo_inurba_marseille","lat":43.296131,"lon":5.370791,"is_reserved":false,"is_disabled":false,"rental_uris":{"android":"levelo://app?vid=0c16fd08-1d8d-44ab-8fd3-7ffb6e7e61a0","ios":"levelo://app?vid=0c16fd08-1d8d-44ab-8fd3-7ffb6e7e61a0"},"vehicle_type_id":"4","last_reported":1692205552,"current_range_meters":32000,"station_id":"ce4bgnh2rcd13ifvqc0g","pricing_plan_id":"free"},{"bike_id":"d4c06abf-d90e-494b-9da3-d46c52aeec41","system_id":"levelo_inurba_marseille","lat":43.296129,"lon":5.370777,"is_reserved":false,"is_disabled":false,"rental_uris":{"android":"levelo://app?vid=d4c06abf-d90e-494b-9da3-d46c52aeec41","ios":"levelo://app?vid=d4c06abf-d90e-494b-9da3-d46c52aeec41"},"vehicle_type_id":"4","last_reported":1692205552,"current_range_meters":10400,"station_id":"ce4bgnh2rcd13ifvqc0g","pricing_plan_id":"free"},{"bike_id":"6dacc258-0639-4fd9-881a-1be3a05f3edc","system_id":"levelo_inurba_marseille","lat":43.296131,"lon":5.370791,"is_reserved":false,"is_disabled":false,"rental_uris":{"android":"levelo://app?vid=6dacc258-0639-4fd9-881a-1be3a05f3edc","ios":"levelo://app?vid=6dacc258-0639-4fd9-881a-1be3a05f3edc"},"vehicle_type_id":"4","last_reported":1692205552,"current_range_meters":14800,"station_id":"ce4bgnh2rcd13ifvqc0g","pricing_plan_id":"free"},{"bike_id":"001d173b-86bb-4040-b7f0-226e085ee1da","system_id":"levelo_inurba_marseille","lat":43.29573,"lon":5.367355,"is_reserved":false,"is_disabled":false,"rental_uris":{"android":"levelo://app?vid=001d173b-86bb-4040-b7f0-226e085ee1da","ios":"levelo://app?vid=001d173b-86bb-4040-b7f0-226e085ee1da"},"vehicle_type_id":"4","last_reported":1692205552,"current_range_meters":8800,"station_id":"ce4bgph2rcd13ifvqc2g","pricing_plan_id":"free"},{"bike_id":"bb155e93-116e-494a-9911-2df351c7dae8","system_id":"levelo_inurba_marseille","lat":43.29619,"lon":5.37166,"is_reserved":false,"is_disabled":false,"rental_uris":{"android":"levelo://app?vid=bb155e93-116e-494a-9911-2df351c7dae8","ios":"levelo://app?vid=bb155e93-116e-494a-9911-2df351c7dae8"},"vehicle_type_id":"4","last_reported":1692205552,"current_range_meters":27200,"station_id":"","pricing_plan_id":"free"},{"bike_id":"3db93172-7364-4e66-80d1-19cf200800b7","system_id":"levelo_inurba_marseille","lat":43.29573,"lon":5.367355,"is_reserved":false,"is_disabled":false,"rental_uris":{"android":"levelo://app?vid=3db93172-7364-4e66-80d1-19cf200800b7","ios":"levelo://app?vid=3db93172-7364-4e66-80d1-19cf200800b7"},"vehicle_type_id":"4","last_reported":1692205552,"current_range_meters":0,"station_id":"ce4bgph2rcd13ifvqc2g","pricing_plan_id":"free"},{"bike_id":"c8fa1381-2ce5-4834-ad70-0f38e5abe5da","system_id":"levelo_inurba_marseille","lat":43.29573,"lon":5.367355,"is_reserved":false,"is_disabled":false,"rental_uris":{"android":"levelo://app?vid=c8fa1381-2ce5-4834-ad70-0f38e5abe5da","ios":"levelo://app?vid=c8fa1381-2ce5-4834-ad70-0f38e5abe5da"},"vehicle_type_id":"4","last_reported":1692205552,"current_range_meters":18400,"station_id":"ce4bgph2rcd13ifvqc2g","pricing_plan_id":"free"},{"bike_id":"04e634d6-2798-49eb-bad7-6b979019a88e","system_id":"levelo_inurba_marseille","lat":43.29573,"lon":5.367355,"is_reserved":false,"is_disabled":false,"rental_uris":{"android":"levelo://app?vid=04e634d6-2798-49eb-bad7-6b979019a88e","ios":"levelo://app?vid=04e634d6-2798-49eb-bad7-6b979019a88e"},"vehicle_type_id":"4","last_reported":1692205552,"current_range_meters":6400,"station_id":"ce4bgph2rcd13ifvqc2g","pricing_plan_id":"free"},{"bike_id":"6e64aeac-faf2-4b79-b438-635ed7301487","system_id":"levelo_inurba_marseille","lat":43.309589,"lon":5.390258,"is_reserved":false,"is_disabled":false,"rental_uris":{"android":"levelo://app?vid=6e64aeac-faf2-4b79-b438-635ed7301487","ios":"levelo://app?vid=6e64aeac-faf2-4b79-b438-635ed7301487"},"vehicle_type_id":"4","last_reported":1692205552,"current_range_meters":22000,"station_id":"ce4bgup2rcd13ifvqco0","pricing_plan_id":"free"},{"bike_id":"bd9e0ad2-2dff-4a7f-8fa1-8ada97d05b3f","system_id":"levelo_inurba_marseille","lat":43.31756,"lon":5.39013,"is_reserved":false,"is_disabled":false,"rental_uris":{"android":"levelo://app?vid=bd9e0ad2-2dff-4a7f-8fa1-8ada97d05b3f","ios":"levelo://app?vid=bd9e0ad2-2dff-4a7f-8fa1-8ada97d05b3f"},"vehicle_type_id":"4","last_reported":1692205552,"current_range_meters":20400,"station_id":"ce4bhqp2rcd13ifvqhng","pricing_plan_id":"free"},{"bike_id":"c2dd4bd6-ad62-4f90-af27-61e9344d9f3c","system_id":"levelo_inurba_marseille","lat":43.3176,"lon":5.39012,"is_reserved":false,"is_disabled":false,"rental_uris":{"android":"levelo://app?vid=c2dd4bd6-ad62-4f90-af27-61e9344d9f3c","ios":"levelo://app?vid=c2dd4bd6-ad62-4f90-af27-61e9344d9f3c"},"vehicle_type_id":"4","last_reported":1692205552,"current_range_meters":28000,"station_id":"ce4bhqp2rcd13ifvqhng","pricing_plan_id":"free"},{"bike_id":"dfe5956b-99da-461e-9ebb-3a92f42564f1","system_id":"levelo_inurba_marseille","lat":43.31754,"lon":5.39017,"is_reserved":false,"is_disabled":false,"rental_uris":{"android":"levelo://app?vid=dfe5956b-99da-461e-9ebb-3a92f42564f1","ios":"levelo://app?vid=dfe5956b-99da-461e-9ebb-3a92f42564f1"},"vehicle_type_id":"4","last_reported":1692205552,"current_range_meters":400,"station_id":"ce4bhqp2rcd13ifvqhng","pricing_plan_id":"free"},{"bike_id":"70e8fcba-4d06-491c-9de9-a14128c42746","system_id":"levelo_inurba_marseille","lat":43.317557,"lon":5.390173,"is_reserved":false,"is_disabled":false,"rental_uris":{"android":"levelo://app?vid=70e8fcba-4d06-491c-9de9-a14128c42746","ios":"levelo://app?vid=70e8fcba-4d06-491c-9de9-a14128c42746"},"vehicle_type_id":"4","last_reported":1692205552,"current_range_meters":30400,"station_id":"ce4bhqp2rcd13ifvqhng","pricing_plan_id":"free"},{"bike_id":"93de5219-47ff-4b18-a7bf-e79f70dc0971","system_id":"levelo_inurba_marseille","lat":43.317557,"lon":5.390173,"is_reserved":false,"is_disabled":false,"rental_uris":{"android":"levelo://app?vid=93de5219-47ff-4b18-a7bf-e79f70dc0971","ios":"levelo://app?vid=93de5219-47ff-4b18-a7bf-e79f70dc0971"},"vehicle_type_id":"4","last_reported":1692205552,"current_range_meters":28000,"station_id":"ce4bhqp2rcd13ifvqhng","pricing_plan_id":"free"},{"bike_id":"be472a66-12d7-4b1c-a801-1b9205d156df","system_id":"levelo_inurba_marseille","lat":43.31758,"lon":5.39018,"is_reserved":false,"is_disabled":false,"rental_uris":{"android":"levelo://app?vid=be472a66-12d7-4b1c-a801-1b9205d156df","ios":"levelo://app?vid=be472a66-12d7-4b1c-a801-1b9205d156df"},"vehicle_type_id":"4","last_reported":1692205552,"current_range_meters":31200,"station_id":"ce4bhqp2rcd13ifvqhng","pricing_plan_id":"free"},{"bike_id":"1393f6ba-aff6-4f9b-b86a-f52a0fdc7f82","system_id":"levelo_inurba_marseille","lat":43.2979,"lon":5.38108,"is_reserved":false,"is_disabled":false,"rental_uris":{"android":"levelo://app?vid=1393f6ba-aff6-4f9b-b86a-f52a0fdc7f82","ios":"levelo://app?vid=1393f6ba-aff6-4f9b-b86a-f52a0fdc7f82"},"vehicle_type_id":"4","last_reported":1692205552,"current_range_meters":16000,"station_id":"","pricing_plan_id":"free"},{"bike_id":"a4df99ce-0488-49dd-a888-94686f562e88","system_id":"levelo_inurba_marseille","lat":43.295748,"lon":5.37522,"is_reserved":false,"is_disabled":false,"rental_uris":{"android":"levelo://app?vid=a4df99ce-0488-49dd-a888-94686f562e88","ios":"levelo://app?vid=a4df99ce-0488-49dd-a888-94686f562e88"},"vehicle_type_id":"4","last_reported":1692205552,"current_range_meters":28800,"station_id":"ce4bgh92rcd13ifvqb50","pricing_plan_id":"free"},{"bike_id":"fd13420a-fb68-4ed5-9134-e99f3ddc8161","system_id":"levelo_inurba_marseille","lat":43.296263,"lon":5.377094,"is_reserved":false,"is_disabled":false,"rental_uris":{"android":"levelo://app?vid=fd13420a-fb68-4ed5-9134-e99f3ddc8161","ios":"levelo://app?vid=fd13420a-fb68-4ed5-9134-e99f3ddc8161"},"vehicle_type_id":"4","last_reported":1692205552,"current_range_meters":18000,"station_id":"ce4bgi92rcd13ifvqb90","pricing_plan_id":"free"},{"bike_id":"c1f2115e-bdf6-4868-bfe2-eb7b0bf5984d","system_id":"levelo_inurba_marseille","lat":43.295279,"lon":5.375048,"is_reserved":false,"is_disabled":false,"rental_uris":{"android":"levelo://app?vid=c1f2115e-bdf6-4868-bfe2-eb7b0bf5984d","ios":"levelo://app?vid=c1f2115e-bdf6-4868-bfe2-eb7b0bf5984d"},"vehicle_type_id":"4","last_reported":1692205552,"current_range_meters":7600,"station_id":"ce4bgkp2rcd13ifvqbmg","pricing_plan_id":"free"},{"bike_id":"3c91f9e3-61aa-4233-873c-5a760b38f644","system_id":"levelo_inurba_marseille","lat":43.299707,"lon":5.384859,"is_reserved":false,"is_disabled":false,"rental_uris":{"android":"levelo://app?vid=3c91f9e3-61aa-4233-873c-5a760b38f644","ios":"levelo://app?vid=3c91f9e3-61aa-4233-873c-5a760b38f644"},"vehicle_type_id":"4","last_reported":1692205552,"current_range_meters":0,"station_id":"ce4bgj92rcd13ifvqbd0","pricing_plan_id":"free"},{"bike_id":"cec639ea-b78f-4464-8f01-080af431fbb6","system_id":"levelo_inurba_marseille","lat":43.299717,"lon":5.384845,"is_reserved":false,"is_disabled":false,"rental_uris":{"android":"levelo://app?vid=cec639ea-b78f-4464-8f01-080af431fbb6","ios":"levelo://app?vid=cec639ea-b78f-4464-8f01-080af431fbb6"},"vehicle_type_id":"4","last_reported":1692205552,"current_range_meters":26000,"station_id":"ce4bgj92rcd13ifvqbd0","pricing_plan_id":"free"},{"bike_id":"ce2df26e-3e3f-4444-be90-66657f18afe5","system_id":"levelo_inurba_marseille","lat":43.299717,"lon":5.384845,"is_reserved":false,"is_disabled":false,"rental_uris":{"android":"levelo://app?vid=ce2df26e-3e3f-4444-be90-66657f18afe5","ios":"levelo://app?vid=ce2df26e-3e3f-4444-be90-66657f18afe5"},"vehicle_type_id":"4","last_reported":1692205552,"current_range_meters":16400,"station_id":"ce4bgj92rcd13ifvqbd0","pricing_plan_id":"free"},{"bike_id":"116b4747-0bdc-4caa-891b-15d5b30dce9b","system_id":"levelo_inurba_marseille","lat":43.32369,"lon":5.3888,"is_reserved":false,"is_disabled":false,"rental_uris":{"android":"levelo://app?vid=116b4747-0bdc-4caa-891b-15d5b30dce9b","ios":"levelo://app?vid=116b4747-0bdc-4caa-891b-15d5b30dce9b"},"vehicle_type_id":"4","last_reported":1692205552,"current_range_meters":1200,"station_id":"ce4bhqp2rcd13ifvqhog","pricing_plan_id":"free"},{"bike_id":"6b6cba89-d2b8-44bb-8454-5df08cf65f67","system_id":"levelo_inurba_marseille","lat":43.32369,"lon":5.38882,"is_reserved":false,"is_disabled":false,"rental_uris":{"android":"levelo://app?vid=6b6cba89-d2b8-44bb-8454-5df08cf65f67","ios":"levelo://app?vid=6b6cba89-d2b8-44bb-8454-5df08cf65f67"},"vehicle_type_id":"4","last_reported":1692205552,"current_range_meters":26800,"station_id":"ce4bhqp2rcd13ifvqhog","pricing_plan_id":"free"},{"bike_id":"4f539391-4f8e-4193-ad71-e904a4dc41ac","system_id":"levelo_inurba_marseille","lat":43.23149,"lon":5.43709,"is_reserved":false,"is_disabled":false,"rental_uris":{"android":"levelo://app?vid=4f539391-4f8e-4193-ad71-e904a4dc41ac","ios":"levelo://app?vid=4f539391-4f8e-4193-ad71-e904a4dc41ac"},"vehicle_type_id":"4","last_reported":1692205552,"current_range_meters":400,"station_id":"ce4bhmp2rcd13ifvqgog","pricing_plan_id":"free"},{"bike_id":"09d26d6d-f058-4dda-9b09-52da1445a9bb","system_id":"levelo_inurba_marseille","lat":43.305994,"lon":5.393687,"is_reserved":false,"is_disabled":false,"rental_uris":{"android":"levelo://app?vid=09d26d6d-f058-4dda-9b09-52da1445a9bb","ios":"levelo://app?vid=09d26d6d-f058-4dda-9b09-52da1445a9bb"},"vehicle_type_id":"4","last_reported":1692205552,"current_range_meters":0,"station_id":"ce4bh0p2rcd13ifvqd80","pricing_plan_id":"free"},{"bike_id":"bef0af91-d145-42b7-ac48-bcc72bac01ee","system_id":"levelo_inurba_marseille","lat":43.30601,"lon":5.39347,"is_reserved":false,"is_disabled":false,"rental_uris":{"android":"levelo://app?vid=bef0af91-d145-42b7-ac48-bcc72bac01ee","ios":"levelo://app?vid=bef0af91-d145-42b7-ac48-bcc72bac01ee"},"vehicle_type_id":"4","last_reported":1692205552,"current_range_meters":9600,"station_id":"ce4bh0p2rcd13ifvqd80","pricing_plan_id":"free"},{"bike_id":"38fef587-7cc5-4800-b069-87b8f296a10a","system_id":"levelo_inurba_marseille","lat":43.293009,"lon":5.374584,"is_reserved":false,"is_disabled":false,"rental_uris":{"android":"levelo://app?vid=38fef587-7cc5-4800-b069-87b8f296a10a","ios":"levelo://app?vid=38fef587-7cc5-4800-b069-87b8f296a10a"},"vehicle_type_id":"4","last_reported":1692205552,"current_range_meters":31200,"station_id":"ce4bgi12rcd13ifvqb70","pricing_plan_id":"free"},{"bike_id":"4d7fb7f2-5be9-4914-9034-7e8a41402b27","system_id":"levelo_inurba_marseille","lat":43.304606,"lon":5.379026,"is_reserved":false,"is_disabled":false,"rental_uris":{"android":"levelo://app?vid=4d7fb7f2-5be9-4914-9034-7e8a41402b27","ios":"levelo://app?vid=4d7fb7f2-5be9-4914-9034-7e8a41402b27"},"vehicle_type_id":"4","last_reported":1692205552,"current_range_meters":3600,"station_id":"ce4bgup2rcd13ifvqcn0","pricing_plan_id":"free"},{"bike_id":"7124176a-1073-47c4-823b-34111616e540","system_id":"levelo_inurba_marseille","lat":43.231562,"lon":5.436933,"is_reserved":false,"is_disabled":false,"rental_uris":{"android":"levelo://app?vid=7124176a-1073-47c4-823b-34111616e540","ios":"levelo://app?vid=7124176a-1073-47c4-823b-34111616e540"},"vehicle_type_id":"4","last_reported":1692205552,"current_range_meters":31200,"station_id":"ce4bhmp2rcd13ifvqgog","pricing_plan_id":"free"},{"bike_id":"7bc2455d-1b2a-4267-b918-536b5022adde","system_id":"levelo_inurba_marseille","lat":43.303002,"lon":5.392142,"is_reserved":false,"is_disabled":false,"rental_uris":{"android":"levelo://app?vid=7bc2455d-1b2a-4267-b918-536b5022adde","ios":"levelo://app?vid=7bc2455d-1b2a-4267-b918-536b5022adde"},"vehicle_type_id":"4","last_reported":1692205552,"current_range_meters":18800,"station_id":"ce4bgkh2rcd13ifvqbk0","pricing_plan_id":"free"},{"bike_id":"86aa68ad-0fb0-48e9-a597-6a435d9f6b08","system_id":"levelo_inurba_marseille","lat":43.2936,"lon":5.37835,"is_reserved":false,"is_disabled":false,"rental_uris":{"android":"levelo://app?vid=86aa68ad-0fb0-48e9-a597-6a435d9f6b08","ios":"levelo://app?vid=86aa68ad-0fb0-48e9-a597-6a435d9f6b08"},"vehicle_type_id":"4","last_reported":1692205552,"current_range_meters":14800,"station_id":"ce4bgjh2rcd13ifvqbf0","pricing_plan_id":"free"},{"bike_id":"b7701ea0-13f7-4ce5-83ab-ca83b76fd9f7","system_id":"levelo_inurba_marseille","lat":43.2936,"lon":5.37835,"is_reserved":false,"is_disabled":false,"rental_uris":{"android":"levelo://app?vid=b7701ea0-13f7-4ce5-83ab-ca83b76fd9f7","ios":"levelo://app?vid=b7701ea0-13f7-4ce5-83ab-ca83b76fd9f7"},"vehicle_type_id":"4","last_reported":1692205552,"current_range_meters":13600,"station_id":"ce4bgjh2rcd13ifvqbf0","pricing_plan_id":"free"},{"bike_id":"e7414a67-14a7-46df-a2a2-541ea2cd0a6b","system_id":"levelo_inurba_marseille","lat":43.29356,"lon":5.37833,"is_reserved":false,"is_disabled":false,"rental_uris":{"android":"levelo://app?vid=e7414a67-14a7-46df-a2a2-541ea2cd0a6b","ios":"levelo://app?vid=e7414a67-14a7-46df-a2a2-541ea2cd0a6b"},"vehicle_type_id":"4","last_reported":1692205552,"current_range_meters":26400,"station_id":"","pricing_plan_id":"free"},{"bike_id":"d9c9ca54-f98c-4cdc-a508-156c9246d540","system_id":"levelo_inurba_marseille","lat":43.2936,"lon":5.37835,"is_reserved":false,"is_disabled":false,"rental_uris":{"android":"levelo://app?vid=d9c9ca54-f98c-4cdc-a508-156c9246d540","ios":"levelo://app?vid=d9c9ca54-f98c-4cdc-a508-156c9246d540"},"vehicle_type_id":"4","last_reported":1692205552,"current_range_meters":12400,"station_id":"ce4bgjh2rcd13ifvqbf0","pricing_plan_id":"free"},{"bike_id":"efd346f0-cb49-4aaa-b2c7-7a793169dfd0","system_id":"levelo_inurba_marseille","lat":43.292311,"lon":5.360731,"is_reserved":false,"is_disabled":false,"rental_uris":{"android":"levelo://app?vid=efd346f0-cb49-4aaa-b2c7-7a793169dfd0","ios":"levelo://app?vid=efd346f0-cb49-4aaa-b2c7-7a793169dfd0"},"vehicle_type_id":"4","last_reported":1692205552,"current_range_meters":800,"station_id":"ce4bhbh2rcd13ifvqeqg","pricing_plan_id":"free"},{"bike_id":"8c937230-df55-4818-9173-044aa370f280","system_id":"levelo_inurba_marseille","lat":43.292311,"lon":5.360731,"is_reserved":false,"is_disabled":false,"rental_uris":{"android":"levelo://app?vid=8c937230-df55-4818-9173-044aa370f280","ios":"levelo://app?vid=8c937230-df55-4818-9173-044aa370f280"},"vehicle_type_id":"4","last_reported":1692205552,"current_range_meters":24400,"station_id":"ce4bhbh2rcd13ifvqeqg","pricing_plan_id":"free"},{"bike_id":"2c3e4b05-a08a-4d65-b336-953f8b500389","system_id":"levelo_inurba_marseille","lat":43.29889,"lon":5.38893,"is_reserved":false,"is_disabled":false,"rental_uris":{"android":"levelo://app?vid=2c3e4b05-a08a-4d65-b336-953f8b500389","ios":"levelo://app?vid=2c3e4b05-a08a-4d65-b336-953f8b500389"},"vehicle_type_id":"4","last_reported":1692205552,"current_range_meters":19200,"station_id":"ce4bh392rcd13ifvqdl0","pricing_plan_id":"free"},{"bike_id":"98505d01-a799-4940-82ef-bdf25f38e707","system_id":"levelo_inurba_marseille","lat":43.292663,"lon":5.376389,"is_reserved":false,"is_disabled":false,"rental_uris":{"android":"levelo://app?vid=98505d01-a799-4940-82ef-bdf25f38e707","ios":"levelo://app?vid=98505d01-a799-4940-82ef-bdf25f38e707"},"vehicle_type_id":"4","last_reported":1692205552,"current_range_meters":19200,"station_id":"ce4bgi12rcd13ifvqb80","pricing_plan_id":"free"},{"bike_id":"a62ef1e0-970d-4278-92ba-06d5c1327648","system_id":"levelo_inurba_marseille","lat":43.29883,"lon":5.38902,"is_reserved":false,"is_disabled":false,"rental_uris":{"android":"levelo://app?vid=a62ef1e0-970d-4278-92ba-06d5c1327648","ios":"levelo://app?vid=a62ef1e0-970d-4278-92ba-06d5c1327648"},"vehicle_type_id":"4","last_reported":1692205552,"current_range_meters":31200,"station_id":"ce4bh392rcd13ifvqdl0","pricing_plan_id":"free"},{"bike_id":"85cce2ed-6265-4470-b4e9-7413fbb67254","system_id":"levelo_inurba_marseille","lat":43.29883,"lon":5.38904,"is_reserved":false,"is_disabled":false,"rental_uris":{"android":"levelo://app?vid=85cce2ed-6265-4470-b4e9-7413fbb67254","ios":"levelo://app?vid=85cce2ed-6265-4470-b4e9-7413fbb67254"},"vehicle_type_id":"4","last_reported":1692205552,"current_range_meters":14400,"station_id":"ce4bh392rcd13ifvqdl0","pricing_plan_id":"free"},{"bike_id":"7cf68528-4fba-4827-aa41-bb7fd4007837","system_id":"levelo_inurba_marseille","lat":43.29881,"lon":5.38911,"is_reserved":false,"is_disabled":false,"rental_uris":{"android":"levelo://app?vid=7cf68528-4fba-4827-aa41-bb7fd4007837","ios":"levelo://app?vid=7cf68528-4fba-4827-aa41-bb7fd4007837"},"vehicle_type_id":"4","last_reported":1692205552,"current_range_meters":24400,"station_id":"ce4bh392rcd13ifvqdl0","pricing_plan_id":"free"},{"bike_id":"e4547cf9-835a-4a91-a340-1a75366ab656","system_id":"levelo_inurba_marseille","lat":43.29878,"lon":5.38911,"is_reserved":false,"is_disabled":false,"rental_uris":{"android":"levelo://app?vid=e4547cf9-835a-4a91-a340-1a75366ab656","ios":"levelo://app?vid=e4547cf9-835a-4a91-a340-1a75366ab656"},"vehicle_type_id":"4","last_reported":1692205552,"current_range_meters":31200,"station_id":"ce4bh392rcd13ifvqdl0","pricing_plan_id":"free"},{"bike_id":"8d58ecec-a9c9-4557-8a32-9309f89288b7","system_id":"levelo_inurba_marseille","lat":43.291994,"lon":5.357886,"is_reserved":false,"is_disabled":false,"rental_uris":{"android":"levelo://app?vid=8d58ecec-a9c9-4557-8a32-9309f89288b7","ios":"levelo://app?vid=8d58ecec-a9c9-4557-8a32-9309f89288b7"},"vehicle_type_id":"4","last_reported":1692205552,"current_range_meters":15200,"station_id":"ce4bhb12rcd13ifvqel0","pricing_plan_id":"free"},{"bike_id":"a5f9408a-4a0f-40fd-b146-a3776fa8dd0a","system_id":"levelo_inurba_marseille","lat":43.29197,"lon":5.35795,"is_reserved":false,"is_disabled":false,"rental_uris":{"android":"levelo://app?vid=a5f9408a-4a0f-40fd-b146-a3776fa8dd0a","ios":"levelo://app?vid=a5f9408a-4a0f-40fd-b146-a3776fa8dd0a"},"vehicle_type_id":"4","last_reported":1692205552,"current_range_meters":5600,"station_id":"ce4bhb12rcd13ifvqel0","pricing_plan_id":"free"},{"bike_id":"aad941ca-e4de-4c0f-9747-34e699c91ae2","system_id":"levelo_inurba_marseille","lat":43.313291,"lon":5.396838,"is_reserved":false,"is_disabled":false,"rental_uris":{"android":"levelo://app?vid=aad941ca-e4de-4c0f-9747-34e699c91ae2","ios":"levelo://app?vid=aad941ca-e4de-4c0f-9747-34e699c91ae2"},"vehicle_type_id":"4","last_reported":1692205552,"current_range_meters":15600,"station_id":"ce4bgvp2rcd13ifvqcu0","pricing_plan_id":"free"},{"bike_id":"9e8e8144-4461-4e43-b486-a7731c7b9821","system_id":"levelo_inurba_marseille","lat":43.291915,"lon":5.358001,"is_reserved":false,"is_disabled":false,"rental_uris":{"android":"levelo://app?vid=9e8e8144-4461-4e43-b486-a7731c7b9821","ios":"levelo://app?vid=9e8e8144-4461-4e43-b486-a7731c7b9821"},"vehicle_type_id":"4","last_reported":1692205552,"current_range_meters":14400,"station_id":"ce4bhb12rcd13ifvqel0","pricing_plan_id":"free"},{"bike_id":"81690506-3cca-4e0a-b038-16451c29b436","system_id":"levelo_inurba_marseille","lat":43.313291,"lon":5.396838,"is_reserved":false,"is_disabled":false,"rental_uris":{"android":"levelo://app?vid=81690506-3cca-4e0a-b038-16451c29b436","ios":"levelo://app?vid=81690506-3cca-4e0a-b038-16451c29b436"},"vehicle_type_id":"4","last_reported":1692205552,"current_range_meters":18000,"station_id":"ce4bgvp2rcd13ifvqcu0","pricing_plan_id":"free"},{"bike_id":"a7c70679-bf0c-4e31-9761-3578060197cf","system_id":"levelo_inurba_marseille","lat":43.291901,"lon":5.35802,"is_reserved":false,"is_disabled":false,"rental_uris":{"android":"levelo://app?vid=a7c70679-bf0c-4e31-9761-3578060197cf","ios":"levelo://app?vid=a7c70679-bf0c-4e31-9761-3578060197cf"},"vehicle_type_id":"4","last_reported":1692205552,"current_range_meters":3200,"station_id":"ce4bhb12rcd13ifvqel0","pricing_plan_id":"free"},{"bike_id":"56f4c0e9-fc60-4f46-bfa9-1896caec5ed9","system_id":"levelo_inurba_marseille","lat":43.313291,"lon":5.396838,"is_reserved":false,"is_disabled":false,"rental_uris":{"android":"levelo://app?vid=56f4c0e9-fc60-4f46-bfa9-1896caec5ed9","ios":"levelo://app?vid=56f4c0e9-fc60-4f46-bfa9-1896caec5ed9"},"vehicle_type_id":"4","last_reported":1692205552,"current_range_meters":22000,"station_id":"ce4bgvp2rcd13ifvqcu0","pricing_plan_id":"free"},{"bike_id":"241bf008-cdd7-4afb-aeaf-b938501ca137","system_id":"levelo_inurba_marseille","lat":43.29529,"lon":5.385581,"is_reserved":false,"is_disabled":false,"rental_uris":{"android":"levelo://app?vid=241bf008-cdd7-4afb-aeaf-b938501ca137","ios":"levelo://app?vid=241bf008-cdd7-4afb-aeaf-b938501ca137"},"vehicle_type_id":"4","last_reported":1692205552,"current_range_meters":6400,"station_id":"ce4bgih2rcd13ifvqba0","pricing_plan_id":"free"},{"bike_id":"4a2de240-5f56-4566-b1b0-93b371e40cbb","system_id":"levelo_inurba_marseille","lat":43.29529,"lon":5.385581,"is_reserved":false,"is_disabled":false,"rental_uris":{"android":"levelo://app?vid=4a2de240-5f56-4566-b1b0-93b371e40cbb","ios":"levelo://app?vid=4a2de240-5f56-4566-b1b0-93b371e40cbb"},"vehicle_type_id":"4","last_reported":1692205552,"current_range_meters":2800,"station_id":"ce4bgih2rcd13ifvqba0","pricing_plan_id":"free"},{"bike_id":"8a0b19c4-bd8f-4e1a-84a6-0e66a2788be3","system_id":"levelo_inurba_marseille","lat":43.290779,"lon":5.371482,"is_reserved":false,"is_disabled":false,"rental_uris":{"android":"levelo://app?vid=8a0b19c4-bd8f-4e1a-84a6-0e66a2788be3","ios":"levelo://app?vid=8a0b19c4-bd8f-4e1a-84a6-0e66a2788be3"},"vehicle_type_id":"4","last_reported":1692205552,"current_range_meters":14000,"station_id":"ce4bh5p2rcd13ifvqe4g","pricing_plan_id":"free"},{"bike_id":"9657b2cb-e3ce-4f9a-9432-7a5ecedd1b64","system_id":"levelo_inurba_marseille","lat":43.290631,"lon":5.359244,"is_reserved":false,"is_disabled":false,"rental_uris":{"android":"levelo://app?vid=9657b2cb-e3ce-4f9a-9432-7a5ecedd1b64","ios":"levelo://app?vid=9657b2cb-e3ce-4f9a-9432-7a5ecedd1b64"},"vehicle_type_id":"4","last_reported":1692205552,"current_range_meters":20800,"station_id":"ce4bha92rcd13ifvqeg0","pricing_plan_id":"free"},{"bike_id":"f1712d15-4139-4f80-828d-f8381676a948","system_id":"levelo_inurba_marseille","lat":43.29432,"lon":5.38615,"is_reserved":false,"is_disabled":false,"rental_uris":{"android":"levelo://app?vid=f1712d15-4139-4f80-828d-f8381676a948","ios":"levelo://app?vid=f1712d15-4139-4f80-828d-f8381676a948"},"vehicle_type_id":"4","last_reported":1692205552,"current_range_meters":22000,"station_id":"ce4bh2h2rcd13ifvqdh0","pricing_plan_id":"free"},{"bike_id":"d8e93ee8-ca34-49ce-813d-9662155de1de","system_id":"levelo_inurba_marseille","lat":43.29419,"lon":5.38624,"is_reserved":false,"is_disabled":false,"rental_uris":{"android":"levelo://app?vid=d8e93ee8-ca34-49ce-813d-9662155de1de","ios":"levelo://app?vid=d8e93ee8-ca34-49ce-813d-9662155de1de"},"vehicle_type_id":"4","last_reported":1692205552,"current_range_meters":22400,"station_id":"ce4bh2h2rcd13ifvqdh0","pricing_plan_id":"free"},{"bike_id":"2dffbaf4-c8bb-49c3-b6fb-39f24d538bd3","system_id":"levelo_inurba_marseille","lat":43.294175,"lon":5.386224,"is_reserved":false,"is_disabled":false,"rental_uris":{"android":"levelo://app?vid=2dffbaf4-c8bb-49c3-b6fb-39f24d538bd3","ios":"levelo://app?vid=2dffbaf4-c8bb-49c3-b6fb-39f24d538bd3"},"vehicle_type_id":"4","last_reported":1692205552,"current_range_meters":21200,"station_id":"ce4bh2h2rcd13ifvqdh0","pricing_plan_id":"free"},{"bike_id":"6c9361a0-aeff-4034-983d-923255e3d7e3","system_id":"levelo_inurba_marseille","lat":43.29418,"lon":5.38625,"is_reserved":false,"is_disabled":false,"rental_uris":{"android":"levelo://app?vid=6c9361a0-aeff-4034-983d-923255e3d7e3","ios":"levelo://app?vid=6c9361a0-aeff-4034-983d-923255e3d7e3"},"vehicle_type_id":"4","last_reported":1692205552,"current_range_meters":17200,"station_id":"ce4bh2h2rcd13ifvqdh0","pricing_plan_id":"free"},{"bike_id":"49349657-9407-4d51-88bf-83e1fe8b5a19","system_id":"levelo_inurba_marseille","lat":43.294151,"lon":5.386216,"is_reserved":false,"is_disabled":false,"rental_uris":{"android":"levelo://app?vid=49349657-9407-4d51-88bf-83e1fe8b5a19","ios":"levelo://app?vid=49349657-9407-4d51-88bf-83e1fe8b5a19"},"vehicle_type_id":"4","last_reported":1692205552,"current_range_meters":13600,"station_id":"ce4bh2h2rcd13ifvqdh0","pricing_plan_id":"free"},{"bike_id":"46df3e50-466a-491b-a76f-c85869697209","system_id":"levelo_inurba_marseille","lat":43.29417,"lon":5.38629,"is_reserved":false,"is_disabled":false,"rental_uris":{"android":"levelo://app?vid=46df3e50-466a-491b-a76f-c85869697209","ios":"levelo://app?vid=46df3e50-466a-491b-a76f-c85869697209"},"vehicle_type_id":"4","last_reported":1692205552,"current_range_meters":3200,"station_id":"ce4bh2h2rcd13ifvqdh0","pricing_plan_id":"free"},{"bike_id":"590c956e-e5a4-4f96-b290-ecf628df82fb","system_id":"levelo_inurba_marseille","lat":43.289468,"lon":5.363719,"is_reserved":false,"is_disabled":false,"rental_uris":{"android":"levelo://app?vid=590c956e-e5a4-4f96-b290-ecf628df82fb","ios":"levelo://app?vid=590c956e-e5a4-4f96-b290-ecf628df82fb"},"vehicle_type_id":"4","last_reported":1692205552,"current_range_meters":0,"station_id":"ce4bhc92rcd13ifvqetg","pricing_plan_id":"free"},{"bike_id":"a98a8ca5-f854-4ad6-8b8d-13591ec50a6a","system_id":"levelo_inurba_marseille","lat":43.29266,"lon":5.38436,"is_reserved":false,"is_disabled":false,"rental_uris":{"android":"levelo://app?vid=a98a8ca5-f854-4ad6-8b8d-13591ec50a6a","ios":"levelo://app?vid=a98a8ca5-f854-4ad6-8b8d-13591ec50a6a"},"vehicle_type_id":"4","last_reported":1692205552,"current_range_meters":25200,"station_id":"ce4bh692rcd13ifvqea0","pricing_plan_id":"free"},{"bike_id":"11ed68bc-5d79-4a17-925a-667e64fccf57","system_id":"levelo_inurba_marseille","lat":43.304296,"lon":5.397513,"is_reserved":false,"is_disabled":false,"rental_uris":{"android":"levelo://app?vid=11ed68bc-5d79-4a17-925a-667e64fccf57","ios":"levelo://app?vid=11ed68bc-5d79-4a17-925a-667e64fccf57"},"vehicle_type_id":"4","last_reported":1692205552,"current_range_meters":20400,"station_id":"ce4bh092rcd13ifvqd20","pricing_plan_id":"free"},{"bike_id":"61daea60-ad47-40db-835e-64384f99805f","system_id":"levelo_inurba_marseille","lat":43.292642,"lon":5.384254,"is_reserved":false,"is_disabled":false,"rental_uris":{"android":"levelo://app?vid=61daea60-ad47-40db-835e-64384f99805f","ios":"levelo://app?vid=61daea60-ad47-40db-835e-64384f99805f"},"vehicle_type_id":"4","last_reported":1692205552,"current_range_meters":30000,"station_id":"ce4bh692rcd13ifvqea0","pricing_plan_id":"free"},{"bike_id":"d5578a77-3302-4d8a-ae9c-7edceb0f071e","system_id":"levelo_inurba_marseille","lat":43.3304,"lon":5.38916,"is_reserved":false,"is_disabled":false,"rental_uris":{"android":"levelo://app?vid=d5578a77-3302-4d8a-ae9c-7edceb0f071e","ios":"levelo://app?vid=d5578a77-3302-4d8a-ae9c-7edceb0f071e"},"vehicle_type_id":"4","last_reported":1692205552,"current_range_meters":25200,"station_id":"ce4bhr92rcd13ifvqhrg","pricing_plan_id":"free"},{"bike_id":"be005e4f-d207-40fd-bd99-241d744b2797","system_id":"levelo_inurba_marseille","lat":43.33044,"lon":5.3891,"is_reserved":false,"is_disabled":false,"rental_uris":{"android":"levelo://app?vid=be005e4f-d207-40fd-bd99-241d744b2797","ios":"levelo://app?vid=be005e4f-d207-40fd-bd99-241d744b2797"},"vehicle_type_id":"4","last_reported":1692205552,"current_range_meters":16000,"station_id":"ce4bhr92rcd13ifvqhrg","pricing_plan_id":"free"},{"bike_id":"96ead541-9c33-4112-927f-93c74ea92183","system_id":"levelo_inurba_marseille","lat":43.33041,"lon":5.38918,"is_reserved":false,"is_disabled":false,"rental_uris":{"android":"levelo://app?vid=96ead541-9c33-4112-927f-93c74ea92183","ios":"levelo://app?vid=96ead541-9c33-4112-927f-93c74ea92183"},"vehicle_type_id":"4","last_reported":1692205552,"current_range_meters":29200,"station_id":"ce4bhr92rcd13ifvqhrg","pricing_plan_id":"free"},{"bike_id":"859ece1b-eaf2-4429-915d-1d151e169e7f","system_id":"levelo_inurba_marseille","lat":43.33039,"lon":5.38922,"is_reserved":false,"is_disabled":false,"rental_uris":{"android":"levelo://app?vid=859ece1b-eaf2-4429-915d-1d151e169e7f","ios":"levelo://app?vid=859ece1b-eaf2-4429-915d-1d151e169e7f"},"vehicle_type_id":"4","last_reported":1692205552,"current_range_meters":18400,"station_id":"ce4bhr92rcd13ifvqhrg","pricing_plan_id":"free"},{"bike_id":"fa076e56-c4e4-481e-9547-eae6acb509a4","system_id":"levelo_inurba_marseille","lat":43.33043,"lon":5.38917,"is_reserved":false,"is_disabled":false,"rental_uris":{"android":"levelo://app?vid=fa076e56-c4e4-481e-9547-eae6acb509a4","ios":"levelo://app?vid=fa076e56-c4e4-481e-9547-eae6acb509a4"},"vehicle_type_id":"4","last_reported":1692205552,"current_range_meters":4800,"station_id":"ce4bhr92rcd13ifvqhrg","pricing_plan_id":"free"},{"bike_id":"2f0a0ac7-6e1a-4328-a504-4e02f95ee392","system_id":"levelo_inurba_marseille","lat":43.33042,"lon":5.38919,"is_reserved":false,"is_disabled":false,"rental_uris":{"android":"levelo://app?vid=2f0a0ac7-6e1a-4328-a504-4e02f95ee392","ios":"levelo://app?vid=2f0a0ac7-6e1a-4328-a504-4e02f95ee392"},"vehicle_type_id":"4","last_reported":1692205552,"current_range_meters":21600,"station_id":"ce4bhr92rcd13ifvqhrg","pricing_plan_id":"free"},{"bike_id":"dd63075f-b9f7-4560-b11b-2a0a23c150b7","system_id":"levelo_inurba_marseille","lat":43.29009,"lon":5.35611,"is_reserved":false,"is_disabled":false,"rental_uris":{"android":"levelo://app?vid=dd63075f-b9f7-4560-b11b-2a0a23c150b7","ios":"levelo://app?vid=dd63075f-b9f7-4560-b11b-2a0a23c150b7"},"vehicle_type_id":"4","last_reported":1692205552,"current_range_meters":30800,"station_id":"ce4bhb92rcd13ifvqen0","pricing_plan_id":"free"},{"bike_id":"454b0b4f-dc87-4e03-ac2a-cf0617f16bff","system_id":"levelo_inurba_marseille","lat":43.33042,"lon":5.3892,"is_reserved":false,"is_disabled":false,"rental_uris":{"android":"levelo://app?vid=454b0b4f-dc87-4e03-ac2a-cf0617f16bff","ios":"levelo://app?vid=454b0b4f-dc87-4e03-ac2a-cf0617f16bff"},"vehicle_type_id":"4","last_reported":1692205552,"current_range_meters":13200,"station_id":"ce4bhr92rcd13ifvqhrg","pricing_plan_id":"free"},{"bike_id":"e184d9f0-8163-4a17-b3ea-e9518599abc7","system_id":"levelo_inurba_marseille","lat":43.33044,"lon":5.38917,"is_reserved":false,"is_disabled":false,"rental_uris":{"android":"levelo://app?vid=e184d9f0-8163-4a17-b3ea-e9518599abc7","ios":"levelo://app?vid=e184d9f0-8163-4a17-b3ea-e9518599abc7"},"vehicle_type_id":"4","last_reported":1692205552,"current_range_meters":25200,"station_id":"ce4bhr92rcd13ifvqhrg","pricing_plan_id":"free"},{"bike_id":"01bb66e8-6fc1-4982-b9b2-af4dae23e37f","system_id":"levelo_inurba_marseille","lat":43.33041,"lon":5.38922,"is_reserved":false,"is_disabled":false,"rental_uris":{"android":"levelo://app?vid=01bb66e8-6fc1-4982-b9b2-af4dae23e37f","ios":"levelo://app?vid=01bb66e8-6fc1-4982-b9b2-af4dae23e37f"},"vehicle_type_id":"4","last_reported":1692205552,"current_range_meters":23600,"station_id":"ce4bhr92rcd13ifvqhrg","pricing_plan_id":"free"},{"bike_id":"fb75b0dc-b7ef-4c5d-9fff-ba63e9728994","system_id":"levelo_inurba_marseille","lat":43.33044,"lon":5.38918,"is_reserved":false,"is_disabled":false,"rental_uris":{"android":"levelo://app?vid=fb75b0dc-b7ef-4c5d-9fff-ba63e9728994","ios":"levelo://app?vid=fb75b0dc-b7ef-4c5d-9fff-ba63e9728994"},"vehicle_type_id":"4","last_reported":1692205552,"current_range_meters":16800,"station_id":"ce4bhr92rcd13ifvqhrg","pricing_plan_id":"free"},{"bike_id":"78f1a325-e5b4-4a72-bb0e-b29d3285ba24","system_id":"levelo_inurba_marseille","lat":43.29008,"lon":5.35609,"is_reserved":false,"is_disabled":false,"rental_uris":{"android":"levelo://app?vid=78f1a325-e5b4-4a72-bb0e-b29d3285ba24","ios":"levelo://app?vid=78f1a325-e5b4-4a72-bb0e-b29d3285ba24"},"vehicle_type_id":"4","last_reported":1692205552,"current_range_meters":31200,"station_id":"ce4bhb92rcd13ifvqen0","pricing_plan_id":"free"},{"bike_id":"75001701-ed95-4c4f-ae0f-256296c20192","system_id":"levelo_inurba_marseille","lat":43.33045,"lon":5.38918,"is_reserved":false,"is_disabled":false,"rental_uris":{"android":"levelo://app?vid=75001701-ed95-4c4f-ae0f-256296c20192","ios":"levelo://app?vid=75001701-ed95-4c4f-ae0f-256296c20192"},"vehicle_type_id":"4","last_reported":1692205552,"current_range_meters":4800,"station_id":"ce4bhr92rcd13ifvqhrg","pricing_plan_id":"free"},{"bike_id":"ca420c02-7b3c-4340-963d-964224bd400d","system_id":"levelo_inurba_marseille","lat":43.33044,"lon":5.3892,"is_reserved":false,"is_disabled":false,"rental_uris":{"android":"levelo://app?vid=ca420c02-7b3c-4340-963d-964224bd400d","ios":"levelo://app?vid=ca420c02-7b3c-4340-963d-964224bd400d"},"vehicle_type_id":"4","last_reported":1692205552,"current_range_meters":24800,"station_id":"ce4bhr92rcd13ifvqhrg","pricing_plan_id":"free"},{"bike_id":"8ae0ce58-4162-4719-947c-e47cc63be26c","system_id":"levelo_inurba_marseille","lat":43.33046,"lon":5.38917,"is_reserved":false,"is_disabled":false,"rental_uris":{"android":"levelo://app?vid=8ae0ce58-4162-4719-947c-e47cc63be26c","ios":"levelo://app?vid=8ae0ce58-4162-4719-947c-e47cc63be26c"},"vehicle_type_id":"4","last_reported":1692205552,"current_range_meters":27600,"station_id":"ce4bhr92rcd13ifvqhrg","pricing_plan_id":"free"},{"bike_id":"52172462-74db-474f-9d0a-cda42a7e3797","system_id":"levelo_inurba_marseille","lat":43.290103,"lon":5.356114,"is_reserved":false,"is_disabled":false,"rental_uris":{"android":"levelo://app?vid=52172462-74db-474f-9d0a-cda42a7e3797","ios":"levelo://app?vid=52172462-74db-474f-9d0a-cda42a7e3797"},"vehicle_type_id":"4","last_reported":1692205552,"current_range_meters":27600,"station_id":"ce4bhb92rcd13ifvqen0","pricing_plan_id":"free"},{"bike_id":"d9865dec-b645-4dfc-8995-1e42cb779175","system_id":"levelo_inurba_marseille","lat":43.290104,"lon":5.356111,"is_reserved":false,"is_disabled":false,"rental_uris":{"android":"levelo://app?vid=d9865dec-b645-4dfc-8995-1e42cb779175","ios":"levelo://app?vid=d9865dec-b645-4dfc-8995-1e42cb779175"},"vehicle_type_id":"4","last_reported":1692205552,"current_range_meters":13200,"station_id":"ce4bhb92rcd13ifvqen0","pricing_plan_id":"free"},{"bike_id":"569fb482-04ac-449f-b013-337617dfb7a0","system_id":"levelo_inurba_marseille","lat":43.33046,"lon":5.38919,"is_reserved":false,"is_disabled":false,"rental_uris":{"android":"levelo://app?vid=569fb482-04ac-449f-b013-337617dfb7a0","ios":"levelo://app?vid=569fb482-04ac-449f-b013-337617dfb7a0"},"vehicle_type_id":"4","last_reported":1692205552,"current_range_meters":21200,"station_id":"ce4bhr92rcd13ifvqhrg","pricing_plan_id":"free"},{"bike_id":"e06fa3ed-b30a-4d68-af8c-6c39e3057fbf","system_id":"levelo_inurba_marseille","lat":43.29005,"lon":5.35611,"is_reserved":false,"is_disabled":false,"rental_uris":{"android":"levelo://app?vid=e06fa3ed-b30a-4d68-af8c-6c39e3057fbf","ios":"levelo://app?vid=e06fa3ed-b30a-4d68-af8c-6c39e3057fbf"},"vehicle_type_id":"4","last_reported":1692205552,"current_range_meters":23600,"station_id":"ce4bhb92rcd13ifvqen0","pricing_plan_id":"free"},{"bike_id":"ffeb6cf7-8bc9-4d4b-b04e-e9508eac6b8c","system_id":"levelo_inurba_marseille","lat":43.28999,"lon":5.35614,"is_reserved":false,"is_disabled":false,"rental_uris":{"android":"levelo://app?vid=ffeb6cf7-8bc9-4d4b-b04e-e9508eac6b8c","ios":"levelo://app?vid=ffeb6cf7-8bc9-4d4b-b04e-e9508eac6b8c"},"vehicle_type_id":"4","last_reported":1692205552,"current_range_meters":25600,"station_id":"ce4bhb92rcd13ifvqen0","pricing_plan_id":"free"},{"bike_id":"2457e3da-ef50-4d28-b2a2-7afd5ed31f47","system_id":"levelo_inurba_marseille","lat":43.290104,"lon":5.356111,"is_reserved":false,"is_disabled":false,"rental_uris":{"android":"levelo://app?vid=2457e3da-ef50-4d28-b2a2-7afd5ed31f47","ios":"levelo://app?vid=2457e3da-ef50-4d28-b2a2-7afd5ed31f47"},"vehicle_type_id":"4","last_reported":1692205552,"current_range_meters":20000,"station_id":"ce4bhb92rcd13ifvqen0","pricing_plan_id":"free"},{"bike_id":"b1a90662-cfe3-4a0b-bfab-bc21cea83402","system_id":"levelo_inurba_marseille","lat":43.29104,"lon":5.38133,"is_reserved":false,"is_disabled":false,"rental_uris":{"android":"levelo://app?vid=b1a90662-cfe3-4a0b-bfab-bc21cea83402","ios":"levelo://app?vid=b1a90662-cfe3-4a0b-bfab-bc21cea83402"},"vehicle_type_id":"4","last_reported":1692205552,"current_range_meters":0,"station_id":"ce4bh512rcd13ifvqe2g","pricing_plan_id":"free"},{"bike_id":"8dca76e0-adc6-4185-9afb-da5b2d6eb3bd","system_id":"levelo_inurba_marseille","lat":43.290995,"lon":5.381361,"is_reserved":false,"is_disabled":false,"rental_uris":{"android":"levelo://app?vid=8dca76e0-adc6-4185-9afb-da5b2d6eb3bd","ios":"levelo://app?vid=8dca76e0-adc6-4185-9afb-da5b2d6eb3bd"},"vehicle_type_id":"4","last_reported":1692205552,"current_range_meters":17600,"station_id":"ce4bh512rcd13ifvqe2g","pricing_plan_id":"free"},{"bike_id":"2d25ea72-778c-40c6-9da4-46eed07d26e1","system_id":"levelo_inurba_marseille","lat":43.295169,"lon":5.390426,"is_reserved":false,"is_disabled":false,"rental_uris":{"android":"levelo://app?vid=2d25ea72-778c-40c6-9da4-46eed07d26e1","ios":"levelo://app?vid=2d25ea72-778c-40c6-9da4-46eed07d26e1"},"vehicle_type_id":"4","last_reported":1692205552,"current_range_meters":4400,"station_id":"ce4bh3p2rcd13ifvqdp0","pricing_plan_id":"free"},{"bike_id":"be4078fc-45fd-4a2f-bd1f-33030744b1fe","system_id":"levelo_inurba_marseille","lat":43.28866,"lon":5.3592,"is_reserved":false,"is_disabled":false,"rental_uris":{"android":"levelo://app?vid=be4078fc-45fd-4a2f-bd1f-33030744b1fe","ios":"levelo://app?vid=be4078fc-45fd-4a2f-bd1f-33030744b1fe"},"vehicle_type_id":"4","last_reported":1692205552,"current_range_meters":21200,"station_id":"","pricing_plan_id":"free"},{"bike_id":"aa8d64c8-5343-4211-a013-5f23a6bf47af","system_id":"levelo_inurba_marseille","lat":43.28856,"lon":5.358371,"is_reserved":false,"is_disabled":false,"rental_uris":{"android":"levelo://app?vid=aa8d64c8-5343-4211-a013-5f23a6bf47af","ios":"levelo://app?vid=aa8d64c8-5343-4211-a013-5f23a6bf47af"},"vehicle_type_id":"4","last_reported":1692205552,"current_range_meters":15200,"station_id":"ce4bhb12rcd13ifvqem0","pricing_plan_id":"free"},{"bike_id":"546d0b49-37c5-4339-ae21-84628adb0e0e","system_id":"levelo_inurba_marseille","lat":43.2936,"lon":5.37835,"is_reserved":false,"is_disabled":false,"rental_uris":{"android":"levelo://app?vid=546d0b49-37c5-4339-ae21-84628adb0e0e","ios":"levelo://app?vid=546d0b49-37c5-4339-ae21-84628adb0e0e"},"vehicle_type_id":"4","last_reported":1692205552,"current_range_meters":28000,"station_id":"ce4bgjh2rcd13ifvqbf0","pricing_plan_id":"free"},{"bike_id":"1435b356-1c3a-4bed-96ad-ded51c081340","system_id":"levelo_inurba_marseille","lat":43.33739,"lon":5.37463,"is_reserved":false,"is_disabled":false,"rental_uris":{"android":"levelo://app?vid=1435b356-1c3a-4bed-96ad-ded51c081340","ios":"levelo://app?vid=1435b356-1c3a-4bed-96ad-ded51c081340"},"vehicle_type_id":"4","last_reported":1692205552,"current_range_meters":31200,"station_id":"","pricing_plan_id":"free"},{"bike_id":"d44b4453-f053-4e10-988b-c0ff0090396c","system_id":"levelo_inurba_marseille","lat":43.309371,"lon":5.401449,"is_reserved":false,"is_disabled":false,"rental_uris":{"android":"levelo://app?vid=d44b4453-f053-4e10-988b-c0ff0090396c","ios":"levelo://app?vid=d44b4453-f053-4e10-988b-c0ff0090396c"},"vehicle_type_id":"4","last_reported":1692205552,"current_range_meters":26400,"station_id":"ce4bgvp2rcd13ifvqct0","pricing_plan_id":"free"},{"bike_id":"549ba156-b950-4316-8504-3ef1b449519d","system_id":"levelo_inurba_marseille","lat":43.312609,"lon":5.401662,"is_reserved":false,"is_disabled":false,"rental_uris":{"android":"levelo://app?vid=549ba156-b950-4316-8504-3ef1b449519d","ios":"levelo://app?vid=549ba156-b950-4316-8504-3ef1b449519d"},"vehicle_type_id":"4","last_reported":1692205552,"current_range_meters":1200,"station_id":"ce4bh092rcd13ifvqd30","pricing_plan_id":"free"},{"bike_id":"fdec884d-f6a7-422b-befa-0d9c3742dcf5","system_id":"levelo_inurba_marseille","lat":43.31274,"lon":5.40174,"is_reserved":false,"is_disabled":false,"rental_uris":{"android":"levelo://app?vid=fdec884d-f6a7-422b-befa-0d9c3742dcf5","ios":"levelo://app?vid=fdec884d-f6a7-422b-befa-0d9c3742dcf5"},"vehicle_type_id":"4","last_reported":1692205552,"current_range_meters":10000,"station_id":"ce4bh092rcd13ifvqd30","pricing_plan_id":"free"},{"bike_id":"9e009048-f939-4b3b-af03-e577dfdbb4d4","system_id":"levelo_inurba_marseille","lat":43.31273,"lon":5.40174,"is_reserved":false,"is_disabled":false,"rental_uris":{"android":"levelo://app?vid=9e009048-f939-4b3b-af03-e577dfdbb4d4","ios":"levelo://app?vid=9e009048-f939-4b3b-af03-e577dfdbb4d4"},"vehicle_type_id":"4","last_reported":1692205552,"current_range_meters":8800,"station_id":"ce4bh092rcd13ifvqd30","pricing_plan_id":"free"},{"bike_id":"eae7a806-9910-4f3a-9fe5-c5b36ab15be1","system_id":"levelo_inurba_marseille","lat":43.3127,"lon":5.40174,"is_reserved":false,"is_disabled":false,"rental_uris":{"android":"levelo://app?vid=eae7a806-9910-4f3a-9fe5-c5b36ab15be1","ios":"levelo://app?vid=eae7a806-9910-4f3a-9fe5-c5b36ab15be1"},"vehicle_type_id":"4","last_reported":1692205552,"current_range_meters":12000,"station_id":"ce4bh092rcd13ifvqd30","pricing_plan_id":"free"},{"bike_id":"221b9e09-26a5-47c9-9099-518134ed6409","system_id":"levelo_inurba_marseille","lat":43.30642,"lon":5.401031,"is_reserved":false,"is_disabled":false,"rental_uris":{"android":"levelo://app?vid=221b9e09-26a5-47c9-9099-518134ed6409","ios":"levelo://app?vid=221b9e09-26a5-47c9-9099-518134ed6409"},"vehicle_type_id":"4","last_reported":1692205552,"current_range_meters":19200,"station_id":"ce4bh112rcd13ifvqda0","pricing_plan_id":"free"},{"bike_id":"4c44d1ec-d094-435f-9153-2df5d89a9b1e","system_id":"levelo_inurba_marseille","lat":43.312609,"lon":5.401662,"is_reserved":false,"is_disabled":false,"rental_uris":{"android":"levelo://app?vid=4c44d1ec-d094-435f-9153-2df5d89a9b1e","ios":"levelo://app?vid=4c44d1ec-d094-435f-9153-2df5d89a9b1e"},"vehicle_type_id":"4","last_reported":1692205552,"current_range_meters":12000,"station_id":"ce4bh092rcd13ifvqd30","pricing_plan_id":"free"},{"bike_id":"0b010830-a563-4c8f-8f67-14503238d52e","system_id":"levelo_inurba_marseille","lat":43.3064,"lon":5.40072,"is_reserved":false,"is_disabled":false,"rental_uris":{"android":"levelo://app?vid=0b010830-a563-4c8f-8f67-14503238d52e","ios":"levelo://app?vid=0b010830-a563-4c8f-8f67-14503238d52e"},"vehicle_type_id":"4","last_reported":1692205552,"current_range_meters":22000,"station_id":"","pricing_plan_id":"free"},{"bike_id":"bbd089f1-75c4-496b-b722-fbe1640a7cb7","system_id":"levelo_inurba_marseille","lat":43.33762,"lon":5.37432,"is_reserved":false,"is_disabled":false,"rental_uris":{"android":"levelo://app?vid=bbd089f1-75c4-496b-b722-fbe1640a7cb7","ios":"levelo://app?vid=bbd089f1-75c4-496b-b722-fbe1640a7cb7"},"vehicle_type_id":"4","last_reported":1692205552,"current_range_meters":9600,"station_id":"","pricing_plan_id":"free"},{"bike_id":"45855abc-7e17-4b52-82de-e1f25f0a6a64","system_id":"levelo_inurba_marseille","lat":43.33776,"lon":5.37434,"is_reserved":false,"is_disabled":false,"rental_uris":{"android":"levelo://app?vid=45855abc-7e17-4b52-82de-e1f25f0a6a64","ios":"levelo://app?vid=45855abc-7e17-4b52-82de-e1f25f0a6a64"},"vehicle_type_id":"4","last_reported":1692205552,"current_range_meters":8800,"station_id":"","pricing_plan_id":"free"},{"bike_id":"978fb1fc-fb6e-42fe-b83e-78c6c2d42e6b","system_id":"levelo_inurba_marseille","lat":43.301117,"lon":5.398795,"is_reserved":false,"is_disabled":false,"rental_uris":{"android":"levelo://app?vid=978fb1fc-fb6e-42fe-b83e-78c6c2d42e6b","ios":"levelo://app?vid=978fb1fc-fb6e-42fe-b83e-78c6c2d42e6b"},"vehicle_type_id":"4","last_reported":1692205552,"current_range_meters":8800,"station_id":"ce4bh0h2rcd13ifvqd40","pricing_plan_id":"free"},{"bike_id":"d99f7073-3807-4f2d-b65c-9182fe984697","system_id":"levelo_inurba_marseille","lat":43.301117,"lon":5.398795,"is_reserved":false,"is_disabled":false,"rental_uris":{"android":"levelo://app?vid=d99f7073-3807-4f2d-b65c-9182fe984697","ios":"levelo://app?vid=d99f7073-3807-4f2d-b65c-9182fe984697"},"vehicle_type_id":"4","last_reported":1692205552,"current_range_meters":3200,"station_id":"ce4bh0h2rcd13ifvqd40","pricing_plan_id":"free"},{"bike_id":"0e2fc72c-0e24-4de1-bfd5-fe447952c45e","system_id":"levelo_inurba_marseille","lat":43.2987,"lon":5.39726,"is_reserved":false,"is_disabled":false,"rental_uris":{"android":"levelo://app?vid=0e2fc72c-0e24-4de1-bfd5-fe447952c45e","ios":"levelo://app?vid=0e2fc72c-0e24-4de1-bfd5-fe447952c45e"},"vehicle_type_id":"4","last_reported":1692205552,"current_range_meters":0,"station_id":"ce4bh0h2rcd13ifvqd50","pricing_plan_id":"free"},{"bike_id":"29940790-c939-42f0-9223-44140410ecd1","system_id":"levelo_inurba_marseille","lat":43.295196,"lon":5.39397,"is_reserved":false,"is_disabled":false,"rental_uris":{"android":"levelo://app?vid=29940790-c939-42f0-9223-44140410ecd1","ios":"levelo://app?vid=29940790-c939-42f0-9223-44140410ecd1"},"vehicle_type_id":"4","last_reported":1692205552,"current_range_meters":9200,"station_id":"ce4bh292rcd13ifvqdf0","pricing_plan_id":"free"},{"bike_id":"75199276-b705-4ad7-b6a9-49aeaa84628a","system_id":"levelo_inurba_marseille","lat":43.286591,"lon":5.363346,"is_reserved":false,"is_disabled":false,"rental_uris":{"android":"levelo://app?vid=75199276-b705-4ad7-b6a9-49aeaa84628a","ios":"levelo://app?vid=75199276-b705-4ad7-b6a9-49aeaa84628a"},"vehicle_type_id":"4","last_reported":1692205552,"current_range_meters":31600,"station_id":"ce4bhah2rcd13ifvqej0","pricing_plan_id":"free"},{"bike_id":"0f046e8b-541f-4d1b-ba5b-75e6ce8d7f5a","system_id":"levelo_inurba_marseille","lat":43.286961,"lon":5.373785,"is_reserved":false,"is_disabled":false,"rental_uris":{"android":"levelo://app?vid=0f046e8b-541f-4d1b-ba5b-75e6ce8d7f5a","ios":"levelo://app?vid=0f046e8b-541f-4d1b-ba5b-75e6ce8d7f5a"},"vehicle_type_id":"4","last_reported":1692205552,"current_range_meters":4800,"station_id":"ce4bh3p2rcd13ifvqdq0","pricing_plan_id":"free"},{"bike_id":"eb79c7bd-5b57-4c85-a687-7227a9cf0f4e","system_id":"levelo_inurba_marseille","lat":43.286591,"lon":5.363346,"is_reserved":false,"is_disabled":false,"rental_uris":{"android":"levelo://app?vid=eb79c7bd-5b57-4c85-a687-7227a9cf0f4e","ios":"levelo://app?vid=eb79c7bd-5b57-4c85-a687-7227a9cf0f4e"},"vehicle_type_id":"4","last_reported":1692205552,"current_range_meters":17600,"station_id":"ce4bhah2rcd13ifvqej0","pricing_plan_id":"free"},{"bike_id":"5408ff9c-98b0-40b5-a75b-2441f8a186be","system_id":"levelo_inurba_marseille","lat":43.295194,"lon":5.39397,"is_reserved":false,"is_disabled":false,"rental_uris":{"android":"levelo://app?vid=5408ff9c-98b0-40b5-a75b-2441f8a186be","ios":"levelo://app?vid=5408ff9c-98b0-40b5-a75b-2441f8a186be"},"vehicle_type_id":"4","last_reported":1692205552,"current_range_meters":12800,"station_id":"ce4bh292rcd13ifvqdf0","pricing_plan_id":"free"},{"bike_id":"2d201288-e7d0-4919-ad23-0130b7f72749","system_id":"levelo_inurba_marseille","lat":43.295194,"lon":5.39397,"is_reserved":false,"is_disabled":false,"rental_uris":{"android":"levelo://app?vid=2d201288-e7d0-4919-ad23-0130b7f72749","ios":"levelo://app?vid=2d201288-e7d0-4919-ad23-0130b7f72749"},"vehicle_type_id":"4","last_reported":1692205552,"current_range_meters":24400,"station_id":"ce4bh292rcd13ifvqdf0","pricing_plan_id":"free"},{"bike_id":"a74db166-4d83-493f-b5ca-fa19c1aee7cf","system_id":"levelo_inurba_marseille","lat":43.286039,"lon":5.370679,"is_reserved":false,"is_disabled":false,"rental_uris":{"android":"levelo://app?vid=a74db166-4d83-493f-b5ca-fa19c1aee7cf","ios":"levelo://app?vid=a74db166-4d83-493f-b5ca-fa19c1aee7cf"},"vehicle_type_id":"4","last_reported":1692205552,"current_range_meters":0,"station_id":"ce4bht12rcd13ifvqi60","pricing_plan_id":"free"},{"bike_id":"bae93c90-15b1-47ed-ade5-3919b9283dab","system_id":"levelo_inurba_marseille","lat":43.286039,"lon":5.370681,"is_reserved":false,"is_disabled":false,"rental_uris":{"android":"levelo://app?vid=bae93c90-15b1-47ed-ade5-3919b9283dab","ios":"levelo://app?vid=bae93c90-15b1-47ed-ade5-3919b9283dab"},"vehicle_type_id":"4","last_reported":1692205552,"current_range_meters":27600,"station_id":"ce4bht12rcd13ifvqi60","pricing_plan_id":"free"},{"bike_id":"42ad9ee0-0db3-4b51-9b29-0fa104373239","system_id":"levelo_inurba_marseille","lat":43.286039,"lon":5.370681,"is_reserved":false,"is_disabled":false,"rental_uris":{"android":"levelo://app?vid=42ad9ee0-0db3-4b51-9b29-0fa104373239","ios":"levelo://app?vid=42ad9ee0-0db3-4b51-9b29-0fa104373239"},"vehicle_type_id":"4","last_reported":1692205552,"current_range_meters":18800,"station_id":"ce4bht12rcd13ifvqi60","pricing_plan_id":"free"},{"bike_id":"7c0080fb-b384-401e-aadd-4293cab6bb73","system_id":"levelo_inurba_marseille","lat":43.286039,"lon":5.370679,"is_reserved":false,"is_disabled":false,"rental_uris":{"android":"levelo://app?vid=7c0080fb-b384-401e-aadd-4293cab6bb73","ios":"levelo://app?vid=7c0080fb-b384-401e-aadd-4293cab6bb73"},"vehicle_type_id":"4","last_reported":1692205552,"current_range_meters":18800,"station_id":"ce4bht12rcd13ifvqi60","pricing_plan_id":"free"},{"bike_id":"4aebdf6a-5176-46ca-9ddf-24582a418c25","system_id":"levelo_inurba_marseille","lat":43.30247,"lon":5.40126,"is_reserved":false,"is_disabled":false,"rental_uris":{"android":"levelo://app?vid=4aebdf6a-5176-46ca-9ddf-24582a418c25","ios":"levelo://app?vid=4aebdf6a-5176-46ca-9ddf-24582a418c25"},"vehicle_type_id":"4","last_reported":1692205552,"current_range_meters":0,"station_id":"ce4bgvh2rcd13ifvqcs0","pricing_plan_id":"free"},{"bike_id":"293f1794-3855-46d0-bc72-7840d3ed21d2","system_id":"levelo_inurba_marseille","lat":43.287184,"lon":5.37937,"is_reserved":false,"is_disabled":false,"rental_uris":{"android":"levelo://app?vid=293f1794-3855-46d0-bc72-7840d3ed21d2","ios":"levelo://app?vid=293f1794-3855-46d0-bc72-7840d3ed21d2"},"vehicle_type_id":"4","last_reported":1692205552,"current_range_meters":25600,"station_id":"ce4bh9p2rcd13ifvqec0","pricing_plan_id":"free"},{"bike_id":"ec8df8a6-f4e3-46eb-a634-493115ed4f45","system_id":"levelo_inurba_marseille","lat":43.287184,"lon":5.37937,"is_reserved":false,"is_disabled":false,"rental_uris":{"android":"levelo://app?vid=ec8df8a6-f4e3-46eb-a634-493115ed4f45","ios":"levelo://app?vid=ec8df8a6-f4e3-46eb-a634-493115ed4f45"},"vehicle_type_id":"4","last_reported":1692205552,"current_range_meters":2400,"station_id":"ce4bh9p2rcd13ifvqec0","pricing_plan_id":"free"},{"bike_id":"900a8d56-e0b2-4ac2-8f91-7f723a191d83","system_id":"levelo_inurba_marseille","lat":43.31644,"lon":5.40436,"is_reserved":false,"is_disabled":false,"rental_uris":{"android":"levelo://app?vid=900a8d56-e0b2-4ac2-8f91-7f723a191d83","ios":"levelo://app?vid=900a8d56-e0b2-4ac2-8f91-7f723a191d83"},"vehicle_type_id":"4","last_reported":1692205552,"current_range_meters":27200,"station_id":"","pricing_plan_id":"free"},{"bike_id":"74220d3c-4cd6-4230-be8a-c26c4d78ecbf","system_id":"levelo_inurba_marseille","lat":43.31651,"lon":5.40441,"is_reserved":false,"is_disabled":false,"rental_uris":{"android":"levelo://app?vid=74220d3c-4cd6-4230-be8a-c26c4d78ecbf","ios":"levelo://app?vid=74220d3c-4cd6-4230-be8a-c26c4d78ecbf"},"vehicle_type_id":"4","last_reported":1692205552,"current_range_meters":14400,"station_id":"ce4bh012rcd13ifvqd00","pricing_plan_id":"free"},{"bike_id":"2af6a703-941b-4a3c-b2fa-d42a395fec6a","system_id":"levelo_inurba_marseille","lat":43.28478,"lon":5.37392,"is_reserved":false,"is_disabled":false,"rental_uris":{"android":"levelo://app?vid=2af6a703-941b-4a3c-b2fa-d42a395fec6a","ios":"levelo://app?vid=2af6a703-941b-4a3c-b2fa-d42a395fec6a"},"vehicle_type_id":"4","last_reported":1692205552,"current_range_meters":9200,"station_id":"ce4bgj92rcd13ifvqbe0","pricing_plan_id":"free"},{"bike_id":"9fd8bdcc-ce57-42cd-8a00-d7e568de7da7","system_id":"levelo_inurba_marseille","lat":43.284538,"lon":5.358657,"is_reserved":false,"is_disabled":false,"rental_uris":{"android":"levelo://app?vid=9fd8bdcc-ce57-42cd-8a00-d7e568de7da7","ios":"levelo://app?vid=9fd8bdcc-ce57-42cd-8a00-d7e568de7da7"},"vehicle_type_id":"4","last_reported":1692205552,"current_range_meters":12800,"station_id":"ce4bhah2rcd13ifvqei0","pricing_plan_id":"free"},{"bike_id":"ed67a3a6-9d09-4bab-92fc-8fd2359e836c","system_id":"levelo_inurba_marseille","lat":43.284538,"lon":5.358657,"is_reserved":false,"is_disabled":false,"rental_uris":{"android":"levelo://app?vid=ed67a3a6-9d09-4bab-92fc-8fd2359e836c","ios":"levelo://app?vid=ed67a3a6-9d09-4bab-92fc-8fd2359e836c"},"vehicle_type_id":"4","last_reported":1692205552,"current_range_meters":31200,"station_id":"ce4bhah2rcd13ifvqei0","pricing_plan_id":"free"},{"bike_id":"301d478f-6e5a-4cb2-855c-a679c0aeb880","system_id":"levelo_inurba_marseille","lat":43.28622,"lon":5.351,"is_reserved":false,"is_disabled":false,"rental_uris":{"android":"levelo://app?vid=301d478f-6e5a-4cb2-855c-a679c0aeb880","ios":"levelo://app?vid=301d478f-6e5a-4cb2-855c-a679c0aeb880"},"vehicle_type_id":"4","last_reported":1692205552,"current_range_meters":30800,"station_id":"ce4bhch2rcd13ifvqeug","pricing_plan_id":"free"},{"bike_id":"acb242bc-329f-44f9-9f83-bcd1a70aef49","system_id":"levelo_inurba_marseille","lat":43.28617,"lon":5.35101,"is_reserved":false,"is_disabled":false,"rental_uris":{"android":"levelo://app?vid=acb242bc-329f-44f9-9f83-bcd1a70aef49","ios":"levelo://app?vid=acb242bc-329f-44f9-9f83-bcd1a70aef49"},"vehicle_type_id":"4","last_reported":1692205552,"current_range_meters":31200,"station_id":"ce4bhch2rcd13ifvqeug","pricing_plan_id":"free"},{"bike_id":"1bbe639e-ee4a-4f2b-9534-d038127daf20","system_id":"levelo_inurba_marseille","lat":43.28615,"lon":5.35106,"is_reserved":false,"is_disabled":false,"rental_uris":{"android":"levelo://app?vid=1bbe639e-ee4a-4f2b-9534-d038127daf20","ios":"levelo://app?vid=1bbe639e-ee4a-4f2b-9534-d038127daf20"},"vehicle_type_id":"4","last_reported":1692205552,"current_range_meters":18400,"station_id":"ce4bhch2rcd13ifvqeug","pricing_plan_id":"free"},{"bike_id":"5b203b42-0fd9-460b-b364-741254fe7cd5","system_id":"levelo_inurba_marseille","lat":43.28613,"lon":5.35106,"is_reserved":false,"is_disabled":false,"rental_uris":{"android":"levelo://app?vid=5b203b42-0fd9-460b-b364-741254fe7cd5","ios":"levelo://app?vid=5b203b42-0fd9-460b-b364-741254fe7cd5"},"vehicle_type_id":"4","last_reported":1692205552,"current_range_meters":1600,"station_id":"ce4bhch2rcd13ifvqeug","pricing_plan_id":"free"},{"bike_id":"3ecee97e-3a9b-46c0-b012-3bc1b0d83425","system_id":"levelo_inurba_marseille","lat":43.283998,"lon":5.375062,"is_reserved":false,"is_disabled":false,"rental_uris":{"android":"levelo://app?vid=3ecee97e-3a9b-46c0-b012-3bc1b0d83425","ios":"levelo://app?vid=3ecee97e-3a9b-46c0-b012-3bc1b0d83425"},"vehicle_type_id":"4","last_reported":1692205552,"current_range_meters":7600,"station_id":"ce4bh412rcd13ifvqds0","pricing_plan_id":"free"},{"bike_id":"5f4dba09-791c-49df-90d5-ca9113ed4ff1","system_id":"levelo_inurba_marseille","lat":43.28396,"lon":5.37512,"is_reserved":false,"is_disabled":false,"rental_uris":{"android":"levelo://app?vid=5f4dba09-791c-49df-90d5-ca9113ed4ff1","ios":"levelo://app?vid=5f4dba09-791c-49df-90d5-ca9113ed4ff1"},"vehicle_type_id":"4","last_reported":1692205552,"current_range_meters":13600,"station_id":"ce4bh412rcd13ifvqds0","pricing_plan_id":"free"},{"bike_id":"5a3bd52e-3aa8-4334-93c5-f658b01f351b","system_id":"levelo_inurba_marseille","lat":43.28391,"lon":5.37515,"is_reserved":false,"is_disabled":false,"rental_uris":{"android":"levelo://app?vid=5a3bd52e-3aa8-4334-93c5-f658b01f351b","ios":"levelo://app?vid=5a3bd52e-3aa8-4334-93c5-f658b01f351b"},"vehicle_type_id":"4","last_reported":1692205552,"current_range_meters":28400,"station_id":"ce4bh412rcd13ifvqds0","pricing_plan_id":"free"},{"bike_id":"191bf058-919e-458e-8989-fb174538300a","system_id":"levelo_inurba_marseille","lat":43.28665,"lon":5.3865,"is_reserved":false,"is_disabled":false,"rental_uris":{"android":"levelo://app?vid=191bf058-919e-458e-8989-fb174538300a","ios":"levelo://app?vid=191bf058-919e-458e-8989-fb174538300a"},"vehicle_type_id":"4","last_reported":1692205552,"current_range_meters":10800,"station_id":"","pricing_plan_id":"free"},{"bike_id":"dd26c6ce-8cf5-4f3e-9968-a0d7787cab65","system_id":"levelo_inurba_marseille","lat":43.286595,"lon":5.386795,"is_reserved":false,"is_disabled":false,"rental_uris":{"android":"levelo://app?vid=dd26c6ce-8cf5-4f3e-9968-a0d7787cab65","ios":"levelo://app?vid=dd26c6ce-8cf5-4f3e-9968-a0d7787cab65"},"vehicle_type_id":"4","last_reported":1692205552,"current_range_meters":0,"station_id":"ce4bh492rcd13ifvqdug","pricing_plan_id":"free"},{"bike_id":"29726a8b-6fae-4c71-8f16-d60bab6b840b","system_id":"levelo_inurba_marseille","lat":43.319179,"lon":5.407725,"is_reserved":false,"is_disabled":false,"rental_uris":{"android":"levelo://app?vid=29726a8b-6fae-4c71-8f16-d60bab6b840b","ios":"levelo://app?vid=29726a8b-6fae-4c71-8f16-d60bab6b840b"},"vehicle_type_id":"4","last_reported":1692205552,"current_range_meters":25600,"station_id":"ce4bhq12rcd13ifvqhig","pricing_plan_id":"free"},{"bike_id":"5998f81c-1eca-456a-a4d5-b95c154b11b7","system_id":"levelo_inurba_marseille","lat":43.33718,"lon":5.39177,"is_reserved":false,"is_disabled":false,"rental_uris":{"android":"levelo://app?vid=5998f81c-1eca-456a-a4d5-b95c154b11b7","ios":"levelo://app?vid=5998f81c-1eca-456a-a4d5-b95c154b11b7"},"vehicle_type_id":"4","last_reported":1692205552,"current_range_meters":24000,"station_id":"ce4bhr92rcd13ifvqhsg","pricing_plan_id":"free"},{"bike_id":"c7f55b38-f91b-41fb-a480-21b4dec7e541","system_id":"levelo_inurba_marseille","lat":43.33725,"lon":5.39177,"is_reserved":false,"is_disabled":false,"rental_uris":{"android":"levelo://app?vid=c7f55b38-f91b-41fb-a480-21b4dec7e541","ios":"levelo://app?vid=c7f55b38-f91b-41fb-a480-21b4dec7e541"},"vehicle_type_id":"4","last_reported":1692205552,"current_range_meters":20400,"station_id":"ce4bhr92rcd13ifvqhsg","pricing_plan_id":"free"},{"bike_id":"3418df2e-6699-4bed-91a2-b25e9f32f724","system_id":"levelo_inurba_marseille","lat":43.337168,"lon":5.391825,"is_reserved":false,"is_disabled":false,"rental_uris":{"android":"levelo://app?vid=3418df2e-6699-4bed-91a2-b25e9f32f724","ios":"levelo://app?vid=3418df2e-6699-4bed-91a2-b25e9f32f724"},"vehicle_type_id":"4","last_reported":1692205552,"current_range_meters":17600,"station_id":"ce4bhr92rcd13ifvqhsg","pricing_plan_id":"free"},{"bike_id":"6a16d4f0-1bee-4a48-8250-841c97df9d59","system_id":"levelo_inurba_marseille","lat":43.33726,"lon":5.39181,"is_reserved":false,"is_disabled":false,"rental_uris":{"android":"levelo://app?vid=6a16d4f0-1bee-4a48-8250-841c97df9d59","ios":"levelo://app?vid=6a16d4f0-1bee-4a48-8250-841c97df9d59"},"vehicle_type_id":"4","last_reported":1692205552,"current_range_meters":23200,"station_id":"ce4bhr92rcd13ifvqhsg","pricing_plan_id":"free"},{"bike_id":"404d2578-f101-464e-81f7-e2e7b3c82af2","system_id":"levelo_inurba_marseille","lat":43.32344,"lon":5.40618,"is_reserved":false,"is_disabled":false,"rental_uris":{"android":"levelo://app?vid=404d2578-f101-464e-81f7-e2e7b3c82af2","ios":"levelo://app?vid=404d2578-f101-464e-81f7-e2e7b3c82af2"},"vehicle_type_id":"4","last_reported":1692205552,"current_range_meters":19200,"station_id":"ce4bhq92rcd13ifvqhjg","pricing_plan_id":"free"},{"bike_id":"7d990ca5-f420-4945-a4a1-a0288a5b26c7","system_id":"levelo_inurba_marseille","lat":43.337168,"lon":5.391825,"is_reserved":false,"is_disabled":false,"rental_uris":{"android":"levelo://app?vid=7d990ca5-f420-4945-a4a1-a0288a5b26c7","ios":"levelo://app?vid=7d990ca5-f420-4945-a4a1-a0288a5b26c7"},"vehicle_type_id":"4","last_reported":1692205552,"current_range_meters":6400,"station_id":"ce4bhr92rcd13ifvqhsg","pricing_plan_id":"free"},{"bike_id":"23f5f11c-1631-4826-9b70-90ab56e6e026","system_id":"levelo_inurba_marseille","lat":43.32348,"lon":5.40628,"is_reserved":false,"is_disabled":false,"rental_uris":{"android":"levelo://app?vid=23f5f11c-1631-4826-9b70-90ab56e6e026","ios":"levelo://app?vid=23f5f11c-1631-4826-9b70-90ab56e6e026"},"vehicle_type_id":"4","last_reported":1692205552,"current_range_meters":16800,"station_id":"ce4bhq92rcd13ifvqhjg","pricing_plan_id":"free"},{"bike_id":"43f8fdf7-3f4e-4e1b-b5de-247f0f31c45e","system_id":"levelo_inurba_marseille","lat":43.284793,"lon":5.384113,"is_reserved":false,"is_disabled":false,"rental_uris":{"android":"levelo://app?vid=43f8fdf7-3f4e-4e1b-b5de-247f0f31c45e","ios":"levelo://app?vid=43f8fdf7-3f4e-4e1b-b5de-247f0f31c45e"},"vehicle_type_id":"4","last_reported":1692205552,"current_range_meters":0,"station_id":"ce4bh512rcd13ifvqe3g","pricing_plan_id":"free"},{"bike_id":"dbce56d6-1203-430f-bf4a-02fff6ccd16b","system_id":"levelo_inurba_marseille","lat":43.284793,"lon":5.384113,"is_reserved":false,"is_disabled":false,"rental_uris":{"android":"levelo://app?vid=dbce56d6-1203-430f-bf4a-02fff6ccd16b","ios":"levelo://app?vid=dbce56d6-1203-430f-bf4a-02fff6ccd16b"},"vehicle_type_id":"4","last_reported":1692205552,"current_range_meters":26800,"station_id":"ce4bh512rcd13ifvqe3g","pricing_plan_id":"free"},{"bike_id":"7328b925-3f18-4c43-a9ef-6a2b9935e01d","system_id":"levelo_inurba_marseille","lat":43.284793,"lon":5.384113,"is_reserved":false,"is_disabled":false,"rental_uris":{"android":"levelo://app?vid=7328b925-3f18-4c43-a9ef-6a2b9935e01d","ios":"levelo://app?vid=7328b925-3f18-4c43-a9ef-6a2b9935e01d"},"vehicle_type_id":"4","last_reported":1692205552,"current_range_meters":1600,"station_id":"ce4bh512rcd13ifvqe3g","pricing_plan_id":"free"},{"bike_id":"710c4518-1519-46b8-acb8-53a007c62430","system_id":"levelo_inurba_marseille","lat":43.284793,"lon":5.384119,"is_reserved":false,"is_disabled":false,"rental_uris":{"android":"levelo://app?vid=710c4518-1519-46b8-acb8-53a007c62430","ios":"levelo://app?vid=710c4518-1519-46b8-acb8-53a007c62430"},"vehicle_type_id":"4","last_reported":1692205552,"current_range_meters":12800,"station_id":"ce4bh512rcd13ifvqe3g","pricing_plan_id":"free"},{"bike_id":"e2c03bc4-df59-493e-9c41-2358a60706b7","system_id":"levelo_inurba_marseille","lat":43.30674,"lon":5.4085,"is_reserved":false,"is_disabled":false,"rental_uris":{"android":"levelo://app?vid=e2c03bc4-df59-493e-9c41-2358a60706b7","ios":"levelo://app?vid=e2c03bc4-df59-493e-9c41-2358a60706b7"},"vehicle_type_id":"4","last_reported":1692205552,"current_range_meters":2800,"station_id":"","pricing_plan_id":"free"},{"bike_id":"0ff9da94-a23d-451d-803e-ac4eae0139ae","system_id":"levelo_inurba_marseille","lat":43.28195,"lon":5.374165,"is_reserved":false,"is_disabled":false,"rental_uris":{"android":"levelo://app?vid=0ff9da94-a23d-451d-803e-ac4eae0139ae","ios":"levelo://app?vid=0ff9da94-a23d-451d-803e-ac4eae0139ae"},"vehicle_type_id":"4","last_reported":1692205552,"current_range_meters":23200,"station_id":"","pricing_plan_id":"free"},{"bike_id":"9000ce1a-8890-4ecd-90c9-d52e4df686db","system_id":"levelo_inurba_marseille","lat":43.28944,"lon":5.39626,"is_reserved":false,"is_disabled":false,"rental_uris":{"android":"levelo://app?vid=9000ce1a-8890-4ecd-90c9-d52e4df686db","ios":"levelo://app?vid=9000ce1a-8890-4ecd-90c9-d52e4df686db"},"vehicle_type_id":"4","last_reported":1692205552,"current_range_meters":29600,"station_id":"ce4bh3h2rcd13ifvqdn0","pricing_plan_id":"free"},{"bike_id":"5cec26ac-344f-432b-af34-450b75305b9b","system_id":"levelo_inurba_marseille","lat":43.29276,"lon":5.40124,"is_reserved":false,"is_disabled":false,"rental_uris":{"android":"levelo://app?vid=5cec26ac-344f-432b-af34-450b75305b9b","ios":"levelo://app?vid=5cec26ac-344f-432b-af34-450b75305b9b"},"vehicle_type_id":"4","last_reported":1692205552,"current_range_meters":31200,"station_id":"ce4bh312rcd13ifvqdk0","pricing_plan_id":"free"},{"bike_id":"88940920-727e-47f8-bee6-24feedff1167","system_id":"levelo_inurba_marseille","lat":43.282744,"lon":5.350533,"is_reserved":false,"is_disabled":false,"rental_uris":{"android":"levelo://app?vid=88940920-727e-47f8-bee6-24feedff1167","ios":"levelo://app?vid=88940920-727e-47f8-bee6-24feedff1167"},"vehicle_type_id":"4","last_reported":1692205552,"current_range_meters":30400,"station_id":"ce4bhbp2rcd13ifvqerg","pricing_plan_id":"free"},{"bike_id":"cec45bd1-c395-4adf-b7d3-66d4d05670ee","system_id":"levelo_inurba_marseille","lat":43.282796,"lon":5.350644,"is_reserved":false,"is_disabled":false,"rental_uris":{"android":"levelo://app?vid=cec45bd1-c395-4adf-b7d3-66d4d05670ee","ios":"levelo://app?vid=cec45bd1-c395-4adf-b7d3-66d4d05670ee"},"vehicle_type_id":"4","last_reported":1692205552,"current_range_meters":31200,"station_id":"ce4bhbp2rcd13ifvqerg","pricing_plan_id":"free"},{"bike_id":"eafeec11-3add-4800-bb88-4b3337c565e4","system_id":"levelo_inurba_marseille","lat":43.2804,"lon":5.3694,"is_reserved":false,"is_disabled":false,"rental_uris":{"android":"levelo://app?vid=eafeec11-3add-4800-bb88-4b3337c565e4","ios":"levelo://app?vid=eafeec11-3add-4800-bb88-4b3337c565e4"},"vehicle_type_id":"4","last_reported":1692205552,"current_range_meters":5200,"station_id":"ce4bha12rcd13ifvqef0","pricing_plan_id":"free"},{"bike_id":"da2a89b9-97c2-4be6-8fe7-1edce94f3222","system_id":"levelo_inurba_marseille","lat":43.28036,"lon":5.36941,"is_reserved":false,"is_disabled":false,"rental_uris":{"android":"levelo://app?vid=da2a89b9-97c2-4be6-8fe7-1edce94f3222","ios":"levelo://app?vid=da2a89b9-97c2-4be6-8fe7-1edce94f3222"},"vehicle_type_id":"4","last_reported":1692205552,"current_range_meters":11600,"station_id":"ce4bha12rcd13ifvqef0","pricing_plan_id":"free"},{"bike_id":"71980d46-0e55-42d6-b3fb-16e30772e2fc","system_id":"levelo_inurba_marseille","lat":43.281044,"lon":5.378308,"is_reserved":false,"is_disabled":false,"rental_uris":{"android":"levelo://app?vid=71980d46-0e55-42d6-b3fb-16e30772e2fc","ios":"levelo://app?vid=71980d46-0e55-42d6-b3fb-16e30772e2fc"},"vehicle_type_id":"4","last_reported":1692205552,"current_range_meters":21600,"station_id":"ce4bha12rcd13ifvqee0","pricing_plan_id":"free"},{"bike_id":"eb8e4c4f-5fc5-4007-ab2b-231fad0dc17c","system_id":"levelo_inurba_marseille","lat":43.290412,"lon":5.399633,"is_reserved":false,"is_disabled":false,"rental_uris":{"android":"levelo://app?vid=eb8e4c4f-5fc5-4007-ab2b-231fad0dc17c","ios":"levelo://app?vid=eb8e4c4f-5fc5-4007-ab2b-231fad0dc17c"},"vehicle_type_id":"4","last_reported":1692205552,"current_range_meters":31200,"station_id":"ce4bh392rcd13ifvqdm0","pricing_plan_id":"free"},{"bike_id":"07a04943-da50-472c-bcf0-643921dc19de","system_id":"levelo_inurba_marseille","lat":43.281044,"lon":5.378308,"is_reserved":false,"is_disabled":false,"rental_uris":{"android":"levelo://app?vid=07a04943-da50-472c-bcf0-643921dc19de","ios":"levelo://app?vid=07a04943-da50-472c-bcf0-643921dc19de"},"vehicle_type_id":"4","last_reported":1692205552,"current_range_meters":30400,"station_id":"ce4bha12rcd13ifvqee0","pricing_plan_id":"free"},{"bike_id":"98c4f34e-e420-498f-8296-c49a3bb4a5ff","system_id":"levelo_inurba_marseille","lat":43.296263,"lon":5.40601,"is_reserved":false,"is_disabled":false,"rental_uris":{"android":"levelo://app?vid=98c4f34e-e420-498f-8296-c49a3bb4a5ff","ios":"levelo://app?vid=98c4f34e-e420-498f-8296-c49a3bb4a5ff"},"vehicle_type_id":"4","last_reported":1692205552,"current_range_meters":0,"station_id":"ce4bh0h2rcd13ifvqd60","pricing_plan_id":"free"},{"bike_id":"3849d925-c4c5-4572-9529-86acedf50d45","system_id":"levelo_inurba_marseille","lat":43.285742,"lon":5.395004,"is_reserved":false,"is_disabled":false,"rental_uris":{"android":"levelo://app?vid=3849d925-c4c5-4572-9529-86acedf50d45","ios":"levelo://app?vid=3849d925-c4c5-4572-9529-86acedf50d45"},"vehicle_type_id":"4","last_reported":1692205552,"current_range_meters":24800,"station_id":"ce4bh292rcd13ifvqdg0","pricing_plan_id":"free"},{"bike_id":"a0f258ed-ced3-412c-a3a0-592502c28464","system_id":"levelo_inurba_marseille","lat":43.32661,"lon":5.40929,"is_reserved":false,"is_disabled":false,"rental_uris":{"android":"levelo://app?vid=a0f258ed-ced3-412c-a3a0-592502c28464","ios":"levelo://app?vid=a0f258ed-ced3-412c-a3a0-592502c28464"},"vehicle_type_id":"4","last_reported":1692205552,"current_range_meters":0,"station_id":"","pricing_plan_id":"free"},{"bike_id":"2f189af8-4fd0-421d-8836-08e442314c86","system_id":"levelo_inurba_marseille","lat":43.28573,"lon":5.394992,"is_reserved":false,"is_disabled":false,"rental_uris":{"android":"levelo://app?vid=2f189af8-4fd0-421d-8836-08e442314c86","ios":"levelo://app?vid=2f189af8-4fd0-421d-8836-08e442314c86"},"vehicle_type_id":"4","last_reported":1692205552,"current_range_meters":13200,"station_id":"ce4bh292rcd13ifvqdg0","pricing_plan_id":"free"},{"bike_id":"7f0c38d0-63db-4297-a7b4-2c1fdccbfd87","system_id":"levelo_inurba_marseille","lat":43.32656,"lon":5.40957,"is_reserved":false,"is_disabled":false,"rental_uris":{"android":"levelo://app?vid=7f0c38d0-63db-4297-a7b4-2c1fdccbfd87","ios":"levelo://app?vid=7f0c38d0-63db-4297-a7b4-2c1fdccbfd87"},"vehicle_type_id":"4","last_reported":1692205552,"current_range_meters":4800,"station_id":"ce4bhpp2rcd13ifvqhgg","pricing_plan_id":"free"},{"bike_id":"63848bea-4f8c-463a-ab04-16e58b803324","system_id":"levelo_inurba_marseille","lat":43.326605,"lon":5.409903,"is_reserved":false,"is_disabled":false,"rental_uris":{"android":"levelo://app?vid=63848bea-4f8c-463a-ab04-16e58b803324","ios":"levelo://app?vid=63848bea-4f8c-463a-ab04-16e58b803324"},"vehicle_type_id":"4","last_reported":1692205552,"current_range_meters":14000,"station_id":"ce4bhpp2rcd13ifvqhgg","pricing_plan_id":"free"},{"bike_id":"5e44d1ce-f8c3-497c-99b2-ce05305ba434","system_id":"levelo_inurba_marseille","lat":43.304188,"lon":5.412904,"is_reserved":false,"is_disabled":false,"rental_uris":{"android":"levelo://app?vid=5e44d1ce-f8c3-497c-99b2-ce05305ba434","ios":"levelo://app?vid=5e44d1ce-f8c3-497c-99b2-ce05305ba434"},"vehicle_type_id":"4","last_reported":1692205552,"current_range_meters":10000,"station_id":"ce4bhop2rcd13ifvqh8g","pricing_plan_id":"free"},{"bike_id":"8469c912-45c7-4f6b-8184-469f0338929b","system_id":"levelo_inurba_marseille","lat":43.28072,"lon":5.34768,"is_reserved":false,"is_disabled":false,"rental_uris":{"android":"levelo://app?vid=8469c912-45c7-4f6b-8184-469f0338929b","ios":"levelo://app?vid=8469c912-45c7-4f6b-8184-469f0338929b"},"vehicle_type_id":"4","last_reported":1692205552,"current_range_meters":16800,"station_id":"","pricing_plan_id":"free"},{"bike_id":"9f9c34e2-df92-455b-8827-c693aded5870","system_id":"levelo_inurba_marseille","lat":43.284793,"lon":5.384113,"is_reserved":false,"is_disabled":false,"rental_uris":{"android":"levelo://app?vid=9f9c34e2-df92-455b-8827-c693aded5870","ios":"levelo://app?vid=9f9c34e2-df92-455b-8827-c693aded5870"},"vehicle_type_id":"4","last_reported":1692205552,"current_range_meters":9200,"station_id":"ce4bh512rcd13ifvqe3g","pricing_plan_id":"free"},{"bike_id":"c327718a-8fe6-4791-a349-aba0f8f94e82","system_id":"levelo_inurba_marseille","lat":43.27976,"lon":5.38722,"is_reserved":false,"is_disabled":false,"rental_uris":{"android":"levelo://app?vid=c327718a-8fe6-4791-a349-aba0f8f94e82","ios":"levelo://app?vid=c327718a-8fe6-4791-a349-aba0f8f94e82"},"vehicle_type_id":"4","last_reported":1692205552,"current_range_meters":24400,"station_id":"ce4bhg12rcd13ifvqf80","pricing_plan_id":"free"},{"bike_id":"678caed5-2bbb-429e-ada3-9392f527ead1","system_id":"levelo_inurba_marseille","lat":43.279742,"lon":5.38744,"is_reserved":false,"is_disabled":false,"rental_uris":{"android":"levelo://app?vid=678caed5-2bbb-429e-ada3-9392f527ead1","ios":"levelo://app?vid=678caed5-2bbb-429e-ada3-9392f527ead1"},"vehicle_type_id":"4","last_reported":1692205552,"current_range_meters":2400,"station_id":"ce4bhg12rcd13ifvqf80","pricing_plan_id":"free"},{"bike_id":"831ccaee-4767-442a-97fd-5cd5dbbc6e39","system_id":"levelo_inurba_marseille","lat":43.292569,"lon":5.409107,"is_reserved":false,"is_disabled":false,"rental_uris":{"android":"levelo://app?vid=831ccaee-4767-442a-97fd-5cd5dbbc6e39","ios":"levelo://app?vid=831ccaee-4767-442a-97fd-5cd5dbbc6e39"},"vehicle_type_id":"4","last_reported":1692205552,"current_range_meters":18400,"station_id":"ce4bh192rcd13ifvqdc0","pricing_plan_id":"free"},{"bike_id":"6827c518-3362-405e-ba5a-b7bff2b7f5f1","system_id":"levelo_inurba_marseille","lat":43.27624,"lon":5.36108,"is_reserved":false,"is_disabled":false,"rental_uris":{"android":"levelo://app?vid=6827c518-3362-405e-ba5a-b7bff2b7f5f1","ios":"levelo://app?vid=6827c518-3362-405e-ba5a-b7bff2b7f5f1"},"vehicle_type_id":"4","last_reported":1692205552,"current_range_meters":4800,"station_id":"ce4bgj92rcd13ifvqbe0","pricing_plan_id":"free"},{"bike_id":"0f5b0623-61b7-44c8-85a2-a2bf387cea16","system_id":"levelo_inurba_marseille","lat":43.27622,"lon":5.36105,"is_reserved":false,"is_disabled":false,"rental_uris":{"android":"levelo://app?vid=0f5b0623-61b7-44c8-85a2-a2bf387cea16","ios":"levelo://app?vid=0f5b0623-61b7-44c8-85a2-a2bf387cea16"},"vehicle_type_id":"4","last_reported":1692205552,"current_range_meters":19200,"station_id":"ce4bgj92rcd13ifvqbe0","pricing_plan_id":"free"},{"bike_id":"b8a237bc-5018-428c-a4ef-29a0f4d07e8e","system_id":"levelo_inurba_marseille","lat":43.27621,"lon":5.36108,"is_reserved":false,"is_disabled":false,"rental_uris":{"android":"levelo://app?vid=b8a237bc-5018-428c-a4ef-29a0f4d07e8e","ios":"levelo://app?vid=b8a237bc-5018-428c-a4ef-29a0f4d07e8e"},"vehicle_type_id":"4","last_reported":1692205552,"current_range_meters":25200,"station_id":"ce4bgj92rcd13ifvqbe0","pricing_plan_id":"free"},{"bike_id":"6c1c3c1c-cb3f-4b59-844e-8f527a34965e","system_id":"levelo_inurba_marseille","lat":43.27621,"lon":5.36105,"is_reserved":false,"is_disabled":false,"rental_uris":{"android":"levelo://app?vid=6c1c3c1c-cb3f-4b59-844e-8f527a34965e","ios":"levelo://app?vid=6c1c3c1c-cb3f-4b59-844e-8f527a34965e"},"vehicle_type_id":"4","last_reported":1692205552,"current_range_meters":26000,"station_id":"ce4bgj92rcd13ifvqbe0","pricing_plan_id":"free"},{"bike_id":"d8f87ebb-6b10-4024-b7a4-0cc39058d11b","system_id":"levelo_inurba_marseille","lat":43.27617,"lon":5.3611,"is_reserved":false,"is_disabled":false,"rental_uris":{"android":"levelo://app?vid=d8f87ebb-6b10-4024-b7a4-0cc39058d11b","ios":"levelo://app?vid=d8f87ebb-6b10-4024-b7a4-0cc39058d11b"},"vehicle_type_id":"4","last_reported":1692205552,"current_range_meters":31200,"station_id":"ce4bgj92rcd13ifvqbe0","pricing_plan_id":"free"},{"bike_id":"9264a9b7-8b3f-4bc0-aeb1-89c53a54d19d","system_id":"levelo_inurba_marseille","lat":43.27617,"lon":5.36109,"is_reserved":false,"is_disabled":false,"rental_uris":{"android":"levelo://app?vid=9264a9b7-8b3f-4bc0-aeb1-89c53a54d19d","ios":"levelo://app?vid=9264a9b7-8b3f-4bc0-aeb1-89c53a54d19d"},"vehicle_type_id":"4","last_reported":1692205552,"current_range_meters":30800,"station_id":"ce4bgj92rcd13ifvqbe0","pricing_plan_id":"free"},{"bike_id":"9d72d8a0-b8fa-426a-8343-4d0919eba2a6","system_id":"levelo_inurba_marseille","lat":43.27616,"lon":5.36114,"is_reserved":false,"is_disabled":false,"rental_uris":{"android":"levelo://app?vid=9d72d8a0-b8fa-426a-8343-4d0919eba2a6","ios":"levelo://app?vid=9d72d8a0-b8fa-426a-8343-4d0919eba2a6"},"vehicle_type_id":"4","last_reported":1692205552,"current_range_meters":31200,"station_id":"ce4bgj92rcd13ifvqbe0","pricing_plan_id":"free"},{"bike_id":"39098ad4-189a-4de4-9de8-415dbfb813c2","system_id":"levelo_inurba_marseille","lat":43.27617,"lon":5.36101,"is_reserved":false,"is_disabled":false,"rental_uris":{"android":"levelo://app?vid=39098ad4-189a-4de4-9de8-415dbfb813c2","ios":"levelo://app?vid=39098ad4-189a-4de4-9de8-415dbfb813c2"},"vehicle_type_id":"4","last_reported":1692205552,"current_range_meters":18800,"station_id":"ce4bgj92rcd13ifvqbe0","pricing_plan_id":"free"},{"bike_id":"26e18856-e1f2-4d6a-a27b-f779fbc031cf","system_id":"levelo_inurba_marseille","lat":43.27618,"lon":5.361009,"is_reserved":false,"is_disabled":false,"rental_uris":{"android":"levelo://app?vid=26e18856-e1f2-4d6a-a27b-f779fbc031cf","ios":"levelo://app?vid=26e18856-e1f2-4d6a-a27b-f779fbc031cf"},"vehicle_type_id":"4","last_reported":1692205552,"current_range_meters":23600,"station_id":"ce4bgj92rcd13ifvqbe0","pricing_plan_id":"free"},{"bike_id":"03ba9de6-7136-4e93-9bdd-24d2333a976c","system_id":"levelo_inurba_marseille","lat":43.27618,"lon":5.361009,"is_reserved":false,"is_disabled":false,"rental_uris":{"android":"levelo://app?vid=03ba9de6-7136-4e93-9bdd-24d2333a976c","ios":"levelo://app?vid=03ba9de6-7136-4e93-9bdd-24d2333a976c"},"vehicle_type_id":"4","last_reported":1692205552,"current_range_meters":28800,"station_id":"ce4bgj92rcd13ifvqbe0","pricing_plan_id":"free"},{"bike_id":"544bfc8a-fad4-406a-9880-ac0c3859673f","system_id":"levelo_inurba_marseille","lat":43.27618,"lon":5.361009,"is_reserved":false,"is_disabled":false,"rental_uris":{"android":"levelo://app?vid=544bfc8a-fad4-406a-9880-ac0c3859673f","ios":"levelo://app?vid=544bfc8a-fad4-406a-9880-ac0c3859673f"},"vehicle_type_id":"4","last_reported":1692205552,"current_range_meters":22400,"station_id":"ce4bgj92rcd13ifvqbe0","pricing_plan_id":"free"},{"bike_id":"36824ce5-db67-4fe5-b8d0-9060daa3475b","system_id":"levelo_inurba_marseille","lat":43.280784,"lon":5.396622,"is_reserved":false,"is_disabled":false,"rental_uris":{"android":"levelo://app?vid=36824ce5-db67-4fe5-b8d0-9060daa3475b","ios":"levelo://app?vid=36824ce5-db67-4fe5-b8d0-9060daa3475b"},"vehicle_type_id":"4","last_reported":1692205552,"current_range_meters":20400,"station_id":"ce4bho12rcd13ifvqh2g","pricing_plan_id":"free"},{"bike_id":"8a7e7a52-8960-4c83-b2ac-ca79a18b437b","system_id":"levelo_inurba_marseille","lat":43.303837,"lon":5.418724,"is_reserved":false,"is_disabled":false,"rental_uris":{"android":"levelo://app?vid=8a7e7a52-8960-4c83-b2ac-ca79a18b437b","ios":"levelo://app?vid=8a7e7a52-8960-4c83-b2ac-ca79a18b437b"},"vehicle_type_id":"4","last_reported":1692205552,"current_range_meters":29200,"station_id":"ce4bhop2rcd13ifvqh7g","pricing_plan_id":"free"},{"bike_id":"42376197-39bc-4ae8-9469-3f5fa06aaef5","system_id":"levelo_inurba_marseille","lat":43.303837,"lon":5.418724,"is_reserved":false,"is_disabled":false,"rental_uris":{"android":"levelo://app?vid=42376197-39bc-4ae8-9469-3f5fa06aaef5","ios":"levelo://app?vid=42376197-39bc-4ae8-9469-3f5fa06aaef5"},"vehicle_type_id":"4","last_reported":1692205552,"current_range_meters":26800,"station_id":"ce4bhop2rcd13ifvqh7g","pricing_plan_id":"free"},{"bike_id":"d3086bcc-9323-4568-9ad3-f94f02f7e2c2","system_id":"levelo_inurba_marseille","lat":43.278401,"lon":5.392152,"is_reserved":false,"is_disabled":false,"rental_uris":{"android":"levelo://app?vid=d3086bcc-9323-4568-9ad3-f94f02f7e2c2","ios":"levelo://app?vid=d3086bcc-9323-4568-9ad3-f94f02f7e2c2"},"vehicle_type_id":"4","last_reported":1692205552,"current_range_meters":28000,"station_id":"ce4bhjp2rcd13ifvqga0","pricing_plan_id":"free"},{"bike_id":"5e636787-8738-400f-9ab0-3ef442ffb12a","system_id":"levelo_inurba_marseille","lat":43.278399,"lon":5.392139,"is_reserved":false,"is_disabled":false,"rental_uris":{"android":"levelo://app?vid=5e636787-8738-400f-9ab0-3ef442ffb12a","ios":"levelo://app?vid=5e636787-8738-400f-9ab0-3ef442ffb12a"},"vehicle_type_id":"4","last_reported":1692205552,"current_range_meters":29600,"station_id":"ce4bhjp2rcd13ifvqga0","pricing_plan_id":"free"},{"bike_id":"d1803718-c60d-4ac2-937b-2a8759ea3865","system_id":"levelo_inurba_marseille","lat":43.273613,"lon":5.362705,"is_reserved":false,"is_disabled":false,"rental_uris":{"android":"levelo://app?vid=d1803718-c60d-4ac2-937b-2a8759ea3865","ios":"levelo://app?vid=d1803718-c60d-4ac2-937b-2a8759ea3865"},"vehicle_type_id":"4","last_reported":1692205552,"current_range_meters":22800,"station_id":"ce4bhbh2rcd13ifvqeo0","pricing_plan_id":"free"},{"bike_id":"324d4c74-e570-4599-8cf1-d70f028d0e7c","system_id":"levelo_inurba_marseille","lat":43.273613,"lon":5.362705,"is_reserved":false,"is_disabled":false,"rental_uris":{"android":"levelo://app?vid=324d4c74-e570-4599-8cf1-d70f028d0e7c","ios":"levelo://app?vid=324d4c74-e570-4599-8cf1-d70f028d0e7c"},"vehicle_type_id":"4","last_reported":1692205552,"current_range_meters":28400,"station_id":"ce4bhbh2rcd13ifvqeo0","pricing_plan_id":"free"},{"bike_id":"28ed0757-93a8-4aa9-9d8a-91e1e4fb7922","system_id":"levelo_inurba_marseille","lat":43.273609,"lon":5.362708,"is_reserved":false,"is_disabled":false,"rental_uris":{"android":"levelo://app?vid=28ed0757-93a8-4aa9-9d8a-91e1e4fb7922","ios":"levelo://app?vid=28ed0757-93a8-4aa9-9d8a-91e1e4fb7922"},"vehicle_type_id":"4","last_reported":1692205552,"current_range_meters":19200,"station_id":"ce4bhbh2rcd13ifvqeo0","pricing_plan_id":"free"},{"bike_id":"9d945894-9480-4ce0-b309-3372f7ddaa38","system_id":"levelo_inurba_marseille","lat":43.273613,"lon":5.362705,"is_reserved":false,"is_disabled":false,"rental_uris":{"android":"levelo://app?vid=9d945894-9480-4ce0-b309-3372f7ddaa38","ios":"levelo://app?vid=9d945894-9480-4ce0-b309-3372f7ddaa38"},"vehicle_type_id":"4","last_reported":1692205552,"current_range_meters":18800,"station_id":"ce4bhbh2rcd13ifvqeo0","pricing_plan_id":"free"},{"bike_id":"8544bc4b-a7e8-46d0-8724-ccbcfad2907f","system_id":"levelo_inurba_marseille","lat":43.27377,"lon":5.36245,"is_reserved":false,"is_disabled":false,"rental_uris":{"android":"levelo://app?vid=8544bc4b-a7e8-46d0-8724-ccbcfad2907f","ios":"levelo://app?vid=8544bc4b-a7e8-46d0-8724-ccbcfad2907f"},"vehicle_type_id":"4","last_reported":1692205552,"current_range_meters":23200,"station_id":"ce4bhbh2rcd13ifvqeo0","pricing_plan_id":"free"},{"bike_id":"6b7759a5-9970-47d7-856c-07cec2d55882","system_id":"levelo_inurba_marseille","lat":43.273613,"lon":5.362705,"is_reserved":false,"is_disabled":false,"rental_uris":{"android":"levelo://app?vid=6b7759a5-9970-47d7-856c-07cec2d55882","ios":"levelo://app?vid=6b7759a5-9970-47d7-856c-07cec2d55882"},"vehicle_type_id":"4","last_reported":1692205552,"current_range_meters":10000,"station_id":"ce4bhbh2rcd13ifvqeo0","pricing_plan_id":"free"},