{"last_updated":1738231741,"ttl":60,"version":"2.2","data":{"bikes":[{"bike_id":"c121117f-af76-4638-b689-b45dc8e8a810","system_id":"levelo_inurba_marseille","lat":43.26946,"lon":5.38637,"is_reserved":false,"is_disabled":false,"rental_uris":{"android":"levelo://app?vid=c121117f-af76-4638-b689-b45dc8e8a810","ios":"levelo://app?vid=c121117f-af76-4638-b689-b45dc8e8a810"},"vehicle_type_id":"4","last_reported":1738231741,"current_range_meters":32800,"station_id":"ce4bhh92rcd13ifvqfh0","pricing_plan_id":"cebpf4jnsgd1na2vs0mg"},{"bike_id":"0d72069c-12f4-4000-a8ca-84be6d2ccbcd","system_id":"levelo_inurba_marseille","lat":43.29843,"lon":5.36254,"is_reserved":false,"is_disabled":false,"rental_uris":{"android":"levelo://app?vid=0d72069c-12f4-4000-a8ca-84be6d2ccbcd","ios":"levelo://app?vid=0d72069c-12f4-4000-a8ca-84be6d2ccbcd"},"vehicle_type_id":"4","last_reported":1738231741,"current_range_meters":38800,"station_id":"ce4bgpp2rcd13ifvqc3g","pricing_plan_id":"cebpf4jnsgd1na2vs0mg"},{"bike_id":"454cf1c5-bc52-435a-af7c-21ac9107c607","system_id":"levelo_inurba_marseille","lat":43.29782,"lon":5.37098,"is_reserved":false,"is_disabled":false,"rental_uris":{"android":"levelo://app?vid=454cf1c5-bc52-435a-af7c-21ac9107c607","ios":"levelo://app?vid=454cf1c5-bc52-435a-af7c-21ac9107c607"},"vehicle_type_id":"4","last_reported":1738231741,"current_range_meters":36800,"station_id":"ce4bgop2rcd13ifvqc1g","pricing_plan_id":"cebpf4jnsgd1na2vs0mg"},{"bike_id":"9ea19894-c8bb-4c7d-b306-86c04215724a","system_id":"levelo_inurba_marseille","lat":43.29871,"lon":5.38904,"is_reserved":false,"is_disabled":false,"rental_uris":{"android":"levelo://app?vid=9ea19894-c8bb-4c7d-b306-86c04215724a","ios":"levelo://app?vid=9ea19894-c8bb-4c7d-b306-86c04215724a"},"vehicle_type_id":"4","last_reported":1738231741,"current_range_meters":32400,"station_id":"ce4bh392rcd13ifvqdl0","pricing_plan_id":"cebpf4jnsgd1na2vs0mg"},{"bike_id":"5a8846df-4834-4a04-923b-af11da6764ca","system_id":"levelo_inurba_marseille","lat":43.2849,"lon":5.38412,"is_reserved":false,"is_disabled":false,"rental_uris":{"android":"levelo://app?vid=5a8846df-4834-4a04-923b-af11da6764ca","ios":"levelo://app?vid=5a8846df-4834-4a04-923b-af11da6764ca"},"vehicle_type_id":"4","last_reported":1738231741,"current_range_meters":23200,"station_id":"ce4bh512rcd13ifvqe3g","pricing_plan_id":"cebpf4jnsgd1na2vs0mg"},{"bike_id":"f7f8117f-03ef-415e-85c6-2eeaf165e4f2","system_id":"levelo_inurba_marseille","lat":43.26224,"lon":5.40403,"is_reserved":false,"is_disabled":true,"rental_uris":{"android":"levelo://app?vid=f7f8117f-03ef-415e-85c6-2eeaf165e4f2","ios":"levelo://app?vid=f7f8117f-03ef-415e-85c6-2eeaf165e4f2"},"vehicle_type_id":"4","last_reported":1738231741,"current_range_meters":26000,"station_id":"ce4bhmh2rcd13ifvqgmg","pricing_plan_id":"cebpf4jnsgd1na2vs0mg"},{"bike_id":"f8d8cc4d-4d9f-45c3-97a9-f1e78a8b2aa8","system_id":"levelo_inurba_marseille","lat":43.3108,"lon":5.38345,"is_reserved":false,"is_disabled":false,"rental_uris":{"android":"levelo://app?vid=f8d8cc4d-4d9f-45c3-97a9-f1e78a8b2aa8","ios":"levelo://app?vid=f8d8cc4d-4d9f-45c3-97a9-f1e78a8b2aa8"},"vehicle_type_id":"4","last_reported":1738231741,"current_range_meters":8400,"station_id":"ce4bgv92rcd13ifvqcr0","pricing_plan_id":"cebpf4jnsgd1na2vs0mg"},{"bike_id":"280965e1-0c3f-4caa-a076-186709d01b8d","system_id":"levelo_inurba_marseille","lat":43.29905,"lon":5.39757,"is_reserved":false,"is_disabled":false,"rental_uris":{"android":"levelo://app?vid=280965e1-0c3f-4caa-a076-186709d01b8d","ios":"levelo://app?vid=280965e1-0c3f-4caa-a076-186709d01b8d"},"vehicle_type_id":"4","last_reported":1738231741,"current_range_meters":30000,"station_id":"ce4bh0h2rcd13ifvqd50","pricing_plan_id":"cebpf4jnsgd1na2vs0mg"},{"bike_id":"3f54975c-5791-4693-836b-2816f79a23b3","system_id":"levelo_inurba_marseille","lat":43.27953,"lon":5.38685,"is_reserved":false,"is_disabled":false,"rental_uris":{"android":"levelo://app?vid=3f54975c-5791-4693-836b-2816f79a23b3","ios":"levelo://app?vid=3f54975c-5791-4693-836b-2816f79a23b3"},"vehicle_type_id":"4","last_reported":1738231741,"current_range_meters":23200,"station_id":"","pricing_plan_id":"cebpf4jnsgd1na2vs0mg"},{"bike_id":"29aa0ddd-7948-4100-9567-3bda8585b0fe","system_id":"levelo_inurba_marseille","lat":43.30079,"lon":5.39081,"is_reserved":false,"is_disabled":false,"rental_uris":{"android":"levelo://app?vid=29aa0ddd-7948-4100-9567-3bda8585b0fe","ios":"levelo://app?vid=29aa0ddd-7948-4100-9567-3bda8585b0fe"},"vehicle_type_id":"4","last_reported":1738231741,"current_range_meters":22000,"station_id":"ce4bh192rcd13ifvqdb0","pricing_plan_id":"cebpf4jnsgd1na2vs0mg"},{"bike_id":"9ebdc35e-1568-45ff-aa52-2363402d7b82","system_id":"levelo_inurba_marseille","lat":43.29295,"lon":5.37167,"is_reserved":false,"is_disabled":false,"rental_uris":{"android":"levelo://app?vid=9ebdc35e-1568-45ff-aa52-2363402d7b82","ios":"levelo://app?vid=9ebdc35e-1568-45ff-aa52-2363402d7b82"},"vehicle_type_id":"4","last_reported":1738231741,"current_range_meters":33600,"station_id":"ce4bgh92rcd13ifvqb40","pricing_plan_id":"cebpf4jnsgd1na2vs0mg"},{"bike_id":"29d88cd5-ef06-4ea2-86cd-8c6c4a75536c","system_id":"levelo_inurba_marseille","lat":43.3046,"lon":5.37912,"is_reserved":false,"is_disabled":false,"rental_uris":{"android":"levelo://app?vid=29d88cd5-ef06-4ea2-86cd-8c6c4a75536c","ios":"levelo://app?vid=29d88cd5-ef06-4ea2-86cd-8c6c4a75536c"},"vehicle_type_id":"4","last_reported":1738231741,"current_range_meters":36000,"station_id":"ce4bgup2rcd13ifvqcn0","pricing_plan_id":"cebpf4jnsgd1na2vs0mg"},{"bike_id":"adc2855c-ce96-4ab1-9132-d4c82e18f627","system_id":"levelo_inurba_marseille","lat":43.26485,"lon":5.39551,"is_reserved":false,"is_disabled":false,"rental_uris":{"android":"levelo://app?vid=adc2855c-ce96-4ab1-9132-d4c82e18f627","ios":"levelo://app?vid=adc2855c-ce96-4ab1-9132-d4c82e18f627"},"vehicle_type_id":"4","last_reported":1738231741,"current_range_meters":28800,"station_id":"ce4bhi12rcd13ifvqfq0","pricing_plan_id":"cebpf4jnsgd1na2vs0mg"},{"bike_id":"bbf5cc05-253b-474e-91e3-9d2d5200c1ec","system_id":"levelo_inurba_marseille","lat":43.30271,"lon":5.37718,"is_reserved":false,"is_disabled":false,"rental_uris":{"android":"levelo://app?vid=bbf5cc05-253b-474e-91e3-9d2d5200c1ec","ios":"levelo://app?vid=bbf5cc05-253b-474e-91e3-9d2d5200c1ec"},"vehicle_type_id":"4","last_reported":1738231741,"current_range_meters":38800,"station_id":"ce4bguh2rcd13ifvqcj0","pricing_plan_id":"cebpf4jnsgd1na2vs0mg"},{"bike_id":"8af94119-2421-4ba4-8919-501ab8454054","system_id":"levelo_inurba_marseille","lat":43.27213,"lon":5.39192,"is_reserved":false,"is_disabled":false,"rental_uris":{"android":"levelo://app?vid=8af94119-2421-4ba4-8919-501ab8454054","ios":"levelo://app?vid=8af94119-2421-4ba4-8919-501ab8454054"},"vehicle_type_id":"4","last_reported":1738231741,"current_range_meters":39200,"station_id":"ce4bhhp2rcd13ifvqfm0","pricing_plan_id":"cebpf4jnsgd1na2vs0mg"},{"bike_id":"0288be9b-7b6f-484a-a06c-e6be0ec543fe","system_id":"levelo_inurba_marseille","lat":43.33611,"lon":5.41055,"is_reserved":false,"is_disabled":false,"rental_uris":{"android":"levelo://app?vid=0288be9b-7b6f-484a-a06c-e6be0ec543fe","ios":"levelo://app?vid=0288be9b-7b6f-484a-a06c-e6be0ec543fe"},"vehicle_type_id":"4","last_reported":1738231741,"current_range_meters":38800,"station_id":"ce4bhqh2rcd13ifvqhmg","pricing_plan_id":"cebpf4jnsgd1na2vs0mg"},{"bike_id":"79b7a714-6899-43f0-a0e6-1e9b5234e282","system_id":"levelo_inurba_marseille","lat":43.29548,"lon":5.4228,"is_reserved":false,"is_disabled":false,"rental_uris":{"android":"levelo://app?vid=79b7a714-6899-43f0-a0e6-1e9b5234e282","ios":"levelo://app?vid=79b7a714-6899-43f0-a0e6-1e9b5234e282"},"vehicle_type_id":"4","last_reported":1738231741,"current_range_meters":36800,"station_id":"ce4bhph2rcd13ifvqhdg","pricing_plan_id":"cebpf4jnsgd1na2vs0mg"},{"bike_id":"056d4c88-75c5-415a-a7d7-0626740da3e0","system_id":"levelo_inurba_marseille","lat":43.274934,"lon":5.424586,"is_reserved":false,"is_disabled":false,"rental_uris":{"android":"levelo://app?vid=056d4c88-75c5-415a-a7d7-0626740da3e0","ios":"levelo://app?vid=056d4c88-75c5-415a-a7d7-0626740da3e0"},"vehicle_type_id":"4","last_reported":1738231741,"current_range_meters":32800,"station_id":"ce4bhn92rcd13ifvqgrg","pricing_plan_id":"cebpf4jnsgd1na2vs0mg"},{"bike_id":"86eb3850-c40f-4491-91f4-1f64cf4fd57e","system_id":"levelo_inurba_marseille","lat":43.287,"lon":5.37391,"is_reserved":false,"is_disabled":false,"rental_uris":{"android":"levelo://app?vid=86eb3850-c40f-4491-91f4-1f64cf4fd57e","ios":"levelo://app?vid=86eb3850-c40f-4491-91f4-1f64cf4fd57e"},"vehicle_type_id":"4","last_reported":1738231741,"current_range_meters":26800,"station_id":"ce4bh3p2rcd13ifvqdq0","pricing_plan_id":"cebpf4jnsgd1na2vs0mg"},{"bike_id":"9bd21267-26f6-4122-9567-2f0b5d4f790f","system_id":"levelo_inurba_marseille","lat":43.32371,"lon":5.38887,"is_reserved":false,"is_disabled":false,"rental_uris":{"android":"levelo://app?vid=9bd21267-26f6-4122-9567-2f0b5d4f790f","ios":"levelo://app?vid=9bd21267-26f6-4122-9567-2f0b5d4f790f"},"vehicle_type_id":"4","last_reported":1738231741,"current_range_meters":38800,"station_id":"ce4bhqp2rcd13ifvqhog","pricing_plan_id":"cebpf4jnsgd1na2vs0mg"},{"bike_id":"873a4520-b3ea-4ae4-b5ed-62ad08141256","system_id":"levelo_inurba_marseille","lat":43.30542,"lon":5.36554,"is_reserved":false,"is_disabled":false,"rental_uris":{"android":"levelo://app?vid=873a4520-b3ea-4ae4-b5ed-62ad08141256","ios":"levelo://app?vid=873a4520-b3ea-4ae4-b5ed-62ad08141256"},"vehicle_type_id":"4","last_reported":1738231741,"current_range_meters":38800,"station_id":"ce4bgs12rcd13ifvqcag","pricing_plan_id":"cebpf4jnsgd1na2vs0mg"},{"bike_id":"1d616d1b-3f48-4224-bb28-01fd00ae46e4","system_id":"levelo_inurba_marseille","lat":43.31226,"lon":5.36851,"is_reserved":false,"is_disabled":false,"rental_uris":{"android":"levelo://app?vid=1d616d1b-3f48-4224-bb28-01fd00ae46e4","ios":"levelo://app?vid=1d616d1b-3f48-4224-bb28-01fd00ae46e4"},"vehicle_type_id":"4","last_reported":1738231741,"current_range_meters":6800,"station_id":"ce4bgl92rcd13ifvqbq0","pricing_plan_id":"cebpf4jnsgd1na2vs0mg"},{"bike_id":"402b4e9d-3503-46b7-9ccd-96f0dfc5374f","system_id":"levelo_inurba_marseille","lat":43.29106,"lon":5.38137,"is_reserved":false,"is_disabled":true,"rental_uris":{"android":"levelo://app?vid=402b4e9d-3503-46b7-9ccd-96f0dfc5374f","ios":"levelo://app?vid=402b4e9d-3503-46b7-9ccd-96f0dfc5374f"},"vehicle_type_id":"4","last_reported":1738231741,"current_range_meters":32000,"station_id":"ce4bh512rcd13ifvqe2g","pricing_plan_id":"cebpf4jnsgd1na2vs0mg"},{"bike_id":"8bde1ebe-5abf-474a-84a7-7794fe44c931","system_id":"levelo_inurba_marseille","lat":43.330161,"lon":5.390504,"is_reserved":false,"is_disabled":false,"rental_uris":{"android":"levelo://app?vid=8bde1ebe-5abf-474a-84a7-7794fe44c931","ios":"levelo://app?vid=8bde1ebe-5abf-474a-84a7-7794fe44c931"},"vehicle_type_id":"4","last_reported":1738231741,"current_range_meters":37600,"station_id":"ce4bhr92rcd13ifvqhrg","pricing_plan_id":"cebpf4jnsgd1na2vs0mg"},{"bike_id":"09e5ddb2-5ded-4084-b331-34c11b36e04b","system_id":"levelo_inurba_marseille","lat":43.26945,"lon":5.38649,"is_reserved":false,"is_disabled":false,"rental_uris":{"android":"levelo://app?vid=09e5ddb2-5ded-4084-b331-34c11b36e04b","ios":"levelo://app?vid=09e5ddb2-5ded-4084-b331-34c11b36e04b"},"vehicle_type_id":"4","last_reported":1738231741,"current_range_meters":28400,"station_id":"ce4bhh92rcd13ifvqfh0","pricing_plan_id":"cebpf4jnsgd1na2vs0mg"},{"bike_id":"1c63fa7b-8bb3-4da5-8267-9c40ab75cc0b","system_id":"levelo_inurba_marseille","lat":43.33689,"lon":5.39232,"is_reserved":false,"is_disabled":false,"rental_uris":{"android":"levelo://app?vid=1c63fa7b-8bb3-4da5-8267-9c40ab75cc0b","ios":"levelo://app?vid=1c63fa7b-8bb3-4da5-8267-9c40ab75cc0b"},"vehicle_type_id":"4","last_reported":1738231741,"current_range_meters":38800,"station_id":"ce4bhr92rcd13ifvqhsg","pricing_plan_id":"cebpf4jnsgd1na2vs0mg"},{"bike_id":"c51b0cb6-07eb-4994-ac2a-608b77bd9b97","system_id":"levelo_inurba_marseille","lat":43.30343,"lon":5.41902,"is_reserved":false,"is_disabled":false,"rental_uris":{"android":"levelo://app?vid=c51b0cb6-07eb-4994-ac2a-608b77bd9b97","ios":"levelo://app?vid=c51b0cb6-07eb-4994-ac2a-608b77bd9b97"},"vehicle_type_id":"4","last_reported":1738231741,"current_range_meters":38800,"station_id":"ce4bhop2rcd13ifvqh7g","pricing_plan_id":"cebpf4jnsgd1na2vs0mg"},{"bike_id":"1cd1f9ee-4bae-4683-b0e0-908033806d90","system_id":"levelo_inurba_marseille","lat":43.30525,"lon":5.36698,"is_reserved":false,"is_disabled":false,"rental_uris":{"android":"levelo://app?vid=1cd1f9ee-4bae-4683-b0e0-908033806d90","ios":"levelo://app?vid=1cd1f9ee-4bae-4683-b0e0-908033806d90"},"vehicle_type_id":"4","last_reported":1738231741,"current_range_meters":26000,"station_id":"ce4bgrp2rcd13ifvqc9g","pricing_plan_id":"cebpf4jnsgd1na2vs0mg"},{"bike_id":"cc47836a-b908-432f-8e0e-2f793407f141","system_id":"levelo_inurba_marseille","lat":43.22933,"lon":5.35378,"is_reserved":false,"is_disabled":false,"rental_uris":{"android":"levelo://app?vid=cc47836a-b908-432f-8e0e-2f793407f141","ios":"levelo://app?vid=cc47836a-b908-432f-8e0e-2f793407f141"},"vehicle_type_id":"4","last_reported":1738231741,"current_range_meters":17200,"station_id":"cpo3532slgdg3j2ikp40","pricing_plan_id":"cebpf4jnsgd1na2vs0mg"},{"bike_id":"5d4915e0-4a9f-4c36-821a-8bde58abc3cd","system_id":"levelo_inurba_marseille","lat":43.25131,"lon":5.40327,"is_reserved":false,"is_disabled":false,"rental_uris":{"android":"levelo://app?vid=5d4915e0-4a9f-4c36-821a-8bde58abc3cd","ios":"levelo://app?vid=5d4915e0-4a9f-4c36-821a-8bde58abc3cd"},"vehicle_type_id":"4","last_reported":1738231741,"current_range_meters":38800,"station_id":"ce4bhlh2rcd13ifvqgig","pricing_plan_id":"cebpf4jnsgd1na2vs0mg"},{"bike_id":"a71670a8-a050-433a-92ae-b4d7f044601b","system_id":"levelo_inurba_marseille","lat":43.29865,"lon":5.39743,"is_reserved":false,"is_disabled":false,"rental_uris":{"android":"levelo://app?vid=a71670a8-a050-433a-92ae-b4d7f044601b","ios":"levelo://app?vid=a71670a8-a050-433a-92ae-b4d7f044601b"},"vehicle_type_id":"4","last_reported":1738231741,"current_range_meters":32400,"station_id":"ce4bh0h2rcd13ifvqd50","pricing_plan_id":"cebpf4jnsgd1na2vs0mg"},{"bike_id":"e13b7a82-8d03-471f-ac70-6a6d40fcbd32","system_id":"levelo_inurba_marseille","lat":43.29624,"lon":5.37164,"is_reserved":false,"is_disabled":true,"rental_uris":{"android":"levelo://app?vid=e13b7a82-8d03-471f-ac70-6a6d40fcbd32","ios":"levelo://app?vid=e13b7a82-8d03-471f-ac70-6a6d40fcbd32"},"vehicle_type_id":"4","last_reported":1738231741,"current_range_meters":0,"station_id":"ce4bgnh2rcd13ifvqc0g","pricing_plan_id":"cebpf4jnsgd1na2vs0mg"},{"bike_id":"fa6a1f45-8d44-499c-88d7-706a6b159e5a","system_id":"levelo_inurba_marseille","lat":43.27485,"lon":5.42472,"is_reserved":false,"is_disabled":false,"rental_uris":{"android":"levelo://app?vid=fa6a1f45-8d44-499c-88d7-706a6b159e5a","ios":"levelo://app?vid=fa6a1f45-8d44-499c-88d7-706a6b159e5a"},"vehicle_type_id":"4","last_reported":1738231741,"current_range_meters":25600,"station_id":"ce4bhn92rcd13ifvqgrg","pricing_plan_id":"cebpf4jnsgd1na2vs0mg"},{"bike_id":"a18667b7-7dd1-4163-9cf3-adff1c419d2f","system_id":"levelo_inurba_marseille","lat":43.32105,"lon":5.36775,"is_reserved":false,"is_disabled":false,"rental_uris":{"android":"levelo://app?vid=a18667b7-7dd1-4163-9cf3-adff1c419d2f","ios":"levelo://app?vid=a18667b7-7dd1-4163-9cf3-adff1c419d2f"},"vehicle_type_id":"4","last_reported":1738231741,"current_range_meters":33600,"station_id":"ce4bhrh2rcd13ifvqhug","pricing_plan_id":"cebpf4jnsgd1na2vs0mg"},{"bike_id":"21b52f6a-4d72-4210-8710-c5cde09123c4","system_id":"levelo_inurba_marseille","lat":43.2725,"lon":5.39185,"is_reserved":false,"is_disabled":false,"rental_uris":{"android":"levelo://app?vid=21b52f6a-4d72-4210-8710-c5cde09123c4","ios":"levelo://app?vid=21b52f6a-4d72-4210-8710-c5cde09123c4"},"vehicle_type_id":"4","last_reported":1738231741,"current_range_meters":38400,"station_id":"ce4bhgp2rcd13ifvqfe0","pricing_plan_id":"cebpf4jnsgd1na2vs0mg"},{"bike_id":"f34fcd93-0f66-400a-8f07-aa08bfa23861","system_id":"levelo_inurba_marseille","lat":43.25915,"lon":5.40879,"is_reserved":false,"is_disabled":false,"rental_uris":{"android":"levelo://app?vid=f34fcd93-0f66-400a-8f07-aa08bfa23861","ios":"levelo://app?vid=f34fcd93-0f66-400a-8f07-aa08bfa23861"},"vehicle_type_id":"4","last_reported":1738231741,"current_range_meters":3600,"station_id":"ce4bhm92rcd13ifvqglg","pricing_plan_id":"cebpf4jnsgd1na2vs0mg"},{"bike_id":"922932c3-4932-45c2-83d5-bbdf10300d25","system_id":"levelo_inurba_marseille","lat":43.27067,"lon":5.4228,"is_reserved":false,"is_disabled":false,"rental_uris":{"android":"levelo://app?vid=922932c3-4932-45c2-83d5-bbdf10300d25","ios":"levelo://app?vid=922932c3-4932-45c2-83d5-bbdf10300d25"},"vehicle_type_id":"4","last_reported":1738231741,"current_range_meters":20000,"station_id":"ce4bhk92rcd13ifvqgb0","pricing_plan_id":"cebpf4jnsgd1na2vs0mg"},{"bike_id":"606053f9-3da2-4594-b4df-8e24b5fa812c","system_id":"levelo_inurba_marseille","lat":43.3377,"lon":5.374,"is_reserved":false,"is_disabled":false,"rental_uris":{"android":"levelo://app?vid=606053f9-3da2-4594-b4df-8e24b5fa812c","ios":"levelo://app?vid=606053f9-3da2-4594-b4df-8e24b5fa812c"},"vehicle_type_id":"4","last_reported":1738231741,"current_range_meters":36800,"station_id":"","pricing_plan_id":"cebpf4jnsgd1na2vs0mg"},{"bike_id":"d56a711b-69d4-4adc-9e37-c0433b6c7d4b","system_id":"levelo_inurba_marseille","lat":43.27962,"lon":5.3869,"is_reserved":false,"is_disabled":false,"rental_uris":{"android":"levelo://app?vid=d56a711b-69d4-4adc-9e37-c0433b6c7d4b","ios":"levelo://app?vid=d56a711b-69d4-4adc-9e37-c0433b6c7d4b"},"vehicle_type_id":"4","last_reported":1738231741,"current_range_meters":28000,"station_id":"ce4bhg12rcd13ifvqf80","pricing_plan_id":"cebpf4jnsgd1na2vs0mg"},{"bike_id":"65947c22-ba81-4e4d-a055-8b063130a9cc","system_id":"levelo_inurba_marseille","lat":43.29037,"lon":5.3757,"is_reserved":false,"is_disabled":false,"rental_uris":{"android":"levelo://app?vid=65947c22-ba81-4e4d-a055-8b063130a9cc","ios":"levelo://app?vid=65947c22-ba81-4e4d-a055-8b063130a9cc"},"vehicle_type_id":"4","last_reported":1738231741,"current_range_meters":38800,"station_id":"ce4bh692rcd13ifvqe90","pricing_plan_id":"cebpf4jnsgd1na2vs0mg"},{"bike_id":"c52ee0d8-fc14-4a91-ad24-eeec1e8e0625","system_id":"levelo_inurba_marseille","lat":43.26196,"lon":5.37453,"is_reserved":false,"is_disabled":false,"rental_uris":{"android":"levelo://app?vid=c52ee0d8-fc14-4a91-ad24-eeec1e8e0625","ios":"levelo://app?vid=c52ee0d8-fc14-4a91-ad24-eeec1e8e0625"},"vehicle_type_id":"4","last_reported":1738231741,"current_range_meters":38800,"station_id":"ce4bhgp2rcd13ifvqfc0","pricing_plan_id":"cebpf4jnsgd1na2vs0mg"},{"bike_id":"dd5c5c45-05d7-435f-b329-97ebdf5c921f","system_id":"levelo_inurba_marseille","lat":43.25106,"lon":5.40331,"is_reserved":false,"is_disabled":false,"rental_uris":{"android":"levelo://app?vid=dd5c5c45-05d7-435f-b329-97ebdf5c921f","ios":"levelo://app?vid=dd5c5c45-05d7-435f-b329-97ebdf5c921f"},"vehicle_type_id":"4","last_reported":1738231741,"current_range_meters":38800,"station_id":"ce4bhlh2rcd13ifvqgig","pricing_plan_id":"cebpf4jnsgd1na2vs0mg"},{"bike_id":"970ebb06-ca9e-4f28-b8ba-dc0f942d608c","system_id":"levelo_inurba_marseille","lat":43.29727,"lon":5.37686,"is_reserved":false,"is_disabled":false,"rental_uris":{"android":"levelo://app?vid=970ebb06-ca9e-4f28-b8ba-dc0f942d608c","ios":"levelo://app?vid=970ebb06-ca9e-4f28-b8ba-dc0f942d608c"},"vehicle_type_id":"4","last_reported":1738231741,"current_range_meters":25600,"station_id":"ce4bgkh2rcd13ifvqbl0","pricing_plan_id":"cebpf4jnsgd1na2vs0mg"},{"bike_id":"720742d2-419d-457a-ab4d-f4f9f5327356","system_id":"levelo_inurba_marseille","lat":43.2791,"lon":5.39585,"is_reserved":false,"is_disabled":false,"rental_uris":{"android":"levelo://app?vid=720742d2-419d-457a-ab4d-f4f9f5327356","ios":"levelo://app?vid=720742d2-419d-457a-ab4d-f4f9f5327356"},"vehicle_type_id":"4","last_reported":1738231741,"current_range_meters":38800,"station_id":"ce4bhf92rcd13ifvqf40","pricing_plan_id":"cebpf4jnsgd1na2vs0mg"},{"bike_id":"869f6212-4f84-486f-9d80-8c51d1f89b20","system_id":"levelo_inurba_marseille","lat":43.30318,"lon":5.36898,"is_reserved":false,"is_disabled":false,"rental_uris":{"android":"levelo://app?vid=869f6212-4f84-486f-9d80-8c51d1f89b20","ios":"levelo://app?vid=869f6212-4f84-486f-9d80-8c51d1f89b20"},"vehicle_type_id":"4","last_reported":1738231741,"current_range_meters":18000,"station_id":"ce4bgqh2rcd13ifvqc5g","pricing_plan_id":"cebpf4jnsgd1na2vs0mg"},{"bike_id":"b0200477-ed7d-498d-bfdc-614c17cc03ae","system_id":"levelo_inurba_marseille","lat":43.27492,"lon":5.42448,"is_reserved":false,"is_disabled":false,"rental_uris":{"android":"levelo://app?vid=b0200477-ed7d-498d-bfdc-614c17cc03ae","ios":"levelo://app?vid=b0200477-ed7d-498d-bfdc-614c17cc03ae"},"vehicle_type_id":"4","last_reported":1738231741,"current_range_meters":5600,"station_id":"ce4bhn92rcd13ifvqgrg","pricing_plan_id":"cebpf4jnsgd1na2vs0mg"},{"bike_id":"13b6cb83-d1eb-4507-b35c-4a7049ffb5c9","system_id":"levelo_inurba_marseille","lat":43.29688,"lon":5.36619,"is_reserved":false,"is_disabled":false,"rental_uris":{"android":"levelo://app?vid=13b6cb83-d1eb-4507-b35c-4a7049ffb5c9","ios":"levelo://app?vid=13b6cb83-d1eb-4507-b35c-4a7049ffb5c9"},"vehicle_type_id":"4","last_reported":1738231741,"current_range_meters":38800,"station_id":"ce4bgn12rcd13ifvqbt0","pricing_plan_id":"cebpf4jnsgd1na2vs0mg"},{"bike_id":"9f7cbc3c-6e0b-4442-8c70-64c0b2a1452e","system_id":"levelo_inurba_marseille","lat":43.23051,"lon":5.35509,"is_reserved":false,"is_disabled":false,"rental_uris":{"android":"levelo://app?vid=9f7cbc3c-6e0b-4442-8c70-64c0b2a1452e","ios":"levelo://app?vid=9f7cbc3c-6e0b-4442-8c70-64c0b2a1452e"},"vehicle_type_id":"4","last_reported":1738231741,"current_range_meters":12400,"station_id":"cpo3342slgdg3j2ifvpg","pricing_plan_id":"cebpf4jnsgd1na2vs0mg"},{"bike_id":"c8a3a0ed-dff2-4f3c-87dc-2e6b47b1ad28","system_id":"levelo_inurba_marseille","lat":43.337444,"lon":5.374475,"is_reserved":false,"is_disabled":true,"rental_uris":{"android":"levelo://app?vid=c8a3a0ed-dff2-4f3c-87dc-2e6b47b1ad28","ios":"levelo://app?vid=c8a3a0ed-dff2-4f3c-87dc-2e6b47b1ad28"},"vehicle_type_id":"4","last_reported":1738231741,"current_range_meters":0,"station_id":"","pricing_plan_id":"cebpf4jnsgd1na2vs0mg"},{"bike_id":"4f3d0031-7ed8-4c31-997f-497e06761db9","system_id":"levelo_inurba_marseille","lat":43.3095,"lon":5.39045,"is_reserved":false,"is_disabled":false,"rental_uris":{"android":"levelo://app?vid=4f3d0031-7ed8-4c31-997f-497e06761db9","ios":"levelo://app?vid=4f3d0031-7ed8-4c31-997f-497e06761db9"},"vehicle_type_id":"4","last_reported":1738231741,"current_range_meters":35600,"station_id":"ce4bgup2rcd13ifvqco0","pricing_plan_id":"cebpf4jnsgd1na2vs0mg"},{"bike_id":"d6b02c53-f0cf-4b2a-a86f-01340b4cf04e","system_id":"levelo_inurba_marseille","lat":43.31367,"lon":5.38495,"is_reserved":false,"is_disabled":false,"rental_uris":{"android":"levelo://app?vid=d6b02c53-f0cf-4b2a-a86f-01340b4cf04e","ios":"levelo://app?vid=d6b02c53-f0cf-4b2a-a86f-01340b4cf04e"},"vehicle_type_id":"4","last_reported":1738231741,"current_range_meters":11600,"station_id":"ce4bgt92rcd13ifvqcf0","pricing_plan_id":"cebpf4jnsgd1na2vs0mg"},{"bike_id":"a1136793-8d81-4fa2-acaf-8adfa1f4829f","system_id":"levelo_inurba_marseille","lat":43.30084,"lon":5.39065,"is_reserved":false,"is_disabled":false,"rental_uris":{"android":"levelo://app?vid=a1136793-8d81-4fa2-acaf-8adfa1f4829f","ios":"levelo://app?vid=a1136793-8d81-4fa2-acaf-8adfa1f4829f"},"vehicle_type_id":"4","last_reported":1738231741,"current_range_meters":17600,"station_id":"ce4bh192rcd13ifvqdb0","pricing_plan_id":"cebpf4jnsgd1na2vs0mg"},{"bike_id":"ecc7d736-8dcc-4521-8ca5-10a9af95cf48","system_id":"levelo_inurba_marseille","lat":43.25917,"lon":5.40878,"is_reserved":false,"is_disabled":false,"rental_uris":{"android":"levelo://app?vid=ecc7d736-8dcc-4521-8ca5-10a9af95cf48","ios":"levelo://app?vid=ecc7d736-8dcc-4521-8ca5-10a9af95cf48"},"vehicle_type_id":"4","last_reported":1738231741,"current_range_meters":26800,"station_id":"ce4bhm92rcd13ifvqglg","pricing_plan_id":"cebpf4jnsgd1na2vs0mg"},{"bike_id":"05e57a95-2c98-4ceb-9388-74d754669e55","system_id":"levelo_inurba_marseille","lat":43.25862,"lon":5.39903,"is_reserved":false,"is_disabled":false,"rental_uris":{"android":"levelo://app?vid=05e57a95-2c98-4ceb-9388-74d754669e55","ios":"levelo://app?vid=05e57a95-2c98-4ceb-9388-74d754669e55"},"vehicle_type_id":"4","last_reported":1738231741,"current_range_meters":19600,"station_id":"ce4bhl92rcd13ifvqghg","pricing_plan_id":"cebpf4jnsgd1na2vs0mg"},{"bike_id":"32802d31-82e5-49aa-928e-45336ddb5e58","system_id":"levelo_inurba_marseille","lat":43.25003,"lon":5.38953,"is_reserved":false,"is_disabled":false,"rental_uris":{"android":"levelo://app?vid=32802d31-82e5-49aa-928e-45336ddb5e58","ios":"levelo://app?vid=32802d31-82e5-49aa-928e-45336ddb5e58"},"vehicle_type_id":"4","last_reported":1738231741,"current_range_meters":32800,"station_id":"ce4bhgp2rcd13ifvqfd0","pricing_plan_id":"cebpf4jnsgd1na2vs0mg"},{"bike_id":"50f2fffc-134d-4520-9a34-7ee4511d1680","system_id":"levelo_inurba_marseille","lat":43.3009,"lon":5.39074,"is_reserved":false,"is_disabled":false,"rental_uris":{"android":"levelo://app?vid=50f2fffc-134d-4520-9a34-7ee4511d1680","ios":"levelo://app?vid=50f2fffc-134d-4520-9a34-7ee4511d1680"},"vehicle_type_id":"4","last_reported":1738231741,"current_range_meters":34000,"station_id":"ce4bh192rcd13ifvqdb0","pricing_plan_id":"cebpf4jnsgd1na2vs0mg"},{"bike_id":"d1f7da50-0bb8-45f8-b5a6-455fd538f8f9","system_id":"levelo_inurba_marseille","lat":43.31172,"lon":5.38711,"is_reserved":false,"is_disabled":false,"rental_uris":{"android":"levelo://app?vid=d1f7da50-0bb8-45f8-b5a6-455fd538f8f9","ios":"levelo://app?vid=d1f7da50-0bb8-45f8-b5a6-455fd538f8f9"},"vehicle_type_id":"4","last_reported":1738231741,"current_range_meters":38800,"station_id":"ce4bgv12rcd13ifvqcp0","pricing_plan_id":"cebpf4jnsgd1na2vs0mg"},{"bike_id":"0a649012-b38e-4496-a990-1f48cf8875c6","system_id":"levelo_inurba_marseille","lat":43.28154,"lon":5.42649,"is_reserved":false,"is_disabled":false,"rental_uris":{"android":"levelo://app?vid=0a649012-b38e-4496-a990-1f48cf8875c6","ios":"levelo://app?vid=0a649012-b38e-4496-a990-1f48cf8875c6"},"vehicle_type_id":"4","last_reported":1738231741,"current_range_meters":6400,"station_id":"ce4bhnh2rcd13ifvqgug","pricing_plan_id":"cebpf4jnsgd1na2vs0mg"},{"bike_id":"2b05eb7b-8254-4758-ac4c-2d0c57fc0b1b","system_id":"levelo_inurba_marseille","lat":43.29011,"lon":5.35906,"is_reserved":false,"is_disabled":false,"rental_uris":{"android":"levelo://app?vid=2b05eb7b-8254-4758-ac4c-2d0c57fc0b1b","ios":"levelo://app?vid=2b05eb7b-8254-4758-ac4c-2d0c57fc0b1b"},"vehicle_type_id":"4","last_reported":1738231741,"current_range_meters":30800,"station_id":"ce4bha92rcd13ifvqeg0","pricing_plan_id":"cebpf4jnsgd1na2vs0mg"},{"bike_id":"c7b7da6b-f6b4-4989-8cde-53b2ceb0ada7","system_id":"levelo_inurba_marseille","lat":43.26559,"lon":5.37281,"is_reserved":false,"is_disabled":false,"rental_uris":{"android":"levelo://app?vid=c7b7da6b-f6b4-4989-8cde-53b2ceb0ada7","ios":"levelo://app?vid=c7b7da6b-f6b4-4989-8cde-53b2ceb0ada7"},"vehicle_type_id":"4","last_reported":1738231741,"current_range_meters":37600,"station_id":"ce4bhg12rcd13ifvqf70","pricing_plan_id":"cebpf4jnsgd1na2vs0mg"},{"bike_id":"9838cc78-2b53-49d3-ae13-82df62c4fd64","system_id":"levelo_inurba_marseille","lat":43.28412,"lon":5.40934,"is_reserved":false,"is_disabled":true,"rental_uris":{"android":"levelo://app?vid=9838cc78-2b53-49d3-ae13-82df62c4fd64","ios":"levelo://app?vid=9838cc78-2b53-49d3-ae13-82df62c4fd64"},"vehicle_type_id":"4","last_reported":1738231741,"current_range_meters":0,"station_id":"","pricing_plan_id":"cebpf4jnsgd1na2vs0mg"},{"bike_id":"01b09b24-35b0-4997-84bb-a5f9f7dc7468","system_id":"levelo_inurba_marseille","lat":43.273,"lon":5.39123,"is_reserved":false,"is_disabled":false,"rental_uris":{"android":"levelo://app?vid=01b09b24-35b0-4997-84bb-a5f9f7dc7468","ios":"levelo://app?vid=01b09b24-35b0-4997-84bb-a5f9f7dc7468"},"vehicle_type_id":"4","last_reported":1738231741,"current_range_meters":22000,"station_id":"ce4bhgp2rcd13ifvqfe0","pricing_plan_id":"cebpf4jnsgd1na2vs0mg"},{"bike_id":"0b1f4817-4c30-44b7-9201-5f8be66aeb19","system_id":"levelo_inurba_marseille","lat":43.28025,"lon":5.36965,"is_reserved":false,"is_disabled":false,"rental_uris":{"android":"levelo://app?vid=0b1f4817-4c30-44b7-9201-5f8be66aeb19","ios":"levelo://app?vid=0b1f4817-4c30-44b7-9201-5f8be66aeb19"},"vehicle_type_id":"4","last_reported":1738231741,"current_range_meters":39200,"station_id":"ce4bha12rcd13ifvqef0","pricing_plan_id":"cebpf4jnsgd1na2vs0mg"},{"bike_id":"16e2c309-fe3f-49bf-8662-c80333f7fce4","system_id":"levelo_inurba_marseille","lat":43.27242,"lon":5.39168,"is_reserved":false,"is_disabled":false,"rental_uris":{"android":"levelo://app?vid=16e2c309-fe3f-49bf-8662-c80333f7fce4","ios":"levelo://app?vid=16e2c309-fe3f-49bf-8662-c80333f7fce4"},"vehicle_type_id":"4","last_reported":1738231741,"current_range_meters":8400,"station_id":"ce4bhhp2rcd13ifvqfm0","pricing_plan_id":"cebpf4jnsgd1na2vs0mg"},{"bike_id":"1ccd41be-bad7-49e4-a474-044ebff9e373","system_id":"levelo_inurba_marseille","lat":43.30154,"lon":5.38088,"is_reserved":false,"is_disabled":false,"rental_uris":{"android":"levelo://app?vid=1ccd41be-bad7-49e4-a474-044ebff9e373","ios":"levelo://app?vid=1ccd41be-bad7-49e4-a474-044ebff9e373"},"vehicle_type_id":"4","last_reported":1738231741,"current_range_meters":18800,"station_id":"ce4bgjp2rcd13ifvqbh0","pricing_plan_id":"cebpf4jnsgd1na2vs0mg"},{"bike_id":"612c9f64-7a27-4c55-ba7a-b8b28905b7c7","system_id":"levelo_inurba_marseille","lat":43.2799,"lon":5.41658,"is_reserved":false,"is_disabled":false,"rental_uris":{"android":"levelo://app?vid=612c9f64-7a27-4c55-ba7a-b8b28905b7c7","ios":"levelo://app?vid=612c9f64-7a27-4c55-ba7a-b8b28905b7c7"},"vehicle_type_id":"4","last_reported":1738231741,"current_range_meters":38800,"station_id":"ce4bho12rcd13ifvqh1g","pricing_plan_id":"cebpf4jnsgd1na2vs0mg"},{"bike_id":"a6b336c6-34d6-4b26-bccf-abefa3771ff1","system_id":"levelo_inurba_marseille","lat":43.23154,"lon":5.43709,"is_reserved":false,"is_disabled":false,"rental_uris":{"android":"levelo://app?vid=a6b336c6-34d6-4b26-bccf-abefa3771ff1","ios":"levelo://app?vid=a6b336c6-34d6-4b26-bccf-abefa3771ff1"},"vehicle_type_id":"4","last_reported":1738231741,"current_range_meters":38800,"station_id":"ce4bhmp2rcd13ifvqgog","pricing_plan_id":"cebpf4jnsgd1na2vs0mg"},{"bike_id":"891284c1-a8ec-4865-96f8-f5be124b0e9d","system_id":"levelo_inurba_marseille","lat":43.31379,"lon":5.36683,"is_reserved":false,"is_disabled":false,"rental_uris":{"android":"levelo://app?vid=891284c1-a8ec-4865-96f8-f5be124b0e9d","ios":"levelo://app?vid=891284c1-a8ec-4865-96f8-f5be124b0e9d"},"vehicle_type_id":"4","last_reported":1738231741,"current_range_meters":3600,"station_id":"ce4bgr92rcd13ifvqc6g","pricing_plan_id":"cebpf4jnsgd1na2vs0mg"},{"bike_id":"aee1d554-00f9-4e38-b5d9-237fed7e5fca","system_id":"levelo_inurba_marseille","lat":43.29843,"lon":5.362753,"is_reserved":false,"is_disabled":false,"rental_uris":{"android":"levelo://app?vid=aee1d554-00f9-4e38-b5d9-237fed7e5fca","ios":"levelo://app?vid=aee1d554-00f9-4e38-b5d9-237fed7e5fca"},"vehicle_type_id":"4","last_reported":1738231741,"current_range_meters":38000,"station_id":"ce4bgpp2rcd13ifvqc3g","pricing_plan_id":"cebpf4jnsgd1na2vs0mg"},{"bike_id":"0270c8e1-3c21-470c-bda1-717d900bdda6","system_id":"levelo_inurba_marseille","lat":43.2695,"lon":5.40273,"is_reserved":false,"is_disabled":false,"rental_uris":{"android":"levelo://app?vid=0270c8e1-3c21-470c-bda1-717d900bdda6","ios":"levelo://app?vid=0270c8e1-3c21-470c-bda1-717d900bdda6"},"vehicle_type_id":"4","last_reported":1738231741,"current_range_meters":37600,"station_id":"cjm6bp8fraef2m0cb0m0","pricing_plan_id":"cebpf4jnsgd1na2vs0mg"},{"bike_id":"78e309f5-beb4-40fa-8263-71befb9e09e2","system_id":"levelo_inurba_marseille","lat":43.27472,"lon":5.42487,"is_reserved":false,"is_disabled":false,"rental_uris":{"android":"levelo://app?vid=78e309f5-beb4-40fa-8263-71befb9e09e2","ios":"levelo://app?vid=78e309f5-beb4-40fa-8263-71befb9e09e2"},"vehicle_type_id":"4","last_reported":1738231741,"current_range_meters":17600,"station_id":"ce4bhn92rcd13ifvqgrg","pricing_plan_id":"cebpf4jnsgd1na2vs0mg"},{"bike_id":"8316cb10-023d-4bec-a7d1-c688e60191c8","system_id":"levelo_inurba_marseille","lat":43.28172,"lon":5.42652,"is_reserved":false,"is_disabled":false,"rental_uris":{"android":"levelo://app?vid=8316cb10-023d-4bec-a7d1-c688e60191c8","ios":"levelo://app?vid=8316cb10-023d-4bec-a7d1-c688e60191c8"},"vehicle_type_id":"4","last_reported":1738231741,"current_range_meters":10800,"station_id":"ce4bhnh2rcd13ifvqgug","pricing_plan_id":"cebpf4jnsgd1na2vs0mg"},{"bike_id":"43cda217-14ed-4801-819f-f1965303a677","system_id":"levelo_inurba_marseille","lat":43.29525,"lon":5.4231,"is_reserved":false,"is_disabled":false,"rental_uris":{"android":"levelo://app?vid=43cda217-14ed-4801-819f-f1965303a677","ios":"levelo://app?vid=43cda217-14ed-4801-819f-f1965303a677"},"vehicle_type_id":"4","last_reported":1738231741,"current_range_meters":16000,"station_id":"ce4bhph2rcd13ifvqhdg","pricing_plan_id":"cebpf4jnsgd1na2vs0mg"},{"bike_id":"9e00aafe-aeb8-46b9-b8bb-14707274ee0e","system_id":"levelo_inurba_marseille","lat":43.3053,"lon":5.36579,"is_reserved":false,"is_disabled":false,"rental_uris":{"android":"levelo://app?vid=9e00aafe-aeb8-46b9-b8bb-14707274ee0e","ios":"levelo://app?vid=9e00aafe-aeb8-46b9-b8bb-14707274ee0e"},"vehicle_type_id":"4","last_reported":1738231741,"current_range_meters":38800,"station_id":"ce4bgs12rcd13ifvqcag","pricing_plan_id":"cebpf4jnsgd1na2vs0mg"},{"bike_id":"c96171cd-19f1-4f60-b899-de9fa14241a2","system_id":"levelo_inurba_marseille","lat":43.26489,"lon":5.39551,"is_reserved":false,"is_disabled":false,"rental_uris":{"android":"levelo://app?vid=c96171cd-19f1-4f60-b899-de9fa14241a2","ios":"levelo://app?vid=c96171cd-19f1-4f60-b899-de9fa14241a2"},"vehicle_type_id":"4","last_reported":1738231741,"current_range_meters":35600,"station_id":"ce4bhi12rcd13ifvqfq0","pricing_plan_id":"cebpf4jnsgd1na2vs0mg"},{"bike_id":"d979d8d2-ec65-47af-9229-e4270aab279a","system_id":"levelo_inurba_marseille","lat":43.23063,"lon":5.35497,"is_reserved":false,"is_disabled":false,"rental_uris":{"android":"levelo://app?vid=d979d8d2-ec65-47af-9229-e4270aab279a","ios":"levelo://app?vid=d979d8d2-ec65-47af-9229-e4270aab279a"},"vehicle_type_id":"4","last_reported":1738231741,"current_range_meters":14800,"station_id":"cpo3342slgdg3j2ifvpg","pricing_plan_id":"cebpf4jnsgd1na2vs0mg"},{"bike_id":"72fb6c3d-ab9b-438d-9161-f3042c3f00fc","system_id":"levelo_inurba_marseille","lat":43.32398,"lon":5.36994,"is_reserved":false,"is_disabled":true,"rental_uris":{"android":"levelo://app?vid=72fb6c3d-ab9b-438d-9161-f3042c3f00fc","ios":"levelo://app?vid=72fb6c3d-ab9b-438d-9161-f3042c3f00fc"},"vehicle_type_id":"4","last_reported":1738231741,"current_range_meters":38400,"station_id":"","pricing_plan_id":"cebpf4jnsgd1na2vs0mg"},{"bike_id":"e18968ad-2f35-4200-bb0b-9ff1d852931b","system_id":"levelo_inurba_marseille","lat":43.30531,"lon":5.36606,"is_reserved":false,"is_disabled":false,"rental_uris":{"android":"levelo://app?vid=e18968ad-2f35-4200-bb0b-9ff1d852931b","ios":"levelo://app?vid=e18968ad-2f35-4200-bb0b-9ff1d852931b"},"vehicle_type_id":"4","last_reported":1738231741,"current_range_meters":38400,"station_id":"ce4bgs12rcd13ifvqcag","pricing_plan_id":"cebpf4jnsgd1na2vs0mg"},{"bike_id":"28fe63c8-8f1f-4ef0-b5b6-e46078c21448","system_id":"levelo_inurba_marseille","lat":43.25823,"lon":5.39436,"is_reserved":false,"is_disabled":false,"rental_uris":{"android":"levelo://app?vid=28fe63c8-8f1f-4ef0-b5b6-e46078c21448","ios":"levelo://app?vid=28fe63c8-8f1f-4ef0-b5b6-e46078c21448"},"vehicle_type_id":"4","last_reported":1738231741,"current_range_meters":38800,"station_id":"ce4bhip2rcd13ifvqft0","pricing_plan_id":"cebpf4jnsgd1na2vs0mg"},{"bike_id":"7d6260ec-6d8c-4d5b-8950-1a493871014c","system_id":"levelo_inurba_marseille","lat":43.29903,"lon":5.4368,"is_reserved":false,"is_disabled":false,"rental_uris":{"android":"levelo://app?vid=7d6260ec-6d8c-4d5b-8950-1a493871014c","ios":"levelo://app?vid=7d6260ec-6d8c-4d5b-8950-1a493871014c"},"vehicle_type_id":"4","last_reported":1738231741,"current_range_meters":35200,"station_id":"ce4bhpp2rcd13ifvqhfg","pricing_plan_id":"cebpf4jnsgd1na2vs0mg"},{"bike_id":"cd809f94-5358-4489-9b94-66123c0ec66d","system_id":"levelo_inurba_marseille","lat":43.27953,"lon":5.38719,"is_reserved":false,"is_disabled":false,"rental_uris":{"android":"levelo://app?vid=cd809f94-5358-4489-9b94-66123c0ec66d","ios":"levelo://app?vid=cd809f94-5358-4489-9b94-66123c0ec66d"},"vehicle_type_id":"4","last_reported":1738231741,"current_range_meters":16000,"station_id":"ce4bhg12rcd13ifvqf80","pricing_plan_id":"cebpf4jnsgd1na2vs0mg"},{"bike_id":"6be92d7d-a8c1-4c68-9c57-5f393165cf28","system_id":"levelo_inurba_marseille","lat":43.27038,"lon":5.42397,"is_reserved":false,"is_disabled":false,"rental_uris":{"android":"levelo://app?vid=6be92d7d-a8c1-4c68-9c57-5f393165cf28","ios":"levelo://app?vid=6be92d7d-a8c1-4c68-9c57-5f393165cf28"},"vehicle_type_id":"4","last_reported":1738231741,"current_range_meters":38800,"station_id":"ce4bhk92rcd13ifvqgb0","pricing_plan_id":"cebpf4jnsgd1na2vs0mg"},{"bike_id":"79dc36a2-2967-4cc7-bd0f-6a8c14dc3709","system_id":"levelo_inurba_marseille","lat":43.29775,"lon":5.36458,"is_reserved":false,"is_disabled":false,"rental_uris":{"android":"levelo://app?vid=79dc36a2-2967-4cc7-bd0f-6a8c14dc3709","ios":"levelo://app?vid=79dc36a2-2967-4cc7-bd0f-6a8c14dc3709"},"vehicle_type_id":"4","last_reported":1738231741,"current_range_meters":18800,"station_id":"ce4bgpp2rcd13ifvqc3g","pricing_plan_id":"cebpf4jnsgd1na2vs0mg"},{"bike_id":"eefc525c-9394-472c-9a07-edfaa88e8928","system_id":"levelo_inurba_marseille","lat":43.2499,"lon":5.38953,"is_reserved":false,"is_disabled":false,"rental_uris":{"android":"levelo://app?vid=eefc525c-9394-472c-9a07-edfaa88e8928","ios":"levelo://app?vid=eefc525c-9394-472c-9a07-edfaa88e8928"},"vehicle_type_id":"4","last_reported":1738231741,"current_range_meters":28000,"station_id":"ce4bhgp2rcd13ifvqfd0","pricing_plan_id":"cebpf4jnsgd1na2vs0mg"},{"bike_id":"f820163d-435a-4c98-9dfc-775bb5d39aac","system_id":"levelo_inurba_marseille","lat":43.2315,"lon":5.43721,"is_reserved":false,"is_disabled":false,"rental_uris":{"android":"levelo://app?vid=f820163d-435a-4c98-9dfc-775bb5d39aac","ios":"levelo://app?vid=f820163d-435a-4c98-9dfc-775bb5d39aac"},"vehicle_type_id":"4","last_reported":1738231741,"current_range_meters":9200,"station_id":"ce4bhmp2rcd13ifvqgog","pricing_plan_id":"cebpf4jnsgd1na2vs0mg"},{"bike_id":"d8b1c3f9-ff6e-4179-8423-4ba0d2a2af0e","system_id":"levelo_inurba_marseille","lat":43.33707,"lon":5.39239,"is_reserved":false,"is_disabled":false,"rental_uris":{"android":"levelo://app?vid=d8b1c3f9-ff6e-4179-8423-4ba0d2a2af0e","ios":"levelo://app?vid=d8b1c3f9-ff6e-4179-8423-4ba0d2a2af0e"},"vehicle_type_id":"4","last_reported":1738231741,"current_range_meters":38800,"station_id":"ce4bhr92rcd13ifvqhsg","pricing_plan_id":"cebpf4jnsgd1na2vs0mg"},{"bike_id":"8fbfaa87-4997-43f3-8d71-b30fc64a490f","system_id":"levelo_inurba_marseille","lat":43.3372,"lon":5.39209,"is_reserved":false,"is_disabled":false,"rental_uris":{"android":"levelo://app?vid=8fbfaa87-4997-43f3-8d71-b30fc64a490f","ios":"levelo://app?vid=8fbfaa87-4997-43f3-8d71-b30fc64a490f"},"vehicle_type_id":"4","last_reported":1738231741,"current_range_meters":39200,"station_id":"ce4bhr92rcd13ifvqhsg","pricing_plan_id":"cebpf4jnsgd1na2vs0mg"},{"bike_id":"40480e75-e0f3-44fe-870b-eeb01551f182","system_id":"levelo_inurba_marseille","lat":43.32493,"lon":5.41469,"is_reserved":false,"is_disabled":false,"rental_uris":{"android":"levelo://app?vid=40480e75-e0f3-44fe-870b-eeb01551f182","ios":"levelo://app?vid=40480e75-e0f3-44fe-870b-eeb01551f182"},"vehicle_type_id":"4","last_reported":1738231741,"current_range_meters":38800,"station_id":"ce4bhq12rcd13ifvqhhg","pricing_plan_id":"cebpf4jnsgd1na2vs0mg"},{"bike_id":"ccb6318c-6994-46f1-b382-d420e97e4a87","system_id":"levelo_inurba_marseille","lat":43.27185,"lon":5.39217,"is_reserved":false,"is_disabled":true,"rental_uris":{"android":"levelo://app?vid=ccb6318c-6994-46f1-b382-d420e97e4a87","ios":"levelo://app?vid=ccb6318c-6994-46f1-b382-d420e97e4a87"},"vehicle_type_id":"4","last_reported":1738231741,"current_range_meters":34800,"station_id":"ce4bhhp2rcd13ifvqfm0","pricing_plan_id":"cebpf4jnsgd1na2vs0mg"},{"bike_id":"c6b22e63-3112-4b18-a4bd-a7ccda40bad7","system_id":"levelo_inurba_marseille","lat":43.29904,"lon":5.38144,"is_reserved":false,"is_disabled":false,"rental_uris":{"android":"levelo://app?vid=c6b22e63-3112-4b18-a4bd-a7ccda40bad7","ios":"levelo://app?vid=c6b22e63-3112-4b18-a4bd-a7ccda40bad7"},"vehicle_type_id":"4","last_reported":1738231741,"current_range_meters":25600,"station_id":"ce4bgj12rcd13ifvqbc0","pricing_plan_id":"cebpf4jnsgd1na2vs0mg"},{"bike_id":"fa3dd353-aa33-4c66-9a77-d64de75adc68","system_id":"levelo_inurba_marseille","lat":43.336045,"lon":5.409958,"is_reserved":false,"is_disabled":false,"rental_uris":{"android":"levelo://app?vid=fa3dd353-aa33-4c66-9a77-d64de75adc68","ios":"levelo://app?vid=fa3dd353-aa33-4c66-9a77-d64de75adc68"},"vehicle_type_id":"4","last_reported":1738231741,"current_range_meters":38800,"station_id":"ce4bhqh2rcd13ifvqhmg","pricing_plan_id":"cebpf4jnsgd1na2vs0mg"},{"bike_id":"b56534f8-577f-4250-914f-e0db70a64414","system_id":"levelo_inurba_marseille","lat":43.32473,"lon":5.36553,"is_reserved":false,"is_disabled":false,"rental_uris":{"android":"levelo://app?vid=b56534f8-577f-4250-914f-e0db70a64414","ios":"levelo://app?vid=b56534f8-577f-4250-914f-e0db70a64414"},"vehicle_type_id":"4","last_reported":1738231741,"current_range_meters":9200,"station_id":"ce4bhs12rcd13ifvqhvg","pricing_plan_id":"cebpf4jnsgd1na2vs0mg"},{"bike_id":"7a6fc873-53f3-43c8-be09-2d7549c060bc","system_id":"levelo_inurba_marseille","lat":43.2796,"lon":5.38767,"is_reserved":false,"is_disabled":false,"rental_uris":{"android":"levelo://app?vid=7a6fc873-53f3-43c8-be09-2d7549c060bc","ios":"levelo://app?vid=7a6fc873-53f3-43c8-be09-2d7549c060bc"},"vehicle_type_id":"4","last_reported":1738231741,"current_range_meters":38800,"station_id":"ce4bhg12rcd13ifvqf80","pricing_plan_id":"cebpf4jnsgd1na2vs0mg"},{"bike_id":"3c9c9088-9c27-4609-bc62-8218c0dc2be8","system_id":"levelo_inurba_marseille","lat":43.23189,"lon":5.35564,"is_reserved":false,"is_disabled":false,"rental_uris":{"android":"levelo://app?vid=3c9c9088-9c27-4609-bc62-8218c0dc2be8","ios":"levelo://app?vid=3c9c9088-9c27-4609-bc62-8218c0dc2be8"},"vehicle_type_id":"4","last_reported":1738231741,"current_range_meters":38800,"station_id":"ce4bhu92rcd13ifvqi70","pricing_plan_id":"cebpf4jnsgd1na2vs0mg"},{"bike_id":"b9761958-12f1-468f-89db-702aebbc1660","system_id":"levelo_inurba_marseille","lat":43.31887,"lon":5.40737,"is_reserved":false,"is_disabled":false,"rental_uris":{"android":"levelo://app?vid=b9761958-12f1-468f-89db-702aebbc1660","ios":"levelo://app?vid=b9761958-12f1-468f-89db-702aebbc1660"},"vehicle_type_id":"4","last_reported":1738231741,"current_range_meters":19600,"station_id":"ce4bhq12rcd13ifvqhig","pricing_plan_id":"cebpf4jnsgd1na2vs0mg"},{"bike_id":"9a6334c1-2529-46f5-9be3-482365ba227d","system_id":"levelo_inurba_marseille","lat":43.30149,"lon":5.38072,"is_reserved":false,"is_disabled":false,"rental_uris":{"android":"levelo://app?vid=9a6334c1-2529-46f5-9be3-482365ba227d","ios":"levelo://app?vid=9a6334c1-2529-46f5-9be3-482365ba227d"},"vehicle_type_id":"4","last_reported":1738231741,"current_range_meters":30000,"station_id":"ce4bgjp2rcd13ifvqbh0","pricing_plan_id":"cebpf4jnsgd1na2vs0mg"},{"bike_id":"fa2f1c21-3bfc-46ef-bcba-588774df180a","system_id":"levelo_inurba_marseille","lat":43.25864,"lon":5.39909,"is_reserved":false,"is_disabled":false,"rental_uris":{"android":"levelo://app?vid=fa2f1c21-3bfc-46ef-bcba-588774df180a","ios":"levelo://app?vid=fa2f1c21-3bfc-46ef-bcba-588774df180a"},"vehicle_type_id":"4","last_reported":1738231741,"current_range_meters":27600,"station_id":"ce4bhl92rcd13ifvqghg","pricing_plan_id":"cebpf4jnsgd1na2vs0mg"},{"bike_id":"75ff8319-3a07-4262-a5cc-f0f6983525d0","system_id":"levelo_inurba_marseille","lat":43.3091,"lon":5.36856,"is_reserved":false,"is_disabled":false,"rental_uris":{"android":"levelo://app?vid=75ff8319-3a07-4262-a5cc-f0f6983525d0","ios":"levelo://app?vid=75ff8319-3a07-4262-a5cc-f0f6983525d0"},"vehicle_type_id":"4","last_reported":1738231741,"current_range_meters":17200,"station_id":"ce4bgn92rcd13ifvqbvg","pricing_plan_id":"cebpf4jnsgd1na2vs0mg"},{"bike_id":"bb6390c0-60fb-42b3-a544-cdbf1d86734d","system_id":"levelo_inurba_marseille","lat":43.26804,"lon":5.40261,"is_reserved":false,"is_disabled":true,"rental_uris":{"android":"levelo://app?vid=bb6390c0-60fb-42b3-a544-cdbf1d86734d","ios":"levelo://app?vid=bb6390c0-60fb-42b3-a544-cdbf1d86734d"},"vehicle_type_id":"4","last_reported":1738231741,"current_range_meters":36000,"station_id":"ce501612rcd8frsf0b60","pricing_plan_id":"cebpf4jnsgd1na2vs0mg"},{"bike_id":"a5aa450d-9f62-459d-aeea-36f763e16bed","system_id":"levelo_inurba_marseille","lat":43.30135,"lon":5.3743,"is_reserved":false,"is_disabled":false,"rental_uris":{"android":"levelo://app?vid=a5aa450d-9f62-459d-aeea-36f763e16bed","ios":"levelo://app?vid=a5aa450d-9f62-459d-aeea-36f763e16bed"},"vehicle_type_id":"4","last_reported":1738231741,"current_range_meters":22800,"station_id":"ce4bgs92rcd13ifvqcc0","pricing_plan_id":"cebpf4jnsgd1na2vs0mg"},{"bike_id":"df62b580-caed-4cb2-8181-370c95688e0a","system_id":"levelo_inurba_marseille","lat":43.31878,"lon":5.40743,"is_reserved":false,"is_disabled":false,"rental_uris":{"android":"levelo://app?vid=df62b580-caed-4cb2-8181-370c95688e0a","ios":"levelo://app?vid=df62b580-caed-4cb2-8181-370c95688e0a"},"vehicle_type_id":"4","last_reported":1738231741,"current_range_meters":27600,"station_id":"ce4bhq12rcd13ifvqhig","pricing_plan_id":"cebpf4jnsgd1na2vs0mg"},{"bike_id":"e74f24e1-add2-4635-a51d-5692fff267ad","system_id":"levelo_inurba_marseille","lat":43.30254,"lon":5.37751,"is_reserved":false,"is_disabled":false,"rental_uris":{"android":"levelo://app?vid=e74f24e1-add2-4635-a51d-5692fff267ad","ios":"levelo://app?vid=e74f24e1-add2-4635-a51d-5692fff267ad"},"vehicle_type_id":"4","last_reported":1738231741,"current_range_meters":32400,"station_id":"ce4bguh2rcd13ifvqcj0","pricing_plan_id":"cebpf4jnsgd1na2vs0mg"},{"bike_id":"2a383ad9-0569-43c1-8b05-9e53667940de","system_id":"levelo_inurba_marseille","lat":43.3117,"lon":5.38716,"is_reserved":false,"is_disabled":false,"rental_uris":{"android":"levelo://app?vid=2a383ad9-0569-43c1-8b05-9e53667940de","ios":"levelo://app?vid=2a383ad9-0569-43c1-8b05-9e53667940de"},"vehicle_type_id":"4","last_reported":1738231741,"current_range_meters":12400,"station_id":"ce4bgv12rcd13ifvqcp0","pricing_plan_id":"cebpf4jnsgd1na2vs0mg"},{"bike_id":"aa8684a0-4372-4167-987c-97a064c030c1","system_id":"levelo_inurba_marseille","lat":43.296154,"lon":5.371656,"is_reserved":false,"is_disabled":true,"rental_uris":{"android":"levelo://app?vid=aa8684a0-4372-4167-987c-97a064c030c1","ios":"levelo://app?vid=aa8684a0-4372-4167-987c-97a064c030c1"},"vehicle_type_id":"4","last_reported":1738231741,"current_range_meters":1200,"station_id":"ce4bgnh2rcd13ifvqc0g","pricing_plan_id":"cebpf4jnsgd1na2vs0mg"},{"bike_id":"b90a4d16-de0d-40d7-b0e7-9cd2f50ee6eb","system_id":"levelo_inurba_marseille","lat":43.28269,"lon":5.3507,"is_reserved":false,"is_disabled":false,"rental_uris":{"android":"levelo://app?vid=b90a4d16-de0d-40d7-b0e7-9cd2f50ee6eb","ios":"levelo://app?vid=b90a4d16-de0d-40d7-b0e7-9cd2f50ee6eb"},"vehicle_type_id":"4","last_reported":1738231741,"current_range_meters":23200,"station_id":"ce4bhbp2rcd13ifvqerg","pricing_plan_id":"cebpf4jnsgd1na2vs0mg"},{"bike_id":"08743a1b-760a-40ce-9b81-d210486b71d7","system_id":"levelo_inurba_marseille","lat":43.31714,"lon":5.37746,"is_reserved":false,"is_disabled":false,"rental_uris":{"android":"levelo://app?vid=08743a1b-760a-40ce-9b81-d210486b71d7","ios":"levelo://app?vid=08743a1b-760a-40ce-9b81-d210486b71d7"},"vehicle_type_id":"4","last_reported":1738231741,"current_range_meters":4000,"station_id":"ce4bgth2rcd13ifvqch0","pricing_plan_id":"cebpf4jnsgd1na2vs0mg"},{"bike_id":"9061c30b-f0f7-46e3-8477-d3c2c36b1f53","system_id":"levelo_inurba_marseille","lat":43.28043,"lon":5.36945,"is_reserved":false,"is_disabled":true,"rental_uris":{"android":"levelo://app?vid=9061c30b-f0f7-46e3-8477-d3c2c36b1f53","ios":"levelo://app?vid=9061c30b-f0f7-46e3-8477-d3c2c36b1f53"},"vehicle_type_id":"4","last_reported":1738231741,"current_range_meters":37600,"station_id":"ce4bha12rcd13ifvqef0","pricing_plan_id":"cebpf4jnsgd1na2vs0mg"},{"bike_id":"e9615173-e243-4e0b-87f3-8252e7329286","system_id":"levelo_inurba_marseille","lat":43.24169,"lon":5.39737,"is_reserved":false,"is_disabled":false,"rental_uris":{"android":"levelo://app?vid=e9615173-e243-4e0b-87f3-8252e7329286","ios":"levelo://app?vid=e9615173-e243-4e0b-87f3-8252e7329286"},"vehicle_type_id":"4","last_reported":1738231741,"current_range_meters":6800,"station_id":"ce4bhn12rcd13ifvqgpg","pricing_plan_id":"cebpf4jnsgd1na2vs0mg"},{"bike_id":"fba05ad0-85c5-4e7a-a917-4b9c8e256fa2","system_id":"levelo_inurba_marseille","lat":43.31217,"lon":5.36857,"is_reserved":false,"is_disabled":false,"rental_uris":{"android":"levelo://app?vid=fba05ad0-85c5-4e7a-a917-4b9c8e256fa2","ios":"levelo://app?vid=fba05ad0-85c5-4e7a-a917-4b9c8e256fa2"},"vehicle_type_id":"4","last_reported":1738231741,"current_range_meters":38400,"station_id":"ce4bgl92rcd13ifvqbq0","pricing_plan_id":"cebpf4jnsgd1na2vs0mg"},{"bike_id":"ab2c796a-c23b-4a3a-9534-777b873d6a05","system_id":"levelo_inurba_marseille","lat":43.24169,"lon":5.36412,"is_reserved":false,"is_disabled":false,"rental_uris":{"android":"levelo://app?vid=ab2c796a-c23b-4a3a-9534-777b873d6a05","ios":"levelo://app?vid=ab2c796a-c23b-4a3a-9534-777b873d6a05"},"vehicle_type_id":"4","last_reported":1738231741,"current_range_meters":11200,"station_id":"cpo36qri1sfpv3e86is0","pricing_plan_id":"cebpf4jnsgd1na2vs0mg"},{"bike_id":"052e71f8-8a18-4745-b108-b864fdb89cd2","system_id":"levelo_inurba_marseille","lat":43.31998,"lon":5.38169,"is_reserved":false,"is_disabled":false,"rental_uris":{"android":"levelo://app?vid=052e71f8-8a18-4745-b108-b864fdb89cd2","ios":"levelo://app?vid=052e71f8-8a18-4745-b108-b864fdb89cd2"},"vehicle_type_id":"4","last_reported":1738231741,"current_range_meters":38000,"station_id":"ce4bhr12rcd13ifvqhpg","pricing_plan_id":"cebpf4jnsgd1na2vs0mg"},{"bike_id":"1a6478b4-ab2b-4cfe-a18f-199e7f6eb0b4","system_id":"levelo_inurba_marseille","lat":43.29868,"lon":5.3974,"is_reserved":false,"is_disabled":false,"rental_uris":{"android":"levelo://app?vid=1a6478b4-ab2b-4cfe-a18f-199e7f6eb0b4","ios":"levelo://app?vid=1a6478b4-ab2b-4cfe-a18f-199e7f6eb0b4"},"vehicle_type_id":"4","last_reported":1738231741,"current_range_meters":24400,"station_id":"ce4bh0h2rcd13ifvqd50","pricing_plan_id":"cebpf4jnsgd1na2vs0mg"},{"bike_id":"86265247-bcfd-4407-bfdd-54da4c7c274b","system_id":"levelo_inurba_marseille","lat":43.24799,"lon":5.37467,"is_reserved":false,"is_disabled":false,"rental_uris":{"android":"levelo://app?vid=86265247-bcfd-4407-bfdd-54da4c7c274b","ios":"levelo://app?vid=86265247-bcfd-4407-bfdd-54da4c7c274b"},"vehicle_type_id":"4","last_reported":1738231741,"current_range_meters":3600,"station_id":"ce4bhgh2rcd13ifvqfb0","pricing_plan_id":"cebpf4jnsgd1na2vs0mg"},{"bike_id":"c92eb9b6-3abe-454a-95ff-038d979b69f3","system_id":"levelo_inurba_marseille","lat":43.28946,"lon":5.36391,"is_reserved":false,"is_disabled":false,"rental_uris":{"android":"levelo://app?vid=c92eb9b6-3abe-454a-95ff-038d979b69f3","ios":"levelo://app?vid=c92eb9b6-3abe-454a-95ff-038d979b69f3"},"vehicle_type_id":"4","last_reported":1738231741,"current_range_meters":36000,"station_id":"ce4bhc92rcd13ifvqetg","pricing_plan_id":"cebpf4jnsgd1na2vs0mg"},{"bike_id":"a75814d5-ded5-4715-91ac-a6c1b3396ae0","system_id":"levelo_inurba_marseille","lat":43.29358,"lon":5.37876,"is_reserved":false,"is_disabled":false,"rental_uris":{"android":"levelo://app?vid=a75814d5-ded5-4715-91ac-a6c1b3396ae0","ios":"levelo://app?vid=a75814d5-ded5-4715-91ac-a6c1b3396ae0"},"vehicle_type_id":"4","last_reported":1738231741,"current_range_meters":37600,"station_id":"ce4bgjh2rcd13ifvqbf0","pricing_plan_id":"cebpf4jnsgd1na2vs0mg"},{"bike_id":"c2cf120a-c6eb-4fdd-a373-943473eea38d","system_id":"levelo_inurba_marseille","lat":43.24542,"lon":5.3954,"is_reserved":false,"is_disabled":false,"rental_uris":{"android":"levelo://app?vid=c2cf120a-c6eb-4fdd-a373-943473eea38d","ios":"levelo://app?vid=c2cf120a-c6eb-4fdd-a373-943473eea38d"},"vehicle_type_id":"4","last_reported":1738231741,"current_range_meters":37600,"station_id":"ce4bhlp2rcd13ifvqgjg","pricing_plan_id":"cebpf4jnsgd1na2vs0mg"},{"bike_id":"b141262b-93fe-4963-a788-03ad7c9b2213","system_id":"levelo_inurba_marseille","lat":43.26553,"lon":5.3731,"is_reserved":false,"is_disabled":false,"rental_uris":{"android":"levelo://app?vid=b141262b-93fe-4963-a788-03ad7c9b2213","ios":"levelo://app?vid=b141262b-93fe-4963-a788-03ad7c9b2213"},"vehicle_type_id":"4","last_reported":1738231741,"current_range_meters":19200,"station_id":"ce4bhg12rcd13ifvqf70","pricing_plan_id":"cebpf4jnsgd1na2vs0mg"},{"bike_id":"615a0747-8d06-4fbf-b735-2ce44cc12594","system_id":"levelo_inurba_marseille","lat":43.32354,"lon":5.38875,"is_reserved":false,"is_disabled":false,"rental_uris":{"android":"levelo://app?vid=615a0747-8d06-4fbf-b735-2ce44cc12594","ios":"levelo://app?vid=615a0747-8d06-4fbf-b735-2ce44cc12594"},"vehicle_type_id":"4","last_reported":1738231741,"current_range_meters":16400,"station_id":"ce4bhqp2rcd13ifvqhog","pricing_plan_id":"cebpf4jnsgd1na2vs0mg"},{"bike_id":"940d189d-6721-4f82-bae1-5a9e9e8ab03b","system_id":"levelo_inurba_marseille","lat":43.30906,"lon":5.36856,"is_reserved":false,"is_disabled":false,"rental_uris":{"android":"levelo://app?vid=940d189d-6721-4f82-bae1-5a9e9e8ab03b","ios":"levelo://app?vid=940d189d-6721-4f82-bae1-5a9e9e8ab03b"},"vehicle_type_id":"4","last_reported":1738231741,"current_range_meters":22000,"station_id":"ce4bgn92rcd13ifvqbvg","pricing_plan_id":"cebpf4jnsgd1na2vs0mg"},{"bike_id":"3afe2907-14fe-40b0-8ce8-247215ed16c8","system_id":"levelo_inurba_marseille","lat":43.26919,"lon":5.3893,"is_reserved":false,"is_disabled":true,"rental_uris":{"android":"levelo://app?vid=3afe2907-14fe-40b0-8ce8-247215ed16c8","ios":"levelo://app?vid=3afe2907-14fe-40b0-8ce8-247215ed16c8"},"vehicle_type_id":"4","last_reported":1738231741,"current_range_meters":0,"station_id":"ce4bhhh2rcd13ifvqfl0","pricing_plan_id":"cebpf4jnsgd1na2vs0mg"},{"bike_id":"e8e1f7c6-d773-4c38-bfcc-4a6d773355ce","system_id":"levelo_inurba_marseille","lat":43.22933,"lon":5.35392,"is_reserved":false,"is_disabled":false,"rental_uris":{"android":"levelo://app?vid=e8e1f7c6-d773-4c38-bfcc-4a6d773355ce","ios":"levelo://app?vid=e8e1f7c6-d773-4c38-bfcc-4a6d773355ce"},"vehicle_type_id":"4","last_reported":1738231741,"current_range_meters":38800,"station_id":"cpo3532slgdg3j2ikp40","pricing_plan_id":"cebpf4jnsgd1na2vs0mg"},{"bike_id":"6ddb4a35-ad73-4677-a03b-3650cb5d83aa","system_id":"levelo_inurba_marseille","lat":43.33606,"lon":5.41034,"is_reserved":false,"is_disabled":false,"rental_uris":{"android":"levelo://app?vid=6ddb4a35-ad73-4677-a03b-3650cb5d83aa","ios":"levelo://app?vid=6ddb4a35-ad73-4677-a03b-3650cb5d83aa"},"vehicle_type_id":"4","last_reported":1738231741,"current_range_meters":25600,"station_id":"ce4bhqh2rcd13ifvqhmg","pricing_plan_id":"cebpf4jnsgd1na2vs0mg"},{"bike_id":"53437eb2-94d6-4366-99aa-c458a391e6a5","system_id":"levelo_inurba_marseille","lat":43.29578,"lon":5.36738,"is_reserved":false,"is_disabled":false,"rental_uris":{"android":"levelo://app?vid=53437eb2-94d6-4366-99aa-c458a391e6a5","ios":"levelo://app?vid=53437eb2-94d6-4366-99aa-c458a391e6a5"},"vehicle_type_id":"4","last_reported":1738231741,"current_range_meters":29600,"station_id":"ce4bgph2rcd13ifvqc2g","pricing_plan_id":"cebpf4jnsgd1na2vs0mg"},{"bike_id":"1d1bc79e-5a7a-435e-91f3-73234fa7b584","system_id":"levelo_inurba_marseille","lat":43.29295,"lon":5.37463,"is_reserved":false,"is_disabled":false,"rental_uris":{"android":"levelo://app?vid=1d1bc79e-5a7a-435e-91f3-73234fa7b584","ios":"levelo://app?vid=1d1bc79e-5a7a-435e-91f3-73234fa7b584"},"vehicle_type_id":"4","last_reported":1738231741,"current_range_meters":18000,"station_id":"ce4bgi12rcd13ifvqb70","pricing_plan_id":"cebpf4jnsgd1na2vs0mg"},{"bike_id":"260c3224-c3e5-4a9a-a5e4-8a6ee28f69e2","system_id":"levelo_inurba_marseille","lat":43.281,"lon":5.3785,"is_reserved":false,"is_disabled":false,"rental_uris":{"android":"levelo://app?vid=260c3224-c3e5-4a9a-a5e4-8a6ee28f69e2","ios":"levelo://app?vid=260c3224-c3e5-4a9a-a5e4-8a6ee28f69e2"},"vehicle_type_id":"4","last_reported":1738231741,"current_range_meters":30000,"station_id":"ce4bha12rcd13ifvqee0","pricing_plan_id":"cebpf4jnsgd1na2vs0mg"},{"bike_id":"e4e6bcf3-905a-4c5f-903d-0d57dff7e404","system_id":"levelo_inurba_marseille","lat":43.24802,"lon":5.37446,"is_reserved":false,"is_disabled":false,"rental_uris":{"android":"levelo://app?vid=e4e6bcf3-905a-4c5f-903d-0d57dff7e404","ios":"levelo://app?vid=e4e6bcf3-905a-4c5f-903d-0d57dff7e404"},"vehicle_type_id":"4","last_reported":1738231741,"current_range_meters":38800,"station_id":"ce4bhgh2rcd13ifvqfb0","pricing_plan_id":"cebpf4jnsgd1na2vs0mg"},{"bike_id":"d779a66a-a000-4b02-80ac-21b7ea5b1407","system_id":"levelo_inurba_marseille","lat":43.25883,"lon":5.40886,"is_reserved":false,"is_disabled":false,"rental_uris":{"android":"levelo://app?vid=d779a66a-a000-4b02-80ac-21b7ea5b1407","ios":"levelo://app?vid=d779a66a-a000-4b02-80ac-21b7ea5b1407"},"vehicle_type_id":"4","last_reported":1738231741,"current_range_meters":36000,"station_id":"ce4bhm92rcd13ifvqglg","pricing_plan_id":"cebpf4jnsgd1na2vs0mg"},{"bike_id":"dcc09b49-a81a-42a9-a8e6-ed8eb579a833","system_id":"levelo_inurba_marseille","lat":43.31078,"lon":5.42422,"is_reserved":false,"is_disabled":false,"rental_uris":{"android":"levelo://app?vid=dcc09b49-a81a-42a9-a8e6-ed8eb579a833","ios":"levelo://app?vid=dcc09b49-a81a-42a9-a8e6-ed8eb579a833"},"vehicle_type_id":"4","last_reported":1738231741,"current_range_meters":4800,"station_id":"ce4bhp92rcd13ifvqhag","pricing_plan_id":"cebpf4jnsgd1na2vs0mg"},{"bike_id":"95f3fc17-6a41-40a4-b479-d262636704b8","system_id":"levelo_inurba_marseille","lat":43.30913,"lon":5.36857,"is_reserved":false,"is_disabled":false,"rental_uris":{"android":"levelo://app?vid=95f3fc17-6a41-40a4-b479-d262636704b8","ios":"levelo://app?vid=95f3fc17-6a41-40a4-b479-d262636704b8"},"vehicle_type_id":"4","last_reported":1738231741,"current_range_meters":30800,"station_id":"ce4bgn92rcd13ifvqbvg","pricing_plan_id":"cebpf4jnsgd1na2vs0mg"},{"bike_id":"fd161045-175c-49f7-a00b-c6d94524be95","system_id":"levelo_inurba_marseille","lat":43.28351,"lon":5.38109,"is_reserved":false,"is_disabled":false,"rental_uris":{"android":"levelo://app?vid=fd161045-175c-49f7-a00b-c6d94524be95","ios":"levelo://app?vid=fd161045-175c-49f7-a00b-c6d94524be95"},"vehicle_type_id":"4","last_reported":1738231741,"current_range_meters":11200,"station_id":"ce4bh412rcd13ifvqdr0","pricing_plan_id":"cebpf4jnsgd1na2vs0mg"},{"bike_id":"552527dc-d1c8-4e16-82e2-511e2e5dd97c","system_id":"levelo_inurba_marseille","lat":43.28944,"lon":5.39631,"is_reserved":false,"is_disabled":false,"rental_uris":{"android":"levelo://app?vid=552527dc-d1c8-4e16-82e2-511e2e5dd97c","ios":"levelo://app?vid=552527dc-d1c8-4e16-82e2-511e2e5dd97c"},"vehicle_type_id":"4","last_reported":1738231741,"current_range_meters":7200,"station_id":"ce4bh3h2rcd13ifvqdn0","pricing_plan_id":"cebpf4jnsgd1na2vs0mg"},{"bike_id":"1c7a384f-10e8-4fbc-9897-df5823efdac1","system_id":"levelo_inurba_marseille","lat":43.27013,"lon":5.38625,"is_reserved":false,"is_disabled":false,"rental_uris":{"android":"levelo://app?vid=1c7a384f-10e8-4fbc-9897-df5823efdac1","ios":"levelo://app?vid=1c7a384f-10e8-4fbc-9897-df5823efdac1"},"vehicle_type_id":"4","last_reported":1738231741,"current_range_meters":22800,"station_id":"","pricing_plan_id":"cebpf4jnsgd1na2vs0mg"},{"bike_id":"c1d1ce73-8f8f-42c4-8303-66858ad4f592","system_id":"levelo_inurba_marseille","lat":43.27486,"lon":5.42465,"is_reserved":false,"is_disabled":true,"rental_uris":{"android":"levelo://app?vid=c1d1ce73-8f8f-42c4-8303-66858ad4f592","ios":"levelo://app?vid=c1d1ce73-8f8f-42c4-8303-66858ad4f592"},"vehicle_type_id":"4","last_reported":1738231741,"current_range_meters":24400,"station_id":"ce4bhn92rcd13ifvqgrg","pricing_plan_id":"cebpf4jnsgd1na2vs0mg"},{"bike_id":"71f34f72-d3b7-46a5-9bd4-1fe057b3152f","system_id":"levelo_inurba_marseille","lat":43.22933,"lon":5.35381,"is_reserved":false,"is_disabled":false,"rental_uris":{"android":"levelo://app?vid=71f34f72-d3b7-46a5-9bd4-1fe057b3152f","ios":"levelo://app?vid=71f34f72-d3b7-46a5-9bd4-1fe057b3152f"},"vehicle_type_id":"4","last_reported":1738231741,"current_range_meters":38800,"station_id":"cpo3532slgdg3j2ikp40","pricing_plan_id":"cebpf4jnsgd1na2vs0mg"},{"bike_id":"66c12baa-9477-443c-ad62-ceeda86c1e58","system_id":"levelo_inurba_marseille","lat":43.25854,"lon":5.39921,"is_reserved":false,"is_disabled":false,"rental_uris":{"android":"levelo://app?vid=66c12baa-9477-443c-ad62-ceeda86c1e58","ios":"levelo://app?vid=66c12baa-9477-443c-ad62-ceeda86c1e58"},"vehicle_type_id":"4","last_reported":1738231741,"current_range_meters":38800,"station_id":"ce4bhl92rcd13ifvqghg","pricing_plan_id":"cebpf4jnsgd1na2vs0mg"},{"bike_id":"20029bdd-9f9c-4ff9-86e4-5ba6ed30f46a","system_id":"levelo_inurba_marseille","lat":43.23148,"lon":5.43705,"is_reserved":false,"is_disabled":true,"rental_uris":{"android":"levelo://app?vid=20029bdd-9f9c-4ff9-86e4-5ba6ed30f46a","ios":"levelo://app?vid=20029bdd-9f9c-4ff9-86e4-5ba6ed30f46a"},"vehicle_type_id":"4","last_reported":1738231741,"current_range_meters":0,"station_id":"ce4bhmp2rcd13ifvqgog","pricing_plan_id":"cebpf4jnsgd1na2vs0mg"},{"bike_id":"7a60242d-918e-4c18-baaa-0a5b2f8f4ccf","system_id":"levelo_inurba_marseille","lat":43.26792,"lon":5.39412,"is_reserved":false,"is_disabled":false,"rental_uris":{"android":"levelo://app?vid=7a60242d-918e-4c18-baaa-0a5b2f8f4ccf","ios":"levelo://app?vid=7a60242d-918e-4c18-baaa-0a5b2f8f4ccf"},"vehicle_type_id":"4","last_reported":1738231741,"current_range_meters":38800,"station_id":"ce4bhh12rcd13ifvqfg0","pricing_plan_id":"cebpf4jnsgd1na2vs0mg"},{"bike_id":"a335131c-b12c-433f-9f2c-1edb5549eb18","system_id":"levelo_inurba_marseille","lat":43.30142,"lon":5.38094,"is_reserved":false,"is_disabled":false,"rental_uris":{"android":"levelo://app?vid=a335131c-b12c-433f-9f2c-1edb5549eb18","ios":"levelo://app?vid=a335131c-b12c-433f-9f2c-1edb5549eb18"},"vehicle_type_id":"4","last_reported":1738231741,"current_range_meters":23200,"station_id":"ce4bgjp2rcd13ifvqbh0","pricing_plan_id":"cebpf4jnsgd1na2vs0mg"},{"bike_id":"ba76b9c6-65c8-4110-a3be-6da78bd08098","system_id":"levelo_inurba_marseille","lat":43.30556,"lon":5.36581,"is_reserved":false,"is_disabled":false,"rental_uris":{"android":"levelo://app?vid=ba76b9c6-65c8-4110-a3be-6da78bd08098","ios":"levelo://app?vid=ba76b9c6-65c8-4110-a3be-6da78bd08098"},"vehicle_type_id":"4","last_reported":1738231741,"current_range_meters":8800,"station_id":"ce4bgs12rcd13ifvqcag","pricing_plan_id":"cebpf4jnsgd1na2vs0mg"},{"bike_id":"4e81ce69-69b5-4cf8-bc6e-250461601931","system_id":"levelo_inurba_marseille","lat":43.30279,"lon":5.37699,"is_reserved":false,"is_disabled":false,"rental_uris":{"android":"levelo://app?vid=4e81ce69-69b5-4cf8-bc6e-250461601931","ios":"levelo://app?vid=4e81ce69-69b5-4cf8-bc6e-250461601931"},"vehicle_type_id":"4","last_reported":1738231741,"current_range_meters":11600,"station_id":"ce4bguh2rcd13ifvqcj0","pricing_plan_id":"cebpf4jnsgd1na2vs0mg"},{"bike_id":"c491f201-a33a-4aa6-b7e8-0346c5a24748","system_id":"levelo_inurba_marseille","lat":43.29875,"lon":5.39727,"is_reserved":false,"is_disabled":false,"rental_uris":{"android":"levelo://app?vid=c491f201-a33a-4aa6-b7e8-0346c5a24748","ios":"levelo://app?vid=c491f201-a33a-4aa6-b7e8-0346c5a24748"},"vehicle_type_id":"4","last_reported":1738231741,"current_range_meters":10000,"station_id":"ce4bh0h2rcd13ifvqd50","pricing_plan_id":"cebpf4jnsgd1na2vs0mg"},{"bike_id":"6f0bff48-313c-4da2-a405-6a4c601dc763","system_id":"levelo_inurba_marseille","lat":43.27443,"lon":5.39357,"is_reserved":false,"is_disabled":false,"rental_uris":{"android":"levelo://app?vid=6f0bff48-313c-4da2-a405-6a4c601dc763","ios":"levelo://app?vid=6f0bff48-313c-4da2-a405-6a4c601dc763"},"vehicle_type_id":"4","last_reported":1738231741,"current_range_meters":32000,"station_id":"ce4bhdp2rcd13ifvqf20","pricing_plan_id":"cebpf4jnsgd1na2vs0mg"},{"bike_id":"7698b571-19ca-4d7b-b776-b20c74b54ead","system_id":"levelo_inurba_marseille","lat":43.260297,"lon":5.375527,"is_reserved":false,"is_disabled":false,"rental_uris":{"android":"levelo://app?vid=7698b571-19ca-4d7b-b776-b20c74b54ead","ios":"levelo://app?vid=7698b571-19ca-4d7b-b776-b20c74b54ead"},"vehicle_type_id":"4","last_reported":1738231741,"current_range_meters":38000,"station_id":"ce4bhgh2rcd13ifvqfa0","pricing_plan_id":"cebpf4jnsgd1na2vs0mg"},{"bike_id":"bee89fe1-75de-4aa4-8834-a29197d70af2","system_id":"levelo_inurba_marseille","lat":43.30824,"lon":5.37125,"is_reserved":false,"is_disabled":true,"rental_uris":{"android":"levelo://app?vid=bee89fe1-75de-4aa4-8834-a29197d70af2","ios":"levelo://app?vid=bee89fe1-75de-4aa4-8834-a29197d70af2"},"vehicle_type_id":"4","last_reported":1738231741,"current_range_meters":0,"station_id":"","pricing_plan_id":"cebpf4jnsgd1na2vs0mg"},{"bike_id":"45fd4a2a-a5dc-4b7e-962f-4641aedb60dd","system_id":"levelo_inurba_marseille","lat":43.2798,"lon":5.41662,"is_reserved":false,"is_disabled":false,"rental_uris":{"android":"levelo://app?vid=45fd4a2a-a5dc-4b7e-962f-4641aedb60dd","ios":"levelo://app?vid=45fd4a2a-a5dc-4b7e-962f-4641aedb60dd"},"vehicle_type_id":"4","last_reported":1738231741,"current_range_meters":30000,"station_id":"ce4bho12rcd13ifvqh1g","pricing_plan_id":"cebpf4jnsgd1na2vs0mg"},{"bike_id":"f0257b8a-47fd-4df3-aa97-665327835068","system_id":"levelo_inurba_marseille","lat":43.29026,"lon":5.38118,"is_reserved":false,"is_disabled":false,"rental_uris":{"android":"levelo://app?vid=f0257b8a-47fd-4df3-aa97-665327835068","ios":"levelo://app?vid=f0257b8a-47fd-4df3-aa97-665327835068"},"vehicle_type_id":"4","last_reported":1738231741,"current_range_meters":38800,"station_id":"ce4bh4p2rcd13ifvqe1g","pricing_plan_id":"cebpf4jnsgd1na2vs0mg"},{"bike_id":"6ad1b9cb-53f6-4b4e-abc2-e4ac91bb2469","system_id":"levelo_inurba_marseille","lat":43.29699,"lon":5.37297,"is_reserved":false,"is_disabled":false,"rental_uris":{"android":"levelo://app?vid=6ad1b9cb-53f6-4b4e-abc2-e4ac91bb2469","ios":"levelo://app?vid=6ad1b9cb-53f6-4b4e-abc2-e4ac91bb2469"},"vehicle_type_id":"4","last_reported":1738231741,"current_range_meters":38000,"station_id":"ce4bgk12rcd13ifvqbj0","pricing_plan_id":"cebpf4jnsgd1na2vs0mg"},{"bike_id":"595cf55f-af34-4fbb-bd2d-b511b20cb2ef","system_id":"levelo_inurba_marseille","lat":43.27619,"lon":5.36118,"is_reserved":false,"is_disabled":false,"rental_uris":{"android":"levelo://app?vid=595cf55f-af34-4fbb-bd2d-b511b20cb2ef","ios":"levelo://app?vid=595cf55f-af34-4fbb-bd2d-b511b20cb2ef"},"vehicle_type_id":"4","last_reported":1738231741,"current_range_meters":8000,"station_id":"ce4bgj92rcd13ifvqbe0","pricing_plan_id":"cebpf4jnsgd1na2vs0mg"},{"bike_id":"ec184c8f-729e-40bc-b163-773aef833942","system_id":"levelo_inurba_marseille","lat":43.30535,"lon":5.36528,"is_reserved":false,"is_disabled":false,"rental_uris":{"android":"levelo://app?vid=ec184c8f-729e-40bc-b163-773aef833942","ios":"levelo://app?vid=ec184c8f-729e-40bc-b163-773aef833942"},"vehicle_type_id":"4","last_reported":1738231741,"current_range_meters":38800,"station_id":"ce4bgs12rcd13ifvqcag","pricing_plan_id":"cebpf4jnsgd1na2vs0mg"},{"bike_id":"296acca2-a355-4830-bc97-a6939a85f573","system_id":"levelo_inurba_marseille","lat":43.25558,"lon":5.38259,"is_reserved":false,"is_disabled":false,"rental_uris":{"android":"levelo://app?vid=296acca2-a355-4830-bc97-a6939a85f573","ios":"levelo://app?vid=296acca2-a355-4830-bc97-a6939a85f573"},"vehicle_type_id":"4","last_reported":1738231741,"current_range_meters":19600,"station_id":"ce4bhih2rcd13ifvqfs0","pricing_plan_id":"cebpf4jnsgd1na2vs0mg"},{"bike_id":"01ec46d8-93d3-4495-8c47-385093de8227","system_id":"levelo_inurba_marseille","lat":43.29304,"lon":5.37457,"is_reserved":false,"is_disabled":false,"rental_uris":{"android":"levelo://app?vid=01ec46d8-93d3-4495-8c47-385093de8227","ios":"levelo://app?vid=01ec46d8-93d3-4495-8c47-385093de8227"},"vehicle_type_id":"4","last_reported":1738231741,"current_range_meters":34800,"station_id":"ce4bgi12rcd13ifvqb70","pricing_plan_id":"cebpf4jnsgd1na2vs0mg"},{"bike_id":"69311afe-3d11-4d33-bd7f-5a46e643a98b","system_id":"levelo_inurba_marseille","lat":43.27065,"lon":5.40266,"is_reserved":false,"is_disabled":false,"rental_uris":{"android":"levelo://app?vid=69311afe-3d11-4d33-bd7f-5a46e643a98b","ios":"levelo://app?vid=69311afe-3d11-4d33-bd7f-5a46e643a98b"},"vehicle_type_id":"4","last_reported":1738231741,"current_range_meters":16400,"station_id":"ce4bhk92rcd13ifvqgc0","pricing_plan_id":"cebpf4jnsgd1na2vs0mg"},{"bike_id":"925464aa-a3c8-43ea-bb06-cf2b7a19f94d","system_id":"levelo_inurba_marseille","lat":43.26051,"lon":5.39394,"is_reserved":false,"is_disabled":false,"rental_uris":{"android":"levelo://app?vid=925464aa-a3c8-43ea-bb06-cf2b7a19f94d","ios":"levelo://app?vid=925464aa-a3c8-43ea-bb06-cf2b7a19f94d"},"vehicle_type_id":"4","last_reported":1738231741,"current_range_meters":38800,"station_id":"ce4bhh92rcd13ifvqfj0","pricing_plan_id":"cebpf4jnsgd1na2vs0mg"},{"bike_id":"ddd46040-8311-4f5c-89c2-37543ac9c47d","system_id":"levelo_inurba_marseille","lat":43.30361,"lon":5.41873,"is_reserved":false,"is_disabled":false,"rental_uris":{"android":"levelo://app?vid=ddd46040-8311-4f5c-89c2-37543ac9c47d","ios":"levelo://app?vid=ddd46040-8311-4f5c-89c2-37543ac9c47d"},"vehicle_type_id":"4","last_reported":1738231741,"current_range_meters":28400,"station_id":"ce4bhop2rcd13ifvqh7g","pricing_plan_id":"cebpf4jnsgd1na2vs0mg"},{"bike_id":"875f91a5-4c73-42d2-986e-cd89f19e8a5d","system_id":"levelo_inurba_marseille","lat":43.30146,"lon":5.37414,"is_reserved":false,"is_disabled":false,"rental_uris":{"android":"levelo://app?vid=875f91a5-4c73-42d2-986e-cd89f19e8a5d","ios":"levelo://app?vid=875f91a5-4c73-42d2-986e-cd89f19e8a5d"},"vehicle_type_id":"4","last_reported":1738231741,"current_range_meters":26800,"station_id":"ce4bgs92rcd13ifvqcc0","pricing_plan_id":"cebpf4jnsgd1na2vs0mg"},{"bike_id":"8b46a8d9-8b3b-416f-ab0f-62982cc64cab","system_id":"levelo_inurba_marseille","lat":43.24392,"lon":5.37066,"is_reserved":false,"is_disabled":false,"rental_uris":{"android":"levelo://app?vid=8b46a8d9-8b3b-416f-ab0f-62982cc64cab","ios":"levelo://app?vid=8b46a8d9-8b3b-416f-ab0f-62982cc64cab"},"vehicle_type_id":"4","last_reported":1738231741,"current_range_meters":38800,"station_id":"ce4bhhh2rcd13ifvqfk0","pricing_plan_id":"cebpf4jnsgd1na2vs0mg"},{"bike_id":"1af203ab-771e-4433-8937-d15f0f9964af","system_id":"levelo_inurba_marseille","lat":43.28725,"lon":5.39997,"is_reserved":false,"is_disabled":true,"rental_uris":{"android":"levelo://app?vid=1af203ab-771e-4433-8937-d15f0f9964af","ios":"levelo://app?vid=1af203ab-771e-4433-8937-d15f0f9964af"},"vehicle_type_id":"4","last_reported":1738231741,"current_range_meters":400,"station_id":"ce4bho92rcd13ifvqh3g","pricing_plan_id":"cebpf4jnsgd1na2vs0mg"},{"bike_id":"6b86d9ef-8f2b-4996-9850-88327750bad8","system_id":"levelo_inurba_marseille","lat":43.29275,"lon":5.36843,"is_reserved":false,"is_disabled":false,"rental_uris":{"android":"levelo://app?vid=6b86d9ef-8f2b-4996-9850-88327750bad8","ios":"levelo://app?vid=6b86d9ef-8f2b-4996-9850-88327750bad8"},"vehicle_type_id":"4","last_reported":1738231741,"current_range_meters":32800,"station_id":"ce4bhbp2rcd13ifvqesg","pricing_plan_id":"cebpf4jnsgd1na2vs0mg"},{"bike_id":"35a5c402-13ca-468f-8a93-76197813b571","system_id":"levelo_inurba_marseille","lat":43.25925,"lon":5.40893,"is_reserved":false,"is_disabled":false,"rental_uris":{"android":"levelo://app?vid=35a5c402-13ca-468f-8a93-76197813b571","ios":"levelo://app?vid=35a5c402-13ca-468f-8a93-76197813b571"},"vehicle_type_id":"4","last_reported":1738231741,"current_range_meters":37600,"station_id":"ce4bhm92rcd13ifvqglg","pricing_plan_id":"cebpf4jnsgd1na2vs0mg"},{"bike_id":"1fd0a7be-ca62-475c-82f2-378674288d1f","system_id":"levelo_inurba_marseille","lat":43.26222,"lon":5.40463,"is_reserved":false,"is_disabled":false,"rental_uris":{"android":"levelo://app?vid=1fd0a7be-ca62-475c-82f2-378674288d1f","ios":"levelo://app?vid=1fd0a7be-ca62-475c-82f2-378674288d1f"},"vehicle_type_id":"4","last_reported":1738231741,"current_range_meters":36400,"station_id":"ce4bhmh2rcd13ifvqgmg","pricing_plan_id":"cebpf4jnsgd1na2vs0mg"},{"bike_id":"f9d35a32-65b2-4842-bd83-8cbe10324274","system_id":"levelo_inurba_marseille","lat":43.286287,"lon":5.351104,"is_reserved":false,"is_disabled":false,"rental_uris":{"android":"levelo://app?vid=f9d35a32-65b2-4842-bd83-8cbe10324274","ios":"levelo://app?vid=f9d35a32-65b2-4842-bd83-8cbe10324274"},"vehicle_type_id":"4","last_reported":1738231741,"current_range_meters":18000,"station_id":"ce4bhch2rcd13ifvqeug","pricing_plan_id":"cebpf4jnsgd1na2vs0mg"},{"bike_id":"258c223c-46d6-47bb-80c4-3b4c4df01fd5","system_id":"levelo_inurba_marseille","lat":43.2925,"lon":5.38449,"is_reserved":false,"is_disabled":true,"rental_uris":{"android":"levelo://app?vid=258c223c-46d6-47bb-80c4-3b4c4df01fd5","ios":"levelo://app?vid=258c223c-46d6-47bb-80c4-3b4c4df01fd5"},"vehicle_type_id":"4","last_reported":1738231741,"current_range_meters":0,"station_id":"ce4bh692rcd13ifvqea0","pricing_plan_id":"cebpf4jnsgd1na2vs0mg"},{"bike_id":"57ea5f77-abf9-41ff-8ffe-e281a2630bfe","system_id":"levelo_inurba_marseille","lat":43.28115,"lon":5.3965,"is_reserved":false,"is_disabled":true,"rental_uris":{"android":"levelo://app?vid=57ea5f77-abf9-41ff-8ffe-e281a2630bfe","ios":"levelo://app?vid=57ea5f77-abf9-41ff-8ffe-e281a2630bfe"},"vehicle_type_id":"4","last_reported":1738231741,"current_range_meters":38800,"station_id":"ce4bho12rcd13ifvqh2g","pricing_plan_id":"cebpf4jnsgd1na2vs0mg"},{"bike_id":"64327807-234a-4dc3-890c-3e31ba707495","system_id":"levelo_inurba_marseille","lat":43.26536,"lon":5.37307,"is_reserved":false,"is_disabled":false,"rental_uris":{"android":"levelo://app?vid=64327807-234a-4dc3-890c-3e31ba707495","ios":"levelo://app?vid=64327807-234a-4dc3-890c-3e31ba707495"},"vehicle_type_id":"4","last_reported":1738231741,"current_range_meters":14000,"station_id":"ce4bhg12rcd13ifvqf70","pricing_plan_id":"cebpf4jnsgd1na2vs0mg"},{"bike_id":"f081e2c4-cf90-49e4-9b76-65331aefabc3","system_id":"levelo_inurba_marseille","lat":43.29876,"lon":5.3973,"is_reserved":false,"is_disabled":false,"rental_uris":{"android":"levelo://app?vid=f081e2c4-cf90-49e4-9b76-65331aefabc3","ios":"levelo://app?vid=f081e2c4-cf90-49e4-9b76-65331aefabc3"},"vehicle_type_id":"4","last_reported":1738231741,"current_range_meters":38800,"station_id":"ce4bh0h2rcd13ifvqd50","pricing_plan_id":"cebpf4jnsgd1na2vs0mg"},{"bike_id":"b2bb6202-d0b4-44eb-98f6-57a7d7b6d4ad","system_id":"levelo_inurba_marseille","lat":43.29033,"lon":5.37578,"is_reserved":false,"is_disabled":false,"rental_uris":{"android":"levelo://app?vid=b2bb6202-d0b4-44eb-98f6-57a7d7b6d4ad","ios":"levelo://app?vid=b2bb6202-d0b4-44eb-98f6-57a7d7b6d4ad"},"vehicle_type_id":"4","last_reported":1738231741,"current_range_meters":38800,"station_id":"ce4bh692rcd13ifvqe90","pricing_plan_id":"cebpf4jnsgd1na2vs0mg"},{"bike_id":"cc67cdd9-8a4e-4b69-b7d4-3de8afd72e62","system_id":"levelo_inurba_marseille","lat":43.3108,"lon":5.4243,"is_reserved":false,"is_disabled":false,"rental_uris":{"android":"levelo://app?vid=cc67cdd9-8a4e-4b69-b7d4-3de8afd72e62","ios":"levelo://app?vid=cc67cdd9-8a4e-4b69-b7d4-3de8afd72e62"},"vehicle_type_id":"4","last_reported":1738231741,"current_range_meters":38000,"station_id":"ce4bhp92rcd13ifvqhag","pricing_plan_id":"cebpf4jnsgd1na2vs0mg"},{"bike_id":"d9269dca-11c1-4f87-8ac4-f69b6f325b66","system_id":"levelo_inurba_marseille","lat":43.30081,"lon":5.39083,"is_reserved":false,"is_disabled":true,"rental_uris":{"android":"levelo://app?vid=d9269dca-11c1-4f87-8ac4-f69b6f325b66","ios":"levelo://app?vid=d9269dca-11c1-4f87-8ac4-f69b6f325b66"},"vehicle_type_id":"4","last_reported":1738231741,"current_range_meters":400,"station_id":"ce4bh192rcd13ifvqdb0","pricing_plan_id":"cebpf4jnsgd1na2vs0mg"},{"bike_id":"580314b8-a6d3-46c5-ba13-92389f7ff4e7","system_id":"levelo_inurba_marseille","lat":43.31173,"lon":5.387297,"is_reserved":false,"is_disabled":false,"rental_uris":{"android":"levelo://app?vid=580314b8-a6d3-46c5-ba13-92389f7ff4e7","ios":"levelo://app?vid=580314b8-a6d3-46c5-ba13-92389f7ff4e7"},"vehicle_type_id":"4","last_reported":1738231741,"current_range_meters":9200,"station_id":"ce4bgv12rcd13ifvqcp0","pricing_plan_id":"cebpf4jnsgd1na2vs0mg"},{"bike_id":"6b639d07-a348-4934-af55-36f8424a445c","system_id":"levelo_inurba_marseille","lat":43.27486,"lon":5.42463,"is_reserved":false,"is_disabled":false,"rental_uris":{"android":"levelo://app?vid=6b639d07-a348-4934-af55-36f8424a445c","ios":"levelo://app?vid=6b639d07-a348-4934-af55-36f8424a445c"},"vehicle_type_id":"4","last_reported":1738231741,"current_range_meters":24800,"station_id":"ce4bhn92rcd13ifvqgrg","pricing_plan_id":"cebpf4jnsgd1na2vs0mg"},{"bike_id":"9607a805-ec1f-40d0-bc0d-56e526d9afc5","system_id":"levelo_inurba_marseille","lat":43.25,"lon":5.38939,"is_reserved":false,"is_disabled":false,"rental_uris":{"android":"levelo://app?vid=9607a805-ec1f-40d0-bc0d-56e526d9afc5","ios":"levelo://app?vid=9607a805-ec1f-40d0-bc0d-56e526d9afc5"},"vehicle_type_id":"4","last_reported":1738231741,"current_range_meters":24000,"station_id":"ce4bhgp2rcd13ifvqfd0","pricing_plan_id":"cebpf4jnsgd1na2vs0mg"},{"bike_id":"88e6f0ef-88ea-4713-9523-b839cdc40d4f","system_id":"levelo_inurba_marseille","lat":43.29728,"lon":5.37683,"is_reserved":false,"is_disabled":false,"rental_uris":{"android":"levelo://app?vid=88e6f0ef-88ea-4713-9523-b839cdc40d4f","ios":"levelo://app?vid=88e6f0ef-88ea-4713-9523-b839cdc40d4f"},"vehicle_type_id":"4","last_reported":1738231741,"current_range_meters":31200,"station_id":"ce4bgkh2rcd13ifvqbl0","pricing_plan_id":"cebpf4jnsgd1na2vs0mg"},{"bike_id":"2fc9d09d-d157-4807-bde5-e14d1bdabb1e","system_id":"levelo_inurba_marseille","lat":43.2978,"lon":5.38119,"is_reserved":false,"is_disabled":true,"rental_uris":{"android":"levelo://app?vid=2fc9d09d-d157-4807-bde5-e14d1bdabb1e","ios":"levelo://app?vid=2fc9d09d-d157-4807-bde5-e14d1bdabb1e"},"vehicle_type_id":"4","last_reported":1738231741,"current_range_meters":4000,"station_id":"ce4bgip2rcd13ifvqbb0","pricing_plan_id":"cebpf4jnsgd1na2vs0mg"},{"bike_id":"c72f0b9f-d72a-436c-b2c2-bae178edf944","system_id":"levelo_inurba_marseille","lat":43.27974,"lon":5.41674,"is_reserved":false,"is_disabled":false,"rental_uris":{"android":"levelo://app?vid=c72f0b9f-d72a-436c-b2c2-bae178edf944","ios":"levelo://app?vid=c72f0b9f-d72a-436c-b2c2-bae178edf944"},"vehicle_type_id":"4","last_reported":1738231741,"current_range_meters":7200,"station_id":"ce4bho12rcd13ifvqh1g","pricing_plan_id":"cebpf4jnsgd1na2vs0mg"},{"bike_id":"2fde9a2d-b419-4691-86b3-8eb733a6d076","system_id":"levelo_inurba_marseille","lat":43.337444,"lon":5.374475,"is_reserved":false,"is_disabled":false,"rental_uris":{"android":"levelo://app?vid=2fde9a2d-b419-4691-86b3-8eb733a6d076","ios":"levelo://app?vid=2fde9a2d-b419-4691-86b3-8eb733a6d076"},"vehicle_type_id":"4","last_reported":1738231741,"current_range_meters":38800,"station_id":"","pricing_plan_id":"cebpf4jnsgd1na2vs0mg"},{"bike_id":"8382186f-0d25-40e6-beca-2632cc8590f2","system_id":"levelo_inurba_marseille","lat":43.2956,"lon":5.42272,"is_reserved":false,"is_disabled":true,"rental_uris":{"android":"levelo://app?vid=8382186f-0d25-40e6-beca-2632cc8590f2","ios":"levelo://app?vid=8382186f-0d25-40e6-beca-2632cc8590f2"},"vehicle_type_id":"4","last_reported":1738231741,"current_range_meters":9200,"station_id":"ce4bhph2rcd13ifvqhdg","pricing_plan_id":"cebpf4jnsgd1na2vs0mg"},{"bike_id":"fcf27e35-89da-4ca6-8099-806739591978","system_id":"levelo_inurba_marseille","lat":43.31163,"lon":5.38724,"is_reserved":false,"is_disabled":false,"rental_uris":{"android":"levelo://app?vid=fcf27e35-89da-4ca6-8099-806739591978","ios":"levelo://app?vid=fcf27e35-89da-4ca6-8099-806739591978"},"vehicle_type_id":"4","last_reported":1738231741,"current_range_meters":24000,"station_id":"ce4bgv12rcd13ifvqcp0","pricing_plan_id":"cebpf4jnsgd1na2vs0mg"},{"bike_id":"6becea3f-0c60-4add-938b-a828990abe52","system_id":"levelo_inurba_marseille","lat":43.3025,"lon":5.40085,"is_reserved":false,"is_disabled":false,"rental_uris":{"android":"levelo://app?vid=6becea3f-0c60-4add-938b-a828990abe52","ios":"levelo://app?vid=6becea3f-0c60-4add-938b-a828990abe52"},"vehicle_type_id":"4","last_reported":1738231741,"current_range_meters":33600,"station_id":"ce4bgvh2rcd13ifvqcs0","pricing_plan_id":"cebpf4jnsgd1na2vs0mg"},{"bike_id":"41c30c24-c860-4562-8ea3-9d02ce647a6e","system_id":"levelo_inurba_marseille","lat":43.26664,"lon":5.38302,"is_reserved":false,"is_disabled":false,"rental_uris":{"android":"levelo://app?vid=41c30c24-c860-4562-8ea3-9d02ce647a6e","ios":"levelo://app?vid=41c30c24-c860-4562-8ea3-9d02ce647a6e"},"vehicle_type_id":"4","last_reported":1738231741,"current_range_meters":30000,"station_id":"ce4bhg92rcd13ifvqf90","pricing_plan_id":"cebpf4jnsgd1na2vs0mg"},{"bike_id":"ccfbd024-ae69-4c2e-848c-a8428e5be0c6","system_id":"levelo_inurba_marseille","lat":43.29303,"lon":5.37176,"is_reserved":false,"is_disabled":false,"rental_uris":{"android":"levelo://app?vid=ccfbd024-ae69-4c2e-848c-a8428e5be0c6","ios":"levelo://app?vid=ccfbd024-ae69-4c2e-848c-a8428e5be0c6"},"vehicle_type_id":"4","last_reported":1738231741,"current_range_meters":38800,"station_id":"ce4bgh92rcd13ifvqb40","pricing_plan_id":"cebpf4jnsgd1na2vs0mg"},{"bike_id":"ed557139-7add-4bca-947f-c0a84a2b92a7","system_id":"levelo_inurba_marseille","lat":43.28958,"lon":5.36373,"is_reserved":false,"is_disabled":false,"rental_uris":{"android":"levelo://app?vid=ed557139-7add-4bca-947f-c0a84a2b92a7","ios":"levelo://app?vid=ed557139-7add-4bca-947f-c0a84a2b92a7"},"vehicle_type_id":"4","last_reported":1738231741,"current_range_meters":17600,"station_id":"ce4bhc92rcd13ifvqetg","pricing_plan_id":"cebpf4jnsgd1na2vs0mg"},{"bike_id":"32d9a329-7366-4eb8-8d55-73b5c99c70c3","system_id":"levelo_inurba_marseille","lat":43.23194,"lon":5.35558,"is_reserved":false,"is_disabled":false,"rental_uris":{"android":"levelo://app?vid=32d9a329-7366-4eb8-8d55-73b5c99c70c3","ios":"levelo://app?vid=32d9a329-7366-4eb8-8d55-73b5c99c70c3"},"vehicle_type_id":"4","last_reported":1738231741,"current_range_meters":37600,"station_id":"ce4bhu92rcd13ifvqi70","pricing_plan_id":"cebpf4jnsgd1na2vs0mg"},{"bike_id":"e9e12897-6b7d-4c9d-b500-907d28471123","system_id":"levelo_inurba_marseille","lat":43.30553,"lon":5.36692,"is_reserved":false,"is_disabled":false,"rental_uris":{"android":"levelo://app?vid=e9e12897-6b7d-4c9d-b500-907d28471123","ios":"levelo://app?vid=e9e12897-6b7d-4c9d-b500-907d28471123"},"vehicle_type_id":"4","last_reported":1738231741,"current_range_meters":12000,"station_id":"ce4bgrp2rcd13ifvqc9g","pricing_plan_id":"cebpf4jnsgd1na2vs0mg"},{"bike_id":"f2cd1694-cbcf-4b6f-9463-8b28ee8d6f4b","system_id":"levelo_inurba_marseille","lat":43.23057,"lon":5.35496,"is_reserved":false,"is_disabled":false,"rental_uris":{"android":"levelo://app?vid=f2cd1694-cbcf-4b6f-9463-8b28ee8d6f4b","ios":"levelo://app?vid=f2cd1694-cbcf-4b6f-9463-8b28ee8d6f4b"},"vehicle_type_id":"4","last_reported":1738231741,"current_range_meters":18000,"station_id":"cpo3342slgdg3j2ifvpg","pricing_plan_id":"cebpf4jnsgd1na2vs0mg"},{"bike_id":"0a2fd205-d616-4064-aa75-d4d529957d90","system_id":"levelo_inurba_marseille","lat":43.23044,"lon":5.35521,"is_reserved":false,"is_disabled":false,"rental_uris":{"android":"levelo://app?vid=0a2fd205-d616-4064-aa75-d4d529957d90","ios":"levelo://app?vid=0a2fd205-d616-4064-aa75-d4d529957d90"},"vehicle_type_id":"4","last_reported":1738231741,"current_range_meters":25200,"station_id":"cpo3342slgdg3j2ifvpg","pricing_plan_id":"cebpf4jnsgd1na2vs0mg"},{"bike_id":"caa3b876-5f99-445e-9f14-a49dcdc1cc85","system_id":"levelo_inurba_marseille","lat":43.29184,"lon":5.35834,"is_reserved":false,"is_disabled":true,"rental_uris":{"android":"levelo://app?vid=caa3b876-5f99-445e-9f14-a49dcdc1cc85","ios":"levelo://app?vid=caa3b876-5f99-445e-9f14-a49dcdc1cc85"},"vehicle_type_id":"4","last_reported":1738231741,"current_range_meters":38800,"station_id":"ce4bhb12rcd13ifvqel0","pricing_plan_id":"cebpf4jnsgd1na2vs0mg"},{"bike_id":"9c22f907-4f2a-4fd8-a69e-385c5063cb1c","system_id":"levelo_inurba_marseille","lat":43.25922,"lon":5.40904,"is_reserved":false,"is_disabled":false,"rental_uris":{"android":"levelo://app?vid=9c22f907-4f2a-4fd8-a69e-385c5063cb1c","ios":"levelo://app?vid=9c22f907-4f2a-4fd8-a69e-385c5063cb1c"},"vehicle_type_id":"4","last_reported":1738231741,"current_range_meters":27200,"station_id":"ce4bhm92rcd13ifvqglg","pricing_plan_id":"cebpf4jnsgd1na2vs0mg"},{"bike_id":"4238cfc4-f3d9-4b2e-be79-559974754111","system_id":"levelo_inurba_marseille","lat":43.26481,"lon":5.39578,"is_reserved":false,"is_disabled":false,"rental_uris":{"android":"levelo://app?vid=4238cfc4-f3d9-4b2e-be79-559974754111","ios":"levelo://app?vid=4238cfc4-f3d9-4b2e-be79-559974754111"},"vehicle_type_id":"4","last_reported":1738231741,"current_range_meters":38800,"station_id":"ce4bhi12rcd13ifvqfq0","pricing_plan_id":"cebpf4jnsgd1na2vs0mg"},{"bike_id":"851692c4-6ece-4a71-ba19-f442921d2278","system_id":"levelo_inurba_marseille","lat":43.29888,"lon":5.43663,"is_reserved":false,"is_disabled":false,"rental_uris":{"android":"levelo://app?vid=851692c4-6ece-4a71-ba19-f442921d2278","ios":"levelo://app?vid=851692c4-6ece-4a71-ba19-f442921d2278"},"vehicle_type_id":"4","last_reported":1738231741,"current_range_meters":38800,"station_id":"ce4bhpp2rcd13ifvqhfg","pricing_plan_id":"cebpf4jnsgd1na2vs0mg"},{"bike_id":"478bb8c8-b920-41b2-9b13-22266349dac7","system_id":"levelo_inurba_marseille","lat":43.27063,"lon":5.40263,"is_reserved":false,"is_disabled":false,"rental_uris":{"android":"levelo://app?vid=478bb8c8-b920-41b2-9b13-22266349dac7","ios":"levelo://app?vid=478bb8c8-b920-41b2-9b13-22266349dac7"},"vehicle_type_id":"4","last_reported":1738231741,"current_range_meters":33200,"station_id":"ce4bhk92rcd13ifvqgc0","pricing_plan_id":"cebpf4jnsgd1na2vs0mg"},{"bike_id":"5d85446d-a1e3-4da3-9e1b-711954a91272","system_id":"levelo_inurba_marseille","lat":43.32452,"lon":5.3655,"is_reserved":false,"is_disabled":true,"rental_uris":{"android":"levelo://app?vid=5d85446d-a1e3-4da3-9e1b-711954a91272","ios":"levelo://app?vid=5d85446d-a1e3-4da3-9e1b-711954a91272"},"vehicle_type_id":"4","last_reported":1738231741,"current_range_meters":38800,"station_id":"ce4bhs12rcd13ifvqhvg","pricing_plan_id":"cebpf4jnsgd1na2vs0mg"},{"bike_id":"da356978-beb5-48b9-8dff-1c9f1529e01a","system_id":"levelo_inurba_marseille","lat":43.25724,"lon":5.41097,"is_reserved":false,"is_disabled":false,"rental_uris":{"android":"levelo://app?vid=da356978-beb5-48b9-8dff-1c9f1529e01a","ios":"levelo://app?vid=da356978-beb5-48b9-8dff-1c9f1529e01a"},"vehicle_type_id":"4","last_reported":1738231741,"current_range_meters":16000,"station_id":"ce4bhkp2rcd13ifvqgd0","pricing_plan_id":"cebpf4jnsgd1na2vs0mg"},{"bike_id":"803e03d8-7d2e-4feb-ac46-774902d16dee","system_id":"levelo_inurba_marseille","lat":43.33731,"lon":5.37442,"is_reserved":false,"is_disabled":true,"rental_uris":{"android":"levelo://app?vid=803e03d8-7d2e-4feb-ac46-774902d16dee","ios":"levelo://app?vid=803e03d8-7d2e-4feb-ac46-774902d16dee"},"vehicle_type_id":"4","last_reported":1738231741,"current_range_meters":29600,"station_id":"","pricing_plan_id":"cebpf4jnsgd1na2vs0mg"},{"bike_id":"c886be44-6937-47bb-a1fb-cecd254a9495","system_id":"levelo_inurba_marseille","lat":43.26215,"lon":5.40441,"is_reserved":false,"is_disabled":false,"rental_uris":{"android":"levelo://app?vid=c886be44-6937-47bb-a1fb-cecd254a9495","ios":"levelo://app?vid=c886be44-6937-47bb-a1fb-cecd254a9495"},"vehicle_type_id":"4","last_reported":1738231741,"current_range_meters":36800,"station_id":"ce4bhmh2rcd13ifvqgmg","pricing_plan_id":"cebpf4jnsgd1na2vs0mg"},{"bike_id":"92b13552-6151-4741-b85e-cc510a3d5d67","system_id":"levelo_inurba_marseille","lat":43.30352,"lon":5.41881,"is_reserved":false,"is_disabled":false,"rental_uris":{"android":"levelo://app?vid=92b13552-6151-4741-b85e-cc510a3d5d67","ios":"levelo://app?vid=92b13552-6151-4741-b85e-cc510a3d5d67"},"vehicle_type_id":"4","last_reported":1738231741,"current_range_meters":19600,"station_id":"ce4bhop2rcd13ifvqh7g","pricing_plan_id":"cebpf4jnsgd1na2vs0mg"},{"bike_id":"f751521e-9fd1-4c68-b0aa-b71b2190168b","system_id":"levelo_inurba_marseille","lat":43.31716,"lon":5.37791,"is_reserved":false,"is_disabled":false,"rental_uris":{"android":"levelo://app?vid=f751521e-9fd1-4c68-b0aa-b71b2190168b","ios":"levelo://app?vid=f751521e-9fd1-4c68-b0aa-b71b2190168b"},"vehicle_type_id":"4","last_reported":1738231741,"current_range_meters":33200,"station_id":"ce4bgth2rcd13ifvqch0","pricing_plan_id":"cebpf4jnsgd1na2vs0mg"},{"bike_id":"4d7b2321-a8a5-44b5-935c-f312bb8e5e6b","system_id":"levelo_inurba_marseille","lat":43.30946,"lon":5.39039,"is_reserved":false,"is_disabled":false,"rental_uris":{"android":"levelo://app?vid=4d7b2321-a8a5-44b5-935c-f312bb8e5e6b","ios":"levelo://app?vid=4d7b2321-a8a5-44b5-935c-f312bb8e5e6b"},"vehicle_type_id":"4","last_reported":1738231741,"current_range_meters":25200,"station_id":"ce4bgup2rcd13ifvqco0","pricing_plan_id":"cebpf4jnsgd1na2vs0mg"},{"bike_id":"d7b055ae-afa4-45de-a5d1-2d3de46a980e","system_id":"levelo_inurba_marseille","lat":43.3301,"lon":5.39072,"is_reserved":false,"is_disabled":false,"rental_uris":{"android":"levelo://app?vid=d7b055ae-afa4-45de-a5d1-2d3de46a980e","ios":"levelo://app?vid=d7b055ae-afa4-45de-a5d1-2d3de46a980e"},"vehicle_type_id":"4","last_reported":1738231741,"current_range_meters":38800,"station_id":"ce4bhr92rcd13ifvqhrg","pricing_plan_id":"cebpf4jnsgd1na2vs0mg"},{"bike_id":"6d9e87fb-cb99-4e92-8d64-65c5fe3e7e00","system_id":"levelo_inurba_marseille","lat":43.29309,"lon":5.37174,"is_reserved":false,"is_disabled":false,"rental_uris":{"android":"levelo://app?vid=6d9e87fb-cb99-4e92-8d64-65c5fe3e7e00","ios":"levelo://app?vid=6d9e87fb-cb99-4e92-8d64-65c5fe3e7e00"},"vehicle_type_id":"4","last_reported":1738231741,"current_range_meters":36400,"station_id":"ce4bgh92rcd13ifvqb40","pricing_plan_id":"cebpf4jnsgd1na2vs0mg"},{"bike_id":"9555b069-d025-4c71-917c-d077a57b4bc6","system_id":"levelo_inurba_marseille","lat":43.28476,"lon":5.38427,"is_reserved":false,"is_disabled":false,"rental_uris":{"android":"levelo://app?vid=9555b069-d025-4c71-917c-d077a57b4bc6","ios":"levelo://app?vid=9555b069-d025-4c71-917c-d077a57b4bc6"},"vehicle_type_id":"4","last_reported":1738231741,"current_range_meters":11600,"station_id":"ce4bh512rcd13ifvqe3g","pricing_plan_id":"cebpf4jnsgd1na2vs0mg"},{"bike_id":"e5474d91-8c80-4a69-b5a6-090d82aed482","system_id":"levelo_inurba_marseille","lat":43.28346,"lon":5.38123,"is_reserved":false,"is_disabled":false,"rental_uris":{"android":"levelo://app?vid=e5474d91-8c80-4a69-b5a6-090d82aed482","ios":"levelo://app?vid=e5474d91-8c80-4a69-b5a6-090d82aed482"},"vehicle_type_id":"4","last_reported":1738231741,"current_range_meters":30400,"station_id":"ce4bh412rcd13ifvqdr0","pricing_plan_id":"cebpf4jnsgd1na2vs0mg"},{"bike_id":"1eedbc56-d358-4051-bf2a-244cd8cf52d4","system_id":"levelo_inurba_marseille","lat":43.28141,"lon":5.42662,"is_reserved":false,"is_disabled":false,"rental_uris":{"android":"levelo://app?vid=1eedbc56-d358-4051-bf2a-244cd8cf52d4","ios":"levelo://app?vid=1eedbc56-d358-4051-bf2a-244cd8cf52d4"},"vehicle_type_id":"4","last_reported":1738231741,"current_range_meters":6400,"station_id":"ce4bhnh2rcd13ifvqgug","pricing_plan_id":"cebpf4jnsgd1na2vs0mg"},{"bike_id":"3cab5ce9-fa36-4f37-a4fd-aa59591df4d1","system_id":"levelo_inurba_marseille","lat":43.284231,"lon":5.349898,"is_reserved":false,"is_disabled":true,"rental_uris":{"android":"levelo://app?vid=3cab5ce9-fa36-4f37-a4fd-aa59591df4d1","ios":"levelo://app?vid=3cab5ce9-fa36-4f37-a4fd-aa59591df4d1"},"vehicle_type_id":"4","last_reported":1738231741,"current_range_meters":27600,"station_id":"ce4bhbh2rcd13ifvqepg","pricing_plan_id":"cebpf4jnsgd1na2vs0mg"},{"bike_id":"e0bb47f3-55fd-4db7-b855-8e4c0d155a74","system_id":"levelo_inurba_marseille","lat":43.30461,"lon":5.37915,"is_reserved":false,"is_disabled":true,"rental_uris":{"android":"levelo://app?vid=e0bb47f3-55fd-4db7-b855-8e4c0d155a74","ios":"levelo://app?vid=e0bb47f3-55fd-4db7-b855-8e4c0d155a74"},"vehicle_type_id":"4","last_reported":1738231741,"current_range_meters":0,"station_id":"ce4bgup2rcd13ifvqcn0","pricing_plan_id":"cebpf4jnsgd1na2vs0mg"},{"bike_id":"85af6c92-372c-4cd2-84da-c4ec61fa470d","system_id":"levelo_inurba_marseille","lat":43.25647,"lon":5.41314,"is_reserved":false,"is_disabled":true,"rental_uris":{"android":"levelo://app?vid=85af6c92-372c-4cd2-84da-c4ec61fa470d","ios":"levelo://app?vid=85af6c92-372c-4cd2-84da-c4ec61fa470d"},"vehicle_type_id":"4","last_reported":1738231741,"current_range_meters":36000,"station_id":"","pricing_plan_id":"cebpf4jnsgd1na2vs0mg"},{"bike_id":"37a661ef-f39a-4f49-853d-0534c5874695","system_id":"levelo_inurba_marseille","lat":43.29578,"lon":5.37516,"is_reserved":false,"is_disabled":false,"rental_uris":{"android":"levelo://app?vid=37a661ef-f39a-4f49-853d-0534c5874695","ios":"levelo://app?vid=37a661ef-f39a-4f49-853d-0534c5874695"},"vehicle_type_id":"4","last_reported":1738231741,"current_range_meters":38800,"station_id":"ce4bgh92rcd13ifvqb50","pricing_plan_id":"cebpf4jnsgd1na2vs0mg"},{"bike_id":"ec48ad31-6dc3-4c0c-a117-270544f476b0","system_id":"levelo_inurba_marseille","lat":43.28353,"lon":5.38127,"is_reserved":false,"is_disabled":false,"rental_uris":{"android":"levelo://app?vid=ec48ad31-6dc3-4c0c-a117-270544f476b0","ios":"levelo://app?vid=ec48ad31-6dc3-4c0c-a117-270544f476b0"},"vehicle_type_id":"4","last_reported":1738231741,"current_range_meters":30000,"station_id":"ce4bh412rcd13ifvqdr0","pricing_plan_id":"cebpf4jnsgd1na2vs0mg"},{"bike_id":"c9b91323-d6af-4bea-bc46-7e62ec329ac1","system_id":"levelo_inurba_marseille","lat":43.25907,"lon":5.40905,"is_reserved":false,"is_disabled":false,"rental_uris":{"android":"levelo://app?vid=c9b91323-d6af-4bea-bc46-7e62ec329ac1","ios":"levelo://app?vid=c9b91323-d6af-4bea-bc46-7e62ec329ac1"},"vehicle_type_id":"4","last_reported":1738231741,"current_range_meters":22800,"station_id":"ce4bhm92rcd13ifvqglg","pricing_plan_id":"cebpf4jnsgd1na2vs0mg"},{"bike_id":"2c03adb6-a474-42c2-b922-a59913154522","system_id":"levelo_inurba_marseille","lat":43.2749,"lon":5.42466,"is_reserved":false,"is_disabled":true,"rental_uris":{"android":"levelo://app?vid=2c03adb6-a474-42c2-b922-a59913154522","ios":"levelo://app?vid=2c03adb6-a474-42c2-b922-a59913154522"},"vehicle_type_id":"4","last_reported":1738231741,"current_range_meters":25200,"station_id":"ce4bhn92rcd13ifvqgrg","pricing_plan_id":"cebpf4jnsgd1na2vs0mg"},{"bike_id":"ff0b922d-3380-49e4-bbeb-3adfa486e523","system_id":"levelo_inurba_marseille","lat":43.25933,"lon":5.40913,"is_reserved":false,"is_disabled":false,"rental_uris":{"android":"levelo://app?vid=ff0b922d-3380-49e4-bbeb-3adfa486e523","ios":"levelo://app?vid=ff0b922d-3380-49e4-bbeb-3adfa486e523"},"vehicle_type_id":"4","last_reported":1738231741,"current_range_meters":17600,"station_id":"ce4bhm92rcd13ifvqglg","pricing_plan_id":"cebpf4jnsgd1na2vs0mg"},{"bike_id":"ae8472a9-7abb-4263-a72b-f107c08a7acc","system_id":"levelo_inurba_marseille","lat":43.25004,"lon":5.38939,"is_reserved":false,"is_disabled":false,"rental_uris":{"android":"levelo://app?vid=ae8472a9-7abb-4263-a72b-f107c08a7acc","ios":"levelo://app?vid=ae8472a9-7abb-4263-a72b-f107c08a7acc"},"vehicle_type_id":"4","last_reported":1738231741,"current_range_meters":28000,"station_id":"ce4bhgp2rcd13ifvqfd0","pricing_plan_id":"cebpf4jnsgd1na2vs0mg"},{"bike_id":"32eb613b-b1d9-43ce-ba43-6576daf47a1e","system_id":"levelo_inurba_marseille","lat":43.23173,"lon":5.43677,"is_reserved":false,"is_disabled":false,"rental_uris":{"android":"levelo://app?vid=32eb613b-b1d9-43ce-ba43-6576daf47a1e","ios":"levelo://app?vid=32eb613b-b1d9-43ce-ba43-6576daf47a1e"},"vehicle_type_id":"4","last_reported":1738231741,"current_range_meters":38800,"station_id":"ce4bhmp2rcd13ifvqgog","pricing_plan_id":"cebpf4jnsgd1na2vs0mg"},{"bike_id":"3d98c6ce-e80d-46e8-b577-648cd8c28632","system_id":"levelo_inurba_marseille","lat":43.34699,"lon":5.34741,"is_reserved":false,"is_disabled":true,"rental_uris":{"android":"levelo://app?vid=3d98c6ce-e80d-46e8-b577-648cd8c28632","ios":"levelo://app?vid=3d98c6ce-e80d-46e8-b577-648cd8c28632"},"vehicle_type_id":"4","last_reported":1738231741,"current_range_meters":0,"station_id":"","pricing_plan_id":"cebpf4jnsgd1na2vs0mg"},{"bike_id":"6f98862b-a882-42a8-976d-ac1c45b588e1","system_id":"levelo_inurba_marseille","lat":43.25508,"lon":5.37649,"is_reserved":false,"is_disabled":true,"rental_uris":{"android":"levelo://app?vid=6f98862b-a882-42a8-976d-ac1c45b588e1","ios":"levelo://app?vid=6f98862b-a882-42a8-976d-ac1c45b588e1"},"vehicle_type_id":"4","last_reported":1738231741,"current_range_meters":38000,"station_id":"ce4bhh12rcd13ifvqff0","pricing_plan_id":"cebpf4jnsgd1na2vs0mg"},{"bike_id":"71de7062-054a-45f8-a97a-b889ad4a92fd","system_id":"levelo_inurba_marseille","lat":43.30136,"lon":5.38098,"is_reserved":false,"is_disabled":false,"rental_uris":{"android":"levelo://app?vid=71de7062-054a-45f8-a97a-b889ad4a92fd","ios":"levelo://app?vid=71de7062-054a-45f8-a97a-b889ad4a92fd"},"vehicle_type_id":"4","last_reported":1738231741,"current_range_meters":7200,"station_id":"ce4bgjp2rcd13ifvqbh0","pricing_plan_id":"cebpf4jnsgd1na2vs0mg"},{"bike_id":"eb96c523-e588-425b-8213-2b0374a5ecd0","system_id":"levelo_inurba_marseille","lat":43.30149,"lon":5.374,"is_reserved":false,"is_disabled":false,"rental_uris":{"android":"levelo://app?vid=eb96c523-e588-425b-8213-2b0374a5ecd0","ios":"levelo://app?vid=eb96c523-e588-425b-8213-2b0374a5ecd0"},"vehicle_type_id":"4","last_reported":1738231741,"current_range_meters":38800,"station_id":"ce4bgs92rcd13ifvqcc0","pricing_plan_id":"cebpf4jnsgd1na2vs0mg"},{"bike_id":"859689fd-783f-4b70-9156-7c401183f71f","system_id":"levelo_inurba_marseille","lat":43.28704,"lon":5.3797,"is_reserved":false,"is_disabled":false,"rental_uris":{"android":"levelo://app?vid=859689fd-783f-4b70-9156-7c401183f71f","ios":"levelo://app?vid=859689fd-783f-4b70-9156-7c401183f71f"},"vehicle_type_id":"4","last_reported":1738231741,"current_range_meters":35600,"station_id":"ce4bh9p2rcd13ifvqec0","pricing_plan_id":"cebpf4jnsgd1na2vs0mg"},{"bike_id":"5c8a7338-11ac-4f68-b56e-85ef07f5f359","system_id":"levelo_inurba_marseille","lat":43.31274,"lon":5.36826,"is_reserved":false,"is_disabled":false,"rental_uris":{"android":"levelo://app?vid=5c8a7338-11ac-4f68-b56e-85ef07f5f359","ios":"levelo://app?vid=5c8a7338-11ac-4f68-b56e-85ef07f5f359"},"vehicle_type_id":"4","last_reported":1738231741,"current_range_meters":32000,"station_id":"ce4bgl92rcd13ifvqbq0","pricing_plan_id":"cebpf4jnsgd1na2vs0mg"},{"bike_id":"e74e1004-b60e-499e-a9eb-5ccc24837a08","system_id":"levelo_inurba_marseille","lat":43.30551,"lon":5.36537,"is_reserved":false,"is_disabled":false,"rental_uris":{"android":"levelo://app?vid=e74e1004-b60e-499e-a9eb-5ccc24837a08","ios":"levelo://app?vid=e74e1004-b60e-499e-a9eb-5ccc24837a08"},"vehicle_type_id":"4","last_reported":1738231741,"current_range_meters":38800,"station_id":"ce4bgs12rcd13ifvqcag","pricing_plan_id":"cebpf4jnsgd1na2vs0mg"},