{"last_updated":1706735246,"ttl":30,"version":"2.2","data":{"bikes":[{"bike_id":"aa2081ff-9cef-4ef7-b1e2-feb5d80225c4","system_id":"levelo_inurba_marseille","lat":43.313391,"lon":5.36706,"is_reserved":false,"is_disabled":false,"rental_uris":{"android":"levelo://app?vid=aa2081ff-9cef-4ef7-b1e2-feb5d80225c4","ios":"levelo://app?vid=aa2081ff-9cef-4ef7-b1e2-feb5d80225c4"},"vehicle_type_id":"4","last_reported":1706735246,"current_range_meters":16000,"station_id":"ce4bgr92rcd13ifvqc6g","pricing_plan_id":"free"},{"bike_id":"03c0f94f-c96f-43ac-a2a8-c51c39a855a1","system_id":"levelo_inurba_marseille","lat":43.312239,"lon":5.368562,"is_reserved":false,"is_disabled":false,"rental_uris":{"android":"levelo://app?vid=03c0f94f-c96f-43ac-a2a8-c51c39a855a1","ios":"levelo://app?vid=03c0f94f-c96f-43ac-a2a8-c51c39a855a1"},"vehicle_type_id":"4","last_reported":1706735246,"current_range_meters":9600,"station_id":"ce4bgl92rcd13ifvqbq0","pricing_plan_id":"free"},{"bike_id":"450fa1a0-90ea-4ea4-a12d-07545216ba0d","system_id":"levelo_inurba_marseille","lat":43.31232,"lon":5.36856,"is_reserved":false,"is_disabled":false,"rental_uris":{"android":"levelo://app?vid=450fa1a0-90ea-4ea4-a12d-07545216ba0d","ios":"levelo://app?vid=450fa1a0-90ea-4ea4-a12d-07545216ba0d"},"vehicle_type_id":"4","last_reported":1706735246,"current_range_meters":0,"station_id":"ce4bgl92rcd13ifvqbq0","pricing_plan_id":"free"},{"bike_id":"ce613ae8-4549-4ef7-8e3e-8ed4ffce2673","system_id":"levelo_inurba_marseille","lat":43.314811,"lon":5.373103,"is_reserved":false,"is_disabled":false,"rental_uris":{"android":"levelo://app?vid=ce613ae8-4549-4ef7-8e3e-8ed4ffce2673","ios":"levelo://app?vid=ce613ae8-4549-4ef7-8e3e-8ed4ffce2673"},"vehicle_type_id":"4","last_reported":1706735246,"current_range_meters":0,"station_id":"ce4bgt12rcd13ifvqcd0","pricing_plan_id":"free"},{"bike_id":"49e120df-ade2-4351-b192-2a7f95ee3359","system_id":"levelo_inurba_marseille","lat":43.314811,"lon":5.373104,"is_reserved":false,"is_disabled":false,"rental_uris":{"android":"levelo://app?vid=49e120df-ade2-4351-b192-2a7f95ee3359","ios":"levelo://app?vid=49e120df-ade2-4351-b192-2a7f95ee3359"},"vehicle_type_id":"4","last_reported":1706735246,"current_range_meters":8400,"station_id":"ce4bgt12rcd13ifvqcd0","pricing_plan_id":"free"},{"bike_id":"d3346f01-a266-4052-9213-3bed3e077a78","system_id":"levelo_inurba_marseille","lat":43.309039,"lon":5.371797,"is_reserved":false,"is_disabled":false,"rental_uris":{"android":"levelo://app?vid=d3346f01-a266-4052-9213-3bed3e077a78","ios":"levelo://app?vid=d3346f01-a266-4052-9213-3bed3e077a78"},"vehicle_type_id":"4","last_reported":1706735246,"current_range_meters":14400,"station_id":"ce4bguh2rcd13ifvqckg","pricing_plan_id":"free"},{"bike_id":"f8e4ce6c-85df-47a3-a0a5-b9e8546eafc7","system_id":"levelo_inurba_marseille","lat":43.309034,"lon":5.371783,"is_reserved":false,"is_disabled":false,"rental_uris":{"android":"levelo://app?vid=f8e4ce6c-85df-47a3-a0a5-b9e8546eafc7","ios":"levelo://app?vid=f8e4ce6c-85df-47a3-a0a5-b9e8546eafc7"},"vehicle_type_id":"4","last_reported":1706735246,"current_range_meters":0,"station_id":"ce4bguh2rcd13ifvqckg","pricing_plan_id":"free"},{"bike_id":"2d96c2be-c98f-448b-9056-e6b4399d5025","system_id":"levelo_inurba_marseille","lat":43.308802,"lon":5.371978,"is_reserved":false,"is_disabled":false,"rental_uris":{"android":"levelo://app?vid=2d96c2be-c98f-448b-9056-e6b4399d5025","ios":"levelo://app?vid=2d96c2be-c98f-448b-9056-e6b4399d5025"},"vehicle_type_id":"4","last_reported":1706735246,"current_range_meters":0,"station_id":"ce4bguh2rcd13ifvqckg","pricing_plan_id":"free"},{"bike_id":"7e5a6019-02bb-416f-8b9c-b89ccb9c0e30","system_id":"levelo_inurba_marseille","lat":43.305567,"lon":5.366969,"is_reserved":false,"is_disabled":false,"rental_uris":{"android":"levelo://app?vid=7e5a6019-02bb-416f-8b9c-b89ccb9c0e30","ios":"levelo://app?vid=7e5a6019-02bb-416f-8b9c-b89ccb9c0e30"},"vehicle_type_id":"4","last_reported":1706735246,"current_range_meters":24400,"station_id":"ce4bgrp2rcd13ifvqc9g","pricing_plan_id":"free"},{"bike_id":"b89163d2-f2b5-4b6d-aabd-1475735c5e98","system_id":"levelo_inurba_marseille","lat":43.311131,"lon":5.377651,"is_reserved":false,"is_disabled":false,"rental_uris":{"android":"levelo://app?vid=b89163d2-f2b5-4b6d-aabd-1475735c5e98","ios":"levelo://app?vid=b89163d2-f2b5-4b6d-aabd-1475735c5e98"},"vehicle_type_id":"4","last_reported":1706735246,"current_range_meters":12800,"station_id":"ce4bgt92rcd13ifvqcg0","pricing_plan_id":"free"},{"bike_id":"f7b1ed3f-bdd0-4daa-a6cf-7d6dcd00894e","system_id":"levelo_inurba_marseille","lat":43.311131,"lon":5.377651,"is_reserved":false,"is_disabled":false,"rental_uris":{"android":"levelo://app?vid=f7b1ed3f-bdd0-4daa-a6cf-7d6dcd00894e","ios":"levelo://app?vid=f7b1ed3f-bdd0-4daa-a6cf-7d6dcd00894e"},"vehicle_type_id":"4","last_reported":1706735246,"current_range_meters":10000,"station_id":"ce4bgt92rcd13ifvqcg0","pricing_plan_id":"free"},{"bike_id":"1be6c73d-db61-4437-bf33-bc72323c948a","system_id":"levelo_inurba_marseille","lat":43.311131,"lon":5.377651,"is_reserved":false,"is_disabled":false,"rental_uris":{"android":"levelo://app?vid=1be6c73d-db61-4437-bf33-bc72323c948a","ios":"levelo://app?vid=1be6c73d-db61-4437-bf33-bc72323c948a"},"vehicle_type_id":"4","last_reported":1706735246,"current_range_meters":13600,"station_id":"ce4bgt92rcd13ifvqcg0","pricing_plan_id":"free"},{"bike_id":"adbcea5a-1f31-42c3-ab33-329278704fc2","system_id":"levelo_inurba_marseille","lat":43.311131,"lon":5.377651,"is_reserved":false,"is_disabled":false,"rental_uris":{"android":"levelo://app?vid=adbcea5a-1f31-42c3-ab33-329278704fc2","ios":"levelo://app?vid=adbcea5a-1f31-42c3-ab33-329278704fc2"},"vehicle_type_id":"4","last_reported":1706735246,"current_range_meters":26000,"station_id":"ce4bgt92rcd13ifvqcg0","pricing_plan_id":"free"},{"bike_id":"9a4db2da-70f6-4b03-8ce0-90eeb4bb8164","system_id":"levelo_inurba_marseille","lat":43.307945,"lon":5.376487,"is_reserved":false,"is_disabled":false,"rental_uris":{"android":"levelo://app?vid=9a4db2da-70f6-4b03-8ce0-90eeb4bb8164","ios":"levelo://app?vid=9a4db2da-70f6-4b03-8ce0-90eeb4bb8164"},"vehicle_type_id":"4","last_reported":1706735246,"current_range_meters":27600,"station_id":"ce4bgv92rcd13ifvqcq0","pricing_plan_id":"free"},{"bike_id":"f33f70d5-46c2-4de5-ac55-7370e52b4850","system_id":"levelo_inurba_marseille","lat":43.307945,"lon":5.376487,"is_reserved":false,"is_disabled":false,"rental_uris":{"android":"levelo://app?vid=f33f70d5-46c2-4de5-ac55-7370e52b4850","ios":"levelo://app?vid=f33f70d5-46c2-4de5-ac55-7370e52b4850"},"vehicle_type_id":"4","last_reported":1706735246,"current_range_meters":15200,"station_id":"ce4bgv92rcd13ifvqcq0","pricing_plan_id":"free"},{"bike_id":"18a7ab6b-e68c-44de-99bd-cd4b624a0994","system_id":"levelo_inurba_marseille","lat":43.317075,"lon":5.377367,"is_reserved":false,"is_disabled":false,"rental_uris":{"android":"levelo://app?vid=18a7ab6b-e68c-44de-99bd-cd4b624a0994","ios":"levelo://app?vid=18a7ab6b-e68c-44de-99bd-cd4b624a0994"},"vehicle_type_id":"4","last_reported":1706735246,"current_range_meters":4400,"station_id":"ce4bgth2rcd13ifvqch0","pricing_plan_id":"free"},{"bike_id":"682b126f-dffd-4fdd-b9cf-fab068f83902","system_id":"levelo_inurba_marseille","lat":43.317075,"lon":5.377367,"is_reserved":false,"is_disabled":false,"rental_uris":{"android":"levelo://app?vid=682b126f-dffd-4fdd-b9cf-fab068f83902","ios":"levelo://app?vid=682b126f-dffd-4fdd-b9cf-fab068f83902"},"vehicle_type_id":"4","last_reported":1706735246,"current_range_meters":9200,"station_id":"ce4bgth2rcd13ifvqch0","pricing_plan_id":"free"},{"bike_id":"b4da596a-75b3-4110-a190-4bdc99fc043c","system_id":"levelo_inurba_marseille","lat":43.30312,"lon":5.36895,"is_reserved":false,"is_disabled":false,"rental_uris":{"android":"levelo://app?vid=b4da596a-75b3-4110-a190-4bdc99fc043c","ios":"levelo://app?vid=b4da596a-75b3-4110-a190-4bdc99fc043c"},"vehicle_type_id":"4","last_reported":1706735246,"current_range_meters":0,"station_id":"ce4bgqh2rcd13ifvqc5g","pricing_plan_id":"free"},{"bike_id":"8aab5669-1cf4-4a4e-8d4f-aab166f79855","system_id":"levelo_inurba_marseille","lat":43.30305,"lon":5.36906,"is_reserved":false,"is_disabled":false,"rental_uris":{"android":"levelo://app?vid=8aab5669-1cf4-4a4e-8d4f-aab166f79855","ios":"levelo://app?vid=8aab5669-1cf4-4a4e-8d4f-aab166f79855"},"vehicle_type_id":"4","last_reported":1706735246,"current_range_meters":3600,"station_id":"ce4bgqh2rcd13ifvqc5g","pricing_plan_id":"free"},{"bike_id":"e2cfcfba-c4fb-4e76-8938-63ffc0f63fab","system_id":"levelo_inurba_marseille","lat":43.303046,"lon":5.368981,"is_reserved":false,"is_disabled":false,"rental_uris":{"android":"levelo://app?vid=e2cfcfba-c4fb-4e76-8938-63ffc0f63fab","ios":"levelo://app?vid=e2cfcfba-c4fb-4e76-8938-63ffc0f63fab"},"vehicle_type_id":"4","last_reported":1706735246,"current_range_meters":7200,"station_id":"ce4bgqh2rcd13ifvqc5g","pricing_plan_id":"free"},{"bike_id":"d621c7c6-f8f7-4aff-8255-da4375603046","system_id":"levelo_inurba_marseille","lat":43.301939,"lon":5.366286,"is_reserved":false,"is_disabled":false,"rental_uris":{"android":"levelo://app?vid=d621c7c6-f8f7-4aff-8255-da4375603046","ios":"levelo://app?vid=d621c7c6-f8f7-4aff-8255-da4375603046"},"vehicle_type_id":"4","last_reported":1706735246,"current_range_meters":4000,"station_id":"ce4bgrh2rcd13ifvqc8g","pricing_plan_id":"free"},{"bike_id":"c5655691-e515-491f-9409-8569c3ff0c59","system_id":"levelo_inurba_marseille","lat":43.308012,"lon":5.381511,"is_reserved":false,"is_disabled":false,"rental_uris":{"android":"levelo://app?vid=c5655691-e515-491f-9409-8569c3ff0c59","ios":"levelo://app?vid=c5655691-e515-491f-9409-8569c3ff0c59"},"vehicle_type_id":"4","last_reported":1706735246,"current_range_meters":17600,"station_id":"ce4bgt12rcd13ifvqce0","pricing_plan_id":"free"},{"bike_id":"8f25296b-2cde-49d6-bdec-c74315e537e5","system_id":"levelo_inurba_marseille","lat":43.308012,"lon":5.381511,"is_reserved":false,"is_disabled":false,"rental_uris":{"android":"levelo://app?vid=8f25296b-2cde-49d6-bdec-c74315e537e5","ios":"levelo://app?vid=8f25296b-2cde-49d6-bdec-c74315e537e5"},"vehicle_type_id":"4","last_reported":1706735246,"current_range_meters":31200,"station_id":"ce4bgt12rcd13ifvqce0","pricing_plan_id":"free"},{"bike_id":"3bcc9c29-0427-4de7-b99c-39008410bcd7","system_id":"levelo_inurba_marseille","lat":43.30805,"lon":5.381477,"is_reserved":false,"is_disabled":false,"rental_uris":{"android":"levelo://app?vid=3bcc9c29-0427-4de7-b99c-39008410bcd7","ios":"levelo://app?vid=3bcc9c29-0427-4de7-b99c-39008410bcd7"},"vehicle_type_id":"4","last_reported":1706735246,"current_range_meters":28000,"station_id":"ce4bgt12rcd13ifvqce0","pricing_plan_id":"free"},{"bike_id":"45b09986-e2e9-4620-8615-d458060bcb40","system_id":"levelo_inurba_marseille","lat":43.308048,"lon":5.381509,"is_reserved":false,"is_disabled":false,"rental_uris":{"android":"levelo://app?vid=45b09986-e2e9-4620-8615-d458060bcb40","ios":"levelo://app?vid=45b09986-e2e9-4620-8615-d458060bcb40"},"vehicle_type_id":"4","last_reported":1706735246,"current_range_meters":31200,"station_id":"ce4bgt12rcd13ifvqce0","pricing_plan_id":"free"},{"bike_id":"40dea56b-aeab-47d3-8b92-8d1c338013ed","system_id":"levelo_inurba_marseille","lat":43.308012,"lon":5.381511,"is_reserved":false,"is_disabled":false,"rental_uris":{"android":"levelo://app?vid=40dea56b-aeab-47d3-8b92-8d1c338013ed","ios":"levelo://app?vid=40dea56b-aeab-47d3-8b92-8d1c338013ed"},"vehicle_type_id":"4","last_reported":1706735246,"current_range_meters":6400,"station_id":"ce4bgt12rcd13ifvqce0","pricing_plan_id":"free"},{"bike_id":"cb0a69fb-dbae-4383-98cb-f3b9b27b2f29","system_id":"levelo_inurba_marseille","lat":43.30467,"lon":5.37906,"is_reserved":false,"is_disabled":false,"rental_uris":{"android":"levelo://app?vid=cb0a69fb-dbae-4383-98cb-f3b9b27b2f29","ios":"levelo://app?vid=cb0a69fb-dbae-4383-98cb-f3b9b27b2f29"},"vehicle_type_id":"4","last_reported":1706735246,"current_range_meters":18400,"station_id":"ce4bgup2rcd13ifvqcn0","pricing_plan_id":"free"},{"bike_id":"dd2f526c-a70e-4a9f-b5c8-a3190a92a417","system_id":"levelo_inurba_marseille","lat":43.30461,"lon":5.379,"is_reserved":false,"is_disabled":false,"rental_uris":{"android":"levelo://app?vid=dd2f526c-a70e-4a9f-b5c8-a3190a92a417","ios":"levelo://app?vid=dd2f526c-a70e-4a9f-b5c8-a3190a92a417"},"vehicle_type_id":"4","last_reported":1706735246,"current_range_meters":17600,"station_id":"ce4bgup2rcd13ifvqcn0","pricing_plan_id":"free"},{"bike_id":"d09b101b-245f-48b2-b4b4-8cc2cf66b737","system_id":"levelo_inurba_marseille","lat":43.324771,"lon":5.36557,"is_reserved":false,"is_disabled":false,"rental_uris":{"android":"levelo://app?vid=d09b101b-245f-48b2-b4b4-8cc2cf66b737","ios":"levelo://app?vid=d09b101b-245f-48b2-b4b4-8cc2cf66b737"},"vehicle_type_id":"4","last_reported":1706735246,"current_range_meters":17600,"station_id":"ce4bhs12rcd13ifvqhvg","pricing_plan_id":"free"},{"bike_id":"f9b3aa5a-40af-4040-a917-268c7acc95ae","system_id":"levelo_inurba_marseille","lat":43.324808,"lon":5.365689,"is_reserved":false,"is_disabled":false,"rental_uris":{"android":"levelo://app?vid=f9b3aa5a-40af-4040-a917-268c7acc95ae","ios":"levelo://app?vid=f9b3aa5a-40af-4040-a917-268c7acc95ae"},"vehicle_type_id":"4","last_reported":1706735246,"current_range_meters":15600,"station_id":"ce4bhs12rcd13ifvqhvg","pricing_plan_id":"free"},{"bike_id":"4c1d912b-8425-4b28-bcd4-0691a1724560","system_id":"levelo_inurba_marseille","lat":43.324826,"lon":5.365748,"is_reserved":false,"is_disabled":false,"rental_uris":{"android":"levelo://app?vid=4c1d912b-8425-4b28-bcd4-0691a1724560","ios":"levelo://app?vid=4c1d912b-8425-4b28-bcd4-0691a1724560"},"vehicle_type_id":"4","last_reported":1706735246,"current_range_meters":17200,"station_id":"ce4bhs12rcd13ifvqhvg","pricing_plan_id":"free"},{"bike_id":"72f64bf3-3a8b-40c9-9789-32db1a120b80","system_id":"levelo_inurba_marseille","lat":43.324843,"lon":5.365581,"is_reserved":false,"is_disabled":false,"rental_uris":{"android":"levelo://app?vid=72f64bf3-3a8b-40c9-9789-32db1a120b80","ios":"levelo://app?vid=72f64bf3-3a8b-40c9-9789-32db1a120b80"},"vehicle_type_id":"4","last_reported":1706735246,"current_range_meters":13200,"station_id":"","pricing_plan_id":"free"},{"bike_id":"884bc43c-dd71-482f-8bcb-9659da535156","system_id":"levelo_inurba_marseille","lat":43.3107,"lon":5.38352,"is_reserved":false,"is_disabled":false,"rental_uris":{"android":"levelo://app?vid=884bc43c-dd71-482f-8bcb-9659da535156","ios":"levelo://app?vid=884bc43c-dd71-482f-8bcb-9659da535156"},"vehicle_type_id":"4","last_reported":1706735246,"current_range_meters":8400,"station_id":"ce4bgv92rcd13ifvqcr0","pricing_plan_id":"free"},{"bike_id":"29cfea34-e214-42f6-b305-d97c71040ac0","system_id":"levelo_inurba_marseille","lat":43.305989,"lon":5.37225,"is_reserved":false,"is_disabled":false,"rental_uris":{"android":"levelo://app?vid=29cfea34-e214-42f6-b305-d97c71040ac0","ios":"levelo://app?vid=29cfea34-e214-42f6-b305-d97c71040ac0"},"vehicle_type_id":"4","last_reported":1706735246,"current_range_meters":14800,"station_id":"ce4bgqh2rcd13ifvqc4g","pricing_plan_id":"free"},{"bike_id":"465e6b14-faf3-4fe8-84e1-92e3b1157d5c","system_id":"levelo_inurba_marseille","lat":43.305368,"lon":5.367343,"is_reserved":false,"is_disabled":false,"rental_uris":{"android":"levelo://app?vid=465e6b14-faf3-4fe8-84e1-92e3b1157d5c","ios":"levelo://app?vid=465e6b14-faf3-4fe8-84e1-92e3b1157d5c"},"vehicle_type_id":"4","last_reported":1706735246,"current_range_meters":13600,"station_id":"ce4bgrp2rcd13ifvqc9g","pricing_plan_id":"free"},{"bike_id":"b6a27ef5-c24a-41bb-8660-01c51af87bb9","system_id":"levelo_inurba_marseille","lat":43.319935,"lon":5.381699,"is_reserved":false,"is_disabled":false,"rental_uris":{"android":"levelo://app?vid=b6a27ef5-c24a-41bb-8660-01c51af87bb9","ios":"levelo://app?vid=b6a27ef5-c24a-41bb-8660-01c51af87bb9"},"vehicle_type_id":"4","last_reported":1706735246,"current_range_meters":8800,"station_id":"ce4bhr12rcd13ifvqhpg","pricing_plan_id":"free"},{"bike_id":"71d03508-4277-4dfe-bff8-76bcfdbb3775","system_id":"levelo_inurba_marseille","lat":43.319935,"lon":5.381699,"is_reserved":false,"is_disabled":false,"rental_uris":{"android":"levelo://app?vid=71d03508-4277-4dfe-bff8-76bcfdbb3775","ios":"levelo://app?vid=71d03508-4277-4dfe-bff8-76bcfdbb3775"},"vehicle_type_id":"4","last_reported":1706735246,"current_range_meters":8400,"station_id":"ce4bhr12rcd13ifvqhpg","pricing_plan_id":"free"},{"bike_id":"74a5bc9b-7b98-4c08-b89d-ae418136b231","system_id":"levelo_inurba_marseille","lat":43.310284,"lon":5.384482,"is_reserved":false,"is_disabled":false,"rental_uris":{"android":"levelo://app?vid=74a5bc9b-7b98-4c08-b89d-ae418136b231","ios":"levelo://app?vid=74a5bc9b-7b98-4c08-b89d-ae418136b231"},"vehicle_type_id":"4","last_reported":1706735246,"current_range_meters":6000,"station_id":"","pricing_plan_id":"free"},{"bike_id":"59640e2a-b42c-4e92-a9c4-11ff46d46209","system_id":"levelo_inurba_marseille","lat":43.3136,"lon":5.38487,"is_reserved":false,"is_disabled":false,"rental_uris":{"android":"levelo://app?vid=59640e2a-b42c-4e92-a9c4-11ff46d46209","ios":"levelo://app?vid=59640e2a-b42c-4e92-a9c4-11ff46d46209"},"vehicle_type_id":"4","last_reported":1706735246,"current_range_meters":9200,"station_id":"ce4bgt92rcd13ifvqcf0","pricing_plan_id":"free"},{"bike_id":"cb4b67cb-9f6e-451e-803c-1480a7c88031","system_id":"levelo_inurba_marseille","lat":43.313571,"lon":5.384829,"is_reserved":false,"is_disabled":false,"rental_uris":{"android":"levelo://app?vid=cb4b67cb-9f6e-451e-803c-1480a7c88031","ios":"levelo://app?vid=cb4b67cb-9f6e-451e-803c-1480a7c88031"},"vehicle_type_id":"4","last_reported":1706735246,"current_range_meters":3600,"station_id":"ce4bgt92rcd13ifvqcf0","pricing_plan_id":"free"},{"bike_id":"0d9e7814-3c6d-4e58-82d2-25667056959f","system_id":"levelo_inurba_marseille","lat":43.31358,"lon":5.3849,"is_reserved":false,"is_disabled":false,"rental_uris":{"android":"levelo://app?vid=0d9e7814-3c6d-4e58-82d2-25667056959f","ios":"levelo://app?vid=0d9e7814-3c6d-4e58-82d2-25667056959f"},"vehicle_type_id":"4","last_reported":1706735246,"current_range_meters":21600,"station_id":"ce4bgt92rcd13ifvqcf0","pricing_plan_id":"free"},{"bike_id":"7b58e556-379f-4619-ab9b-19efcf6525c9","system_id":"levelo_inurba_marseille","lat":43.299028,"lon":5.381509,"is_reserved":false,"is_disabled":false,"rental_uris":{"android":"levelo://app?vid=7b58e556-379f-4619-ab9b-19efcf6525c9","ios":"levelo://app?vid=7b58e556-379f-4619-ab9b-19efcf6525c9"},"vehicle_type_id":"4","last_reported":1706735246,"current_range_meters":7600,"station_id":"ce4bgj12rcd13ifvqbc0","pricing_plan_id":"free"},{"bike_id":"11c58946-1048-4b3e-9080-f25eb78392e0","system_id":"levelo_inurba_marseille","lat":43.299222,"lon":5.365554,"is_reserved":false,"is_disabled":false,"rental_uris":{"android":"levelo://app?vid=11c58946-1048-4b3e-9080-f25eb78392e0","ios":"levelo://app?vid=11c58946-1048-4b3e-9080-f25eb78392e0"},"vehicle_type_id":"4","last_reported":1706735246,"current_range_meters":21600,"station_id":"ce4bgm92rcd13ifvqbr0","pricing_plan_id":"free"},{"bike_id":"df7016eb-f7f9-479a-88ba-99a234d530b8","system_id":"levelo_inurba_marseille","lat":43.299222,"lon":5.365554,"is_reserved":false,"is_disabled":false,"rental_uris":{"android":"levelo://app?vid=df7016eb-f7f9-479a-88ba-99a234d530b8","ios":"levelo://app?vid=df7016eb-f7f9-479a-88ba-99a234d530b8"},"vehicle_type_id":"4","last_reported":1706735246,"current_range_meters":4000,"station_id":"ce4bgm92rcd13ifvqbr0","pricing_plan_id":"free"},{"bike_id":"ec607dda-2133-4c95-bd1d-acc31389c6b6","system_id":"levelo_inurba_marseille","lat":43.299222,"lon":5.365554,"is_reserved":false,"is_disabled":false,"rental_uris":{"android":"levelo://app?vid=ec607dda-2133-4c95-bd1d-acc31389c6b6","ios":"levelo://app?vid=ec607dda-2133-4c95-bd1d-acc31389c6b6"},"vehicle_type_id":"4","last_reported":1706735246,"current_range_meters":25600,"station_id":"ce4bgm92rcd13ifvqbr0","pricing_plan_id":"free"},{"bike_id":"ebfae927-b09f-4893-86fb-6abbf12f1acc","system_id":"levelo_inurba_marseille","lat":43.299222,"lon":5.365554,"is_reserved":false,"is_disabled":false,"rental_uris":{"android":"levelo://app?vid=ebfae927-b09f-4893-86fb-6abbf12f1acc","ios":"levelo://app?vid=ebfae927-b09f-4893-86fb-6abbf12f1acc"},"vehicle_type_id":"4","last_reported":1706735246,"current_range_meters":14400,"station_id":"ce4bgm92rcd13ifvqbr0","pricing_plan_id":"free"},{"bike_id":"e9002e49-741b-43b5-af9b-7e872c49ea27","system_id":"levelo_inurba_marseille","lat":43.299209,"lon":5.365547,"is_reserved":false,"is_disabled":false,"rental_uris":{"android":"levelo://app?vid=e9002e49-741b-43b5-af9b-7e872c49ea27","ios":"levelo://app?vid=e9002e49-741b-43b5-af9b-7e872c49ea27"},"vehicle_type_id":"4","last_reported":1706735246,"current_range_meters":0,"station_id":"ce4bgm92rcd13ifvqbr0","pricing_plan_id":"free"},{"bike_id":"bd6fc75c-de10-4028-bbbc-e4f7f21d7fdd","system_id":"levelo_inurba_marseille","lat":43.299724,"lon":5.371829,"is_reserved":false,"is_disabled":false,"rental_uris":{"android":"levelo://app?vid=bd6fc75c-de10-4028-bbbc-e4f7f21d7fdd","ios":"levelo://app?vid=bd6fc75c-de10-4028-bbbc-e4f7f21d7fdd"},"vehicle_type_id":"4","last_reported":1706735246,"current_range_meters":18800,"station_id":"ce4bgr92rcd13ifvqc7g","pricing_plan_id":"free"},{"bike_id":"627a57c0-eb99-4597-a3e9-692546cfd4a0","system_id":"levelo_inurba_marseille","lat":43.299724,"lon":5.371829,"is_reserved":false,"is_disabled":false,"rental_uris":{"android":"levelo://app?vid=627a57c0-eb99-4597-a3e9-692546cfd4a0","ios":"levelo://app?vid=627a57c0-eb99-4597-a3e9-692546cfd4a0"},"vehicle_type_id":"4","last_reported":1706735246,"current_range_meters":0,"station_id":"ce4bgr92rcd13ifvqc7g","pricing_plan_id":"free"},{"bike_id":"da932c26-2713-4652-b225-a3b3313909cd","system_id":"levelo_inurba_marseille","lat":43.298433,"lon":5.362774,"is_reserved":false,"is_disabled":false,"rental_uris":{"android":"levelo://app?vid=da932c26-2713-4652-b225-a3b3313909cd","ios":"levelo://app?vid=da932c26-2713-4652-b225-a3b3313909cd"},"vehicle_type_id":"4","last_reported":1706735246,"current_range_meters":24000,"station_id":"ce4bgpp2rcd13ifvqc3g","pricing_plan_id":"free"},{"bike_id":"e5e88502-7df6-46cd-9437-f96bc5d63bb8","system_id":"levelo_inurba_marseille","lat":43.305364,"lon":5.384119,"is_reserved":false,"is_disabled":false,"rental_uris":{"android":"levelo://app?vid=e5e88502-7df6-46cd-9437-f96bc5d63bb8","ios":"levelo://app?vid=e5e88502-7df6-46cd-9437-f96bc5d63bb8"},"vehicle_type_id":"4","last_reported":1706735246,"current_range_meters":5600,"station_id":"ce4bgg92rcd13ifvqb30","pricing_plan_id":"free"},{"bike_id":"1ea28af2-bc8f-4ee1-b35d-5954dc643e5b","system_id":"levelo_inurba_marseille","lat":43.311722,"lon":5.387247,"is_reserved":false,"is_disabled":false,"rental_uris":{"android":"levelo://app?vid=1ea28af2-bc8f-4ee1-b35d-5954dc643e5b","ios":"levelo://app?vid=1ea28af2-bc8f-4ee1-b35d-5954dc643e5b"},"vehicle_type_id":"4","last_reported":1706735246,"current_range_meters":19600,"station_id":"ce4bgv12rcd13ifvqcp0","pricing_plan_id":"free"},{"bike_id":"a2e10512-574f-47fd-baca-a1ce6651d91d","system_id":"levelo_inurba_marseille","lat":43.31168,"lon":5.387175,"is_reserved":false,"is_disabled":false,"rental_uris":{"android":"levelo://app?vid=a2e10512-574f-47fd-baca-a1ce6651d91d","ios":"levelo://app?vid=a2e10512-574f-47fd-baca-a1ce6651d91d"},"vehicle_type_id":"4","last_reported":1706735246,"current_range_meters":3200,"station_id":"ce4bgv12rcd13ifvqcp0","pricing_plan_id":"free"},{"bike_id":"8097f2b5-9e99-427e-84a3-ccfc126a1725","system_id":"levelo_inurba_marseille","lat":43.311722,"lon":5.387247,"is_reserved":false,"is_disabled":false,"rental_uris":{"android":"levelo://app?vid=8097f2b5-9e99-427e-84a3-ccfc126a1725","ios":"levelo://app?vid=8097f2b5-9e99-427e-84a3-ccfc126a1725"},"vehicle_type_id":"4","last_reported":1706735246,"current_range_meters":0,"station_id":"ce4bgv12rcd13ifvqcp0","pricing_plan_id":"free"},{"bike_id":"54581f70-3f06-43b4-9c13-967ecd30fa44","system_id":"levelo_inurba_marseille","lat":43.311722,"lon":5.387247,"is_reserved":false,"is_disabled":false,"rental_uris":{"android":"levelo://app?vid=54581f70-3f06-43b4-9c13-967ecd30fa44","ios":"levelo://app?vid=54581f70-3f06-43b4-9c13-967ecd30fa44"},"vehicle_type_id":"4","last_reported":1706735246,"current_range_meters":2400,"station_id":"ce4bgv12rcd13ifvqcp0","pricing_plan_id":"free"},{"bike_id":"b914b6c2-1c21-4930-80a8-e730cf0db3b0","system_id":"levelo_inurba_marseille","lat":43.299243,"lon":5.37481,"is_reserved":false,"is_disabled":false,"rental_uris":{"android":"levelo://app?vid=b914b6c2-1c21-4930-80a8-e730cf0db3b0","ios":"levelo://app?vid=b914b6c2-1c21-4930-80a8-e730cf0db3b0"},"vehicle_type_id":"4","last_reported":1706735246,"current_range_meters":7200,"station_id":"ce4bgjh2rcd13ifvqbg0","pricing_plan_id":"free"},{"bike_id":"639a58a8-5679-4a20-9014-ed1eb921742b","system_id":"levelo_inurba_marseille","lat":43.322892,"lon":5.38263,"is_reserved":false,"is_disabled":false,"rental_uris":{"android":"levelo://app?vid=639a58a8-5679-4a20-9014-ed1eb921742b","ios":"levelo://app?vid=639a58a8-5679-4a20-9014-ed1eb921742b"},"vehicle_type_id":"4","last_reported":1706735246,"current_range_meters":19600,"station_id":"ce4bhr12rcd13ifvqhqg","pricing_plan_id":"free"},{"bike_id":"ea5ad0a1-27e3-47c4-89a1-e718950473b9","system_id":"levelo_inurba_marseille","lat":43.32291,"lon":5.38266,"is_reserved":false,"is_disabled":false,"rental_uris":{"android":"levelo://app?vid=ea5ad0a1-27e3-47c4-89a1-e718950473b9","ios":"levelo://app?vid=ea5ad0a1-27e3-47c4-89a1-e718950473b9"},"vehicle_type_id":"4","last_reported":1706735246,"current_range_meters":0,"station_id":"ce4bhr12rcd13ifvqhqg","pricing_plan_id":"free"},{"bike_id":"b804f899-963d-4bd6-b3dd-e2781b06570a","system_id":"levelo_inurba_marseille","lat":43.32287,"lon":5.38273,"is_reserved":false,"is_disabled":false,"rental_uris":{"android":"levelo://app?vid=b804f899-963d-4bd6-b3dd-e2781b06570a","ios":"levelo://app?vid=b804f899-963d-4bd6-b3dd-e2781b06570a"},"vehicle_type_id":"4","last_reported":1706735246,"current_range_meters":0,"station_id":"ce4bhr12rcd13ifvqhqg","pricing_plan_id":"free"},{"bike_id":"2b65db30-3315-4a51-a4c6-1bedc9bd51c7","system_id":"levelo_inurba_marseille","lat":43.3229,"lon":5.3827,"is_reserved":false,"is_disabled":false,"rental_uris":{"android":"levelo://app?vid=2b65db30-3315-4a51-a4c6-1bedc9bd51c7","ios":"levelo://app?vid=2b65db30-3315-4a51-a4c6-1bedc9bd51c7"},"vehicle_type_id":"4","last_reported":1706735246,"current_range_meters":30400,"station_id":"ce4bhr12rcd13ifvqhqg","pricing_plan_id":"free"},{"bike_id":"d4a15d93-c554-43eb-b986-41e223e8926f","system_id":"levelo_inurba_marseille","lat":43.297794,"lon":5.370888,"is_reserved":false,"is_disabled":false,"rental_uris":{"android":"levelo://app?vid=d4a15d93-c554-43eb-b986-41e223e8926f","ios":"levelo://app?vid=d4a15d93-c554-43eb-b986-41e223e8926f"},"vehicle_type_id":"4","last_reported":1706735246,"current_range_meters":12400,"station_id":"ce4bgop2rcd13ifvqc1g","pricing_plan_id":"free"},{"bike_id":"19e08926-8857-44b7-a342-a968b5312c1d","system_id":"levelo_inurba_marseille","lat":43.322872,"lon":5.382756,"is_reserved":false,"is_disabled":false,"rental_uris":{"android":"levelo://app?vid=19e08926-8857-44b7-a342-a968b5312c1d","ios":"levelo://app?vid=19e08926-8857-44b7-a342-a968b5312c1d"},"vehicle_type_id":"4","last_reported":1706735246,"current_range_meters":9200,"station_id":"ce4bhr12rcd13ifvqhqg","pricing_plan_id":"free"},{"bike_id":"a0549a3b-7bbc-46fd-9313-786f3e4be413","system_id":"levelo_inurba_marseille","lat":43.297774,"lon":5.370875,"is_reserved":false,"is_disabled":false,"rental_uris":{"android":"levelo://app?vid=a0549a3b-7bbc-46fd-9313-786f3e4be413","ios":"levelo://app?vid=a0549a3b-7bbc-46fd-9313-786f3e4be413"},"vehicle_type_id":"4","last_reported":1706735246,"current_range_meters":0,"station_id":"ce4bgop2rcd13ifvqc1g","pricing_plan_id":"free"},{"bike_id":"15a97b08-f5cc-4267-8f99-9a3c39cfc79f","system_id":"levelo_inurba_marseille","lat":43.328371,"lon":5.366909,"is_reserved":false,"is_disabled":false,"rental_uris":{"android":"levelo://app?vid=15a97b08-f5cc-4267-8f99-9a3c39cfc79f","ios":"levelo://app?vid=15a97b08-f5cc-4267-8f99-9a3c39cfc79f"},"vehicle_type_id":"4","last_reported":1706735246,"current_range_meters":2000,"station_id":"ce4bhs92rcd13ifvqi0g","pricing_plan_id":"free"},{"bike_id":"503675b8-2bbb-464e-8a48-322c6af8c710","system_id":"levelo_inurba_marseille","lat":43.297163,"lon":5.365866,"is_reserved":false,"is_disabled":false,"rental_uris":{"android":"levelo://app?vid=503675b8-2bbb-464e-8a48-322c6af8c710","ios":"levelo://app?vid=503675b8-2bbb-464e-8a48-322c6af8c710"},"vehicle_type_id":"4","last_reported":1706735246,"current_range_meters":16400,"station_id":"ce4bgn12rcd13ifvqbt0","pricing_plan_id":"free"},{"bike_id":"2c833ca9-ceda-4f55-b086-3ed1018b1638","system_id":"levelo_inurba_marseille","lat":43.2968,"lon":5.37291,"is_reserved":false,"is_disabled":false,"rental_uris":{"android":"levelo://app?vid=2c833ca9-ceda-4f55-b086-3ed1018b1638","ios":"levelo://app?vid=2c833ca9-ceda-4f55-b086-3ed1018b1638"},"vehicle_type_id":"4","last_reported":1706735246,"current_range_meters":23600,"station_id":"ce4bgk12rcd13ifvqbj0","pricing_plan_id":"free"},{"bike_id":"359edfee-a8b5-4e14-8bc4-a7fa356532b9","system_id":"levelo_inurba_marseille","lat":43.31751,"lon":5.38907,"is_reserved":false,"is_disabled":false,"rental_uris":{"android":"levelo://app?vid=359edfee-a8b5-4e14-8bc4-a7fa356532b9","ios":"levelo://app?vid=359edfee-a8b5-4e14-8bc4-a7fa356532b9"},"vehicle_type_id":"4","last_reported":1706735246,"current_range_meters":26400,"station_id":"","pricing_plan_id":"free"},{"bike_id":"26ebe059-9cc7-4d7e-8ef1-0fa697b05aed","system_id":"levelo_inurba_marseille","lat":43.29573,"lon":5.367355,"is_reserved":false,"is_disabled":false,"rental_uris":{"android":"levelo://app?vid=26ebe059-9cc7-4d7e-8ef1-0fa697b05aed","ios":"levelo://app?vid=26ebe059-9cc7-4d7e-8ef1-0fa697b05aed"},"vehicle_type_id":"4","last_reported":1706735246,"current_range_meters":0,"station_id":"ce4bgph2rcd13ifvqc2g","pricing_plan_id":"free"},{"bike_id":"be2b1e70-3efe-4175-9319-6d92d62e6c3c","system_id":"levelo_inurba_marseille","lat":43.29739,"lon":5.37677,"is_reserved":false,"is_disabled":false,"rental_uris":{"android":"levelo://app?vid=be2b1e70-3efe-4175-9319-6d92d62e6c3c","ios":"levelo://app?vid=be2b1e70-3efe-4175-9319-6d92d62e6c3c"},"vehicle_type_id":"4","last_reported":1706735246,"current_range_meters":12400,"station_id":"ce4bgkh2rcd13ifvqbl0","pricing_plan_id":"free"},{"bike_id":"299f6129-ae68-49ba-8a13-440eff8a7c76","system_id":"levelo_inurba_marseille","lat":43.296921,"lon":5.376579,"is_reserved":false,"is_disabled":false,"rental_uris":{"android":"levelo://app?vid=299f6129-ae68-49ba-8a13-440eff8a7c76","ios":"levelo://app?vid=299f6129-ae68-49ba-8a13-440eff8a7c76"},"vehicle_type_id":"4","last_reported":1706735246,"current_range_meters":22000,"station_id":"ce4bgkh2rcd13ifvqbl0","pricing_plan_id":"free"},{"bike_id":"7c132331-0b2a-4416-9ced-8d783d5b1e50","system_id":"levelo_inurba_marseille","lat":43.29909,"lon":5.38142,"is_reserved":false,"is_disabled":false,"rental_uris":{"android":"levelo://app?vid=7c132331-0b2a-4416-9ced-8d783d5b1e50","ios":"levelo://app?vid=7c132331-0b2a-4416-9ced-8d783d5b1e50"},"vehicle_type_id":"4","last_reported":1706735246,"current_range_meters":2800,"station_id":"ce4bgj12rcd13ifvqbc0","pricing_plan_id":"free"},{"bike_id":"7afe9903-ce72-4c33-9428-a620b7908559","system_id":"levelo_inurba_marseille","lat":43.309501,"lon":5.39033,"is_reserved":false,"is_disabled":false,"rental_uris":{"android":"levelo://app?vid=7afe9903-ce72-4c33-9428-a620b7908559","ios":"levelo://app?vid=7afe9903-ce72-4c33-9428-a620b7908559"},"vehicle_type_id":"4","last_reported":1706735246,"current_range_meters":0,"station_id":"ce4bgup2rcd13ifvqco0","pricing_plan_id":"free"},{"bike_id":"6242b800-4253-4cb6-a80b-1255fb07d8f5","system_id":"levelo_inurba_marseille","lat":43.309527,"lon":5.390413,"is_reserved":false,"is_disabled":false,"rental_uris":{"android":"levelo://app?vid=6242b800-4253-4cb6-a80b-1255fb07d8f5","ios":"levelo://app?vid=6242b800-4253-4cb6-a80b-1255fb07d8f5"},"vehicle_type_id":"4","last_reported":1706735246,"current_range_meters":0,"station_id":"ce4bgup2rcd13ifvqco0","pricing_plan_id":"free"},{"bike_id":"071244f1-5189-40c4-bbc7-acdf97e09958","system_id":"levelo_inurba_marseille","lat":43.317557,"lon":5.390173,"is_reserved":false,"is_disabled":false,"rental_uris":{"android":"levelo://app?vid=071244f1-5189-40c4-bbc7-acdf97e09958","ios":"levelo://app?vid=071244f1-5189-40c4-bbc7-acdf97e09958"},"vehicle_type_id":"4","last_reported":1706735246,"current_range_meters":24400,"station_id":"ce4bhqp2rcd13ifvqhng","pricing_plan_id":"free"},{"bike_id":"f6fea7bb-175a-4094-86b5-dd2cf3f3ae6c","system_id":"levelo_inurba_marseille","lat":43.317557,"lon":5.390173,"is_reserved":false,"is_disabled":false,"rental_uris":{"android":"levelo://app?vid=f6fea7bb-175a-4094-86b5-dd2cf3f3ae6c","ios":"levelo://app?vid=f6fea7bb-175a-4094-86b5-dd2cf3f3ae6c"},"vehicle_type_id":"4","last_reported":1706735246,"current_range_meters":12000,"station_id":"ce4bhqp2rcd13ifvqhng","pricing_plan_id":"free"},{"bike_id":"0397b393-b74c-4f42-a209-488a8067a654","system_id":"levelo_inurba_marseille","lat":43.297964,"lon":5.380928,"is_reserved":false,"is_disabled":false,"rental_uris":{"android":"levelo://app?vid=0397b393-b74c-4f42-a209-488a8067a654","ios":"levelo://app?vid=0397b393-b74c-4f42-a209-488a8067a654"},"vehicle_type_id":"4","last_reported":1706735246,"current_range_meters":0,"station_id":"ce4bgip2rcd13ifvqbb0","pricing_plan_id":"free"},{"bike_id":"925d52bb-7da3-4519-a505-5c5c273d356e","system_id":"levelo_inurba_marseille","lat":43.304274,"lon":5.388873,"is_reserved":false,"is_disabled":false,"rental_uris":{"android":"levelo://app?vid=925d52bb-7da3-4519-a505-5c5c273d356e","ios":"levelo://app?vid=925d52bb-7da3-4519-a505-5c5c273d356e"},"vehicle_type_id":"4","last_reported":1706735246,"current_range_meters":4400,"station_id":"ce4bgk12rcd13ifvqbi0","pricing_plan_id":"free"},{"bike_id":"4eb5889b-7cd0-44c4-8620-b8a5e61801e0","system_id":"levelo_inurba_marseille","lat":43.30449,"lon":5.38886,"is_reserved":false,"is_disabled":false,"rental_uris":{"android":"levelo://app?vid=4eb5889b-7cd0-44c4-8620-b8a5e61801e0","ios":"levelo://app?vid=4eb5889b-7cd0-44c4-8620-b8a5e61801e0"},"vehicle_type_id":"4","last_reported":1706735246,"current_range_meters":800,"station_id":"ce4bgk12rcd13ifvqbi0","pricing_plan_id":"free"},{"bike_id":"3bb6ba40-3b56-4741-9a0b-677cdb575144","system_id":"levelo_inurba_marseille","lat":43.30446,"lon":5.38888,"is_reserved":false,"is_disabled":false,"rental_uris":{"android":"levelo://app?vid=3bb6ba40-3b56-4741-9a0b-677cdb575144","ios":"levelo://app?vid=3bb6ba40-3b56-4741-9a0b-677cdb575144"},"vehicle_type_id":"4","last_reported":1706735246,"current_range_meters":6400,"station_id":"ce4bgk12rcd13ifvqbi0","pricing_plan_id":"free"},{"bike_id":"429ef79e-6083-4d7e-94bb-318d63da56bb","system_id":"levelo_inurba_marseille","lat":43.30431,"lon":5.3888,"is_reserved":false,"is_disabled":false,"rental_uris":{"android":"levelo://app?vid=429ef79e-6083-4d7e-94bb-318d63da56bb","ios":"levelo://app?vid=429ef79e-6083-4d7e-94bb-318d63da56bb"},"vehicle_type_id":"4","last_reported":1706735246,"current_range_meters":18800,"station_id":"ce4bgk12rcd13ifvqbi0","pricing_plan_id":"free"},{"bike_id":"39ddd355-a123-4e8d-a5fa-0654a70bfb63","system_id":"levelo_inurba_marseille","lat":43.298037,"lon":5.381066,"is_reserved":false,"is_disabled":false,"rental_uris":{"android":"levelo://app?vid=39ddd355-a123-4e8d-a5fa-0654a70bfb63","ios":"levelo://app?vid=39ddd355-a123-4e8d-a5fa-0654a70bfb63"},"vehicle_type_id":"4","last_reported":1706735246,"current_range_meters":400,"station_id":"ce4bgip2rcd13ifvqbb0","pricing_plan_id":"free"},{"bike_id":"034674a7-f99c-4717-8175-c49c264531b7","system_id":"levelo_inurba_marseille","lat":43.304346,"lon":5.388914,"is_reserved":false,"is_disabled":false,"rental_uris":{"android":"levelo://app?vid=034674a7-f99c-4717-8175-c49c264531b7","ios":"levelo://app?vid=034674a7-f99c-4717-8175-c49c264531b7"},"vehicle_type_id":"4","last_reported":1706735246,"current_range_meters":0,"station_id":"ce4bgk12rcd13ifvqbi0","pricing_plan_id":"free"},{"bike_id":"e3b90f77-b91c-4da0-989d-60ae73a7dbef","system_id":"levelo_inurba_marseille","lat":43.29981,"lon":5.38484,"is_reserved":false,"is_disabled":false,"rental_uris":{"android":"levelo://app?vid=e3b90f77-b91c-4da0-989d-60ae73a7dbef","ios":"levelo://app?vid=e3b90f77-b91c-4da0-989d-60ae73a7dbef"},"vehicle_type_id":"4","last_reported":1706735246,"current_range_meters":0,"station_id":"ce4bgj92rcd13ifvqbd0","pricing_plan_id":"free"},{"bike_id":"e14278bb-f76e-4524-a985-417bd9353a2d","system_id":"levelo_inurba_marseille","lat":43.299795,"lon":5.38488,"is_reserved":false,"is_disabled":false,"rental_uris":{"android":"levelo://app?vid=e14278bb-f76e-4524-a985-417bd9353a2d","ios":"levelo://app?vid=e14278bb-f76e-4524-a985-417bd9353a2d"},"vehicle_type_id":"4","last_reported":1706735246,"current_range_meters":0,"station_id":"ce4bgj92rcd13ifvqbd0","pricing_plan_id":"free"},{"bike_id":"7600766f-843e-462b-b669-b259c6380085","system_id":"levelo_inurba_marseille","lat":43.299724,"lon":5.384848,"is_reserved":false,"is_disabled":false,"rental_uris":{"android":"levelo://app?vid=7600766f-843e-462b-b669-b259c6380085","ios":"levelo://app?vid=7600766f-843e-462b-b669-b259c6380085"},"vehicle_type_id":"4","last_reported":1706735246,"current_range_meters":0,"station_id":"ce4bgj92rcd13ifvqbd0","pricing_plan_id":"free"},{"bike_id":"34582793-307e-45d0-a01e-3715bc0e2f9d","system_id":"levelo_inurba_marseille","lat":43.299725,"lon":5.384862,"is_reserved":false,"is_disabled":false,"rental_uris":{"android":"levelo://app?vid=34582793-307e-45d0-a01e-3715bc0e2f9d","ios":"levelo://app?vid=34582793-307e-45d0-a01e-3715bc0e2f9d"},"vehicle_type_id":"4","last_reported":1706735246,"current_range_meters":0,"station_id":"ce4bgj92rcd13ifvqbd0","pricing_plan_id":"free"},{"bike_id":"d06df43c-f52a-4832-beca-10935790d507","system_id":"levelo_inurba_marseille","lat":43.29974,"lon":5.38494,"is_reserved":false,"is_disabled":false,"rental_uris":{"android":"levelo://app?vid=d06df43c-f52a-4832-beca-10935790d507","ios":"levelo://app?vid=d06df43c-f52a-4832-beca-10935790d507"},"vehicle_type_id":"4","last_reported":1706735246,"current_range_meters":0,"station_id":"ce4bgj92rcd13ifvqbd0","pricing_plan_id":"free"},{"bike_id":"ebdcb1da-c147-412f-8b27-6a3db633779e","system_id":"levelo_inurba_marseille","lat":43.299717,"lon":5.384845,"is_reserved":false,"is_disabled":false,"rental_uris":{"android":"levelo://app?vid=ebdcb1da-c147-412f-8b27-6a3db633779e","ios":"levelo://app?vid=ebdcb1da-c147-412f-8b27-6a3db633779e"},"vehicle_type_id":"4","last_reported":1706735246,"current_range_meters":7200,"station_id":"ce4bgj92rcd13ifvqbd0","pricing_plan_id":"free"},{"bike_id":"de25d637-84ec-4203-b892-3e1c2d7c4ddb","system_id":"levelo_inurba_marseille","lat":43.3317,"lon":5.36444,"is_reserved":false,"is_disabled":false,"rental_uris":{"android":"levelo://app?vid=de25d637-84ec-4203-b892-3e1c2d7c4ddb","ios":"levelo://app?vid=de25d637-84ec-4203-b892-3e1c2d7c4ddb"},"vehicle_type_id":"4","last_reported":1706735246,"current_range_meters":5600,"station_id":"","pricing_plan_id":"free"},{"bike_id":"3304c29f-fdd7-464a-8890-39b8a8474937","system_id":"levelo_inurba_marseille","lat":43.30282,"lon":5.38937,"is_reserved":false,"is_disabled":false,"rental_uris":{"android":"levelo://app?vid=3304c29f-fdd7-464a-8890-39b8a8474937","ios":"levelo://app?vid=3304c29f-fdd7-464a-8890-39b8a8474937"},"vehicle_type_id":"4","last_reported":1706735246,"current_range_meters":8400,"station_id":"","pricing_plan_id":"free"},{"bike_id":"efa6bd51-c94f-4107-9e97-437d3697b8cb","system_id":"levelo_inurba_marseille","lat":43.32367,"lon":5.388836,"is_reserved":false,"is_disabled":false,"rental_uris":{"android":"levelo://app?vid=efa6bd51-c94f-4107-9e97-437d3697b8cb","ios":"levelo://app?vid=efa6bd51-c94f-4107-9e97-437d3697b8cb"},"vehicle_type_id":"4","last_reported":1706735246,"current_range_meters":10400,"station_id":"ce4bhqp2rcd13ifvqhog","pricing_plan_id":"free"},{"bike_id":"202df9dd-3b20-4310-9dde-7a88eca4db2d","system_id":"levelo_inurba_marseille","lat":43.32362,"lon":5.38889,"is_reserved":false,"is_disabled":false,"rental_uris":{"android":"levelo://app?vid=202df9dd-3b20-4310-9dde-7a88eca4db2d","ios":"levelo://app?vid=202df9dd-3b20-4310-9dde-7a88eca4db2d"},"vehicle_type_id":"4","last_reported":1706735246,"current_range_meters":8000,"station_id":"ce4bhqp2rcd13ifvqhog","pricing_plan_id":"free"},{"bike_id":"5742c23a-9a25-486b-9b96-d67cb28234b0","system_id":"levelo_inurba_marseille","lat":43.32367,"lon":5.388836,"is_reserved":false,"is_disabled":false,"rental_uris":{"android":"levelo://app?vid=5742c23a-9a25-486b-9b96-d67cb28234b0","ios":"levelo://app?vid=5742c23a-9a25-486b-9b96-d67cb28234b0"},"vehicle_type_id":"4","last_reported":1706735246,"current_range_meters":17600,"station_id":"ce4bhqp2rcd13ifvqhog","pricing_plan_id":"free"},{"bike_id":"5c8a8fb9-e5ea-41d6-a97e-48148e4680a3","system_id":"levelo_inurba_marseille","lat":43.29602,"lon":5.381084,"is_reserved":false,"is_disabled":false,"rental_uris":{"android":"levelo://app?vid=5c8a8fb9-e5ea-41d6-a97e-48148e4680a3","ios":"levelo://app?vid=5c8a8fb9-e5ea-41d6-a97e-48148e4680a3"},"vehicle_type_id":"4","last_reported":1706735246,"current_range_meters":0,"station_id":"ce4bgl12rcd13ifvqbo0","pricing_plan_id":"free"},{"bike_id":"61f11f0f-dd4f-42da-aae6-b68626d7df93","system_id":"levelo_inurba_marseille","lat":43.29603,"lon":5.380957,"is_reserved":false,"is_disabled":false,"rental_uris":{"android":"levelo://app?vid=61f11f0f-dd4f-42da-aae6-b68626d7df93","ios":"levelo://app?vid=61f11f0f-dd4f-42da-aae6-b68626d7df93"},"vehicle_type_id":"4","last_reported":1706735246,"current_range_meters":0,"station_id":"ce4bgl12rcd13ifvqbo0","pricing_plan_id":"free"},{"bike_id":"be699ee8-4042-4454-be3d-56006bb6fbc4","system_id":"levelo_inurba_marseille","lat":43.293259,"lon":5.371586,"is_reserved":false,"is_disabled":false,"rental_uris":{"android":"levelo://app?vid=be699ee8-4042-4454-be3d-56006bb6fbc4","ios":"levelo://app?vid=be699ee8-4042-4454-be3d-56006bb6fbc4"},"vehicle_type_id":"4","last_reported":1706735246,"current_range_meters":10000,"station_id":"ce4bgh92rcd13ifvqb40","pricing_plan_id":"free"},{"bike_id":"72d802d6-b5e4-4163-b6b0-a25a55bfb9e2","system_id":"levelo_inurba_marseille","lat":43.292749,"lon":5.368402,"is_reserved":false,"is_disabled":false,"rental_uris":{"android":"levelo://app?vid=72d802d6-b5e4-4163-b6b0-a25a55bfb9e2","ios":"levelo://app?vid=72d802d6-b5e4-4163-b6b0-a25a55bfb9e2"},"vehicle_type_id":"4","last_reported":1706735246,"current_range_meters":0,"station_id":"ce4bhbp2rcd13ifvqesg","pricing_plan_id":"free"},{"bike_id":"2d9e67ea-4524-44e8-b13a-6d8b3e53b724","system_id":"levelo_inurba_marseille","lat":43.29303,"lon":5.37445,"is_reserved":false,"is_disabled":false,"rental_uris":{"android":"levelo://app?vid=2d9e67ea-4524-44e8-b13a-6d8b3e53b724","ios":"levelo://app?vid=2d9e67ea-4524-44e8-b13a-6d8b3e53b724"},"vehicle_type_id":"4","last_reported":1706735246,"current_range_meters":0,"station_id":"ce4bgi12rcd13ifvqb70","pricing_plan_id":"free"},{"bike_id":"9403a56d-187f-4145-9f3b-fdac61c679ae","system_id":"levelo_inurba_marseille","lat":43.293009,"lon":5.374584,"is_reserved":false,"is_disabled":false,"rental_uris":{"android":"levelo://app?vid=9403a56d-187f-4145-9f3b-fdac61c679ae","ios":"levelo://app?vid=9403a56d-187f-4145-9f3b-fdac61c679ae"},"vehicle_type_id":"4","last_reported":1706735246,"current_range_meters":1600,"station_id":"ce4bgi12rcd13ifvqb70","pricing_plan_id":"free"},{"bike_id":"1862140e-9956-4ab9-b7c5-cdcacfe523a0","system_id":"levelo_inurba_marseille","lat":43.305994,"lon":5.393687,"is_reserved":false,"is_disabled":false,"rental_uris":{"android":"levelo://app?vid=1862140e-9956-4ab9-b7c5-cdcacfe523a0","ios":"levelo://app?vid=1862140e-9956-4ab9-b7c5-cdcacfe523a0"},"vehicle_type_id":"4","last_reported":1706735246,"current_range_meters":10000,"station_id":"ce4bh0p2rcd13ifvqd80","pricing_plan_id":"free"},{"bike_id":"ae074af2-d2d8-493e-ad57-e323a3723d64","system_id":"levelo_inurba_marseille","lat":43.293009,"lon":5.374584,"is_reserved":false,"is_disabled":false,"rental_uris":{"android":"levelo://app?vid=ae074af2-d2d8-493e-ad57-e323a3723d64","ios":"levelo://app?vid=ae074af2-d2d8-493e-ad57-e323a3723d64"},"vehicle_type_id":"4","last_reported":1706735246,"current_range_meters":0,"station_id":"ce4bgi12rcd13ifvqb70","pricing_plan_id":"free"},{"bike_id":"87d22bb7-d6d3-4caa-b579-428d4b004f65","system_id":"levelo_inurba_marseille","lat":43.293009,"lon":5.374584,"is_reserved":false,"is_disabled":false,"rental_uris":{"android":"levelo://app?vid=87d22bb7-d6d3-4caa-b579-428d4b004f65","ios":"levelo://app?vid=87d22bb7-d6d3-4caa-b579-428d4b004f65"},"vehicle_type_id":"4","last_reported":1706735246,"current_range_meters":0,"station_id":"ce4bgi12rcd13ifvqb70","pricing_plan_id":"free"},{"bike_id":"7cc00cef-f13d-4b9b-ad52-4090def52b1d","system_id":"levelo_inurba_marseille","lat":43.305995,"lon":5.393584,"is_reserved":false,"is_disabled":false,"rental_uris":{"android":"levelo://app?vid=7cc00cef-f13d-4b9b-ad52-4090def52b1d","ios":"levelo://app?vid=7cc00cef-f13d-4b9b-ad52-4090def52b1d"},"vehicle_type_id":"4","last_reported":1706735246,"current_range_meters":0,"station_id":"ce4bh0p2rcd13ifvqd80","pricing_plan_id":"free"},{"bike_id":"db14e45a-63d3-4859-b518-5021585c9251","system_id":"levelo_inurba_marseille","lat":43.293009,"lon":5.374584,"is_reserved":false,"is_disabled":false,"rental_uris":{"android":"levelo://app?vid=db14e45a-63d3-4859-b518-5021585c9251","ios":"levelo://app?vid=db14e45a-63d3-4859-b518-5021585c9251"},"vehicle_type_id":"4","last_reported":1706735246,"current_range_meters":31200,"station_id":"ce4bgi12rcd13ifvqb70","pricing_plan_id":"free"},{"bike_id":"3cadcd5f-1d40-484a-8e07-aaed8ba431a0","system_id":"levelo_inurba_marseille","lat":43.300852,"lon":5.390859,"is_reserved":false,"is_disabled":false,"rental_uris":{"android":"levelo://app?vid=3cadcd5f-1d40-484a-8e07-aaed8ba431a0","ios":"levelo://app?vid=3cadcd5f-1d40-484a-8e07-aaed8ba431a0"},"vehicle_type_id":"4","last_reported":1706735246,"current_range_meters":8800,"station_id":"ce4bh192rcd13ifvqdb0","pricing_plan_id":"free"},{"bike_id":"107bd944-459a-4ea1-a3f7-09f2d96cc030","system_id":"levelo_inurba_marseille","lat":43.300935,"lon":5.39076,"is_reserved":false,"is_disabled":false,"rental_uris":{"android":"levelo://app?vid=107bd944-459a-4ea1-a3f7-09f2d96cc030","ios":"levelo://app?vid=107bd944-459a-4ea1-a3f7-09f2d96cc030"},"vehicle_type_id":"4","last_reported":1706735246,"current_range_meters":0,"station_id":"ce4bh192rcd13ifvqdb0","pricing_plan_id":"free"},{"bike_id":"adcb8971-170c-496c-a2c0-065565f9cbbc","system_id":"levelo_inurba_marseille","lat":43.300852,"lon":5.390859,"is_reserved":false,"is_disabled":false,"rental_uris":{"android":"levelo://app?vid=adcb8971-170c-496c-a2c0-065565f9cbbc","ios":"levelo://app?vid=adcb8971-170c-496c-a2c0-065565f9cbbc"},"vehicle_type_id":"4","last_reported":1706735246,"current_range_meters":24400,"station_id":"ce4bh192rcd13ifvqdb0","pricing_plan_id":"free"},{"bike_id":"81681c36-90c0-49a0-8db9-49a0df457fae","system_id":"levelo_inurba_marseille","lat":43.292311,"lon":5.360731,"is_reserved":false,"is_disabled":false,"rental_uris":{"android":"levelo://app?vid=81681c36-90c0-49a0-8db9-49a0df457fae","ios":"levelo://app?vid=81681c36-90c0-49a0-8db9-49a0df457fae"},"vehicle_type_id":"4","last_reported":1706735246,"current_range_meters":0,"station_id":"ce4bhbh2rcd13ifvqeqg","pricing_plan_id":"free"},{"bike_id":"9f71cd43-89a2-4ea5-b573-ae21e701114e","system_id":"levelo_inurba_marseille","lat":43.298764,"lon":5.388973,"is_reserved":false,"is_disabled":false,"rental_uris":{"android":"levelo://app?vid=9f71cd43-89a2-4ea5-b573-ae21e701114e","ios":"levelo://app?vid=9f71cd43-89a2-4ea5-b573-ae21e701114e"},"vehicle_type_id":"4","last_reported":1706735246,"current_range_meters":12400,"station_id":"ce4bh392rcd13ifvqdl0","pricing_plan_id":"free"},{"bike_id":"f1f6e459-ef3e-4a20-9d7c-694454d2b528","system_id":"levelo_inurba_marseille","lat":43.29875,"lon":5.389,"is_reserved":false,"is_disabled":false,"rental_uris":{"android":"levelo://app?vid=f1f6e459-ef3e-4a20-9d7c-694454d2b528","ios":"levelo://app?vid=f1f6e459-ef3e-4a20-9d7c-694454d2b528"},"vehicle_type_id":"4","last_reported":1706735246,"current_range_meters":0,"station_id":"ce4bh392rcd13ifvqdl0","pricing_plan_id":"free"},{"bike_id":"6f2aea29-912f-4451-a6c8-fc33e99bad16","system_id":"levelo_inurba_marseille","lat":43.298764,"lon":5.388973,"is_reserved":false,"is_disabled":false,"rental_uris":{"android":"levelo://app?vid=6f2aea29-912f-4451-a6c8-fc33e99bad16","ios":"levelo://app?vid=6f2aea29-912f-4451-a6c8-fc33e99bad16"},"vehicle_type_id":"4","last_reported":1706735246,"current_range_meters":20000,"station_id":"ce4bh392rcd13ifvqdl0","pricing_plan_id":"free"},{"bike_id":"cd4e9f08-8bad-491a-84ec-e2a431078c70","system_id":"levelo_inurba_marseille","lat":43.309047,"lon":5.396551,"is_reserved":false,"is_disabled":false,"rental_uris":{"android":"levelo://app?vid=cd4e9f08-8bad-491a-84ec-e2a431078c70","ios":"levelo://app?vid=cd4e9f08-8bad-491a-84ec-e2a431078c70"},"vehicle_type_id":"4","last_reported":1706735246,"current_range_meters":8800,"station_id":"ce4bh012rcd13ifvqcv0","pricing_plan_id":"free"},{"bike_id":"d9eee9ca-d448-4f13-a9e8-df29da322b9b","system_id":"levelo_inurba_marseille","lat":43.309253,"lon":5.39644,"is_reserved":false,"is_disabled":false,"rental_uris":{"android":"levelo://app?vid=d9eee9ca-d448-4f13-a9e8-df29da322b9b","ios":"levelo://app?vid=d9eee9ca-d448-4f13-a9e8-df29da322b9b"},"vehicle_type_id":"4","last_reported":1706735246,"current_range_meters":800,"station_id":"ce4bh012rcd13ifvqcv0","pricing_plan_id":"free"},{"bike_id":"1f818925-7a8c-48bd-b2f3-1e615da45bac","system_id":"levelo_inurba_marseille","lat":43.30886,"lon":5.3964,"is_reserved":false,"is_disabled":false,"rental_uris":{"android":"levelo://app?vid=1f818925-7a8c-48bd-b2f3-1e615da45bac","ios":"levelo://app?vid=1f818925-7a8c-48bd-b2f3-1e615da45bac"},"vehicle_type_id":"4","last_reported":1706735246,"current_range_meters":20800,"station_id":"ce4bh012rcd13ifvqcv0","pricing_plan_id":"free"},{"bike_id":"8c38e05c-22c7-41e9-8d01-b9cc4eb2b76f","system_id":"levelo_inurba_marseille","lat":43.313291,"lon":5.396838,"is_reserved":false,"is_disabled":false,"rental_uris":{"android":"levelo://app?vid=8c38e05c-22c7-41e9-8d01-b9cc4eb2b76f","ios":"levelo://app?vid=8c38e05c-22c7-41e9-8d01-b9cc4eb2b76f"},"vehicle_type_id":"4","last_reported":1706735246,"current_range_meters":9200,"station_id":"ce4bgvp2rcd13ifvqcu0","pricing_plan_id":"free"},{"bike_id":"01bf2c3c-b239-44a2-8eb8-3a763b419abc","system_id":"levelo_inurba_marseille","lat":43.313291,"lon":5.396838,"is_reserved":false,"is_disabled":false,"rental_uris":{"android":"levelo://app?vid=01bf2c3c-b239-44a2-8eb8-3a763b419abc","ios":"levelo://app?vid=01bf2c3c-b239-44a2-8eb8-3a763b419abc"},"vehicle_type_id":"4","last_reported":1706735246,"current_range_meters":800,"station_id":"ce4bgvp2rcd13ifvqcu0","pricing_plan_id":"free"},{"bike_id":"dcbcff10-03a8-49a9-a6a6-abd8aa9b95c1","system_id":"levelo_inurba_marseille","lat":43.30883,"lon":5.39646,"is_reserved":false,"is_disabled":false,"rental_uris":{"android":"levelo://app?vid=dcbcff10-03a8-49a9-a6a6-abd8aa9b95c1","ios":"levelo://app?vid=dcbcff10-03a8-49a9-a6a6-abd8aa9b95c1"},"vehicle_type_id":"4","last_reported":1706735246,"current_range_meters":16000,"station_id":"ce4bh012rcd13ifvqcv0","pricing_plan_id":"free"},{"bike_id":"5f1ddc79-fa18-48aa-a601-7af24d9c69df","system_id":"levelo_inurba_marseille","lat":43.30882,"lon":5.39646,"is_reserved":false,"is_disabled":false,"rental_uris":{"android":"levelo://app?vid=5f1ddc79-fa18-48aa-a601-7af24d9c69df","ios":"levelo://app?vid=5f1ddc79-fa18-48aa-a601-7af24d9c69df"},"vehicle_type_id":"4","last_reported":1706735246,"current_range_meters":0,"station_id":"ce4bh012rcd13ifvqcv0","pricing_plan_id":"free"},{"bike_id":"203ee67e-f672-4eed-a0b9-3de19e570693","system_id":"levelo_inurba_marseille","lat":43.313291,"lon":5.396838,"is_reserved":false,"is_disabled":false,"rental_uris":{"android":"levelo://app?vid=203ee67e-f672-4eed-a0b9-3de19e570693","ios":"levelo://app?vid=203ee67e-f672-4eed-a0b9-3de19e570693"},"vehicle_type_id":"4","last_reported":1706735246,"current_range_meters":0,"station_id":"ce4bgvp2rcd13ifvqcu0","pricing_plan_id":"free"},{"bike_id":"3e74f3af-382f-46c0-943f-37b390847d0c","system_id":"levelo_inurba_marseille","lat":43.29548,"lon":5.38534,"is_reserved":false,"is_disabled":false,"rental_uris":{"android":"levelo://app?vid=3e74f3af-382f-46c0-943f-37b390847d0c","ios":"levelo://app?vid=3e74f3af-382f-46c0-943f-37b390847d0c"},"vehicle_type_id":"4","last_reported":1706735246,"current_range_meters":0,"station_id":"ce4bgih2rcd13ifvqba0","pricing_plan_id":"free"},{"bike_id":"3e297e7d-75ec-4f08-8240-c12ba2534744","system_id":"levelo_inurba_marseille","lat":43.308847,"lon":5.396483,"is_reserved":false,"is_disabled":false,"rental_uris":{"android":"levelo://app?vid=3e297e7d-75ec-4f08-8240-c12ba2534744","ios":"levelo://app?vid=3e297e7d-75ec-4f08-8240-c12ba2534744"},"vehicle_type_id":"4","last_reported":1706735246,"current_range_meters":14000,"station_id":"ce4bh012rcd13ifvqcv0","pricing_plan_id":"free"},{"bike_id":"ca3d87c3-82bd-4978-b15a-03c5420dc1b0","system_id":"levelo_inurba_marseille","lat":43.309047,"lon":5.396551,"is_reserved":false,"is_disabled":false,"rental_uris":{"android":"levelo://app?vid=ca3d87c3-82bd-4978-b15a-03c5420dc1b0","ios":"levelo://app?vid=ca3d87c3-82bd-4978-b15a-03c5420dc1b0"},"vehicle_type_id":"4","last_reported":1706735246,"current_range_meters":26400,"station_id":"ce4bh012rcd13ifvqcv0","pricing_plan_id":"free"},{"bike_id":"0658b839-2464-491d-ae2d-81d59935b490","system_id":"levelo_inurba_marseille","lat":43.30886,"lon":5.39649,"is_reserved":false,"is_disabled":false,"rental_uris":{"android":"levelo://app?vid=0658b839-2464-491d-ae2d-81d59935b490","ios":"levelo://app?vid=0658b839-2464-491d-ae2d-81d59935b490"},"vehicle_type_id":"4","last_reported":1706735246,"current_range_meters":0,"station_id":"ce4bh012rcd13ifvqcv0","pricing_plan_id":"free"},{"bike_id":"a9a4da08-495b-4fa5-ba32-47bd0fea8815","system_id":"levelo_inurba_marseille","lat":43.30877,"lon":5.39647,"is_reserved":false,"is_disabled":false,"rental_uris":{"android":"levelo://app?vid=a9a4da08-495b-4fa5-ba32-47bd0fea8815","ios":"levelo://app?vid=a9a4da08-495b-4fa5-ba32-47bd0fea8815"},"vehicle_type_id":"4","last_reported":1706735246,"current_range_meters":18800,"station_id":"ce4bh012rcd13ifvqcv0","pricing_plan_id":"free"},{"bike_id":"4544aa02-15cb-442f-bf95-dda24b00f359","system_id":"levelo_inurba_marseille","lat":43.308733,"lon":5.396467,"is_reserved":false,"is_disabled":false,"rental_uris":{"android":"levelo://app?vid=4544aa02-15cb-442f-bf95-dda24b00f359","ios":"levelo://app?vid=4544aa02-15cb-442f-bf95-dda24b00f359"},"vehicle_type_id":"4","last_reported":1706735246,"current_range_meters":22800,"station_id":"ce4bh012rcd13ifvqcv0","pricing_plan_id":"free"},{"bike_id":"53a9b648-d0a7-4c22-b4f8-cc0f0089a3d5","system_id":"levelo_inurba_marseille","lat":43.30881,"lon":5.39649,"is_reserved":false,"is_disabled":false,"rental_uris":{"android":"levelo://app?vid=53a9b648-d0a7-4c22-b4f8-cc0f0089a3d5","ios":"levelo://app?vid=53a9b648-d0a7-4c22-b4f8-cc0f0089a3d5"},"vehicle_type_id":"4","last_reported":1706735246,"current_range_meters":19200,"station_id":"ce4bh012rcd13ifvqcv0","pricing_plan_id":"free"},{"bike_id":"975c5a9e-df9d-4e6d-ac66-eebb43cbfc32","system_id":"levelo_inurba_marseille","lat":43.30885,"lon":5.39651,"is_reserved":false,"is_disabled":false,"rental_uris":{"android":"levelo://app?vid=975c5a9e-df9d-4e6d-ac66-eebb43cbfc32","ios":"levelo://app?vid=975c5a9e-df9d-4e6d-ac66-eebb43cbfc32"},"vehicle_type_id":"4","last_reported":1706735246,"current_range_meters":7200,"station_id":"ce4bh012rcd13ifvqcv0","pricing_plan_id":"free"},{"bike_id":"7a38495a-5749-4ec8-982e-8ea39f42bef0","system_id":"levelo_inurba_marseille","lat":43.309047,"lon":5.396551,"is_reserved":false,"is_disabled":false,"rental_uris":{"android":"levelo://app?vid=7a38495a-5749-4ec8-982e-8ea39f42bef0","ios":"levelo://app?vid=7a38495a-5749-4ec8-982e-8ea39f42bef0"},"vehicle_type_id":"4","last_reported":1706735246,"current_range_meters":0,"station_id":"ce4bh012rcd13ifvqcv0","pricing_plan_id":"free"},{"bike_id":"6d3ffde0-0fa8-4788-a216-221c438b8744","system_id":"levelo_inurba_marseille","lat":43.30864,"lon":5.39646,"is_reserved":false,"is_disabled":false,"rental_uris":{"android":"levelo://app?vid=6d3ffde0-0fa8-4788-a216-221c438b8744","ios":"levelo://app?vid=6d3ffde0-0fa8-4788-a216-221c438b8744"},"vehicle_type_id":"4","last_reported":1706735246,"current_range_meters":0,"station_id":"ce4bh012rcd13ifvqcv0","pricing_plan_id":"free"},{"bike_id":"2983d506-c322-4e48-b149-0edfd49f85b5","system_id":"levelo_inurba_marseille","lat":43.30876,"lon":5.396493,"is_reserved":false,"is_disabled":false,"rental_uris":{"android":"levelo://app?vid=2983d506-c322-4e48-b149-0edfd49f85b5","ios":"levelo://app?vid=2983d506-c322-4e48-b149-0edfd49f85b5"},"vehicle_type_id":"4","last_reported":1706735246,"current_range_meters":11600,"station_id":"ce4bh012rcd13ifvqcv0","pricing_plan_id":"free"},{"bike_id":"bcdf51c3-6ed9-44ca-bbe0-7a64d07b88f0","system_id":"levelo_inurba_marseille","lat":43.29529,"lon":5.385581,"is_reserved":false,"is_disabled":false,"rental_uris":{"android":"levelo://app?vid=bcdf51c3-6ed9-44ca-bbe0-7a64d07b88f0","ios":"levelo://app?vid=bcdf51c3-6ed9-44ca-bbe0-7a64d07b88f0"},"vehicle_type_id":"4","last_reported":1706735246,"current_range_meters":24400,"station_id":"ce4bgih2rcd13ifvqba0","pricing_plan_id":"free"},{"bike_id":"ad51f6eb-1c21-4bac-a53b-c9c4b9b66de2","system_id":"levelo_inurba_marseille","lat":43.29535,"lon":5.38534,"is_reserved":false,"is_disabled":false,"rental_uris":{"android":"levelo://app?vid=ad51f6eb-1c21-4bac-a53b-c9c4b9b66de2","ios":"levelo://app?vid=ad51f6eb-1c21-4bac-a53b-c9c4b9b66de2"},"vehicle_type_id":"4","last_reported":1706735246,"current_range_meters":0,"station_id":"ce4bgih2rcd13ifvqba0","pricing_plan_id":"free"},{"bike_id":"9b6a69e3-2133-4da3-a061-3c612ddb7cc3","system_id":"levelo_inurba_marseille","lat":43.29529,"lon":5.385581,"is_reserved":false,"is_disabled":false,"rental_uris":{"android":"levelo://app?vid=9b6a69e3-2133-4da3-a061-3c612ddb7cc3","ios":"levelo://app?vid=9b6a69e3-2133-4da3-a061-3c612ddb7cc3"},"vehicle_type_id":"4","last_reported":1706735246,"current_range_meters":12800,"station_id":"ce4bgih2rcd13ifvqba0","pricing_plan_id":"free"},{"bike_id":"616adcec-eabb-4a02-8ecf-11e4fbc220cf","system_id":"levelo_inurba_marseille","lat":43.29529,"lon":5.385581,"is_reserved":false,"is_disabled":false,"rental_uris":{"android":"levelo://app?vid=616adcec-eabb-4a02-8ecf-11e4fbc220cf","ios":"levelo://app?vid=616adcec-eabb-4a02-8ecf-11e4fbc220cf"},"vehicle_type_id":"4","last_reported":1706735246,"current_range_meters":0,"station_id":"ce4bgih2rcd13ifvqba0","pricing_plan_id":"free"},{"bike_id":"7af2b996-ef86-413e-99f9-38c20c546494","system_id":"levelo_inurba_marseille","lat":43.29535,"lon":5.38546,"is_reserved":false,"is_disabled":false,"rental_uris":{"android":"levelo://app?vid=7af2b996-ef86-413e-99f9-38c20c546494","ios":"levelo://app?vid=7af2b996-ef86-413e-99f9-38c20c546494"},"vehicle_type_id":"4","last_reported":1706735246,"current_range_meters":14800,"station_id":"ce4bgih2rcd13ifvqba0","pricing_plan_id":"free"},{"bike_id":"92e45770-c800-4cb9-8918-d4981584b936","system_id":"levelo_inurba_marseille","lat":43.2954,"lon":5.38555,"is_reserved":false,"is_disabled":false,"rental_uris":{"android":"levelo://app?vid=92e45770-c800-4cb9-8918-d4981584b936","ios":"levelo://app?vid=92e45770-c800-4cb9-8918-d4981584b936"},"vehicle_type_id":"4","last_reported":1706735246,"current_range_meters":1600,"station_id":"ce4bgih2rcd13ifvqba0","pricing_plan_id":"free"},{"bike_id":"9204efed-1635-4897-aa06-1f184de6b459","system_id":"levelo_inurba_marseille","lat":43.2953,"lon":5.385379,"is_reserved":false,"is_disabled":false,"rental_uris":{"android":"levelo://app?vid=9204efed-1635-4897-aa06-1f184de6b459","ios":"levelo://app?vid=9204efed-1635-4897-aa06-1f184de6b459"},"vehicle_type_id":"4","last_reported":1706735246,"current_range_meters":0,"station_id":"ce4bgih2rcd13ifvqba0","pricing_plan_id":"free"},{"bike_id":"90231a53-f8d3-4a57-a06f-946d4ec3dfee","system_id":"levelo_inurba_marseille","lat":43.29529,"lon":5.385581,"is_reserved":false,"is_disabled":false,"rental_uris":{"android":"levelo://app?vid=90231a53-f8d3-4a57-a06f-946d4ec3dfee","ios":"levelo://app?vid=90231a53-f8d3-4a57-a06f-946d4ec3dfee"},"vehicle_type_id":"4","last_reported":1706735246,"current_range_meters":0,"station_id":"ce4bgih2rcd13ifvqba0","pricing_plan_id":"free"},{"bike_id":"ab12ea50-7449-4efc-8f77-89ec66ee1556","system_id":"levelo_inurba_marseille","lat":43.295282,"lon":5.38545,"is_reserved":false,"is_disabled":false,"rental_uris":{"android":"levelo://app?vid=ab12ea50-7449-4efc-8f77-89ec66ee1556","ios":"levelo://app?vid=ab12ea50-7449-4efc-8f77-89ec66ee1556"},"vehicle_type_id":"4","last_reported":1706735246,"current_range_meters":0,"station_id":"ce4bgih2rcd13ifvqba0","pricing_plan_id":"free"},{"bike_id":"affffeef-7045-487b-b08a-a7d6fe0fbc37","system_id":"levelo_inurba_marseille","lat":43.290779,"lon":5.371482,"is_reserved":false,"is_disabled":false,"rental_uris":{"android":"levelo://app?vid=affffeef-7045-487b-b08a-a7d6fe0fbc37","ios":"levelo://app?vid=affffeef-7045-487b-b08a-a7d6fe0fbc37"},"vehicle_type_id":"4","last_reported":1706735246,"current_range_meters":13600,"station_id":"ce4bh5p2rcd13ifvqe4g","pricing_plan_id":"free"},{"bike_id":"7c1b0680-cc96-4789-b0e5-8e382608dc01","system_id":"levelo_inurba_marseille","lat":43.290779,"lon":5.371482,"is_reserved":false,"is_disabled":false,"rental_uris":{"android":"levelo://app?vid=7c1b0680-cc96-4789-b0e5-8e382608dc01","ios":"levelo://app?vid=7c1b0680-cc96-4789-b0e5-8e382608dc01"},"vehicle_type_id":"4","last_reported":1706735246,"current_range_meters":18800,"station_id":"ce4bh5p2rcd13ifvqe4g","pricing_plan_id":"free"},{"bike_id":"33d72db6-d8de-43d0-a39b-6d12a02700d9","system_id":"levelo_inurba_marseille","lat":43.290779,"lon":5.371482,"is_reserved":false,"is_disabled":false,"rental_uris":{"android":"levelo://app?vid=33d72db6-d8de-43d0-a39b-6d12a02700d9","ios":"levelo://app?vid=33d72db6-d8de-43d0-a39b-6d12a02700d9"},"vehicle_type_id":"4","last_reported":1706735246,"current_range_meters":13600,"station_id":"ce4bh5p2rcd13ifvqe4g","pricing_plan_id":"free"},{"bike_id":"2f2f8b28-b0ec-4d44-b7f3-cd2dec7dee8d","system_id":"levelo_inurba_marseille","lat":43.30227,"lon":5.39466,"is_reserved":false,"is_disabled":false,"rental_uris":{"android":"levelo://app?vid=2f2f8b28-b0ec-4d44-b7f3-cd2dec7dee8d","ios":"levelo://app?vid=2f2f8b28-b0ec-4d44-b7f3-cd2dec7dee8d"},"vehicle_type_id":"4","last_reported":1706735246,"current_range_meters":400,"station_id":"ce4bh0p2rcd13ifvqd70","pricing_plan_id":"free"},{"bike_id":"f086a9a2-1463-4f0d-a1ec-13130f63a634","system_id":"levelo_inurba_marseille","lat":43.30224,"lon":5.39466,"is_reserved":false,"is_disabled":false,"rental_uris":{"android":"levelo://app?vid=f086a9a2-1463-4f0d-a1ec-13130f63a634","ios":"levelo://app?vid=f086a9a2-1463-4f0d-a1ec-13130f63a634"},"vehicle_type_id":"4","last_reported":1706735246,"current_range_meters":4800,"station_id":"ce4bh0p2rcd13ifvqd70","pricing_plan_id":"free"},{"bike_id":"654c0564-50ad-427b-9923-f8680b1b6ead","system_id":"levelo_inurba_marseille","lat":43.30214,"lon":5.39459,"is_reserved":false,"is_disabled":false,"rental_uris":{"android":"levelo://app?vid=654c0564-50ad-427b-9923-f8680b1b6ead","ios":"levelo://app?vid=654c0564-50ad-427b-9923-f8680b1b6ead"},"vehicle_type_id":"4","last_reported":1706735246,"current_range_meters":1600,"station_id":"ce4bh0p2rcd13ifvqd70","pricing_plan_id":"free"},{"bike_id":"b3f507d3-b731-4eb6-bb0f-2df076a9d5f9","system_id":"levelo_inurba_marseille","lat":43.302254,"lon":5.394692,"is_reserved":false,"is_disabled":false,"rental_uris":{"android":"levelo://app?vid=b3f507d3-b731-4eb6-bb0f-2df076a9d5f9","ios":"levelo://app?vid=b3f507d3-b731-4eb6-bb0f-2df076a9d5f9"},"vehicle_type_id":"4","last_reported":1706735246,"current_range_meters":14800,"station_id":"ce4bh0p2rcd13ifvqd70","pricing_plan_id":"free"},{"bike_id":"efecc249-d953-4641-8f00-713b28d143af","system_id":"levelo_inurba_marseille","lat":43.30214,"lon":5.39462,"is_reserved":false,"is_disabled":false,"rental_uris":{"android":"levelo://app?vid=efecc249-d953-4641-8f00-713b28d143af","ios":"levelo://app?vid=efecc249-d953-4641-8f00-713b28d143af"},"vehicle_type_id":"4","last_reported":1706735246,"current_range_meters":11600,"station_id":"ce4bh0p2rcd13ifvqd70","pricing_plan_id":"free"},{"bike_id":"e7dcdd9b-b073-4352-8ebe-7f512d5522b9","system_id":"levelo_inurba_marseille","lat":43.30221,"lon":5.39469,"is_reserved":false,"is_disabled":false,"rental_uris":{"android":"levelo://app?vid=e7dcdd9b-b073-4352-8ebe-7f512d5522b9","ios":"levelo://app?vid=e7dcdd9b-b073-4352-8ebe-7f512d5522b9"},"vehicle_type_id":"4","last_reported":1706735246,"current_range_meters":21200,"station_id":"ce4bh0p2rcd13ifvqd70","pricing_plan_id":"free"},{"bike_id":"d1216e46-80ef-46da-9856-a3cf299f082d","system_id":"levelo_inurba_marseille","lat":43.30212,"lon":5.39467,"is_reserved":false,"is_disabled":false,"rental_uris":{"android":"levelo://app?vid=d1216e46-80ef-46da-9856-a3cf299f082d","ios":"levelo://app?vid=d1216e46-80ef-46da-9856-a3cf299f082d"},"vehicle_type_id":"4","last_reported":1706735246,"current_range_meters":6000,"station_id":"ce4bh0p2rcd13ifvqd70","pricing_plan_id":"free"},{"bike_id":"7d29cc83-e3c5-4598-85ad-f99c45403296","system_id":"levelo_inurba_marseille","lat":43.30209,"lon":5.39466,"is_reserved":false,"is_disabled":false,"rental_uris":{"android":"levelo://app?vid=7d29cc83-e3c5-4598-85ad-f99c45403296","ios":"levelo://app?vid=7d29cc83-e3c5-4598-85ad-f99c45403296"},"vehicle_type_id":"4","last_reported":1706735246,"current_range_meters":6400,"station_id":"ce4bh0p2rcd13ifvqd70","pricing_plan_id":"free"},{"bike_id":"71983818-e9b2-47ce-a350-84451725dd36","system_id":"levelo_inurba_marseille","lat":43.30219,"lon":5.39474,"is_reserved":false,"is_disabled":false,"rental_uris":{"android":"levelo://app?vid=71983818-e9b2-47ce-a350-84451725dd36","ios":"levelo://app?vid=71983818-e9b2-47ce-a350-84451725dd36"},"vehicle_type_id":"4","last_reported":1706735246,"current_range_meters":0,"station_id":"ce4bh0p2rcd13ifvqd70","pricing_plan_id":"free"},{"bike_id":"85d26d74-98c6-4005-8d22-0246ed297cd0","system_id":"levelo_inurba_marseille","lat":43.30224,"lon":5.3948,"is_reserved":false,"is_disabled":false,"rental_uris":{"android":"levelo://app?vid=85d26d74-98c6-4005-8d22-0246ed297cd0","ios":"levelo://app?vid=85d26d74-98c6-4005-8d22-0246ed297cd0"},"vehicle_type_id":"4","last_reported":1706735246,"current_range_meters":23200,"station_id":"ce4bh0p2rcd13ifvqd70","pricing_plan_id":"free"},{"bike_id":"7137ffbd-1cc9-4c4a-a9ad-e5317a59f5e7","system_id":"levelo_inurba_marseille","lat":43.30208,"lon":5.39469,"is_reserved":false,"is_disabled":false,"rental_uris":{"android":"levelo://app?vid=7137ffbd-1cc9-4c4a-a9ad-e5317a59f5e7","ios":"levelo://app?vid=7137ffbd-1cc9-4c4a-a9ad-e5317a59f5e7"},"vehicle_type_id":"4","last_reported":1706735246,"current_range_meters":20800,"station_id":"ce4bh0p2rcd13ifvqd70","pricing_plan_id":"free"},{"bike_id":"76346ad2-f4a5-42c7-8b7f-1b30d1fbf708","system_id":"levelo_inurba_marseille","lat":43.3021,"lon":5.39472,"is_reserved":false,"is_disabled":false,"rental_uris":{"android":"levelo://app?vid=76346ad2-f4a5-42c7-8b7f-1b30d1fbf708","ios":"levelo://app?vid=76346ad2-f4a5-42c7-8b7f-1b30d1fbf708"},"vehicle_type_id":"4","last_reported":1706735246,"current_range_meters":14000,"station_id":"ce4bh0p2rcd13ifvqd70","pricing_plan_id":"free"},{"bike_id":"7999414f-6546-439b-b701-0027b24c97fd","system_id":"levelo_inurba_marseille","lat":43.290624,"lon":5.359245,"is_reserved":false,"is_disabled":false,"rental_uris":{"android":"levelo://app?vid=7999414f-6546-439b-b701-0027b24c97fd","ios":"levelo://app?vid=7999414f-6546-439b-b701-0027b24c97fd"},"vehicle_type_id":"4","last_reported":1706735246,"current_range_meters":0,"station_id":"ce4bha92rcd13ifvqeg0","pricing_plan_id":"free"},{"bike_id":"882772a8-9849-439b-86be-3fb4253e8cac","system_id":"levelo_inurba_marseille","lat":43.290631,"lon":5.359244,"is_reserved":false,"is_disabled":false,"rental_uris":{"android":"levelo://app?vid=882772a8-9849-439b-86be-3fb4253e8cac","ios":"levelo://app?vid=882772a8-9849-439b-86be-3fb4253e8cac"},"vehicle_type_id":"4","last_reported":1706735246,"current_range_meters":9600,"station_id":"ce4bha92rcd13ifvqeg0","pricing_plan_id":"free"},{"bike_id":"2c1e47ad-3478-424c-8c66-23a600b1f0dc","system_id":"levelo_inurba_marseille","lat":43.290441,"lon":5.359123,"is_reserved":false,"is_disabled":false,"rental_uris":{"android":"levelo://app?vid=2c1e47ad-3478-424c-8c66-23a600b1f0dc","ios":"levelo://app?vid=2c1e47ad-3478-424c-8c66-23a600b1f0dc"},"vehicle_type_id":"4","last_reported":1706735246,"current_range_meters":12800,"station_id":"","pricing_plan_id":"free"},{"bike_id":"f740c94f-577a-4705-ac68-1c0bbcec167c","system_id":"levelo_inurba_marseille","lat":43.294153,"lon":5.386305,"is_reserved":false,"is_disabled":false,"rental_uris":{"android":"levelo://app?vid=f740c94f-577a-4705-ac68-1c0bbcec167c","ios":"levelo://app?vid=f740c94f-577a-4705-ac68-1c0bbcec167c"},"vehicle_type_id":"4","last_reported":1706735246,"current_range_meters":5600,"station_id":"ce4bh2h2rcd13ifvqdh0","pricing_plan_id":"free"},{"bike_id":"b561d4af-5b48-4ae9-aa5a-986f36209b30","system_id":"levelo_inurba_marseille","lat":43.290327,"lon":5.375711,"is_reserved":false,"is_disabled":false,"rental_uris":{"android":"levelo://app?vid=b561d4af-5b48-4ae9-aa5a-986f36209b30","ios":"levelo://app?vid=b561d4af-5b48-4ae9-aa5a-986f36209b30"},"vehicle_type_id":"4","last_reported":1706735246,"current_range_meters":20000,"station_id":"ce4bh692rcd13ifvqe90","pricing_plan_id":"free"},{"bike_id":"8661aa3b-25a6-47c9-822a-bb749007cc5d","system_id":"levelo_inurba_marseille","lat":43.294153,"lon":5.386305,"is_reserved":false,"is_disabled":false,"rental_uris":{"android":"levelo://app?vid=8661aa3b-25a6-47c9-822a-bb749007cc5d","ios":"levelo://app?vid=8661aa3b-25a6-47c9-822a-bb749007cc5d"},"vehicle_type_id":"4","last_reported":1706735246,"current_range_meters":1200,"station_id":"ce4bh2h2rcd13ifvqdh0","pricing_plan_id":"free"},{"bike_id":"56a45016-b2cd-4cb8-9eed-22415827c71a","system_id":"levelo_inurba_marseille","lat":43.294153,"lon":5.386305,"is_reserved":false,"is_disabled":false,"rental_uris":{"android":"levelo://app?vid=56a45016-b2cd-4cb8-9eed-22415827c71a","ios":"levelo://app?vid=56a45016-b2cd-4cb8-9eed-22415827c71a"},"vehicle_type_id":"4","last_reported":1706735246,"current_range_meters":1200,"station_id":"ce4bh2h2rcd13ifvqdh0","pricing_plan_id":"free"},{"bike_id":"ad3c1bea-0eac-41ea-9c2d-a94c867a5c25","system_id":"levelo_inurba_marseille","lat":43.289468,"lon":5.363719,"is_reserved":false,"is_disabled":false,"rental_uris":{"android":"levelo://app?vid=ad3c1bea-0eac-41ea-9c2d-a94c867a5c25","ios":"levelo://app?vid=ad3c1bea-0eac-41ea-9c2d-a94c867a5c25"},"vehicle_type_id":"4","last_reported":1706735246,"current_range_meters":10000,"station_id":"ce4bhc92rcd13ifvqetg","pricing_plan_id":"free"},{"bike_id":"267c4fb6-cce5-4224-9f79-ddf50aacbc65","system_id":"levelo_inurba_marseille","lat":43.289468,"lon":5.363719,"is_reserved":false,"is_disabled":false,"rental_uris":{"android":"levelo://app?vid=267c4fb6-cce5-4224-9f79-ddf50aacbc65","ios":"levelo://app?vid=267c4fb6-cce5-4224-9f79-ddf50aacbc65"},"vehicle_type_id":"4","last_reported":1706735246,"current_range_meters":29600,"station_id":"ce4bhc92rcd13ifvqetg","pricing_plan_id":"free"},{"bike_id":"2d18ab25-689c-45a3-8604-eb3f93206bd3","system_id":"levelo_inurba_marseille","lat":43.289388,"lon":5.363974,"is_reserved":false,"is_disabled":false,"rental_uris":{"android":"levelo://app?vid=2d18ab25-689c-45a3-8604-eb3f93206bd3","ios":"levelo://app?vid=2d18ab25-689c-45a3-8604-eb3f93206bd3"},"vehicle_type_id":"4","last_reported":1706735246,"current_range_meters":3200,"station_id":"ce4bhc92rcd13ifvqetg","pricing_plan_id":"free"},{"bike_id":"6fc3d050-3a5f-4361-b561-6bf2b9b8074f","system_id":"levelo_inurba_marseille","lat":43.289468,"lon":5.363719,"is_reserved":false,"is_disabled":false,"rental_uris":{"android":"levelo://app?vid=6fc3d050-3a5f-4361-b561-6bf2b9b8074f","ios":"levelo://app?vid=6fc3d050-3a5f-4361-b561-6bf2b9b8074f"},"vehicle_type_id":"4","last_reported":1706735246,"current_range_meters":13600,"station_id":"ce4bhc92rcd13ifvqetg","pricing_plan_id":"free"},{"bike_id":"b08446d7-2439-4f96-8ace-944b29af1f0b","system_id":"levelo_inurba_marseille","lat":43.289468,"lon":5.363719,"is_reserved":false,"is_disabled":false,"rental_uris":{"android":"levelo://app?vid=b08446d7-2439-4f96-8ace-944b29af1f0b","ios":"levelo://app?vid=b08446d7-2439-4f96-8ace-944b29af1f0b"},"vehicle_type_id":"4","last_reported":1706735246,"current_range_meters":2400,"station_id":"ce4bhc92rcd13ifvqetg","pricing_plan_id":"free"},{"bike_id":"ece7500a-bb0e-46d1-bc4f-de6e2aec614f","system_id":"levelo_inurba_marseille","lat":43.304296,"lon":5.397513,"is_reserved":false,"is_disabled":false,"rental_uris":{"android":"levelo://app?vid=ece7500a-bb0e-46d1-bc4f-de6e2aec614f","ios":"levelo://app?vid=ece7500a-bb0e-46d1-bc4f-de6e2aec614f"},"vehicle_type_id":"4","last_reported":1706735246,"current_range_meters":0,"station_id":"ce4bh092rcd13ifvqd20","pricing_plan_id":"free"},{"bike_id":"258e12c6-bfa8-4b0d-b96e-b17849a4c161","system_id":"levelo_inurba_marseille","lat":43.29274,"lon":5.38429,"is_reserved":false,"is_disabled":false,"rental_uris":{"android":"levelo://app?vid=258e12c6-bfa8-4b0d-b96e-b17849a4c161","ios":"levelo://app?vid=258e12c6-bfa8-4b0d-b96e-b17849a4c161"},"vehicle_type_id":"4","last_reported":1706735246,"current_range_meters":20400,"station_id":"ce4bh692rcd13ifvqea0","pricing_plan_id":"free"},{"bike_id":"83087cae-4a1a-4ff5-ab72-9106ed0c7098","system_id":"levelo_inurba_marseille","lat":43.2928,"lon":5.38443,"is_reserved":false,"is_disabled":false,"rental_uris":{"android":"levelo://app?vid=83087cae-4a1a-4ff5-ab72-9106ed0c7098","ios":"levelo://app?vid=83087cae-4a1a-4ff5-ab72-9106ed0c7098"},"vehicle_type_id":"4","last_reported":1706735246,"current_range_meters":0,"station_id":"ce4bh692rcd13ifvqea0","pricing_plan_id":"free"},{"bike_id":"86debb32-8944-4309-aa8f-863edc007325","system_id":"levelo_inurba_marseille","lat":43.29272,"lon":5.38428,"is_reserved":false,"is_disabled":false,"rental_uris":{"android":"levelo://app?vid=86debb32-8944-4309-aa8f-863edc007325","ios":"levelo://app?vid=86debb32-8944-4309-aa8f-863edc007325"},"vehicle_type_id":"4","last_reported":1706735246,"current_range_meters":0,"station_id":"ce4bh692rcd13ifvqea0","pricing_plan_id":"free"},{"bike_id":"1db85294-479d-4fb1-b37b-a4018f15a8fa","system_id":"levelo_inurba_marseille","lat":43.292642,"lon":5.384254,"is_reserved":false,"is_disabled":false,"rental_uris":{"android":"levelo://app?vid=1db85294-479d-4fb1-b37b-a4018f15a8fa","ios":"levelo://app?vid=1db85294-479d-4fb1-b37b-a4018f15a8fa"},"vehicle_type_id":"4","last_reported":1706735246,"current_range_meters":16400,"station_id":"ce4bh692rcd13ifvqea0","pricing_plan_id":"free"},{"bike_id":"e599f6da-9151-465d-af41-40a7a9652ffe","system_id":"levelo_inurba_marseille","lat":43.29278,"lon":5.38443,"is_reserved":false,"is_disabled":false,"rental_uris":{"android":"levelo://app?vid=e599f6da-9151-465d-af41-40a7a9652ffe","ios":"levelo://app?vid=e599f6da-9151-465d-af41-40a7a9652ffe"},"vehicle_type_id":"4","last_reported":1706735246,"current_range_meters":0,"station_id":"ce4bh692rcd13ifvqea0","pricing_plan_id":"free"},{"bike_id":"8330bb2b-f7d9-42ac-8cce-fc4a0e3200da","system_id":"levelo_inurba_marseille","lat":43.292644,"lon":5.384257,"is_reserved":false,"is_disabled":false,"rental_uris":{"android":"levelo://app?vid=8330bb2b-f7d9-42ac-8cce-fc4a0e3200da","ios":"levelo://app?vid=8330bb2b-f7d9-42ac-8cce-fc4a0e3200da"},"vehicle_type_id":"4","last_reported":1706735246,"current_range_meters":0,"station_id":"ce4bh692rcd13ifvqea0","pricing_plan_id":"free"},{"bike_id":"17a4cd8b-da99-40ff-8b6c-8935cf6142ae","system_id":"levelo_inurba_marseille","lat":43.292644,"lon":5.384257,"is_reserved":false,"is_disabled":false,"rental_uris":{"android":"levelo://app?vid=17a4cd8b-da99-40ff-8b6c-8935cf6142ae","ios":"levelo://app?vid=17a4cd8b-da99-40ff-8b6c-8935cf6142ae"},"vehicle_type_id":"4","last_reported":1706735246,"current_range_meters":8800,"station_id":"ce4bh692rcd13ifvqea0","pricing_plan_id":"free"},{"bike_id":"1e559c23-3008-486f-8daa-c3f143aca671","system_id":"levelo_inurba_marseille","lat":43.29275,"lon":5.38443,"is_reserved":false,"is_disabled":false,"rental_uris":{"android":"levelo://app?vid=1e559c23-3008-486f-8daa-c3f143aca671","ios":"levelo://app?vid=1e559c23-3008-486f-8daa-c3f143aca671"},"vehicle_type_id":"4","last_reported":1706735246,"current_range_meters":8400,"station_id":"ce4bh692rcd13ifvqea0","pricing_plan_id":"free"},{"bike_id":"6566743e-d117-43bb-bd07-11dd73c309de","system_id":"levelo_inurba_marseille","lat":43.30435,"lon":5.39746,"is_reserved":false,"is_disabled":false,"rental_uris":{"android":"levelo://app?vid=6566743e-d117-43bb-bd07-11dd73c309de","ios":"levelo://app?vid=6566743e-d117-43bb-bd07-11dd73c309de"},"vehicle_type_id":"4","last_reported":1706735246,"current_range_meters":5200,"station_id":"","pricing_plan_id":"free"},{"bike_id":"834c5836-566f-47b6-a503-bcc40cc73e04","system_id":"levelo_inurba_marseille","lat":43.304296,"lon":5.397513,"is_reserved":false,"is_disabled":false,"rental_uris":{"android":"levelo://app?vid=834c5836-566f-47b6-a503-bcc40cc73e04","ios":"levelo://app?vid=834c5836-566f-47b6-a503-bcc40cc73e04"},"vehicle_type_id":"4","last_reported":1706735246,"current_range_meters":28400,"station_id":"ce4bh092rcd13ifvqd20","pricing_plan_id":"free"},{"bike_id":"16c7b168-1bb9-4e51-a82b-98da57660da2","system_id":"levelo_inurba_marseille","lat":43.304296,"lon":5.397513,"is_reserved":false,"is_disabled":false,"rental_uris":{"android":"levelo://app?vid=16c7b168-1bb9-4e51-a82b-98da57660da2","ios":"levelo://app?vid=16c7b168-1bb9-4e51-a82b-98da57660da2"},"vehicle_type_id":"4","last_reported":1706735246,"current_range_meters":2800,"station_id":"ce4bh092rcd13ifvqd20","pricing_plan_id":"free"},{"bike_id":"fe585eb4-e793-44fa-afb4-5866ec924e94","system_id":"levelo_inurba_marseille","lat":43.304296,"lon":5.397513,"is_reserved":false,"is_disabled":false,"rental_uris":{"android":"levelo://app?vid=fe585eb4-e793-44fa-afb4-5866ec924e94","ios":"levelo://app?vid=fe585eb4-e793-44fa-afb4-5866ec924e94"},"vehicle_type_id":"4","last_reported":1706735246,"current_range_meters":14400,"station_id":"ce4bh092rcd13ifvqd20","pricing_plan_id":"free"},{"bike_id":"53cfee7b-eca7-4dc9-a55f-5016d722a19d","system_id":"levelo_inurba_marseille","lat":43.290095,"lon":5.378455,"is_reserved":false,"is_disabled":false,"rental_uris":{"android":"levelo://app?vid=53cfee7b-eca7-4dc9-a55f-5016d722a19d","ios":"levelo://app?vid=53cfee7b-eca7-4dc9-a55f-5016d722a19d"},"vehicle_type_id":"4","last_reported":1706735246,"current_range_meters":6000,"station_id":"","pricing_plan_id":"free"},{"bike_id":"eb669a44-acaf-4503-ac88-5c933064091a","system_id":"levelo_inurba_marseille","lat":43.295169,"lon":5.390426,"is_reserved":false,"is_disabled":false,"rental_uris":{"android":"levelo://app?vid=eb669a44-acaf-4503-ac88-5c933064091a","ios":"levelo://app?vid=eb669a44-acaf-4503-ac88-5c933064091a"},"vehicle_type_id":"4","last_reported":1706735246,"current_range_meters":4400,"station_id":"ce4bh3p2rcd13ifvqdp0","pricing_plan_id":"free"},{"bike_id":"97c85f6d-f546-4a60-b948-ee087d5d7f1a","system_id":"levelo_inurba_marseille","lat":43.297883,"lon":5.39335,"is_reserved":false,"is_disabled":false,"rental_uris":{"android":"levelo://app?vid=97c85f6d-f546-4a60-b948-ee087d5d7f1a","ios":"levelo://app?vid=97c85f6d-f546-4a60-b948-ee087d5d7f1a"},"vehicle_type_id":"4","last_reported":1706735246,"current_range_meters":3600,"station_id":"chh1huq6cuj3fo74tm60","pricing_plan_id":"free"},{"bike_id":"d9ad6114-8950-45cb-bd32-a1912cbdccd4","system_id":"levelo_inurba_marseille","lat":43.295169,"lon":5.390426,"is_reserved":false,"is_disabled":false,"rental_uris":{"android":"levelo://app?vid=d9ad6114-8950-45cb-bd32-a1912cbdccd4","ios":"levelo://app?vid=d9ad6114-8950-45cb-bd32-a1912cbdccd4"},"vehicle_type_id":"4","last_reported":1706735246,"current_range_meters":18800,"station_id":"ce4bh3p2rcd13ifvqdp0","pricing_plan_id":"free"},{"bike_id":"d43ef0c5-ce92-4b66-8dd4-a48378361ecb","system_id":"levelo_inurba_marseille","lat":43.2977,"lon":5.39329,"is_reserved":false,"is_disabled":false,"rental_uris":{"android":"levelo://app?vid=d43ef0c5-ce92-4b66-8dd4-a48378361ecb","ios":"levelo://app?vid=d43ef0c5-ce92-4b66-8dd4-a48378361ecb"},"vehicle_type_id":"4","last_reported":1706735246,"current_range_meters":4800,"station_id":"chh1huq6cuj3fo74tm60","pricing_plan_id":"free"},{"bike_id":"92441d29-bf06-4fef-b8dc-ff4410db5486","system_id":"levelo_inurba_marseille","lat":43.289743,"lon":5.378304,"is_reserved":false,"is_disabled":false,"rental_uris":{"android":"levelo://app?vid=92441d29-bf06-4fef-b8dc-ff4410db5486","ios":"levelo://app?vid=92441d29-bf06-4fef-b8dc-ff4410db5486"},"vehicle_type_id":"4","last_reported":1706735246,"current_range_meters":23200,"station_id":"ce4bh9p2rcd13ifvqed0","pricing_plan_id":"free"},{"bike_id":"d69195cf-6ab3-46cb-99c4-66e7437324e1","system_id":"levelo_inurba_marseille","lat":43.29767,"lon":5.39334,"is_reserved":false,"is_disabled":false,"rental_uris":{"android":"levelo://app?vid=d69195cf-6ab3-46cb-99c4-66e7437324e1","ios":"levelo://app?vid=d69195cf-6ab3-46cb-99c4-66e7437324e1"},"vehicle_type_id":"4","last_reported":1706735246,"current_range_meters":29200,"station_id":"chh1huq6cuj3fo74tm60","pricing_plan_id":"free"},{"bike_id":"6fe0e816-b574-45ac-a9ee-60a68ff1bf7e","system_id":"levelo_inurba_marseille","lat":43.29527,"lon":5.39042,"is_reserved":false,"is_disabled":false,"rental_uris":{"android":"levelo://app?vid=6fe0e816-b574-45ac-a9ee-60a68ff1bf7e","ios":"levelo://app?vid=6fe0e816-b574-45ac-a9ee-60a68ff1bf7e"},"vehicle_type_id":"4","last_reported":1706735246,"current_range_meters":15600,"station_id":"ce4bh3p2rcd13ifvqdp0","pricing_plan_id":"free"},{"bike_id":"8e2a75d9-d954-4dce-a114-01a90cc13b7a","system_id":"levelo_inurba_marseille","lat":43.33023,"lon":5.3904,"is_reserved":false,"is_disabled":false,"rental_uris":{"android":"levelo://app?vid=8e2a75d9-d954-4dce-a114-01a90cc13b7a","ios":"levelo://app?vid=8e2a75d9-d954-4dce-a114-01a90cc13b7a"},"vehicle_type_id":"4","last_reported":1706735246,"current_range_meters":0,"station_id":"ce4bhr92rcd13ifvqhrg","pricing_plan_id":"free"},{"bike_id":"074d5ce4-46a6-4955-81cc-69aa73f25723","system_id":"levelo_inurba_marseille","lat":43.295169,"lon":5.390426,"is_reserved":false,"is_disabled":false,"rental_uris":{"android":"levelo://app?vid=074d5ce4-46a6-4955-81cc-69aa73f25723","ios":"levelo://app?vid=074d5ce4-46a6-4955-81cc-69aa73f25723"},"vehicle_type_id":"4","last_reported":1706735246,"current_range_meters":22800,"station_id":"ce4bh3p2rcd13ifvqdp0","pricing_plan_id":"free"},{"bike_id":"e60674cb-743a-4b3a-9bf6-3067947b25d0","system_id":"levelo_inurba_marseille","lat":43.29516,"lon":5.39039,"is_reserved":false,"is_disabled":false,"rental_uris":{"android":"levelo://app?vid=e60674cb-743a-4b3a-9bf6-3067947b25d0","ios":"levelo://app?vid=e60674cb-743a-4b3a-9bf6-3067947b25d0"},"vehicle_type_id":"4","last_reported":1706735246,"current_range_meters":2000,"station_id":"ce4bh3p2rcd13ifvqdp0","pricing_plan_id":"free"},{"bike_id":"b02cf25a-3d54-4c6e-8676-01637b6720d0","system_id":"levelo_inurba_marseille","lat":43.295169,"lon":5.390426,"is_reserved":false,"is_disabled":false,"rental_uris":{"android":"levelo://app?vid=b02cf25a-3d54-4c6e-8676-01637b6720d0","ios":"levelo://app?vid=b02cf25a-3d54-4c6e-8676-01637b6720d0"},"vehicle_type_id":"4","last_reported":1706735246,"current_range_meters":10000,"station_id":"ce4bh3p2rcd13ifvqdp0","pricing_plan_id":"free"},{"bike_id":"cd646a7c-83e7-4ee3-8b15-427a205a7242","system_id":"levelo_inurba_marseille","lat":43.28963,"lon":5.37822,"is_reserved":false,"is_disabled":false,"rental_uris":{"android":"levelo://app?vid=cd646a7c-83e7-4ee3-8b15-427a205a7242","ios":"levelo://app?vid=cd646a7c-83e7-4ee3-8b15-427a205a7242"},"vehicle_type_id":"4","last_reported":1706735246,"current_range_meters":2800,"station_id":"ce4bh9p2rcd13ifvqed0","pricing_plan_id":"free"},{"bike_id":"8b5c3664-99b2-465d-a369-1fa8f55dfd92","system_id":"levelo_inurba_marseille","lat":43.295713,"lon":5.399639,"is_reserved":false,"is_disabled":false,"rental_uris":{"android":"levelo://app?vid=8b5c3664-99b2-465d-a369-1fa8f55dfd92","ios":"levelo://app?vid=8b5c3664-99b2-465d-a369-1fa8f55dfd92"},"vehicle_type_id":"4","last_reported":1706735246,"current_range_meters":30800,"station_id":"ce4bh312rcd13ifvqdj0","pricing_plan_id":"free"},{"bike_id":"5a1a2280-1233-41e1-b8ca-a8ebc291b34c","system_id":"levelo_inurba_marseille","lat":43.28856,"lon":5.358371,"is_reserved":false,"is_disabled":false,"rental_uris":{"android":"levelo://app?vid=5a1a2280-1233-41e1-b8ca-a8ebc291b34c","ios":"levelo://app?vid=5a1a2280-1233-41e1-b8ca-a8ebc291b34c"},"vehicle_type_id":"4","last_reported":1706735246,"current_range_meters":24400,"station_id":"ce4bhb12rcd13ifvqem0","pricing_plan_id":"free"},{"bike_id":"09ffc386-82f9-44ac-a2a8-b7ea475096cf","system_id":"levelo_inurba_marseille","lat":43.28856,"lon":5.358371,"is_reserved":false,"is_disabled":false,"rental_uris":{"android":"levelo://app?vid=09ffc386-82f9-44ac-a2a8-b7ea475096cf","ios":"levelo://app?vid=09ffc386-82f9-44ac-a2a8-b7ea475096cf"},"vehicle_type_id":"4","last_reported":1706735246,"current_range_meters":31200,"station_id":"ce4bhb12rcd13ifvqem0","pricing_plan_id":"free"},{"bike_id":"d85e73cc-0091-45d8-b104-cfa06fbfa938","system_id":"levelo_inurba_marseille","lat":43.28857,"lon":5.35843,"is_reserved":false,"is_disabled":false,"rental_uris":{"android":"levelo://app?vid=d85e73cc-0091-45d8-b104-cfa06fbfa938","ios":"levelo://app?vid=d85e73cc-0091-45d8-b104-cfa06fbfa938"},"vehicle_type_id":"4","last_reported":1706735246,"current_range_meters":31200,"station_id":"ce4bhb12rcd13ifvqem0","pricing_plan_id":"free"},{"bike_id":"972acf2a-459b-4109-984d-7d1b99b2d973","system_id":"levelo_inurba_marseille","lat":43.28856,"lon":5.358371,"is_reserved":false,"is_disabled":false,"rental_uris":{"android":"levelo://app?vid=972acf2a-459b-4109-984d-7d1b99b2d973","ios":"levelo://app?vid=972acf2a-459b-4109-984d-7d1b99b2d973"},"vehicle_type_id":"4","last_reported":1706735246,"current_range_meters":31200,"station_id":"ce4bhb12rcd13ifvqem0","pricing_plan_id":"free"},{"bike_id":"69fc39f7-326e-4127-8377-bfb3e3304975","system_id":"levelo_inurba_marseille","lat":43.33723,"lon":5.37438,"is_reserved":false,"is_disabled":false,"rental_uris":{"android":"levelo://app?vid=69fc39f7-326e-4127-8377-bfb3e3304975","ios":"levelo://app?vid=69fc39f7-326e-4127-8377-bfb3e3304975"},"vehicle_type_id":"4","last_reported":1706735246,"current_range_meters":28000,"station_id":"","pricing_plan_id":"free"},{"bike_id":"f7bcc24b-317a-4f37-a99b-5e688e57824a","system_id":"levelo_inurba_marseille","lat":43.2883,"lon":5.35821,"is_reserved":false,"is_disabled":false,"rental_uris":{"android":"levelo://app?vid=f7bcc24b-317a-4f37-a99b-5e688e57824a","ios":"levelo://app?vid=f7bcc24b-317a-4f37-a99b-5e688e57824a"},"vehicle_type_id":"4","last_reported":1706735246,"current_range_meters":28400,"station_id":"ce4bhb12rcd13ifvqem0","pricing_plan_id":"free"},{"bike_id":"4fff2917-d8a2-4509-9f34-37418b69d728","system_id":"levelo_inurba_marseille","lat":43.312609,"lon":5.401662,"is_reserved":false,"is_disabled":false,"rental_uris":{"android":"levelo://app?vid=4fff2917-d8a2-4509-9f34-37418b69d728","ios":"levelo://app?vid=4fff2917-d8a2-4509-9f34-37418b69d728"},"vehicle_type_id":"4","last_reported":1706735246,"current_range_meters":15200,"station_id":"ce4bh092rcd13ifvqd30","pricing_plan_id":"free"},{"bike_id":"38e9467e-293b-47b7-ba22-08c6f2101e76","system_id":"levelo_inurba_marseille","lat":43.312609,"lon":5.401662,"is_reserved":false,"is_disabled":false,"rental_uris":{"android":"levelo://app?vid=38e9467e-293b-47b7-ba22-08c6f2101e76","ios":"levelo://app?vid=38e9467e-293b-47b7-ba22-08c6f2101e76"},"vehicle_type_id":"4","last_reported":1706735246,"current_range_meters":12400,"station_id":"ce4bh092rcd13ifvqd30","pricing_plan_id":"free"},{"bike_id":"b4d85829-ffae-4a59-aa2a-c43afc09c240","system_id":"levelo_inurba_marseille","lat":43.33745,"lon":5.37446,"is_reserved":false,"is_disabled":false,"rental_uris":{"android":"levelo://app?vid=b4d85829-ffae-4a59-aa2a-c43afc09c240","ios":"levelo://app?vid=b4d85829-ffae-4a59-aa2a-c43afc09c240"},"vehicle_type_id":"4","last_reported":1706735246,"current_range_meters":21600,"station_id":"","pricing_plan_id":"free"},{"bike_id":"b4486dfa-f3ee-47cf-b969-3c790573346a","system_id":"levelo_inurba_marseille","lat":43.309371,"lon":5.401449,"is_reserved":false,"is_disabled":false,"rental_uris":{"android":"levelo://app?vid=b4486dfa-f3ee-47cf-b969-3c790573346a","ios":"levelo://app?vid=b4486dfa-f3ee-47cf-b969-3c790573346a"},"vehicle_type_id":"4","last_reported":1706735246,"current_range_meters":0,"station_id":"ce4bgvp2rcd13ifvqct0","pricing_plan_id":"free"},{"bike_id":"7ffd6aa4-4fff-435c-8a00-f93b34d1f278","system_id":"levelo_inurba_marseille","lat":43.309371,"lon":5.401449,"is_reserved":false,"is_disabled":false,"rental_uris":{"android":"levelo://app?vid=7ffd6aa4-4fff-435c-8a00-f93b34d1f278","ios":"levelo://app?vid=7ffd6aa4-4fff-435c-8a00-f93b34d1f278"},"vehicle_type_id":"4","last_reported":1706735246,"current_range_meters":11600,"station_id":"ce4bgvp2rcd13ifvqct0","pricing_plan_id":"free"},{"bike_id":"286f917e-0a5a-4a5d-a8b9-fc4f7abedf84","system_id":"levelo_inurba_marseille","lat":43.33746,"lon":5.37459,"is_reserved":false,"is_disabled":false,"rental_uris":{"android":"levelo://app?vid=286f917e-0a5a-4a5d-a8b9-fc4f7abedf84","ios":"levelo://app?vid=286f917e-0a5a-4a5d-a8b9-fc4f7abedf84"},"vehicle_type_id":"4","last_reported":1706735246,"current_range_meters":18000,"station_id":"","pricing_plan_id":"free"},{"bike_id":"63626261-f35d-4705-ab64-0be07018f0c6","system_id":"levelo_inurba_marseille","lat":43.309371,"lon":5.401449,"is_reserved":false,"is_disabled":false,"rental_uris":{"android":"levelo://app?vid=63626261-f35d-4705-ab64-0be07018f0c6","ios":"levelo://app?vid=63626261-f35d-4705-ab64-0be07018f0c6"},"vehicle_type_id":"4","last_reported":1706735246,"current_range_meters":0,"station_id":"ce4bgvp2rcd13ifvqct0","pricing_plan_id":"free"},{"bike_id":"aaf03432-f7d7-4292-a3bb-f3b5b86db875","system_id":"levelo_inurba_marseille","lat":43.309371,"lon":5.401449,"is_reserved":false,"is_disabled":false,"rental_uris":{"android":"levelo://app?vid=aaf03432-f7d7-4292-a3bb-f3b5b86db875","ios":"levelo://app?vid=aaf03432-f7d7-4292-a3bb-f3b5b86db875"},"vehicle_type_id":"4","last_reported":1706735246,"current_range_meters":24400,"station_id":"ce4bgvp2rcd13ifvqct0","pricing_plan_id":"free"},{"bike_id":"b7d3b81d-d85a-44b5-a0c7-8f9c9f74639e","system_id":"levelo_inurba_marseille","lat":43.337587,"lon":5.374576,"is_reserved":false,"is_disabled":false,"rental_uris":{"android":"levelo://app?vid=b7d3b81d-d85a-44b5-a0c7-8f9c9f74639e","ios":"levelo://app?vid=b7d3b81d-d85a-44b5-a0c7-8f9c9f74639e"},"vehicle_type_id":"4","last_reported":1706735246,"current_range_meters":14400,"station_id":"","pricing_plan_id":"free"},{"bike_id":"3a0dbb8a-c75c-4ad9-b7fd-4d10459765f5","system_id":"levelo_inurba_marseille","lat":43.306412,"lon":5.401035,"is_reserved":false,"is_disabled":false,"rental_uris":{"android":"levelo://app?vid=3a0dbb8a-c75c-4ad9-b7fd-4d10459765f5","ios":"levelo://app?vid=3a0dbb8a-c75c-4ad9-b7fd-4d10459765f5"},"vehicle_type_id":"4","last_reported":1706735246,"current_range_meters":27200,"station_id":"ce4bh112rcd13ifvqda0","pricing_plan_id":"free"},{"bike_id":"12568932-a9a7-4d52-8b2c-668683b75358","system_id":"levelo_inurba_marseille","lat":43.33754,"lon":5.375013,"is_reserved":false,"is_disabled":false,"rental_uris":{"android":"levelo://app?vid=12568932-a9a7-4d52-8b2c-668683b75358","ios":"levelo://app?vid=12568932-a9a7-4d52-8b2c-668683b75358"},"vehicle_type_id":"4","last_reported":1706735246,"current_range_meters":16000,"station_id":"","pricing_plan_id":"free"},{"bike_id":"1facbbf3-baac-42f8-85eb-cb1e36f3e4b9","system_id":"levelo_inurba_marseille","lat":43.337623,"lon":5.374883,"is_reserved":false,"is_disabled":false,"rental_uris":{"android":"levelo://app?vid=1facbbf3-baac-42f8-85eb-cb1e36f3e4b9","ios":"levelo://app?vid=1facbbf3-baac-42f8-85eb-cb1e36f3e4b9"},"vehicle_type_id":"4","last_reported":1706735246,"current_range_meters":2800,"station_id":"","pricing_plan_id":"free"},{"bike_id":"0a9c8c4f-b8ab-4fd4-b079-61a852011143","system_id":"levelo_inurba_marseille","lat":43.330168,"lon":5.392847,"is_reserved":false,"is_disabled":false,"rental_uris":{"android":"levelo://app?vid=0a9c8c4f-b8ab-4fd4-b079-61a852011143","ios":"levelo://app?vid=0a9c8c4f-b8ab-4fd4-b079-61a852011143"},"vehicle_type_id":"4","last_reported":1706735246,"current_range_meters":23600,"station_id":"","pricing_plan_id":"free"},{"bike_id":"fc8f7230-c127-43bb-a083-7e16494fc81e","system_id":"levelo_inurba_marseille","lat":43.30134,"lon":5.3987,"is_reserved":false,"is_disabled":false,"rental_uris":{"android":"levelo://app?vid=fc8f7230-c127-43bb-a083-7e16494fc81e","ios":"levelo://app?vid=fc8f7230-c127-43bb-a083-7e16494fc81e"},"vehicle_type_id":"4","last_reported":1706735246,"current_range_meters":0,"station_id":"ce4bh0h2rcd13ifvqd40","pricing_plan_id":"free"},{"bike_id":"0c57ca09-8143-44e5-94a8-ff344ab6f432","system_id":"levelo_inurba_marseille","lat":43.28735,"lon":5.3607,"is_reserved":false,"is_disabled":false,"rental_uris":{"android":"levelo://app?vid=0c57ca09-8143-44e5-94a8-ff344ab6f432","ios":"levelo://app?vid=0c57ca09-8143-44e5-94a8-ff344ab6f432"},"vehicle_type_id":"4","last_reported":1706735246,"current_range_meters":0,"station_id":"cki0cbj6b192h4jlfktg","pricing_plan_id":"free"},{"bike_id":"303023ad-204c-4a03-bb4b-a6511d42bbc0","system_id":"levelo_inurba_marseille","lat":43.28727,"lon":5.36078,"is_reserved":false,"is_disabled":false,"rental_uris":{"android":"levelo://app?vid=303023ad-204c-4a03-bb4b-a6511d42bbc0","ios":"levelo://app?vid=303023ad-204c-4a03-bb4b-a6511d42bbc0"},"vehicle_type_id":"4","last_reported":1706735246,"current_range_meters":31200,"station_id":"cki0cbj6b192h4jlfktg","pricing_plan_id":"free"},{"bike_id":"bbd91bf8-c0dd-4b92-b082-793d83585adb","system_id":"levelo_inurba_marseille","lat":43.28727,"lon":5.36078,"is_reserved":false,"is_disabled":false,"rental_uris":{"android":"levelo://app?vid=bbd91bf8-c0dd-4b92-b082-793d83585adb","ios":"levelo://app?vid=bbd91bf8-c0dd-4b92-b082-793d83585adb"},"vehicle_type_id":"4","last_reported":1706735246,"current_range_meters":26000,"station_id":"cki0cbj6b192h4jlfktg","pricing_plan_id":"free"},{"bike_id":"8c75b868-d0d9-4ab6-8de5-3b6f95d38c0c","system_id":"levelo_inurba_marseille","lat":43.28723,"lon":5.36081,"is_reserved":false,"is_disabled":false,"rental_uris":{"android":"levelo://app?vid=8c75b868-d0d9-4ab6-8de5-3b6f95d38c0c","ios":"levelo://app?vid=8c75b868-d0d9-4ab6-8de5-3b6f95d38c0c"},"vehicle_type_id":"4","last_reported":1706735246,"current_range_meters":16800,"station_id":"cki0cbj6b192h4jlfktg","pricing_plan_id":"free"},{"bike_id":"95614dc5-799b-4dbb-998c-97643c3ccb6c","system_id":"levelo_inurba_marseille","lat":43.28677,"lon":5.36949,"is_reserved":false,"is_disabled":false,"rental_uris":{"android":"levelo://app?vid=95614dc5-799b-4dbb-998c-97643c3ccb6c","ios":"levelo://app?vid=95614dc5-799b-4dbb-998c-97643c3ccb6c"},"vehicle_type_id":"4","last_reported":1706735246,"current_range_meters":12400,"station_id":"ce4bhah2rcd13ifvqei0","pricing_plan_id":"free"},{"bike_id":"d515f1cf-4f48-43e8-9d02-4669d25c2396","system_id":"levelo_inurba_marseille","lat":43.286591,"lon":5.363346,"is_reserved":false,"is_disabled":false,"rental_uris":{"android":"levelo://app?vid=d515f1cf-4f48-43e8-9d02-4669d25c2396","ios":"levelo://app?vid=d515f1cf-4f48-43e8-9d02-4669d25c2396"},"vehicle_type_id":"4","last_reported":1706735246,"current_range_meters":12000,"station_id":"ce4bhah2rcd13ifvqej0","pricing_plan_id":"free"},{"bike_id":"81010007-2eb1-47dd-950c-77415511d9c7","system_id":"levelo_inurba_marseille","lat":43.298681,"lon":5.397225,"is_reserved":false,"is_disabled":false,"rental_uris":{"android":"levelo://app?vid=81010007-2eb1-47dd-950c-77415511d9c7","ios":"levelo://app?vid=81010007-2eb1-47dd-950c-77415511d9c7"},"vehicle_type_id":"4","last_reported":1706735246,"current_range_meters":20000,"station_id":"ce4bh0h2rcd13ifvqd50","pricing_plan_id":"free"},{"bike_id":"ffcdf2fe-6454-48f9-9b9b-350c50a16f93","system_id":"levelo_inurba_marseille","lat":43.286591,"lon":5.363346,"is_reserved":false,"is_disabled":false,"rental_uris":{"android":"levelo://app?vid=ffcdf2fe-6454-48f9-9b9b-350c50a16f93","ios":"levelo://app?vid=ffcdf2fe-6454-48f9-9b9b-350c50a16f93"},"vehicle_type_id":"4","last_reported":1706735246,"current_range_meters":18800,"station_id":"ce4bhah2rcd13ifvqej0","pricing_plan_id":"free"},{"bike_id":"7869142d-4a88-4e51-bfb7-fcda9675011a","system_id":"levelo_inurba_marseille","lat":43.298827,"lon":5.39738,"is_reserved":false,"is_disabled":false,"rental_uris":{"android":"levelo://app?vid=7869142d-4a88-4e51-bfb7-fcda9675011a","ios":"levelo://app?vid=7869142d-4a88-4e51-bfb7-fcda9675011a"},"vehicle_type_id":"4","last_reported":1706735246,"current_range_meters":8400,"station_id":"ce4bh0h2rcd13ifvqd50","pricing_plan_id":"free"},{"bike_id":"14d0ef62-1764-41e7-af4c-4664d45255ba","system_id":"levelo_inurba_marseille","lat":43.295748,"lon":5.37522,"is_reserved":false,"is_disabled":false,"rental_uris":{"android":"levelo://app?vid=14d0ef62-1764-41e7-af4c-4664d45255ba","ios":"levelo://app?vid=14d0ef62-1764-41e7-af4c-4664d45255ba"},"vehicle_type_id":"4","last_reported":1706735246,"current_range_meters":20400,"station_id":"ce4bgh92rcd13ifvqb50","pricing_plan_id":"free"},{"bike_id":"90d06b13-6b45-4f00-af12-ae7d9325353a","system_id":"levelo_inurba_marseille","lat":43.29874,"lon":5.397369,"is_reserved":false,"is_disabled":false,"rental_uris":{"android":"levelo://app?vid=90d06b13-6b45-4f00-af12-ae7d9325353a","ios":"levelo://app?vid=90d06b13-6b45-4f00-af12-ae7d9325353a"},"vehicle_type_id":"4","last_reported":1706735246,"current_range_meters":26800,"station_id":"ce4bh0h2rcd13ifvqd50","pricing_plan_id":"free"},{"bike_id":"13ea6016-14fe-4b0c-ae3b-9d538c889ace","system_id":"levelo_inurba_marseille","lat":43.298725,"lon":5.397385,"is_reserved":false,"is_disabled":false,"rental_uris":{"android":"levelo://app?vid=13ea6016-14fe-4b0c-ae3b-9d538c889ace","ios":"levelo://app?vid=13ea6016-14fe-4b0c-ae3b-9d538c889ace"},"vehicle_type_id":"4","last_reported":1706735246,"current_range_meters":18800,"station_id":"ce4bh0h2rcd13ifvqd50","pricing_plan_id":"free"},{"bike_id":"ce9e77d2-ffa4-400e-a193-59528db8e58a","system_id":"levelo_inurba_marseille","lat":43.286604,"lon":5.363524,"is_reserved":false,"is_disabled":false,"rental_uris":{"android":"levelo://app?vid=ce9e77d2-ffa4-400e-a193-59528db8e58a","ios":"levelo://app?vid=ce9e77d2-ffa4-400e-a193-59528db8e58a"},"vehicle_type_id":"4","last_reported":1706735246,"current_range_meters":5200,"station_id":"ce4bhah2rcd13ifvqej0","pricing_plan_id":"free"},{"bike_id":"3c21c4b8-62fa-48d1-b255-86ba95fd4f1a","system_id":"levelo_inurba_marseille","lat":43.295196,"lon":5.39397,"is_reserved":false,"is_disabled":false,"rental_uris":{"android":"levelo://app?vid=3c21c4b8-62fa-48d1-b255-86ba95fd4f1a","ios":"levelo://app?vid=3c21c4b8-62fa-48d1-b255-86ba95fd4f1a"},"vehicle_type_id":"4","last_reported":1706735246,"current_range_meters":31600,"station_id":"ce4bh292rcd13ifvqdf0","pricing_plan_id":"free"},