{"last_updated":1741950473,"ttl":60,"version":"2.2","data":{"bikes":[{"bike_id":"e3433a29-4d63-4030-abbc-447f8c6dd520","system_id":"levelo_inurba_marseille","lat":43.26572,"lon":5.39034,"is_reserved":false,"is_disabled":false,"rental_uris":{"android":"levelo://app?vid=e3433a29-4d63-4030-abbc-447f8c6dd520","ios":"levelo://app?vid=e3433a29-4d63-4030-abbc-447f8c6dd520"},"vehicle_type_id":"4","last_reported":1741950473,"current_range_meters":2800,"station_id":"ce4bhe12rcd13ifvqf30","pricing_plan_id":"cebpf4jnsgd1na2vs0mg"},{"bike_id":"0e1454f0-c501-449b-b78c-ddfc8f4d9aab","system_id":"levelo_inurba_marseille","lat":43.33768,"lon":5.3749,"is_reserved":false,"is_disabled":false,"rental_uris":{"android":"levelo://app?vid=0e1454f0-c501-449b-b78c-ddfc8f4d9aab","ios":"levelo://app?vid=0e1454f0-c501-449b-b78c-ddfc8f4d9aab"},"vehicle_type_id":"4","last_reported":1741950473,"current_range_meters":2800,"station_id":"","pricing_plan_id":"cebpf4jnsgd1na2vs0mg"},{"bike_id":"8d2687c0-d920-4902-aeac-b5db53addbe2","system_id":"levelo_inurba_marseille","lat":43.27563,"lon":5.38402,"is_reserved":false,"is_disabled":false,"rental_uris":{"android":"levelo://app?vid=8d2687c0-d920-4902-aeac-b5db53addbe2","ios":"levelo://app?vid=8d2687c0-d920-4902-aeac-b5db53addbe2"},"vehicle_type_id":"4","last_reported":1741950473,"current_range_meters":3200,"station_id":"ce4bhh92rcd13ifvqfi0","pricing_plan_id":"cebpf4jnsgd1na2vs0mg"},{"bike_id":"e3c2077e-76af-4b99-89f9-d7f50cb21d91","system_id":"levelo_inurba_marseille","lat":43.30463,"lon":5.37903,"is_reserved":false,"is_disabled":false,"rental_uris":{"android":"levelo://app?vid=e3c2077e-76af-4b99-89f9-d7f50cb21d91","ios":"levelo://app?vid=e3c2077e-76af-4b99-89f9-d7f50cb21d91"},"vehicle_type_id":"4","last_reported":1741950473,"current_range_meters":3200,"station_id":"ce4bgup2rcd13ifvqcn0","pricing_plan_id":"cebpf4jnsgd1na2vs0mg"},{"bike_id":"88d4df4a-f3a5-4d5e-b24a-d6802c72f1bf","system_id":"levelo_inurba_marseille","lat":43.26964,"lon":5.38632,"is_reserved":false,"is_disabled":false,"rental_uris":{"android":"levelo://app?vid=88d4df4a-f3a5-4d5e-b24a-d6802c72f1bf","ios":"levelo://app?vid=88d4df4a-f3a5-4d5e-b24a-d6802c72f1bf"},"vehicle_type_id":"4","last_reported":1741950473,"current_range_meters":3200,"station_id":"ce4bhh92rcd13ifvqfh0","pricing_plan_id":"cebpf4jnsgd1na2vs0mg"},{"bike_id":"7e2efce6-2abc-47be-8e98-d015769ebdaa","system_id":"levelo_inurba_marseille","lat":43.27426,"lon":5.41878,"is_reserved":false,"is_disabled":true,"rental_uris":{"android":"levelo://app?vid=7e2efce6-2abc-47be-8e98-d015769ebdaa","ios":"levelo://app?vid=7e2efce6-2abc-47be-8e98-d015769ebdaa"},"vehicle_type_id":"4","last_reported":1741950473,"current_range_meters":3600,"station_id":"","pricing_plan_id":"cebpf4jnsgd1na2vs0mg"},{"bike_id":"c811ac57-4690-4c0a-b4ed-235f2161bb16","system_id":"levelo_inurba_marseille","lat":43.29615,"lon":5.37713,"is_reserved":false,"is_disabled":false,"rental_uris":{"android":"levelo://app?vid=c811ac57-4690-4c0a-b4ed-235f2161bb16","ios":"levelo://app?vid=c811ac57-4690-4c0a-b4ed-235f2161bb16"},"vehicle_type_id":"4","last_reported":1741950473,"current_range_meters":3600,"station_id":"ce4bgi92rcd13ifvqb90","pricing_plan_id":"cebpf4jnsgd1na2vs0mg"},{"bike_id":"90c7c372-898e-4a29-82b8-58985707882d","system_id":"levelo_inurba_marseille","lat":43.31757,"lon":5.39015,"is_reserved":false,"is_disabled":false,"rental_uris":{"android":"levelo://app?vid=90c7c372-898e-4a29-82b8-58985707882d","ios":"levelo://app?vid=90c7c372-898e-4a29-82b8-58985707882d"},"vehicle_type_id":"4","last_reported":1741950473,"current_range_meters":3600,"station_id":"ce4bhqp2rcd13ifvqhng","pricing_plan_id":"cebpf4jnsgd1na2vs0mg"},{"bike_id":"adeaef2c-ed5d-41d5-96c2-1cf1f1e01c9e","system_id":"levelo_inurba_marseille","lat":43.29319,"lon":5.37438,"is_reserved":false,"is_disabled":false,"rental_uris":{"android":"levelo://app?vid=adeaef2c-ed5d-41d5-96c2-1cf1f1e01c9e","ios":"levelo://app?vid=adeaef2c-ed5d-41d5-96c2-1cf1f1e01c9e"},"vehicle_type_id":"4","last_reported":1741950473,"current_range_meters":4000,"station_id":"ce4bgi12rcd13ifvqb70","pricing_plan_id":"cebpf4jnsgd1na2vs0mg"},{"bike_id":"74de79cd-4b48-470f-86ec-4cd496dae612","system_id":"levelo_inurba_marseille","lat":43.31077,"lon":5.38369,"is_reserved":false,"is_disabled":false,"rental_uris":{"android":"levelo://app?vid=74de79cd-4b48-470f-86ec-4cd496dae612","ios":"levelo://app?vid=74de79cd-4b48-470f-86ec-4cd496dae612"},"vehicle_type_id":"4","last_reported":1741950473,"current_range_meters":4000,"station_id":"ce4bgv92rcd13ifvqcr0","pricing_plan_id":"cebpf4jnsgd1na2vs0mg"},{"bike_id":"fd0d1d60-81e8-454c-aacb-80afb76f2228","system_id":"levelo_inurba_marseille","lat":43.30142,"lon":5.38778,"is_reserved":false,"is_disabled":false,"rental_uris":{"android":"levelo://app?vid=fd0d1d60-81e8-454c-aacb-80afb76f2228","ios":"levelo://app?vid=fd0d1d60-81e8-454c-aacb-80afb76f2228"},"vehicle_type_id":"4","last_reported":1741950473,"current_range_meters":4000,"station_id":"ce4bghh2rcd13ifvqb60","pricing_plan_id":"cebpf4jnsgd1na2vs0mg"},{"bike_id":"6ab36640-1c77-4e21-87b9-28fd3f490061","system_id":"levelo_inurba_marseille","lat":43.31254,"lon":5.3684,"is_reserved":false,"is_disabled":false,"rental_uris":{"android":"levelo://app?vid=6ab36640-1c77-4e21-87b9-28fd3f490061","ios":"levelo://app?vid=6ab36640-1c77-4e21-87b9-28fd3f490061"},"vehicle_type_id":"4","last_reported":1741950473,"current_range_meters":4400,"station_id":"ce4bgl92rcd13ifvqbq0","pricing_plan_id":"cebpf4jnsgd1na2vs0mg"},{"bike_id":"48e1902a-0baf-4692-86ca-834c5d290b26","system_id":"levelo_inurba_marseille","lat":43.26678,"lon":5.38264,"is_reserved":false,"is_disabled":false,"rental_uris":{"android":"levelo://app?vid=48e1902a-0baf-4692-86ca-834c5d290b26","ios":"levelo://app?vid=48e1902a-0baf-4692-86ca-834c5d290b26"},"vehicle_type_id":"4","last_reported":1741950473,"current_range_meters":4800,"station_id":"ce4bhg92rcd13ifvqf90","pricing_plan_id":"cebpf4jnsgd1na2vs0mg"},{"bike_id":"d7cf3da4-03cf-4eae-b183-47670a6b872f","system_id":"levelo_inurba_marseille","lat":43.23194,"lon":5.355547,"is_reserved":false,"is_disabled":false,"rental_uris":{"android":"levelo://app?vid=d7cf3da4-03cf-4eae-b183-47670a6b872f","ios":"levelo://app?vid=d7cf3da4-03cf-4eae-b183-47670a6b872f"},"vehicle_type_id":"4","last_reported":1741950473,"current_range_meters":4800,"station_id":"ce4bhu92rcd13ifvqi70","pricing_plan_id":"cebpf4jnsgd1na2vs0mg"},{"bike_id":"2fabe700-8e7e-4631-9ed3-21a10fca80b0","system_id":"levelo_inurba_marseille","lat":43.27204,"lon":5.39179,"is_reserved":false,"is_disabled":false,"rental_uris":{"android":"levelo://app?vid=2fabe700-8e7e-4631-9ed3-21a10fca80b0","ios":"levelo://app?vid=2fabe700-8e7e-4631-9ed3-21a10fca80b0"},"vehicle_type_id":"4","last_reported":1741950473,"current_range_meters":4800,"station_id":"ce4bhhp2rcd13ifvqfm0","pricing_plan_id":"cebpf4jnsgd1na2vs0mg"},{"bike_id":"6abe6a67-ac01-4ffe-a9fb-f7b5de19c74d","system_id":"levelo_inurba_marseille","lat":43.3255,"lon":5.41473,"is_reserved":false,"is_disabled":false,"rental_uris":{"android":"levelo://app?vid=6abe6a67-ac01-4ffe-a9fb-f7b5de19c74d","ios":"levelo://app?vid=6abe6a67-ac01-4ffe-a9fb-f7b5de19c74d"},"vehicle_type_id":"4","last_reported":1741950473,"current_range_meters":5600,"station_id":"ce4bhq12rcd13ifvqhhg","pricing_plan_id":"cebpf4jnsgd1na2vs0mg"},{"bike_id":"8e587aa8-3283-40c0-82d8-d5f715eee75f","system_id":"levelo_inurba_marseille","lat":43.34153,"lon":5.40914,"is_reserved":false,"is_disabled":false,"rental_uris":{"android":"levelo://app?vid=8e587aa8-3283-40c0-82d8-d5f715eee75f","ios":"levelo://app?vid=8e587aa8-3283-40c0-82d8-d5f715eee75f"},"vehicle_type_id":"4","last_reported":1741950473,"current_range_meters":5600,"station_id":"ce4bhqh2rcd13ifvqhlg","pricing_plan_id":"cebpf4jnsgd1na2vs0mg"},{"bike_id":"299a3741-a69e-43f6-896a-2e54ff3200ef","system_id":"levelo_inurba_marseille","lat":43.29619,"lon":5.37734,"is_reserved":false,"is_disabled":false,"rental_uris":{"android":"levelo://app?vid=299a3741-a69e-43f6-896a-2e54ff3200ef","ios":"levelo://app?vid=299a3741-a69e-43f6-896a-2e54ff3200ef"},"vehicle_type_id":"4","last_reported":1741950473,"current_range_meters":5600,"station_id":"ce4bgi92rcd13ifvqb90","pricing_plan_id":"cebpf4jnsgd1na2vs0mg"},{"bike_id":"4cd1e570-d1f4-42b8-8f1e-6470fca7f0d2","system_id":"levelo_inurba_marseille","lat":43.29899,"lon":5.43669,"is_reserved":false,"is_disabled":false,"rental_uris":{"android":"levelo://app?vid=4cd1e570-d1f4-42b8-8f1e-6470fca7f0d2","ios":"levelo://app?vid=4cd1e570-d1f4-42b8-8f1e-6470fca7f0d2"},"vehicle_type_id":"4","last_reported":1741950473,"current_range_meters":6000,"station_id":"ce4bhpp2rcd13ifvqhfg","pricing_plan_id":"cebpf4jnsgd1na2vs0mg"},{"bike_id":"b9376c03-0418-4f06-8e27-79a7fd324fac","system_id":"levelo_inurba_marseille","lat":43.23163,"lon":5.43701,"is_reserved":false,"is_disabled":false,"rental_uris":{"android":"levelo://app?vid=b9376c03-0418-4f06-8e27-79a7fd324fac","ios":"levelo://app?vid=b9376c03-0418-4f06-8e27-79a7fd324fac"},"vehicle_type_id":"4","last_reported":1741950473,"current_range_meters":6000,"station_id":"ce4bhmp2rcd13ifvqgog","pricing_plan_id":"cebpf4jnsgd1na2vs0mg"},{"bike_id":"ba217c55-c3b6-4155-8257-f0b33becfeb3","system_id":"levelo_inurba_marseille","lat":43.28133,"lon":5.37843,"is_reserved":false,"is_disabled":false,"rental_uris":{"android":"levelo://app?vid=ba217c55-c3b6-4155-8257-f0b33becfeb3","ios":"levelo://app?vid=ba217c55-c3b6-4155-8257-f0b33becfeb3"},"vehicle_type_id":"4","last_reported":1741950473,"current_range_meters":6000,"station_id":"ce4bha12rcd13ifvqee0","pricing_plan_id":"cebpf4jnsgd1na2vs0mg"},{"bike_id":"e222bc3f-369a-447a-b251-c71aa8a28b39","system_id":"levelo_inurba_marseille","lat":43.24677,"lon":5.38142,"is_reserved":false,"is_disabled":false,"rental_uris":{"android":"levelo://app?vid=e222bc3f-369a-447a-b251-c71aa8a28b39","ios":"levelo://app?vid=e222bc3f-369a-447a-b251-c71aa8a28b39"},"vehicle_type_id":"4","last_reported":1741950473,"current_range_meters":6000,"station_id":"ce4bhih2rcd13ifvqfr0","pricing_plan_id":"cebpf4jnsgd1na2vs0mg"},{"bike_id":"54d684a4-2a1e-448e-bea0-fb096f066699","system_id":"levelo_inurba_marseille","lat":43.30551,"lon":5.3654,"is_reserved":false,"is_disabled":false,"rental_uris":{"android":"levelo://app?vid=54d684a4-2a1e-448e-bea0-fb096f066699","ios":"levelo://app?vid=54d684a4-2a1e-448e-bea0-fb096f066699"},"vehicle_type_id":"4","last_reported":1741950473,"current_range_meters":6000,"station_id":"ce4bgs12rcd13ifvqcag","pricing_plan_id":"cebpf4jnsgd1na2vs0mg"},{"bike_id":"3e052f78-610f-4c3b-8bb7-3204cf1ee4e4","system_id":"levelo_inurba_marseille","lat":43.31384,"lon":5.36644,"is_reserved":false,"is_disabled":false,"rental_uris":{"android":"levelo://app?vid=3e052f78-610f-4c3b-8bb7-3204cf1ee4e4","ios":"levelo://app?vid=3e052f78-610f-4c3b-8bb7-3204cf1ee4e4"},"vehicle_type_id":"4","last_reported":1741950473,"current_range_meters":6000,"station_id":"ce4bgr92rcd13ifvqc6g","pricing_plan_id":"cebpf4jnsgd1na2vs0mg"},{"bike_id":"b0e79c0d-bd18-4085-81a0-a30f69ab647b","system_id":"levelo_inurba_marseille","lat":43.30093,"lon":5.39815,"is_reserved":false,"is_disabled":false,"rental_uris":{"android":"levelo://app?vid=b0e79c0d-bd18-4085-81a0-a30f69ab647b","ios":"levelo://app?vid=b0e79c0d-bd18-4085-81a0-a30f69ab647b"},"vehicle_type_id":"4","last_reported":1741950473,"current_range_meters":6000,"station_id":"","pricing_plan_id":"cebpf4jnsgd1na2vs0mg"},{"bike_id":"a9469bba-782c-4fef-b15e-bffa7cf98f64","system_id":"levelo_inurba_marseille","lat":43.3152,"lon":5.37281,"is_reserved":false,"is_disabled":false,"rental_uris":{"android":"levelo://app?vid=a9469bba-782c-4fef-b15e-bffa7cf98f64","ios":"levelo://app?vid=a9469bba-782c-4fef-b15e-bffa7cf98f64"},"vehicle_type_id":"4","last_reported":1741950473,"current_range_meters":6400,"station_id":"ce4bgt12rcd13ifvqcd0","pricing_plan_id":"cebpf4jnsgd1na2vs0mg"},{"bike_id":"d91b6e77-9fc3-473c-96ad-43b2ed3f3257","system_id":"levelo_inurba_marseille","lat":43.29527,"lon":5.39034,"is_reserved":false,"is_disabled":false,"rental_uris":{"android":"levelo://app?vid=d91b6e77-9fc3-473c-96ad-43b2ed3f3257","ios":"levelo://app?vid=d91b6e77-9fc3-473c-96ad-43b2ed3f3257"},"vehicle_type_id":"4","last_reported":1741950473,"current_range_meters":6400,"station_id":"ce4bh3p2rcd13ifvqdp0","pricing_plan_id":"cebpf4jnsgd1na2vs0mg"},{"bike_id":"3709d01f-5a3d-4f43-a773-74d6030a00ac","system_id":"levelo_inurba_marseille","lat":43.30953,"lon":5.39041,"is_reserved":false,"is_disabled":false,"rental_uris":{"android":"levelo://app?vid=3709d01f-5a3d-4f43-a773-74d6030a00ac","ios":"levelo://app?vid=3709d01f-5a3d-4f43-a773-74d6030a00ac"},"vehicle_type_id":"4","last_reported":1741950473,"current_range_meters":6400,"station_id":"ce4bgup2rcd13ifvqco0","pricing_plan_id":"cebpf4jnsgd1na2vs0mg"},{"bike_id":"cd62f0b0-e712-4ed8-b222-8e7cb2c87e1b","system_id":"levelo_inurba_marseille","lat":43.23601,"lon":5.40338,"is_reserved":false,"is_disabled":false,"rental_uris":{"android":"levelo://app?vid=cd62f0b0-e712-4ed8-b222-8e7cb2c87e1b","ios":"levelo://app?vid=cd62f0b0-e712-4ed8-b222-8e7cb2c87e1b"},"vehicle_type_id":"4","last_reported":1741950473,"current_range_meters":6400,"station_id":"","pricing_plan_id":"cebpf4jnsgd1na2vs0mg"},{"bike_id":"154d0f4a-7cf1-4b4a-8919-807104d462e1","system_id":"levelo_inurba_marseille","lat":43.26667,"lon":5.38609,"is_reserved":false,"is_disabled":false,"rental_uris":{"android":"levelo://app?vid=154d0f4a-7cf1-4b4a-8919-807104d462e1","ios":"levelo://app?vid=154d0f4a-7cf1-4b4a-8919-807104d462e1"},"vehicle_type_id":"4","last_reported":1741950473,"current_range_meters":6400,"station_id":"","pricing_plan_id":"cebpf4jnsgd1na2vs0mg"},{"bike_id":"89127bd3-34dd-4963-8870-41e81663fc3c","system_id":"levelo_inurba_marseille","lat":43.26958,"lon":5.38635,"is_reserved":false,"is_disabled":false,"rental_uris":{"android":"levelo://app?vid=89127bd3-34dd-4963-8870-41e81663fc3c","ios":"levelo://app?vid=89127bd3-34dd-4963-8870-41e81663fc3c"},"vehicle_type_id":"4","last_reported":1741950473,"current_range_meters":6400,"station_id":"ce4bhh92rcd13ifvqfh0","pricing_plan_id":"cebpf4jnsgd1na2vs0mg"},{"bike_id":"c78062a6-6b97-46ee-a461-b3ad1e334303","system_id":"levelo_inurba_marseille","lat":43.30156,"lon":5.38084,"is_reserved":false,"is_disabled":false,"rental_uris":{"android":"levelo://app?vid=c78062a6-6b97-46ee-a461-b3ad1e334303","ios":"levelo://app?vid=c78062a6-6b97-46ee-a461-b3ad1e334303"},"vehicle_type_id":"4","last_reported":1741950473,"current_range_meters":6800,"station_id":"ce4bgjp2rcd13ifvqbh0","pricing_plan_id":"cebpf4jnsgd1na2vs0mg"},{"bike_id":"bea0aaa1-1e1b-4a71-a5e8-fd09480beefb","system_id":"levelo_inurba_marseille","lat":43.29033,"lon":5.37569,"is_reserved":false,"is_disabled":false,"rental_uris":{"android":"levelo://app?vid=bea0aaa1-1e1b-4a71-a5e8-fd09480beefb","ios":"levelo://app?vid=bea0aaa1-1e1b-4a71-a5e8-fd09480beefb"},"vehicle_type_id":"4","last_reported":1741950473,"current_range_meters":6800,"station_id":"ce4bh692rcd13ifvqe90","pricing_plan_id":"cebpf4jnsgd1na2vs0mg"},{"bike_id":"67414d52-13ce-4025-b386-e9b3544f5ad5","system_id":"levelo_inurba_marseille","lat":43.26676,"lon":5.38276,"is_reserved":false,"is_disabled":false,"rental_uris":{"android":"levelo://app?vid=67414d52-13ce-4025-b386-e9b3544f5ad5","ios":"levelo://app?vid=67414d52-13ce-4025-b386-e9b3544f5ad5"},"vehicle_type_id":"4","last_reported":1741950473,"current_range_meters":6800,"station_id":"ce4bhg92rcd13ifvqf90","pricing_plan_id":"cebpf4jnsgd1na2vs0mg"},{"bike_id":"82b1923a-20ec-44d9-a3bb-9d5407da7541","system_id":"levelo_inurba_marseille","lat":43.24081,"lon":5.37762,"is_reserved":false,"is_disabled":false,"rental_uris":{"android":"levelo://app?vid=82b1923a-20ec-44d9-a3bb-9d5407da7541","ios":"levelo://app?vid=82b1923a-20ec-44d9-a3bb-9d5407da7541"},"vehicle_type_id":"4","last_reported":1741950473,"current_range_meters":6800,"station_id":"ce4bhnp2rcd13ifvqgvg","pricing_plan_id":"cebpf4jnsgd1na2vs0mg"},{"bike_id":"b363f8b8-2518-47c4-9880-4e754d1b57c8","system_id":"levelo_inurba_marseille","lat":43.3093,"lon":5.40112,"is_reserved":false,"is_disabled":false,"rental_uris":{"android":"levelo://app?vid=b363f8b8-2518-47c4-9880-4e754d1b57c8","ios":"levelo://app?vid=b363f8b8-2518-47c4-9880-4e754d1b57c8"},"vehicle_type_id":"4","last_reported":1741950473,"current_range_meters":6800,"station_id":"ce4bgvp2rcd13ifvqct0","pricing_plan_id":"cebpf4jnsgd1na2vs0mg"},{"bike_id":"7b35ad81-591c-4cc8-b125-1210315faf0d","system_id":"levelo_inurba_marseille","lat":43.23157,"lon":5.43713,"is_reserved":false,"is_disabled":false,"rental_uris":{"android":"levelo://app?vid=7b35ad81-591c-4cc8-b125-1210315faf0d","ios":"levelo://app?vid=7b35ad81-591c-4cc8-b125-1210315faf0d"},"vehicle_type_id":"4","last_reported":1741950473,"current_range_meters":6800,"station_id":"ce4bhmp2rcd13ifvqgog","pricing_plan_id":"cebpf4jnsgd1na2vs0mg"},{"bike_id":"9ff4e757-fe4d-4091-a0e6-d2f3479d6b2b","system_id":"levelo_inurba_marseille","lat":43.30612,"lon":5.36659,"is_reserved":false,"is_disabled":false,"rental_uris":{"android":"levelo://app?vid=9ff4e757-fe4d-4091-a0e6-d2f3479d6b2b","ios":"levelo://app?vid=9ff4e757-fe4d-4091-a0e6-d2f3479d6b2b"},"vehicle_type_id":"4","last_reported":1741950473,"current_range_meters":6800,"station_id":"","pricing_plan_id":"cebpf4jnsgd1na2vs0mg"},{"bike_id":"9c3e4b46-832b-4289-80ad-c1a013b4a69f","system_id":"levelo_inurba_marseille","lat":43.28718,"lon":5.37934,"is_reserved":false,"is_disabled":false,"rental_uris":{"android":"levelo://app?vid=9c3e4b46-832b-4289-80ad-c1a013b4a69f","ios":"levelo://app?vid=9c3e4b46-832b-4289-80ad-c1a013b4a69f"},"vehicle_type_id":"4","last_reported":1741950473,"current_range_meters":6800,"station_id":"ce4bh9p2rcd13ifvqec0","pricing_plan_id":"cebpf4jnsgd1na2vs0mg"},{"bike_id":"d0be61ee-8c6c-4bf7-99b6-f099a281a656","system_id":"levelo_inurba_marseille","lat":43.25002,"lon":5.38938,"is_reserved":false,"is_disabled":false,"rental_uris":{"android":"levelo://app?vid=d0be61ee-8c6c-4bf7-99b6-f099a281a656","ios":"levelo://app?vid=d0be61ee-8c6c-4bf7-99b6-f099a281a656"},"vehicle_type_id":"4","last_reported":1741950473,"current_range_meters":6800,"station_id":"ce4bhgp2rcd13ifvqfd0","pricing_plan_id":"cebpf4jnsgd1na2vs0mg"},{"bike_id":"e350ce66-a995-469c-b4d1-ba6658fe49e2","system_id":"levelo_inurba_marseille","lat":43.27817,"lon":5.40723,"is_reserved":false,"is_disabled":false,"rental_uris":{"android":"levelo://app?vid=e350ce66-a995-469c-b4d1-ba6658fe49e2","ios":"levelo://app?vid=e350ce66-a995-469c-b4d1-ba6658fe49e2"},"vehicle_type_id":"4","last_reported":1741950473,"current_range_meters":6800,"station_id":"ce4bhnh2rcd13ifvqgtg","pricing_plan_id":"cebpf4jnsgd1na2vs0mg"},{"bike_id":"39df283f-35a5-4c44-9f0d-6dd6923a19a4","system_id":"levelo_inurba_marseille","lat":43.32077,"lon":5.36693,"is_reserved":false,"is_disabled":false,"rental_uris":{"android":"levelo://app?vid=39df283f-35a5-4c44-9f0d-6dd6923a19a4","ios":"levelo://app?vid=39df283f-35a5-4c44-9f0d-6dd6923a19a4"},"vehicle_type_id":"4","last_reported":1741950473,"current_range_meters":6800,"station_id":"","pricing_plan_id":"cebpf4jnsgd1na2vs0mg"},{"bike_id":"27a9a62b-6368-4179-8f2c-f6dd6040539e","system_id":"levelo_inurba_marseille","lat":43.26225,"lon":5.37434,"is_reserved":false,"is_disabled":false,"rental_uris":{"android":"levelo://app?vid=27a9a62b-6368-4179-8f2c-f6dd6040539e","ios":"levelo://app?vid=27a9a62b-6368-4179-8f2c-f6dd6040539e"},"vehicle_type_id":"4","last_reported":1741950473,"current_range_meters":7200,"station_id":"ce4bhgp2rcd13ifvqfc0","pricing_plan_id":"cebpf4jnsgd1na2vs0mg"},{"bike_id":"83aa7ab2-d352-459f-bd36-67e70fb4a7aa","system_id":"levelo_inurba_marseille","lat":43.25961,"lon":5.4092,"is_reserved":false,"is_disabled":false,"rental_uris":{"android":"levelo://app?vid=83aa7ab2-d352-459f-bd36-67e70fb4a7aa","ios":"levelo://app?vid=83aa7ab2-d352-459f-bd36-67e70fb4a7aa"},"vehicle_type_id":"4","last_reported":1741950473,"current_range_meters":7200,"station_id":"ce4bhm92rcd13ifvqglg","pricing_plan_id":"cebpf4jnsgd1na2vs0mg"},{"bike_id":"ab3b3273-086b-4458-b5bf-fb61a149b41e","system_id":"levelo_inurba_marseille","lat":43.26234,"lon":5.40454,"is_reserved":false,"is_disabled":false,"rental_uris":{"android":"levelo://app?vid=ab3b3273-086b-4458-b5bf-fb61a149b41e","ios":"levelo://app?vid=ab3b3273-086b-4458-b5bf-fb61a149b41e"},"vehicle_type_id":"4","last_reported":1741950473,"current_range_meters":7200,"station_id":"ce4bhmh2rcd13ifvqgmg","pricing_plan_id":"cebpf4jnsgd1na2vs0mg"},{"bike_id":"af5df027-9916-41a5-8ab7-db2182f63a1a","system_id":"levelo_inurba_marseille","lat":43.29302,"lon":5.37446,"is_reserved":false,"is_disabled":false,"rental_uris":{"android":"levelo://app?vid=af5df027-9916-41a5-8ab7-db2182f63a1a","ios":"levelo://app?vid=af5df027-9916-41a5-8ab7-db2182f63a1a"},"vehicle_type_id":"4","last_reported":1741950473,"current_range_meters":7200,"station_id":"ce4bgi12rcd13ifvqb70","pricing_plan_id":"cebpf4jnsgd1na2vs0mg"},{"bike_id":"b78c10b7-b880-4638-b672-f8fc61bd3c48","system_id":"levelo_inurba_marseille","lat":43.2409,"lon":5.37752,"is_reserved":false,"is_disabled":false,"rental_uris":{"android":"levelo://app?vid=b78c10b7-b880-4638-b672-f8fc61bd3c48","ios":"levelo://app?vid=b78c10b7-b880-4638-b672-f8fc61bd3c48"},"vehicle_type_id":"4","last_reported":1741950473,"current_range_meters":7200,"station_id":"ce4bhnp2rcd13ifvqgvg","pricing_plan_id":"cebpf4jnsgd1na2vs0mg"},{"bike_id":"1cbeb49c-8d51-46f2-ad03-8af78ea79d9a","system_id":"levelo_inurba_marseille","lat":43.24172,"lon":5.39711,"is_reserved":false,"is_disabled":false,"rental_uris":{"android":"levelo://app?vid=1cbeb49c-8d51-46f2-ad03-8af78ea79d9a","ios":"levelo://app?vid=1cbeb49c-8d51-46f2-ad03-8af78ea79d9a"},"vehicle_type_id":"4","last_reported":1741950473,"current_range_meters":7200,"station_id":"ce4bhn12rcd13ifvqgpg","pricing_plan_id":"cebpf4jnsgd1na2vs0mg"},{"bike_id":"45dce5d6-fdd9-43b7-8cb1-c7832923b7a4","system_id":"levelo_inurba_marseille","lat":43.27062,"lon":5.40277,"is_reserved":false,"is_disabled":false,"rental_uris":{"android":"levelo://app?vid=45dce5d6-fdd9-43b7-8cb1-c7832923b7a4","ios":"levelo://app?vid=45dce5d6-fdd9-43b7-8cb1-c7832923b7a4"},"vehicle_type_id":"4","last_reported":1741950473,"current_range_meters":7200,"station_id":"ce4bhk92rcd13ifvqgc0","pricing_plan_id":"cebpf4jnsgd1na2vs0mg"},{"bike_id":"6db0a08e-65f7-4507-b567-93fcdf6d09f6","system_id":"levelo_inurba_marseille","lat":43.25581,"lon":5.38237,"is_reserved":false,"is_disabled":false,"rental_uris":{"android":"levelo://app?vid=6db0a08e-65f7-4507-b567-93fcdf6d09f6","ios":"levelo://app?vid=6db0a08e-65f7-4507-b567-93fcdf6d09f6"},"vehicle_type_id":"4","last_reported":1741950473,"current_range_meters":8000,"station_id":"ce4bhih2rcd13ifvqfs0","pricing_plan_id":"cebpf4jnsgd1na2vs0mg"},{"bike_id":"4208b8a5-20ba-4184-b8b1-4afcf0859341","system_id":"levelo_inurba_marseille","lat":43.28493,"lon":5.38559,"is_reserved":false,"is_disabled":false,"rental_uris":{"android":"levelo://app?vid=4208b8a5-20ba-4184-b8b1-4afcf0859341","ios":"levelo://app?vid=4208b8a5-20ba-4184-b8b1-4afcf0859341"},"vehicle_type_id":"4","last_reported":1741950473,"current_range_meters":8000,"station_id":"ce4bh8p2rcd13ifvqeb0","pricing_plan_id":"cebpf4jnsgd1na2vs0mg"},{"bike_id":"6d301242-f94b-48a6-87a7-c6934ebe7ed2","system_id":"levelo_inurba_marseille","lat":43.313479,"lon":5.367322,"is_reserved":false,"is_disabled":false,"rental_uris":{"android":"levelo://app?vid=6d301242-f94b-48a6-87a7-c6934ebe7ed2","ios":"levelo://app?vid=6d301242-f94b-48a6-87a7-c6934ebe7ed2"},"vehicle_type_id":"4","last_reported":1741950473,"current_range_meters":8000,"station_id":"ce4bgqh2rcd13ifvqc4g","pricing_plan_id":"cebpf4jnsgd1na2vs0mg"},{"bike_id":"3d1bb485-7113-4ec0-839f-e1dda88316c3","system_id":"levelo_inurba_marseille","lat":43.27331,"lon":5.39106,"is_reserved":false,"is_disabled":false,"rental_uris":{"android":"levelo://app?vid=3d1bb485-7113-4ec0-839f-e1dda88316c3","ios":"levelo://app?vid=3d1bb485-7113-4ec0-839f-e1dda88316c3"},"vehicle_type_id":"4","last_reported":1741950473,"current_range_meters":8000,"station_id":"ce4bhgp2rcd13ifvqfe0","pricing_plan_id":"cebpf4jnsgd1na2vs0mg"},{"bike_id":"1179ea35-4831-4438-984a-d67269a5255b","system_id":"levelo_inurba_marseille","lat":43.231999,"lon":5.355532,"is_reserved":false,"is_disabled":false,"rental_uris":{"android":"levelo://app?vid=1179ea35-4831-4438-984a-d67269a5255b","ios":"levelo://app?vid=1179ea35-4831-4438-984a-d67269a5255b"},"vehicle_type_id":"4","last_reported":1741950473,"current_range_meters":8000,"station_id":"ce4bhu92rcd13ifvqi70","pricing_plan_id":"cebpf4jnsgd1na2vs0mg"},{"bike_id":"8939fbba-2fc8-450a-9027-04db4f4e697a","system_id":"levelo_inurba_marseille","lat":43.31445,"lon":5.40537,"is_reserved":false,"is_disabled":false,"rental_uris":{"android":"levelo://app?vid=8939fbba-2fc8-450a-9027-04db4f4e697a","ios":"levelo://app?vid=8939fbba-2fc8-450a-9027-04db4f4e697a"},"vehicle_type_id":"4","last_reported":1741950473,"current_range_meters":8400,"station_id":"","pricing_plan_id":"cebpf4jnsgd1na2vs0mg"},{"bike_id":"bb620a23-74cd-4eda-8a16-b2236eed49e7","system_id":"levelo_inurba_marseille","lat":43.29781,"lon":5.37111,"is_reserved":false,"is_disabled":false,"rental_uris":{"android":"levelo://app?vid=bb620a23-74cd-4eda-8a16-b2236eed49e7","ios":"levelo://app?vid=bb620a23-74cd-4eda-8a16-b2236eed49e7"},"vehicle_type_id":"4","last_reported":1741950473,"current_range_meters":8400,"station_id":"ce4bgop2rcd13ifvqc1g","pricing_plan_id":"cebpf4jnsgd1na2vs0mg"},{"bike_id":"8e824da1-37b2-4e11-9c99-bb2e507552f6","system_id":"levelo_inurba_marseille","lat":43.23158,"lon":5.43714,"is_reserved":false,"is_disabled":false,"rental_uris":{"android":"levelo://app?vid=8e824da1-37b2-4e11-9c99-bb2e507552f6","ios":"levelo://app?vid=8e824da1-37b2-4e11-9c99-bb2e507552f6"},"vehicle_type_id":"4","last_reported":1741950473,"current_range_meters":8400,"station_id":"ce4bhmp2rcd13ifvqgog","pricing_plan_id":"cebpf4jnsgd1na2vs0mg"},{"bike_id":"150b3b69-cce0-417e-b078-1fb5ce62bcdb","system_id":"levelo_inurba_marseille","lat":43.24071,"lon":5.37759,"is_reserved":false,"is_disabled":false,"rental_uris":{"android":"levelo://app?vid=150b3b69-cce0-417e-b078-1fb5ce62bcdb","ios":"levelo://app?vid=150b3b69-cce0-417e-b078-1fb5ce62bcdb"},"vehicle_type_id":"4","last_reported":1741950473,"current_range_meters":8400,"station_id":"ce4bhnp2rcd13ifvqgvg","pricing_plan_id":"cebpf4jnsgd1na2vs0mg"},{"bike_id":"10602f16-ab8c-49ca-9266-ee1e3f63d602","system_id":"levelo_inurba_marseille","lat":43.29595,"lon":5.37711,"is_reserved":false,"is_disabled":false,"rental_uris":{"android":"levelo://app?vid=10602f16-ab8c-49ca-9266-ee1e3f63d602","ios":"levelo://app?vid=10602f16-ab8c-49ca-9266-ee1e3f63d602"},"vehicle_type_id":"4","last_reported":1741950473,"current_range_meters":8400,"station_id":"ce4bgi92rcd13ifvqb90","pricing_plan_id":"cebpf4jnsgd1na2vs0mg"},{"bike_id":"543dba60-6c7f-4431-aaa3-fa5f3788c932","system_id":"levelo_inurba_marseille","lat":43.27493,"lon":5.42462,"is_reserved":false,"is_disabled":false,"rental_uris":{"android":"levelo://app?vid=543dba60-6c7f-4431-aaa3-fa5f3788c932","ios":"levelo://app?vid=543dba60-6c7f-4431-aaa3-fa5f3788c932"},"vehicle_type_id":"4","last_reported":1741950473,"current_range_meters":8400,"station_id":"ce4bhn92rcd13ifvqgrg","pricing_plan_id":"cebpf4jnsgd1na2vs0mg"},{"bike_id":"6944bb06-8a8c-4cf4-86a1-ca9561cf4ee4","system_id":"levelo_inurba_marseille","lat":43.23057,"lon":5.35497,"is_reserved":false,"is_disabled":false,"rental_uris":{"android":"levelo://app?vid=6944bb06-8a8c-4cf4-86a1-ca9561cf4ee4","ios":"levelo://app?vid=6944bb06-8a8c-4cf4-86a1-ca9561cf4ee4"},"vehicle_type_id":"4","last_reported":1741950473,"current_range_meters":8400,"station_id":"cpo3342slgdg3j2ifvpg","pricing_plan_id":"cebpf4jnsgd1na2vs0mg"},{"bike_id":"d2c1304d-c6de-4e19-a363-2c0c4bdd9fb1","system_id":"levelo_inurba_marseille","lat":43.24673,"lon":5.38911,"is_reserved":false,"is_disabled":false,"rental_uris":{"android":"levelo://app?vid=d2c1304d-c6de-4e19-a363-2c0c4bdd9fb1","ios":"levelo://app?vid=d2c1304d-c6de-4e19-a363-2c0c4bdd9fb1"},"vehicle_type_id":"4","last_reported":1741950473,"current_range_meters":8400,"station_id":"ce4bhg12rcd13ifvqf60","pricing_plan_id":"cebpf4jnsgd1na2vs0mg"},{"bike_id":"602291c0-8fbc-4618-9659-f96afa9924db","system_id":"levelo_inurba_marseille","lat":43.303845,"lon":5.39294,"is_reserved":false,"is_disabled":false,"rental_uris":{"android":"levelo://app?vid=602291c0-8fbc-4618-9659-f96afa9924db","ios":"levelo://app?vid=602291c0-8fbc-4618-9659-f96afa9924db"},"vehicle_type_id":"4","last_reported":1741950473,"current_range_meters":8800,"station_id":"ce4bh312rcd13ifvqdj0","pricing_plan_id":"cebpf4jnsgd1na2vs0mg"},{"bike_id":"414a87d8-0320-4da5-94cb-1c2e9eb2c2e2","system_id":"levelo_inurba_marseille","lat":43.25819,"lon":5.39426,"is_reserved":false,"is_disabled":false,"rental_uris":{"android":"levelo://app?vid=414a87d8-0320-4da5-94cb-1c2e9eb2c2e2","ios":"levelo://app?vid=414a87d8-0320-4da5-94cb-1c2e9eb2c2e2"},"vehicle_type_id":"4","last_reported":1741950473,"current_range_meters":8800,"station_id":"ce4bhip2rcd13ifvqft0","pricing_plan_id":"cebpf4jnsgd1na2vs0mg"},{"bike_id":"58953ad0-ae88-4a58-9ac6-f797dd69f44e","system_id":"levelo_inurba_marseille","lat":43.25002,"lon":5.38919,"is_reserved":false,"is_disabled":false,"rental_uris":{"android":"levelo://app?vid=58953ad0-ae88-4a58-9ac6-f797dd69f44e","ios":"levelo://app?vid=58953ad0-ae88-4a58-9ac6-f797dd69f44e"},"vehicle_type_id":"4","last_reported":1741950473,"current_range_meters":8800,"station_id":"ce4bhgp2rcd13ifvqfd0","pricing_plan_id":"cebpf4jnsgd1na2vs0mg"},{"bike_id":"79916126-fc10-44a2-8c16-b22ca8e00ed4","system_id":"levelo_inurba_marseille","lat":43.27973,"lon":5.38698,"is_reserved":false,"is_disabled":false,"rental_uris":{"android":"levelo://app?vid=79916126-fc10-44a2-8c16-b22ca8e00ed4","ios":"levelo://app?vid=79916126-fc10-44a2-8c16-b22ca8e00ed4"},"vehicle_type_id":"4","last_reported":1741950473,"current_range_meters":8800,"station_id":"ce4bhg12rcd13ifvqf80","pricing_plan_id":"cebpf4jnsgd1na2vs0mg"},{"bike_id":"fcf60bfc-7f3f-44de-812a-9ecfc93cd966","system_id":"levelo_inurba_marseille","lat":43.27423,"lon":5.39415,"is_reserved":false,"is_disabled":false,"rental_uris":{"android":"levelo://app?vid=fcf60bfc-7f3f-44de-812a-9ecfc93cd966","ios":"levelo://app?vid=fcf60bfc-7f3f-44de-812a-9ecfc93cd966"},"vehicle_type_id":"4","last_reported":1741950473,"current_range_meters":8800,"station_id":"ce4bhdp2rcd13ifvqf20","pricing_plan_id":"cebpf4jnsgd1na2vs0mg"},{"bike_id":"6cec560f-8635-4801-8462-637e6f2c72c5","system_id":"levelo_inurba_marseille","lat":43.23223,"lon":5.35548,"is_reserved":false,"is_disabled":false,"rental_uris":{"android":"levelo://app?vid=6cec560f-8635-4801-8462-637e6f2c72c5","ios":"levelo://app?vid=6cec560f-8635-4801-8462-637e6f2c72c5"},"vehicle_type_id":"4","last_reported":1741950473,"current_range_meters":8800,"station_id":"ce4bhu92rcd13ifvqi70","pricing_plan_id":"cebpf4jnsgd1na2vs0mg"},{"bike_id":"320564be-2867-4ab5-80ba-99ed9100fc63","system_id":"levelo_inurba_marseille","lat":43.25832,"lon":5.39391,"is_reserved":false,"is_disabled":false,"rental_uris":{"android":"levelo://app?vid=320564be-2867-4ab5-80ba-99ed9100fc63","ios":"levelo://app?vid=320564be-2867-4ab5-80ba-99ed9100fc63"},"vehicle_type_id":"4","last_reported":1741950473,"current_range_meters":8800,"station_id":"","pricing_plan_id":"cebpf4jnsgd1na2vs0mg"},{"bike_id":"4afd2fd8-efd9-45d9-9c83-99a19870b731","system_id":"levelo_inurba_marseille","lat":43.29573,"lon":5.37526,"is_reserved":false,"is_disabled":false,"rental_uris":{"android":"levelo://app?vid=4afd2fd8-efd9-45d9-9c83-99a19870b731","ios":"levelo://app?vid=4afd2fd8-efd9-45d9-9c83-99a19870b731"},"vehicle_type_id":"4","last_reported":1741950473,"current_range_meters":8800,"station_id":"ce4bgh92rcd13ifvqb50","pricing_plan_id":"cebpf4jnsgd1na2vs0mg"},{"bike_id":"01e25889-3bfd-4c2b-b309-d66c58f42e18","system_id":"levelo_inurba_marseille","lat":43.31706,"lon":5.40479,"is_reserved":false,"is_disabled":false,"rental_uris":{"android":"levelo://app?vid=01e25889-3bfd-4c2b-b309-d66c58f42e18","ios":"levelo://app?vid=01e25889-3bfd-4c2b-b309-d66c58f42e18"},"vehicle_type_id":"4","last_reported":1741950473,"current_range_meters":8800,"station_id":"ce4bh012rcd13ifvqd00","pricing_plan_id":"cebpf4jnsgd1na2vs0mg"},{"bike_id":"1bb40767-05f4-49b0-a758-a7c6769b1369","system_id":"levelo_inurba_marseille","lat":43.29256,"lon":5.40905,"is_reserved":false,"is_disabled":false,"rental_uris":{"android":"levelo://app?vid=1bb40767-05f4-49b0-a758-a7c6769b1369","ios":"levelo://app?vid=1bb40767-05f4-49b0-a758-a7c6769b1369"},"vehicle_type_id":"4","last_reported":1741950473,"current_range_meters":9200,"station_id":"ce4bh192rcd13ifvqdc0","pricing_plan_id":"cebpf4jnsgd1na2vs0mg"},{"bike_id":"7121d818-13e2-43ed-b445-7134fefdd64f","system_id":"levelo_inurba_marseille","lat":43.232023,"lon":5.355467,"is_reserved":false,"is_disabled":false,"rental_uris":{"android":"levelo://app?vid=7121d818-13e2-43ed-b445-7134fefdd64f","ios":"levelo://app?vid=7121d818-13e2-43ed-b445-7134fefdd64f"},"vehicle_type_id":"4","last_reported":1741950473,"current_range_meters":9200,"station_id":"ce4bhu92rcd13ifvqi70","pricing_plan_id":"cebpf4jnsgd1na2vs0mg"},{"bike_id":"c118cc19-7f0e-4e54-b921-f1faa9246911","system_id":"levelo_inurba_marseille","lat":43.24082,"lon":5.37768,"is_reserved":false,"is_disabled":false,"rental_uris":{"android":"levelo://app?vid=c118cc19-7f0e-4e54-b921-f1faa9246911","ios":"levelo://app?vid=c118cc19-7f0e-4e54-b921-f1faa9246911"},"vehicle_type_id":"4","last_reported":1741950473,"current_range_meters":9200,"station_id":"ce4bhnp2rcd13ifvqgvg","pricing_plan_id":"cebpf4jnsgd1na2vs0mg"},{"bike_id":"703a27ab-78c1-4da2-9977-9c24f54834c8","system_id":"levelo_inurba_marseille","lat":43.3249,"lon":5.36559,"is_reserved":false,"is_disabled":false,"rental_uris":{"android":"levelo://app?vid=703a27ab-78c1-4da2-9977-9c24f54834c8","ios":"levelo://app?vid=703a27ab-78c1-4da2-9977-9c24f54834c8"},"vehicle_type_id":"4","last_reported":1741950473,"current_range_meters":9200,"station_id":"ce4bhs12rcd13ifvqhvg","pricing_plan_id":"cebpf4jnsgd1na2vs0mg"},{"bike_id":"e4bbb59a-b9b4-4034-ae2e-75564acfd2a1","system_id":"levelo_inurba_marseille","lat":43.30972,"lon":5.39039,"is_reserved":false,"is_disabled":false,"rental_uris":{"android":"levelo://app?vid=e4bbb59a-b9b4-4034-ae2e-75564acfd2a1","ios":"levelo://app?vid=e4bbb59a-b9b4-4034-ae2e-75564acfd2a1"},"vehicle_type_id":"4","last_reported":1741950473,"current_range_meters":9200,"station_id":"ce4bgup2rcd13ifvqco0","pricing_plan_id":"cebpf4jnsgd1na2vs0mg"},{"bike_id":"b634fcd7-4303-4fed-a2f8-fcd04ed2a4dd","system_id":"levelo_inurba_marseille","lat":43.23064,"lon":5.35499,"is_reserved":false,"is_disabled":false,"rental_uris":{"android":"levelo://app?vid=b634fcd7-4303-4fed-a2f8-fcd04ed2a4dd","ios":"levelo://app?vid=b634fcd7-4303-4fed-a2f8-fcd04ed2a4dd"},"vehicle_type_id":"4","last_reported":1741950473,"current_range_meters":9200,"station_id":"cpo3342slgdg3j2ifvpg","pricing_plan_id":"cebpf4jnsgd1na2vs0mg"},{"bike_id":"3363e5ed-aafd-4c83-9f97-12270e6ffcf4","system_id":"levelo_inurba_marseille","lat":43.248641,"lon":5.406466,"is_reserved":false,"is_disabled":false,"rental_uris":{"android":"levelo://app?vid=3363e5ed-aafd-4c83-9f97-12270e6ffcf4","ios":"levelo://app?vid=3363e5ed-aafd-4c83-9f97-12270e6ffcf4"},"vehicle_type_id":"4","last_reported":1741950473,"current_range_meters":9200,"station_id":"","pricing_plan_id":"cebpf4jnsgd1na2vs0mg"},{"bike_id":"f6975236-1909-4591-9ec1-290c425d99ce","system_id":"levelo_inurba_marseille","lat":43.26513,"lon":5.39046,"is_reserved":false,"is_disabled":false,"rental_uris":{"android":"levelo://app?vid=f6975236-1909-4591-9ec1-290c425d99ce","ios":"levelo://app?vid=f6975236-1909-4591-9ec1-290c425d99ce"},"vehicle_type_id":"4","last_reported":1741950473,"current_range_meters":9200,"station_id":"","pricing_plan_id":"cebpf4jnsgd1na2vs0mg"},{"bike_id":"3d915018-0dee-4e75-9e7f-5cbc2a1e9639","system_id":"levelo_inurba_marseille","lat":43.33032,"lon":5.39051,"is_reserved":false,"is_disabled":false,"rental_uris":{"android":"levelo://app?vid=3d915018-0dee-4e75-9e7f-5cbc2a1e9639","ios":"levelo://app?vid=3d915018-0dee-4e75-9e7f-5cbc2a1e9639"},"vehicle_type_id":"4","last_reported":1741950473,"current_range_meters":9200,"station_id":"ce4bhr92rcd13ifvqhrg","pricing_plan_id":"cebpf4jnsgd1na2vs0mg"},{"bike_id":"22eef8e9-28d0-4055-9740-16ced5bd43fc","system_id":"levelo_inurba_marseille","lat":43.24694,"lon":5.38145,"is_reserved":false,"is_disabled":false,"rental_uris":{"android":"levelo://app?vid=22eef8e9-28d0-4055-9740-16ced5bd43fc","ios":"levelo://app?vid=22eef8e9-28d0-4055-9740-16ced5bd43fc"},"vehicle_type_id":"4","last_reported":1741950473,"current_range_meters":9200,"station_id":"ce4bhih2rcd13ifvqfr0","pricing_plan_id":"cebpf4jnsgd1na2vs0mg"},{"bike_id":"36ec5a15-215b-4367-a3ca-336aadd9a251","system_id":"levelo_inurba_marseille","lat":43.33746,"lon":5.3745,"is_reserved":false,"is_disabled":false,"rental_uris":{"android":"levelo://app?vid=36ec5a15-215b-4367-a3ca-336aadd9a251","ios":"levelo://app?vid=36ec5a15-215b-4367-a3ca-336aadd9a251"},"vehicle_type_id":"4","last_reported":1741950473,"current_range_meters":9200,"station_id":"","pricing_plan_id":"cebpf4jnsgd1na2vs0mg"},{"bike_id":"436bf6fd-98f0-4c70-968c-7fcac8f398a5","system_id":"levelo_inurba_marseille","lat":43.2511,"lon":5.41043,"is_reserved":false,"is_disabled":false,"rental_uris":{"android":"levelo://app?vid=436bf6fd-98f0-4c70-968c-7fcac8f398a5","ios":"levelo://app?vid=436bf6fd-98f0-4c70-968c-7fcac8f398a5"},"vehicle_type_id":"4","last_reported":1741950473,"current_range_meters":9600,"station_id":"","pricing_plan_id":"cebpf4jnsgd1na2vs0mg"},{"bike_id":"ca6be33c-d4ea-4b2d-9bd5-a7fb56d47f4f","system_id":"levelo_inurba_marseille","lat":43.29525,"lon":5.39045,"is_reserved":false,"is_disabled":false,"rental_uris":{"android":"levelo://app?vid=ca6be33c-d4ea-4b2d-9bd5-a7fb56d47f4f","ios":"levelo://app?vid=ca6be33c-d4ea-4b2d-9bd5-a7fb56d47f4f"},"vehicle_type_id":"4","last_reported":1741950473,"current_range_meters":9600,"station_id":"ce4bh3p2rcd13ifvqdp0","pricing_plan_id":"cebpf4jnsgd1na2vs0mg"},{"bike_id":"6d69bcb3-9f1f-47de-bcf3-40d0e4d7bc71","system_id":"levelo_inurba_marseille","lat":43.27815,"lon":5.40718,"is_reserved":false,"is_disabled":false,"rental_uris":{"android":"levelo://app?vid=6d69bcb3-9f1f-47de-bcf3-40d0e4d7bc71","ios":"levelo://app?vid=6d69bcb3-9f1f-47de-bcf3-40d0e4d7bc71"},"vehicle_type_id":"4","last_reported":1741950473,"current_range_meters":9600,"station_id":"ce4bhnh2rcd13ifvqgtg","pricing_plan_id":"cebpf4jnsgd1na2vs0mg"},{"bike_id":"205861f1-c8e8-437b-8921-43664245ec7b","system_id":"levelo_inurba_marseille","lat":43.309922,"lon":5.384731,"is_reserved":false,"is_disabled":false,"rental_uris":{"android":"levelo://app?vid=205861f1-c8e8-437b-8921-43664245ec7b","ios":"levelo://app?vid=205861f1-c8e8-437b-8921-43664245ec7b"},"vehicle_type_id":"4","last_reported":1741950473,"current_range_meters":9600,"station_id":"","pricing_plan_id":"cebpf4jnsgd1na2vs0mg"},{"bike_id":"4a3685f3-e2ce-4ad8-8bde-8a0ec2e78324","system_id":"levelo_inurba_marseille","lat":43.30164,"lon":5.38092,"is_reserved":false,"is_disabled":false,"rental_uris":{"android":"levelo://app?vid=4a3685f3-e2ce-4ad8-8bde-8a0ec2e78324","ios":"levelo://app?vid=4a3685f3-e2ce-4ad8-8bde-8a0ec2e78324"},"vehicle_type_id":"4","last_reported":1741950473,"current_range_meters":9600,"station_id":"ce4bgjp2rcd13ifvqbh0","pricing_plan_id":"cebpf4jnsgd1na2vs0mg"},{"bike_id":"3f6cdbfe-e7f7-4b7f-b58a-eec93b9fa741","system_id":"levelo_inurba_marseille","lat":43.28156,"lon":5.42641,"is_reserved":false,"is_disabled":false,"rental_uris":{"android":"levelo://app?vid=3f6cdbfe-e7f7-4b7f-b58a-eec93b9fa741","ios":"levelo://app?vid=3f6cdbfe-e7f7-4b7f-b58a-eec93b9fa741"},"vehicle_type_id":"4","last_reported":1741950473,"current_range_meters":9600,"station_id":"ce4bhnh2rcd13ifvqgug","pricing_plan_id":"cebpf4jnsgd1na2vs0mg"},{"bike_id":"ef7136df-c425-4b43-8c1e-ca10d03720d7","system_id":"levelo_inurba_marseille","lat":43.29846,"lon":5.36271,"is_reserved":false,"is_disabled":false,"rental_uris":{"android":"levelo://app?vid=ef7136df-c425-4b43-8c1e-ca10d03720d7","ios":"levelo://app?vid=ef7136df-c425-4b43-8c1e-ca10d03720d7"},"vehicle_type_id":"4","last_reported":1741950473,"current_range_meters":10000,"station_id":"ce4bgpp2rcd13ifvqc3g","pricing_plan_id":"cebpf4jnsgd1na2vs0mg"},{"bike_id":"78dce6e6-36eb-4d6b-a861-292dc7c9e479","system_id":"levelo_inurba_marseille","lat":43.25008,"lon":5.38924,"is_reserved":false,"is_disabled":false,"rental_uris":{"android":"levelo://app?vid=78dce6e6-36eb-4d6b-a861-292dc7c9e479","ios":"levelo://app?vid=78dce6e6-36eb-4d6b-a861-292dc7c9e479"},"vehicle_type_id":"4","last_reported":1741950473,"current_range_meters":10000,"station_id":"ce4bhgp2rcd13ifvqfd0","pricing_plan_id":"cebpf4jnsgd1na2vs0mg"},{"bike_id":"594a33ea-5c85-49b0-893b-48b1f5e1011a","system_id":"levelo_inurba_marseille","lat":43.309179,"lon":5.401571,"is_reserved":false,"is_disabled":true,"rental_uris":{"android":"levelo://app?vid=594a33ea-5c85-49b0-893b-48b1f5e1011a","ios":"levelo://app?vid=594a33ea-5c85-49b0-893b-48b1f5e1011a"},"vehicle_type_id":"4","last_reported":1741950473,"current_range_meters":10000,"station_id":"ce4bgvp2rcd13ifvqct0","pricing_plan_id":"cebpf4jnsgd1na2vs0mg"},{"bike_id":"d6d6ee5c-5892-4d6d-8405-34983210d1bb","system_id":"levelo_inurba_marseille","lat":43.2953,"lon":5.39038,"is_reserved":false,"is_disabled":false,"rental_uris":{"android":"levelo://app?vid=d6d6ee5c-5892-4d6d-8405-34983210d1bb","ios":"levelo://app?vid=d6d6ee5c-5892-4d6d-8405-34983210d1bb"},"vehicle_type_id":"4","last_reported":1741950473,"current_range_meters":10800,"station_id":"ce4bh3p2rcd13ifvqdp0","pricing_plan_id":"cebpf4jnsgd1na2vs0mg"},{"bike_id":"5bbbcc9c-c390-411b-9d62-74fb6404d435","system_id":"levelo_inurba_marseille","lat":43.2408,"lon":5.37747,"is_reserved":false,"is_disabled":false,"rental_uris":{"android":"levelo://app?vid=5bbbcc9c-c390-411b-9d62-74fb6404d435","ios":"levelo://app?vid=5bbbcc9c-c390-411b-9d62-74fb6404d435"},"vehicle_type_id":"4","last_reported":1741950473,"current_range_meters":10800,"station_id":"ce4bhnp2rcd13ifvqgvg","pricing_plan_id":"cebpf4jnsgd1na2vs0mg"},{"bike_id":"ea3bf480-2b73-4981-b4d3-25cdeabbc4cb","system_id":"levelo_inurba_marseille","lat":43.27961,"lon":5.41042,"is_reserved":false,"is_disabled":false,"rental_uris":{"android":"levelo://app?vid=ea3bf480-2b73-4981-b4d3-25cdeabbc4cb","ios":"levelo://app?vid=ea3bf480-2b73-4981-b4d3-25cdeabbc4cb"},"vehicle_type_id":"4","last_reported":1741950473,"current_range_meters":10800,"station_id":"ce4bhnp2rcd13ifvqh0g","pricing_plan_id":"cebpf4jnsgd1na2vs0mg"},{"bike_id":"c00de636-fb2c-49b9-8c19-0ce088140454","system_id":"levelo_inurba_marseille","lat":43.2592,"lon":5.40878,"is_reserved":false,"is_disabled":false,"rental_uris":{"android":"levelo://app?vid=c00de636-fb2c-49b9-8c19-0ce088140454","ios":"levelo://app?vid=c00de636-fb2c-49b9-8c19-0ce088140454"},"vehicle_type_id":"4","last_reported":1741950473,"current_range_meters":11200,"station_id":"ce4bhm92rcd13ifvqglg","pricing_plan_id":"cebpf4jnsgd1na2vs0mg"},{"bike_id":"849be940-04d6-4cdf-9999-c703b451add0","system_id":"levelo_inurba_marseille","lat":43.29881,"lon":5.38148,"is_reserved":false,"is_disabled":false,"rental_uris":{"android":"levelo://app?vid=849be940-04d6-4cdf-9999-c703b451add0","ios":"levelo://app?vid=849be940-04d6-4cdf-9999-c703b451add0"},"vehicle_type_id":"4","last_reported":1741950473,"current_range_meters":11600,"station_id":"ce4bgj12rcd13ifvqbc0","pricing_plan_id":"cebpf4jnsgd1na2vs0mg"},{"bike_id":"00e4c6ad-d15a-4f8e-ab31-8eb05d1a29bf","system_id":"levelo_inurba_marseille","lat":43.30134,"lon":5.3987,"is_reserved":false,"is_disabled":false,"rental_uris":{"android":"levelo://app?vid=00e4c6ad-d15a-4f8e-ab31-8eb05d1a29bf","ios":"levelo://app?vid=00e4c6ad-d15a-4f8e-ab31-8eb05d1a29bf"},"vehicle_type_id":"4","last_reported":1741950473,"current_range_meters":11600,"station_id":"ce4bh0h2rcd13ifvqd40","pricing_plan_id":"cebpf4jnsgd1na2vs0mg"},{"bike_id":"7972ac9e-63dc-457e-b1b3-033c59705207","system_id":"levelo_inurba_marseille","lat":43.27816,"lon":5.40714,"is_reserved":false,"is_disabled":false,"rental_uris":{"android":"levelo://app?vid=7972ac9e-63dc-457e-b1b3-033c59705207","ios":"levelo://app?vid=7972ac9e-63dc-457e-b1b3-033c59705207"},"vehicle_type_id":"4","last_reported":1741950473,"current_range_meters":11600,"station_id":"ce4bhnh2rcd13ifvqgtg","pricing_plan_id":"cebpf4jnsgd1na2vs0mg"},{"bike_id":"c6f9c2cc-8d82-4ef0-9c96-3fa68372f355","system_id":"levelo_inurba_marseille","lat":43.25026,"lon":5.38936,"is_reserved":false,"is_disabled":false,"rental_uris":{"android":"levelo://app?vid=c6f9c2cc-8d82-4ef0-9c96-3fa68372f355","ios":"levelo://app?vid=c6f9c2cc-8d82-4ef0-9c96-3fa68372f355"},"vehicle_type_id":"4","last_reported":1741950473,"current_range_meters":11600,"station_id":"ce4bhgp2rcd13ifvqfd0","pricing_plan_id":"cebpf4jnsgd1na2vs0mg"},{"bike_id":"dc2dc920-7061-4611-9ad3-02d4898aaa15","system_id":"levelo_inurba_marseille","lat":43.231875,"lon":5.399865,"is_reserved":false,"is_disabled":false,"rental_uris":{"android":"levelo://app?vid=dc2dc920-7061-4611-9ad3-02d4898aaa15","ios":"levelo://app?vid=dc2dc920-7061-4611-9ad3-02d4898aaa15"},"vehicle_type_id":"4","last_reported":1741950473,"current_range_meters":11600,"station_id":"ce4bhn12rcd13ifvqgqg","pricing_plan_id":"cebpf4jnsgd1na2vs0mg"},{"bike_id":"48f3a40e-658c-443b-8908-cf181e5627b0","system_id":"levelo_inurba_marseille","lat":43.30159,"lon":5.37425,"is_reserved":false,"is_disabled":false,"rental_uris":{"android":"levelo://app?vid=48f3a40e-658c-443b-8908-cf181e5627b0","ios":"levelo://app?vid=48f3a40e-658c-443b-8908-cf181e5627b0"},"vehicle_type_id":"4","last_reported":1741950473,"current_range_meters":11600,"station_id":"ce4bgs92rcd13ifvqcc0","pricing_plan_id":"cebpf4jnsgd1na2vs0mg"},{"bike_id":"94fcca85-ec4a-406a-96f1-dd03eb39e6b9","system_id":"levelo_inurba_marseille","lat":43.28922,"lon":5.38398,"is_reserved":false,"is_disabled":false,"rental_uris":{"android":"levelo://app?vid=94fcca85-ec4a-406a-96f1-dd03eb39e6b9","ios":"levelo://app?vid=94fcca85-ec4a-406a-96f1-dd03eb39e6b9"},"vehicle_type_id":"4","last_reported":1741950473,"current_range_meters":11600,"station_id":"ce4bh612rcd13ifvqe6g","pricing_plan_id":"cebpf4jnsgd1na2vs0mg"},{"bike_id":"ef7e7482-d3e5-416a-a3ba-6c0d8dc7537c","system_id":"levelo_inurba_marseille","lat":43.30547,"lon":5.38432,"is_reserved":false,"is_disabled":false,"rental_uris":{"android":"levelo://app?vid=ef7e7482-d3e5-416a-a3ba-6c0d8dc7537c","ios":"levelo://app?vid=ef7e7482-d3e5-416a-a3ba-6c0d8dc7537c"},"vehicle_type_id":"4","last_reported":1741950473,"current_range_meters":12000,"station_id":"ce4bgg92rcd13ifvqb30","pricing_plan_id":"cebpf4jnsgd1na2vs0mg"},{"bike_id":"7f3edeef-861c-482d-8624-f52f0407713c","system_id":"levelo_inurba_marseille","lat":43.29536,"lon":5.39045,"is_reserved":false,"is_disabled":false,"rental_uris":{"android":"levelo://app?vid=7f3edeef-861c-482d-8624-f52f0407713c","ios":"levelo://app?vid=7f3edeef-861c-482d-8624-f52f0407713c"},"vehicle_type_id":"4","last_reported":1741950473,"current_range_meters":12000,"station_id":"ce4bh3p2rcd13ifvqdp0","pricing_plan_id":"cebpf4jnsgd1na2vs0mg"},{"bike_id":"ea35a696-cf8f-4f34-a470-e7e76b37624b","system_id":"levelo_inurba_marseille","lat":43.29306,"lon":5.385505,"is_reserved":false,"is_disabled":false,"rental_uris":{"android":"levelo://app?vid=ea35a696-cf8f-4f34-a470-e7e76b37624b","ios":"levelo://app?vid=ea35a696-cf8f-4f34-a470-e7e76b37624b"},"vehicle_type_id":"4","last_reported":1741950473,"current_range_meters":12000,"station_id":"ce4bho92rcd13ifvqh3g","pricing_plan_id":"cebpf4jnsgd1na2vs0mg"},{"bike_id":"e426c922-3849-4b81-bbfe-7a9bb9181abb","system_id":"levelo_inurba_marseille","lat":43.27978,"lon":5.38765,"is_reserved":false,"is_disabled":false,"rental_uris":{"android":"levelo://app?vid=e426c922-3849-4b81-bbfe-7a9bb9181abb","ios":"levelo://app?vid=e426c922-3849-4b81-bbfe-7a9bb9181abb"},"vehicle_type_id":"4","last_reported":1741950473,"current_range_meters":12000,"station_id":"ce4bhg12rcd13ifvqf80","pricing_plan_id":"cebpf4jnsgd1na2vs0mg"},{"bike_id":"34034b9a-a578-4449-b4bd-b1a66b6e3f4c","system_id":"levelo_inurba_marseille","lat":43.26194,"lon":5.37449,"is_reserved":false,"is_disabled":false,"rental_uris":{"android":"levelo://app?vid=34034b9a-a578-4449-b4bd-b1a66b6e3f4c","ios":"levelo://app?vid=34034b9a-a578-4449-b4bd-b1a66b6e3f4c"},"vehicle_type_id":"4","last_reported":1741950473,"current_range_meters":12000,"station_id":"ce4bhgp2rcd13ifvqfc0","pricing_plan_id":"cebpf4jnsgd1na2vs0mg"},{"bike_id":"771248cc-49fa-49c9-9943-f1819eaa592f","system_id":"levelo_inurba_marseille","lat":43.28412,"lon":5.3499,"is_reserved":false,"is_disabled":false,"rental_uris":{"android":"levelo://app?vid=771248cc-49fa-49c9-9943-f1819eaa592f","ios":"levelo://app?vid=771248cc-49fa-49c9-9943-f1819eaa592f"},"vehicle_type_id":"4","last_reported":1741950473,"current_range_meters":12000,"station_id":"ce4bhbh2rcd13ifvqepg","pricing_plan_id":"cebpf4jnsgd1na2vs0mg"},{"bike_id":"bd7fb638-a561-41df-90ca-f32685780427","system_id":"levelo_inurba_marseille","lat":43.22923,"lon":5.35374,"is_reserved":false,"is_disabled":false,"rental_uris":{"android":"levelo://app?vid=bd7fb638-a561-41df-90ca-f32685780427","ios":"levelo://app?vid=bd7fb638-a561-41df-90ca-f32685780427"},"vehicle_type_id":"4","last_reported":1741950473,"current_range_meters":12000,"station_id":"cpo3532slgdg3j2ikp40","pricing_plan_id":"cebpf4jnsgd1na2vs0mg"},{"bike_id":"1e61ce66-e314-4e8a-99c3-219a8ea4c38b","system_id":"levelo_inurba_marseille","lat":43.24409,"lon":5.37082,"is_reserved":false,"is_disabled":false,"rental_uris":{"android":"levelo://app?vid=1e61ce66-e314-4e8a-99c3-219a8ea4c38b","ios":"levelo://app?vid=1e61ce66-e314-4e8a-99c3-219a8ea4c38b"},"vehicle_type_id":"4","last_reported":1741950473,"current_range_meters":12000,"station_id":"ce4bhhh2rcd13ifvqfk0","pricing_plan_id":"cebpf4jnsgd1na2vs0mg"},{"bike_id":"a37e1dd3-7e51-4a2d-b749-26f776d2aee1","system_id":"levelo_inurba_marseille","lat":43.29529,"lon":5.39039,"is_reserved":false,"is_disabled":false,"rental_uris":{"android":"levelo://app?vid=a37e1dd3-7e51-4a2d-b749-26f776d2aee1","ios":"levelo://app?vid=a37e1dd3-7e51-4a2d-b749-26f776d2aee1"},"vehicle_type_id":"4","last_reported":1741950473,"current_range_meters":12400,"station_id":"ce4bh3p2rcd13ifvqdp0","pricing_plan_id":"cebpf4jnsgd1na2vs0mg"},{"bike_id":"59822710-2d10-4517-868b-42cfab329759","system_id":"levelo_inurba_marseille","lat":43.23182,"lon":5.35493,"is_reserved":false,"is_disabled":false,"rental_uris":{"android":"levelo://app?vid=59822710-2d10-4517-868b-42cfab329759","ios":"levelo://app?vid=59822710-2d10-4517-868b-42cfab329759"},"vehicle_type_id":"4","last_reported":1741950473,"current_range_meters":12400,"station_id":"","pricing_plan_id":"cebpf4jnsgd1na2vs0mg"},{"bike_id":"b27f1eab-ba5c-42e6-a66f-00d9e67d5178","system_id":"levelo_inurba_marseille","lat":43.30312,"lon":5.37707,"is_reserved":false,"is_disabled":false,"rental_uris":{"android":"levelo://app?vid=b27f1eab-ba5c-42e6-a66f-00d9e67d5178","ios":"levelo://app?vid=b27f1eab-ba5c-42e6-a66f-00d9e67d5178"},"vehicle_type_id":"4","last_reported":1741950473,"current_range_meters":12400,"station_id":"ce4bguh2rcd13ifvqcj0","pricing_plan_id":"cebpf4jnsgd1na2vs0mg"},{"bike_id":"ac9829db-5826-4bcf-b26b-4776553d00ba","system_id":"levelo_inurba_marseille","lat":43.31692,"lon":5.40477,"is_reserved":false,"is_disabled":false,"rental_uris":{"android":"levelo://app?vid=ac9829db-5826-4bcf-b26b-4776553d00ba","ios":"levelo://app?vid=ac9829db-5826-4bcf-b26b-4776553d00ba"},"vehicle_type_id":"4","last_reported":1741950473,"current_range_meters":12400,"station_id":"ce4bh012rcd13ifvqd00","pricing_plan_id":"cebpf4jnsgd1na2vs0mg"},{"bike_id":"d5ca99b0-ccbb-4f42-9ac1-6c4977ddb27a","system_id":"levelo_inurba_marseille","lat":43.25015,"lon":5.38925,"is_reserved":false,"is_disabled":false,"rental_uris":{"android":"levelo://app?vid=d5ca99b0-ccbb-4f42-9ac1-6c4977ddb27a","ios":"levelo://app?vid=d5ca99b0-ccbb-4f42-9ac1-6c4977ddb27a"},"vehicle_type_id":"4","last_reported":1741950473,"current_range_meters":12400,"station_id":"ce4bhgp2rcd13ifvqfd0","pricing_plan_id":"cebpf4jnsgd1na2vs0mg"},{"bike_id":"d98e5f37-4f71-4a36-9b3b-496f87de0d61","system_id":"levelo_inurba_marseille","lat":43.31111,"lon":5.37569,"is_reserved":false,"is_disabled":false,"rental_uris":{"android":"levelo://app?vid=d98e5f37-4f71-4a36-9b3b-496f87de0d61","ios":"levelo://app?vid=d98e5f37-4f71-4a36-9b3b-496f87de0d61"},"vehicle_type_id":"4","last_reported":1741950473,"current_range_meters":12400,"station_id":"","pricing_plan_id":"cebpf4jnsgd1na2vs0mg"},{"bike_id":"679747b7-bbd6-46be-9dde-bd8bad65aa17","system_id":"levelo_inurba_marseille","lat":43.30475,"lon":5.37904,"is_reserved":false,"is_disabled":false,"rental_uris":{"android":"levelo://app?vid=679747b7-bbd6-46be-9dde-bd8bad65aa17","ios":"levelo://app?vid=679747b7-bbd6-46be-9dde-bd8bad65aa17"},"vehicle_type_id":"4","last_reported":1741950473,"current_range_meters":12800,"station_id":"ce4bgup2rcd13ifvqcn0","pricing_plan_id":"cebpf4jnsgd1na2vs0mg"},{"bike_id":"cb256735-523d-45d3-9c1c-b9c7b6320183","system_id":"levelo_inurba_marseille","lat":43.31582,"lon":5.40388,"is_reserved":false,"is_disabled":false,"rental_uris":{"android":"levelo://app?vid=cb256735-523d-45d3-9c1c-b9c7b6320183","ios":"levelo://app?vid=cb256735-523d-45d3-9c1c-b9c7b6320183"},"vehicle_type_id":"4","last_reported":1741950473,"current_range_meters":12800,"station_id":"","pricing_plan_id":"cebpf4jnsgd1na2vs0mg"},{"bike_id":"a1fbfbd8-f4b8-485d-9eb8-0c711df84f78","system_id":"levelo_inurba_marseille","lat":43.29879,"lon":5.36267,"is_reserved":false,"is_disabled":false,"rental_uris":{"android":"levelo://app?vid=a1fbfbd8-f4b8-485d-9eb8-0c711df84f78","ios":"levelo://app?vid=a1fbfbd8-f4b8-485d-9eb8-0c711df84f78"},"vehicle_type_id":"4","last_reported":1741950473,"current_range_meters":12800,"station_id":"ce4bgpp2rcd13ifvqc3g","pricing_plan_id":"cebpf4jnsgd1na2vs0mg"},{"bike_id":"52c9a29f-71a6-47ca-b4ee-1301cb338e0c","system_id":"levelo_inurba_marseille","lat":43.30537,"lon":5.3653,"is_reserved":false,"is_disabled":false,"rental_uris":{"android":"levelo://app?vid=52c9a29f-71a6-47ca-b4ee-1301cb338e0c","ios":"levelo://app?vid=52c9a29f-71a6-47ca-b4ee-1301cb338e0c"},"vehicle_type_id":"4","last_reported":1741950473,"current_range_meters":12800,"station_id":"ce4bgs12rcd13ifvqcag","pricing_plan_id":"cebpf4jnsgd1na2vs0mg"},{"bike_id":"cf8c80b6-8414-4d47-907e-6a6fa8d4e1ab","system_id":"levelo_inurba_marseille","lat":43.30141,"lon":5.39862,"is_reserved":false,"is_disabled":false,"rental_uris":{"android":"levelo://app?vid=cf8c80b6-8414-4d47-907e-6a6fa8d4e1ab","ios":"levelo://app?vid=cf8c80b6-8414-4d47-907e-6a6fa8d4e1ab"},"vehicle_type_id":"4","last_reported":1741950473,"current_range_meters":13600,"station_id":"ce4bh0h2rcd13ifvqd40","pricing_plan_id":"cebpf4jnsgd1na2vs0mg"},{"bike_id":"51b71709-66e2-4c83-8ce6-a5ca4256e6ff","system_id":"levelo_inurba_marseille","lat":43.23128,"lon":5.43717,"is_reserved":false,"is_disabled":false,"rental_uris":{"android":"levelo://app?vid=51b71709-66e2-4c83-8ce6-a5ca4256e6ff","ios":"levelo://app?vid=51b71709-66e2-4c83-8ce6-a5ca4256e6ff"},"vehicle_type_id":"4","last_reported":1741950473,"current_range_meters":13600,"station_id":"ce4bhmp2rcd13ifvqgog","pricing_plan_id":"cebpf4jnsgd1na2vs0mg"},{"bike_id":"af474046-e400-4ac9-a0d2-80fc69b95ff7","system_id":"levelo_inurba_marseille","lat":43.30531,"lon":5.36527,"is_reserved":false,"is_disabled":false,"rental_uris":{"android":"levelo://app?vid=af474046-e400-4ac9-a0d2-80fc69b95ff7","ios":"levelo://app?vid=af474046-e400-4ac9-a0d2-80fc69b95ff7"},"vehicle_type_id":"4","last_reported":1741950473,"current_range_meters":13600,"station_id":"ce4bgs12rcd13ifvqcag","pricing_plan_id":"cebpf4jnsgd1na2vs0mg"},{"bike_id":"f31c7e9f-4848-4e4a-88d2-c26dfa0a32c6","system_id":"levelo_inurba_marseille","lat":43.29313,"lon":5.37436,"is_reserved":false,"is_disabled":false,"rental_uris":{"android":"levelo://app?vid=f31c7e9f-4848-4e4a-88d2-c26dfa0a32c6","ios":"levelo://app?vid=f31c7e9f-4848-4e4a-88d2-c26dfa0a32c6"},"vehicle_type_id":"4","last_reported":1741950473,"current_range_meters":14000,"station_id":"ce4bgi12rcd13ifvqb70","pricing_plan_id":"cebpf4jnsgd1na2vs0mg"},{"bike_id":"8a5bd971-61c1-4475-933b-dffdb284dd01","system_id":"levelo_inurba_marseille","lat":43.25009,"lon":5.3897,"is_reserved":false,"is_disabled":false,"rental_uris":{"android":"levelo://app?vid=8a5bd971-61c1-4475-933b-dffdb284dd01","ios":"levelo://app?vid=8a5bd971-61c1-4475-933b-dffdb284dd01"},"vehicle_type_id":"4","last_reported":1741950473,"current_range_meters":14000,"station_id":"ce4bhgp2rcd13ifvqfd0","pricing_plan_id":"cebpf4jnsgd1na2vs0mg"},{"bike_id":"05579cf8-619e-40fd-9191-b2bb2808e59a","system_id":"levelo_inurba_marseille","lat":43.26065,"lon":5.3939,"is_reserved":false,"is_disabled":false,"rental_uris":{"android":"levelo://app?vid=05579cf8-619e-40fd-9191-b2bb2808e59a","ios":"levelo://app?vid=05579cf8-619e-40fd-9191-b2bb2808e59a"},"vehicle_type_id":"4","last_reported":1741950473,"current_range_meters":14000,"station_id":"ce4bhh92rcd13ifvqfj0","pricing_plan_id":"cebpf4jnsgd1na2vs0mg"},{"bike_id":"04f149c6-a120-4218-b435-a952d9eb67d0","system_id":"levelo_inurba_marseille","lat":43.24873,"lon":5.40655,"is_reserved":false,"is_disabled":false,"rental_uris":{"android":"levelo://app?vid=04f149c6-a120-4218-b435-a952d9eb67d0","ios":"levelo://app?vid=04f149c6-a120-4218-b435-a952d9eb67d0"},"vehicle_type_id":"4","last_reported":1741950473,"current_range_meters":14000,"station_id":"","pricing_plan_id":"cebpf4jnsgd1na2vs0mg"},{"bike_id":"853f87d7-f6ef-43fc-9517-58162364c8e1","system_id":"levelo_inurba_marseille","lat":43.26567,"lon":5.39007,"is_reserved":false,"is_disabled":false,"rental_uris":{"android":"levelo://app?vid=853f87d7-f6ef-43fc-9517-58162364c8e1","ios":"levelo://app?vid=853f87d7-f6ef-43fc-9517-58162364c8e1"},"vehicle_type_id":"4","last_reported":1741950473,"current_range_meters":14000,"station_id":"ce4bhe12rcd13ifvqf30","pricing_plan_id":"cebpf4jnsgd1na2vs0mg"},{"bike_id":"b7378677-6bb7-4618-b870-38183578ebe4","system_id":"levelo_inurba_marseille","lat":43.27817,"lon":5.40701,"is_reserved":false,"is_disabled":false,"rental_uris":{"android":"levelo://app?vid=b7378677-6bb7-4618-b870-38183578ebe4","ios":"levelo://app?vid=b7378677-6bb7-4618-b870-38183578ebe4"},"vehicle_type_id":"4","last_reported":1741950473,"current_range_meters":14000,"station_id":"ce4bhnh2rcd13ifvqgtg","pricing_plan_id":"cebpf4jnsgd1na2vs0mg"},{"bike_id":"caa9ee69-a846-40e6-bed7-cb3253aa64c7","system_id":"levelo_inurba_marseille","lat":43.26194,"lon":5.37447,"is_reserved":false,"is_disabled":false,"rental_uris":{"android":"levelo://app?vid=caa9ee69-a846-40e6-bed7-cb3253aa64c7","ios":"levelo://app?vid=caa9ee69-a846-40e6-bed7-cb3253aa64c7"},"vehicle_type_id":"4","last_reported":1741950473,"current_range_meters":14000,"station_id":"ce4bhgp2rcd13ifvqfc0","pricing_plan_id":"cebpf4jnsgd1na2vs0mg"},{"bike_id":"8eb1a957-a48f-4ea1-9a87-c9ca711e52f4","system_id":"levelo_inurba_marseille","lat":43.31491,"lon":5.37273,"is_reserved":false,"is_disabled":false,"rental_uris":{"android":"levelo://app?vid=8eb1a957-a48f-4ea1-9a87-c9ca711e52f4","ios":"levelo://app?vid=8eb1a957-a48f-4ea1-9a87-c9ca711e52f4"},"vehicle_type_id":"4","last_reported":1741950473,"current_range_meters":14000,"station_id":"ce4bgt12rcd13ifvqcd0","pricing_plan_id":"cebpf4jnsgd1na2vs0mg"},{"bike_id":"676e66c6-8e50-404c-b512-5f94c7d6a8fc","system_id":"levelo_inurba_marseille","lat":43.24187,"lon":5.36411,"is_reserved":false,"is_disabled":false,"rental_uris":{"android":"levelo://app?vid=676e66c6-8e50-404c-b512-5f94c7d6a8fc","ios":"levelo://app?vid=676e66c6-8e50-404c-b512-5f94c7d6a8fc"},"vehicle_type_id":"4","last_reported":1741950473,"current_range_meters":14400,"station_id":"cpo36qri1sfpv3e86is0","pricing_plan_id":"cebpf4jnsgd1na2vs0mg"},{"bike_id":"531f3787-cddd-4298-8d43-eeb740d3c021","system_id":"levelo_inurba_marseille","lat":43.3014,"lon":5.39877,"is_reserved":false,"is_disabled":false,"rental_uris":{"android":"levelo://app?vid=531f3787-cddd-4298-8d43-eeb740d3c021","ios":"levelo://app?vid=531f3787-cddd-4298-8d43-eeb740d3c021"},"vehicle_type_id":"4","last_reported":1741950473,"current_range_meters":14400,"station_id":"ce4bh0h2rcd13ifvqd40","pricing_plan_id":"cebpf4jnsgd1na2vs0mg"},{"bike_id":"5eb871bd-f865-4673-aba5-fd2cc7d9f93c","system_id":"levelo_inurba_marseille","lat":43.29537,"lon":5.39039,"is_reserved":false,"is_disabled":false,"rental_uris":{"android":"levelo://app?vid=5eb871bd-f865-4673-aba5-fd2cc7d9f93c","ios":"levelo://app?vid=5eb871bd-f865-4673-aba5-fd2cc7d9f93c"},"vehicle_type_id":"4","last_reported":1741950473,"current_range_meters":14400,"station_id":"ce4bh3p2rcd13ifvqdp0","pricing_plan_id":"cebpf4jnsgd1na2vs0mg"},{"bike_id":"3a612974-c0ef-4aeb-95e6-b5091e8b6e01","system_id":"levelo_inurba_marseille","lat":43.2782,"lon":5.4071,"is_reserved":false,"is_disabled":false,"rental_uris":{"android":"levelo://app?vid=3a612974-c0ef-4aeb-95e6-b5091e8b6e01","ios":"levelo://app?vid=3a612974-c0ef-4aeb-95e6-b5091e8b6e01"},"vehicle_type_id":"4","last_reported":1741950473,"current_range_meters":14400,"station_id":"ce4bhnh2rcd13ifvqgtg","pricing_plan_id":"cebpf4jnsgd1na2vs0mg"},{"bike_id":"6aab137e-416d-42b2-9ef3-0a91d921400d","system_id":"levelo_inurba_marseille","lat":43.34147,"lon":5.40927,"is_reserved":false,"is_disabled":true,"rental_uris":{"android":"levelo://app?vid=6aab137e-416d-42b2-9ef3-0a91d921400d","ios":"levelo://app?vid=6aab137e-416d-42b2-9ef3-0a91d921400d"},"vehicle_type_id":"4","last_reported":1741950473,"current_range_meters":14400,"station_id":"ce4bhqh2rcd13ifvqhlg","pricing_plan_id":"cebpf4jnsgd1na2vs0mg"},{"bike_id":"502209ee-d263-4d85-b310-64647c2e4d11","system_id":"levelo_inurba_marseille","lat":43.30207,"lon":5.39469,"is_reserved":false,"is_disabled":false,"rental_uris":{"android":"levelo://app?vid=502209ee-d263-4d85-b310-64647c2e4d11","ios":"levelo://app?vid=502209ee-d263-4d85-b310-64647c2e4d11"},"vehicle_type_id":"4","last_reported":1741950473,"current_range_meters":14400,"station_id":"ce4bh0p2rcd13ifvqd70","pricing_plan_id":"cebpf4jnsgd1na2vs0mg"},{"bike_id":"d4b17355-f8e9-4913-b1ba-3f45f9e41f29","system_id":"levelo_inurba_marseille","lat":43.29892,"lon":5.38144,"is_reserved":false,"is_disabled":false,"rental_uris":{"android":"levelo://app?vid=d4b17355-f8e9-4913-b1ba-3f45f9e41f29","ios":"levelo://app?vid=d4b17355-f8e9-4913-b1ba-3f45f9e41f29"},"vehicle_type_id":"4","last_reported":1741950473,"current_range_meters":14800,"station_id":"ce4bgj12rcd13ifvqbc0","pricing_plan_id":"cebpf4jnsgd1na2vs0mg"},{"bike_id":"e0f00ea1-5190-455d-8f01-943045ce62ae","system_id":"levelo_inurba_marseille","lat":43.31181,"lon":5.37737,"is_reserved":false,"is_disabled":false,"rental_uris":{"android":"levelo://app?vid=e0f00ea1-5190-455d-8f01-943045ce62ae","ios":"levelo://app?vid=e0f00ea1-5190-455d-8f01-943045ce62ae"},"vehicle_type_id":"4","last_reported":1741950473,"current_range_meters":14800,"station_id":"","pricing_plan_id":"cebpf4jnsgd1na2vs0mg"},{"bike_id":"353aab2f-5b5d-400d-aa3f-2e043331dd3b","system_id":"levelo_inurba_marseille","lat":43.30162,"lon":5.38085,"is_reserved":false,"is_disabled":false,"rental_uris":{"android":"levelo://app?vid=353aab2f-5b5d-400d-aa3f-2e043331dd3b","ios":"levelo://app?vid=353aab2f-5b5d-400d-aa3f-2e043331dd3b"},"vehicle_type_id":"4","last_reported":1741950473,"current_range_meters":14800,"station_id":"ce4bgjp2rcd13ifvqbh0","pricing_plan_id":"cebpf4jnsgd1na2vs0mg"},{"bike_id":"385ae15c-2c3c-4490-a507-5eb20fb883a5","system_id":"levelo_inurba_marseille","lat":43.25932,"lon":5.40874,"is_reserved":false,"is_disabled":false,"rental_uris":{"android":"levelo://app?vid=385ae15c-2c3c-4490-a507-5eb20fb883a5","ios":"levelo://app?vid=385ae15c-2c3c-4490-a507-5eb20fb883a5"},"vehicle_type_id":"4","last_reported":1741950473,"current_range_meters":14800,"station_id":"ce4bhm92rcd13ifvqglg","pricing_plan_id":"cebpf4jnsgd1na2vs0mg"},{"bike_id":"93345f3c-6568-4b73-b51a-9f787d63ad24","system_id":"levelo_inurba_marseille","lat":43.30308,"lon":5.36903,"is_reserved":false,"is_disabled":false,"rental_uris":{"android":"levelo://app?vid=93345f3c-6568-4b73-b51a-9f787d63ad24","ios":"levelo://app?vid=93345f3c-6568-4b73-b51a-9f787d63ad24"},"vehicle_type_id":"4","last_reported":1741950473,"current_range_meters":14800,"station_id":"ce4bgqh2rcd13ifvqc5g","pricing_plan_id":"cebpf4jnsgd1na2vs0mg"},{"bike_id":"47bf8666-8072-4f5c-bdfd-6f1a8864ba44","system_id":"levelo_inurba_marseille","lat":43.26701,"lon":5.38263,"is_reserved":false,"is_disabled":false,"rental_uris":{"android":"levelo://app?vid=47bf8666-8072-4f5c-bdfd-6f1a8864ba44","ios":"levelo://app?vid=47bf8666-8072-4f5c-bdfd-6f1a8864ba44"},"vehicle_type_id":"4","last_reported":1741950473,"current_range_meters":15200,"station_id":"ce4bhg92rcd13ifvqf90","pricing_plan_id":"cebpf4jnsgd1na2vs0mg"},{"bike_id":"1b093d61-d643-4178-86b7-a4745c739cb9","system_id":"levelo_inurba_marseille","lat":43.2769,"lon":5.38918,"is_reserved":false,"is_disabled":false,"rental_uris":{"android":"levelo://app?vid=1b093d61-d643-4178-86b7-a4745c739cb9","ios":"levelo://app?vid=1b093d61-d643-4178-86b7-a4745c739cb9"},"vehicle_type_id":"4","last_reported":1741950473,"current_range_meters":14800,"station_id":"ce4bhi12rcd13ifvqfo0","pricing_plan_id":"cebpf4jnsgd1na2vs0mg"},{"bike_id":"441146ec-c2e7-45f1-b6bc-e65405bbf9fd","system_id":"levelo_inurba_marseille","lat":43.27622,"lon":5.36107,"is_reserved":false,"is_disabled":false,"rental_uris":{"android":"levelo://app?vid=441146ec-c2e7-45f1-b6bc-e65405bbf9fd","ios":"levelo://app?vid=441146ec-c2e7-45f1-b6bc-e65405bbf9fd"},"vehicle_type_id":"4","last_reported":1741950473,"current_range_meters":15200,"station_id":"ce4bgj92rcd13ifvqbe0","pricing_plan_id":"cebpf4jnsgd1na2vs0mg"},{"bike_id":"6de26fe8-e601-41a4-95fb-a0c7b8125e02","system_id":"levelo_inurba_marseille","lat":43.24098,"lon":5.37735,"is_reserved":false,"is_disabled":false,"rental_uris":{"android":"levelo://app?vid=6de26fe8-e601-41a4-95fb-a0c7b8125e02","ios":"levelo://app?vid=6de26fe8-e601-41a4-95fb-a0c7b8125e02"},"vehicle_type_id":"4","last_reported":1741950473,"current_range_meters":15200,"station_id":"ce4bhnp2rcd13ifvqgvg","pricing_plan_id":"cebpf4jnsgd1na2vs0mg"},{"bike_id":"4f40e8b1-1d2d-4b41-8fb4-f7f4b3a308bc","system_id":"levelo_inurba_marseille","lat":43.23149,"lon":5.43695,"is_reserved":false,"is_disabled":false,"rental_uris":{"android":"levelo://app?vid=4f40e8b1-1d2d-4b41-8fb4-f7f4b3a308bc","ios":"levelo://app?vid=4f40e8b1-1d2d-4b41-8fb4-f7f4b3a308bc"},"vehicle_type_id":"4","last_reported":1741950473,"current_range_meters":16000,"station_id":"ce4bhmp2rcd13ifvqgog","pricing_plan_id":"cebpf4jnsgd1na2vs0mg"},{"bike_id":"cabd3d2d-330e-43b2-8d0b-3e86699f79e1","system_id":"levelo_inurba_marseille","lat":43.24189,"lon":5.36386,"is_reserved":false,"is_disabled":false,"rental_uris":{"android":"levelo://app?vid=cabd3d2d-330e-43b2-8d0b-3e86699f79e1","ios":"levelo://app?vid=cabd3d2d-330e-43b2-8d0b-3e86699f79e1"},"vehicle_type_id":"4","last_reported":1741950473,"current_range_meters":16000,"station_id":"cpo36qri1sfpv3e86is0","pricing_plan_id":"cebpf4jnsgd1na2vs0mg"},{"bike_id":"b666481c-9399-40b1-a6ff-0c98434db720","system_id":"levelo_inurba_marseille","lat":43.29307,"lon":5.37176,"is_reserved":false,"is_disabled":false,"rental_uris":{"android":"levelo://app?vid=b666481c-9399-40b1-a6ff-0c98434db720","ios":"levelo://app?vid=b666481c-9399-40b1-a6ff-0c98434db720"},"vehicle_type_id":"4","last_reported":1741950473,"current_range_meters":16000,"station_id":"ce4bgh92rcd13ifvqb40","pricing_plan_id":"cebpf4jnsgd1na2vs0mg"},{"bike_id":"184492ce-9f5c-47e4-a3e5-d0eccfcef42b","system_id":"levelo_inurba_marseille","lat":43.27608,"lon":5.36094,"is_reserved":false,"is_disabled":false,"rental_uris":{"android":"levelo://app?vid=184492ce-9f5c-47e4-a3e5-d0eccfcef42b","ios":"levelo://app?vid=184492ce-9f5c-47e4-a3e5-d0eccfcef42b"},"vehicle_type_id":"4","last_reported":1741950473,"current_range_meters":16400,"station_id":"ce4bgj92rcd13ifvqbe0","pricing_plan_id":"cebpf4jnsgd1na2vs0mg"},{"bike_id":"0f204c50-efb0-4d0c-9f24-04731182f5f4","system_id":"levelo_inurba_marseille","lat":43.30304,"lon":5.36902,"is_reserved":false,"is_disabled":false,"rental_uris":{"android":"levelo://app?vid=0f204c50-efb0-4d0c-9f24-04731182f5f4","ios":"levelo://app?vid=0f204c50-efb0-4d0c-9f24-04731182f5f4"},"vehicle_type_id":"4","last_reported":1741950473,"current_range_meters":16400,"station_id":"ce4bgqh2rcd13ifvqc5g","pricing_plan_id":"cebpf4jnsgd1na2vs0mg"},{"bike_id":"76b5d343-6624-4366-8e6e-f702d50ae492","system_id":"levelo_inurba_marseille","lat":43.231898,"lon":5.355555,"is_reserved":false,"is_disabled":false,"rental_uris":{"android":"levelo://app?vid=76b5d343-6624-4366-8e6e-f702d50ae492","ios":"levelo://app?vid=76b5d343-6624-4366-8e6e-f702d50ae492"},"vehicle_type_id":"4","last_reported":1741950473,"current_range_meters":16400,"station_id":"ce4bhu92rcd13ifvqi70","pricing_plan_id":"cebpf4jnsgd1na2vs0mg"},{"bike_id":"d5510000-bf1f-40b6-9e90-853c10060aee","system_id":"levelo_inurba_marseille","lat":43.29053,"lon":5.39995,"is_reserved":false,"is_disabled":true,"rental_uris":{"android":"levelo://app?vid=d5510000-bf1f-40b6-9e90-853c10060aee","ios":"levelo://app?vid=d5510000-bf1f-40b6-9e90-853c10060aee"},"vehicle_type_id":"4","last_reported":1741950473,"current_range_meters":16400,"station_id":"ce4bh392rcd13ifvqdm0","pricing_plan_id":"cebpf4jnsgd1na2vs0mg"},{"bike_id":"08d7ad39-29b9-4d1d-ab44-5a56dd13dd34","system_id":"levelo_inurba_marseille","lat":43.24026,"lon":5.37728,"is_reserved":false,"is_disabled":false,"rental_uris":{"android":"levelo://app?vid=08d7ad39-29b9-4d1d-ab44-5a56dd13dd34","ios":"levelo://app?vid=08d7ad39-29b9-4d1d-ab44-5a56dd13dd34"},"vehicle_type_id":"4","last_reported":1741950473,"current_range_meters":16400,"station_id":"","pricing_plan_id":"cebpf4jnsgd1na2vs0mg"},{"bike_id":"0b7bfdb8-fd03-4687-9225-8085184f929c","system_id":"levelo_inurba_marseille","lat":43.32362,"lon":5.36715,"is_reserved":false,"is_disabled":false,"rental_uris":{"android":"levelo://app?vid=0b7bfdb8-fd03-4687-9225-8085184f929c","ios":"levelo://app?vid=0b7bfdb8-fd03-4687-9225-8085184f929c"},"vehicle_type_id":"4","last_reported":1741950473,"current_range_meters":16400,"station_id":"ce4bhsh2rcd13ifvqi2g","pricing_plan_id":"cebpf4jnsgd1na2vs0mg"},{"bike_id":"e3ac629b-3f4d-485e-89ba-194785893239","system_id":"levelo_inurba_marseille","lat":43.24071,"lon":5.37763,"is_reserved":false,"is_disabled":false,"rental_uris":{"android":"levelo://app?vid=e3ac629b-3f4d-485e-89ba-194785893239","ios":"levelo://app?vid=e3ac629b-3f4d-485e-89ba-194785893239"},"vehicle_type_id":"4","last_reported":1741950473,"current_range_meters":16400,"station_id":"ce4bhnp2rcd13ifvqgvg","pricing_plan_id":"cebpf4jnsgd1na2vs0mg"},{"bike_id":"70e74811-5755-462b-971a-5a64a80bde0b","system_id":"levelo_inurba_marseille","lat":43.31029,"lon":5.42292,"is_reserved":false,"is_disabled":false,"rental_uris":{"android":"levelo://app?vid=70e74811-5755-462b-971a-5a64a80bde0b","ios":"levelo://app?vid=70e74811-5755-462b-971a-5a64a80bde0b"},"vehicle_type_id":"4","last_reported":1741950473,"current_range_meters":16400,"station_id":"","pricing_plan_id":"cebpf4jnsgd1na2vs0mg"},{"bike_id":"c1c4de09-93ec-48f4-a989-985a34040c25","system_id":"levelo_inurba_marseille","lat":43.29622,"lon":5.37732,"is_reserved":false,"is_disabled":false,"rental_uris":{"android":"levelo://app?vid=c1c4de09-93ec-48f4-a989-985a34040c25","ios":"levelo://app?vid=c1c4de09-93ec-48f4-a989-985a34040c25"},"vehicle_type_id":"4","last_reported":1741950473,"current_range_meters":16400,"station_id":"ce4bgi92rcd13ifvqb90","pricing_plan_id":"cebpf4jnsgd1na2vs0mg"},{"bike_id":"64986549-2c9e-4b9f-8464-f74cc2571bf2","system_id":"levelo_inurba_marseille","lat":43.24083,"lon":5.37711,"is_reserved":false,"is_disabled":false,"rental_uris":{"android":"levelo://app?vid=64986549-2c9e-4b9f-8464-f74cc2571bf2","ios":"levelo://app?vid=64986549-2c9e-4b9f-8464-f74cc2571bf2"},"vehicle_type_id":"4","last_reported":1741950473,"current_range_meters":16400,"station_id":"ce4bhnp2rcd13ifvqgvg","pricing_plan_id":"cebpf4jnsgd1na2vs0mg"},{"bike_id":"cfd99b56-807a-4c82-a889-63eae05cb85b","system_id":"levelo_inurba_marseille","lat":43.27819,"lon":5.40718,"is_reserved":false,"is_disabled":false,"rental_uris":{"android":"levelo://app?vid=cfd99b56-807a-4c82-a889-63eae05cb85b","ios":"levelo://app?vid=cfd99b56-807a-4c82-a889-63eae05cb85b"},"vehicle_type_id":"4","last_reported":1741950473,"current_range_meters":16400,"station_id":"ce4bhnh2rcd13ifvqgtg","pricing_plan_id":"cebpf4jnsgd1na2vs0mg"},{"bike_id":"3fbdbed3-81eb-4ebd-99e8-fe7ae5272906","system_id":"levelo_inurba_marseille","lat":43.25819,"lon":5.39442,"is_reserved":false,"is_disabled":false,"rental_uris":{"android":"levelo://app?vid=3fbdbed3-81eb-4ebd-99e8-fe7ae5272906","ios":"levelo://app?vid=3fbdbed3-81eb-4ebd-99e8-fe7ae5272906"},"vehicle_type_id":"4","last_reported":1741950473,"current_range_meters":16400,"station_id":"ce4bhip2rcd13ifvqft0","pricing_plan_id":"cebpf4jnsgd1na2vs0mg"},{"bike_id":"aed9098c-3d44-45b3-a7fd-cb229efd8d44","system_id":"levelo_inurba_marseille","lat":43.27072,"lon":5.42271,"is_reserved":false,"is_disabled":false,"rental_uris":{"android":"levelo://app?vid=aed9098c-3d44-45b3-a7fd-cb229efd8d44","ios":"levelo://app?vid=aed9098c-3d44-45b3-a7fd-cb229efd8d44"},"vehicle_type_id":"4","last_reported":1741950473,"current_range_meters":16800,"station_id":"ce4bhk92rcd13ifvqgb0","pricing_plan_id":"cebpf4jnsgd1na2vs0mg"},{"bike_id":"dbccf4e9-bafe-440b-b16f-789bd398c9c8","system_id":"levelo_inurba_marseille","lat":43.29298,"lon":5.37177,"is_reserved":false,"is_disabled":false,"rental_uris":{"android":"levelo://app?vid=dbccf4e9-bafe-440b-b16f-789bd398c9c8","ios":"levelo://app?vid=dbccf4e9-bafe-440b-b16f-789bd398c9c8"},"vehicle_type_id":"4","last_reported":1741950473,"current_range_meters":16800,"station_id":"ce4bgh92rcd13ifvqb40","pricing_plan_id":"cebpf4jnsgd1na2vs0mg"},{"bike_id":"7e809cf9-4d16-4e10-88b0-f3e27f97828a","system_id":"levelo_inurba_marseille","lat":43.25013,"lon":5.38895,"is_reserved":false,"is_disabled":false,"rental_uris":{"android":"levelo://app?vid=7e809cf9-4d16-4e10-88b0-f3e27f97828a","ios":"levelo://app?vid=7e809cf9-4d16-4e10-88b0-f3e27f97828a"},"vehicle_type_id":"4","last_reported":1741950473,"current_range_meters":16800,"station_id":"ce4bhgp2rcd13ifvqfd0","pricing_plan_id":"cebpf4jnsgd1na2vs0mg"},{"bike_id":"d13948ce-2eca-438f-a242-2e61e54403de","system_id":"levelo_inurba_marseille","lat":43.26697,"lon":5.38247,"is_reserved":false,"is_disabled":false,"rental_uris":{"android":"levelo://app?vid=d13948ce-2eca-438f-a242-2e61e54403de","ios":"levelo://app?vid=d13948ce-2eca-438f-a242-2e61e54403de"},"vehicle_type_id":"4","last_reported":1741950473,"current_range_meters":16800,"station_id":"ce4bhg92rcd13ifvqf90","pricing_plan_id":"cebpf4jnsgd1na2vs0mg"},{"bike_id":"e52b41b5-52df-4c67-a85c-3cebb3bf7504","system_id":"levelo_inurba_marseille","lat":43.32313,"lon":5.36672,"is_reserved":false,"is_disabled":false,"rental_uris":{"android":"levelo://app?vid=e52b41b5-52df-4c67-a85c-3cebb3bf7504","ios":"levelo://app?vid=e52b41b5-52df-4c67-a85c-3cebb3bf7504"},"vehicle_type_id":"4","last_reported":1741950473,"current_range_meters":16800,"station_id":"","pricing_plan_id":"cebpf4jnsgd1na2vs0mg"},{"bike_id":"7635aeab-8bde-47fc-9329-1cb5f9d0b3f2","system_id":"levelo_inurba_marseille","lat":43.25004,"lon":5.3893,"is_reserved":false,"is_disabled":false,"rental_uris":{"android":"levelo://app?vid=7635aeab-8bde-47fc-9329-1cb5f9d0b3f2","ios":"levelo://app?vid=7635aeab-8bde-47fc-9329-1cb5f9d0b3f2"},"vehicle_type_id":"4","last_reported":1741950473,"current_range_meters":16800,"station_id":"ce4bhgp2rcd13ifvqfd0","pricing_plan_id":"cebpf4jnsgd1na2vs0mg"},{"bike_id":"83783ead-721f-4d82-86e9-a8ac641b2edd","system_id":"levelo_inurba_marseille","lat":43.26221,"lon":5.4044,"is_reserved":false,"is_disabled":false,"rental_uris":{"android":"levelo://app?vid=83783ead-721f-4d82-86e9-a8ac641b2edd","ios":"levelo://app?vid=83783ead-721f-4d82-86e9-a8ac641b2edd"},"vehicle_type_id":"4","last_reported":1741950473,"current_range_meters":16800,"station_id":"ce4bhmh2rcd13ifvqgmg","pricing_plan_id":"cebpf4jnsgd1na2vs0mg"},{"bike_id":"62aed87b-2505-4dcf-a693-f4cad1e62549","system_id":"levelo_inurba_marseille","lat":43.33601,"lon":5.40991,"is_reserved":false,"is_disabled":false,"rental_uris":{"android":"levelo://app?vid=62aed87b-2505-4dcf-a693-f4cad1e62549","ios":"levelo://app?vid=62aed87b-2505-4dcf-a693-f4cad1e62549"},"vehicle_type_id":"4","last_reported":1741950473,"current_range_meters":16800,"station_id":"ce4bhqh2rcd13ifvqhmg","pricing_plan_id":"cebpf4jnsgd1na2vs0mg"},{"bike_id":"0824f3af-1839-42e3-b2eb-1bc7ef5d8244","system_id":"levelo_inurba_marseille","lat":43.27816,"lon":5.40712,"is_reserved":false,"is_disabled":false,"rental_uris":{"android":"levelo://app?vid=0824f3af-1839-42e3-b2eb-1bc7ef5d8244","ios":"levelo://app?vid=0824f3af-1839-42e3-b2eb-1bc7ef5d8244"},"vehicle_type_id":"4","last_reported":1741950473,"current_range_meters":16800,"station_id":"ce4bhnh2rcd13ifvqgtg","pricing_plan_id":"cebpf4jnsgd1na2vs0mg"},{"bike_id":"744a4668-cf4f-455a-84ca-8a867be4c050","system_id":"levelo_inurba_marseille","lat":43.324764,"lon":5.365626,"is_reserved":false,"is_disabled":false,"rental_uris":{"android":"levelo://app?vid=744a4668-cf4f-455a-84ca-8a867be4c050","ios":"levelo://app?vid=744a4668-cf4f-455a-84ca-8a867be4c050"},"vehicle_type_id":"4","last_reported":1741950473,"current_range_meters":17200,"station_id":"ce4bhs12rcd13ifvqhvg","pricing_plan_id":"cebpf4jnsgd1na2vs0mg"},{"bike_id":"567f6cd1-46bd-4693-9e7c-cb66bdfec3cf","system_id":"levelo_inurba_marseille","lat":43.2656,"lon":5.38996,"is_reserved":false,"is_disabled":false,"rental_uris":{"android":"levelo://app?vid=567f6cd1-46bd-4693-9e7c-cb66bdfec3cf","ios":"levelo://app?vid=567f6cd1-46bd-4693-9e7c-cb66bdfec3cf"},"vehicle_type_id":"4","last_reported":1741950473,"current_range_meters":17200,"station_id":"ce4bhe12rcd13ifvqf30","pricing_plan_id":"cebpf4jnsgd1na2vs0mg"},{"bike_id":"25274a25-b64b-423d-8515-597b4f6d1008","system_id":"levelo_inurba_marseille","lat":43.29311,"lon":5.37444,"is_reserved":false,"is_disabled":false,"rental_uris":{"android":"levelo://app?vid=25274a25-b64b-423d-8515-597b4f6d1008","ios":"levelo://app?vid=25274a25-b64b-423d-8515-597b4f6d1008"},"vehicle_type_id":"4","last_reported":1741950473,"current_range_meters":17200,"station_id":"ce4bgi12rcd13ifvqb70","pricing_plan_id":"cebpf4jnsgd1na2vs0mg"},{"bike_id":"2b801334-4382-4dd4-bab7-df2703f0d035","system_id":"levelo_inurba_marseille","lat":43.32586,"lon":5.41467,"is_reserved":false,"is_disabled":false,"rental_uris":{"android":"levelo://app?vid=2b801334-4382-4dd4-bab7-df2703f0d035","ios":"levelo://app?vid=2b801334-4382-4dd4-bab7-df2703f0d035"},"vehicle_type_id":"4","last_reported":1741950473,"current_range_meters":17200,"station_id":"","pricing_plan_id":"cebpf4jnsgd1na2vs0mg"},{"bike_id":"291a50ce-dbab-4ccb-b2a0-f7335c7e8d81","system_id":"levelo_inurba_marseille","lat":43.31698,"lon":5.40465,"is_reserved":false,"is_disabled":false,"rental_uris":{"android":"levelo://app?vid=291a50ce-dbab-4ccb-b2a0-f7335c7e8d81","ios":"levelo://app?vid=291a50ce-dbab-4ccb-b2a0-f7335c7e8d81"},"vehicle_type_id":"4","last_reported":1741950473,"current_range_meters":17200,"station_id":"ce4bh012rcd13ifvqd00","pricing_plan_id":"cebpf4jnsgd1na2vs0mg"},{"bike_id":"546999ba-935e-47ff-9c21-e5b1d1bc4cf2","system_id":"levelo_inurba_marseille","lat":43.30893,"lon":5.37186,"is_reserved":false,"is_disabled":false,"rental_uris":{"android":"levelo://app?vid=546999ba-935e-47ff-9c21-e5b1d1bc4cf2","ios":"levelo://app?vid=546999ba-935e-47ff-9c21-e5b1d1bc4cf2"},"vehicle_type_id":"4","last_reported":1741950473,"current_range_meters":17200,"station_id":"ce4bguh2rcd13ifvqckg","pricing_plan_id":"cebpf4jnsgd1na2vs0mg"},{"bike_id":"5acd6ead-e861-40e4-9f7d-549cbe528950","system_id":"levelo_inurba_marseille","lat":43.31884,"lon":5.40723,"is_reserved":false,"is_disabled":false,"rental_uris":{"android":"levelo://app?vid=5acd6ead-e861-40e4-9f7d-549cbe528950","ios":"levelo://app?vid=5acd6ead-e861-40e4-9f7d-549cbe528950"},"vehicle_type_id":"4","last_reported":1741950473,"current_range_meters":17200,"station_id":"ce4bhq12rcd13ifvqhig","pricing_plan_id":"cebpf4jnsgd1na2vs0mg"},{"bike_id":"c5ffd01f-a1f8-449f-8ba8-e4ed30e596d8","system_id":"levelo_inurba_marseille","lat":43.29591,"lon":5.37507,"is_reserved":false,"is_disabled":false,"rental_uris":{"android":"levelo://app?vid=c5ffd01f-a1f8-449f-8ba8-e4ed30e596d8","ios":"levelo://app?vid=c5ffd01f-a1f8-449f-8ba8-e4ed30e596d8"},"vehicle_type_id":"4","last_reported":1741950473,"current_range_meters":17200,"station_id":"ce4bgh92rcd13ifvqb50","pricing_plan_id":"cebpf4jnsgd1na2vs0mg"},{"bike_id":"49e3b27e-c99d-4361-bbd2-99ce334f5e0b","system_id":"levelo_inurba_marseille","lat":43.30137,"lon":5.39883,"is_reserved":false,"is_disabled":false,"rental_uris":{"android":"levelo://app?vid=49e3b27e-c99d-4361-bbd2-99ce334f5e0b","ios":"levelo://app?vid=49e3b27e-c99d-4361-bbd2-99ce334f5e0b"},"vehicle_type_id":"4","last_reported":1741950473,"current_range_meters":17600,"station_id":"ce4bh0h2rcd13ifvqd40","pricing_plan_id":"cebpf4jnsgd1na2vs0mg"},{"bike_id":"c06fab40-7e28-4b99-b155-9d73931b896a","system_id":"levelo_inurba_marseille","lat":43.2319,"lon":5.35553,"is_reserved":false,"is_disabled":false,"rental_uris":{"android":"levelo://app?vid=c06fab40-7e28-4b99-b155-9d73931b896a","ios":"levelo://app?vid=c06fab40-7e28-4b99-b155-9d73931b896a"},"vehicle_type_id":"4","last_reported":1741950473,"current_range_meters":17600,"station_id":"ce4bhu92rcd13ifvqi70","pricing_plan_id":"cebpf4jnsgd1na2vs0mg"},{"bike_id":"07059127-f72a-41c5-bd8c-20dd1a079e72","system_id":"levelo_inurba_marseille","lat":43.2931,"lon":5.37453,"is_reserved":false,"is_disabled":false,"rental_uris":{"android":"levelo://app?vid=07059127-f72a-41c5-bd8c-20dd1a079e72","ios":"levelo://app?vid=07059127-f72a-41c5-bd8c-20dd1a079e72"},"vehicle_type_id":"4","last_reported":1741950473,"current_range_meters":17600,"station_id":"ce4bgi12rcd13ifvqb70","pricing_plan_id":"cebpf4jnsgd1na2vs0mg"},{"bike_id":"f515462c-a158-493a-9801-ad592b32164f","system_id":"levelo_inurba_marseille","lat":43.27817,"lon":5.40717,"is_reserved":false,"is_disabled":false,"rental_uris":{"android":"levelo://app?vid=f515462c-a158-493a-9801-ad592b32164f","ios":"levelo://app?vid=f515462c-a158-493a-9801-ad592b32164f"},"vehicle_type_id":"4","last_reported":1741950473,"current_range_meters":17600,"station_id":"ce4bhnh2rcd13ifvqgtg","pricing_plan_id":"cebpf4jnsgd1na2vs0mg"},{"bike_id":"8fea990c-583d-41ac-984f-1e76d21e5677","system_id":"levelo_inurba_marseille","lat":43.311953,"lon":5.369037,"is_reserved":false,"is_disabled":false,"rental_uris":{"android":"levelo://app?vid=8fea990c-583d-41ac-984f-1e76d21e5677","ios":"levelo://app?vid=8fea990c-583d-41ac-984f-1e76d21e5677"},"vehicle_type_id":"4","last_reported":1741950473,"current_range_meters":17600,"station_id":"ce4bgl92rcd13ifvqbq0","pricing_plan_id":"cebpf4jnsgd1na2vs0mg"},{"bike_id":"e8ceb681-ef67-4d43-92d5-8ea8d50bff55","system_id":"levelo_inurba_marseille","lat":43.27813,"lon":5.40688,"is_reserved":false,"is_disabled":false,"rental_uris":{"android":"levelo://app?vid=e8ceb681-ef67-4d43-92d5-8ea8d50bff55","ios":"levelo://app?vid=e8ceb681-ef67-4d43-92d5-8ea8d50bff55"},"vehicle_type_id":"4","last_reported":1741950473,"current_range_meters":18000,"station_id":"ce4bhnh2rcd13ifvqgtg","pricing_plan_id":"cebpf4jnsgd1na2vs0mg"},{"bike_id":"11ddd1d3-a05b-4cdc-afeb-43708c4bb4d8","system_id":"levelo_inurba_marseille","lat":43.27969,"lon":5.38717,"is_reserved":false,"is_disabled":false,"rental_uris":{"android":"levelo://app?vid=11ddd1d3-a05b-4cdc-afeb-43708c4bb4d8","ios":"levelo://app?vid=11ddd1d3-a05b-4cdc-afeb-43708c4bb4d8"},"vehicle_type_id":"4","last_reported":1741950473,"current_range_meters":18000,"station_id":"ce4bhg12rcd13ifvqf80","pricing_plan_id":"cebpf4jnsgd1na2vs0mg"},{"bike_id":"9263b6cb-c2a9-4ade-a7b8-aa3e2867317d","system_id":"levelo_inurba_marseille","lat":43.27318,"lon":5.39107,"is_reserved":false,"is_disabled":false,"rental_uris":{"android":"levelo://app?vid=9263b6cb-c2a9-4ade-a7b8-aa3e2867317d","ios":"levelo://app?vid=9263b6cb-c2a9-4ade-a7b8-aa3e2867317d"},"vehicle_type_id":"4","last_reported":1741950473,"current_range_meters":18000,"station_id":"ce4bhgp2rcd13ifvqfe0","pricing_plan_id":"cebpf4jnsgd1na2vs0mg"},{"bike_id":"4e3666c1-8805-43b8-95fa-4a1db44a7b06","system_id":"levelo_inurba_marseille","lat":43.33603,"lon":5.40985,"is_reserved":false,"is_disabled":false,"rental_uris":{"android":"levelo://app?vid=4e3666c1-8805-43b8-95fa-4a1db44a7b06","ios":"levelo://app?vid=4e3666c1-8805-43b8-95fa-4a1db44a7b06"},"vehicle_type_id":"4","last_reported":1741950473,"current_range_meters":18000,"station_id":"ce4bhqh2rcd13ifvqhmg","pricing_plan_id":"cebpf4jnsgd1na2vs0mg"},{"bike_id":"6528949f-81a3-41ad-a3bf-0ac6d373bce6","system_id":"levelo_inurba_marseille","lat":43.31482,"lon":5.37558,"is_reserved":false,"is_disabled":false,"rental_uris":{"android":"levelo://app?vid=6528949f-81a3-41ad-a3bf-0ac6d373bce6","ios":"levelo://app?vid=6528949f-81a3-41ad-a3bf-0ac6d373bce6"},"vehicle_type_id":"4","last_reported":1741950473,"current_range_meters":18000,"station_id":"","pricing_plan_id":"cebpf4jnsgd1na2vs0mg"},{"bike_id":"08881724-c14a-4f42-8056-a12c266592d5","system_id":"levelo_inurba_marseille","lat":43.2407,"lon":5.37706,"is_reserved":false,"is_disabled":false,"rental_uris":{"android":"levelo://app?vid=08881724-c14a-4f42-8056-a12c266592d5","ios":"levelo://app?vid=08881724-c14a-4f42-8056-a12c266592d5"},"vehicle_type_id":"4","last_reported":1741950473,"current_range_meters":18000,"station_id":"ce4bhnp2rcd13ifvqgvg","pricing_plan_id":"cebpf4jnsgd1na2vs0mg"},{"bike_id":"c9fcf6ca-eb9a-4745-ae75-0839938c01aa","system_id":"levelo_inurba_marseille","lat":43.239606,"lon":5.366255,"is_reserved":false,"is_disabled":false,"rental_uris":{"android":"levelo://app?vid=c9fcf6ca-eb9a-4745-ae75-0839938c01aa","ios":"levelo://app?vid=c9fcf6ca-eb9a-4745-ae75-0839938c01aa"},"vehicle_type_id":"4","last_reported":1741950473,"current_range_meters":18000,"station_id":"ce4bhi12rcd13ifvqfp0","pricing_plan_id":"cebpf4jnsgd1na2vs0mg"},{"bike_id":"1d354cd8-dbd9-4538-a794-b05b1189eeb8","system_id":"levelo_inurba_marseille","lat":43.30296,"lon":5.39199,"is_reserved":false,"is_disabled":false,"rental_uris":{"android":"levelo://app?vid=1d354cd8-dbd9-4538-a794-b05b1189eeb8","ios":"levelo://app?vid=1d354cd8-dbd9-4538-a794-b05b1189eeb8"},"vehicle_type_id":"4","last_reported":1741950473,"current_range_meters":18000,"station_id":"ce4bgkh2rcd13ifvqbk0","pricing_plan_id":"cebpf4jnsgd1na2vs0mg"},{"bike_id":"4b758479-6b5d-4274-96ac-1e4649e72aea","system_id":"levelo_inurba_marseille","lat":43.29033,"lon":5.37566,"is_reserved":false,"is_disabled":false,"rental_uris":{"android":"levelo://app?vid=4b758479-6b5d-4274-96ac-1e4649e72aea","ios":"levelo://app?vid=4b758479-6b5d-4274-96ac-1e4649e72aea"},"vehicle_type_id":"4","last_reported":1741950473,"current_range_meters":18000,"station_id":"ce4bh692rcd13ifvqe90","pricing_plan_id":"cebpf4jnsgd1na2vs0mg"},{"bike_id":"be34e346-6cd0-49dc-bc60-f4bbfdaefa50","system_id":"levelo_inurba_marseille","lat":43.27919,"lon":5.39579,"is_reserved":false,"is_disabled":false,"rental_uris":{"android":"levelo://app?vid=be34e346-6cd0-49dc-bc60-f4bbfdaefa50","ios":"levelo://app?vid=be34e346-6cd0-49dc-bc60-f4bbfdaefa50"},"vehicle_type_id":"4","last_reported":1741950473,"current_range_meters":18000,"station_id":"ce4bhf92rcd13ifvqf40","pricing_plan_id":"cebpf4jnsgd1na2vs0mg"},{"bike_id":"036dd0a3-41d9-4705-a6e4-2b6c394a0c70","system_id":"levelo_inurba_marseille","lat":43.33589,"lon":5.40969,"is_reserved":false,"is_disabled":false,"rental_uris":{"android":"levelo://app?vid=036dd0a3-41d9-4705-a6e4-2b6c394a0c70","ios":"levelo://app?vid=036dd0a3-41d9-4705-a6e4-2b6c394a0c70"},"vehicle_type_id":"4","last_reported":1741950473,"current_range_meters":18000,"station_id":"","pricing_plan_id":"cebpf4jnsgd1na2vs0mg"},{"bike_id":"b62f477e-6e44-4bfe-af9d-35b4be45ebdd","system_id":"levelo_inurba_marseille","lat":43.27334,"lon":5.39197,"is_reserved":false,"is_disabled":false,"rental_uris":{"android":"levelo://app?vid=b62f477e-6e44-4bfe-af9d-35b4be45ebdd","ios":"levelo://app?vid=b62f477e-6e44-4bfe-af9d-35b4be45ebdd"},"vehicle_type_id":"4","last_reported":1741950473,"current_range_meters":18800,"station_id":"","pricing_plan_id":"cebpf4jnsgd1na2vs0mg"},{"bike_id":"ac2b1691-a4d2-4fb2-89c9-73c5bc2d4777","system_id":"levelo_inurba_marseille","lat":43.30787,"lon":5.37644,"is_reserved":false,"is_disabled":false,"rental_uris":{"android":"levelo://app?vid=ac2b1691-a4d2-4fb2-89c9-73c5bc2d4777","ios":"levelo://app?vid=ac2b1691-a4d2-4fb2-89c9-73c5bc2d4777"},"vehicle_type_id":"4","last_reported":1741950473,"current_range_meters":18800,"station_id":"ce4bgv92rcd13ifvqcq0","pricing_plan_id":"cebpf4jnsgd1na2vs0mg"},{"bike_id":"5c05e6f7-3477-4549-87d7-1401238b8e51","system_id":"levelo_inurba_marseille","lat":43.27952,"lon":5.41034,"is_reserved":false,"is_disabled":false,"rental_uris":{"android":"levelo://app?vid=5c05e6f7-3477-4549-87d7-1401238b8e51","ios":"levelo://app?vid=5c05e6f7-3477-4549-87d7-1401238b8e51"},"vehicle_type_id":"4","last_reported":1741950473,"current_range_meters":18800,"station_id":"ce4bhnp2rcd13ifvqh0g","pricing_plan_id":"cebpf4jnsgd1na2vs0mg"},{"bike_id":"fc071de1-2cc0-488a-a43e-f8037a5a9a49","system_id":"levelo_inurba_marseille","lat":43.23074,"lon":5.35498,"is_reserved":false,"is_disabled":false,"rental_uris":{"android":"levelo://app?vid=fc071de1-2cc0-488a-a43e-f8037a5a9a49","ios":"levelo://app?vid=fc071de1-2cc0-488a-a43e-f8037a5a9a49"},"vehicle_type_id":"4","last_reported":1741950473,"current_range_meters":18800,"station_id":"cpo3342slgdg3j2ifvpg","pricing_plan_id":"cebpf4jnsgd1na2vs0mg"},{"bike_id":"d751a31e-a518-44cc-8641-315d036d1e06","system_id":"levelo_inurba_marseille","lat":43.29898,"lon":5.3974,"is_reserved":false,"is_disabled":true,"rental_uris":{"android":"levelo://app?vid=d751a31e-a518-44cc-8641-315d036d1e06","ios":"levelo://app?vid=d751a31e-a518-44cc-8641-315d036d1e06"},"vehicle_type_id":"4","last_reported":1741950473,"current_range_meters":18800,"station_id":"ce4bh0h2rcd13ifvqd50","pricing_plan_id":"cebpf4jnsgd1na2vs0mg"},{"bike_id":"a9f78b7e-32a8-4ca3-8b3c-3c8be8d4556a","system_id":"levelo_inurba_marseille","lat":43.25005,"lon":5.38931,"is_reserved":false,"is_disabled":false,"rental_uris":{"android":"levelo://app?vid=a9f78b7e-32a8-4ca3-8b3c-3c8be8d4556a","ios":"levelo://app?vid=a9f78b7e-32a8-4ca3-8b3c-3c8be8d4556a"},"vehicle_type_id":"4","last_reported":1741950473,"current_range_meters":18800,"station_id":"ce4bhgp2rcd13ifvqfd0","pricing_plan_id":"cebpf4jnsgd1na2vs0mg"},{"bike_id":"7db46f5e-f881-47bb-8844-455c4fba3e3f","system_id":"levelo_inurba_marseille","lat":43.25941,"lon":5.40894,"is_reserved":false,"is_disabled":false,"rental_uris":{"android":"levelo://app?vid=7db46f5e-f881-47bb-8844-455c4fba3e3f","ios":"levelo://app?vid=7db46f5e-f881-47bb-8844-455c4fba3e3f"},"vehicle_type_id":"4","last_reported":1741950473,"current_range_meters":18800,"station_id":"ce4bhm92rcd13ifvqglg","pricing_plan_id":"cebpf4jnsgd1na2vs0mg"},{"bike_id":"048dab20-945b-49f1-9af9-e1e42c377aad","system_id":"levelo_inurba_marseille","lat":43.3048,"lon":5.37909,"is_reserved":false,"is_disabled":false,"rental_uris":{"android":"levelo://app?vid=048dab20-945b-49f1-9af9-e1e42c377aad","ios":"levelo://app?vid=048dab20-945b-49f1-9af9-e1e42c377aad"},"vehicle_type_id":"4","last_reported":1741950473,"current_range_meters":18800,"station_id":"ce4bgup2rcd13ifvqcn0","pricing_plan_id":"cebpf4jnsgd1na2vs0mg"},{"bike_id":"1ea9268f-bb42-44a2-b85e-b43a8328b68f","system_id":"levelo_inurba_marseille","lat":43.29505,"lon":5.37521,"is_reserved":false,"is_disabled":false,"rental_uris":{"android":"levelo://app?vid=1ea9268f-bb42-44a2-b85e-b43a8328b68f","ios":"levelo://app?vid=1ea9268f-bb42-44a2-b85e-b43a8328b68f"},"vehicle_type_id":"4","last_reported":1741950473,"current_range_meters":18800,"station_id":"ce4bgkp2rcd13ifvqbmg","pricing_plan_id":"cebpf4jnsgd1na2vs0mg"},{"bike_id":"5282db68-175e-438b-8f3a-1fdf580e13af","system_id":"levelo_inurba_marseille","lat":43.3148,"lon":5.37307,"is_reserved":false,"is_disabled":false,"rental_uris":{"android":"levelo://app?vid=5282db68-175e-438b-8f3a-1fdf580e13af","ios":"levelo://app?vid=5282db68-175e-438b-8f3a-1fdf580e13af"},"vehicle_type_id":"4","last_reported":1741950473,"current_range_meters":18800,"station_id":"ce4bgt12rcd13ifvqcd0","pricing_plan_id":"cebpf4jnsgd1na2vs0mg"},{"bike_id":"35170032-9fbd-466b-b080-21388ed7720a","system_id":"levelo_inurba_marseille","lat":43.25093,"lon":5.3952,"is_reserved":false,"is_disabled":false,"rental_uris":{"android":"levelo://app?vid=35170032-9fbd-466b-b080-21388ed7720a","ios":"levelo://app?vid=35170032-9fbd-466b-b080-21388ed7720a"},"vehicle_type_id":"4","last_reported":1741950473,"current_range_meters":19200,"station_id":"ce4bhm12rcd13ifvqgkg","pricing_plan_id":"cebpf4jnsgd1na2vs0mg"},{"bike_id":"4c23bed4-5e54-4d37-a171-2972e9b43747","system_id":"levelo_inurba_marseille","lat":43.25011,"lon":5.38935,"is_reserved":false,"is_disabled":false,"rental_uris":{"android":"levelo://app?vid=4c23bed4-5e54-4d37-a171-2972e9b43747","ios":"levelo://app?vid=4c23bed4-5e54-4d37-a171-2972e9b43747"},"vehicle_type_id":"4","last_reported":1741950473,"current_range_meters":19200,"station_id":"ce4bhgp2rcd13ifvqfd0","pricing_plan_id":"cebpf4jnsgd1na2vs0mg"},{"bike_id":"13631438-5c77-460f-bad8-02d30380847c","system_id":"levelo_inurba_marseille","lat":43.24065,"lon":5.37753,"is_reserved":false,"is_disabled":false,"rental_uris":{"android":"levelo://app?vid=13631438-5c77-460f-bad8-02d30380847c","ios":"levelo://app?vid=13631438-5c77-460f-bad8-02d30380847c"},"vehicle_type_id":"4","last_reported":1741950473,"current_range_meters":19200,"station_id":"ce4bhnp2rcd13ifvqgvg","pricing_plan_id":"cebpf4jnsgd1na2vs0mg"},{"bike_id":"e1bc5517-89cc-4fbd-afdb-e8d3c61b8e55","system_id":"levelo_inurba_marseille","lat":43.32353,"lon":5.36738,"is_reserved":false,"is_disabled":false,"rental_uris":{"android":"levelo://app?vid=e1bc5517-89cc-4fbd-afdb-e8d3c61b8e55","ios":"levelo://app?vid=e1bc5517-89cc-4fbd-afdb-e8d3c61b8e55"},"vehicle_type_id":"4","last_reported":1741950473,"current_range_meters":19200,"station_id":"ce4bhsh2rcd13ifvqi2g","pricing_plan_id":"cebpf4jnsgd1na2vs0mg"},{"bike_id":"f524cedb-f6a4-428d-8b39-5d66b96dd5df","system_id":"levelo_inurba_marseille","lat":43.31089,"lon":5.42435,"is_reserved":false,"is_disabled":false,"rental_uris":{"android":"levelo://app?vid=f524cedb-f6a4-428d-8b39-5d66b96dd5df","ios":"levelo://app?vid=f524cedb-f6a4-428d-8b39-5d66b96dd5df"},"vehicle_type_id":"4","last_reported":1741950473,"current_range_meters":19200,"station_id":"ce4bhp92rcd13ifvqhag","pricing_plan_id":"cebpf4jnsgd1na2vs0mg"},{"bike_id":"cdc10d92-2d5d-4e65-aa3e-1abf653ce12a","system_id":"levelo_inurba_marseille","lat":43.29562,"lon":5.39968,"is_reserved":false,"is_disabled":true,"rental_uris":{"android":"levelo://app?vid=cdc10d92-2d5d-4e65-aa3e-1abf653ce12a","ios":"levelo://app?vid=cdc10d92-2d5d-4e65-aa3e-1abf653ce12a"},"vehicle_type_id":"4","last_reported":1741950473,"current_range_meters":19200,"station_id":"ce4bh312rcd13ifvqdj0","pricing_plan_id":"cebpf4jnsgd1na2vs0mg"},{"bike_id":"7c88e5e6-ab2c-4474-b03d-17818151ba41","system_id":"levelo_inurba_marseille","lat":43.27194,"lon":5.39162,"is_reserved":false,"is_disabled":false,"rental_uris":{"android":"levelo://app?vid=7c88e5e6-ab2c-4474-b03d-17818151ba41","ios":"levelo://app?vid=7c88e5e6-ab2c-4474-b03d-17818151ba41"},"vehicle_type_id":"4","last_reported":1741950473,"current_range_meters":19200,"station_id":"ce4bhhp2rcd13ifvqfm0","pricing_plan_id":"cebpf4jnsgd1na2vs0mg"},{"bike_id":"6a777f4e-94b4-413f-bd66-4de0a954a7b8","system_id":"levelo_inurba_marseille","lat":43.24071,"lon":5.37716,"is_reserved":false,"is_disabled":false,"rental_uris":{"android":"levelo://app?vid=6a777f4e-94b4-413f-bd66-4de0a954a7b8","ios":"levelo://app?vid=6a777f4e-94b4-413f-bd66-4de0a954a7b8"},"vehicle_type_id":"4","last_reported":1741950473,"current_range_meters":19200,"station_id":"ce4bhnp2rcd13ifvqgvg","pricing_plan_id":"cebpf4jnsgd1na2vs0mg"},{"bike_id":"0798a6c7-bdf0-4671-8fbe-568a6a440ee9","system_id":"levelo_inurba_marseille","lat":43.26691,"lon":5.38249,"is_reserved":false,"is_disabled":false,"rental_uris":{"android":"levelo://app?vid=0798a6c7-bdf0-4671-8fbe-568a6a440ee9","ios":"levelo://app?vid=0798a6c7-bdf0-4671-8fbe-568a6a440ee9"},"vehicle_type_id":"4","last_reported":1741950473,"current_range_meters":19200,"station_id":"ce4bhg92rcd13ifvqf90","pricing_plan_id":"cebpf4jnsgd1na2vs0mg"},{"bike_id":"3a89315b-62de-4a2c-a0ba-c40dd86a913d","system_id":"levelo_inurba_marseille","lat":43.270498,"lon":5.40273,"is_reserved":false,"is_disabled":false,"rental_uris":{"android":"levelo://app?vid=3a89315b-62de-4a2c-a0ba-c40dd86a913d","ios":"levelo://app?vid=3a89315b-62de-4a2c-a0ba-c40dd86a913d"},"vehicle_type_id":"4","last_reported":1741950473,"current_range_meters":19200,"station_id":"ce4bhk92rcd13ifvqgc0","pricing_plan_id":"cebpf4jnsgd1na2vs0mg"},{"bike_id":"05382370-5578-4d0a-94fd-cedafa967f5e","system_id":"levelo_inurba_marseille","lat":43.29624,"lon":5.37171,"is_reserved":false,"is_disabled":false,"rental_uris":{"android":"levelo://app?vid=05382370-5578-4d0a-94fd-cedafa967f5e","ios":"levelo://app?vid=05382370-5578-4d0a-94fd-cedafa967f5e"},"vehicle_type_id":"4","last_reported":1741950473,"current_range_meters":19600,"station_id":"ce4bgnh2rcd13ifvqc0g","pricing_plan_id":"cebpf4jnsgd1na2vs0mg"},{"bike_id":"71b342b8-694b-40d5-99e8-310baf77a970","system_id":"levelo_inurba_marseille","lat":43.23073,"lon":5.35465,"is_reserved":false,"is_disabled":false,"rental_uris":{"android":"levelo://app?vid=71b342b8-694b-40d5-99e8-310baf77a970","ios":"levelo://app?vid=71b342b8-694b-40d5-99e8-310baf77a970"},"vehicle_type_id":"4","last_reported":1741950473,"current_range_meters":19600,"station_id":"cpo3342slgdg3j2ifvpg","pricing_plan_id":"cebpf4jnsgd1na2vs0mg"},{"bike_id":"789654fb-83e3-434c-b6dc-de612535f99b","system_id":"levelo_inurba_marseille","lat":43.28278,"lon":5.35068,"is_reserved":false,"is_disabled":false,"rental_uris":{"android":"levelo://app?vid=789654fb-83e3-434c-b6dc-de612535f99b","ios":"levelo://app?vid=789654fb-83e3-434c-b6dc-de612535f99b"},"vehicle_type_id":"4","last_reported":1741950473,"current_range_meters":19600,"station_id":"ce4bhbp2rcd13ifvqerg","pricing_plan_id":"cebpf4jnsgd1na2vs0mg"},{"bike_id":"cf074f65-a36e-4f38-b1b9-78bc16980a0d","system_id":"levelo_inurba_marseille","lat":43.279356,"lon":5.41044,"is_reserved":false,"is_disabled":false,"rental_uris":{"android":"levelo://app?vid=cf074f65-a36e-4f38-b1b9-78bc16980a0d","ios":"levelo://app?vid=cf074f65-a36e-4f38-b1b9-78bc16980a0d"},"vehicle_type_id":"4","last_reported":1741950473,"current_range_meters":19600,"station_id":"ce4bhnp2rcd13ifvqh0g","pricing_plan_id":"cebpf4jnsgd1na2vs0mg"},{"bike_id":"0176af73-410c-49e1-8018-cd4ffb925c75","system_id":"levelo_inurba_marseille","lat":43.2992,"lon":5.43656,"is_reserved":false,"is_disabled":false,"rental_uris":{"android":"levelo://app?vid=0176af73-410c-49e1-8018-cd4ffb925c75","ios":"levelo://app?vid=0176af73-410c-49e1-8018-cd4ffb925c75"},"vehicle_type_id":"4","last_reported":1741950473,"current_range_meters":19600,"station_id":"ce4bhpp2rcd13ifvqhfg","pricing_plan_id":"cebpf4jnsgd1na2vs0mg"},{"bike_id":"90775095-52e0-4031-bc44-f1e01fdcfb79","system_id":"levelo_inurba_marseille","lat":43.28416,"lon":5.3501,"is_reserved":false,"is_disabled":false,"rental_uris":{"android":"levelo://app?vid=90775095-52e0-4031-bc44-f1e01fdcfb79","ios":"levelo://app?vid=90775095-52e0-4031-bc44-f1e01fdcfb79"},"vehicle_type_id":"4","last_reported":1741950473,"current_range_meters":19600,"station_id":"ce4bhbh2rcd13ifvqepg","pricing_plan_id":"cebpf4jnsgd1na2vs0mg"},