{"last_updated":1762708074,"ttl":60,"version":"2.2","data":{"bikes":[{"bike_id":"1e69bc94-31f9-4fff-b32b-464fb03bb94e","system_id":"levelo_inurba_marseille","lat":43.27955,"lon":5.38724,"is_reserved":false,"is_disabled":true,"rental_uris":{"android":"levelo://app?vid=1e69bc94-31f9-4fff-b32b-464fb03bb94e","ios":"levelo://app?vid=1e69bc94-31f9-4fff-b32b-464fb03bb94e"},"vehicle_type_id":"4","last_reported":1762708074,"current_range_meters":2800,"station_id":"ce4bhg12rcd13ifvqf80","pricing_plan_id":"cebpf4jnsgd1na2vs0mg"},{"bike_id":"4fa93e58-ad51-41bb-b7cd-c71dad4e22b9","system_id":"levelo_inurba_marseille","lat":43.21191,"lon":5.35077,"is_reserved":false,"is_disabled":true,"rental_uris":{"android":"levelo://app?vid=4fa93e58-ad51-41bb-b7cd-c71dad4e22b9","ios":"levelo://app?vid=4fa93e58-ad51-41bb-b7cd-c71dad4e22b9"},"vehicle_type_id":"4","last_reported":1762708074,"current_range_meters":2800,"station_id":"st_cvj6sg6p6f1abm77japg","pricing_plan_id":"cebpf4jnsgd1na2vs0mg"},{"bike_id":"e5620e00-0de6-4903-ba97-1a75d6310e18","system_id":"levelo_inurba_marseille","lat":43.29766,"lon":5.37109,"is_reserved":false,"is_disabled":false,"rental_uris":{"android":"levelo://app?vid=e5620e00-0de6-4903-ba97-1a75d6310e18","ios":"levelo://app?vid=e5620e00-0de6-4903-ba97-1a75d6310e18"},"vehicle_type_id":"4","last_reported":1762708074,"current_range_meters":2800,"station_id":"ce4bgop2rcd13ifvqc1g","pricing_plan_id":"cebpf4jnsgd1na2vs0mg"},{"bike_id":"81065165-85eb-4998-9b12-e6ab0411125b","system_id":"levelo_inurba_marseille","lat":43.24667,"lon":5.38159,"is_reserved":false,"is_disabled":false,"rental_uris":{"android":"levelo://app?vid=81065165-85eb-4998-9b12-e6ab0411125b","ios":"levelo://app?vid=81065165-85eb-4998-9b12-e6ab0411125b"},"vehicle_type_id":"4","last_reported":1762708074,"current_range_meters":2800,"station_id":"ce4bhih2rcd13ifvqfr0","pricing_plan_id":"cebpf4jnsgd1na2vs0mg"},{"bike_id":"7a34d578-5097-489f-8760-9f99d5dc4419","system_id":"levelo_inurba_marseille","lat":43.255739,"lon":5.382324,"is_reserved":false,"is_disabled":false,"rental_uris":{"android":"levelo://app?vid=7a34d578-5097-489f-8760-9f99d5dc4419","ios":"levelo://app?vid=7a34d578-5097-489f-8760-9f99d5dc4419"},"vehicle_type_id":"4","last_reported":1762708074,"current_range_meters":2800,"station_id":"","pricing_plan_id":"cebpf4jnsgd1na2vs0mg"},{"bike_id":"95e48752-a887-4529-97a6-d8e2d2c844ab","system_id":"levelo_inurba_marseille","lat":43.25334,"lon":5.42176,"is_reserved":false,"is_disabled":false,"rental_uris":{"android":"levelo://app?vid=95e48752-a887-4529-97a6-d8e2d2c844ab","ios":"levelo://app?vid=95e48752-a887-4529-97a6-d8e2d2c844ab"},"vehicle_type_id":"4","last_reported":1762708074,"current_range_meters":2800,"station_id":"st_d2m65c5bi1j21697t3ng","pricing_plan_id":"cebpf4jnsgd1na2vs0mg"},{"bike_id":"e4d3d546-fb2b-49ad-afea-552bd6addd23","system_id":"levelo_inurba_marseille","lat":43.26807,"lon":5.4027,"is_reserved":false,"is_disabled":false,"rental_uris":{"android":"levelo://app?vid=e4d3d546-fb2b-49ad-afea-552bd6addd23","ios":"levelo://app?vid=e4d3d546-fb2b-49ad-afea-552bd6addd23"},"vehicle_type_id":"4","last_reported":1762708074,"current_range_meters":2800,"station_id":"ce501612rcd8frsf0b60","pricing_plan_id":"cebpf4jnsgd1na2vs0mg"},{"bike_id":"b4f3e2c3-b646-4e1c-b01e-391ad05e0328","system_id":"levelo_inurba_marseille","lat":43.28052,"lon":5.36984,"is_reserved":false,"is_disabled":false,"rental_uris":{"android":"levelo://app?vid=b4f3e2c3-b646-4e1c-b01e-391ad05e0328","ios":"levelo://app?vid=b4f3e2c3-b646-4e1c-b01e-391ad05e0328"},"vehicle_type_id":"4","last_reported":1762708074,"current_range_meters":3200,"station_id":"ce4bha12rcd13ifvqef0","pricing_plan_id":"cebpf4jnsgd1na2vs0mg"},{"bike_id":"da1fc1f8-cff3-48dc-ae4f-8add2473c2ee","system_id":"levelo_inurba_marseille","lat":43.23176,"lon":5.39985,"is_reserved":false,"is_disabled":false,"rental_uris":{"android":"levelo://app?vid=da1fc1f8-cff3-48dc-ae4f-8add2473c2ee","ios":"levelo://app?vid=da1fc1f8-cff3-48dc-ae4f-8add2473c2ee"},"vehicle_type_id":"4","last_reported":1762708074,"current_range_meters":3200,"station_id":"ce4bhn12rcd13ifvqgqg","pricing_plan_id":"cebpf4jnsgd1na2vs0mg"},{"bike_id":"2bda9569-8855-4749-9a29-a9c55ba153ed","system_id":"levelo_inurba_marseille","lat":43.22556,"lon":5.416335,"is_reserved":false,"is_disabled":false,"rental_uris":{"android":"levelo://app?vid=2bda9569-8855-4749-9a29-a9c55ba153ed","ios":"levelo://app?vid=2bda9569-8855-4749-9a29-a9c55ba153ed"},"vehicle_type_id":"4","last_reported":1762708074,"current_range_meters":3200,"station_id":"st_d2o4gvlbi1j2169b742g","pricing_plan_id":"cebpf4jnsgd1na2vs0mg"},{"bike_id":"ca5649c9-59f1-4f52-a555-7400b2143da8","system_id":"levelo_inurba_marseille","lat":43.225325,"lon":5.348343,"is_reserved":false,"is_disabled":false,"rental_uris":{"android":"levelo://app?vid=ca5649c9-59f1-4f52-a555-7400b2143da8","ios":"levelo://app?vid=ca5649c9-59f1-4f52-a555-7400b2143da8"},"vehicle_type_id":"4","last_reported":1762708074,"current_range_meters":3200,"station_id":"","pricing_plan_id":"cebpf4jnsgd1na2vs0mg"},{"bike_id":"b55fb49b-159b-42e0-bf4b-90aec168701a","system_id":"levelo_inurba_marseille","lat":43.26955,"lon":5.38635,"is_reserved":false,"is_disabled":false,"rental_uris":{"android":"levelo://app?vid=b55fb49b-159b-42e0-bf4b-90aec168701a","ios":"levelo://app?vid=b55fb49b-159b-42e0-bf4b-90aec168701a"},"vehicle_type_id":"4","last_reported":1762708074,"current_range_meters":3200,"station_id":"ce4bhh92rcd13ifvqfh0","pricing_plan_id":"cebpf4jnsgd1na2vs0mg"},{"bike_id":"84f4a0e3-ea9f-44bb-98e4-8dc79d6baa29","system_id":"levelo_inurba_marseille","lat":43.24635,"lon":5.3889,"is_reserved":false,"is_disabled":false,"rental_uris":{"android":"levelo://app?vid=84f4a0e3-ea9f-44bb-98e4-8dc79d6baa29","ios":"levelo://app?vid=84f4a0e3-ea9f-44bb-98e4-8dc79d6baa29"},"vehicle_type_id":"4","last_reported":1762708074,"current_range_meters":3200,"station_id":"ce4bhg12rcd13ifvqf60","pricing_plan_id":"cebpf4jnsgd1na2vs0mg"},{"bike_id":"ae7d26d8-fc4b-44bf-a212-2922d1680c4e","system_id":"levelo_inurba_marseille","lat":43.29262,"lon":5.38441,"is_reserved":false,"is_disabled":false,"rental_uris":{"android":"levelo://app?vid=ae7d26d8-fc4b-44bf-a212-2922d1680c4e","ios":"levelo://app?vid=ae7d26d8-fc4b-44bf-a212-2922d1680c4e"},"vehicle_type_id":"4","last_reported":1762708074,"current_range_meters":3200,"station_id":"ce4bh692rcd13ifvqea0","pricing_plan_id":"cebpf4jnsgd1na2vs0mg"},{"bike_id":"bab182a0-c03b-4bf3-b853-bf377d7366d6","system_id":"levelo_inurba_marseille","lat":43.30127,"lon":5.387876,"is_reserved":false,"is_disabled":false,"rental_uris":{"android":"levelo://app?vid=bab182a0-c03b-4bf3-b853-bf377d7366d6","ios":"levelo://app?vid=bab182a0-c03b-4bf3-b853-bf377d7366d6"},"vehicle_type_id":"4","last_reported":1762708074,"current_range_meters":3200,"station_id":"","pricing_plan_id":"cebpf4jnsgd1na2vs0mg"},{"bike_id":"dbd7b8b3-b976-450d-8e79-43bd74ca660d","system_id":"levelo_inurba_marseille","lat":43.281737,"lon":5.428342,"is_reserved":false,"is_disabled":false,"rental_uris":{"android":"levelo://app?vid=dbd7b8b3-b976-450d-8e79-43bd74ca660d","ios":"levelo://app?vid=dbd7b8b3-b976-450d-8e79-43bd74ca660d"},"vehicle_type_id":"4","last_reported":1762708074,"current_range_meters":3600,"station_id":"ce4bhph2rcd13ifvqhdg","pricing_plan_id":"cebpf4jnsgd1na2vs0mg"},{"bike_id":"0654eb57-9895-4847-8803-3caae6d17b47","system_id":"levelo_inurba_marseille","lat":43.225281,"lon":5.348417,"is_reserved":false,"is_disabled":false,"rental_uris":{"android":"levelo://app?vid=0654eb57-9895-4847-8803-3caae6d17b47","ios":"levelo://app?vid=0654eb57-9895-4847-8803-3caae6d17b47"},"vehicle_type_id":"4","last_reported":1762708074,"current_range_meters":3600,"station_id":"","pricing_plan_id":"cebpf4jnsgd1na2vs0mg"},{"bike_id":"80b664b8-bf3d-409c-bc3c-4ba425665908","system_id":"levelo_inurba_marseille","lat":43.2953,"lon":5.39043,"is_reserved":false,"is_disabled":false,"rental_uris":{"android":"levelo://app?vid=80b664b8-bf3d-409c-bc3c-4ba425665908","ios":"levelo://app?vid=80b664b8-bf3d-409c-bc3c-4ba425665908"},"vehicle_type_id":"4","last_reported":1762708074,"current_range_meters":3600,"station_id":"ce4bh3p2rcd13ifvqdp0","pricing_plan_id":"cebpf4jnsgd1na2vs0mg"},{"bike_id":"44ebaef9-ac55-4f12-b49a-79f2a6d3dafb","system_id":"levelo_inurba_marseille","lat":43.30883,"lon":5.39652,"is_reserved":false,"is_disabled":false,"rental_uris":{"android":"levelo://app?vid=44ebaef9-ac55-4f12-b49a-79f2a6d3dafb","ios":"levelo://app?vid=44ebaef9-ac55-4f12-b49a-79f2a6d3dafb"},"vehicle_type_id":"4","last_reported":1762708074,"current_range_meters":3600,"station_id":"ce4bh012rcd13ifvqcv0","pricing_plan_id":"cebpf4jnsgd1na2vs0mg"},{"bike_id":"64220773-febf-419a-86a1-b28112b1666e","system_id":"levelo_inurba_marseille","lat":43.28726,"lon":5.3608,"is_reserved":false,"is_disabled":false,"rental_uris":{"android":"levelo://app?vid=64220773-febf-419a-86a1-b28112b1666e","ios":"levelo://app?vid=64220773-febf-419a-86a1-b28112b1666e"},"vehicle_type_id":"4","last_reported":1762708074,"current_range_meters":3600,"station_id":"cki0cbj6b192h4jlfktg","pricing_plan_id":"cebpf4jnsgd1na2vs0mg"},{"bike_id":"7df83659-7d29-4449-8ba0-aa42bab2b45f","system_id":"levelo_inurba_marseille","lat":43.318774,"lon":5.40731,"is_reserved":false,"is_disabled":false,"rental_uris":{"android":"levelo://app?vid=7df83659-7d29-4449-8ba0-aa42bab2b45f","ios":"levelo://app?vid=7df83659-7d29-4449-8ba0-aa42bab2b45f"},"vehicle_type_id":"4","last_reported":1762708074,"current_range_meters":3600,"station_id":"ce4bhq12rcd13ifvqhig","pricing_plan_id":"cebpf4jnsgd1na2vs0mg"},{"bike_id":"a0ea519d-554f-42a0-93a3-d4c181552c78","system_id":"levelo_inurba_marseille","lat":43.31273,"lon":5.37774,"is_reserved":false,"is_disabled":false,"rental_uris":{"android":"levelo://app?vid=a0ea519d-554f-42a0-93a3-d4c181552c78","ios":"levelo://app?vid=a0ea519d-554f-42a0-93a3-d4c181552c78"},"vehicle_type_id":"4","last_reported":1762708074,"current_range_meters":3600,"station_id":"","pricing_plan_id":"cebpf4jnsgd1na2vs0mg"},{"bike_id":"c0ee7088-12f9-4f2e-b3e0-bbad9f5ed9ae","system_id":"levelo_inurba_marseille","lat":43.313587,"lon":5.384856,"is_reserved":false,"is_disabled":false,"rental_uris":{"android":"levelo://app?vid=c0ee7088-12f9-4f2e-b3e0-bbad9f5ed9ae","ios":"levelo://app?vid=c0ee7088-12f9-4f2e-b3e0-bbad9f5ed9ae"},"vehicle_type_id":"4","last_reported":1762708074,"current_range_meters":3600,"station_id":"ce4bgt92rcd13ifvqcf0","pricing_plan_id":"cebpf4jnsgd1na2vs0mg"},{"bike_id":"7a225c2e-9fc0-4c2c-95a6-7cbca0bd1a02","system_id":"levelo_inurba_marseille","lat":43.29044,"lon":5.37563,"is_reserved":false,"is_disabled":false,"rental_uris":{"android":"levelo://app?vid=7a225c2e-9fc0-4c2c-95a6-7cbca0bd1a02","ios":"levelo://app?vid=7a225c2e-9fc0-4c2c-95a6-7cbca0bd1a02"},"vehicle_type_id":"4","last_reported":1762708074,"current_range_meters":3600,"station_id":"ce4bh692rcd13ifvqe90","pricing_plan_id":"cebpf4jnsgd1na2vs0mg"},{"bike_id":"0b73cb0d-aefc-423a-99ff-99fae100ab87","system_id":"levelo_inurba_marseille","lat":43.29259,"lon":5.40908,"is_reserved":false,"is_disabled":false,"rental_uris":{"android":"levelo://app?vid=0b73cb0d-aefc-423a-99ff-99fae100ab87","ios":"levelo://app?vid=0b73cb0d-aefc-423a-99ff-99fae100ab87"},"vehicle_type_id":"4","last_reported":1762708074,"current_range_meters":4000,"station_id":"ce4bh192rcd13ifvqdc0","pricing_plan_id":"cebpf4jnsgd1na2vs0mg"},{"bike_id":"0b040bd7-037f-47d3-bc10-85fb0e5258f3","system_id":"levelo_inurba_marseille","lat":43.27053,"lon":5.40261,"is_reserved":false,"is_disabled":false,"rental_uris":{"android":"levelo://app?vid=0b040bd7-037f-47d3-bc10-85fb0e5258f3","ios":"levelo://app?vid=0b040bd7-037f-47d3-bc10-85fb0e5258f3"},"vehicle_type_id":"4","last_reported":1762708074,"current_range_meters":4000,"station_id":"ce4bhk92rcd13ifvqgc0","pricing_plan_id":"cebpf4jnsgd1na2vs0mg"},{"bike_id":"fca873da-ea98-4ae0-ae8c-8d31ce294660","system_id":"levelo_inurba_marseille","lat":43.29259,"lon":5.409,"is_reserved":false,"is_disabled":false,"rental_uris":{"android":"levelo://app?vid=fca873da-ea98-4ae0-ae8c-8d31ce294660","ios":"levelo://app?vid=fca873da-ea98-4ae0-ae8c-8d31ce294660"},"vehicle_type_id":"4","last_reported":1762708074,"current_range_meters":4000,"station_id":"ce4bh192rcd13ifvqdc0","pricing_plan_id":"cebpf4jnsgd1na2vs0mg"},{"bike_id":"7eb009df-ef68-447e-9345-84107891169c","system_id":"levelo_inurba_marseille","lat":43.3095,"lon":5.39031,"is_reserved":false,"is_disabled":false,"rental_uris":{"android":"levelo://app?vid=7eb009df-ef68-447e-9345-84107891169c","ios":"levelo://app?vid=7eb009df-ef68-447e-9345-84107891169c"},"vehicle_type_id":"4","last_reported":1762708074,"current_range_meters":4000,"station_id":"ce4bgup2rcd13ifvqco0","pricing_plan_id":"cebpf4jnsgd1na2vs0mg"},{"bike_id":"4e1088a1-71be-46aa-b473-90bf027b04e1","system_id":"levelo_inurba_marseille","lat":43.29174,"lon":5.37161,"is_reserved":false,"is_disabled":false,"rental_uris":{"android":"levelo://app?vid=4e1088a1-71be-46aa-b473-90bf027b04e1","ios":"levelo://app?vid=4e1088a1-71be-46aa-b473-90bf027b04e1"},"vehicle_type_id":"4","last_reported":1762708074,"current_range_meters":4000,"station_id":"ce4bha92rcd13ifvqeh0","pricing_plan_id":"cebpf4jnsgd1na2vs0mg"},{"bike_id":"84a52735-459d-4dd4-ac24-d2f20030bbf2","system_id":"levelo_inurba_marseille","lat":43.28008,"lon":5.41673,"is_reserved":false,"is_disabled":false,"rental_uris":{"android":"levelo://app?vid=84a52735-459d-4dd4-ac24-d2f20030bbf2","ios":"levelo://app?vid=84a52735-459d-4dd4-ac24-d2f20030bbf2"},"vehicle_type_id":"4","last_reported":1762708074,"current_range_meters":4000,"station_id":"ce4bho12rcd13ifvqh1g","pricing_plan_id":"cebpf4jnsgd1na2vs0mg"},{"bike_id":"4b5d8301-3f7d-41e0-a7e1-c1463c22945c","system_id":"levelo_inurba_marseille","lat":43.259205,"lon":5.398661,"is_reserved":false,"is_disabled":false,"rental_uris":{"android":"levelo://app?vid=4b5d8301-3f7d-41e0-a7e1-c1463c22945c","ios":"levelo://app?vid=4b5d8301-3f7d-41e0-a7e1-c1463c22945c"},"vehicle_type_id":"4","last_reported":1762708074,"current_range_meters":4000,"station_id":"ce4bhl92rcd13ifvqghg","pricing_plan_id":"cebpf4jnsgd1na2vs0mg"},{"bike_id":"5c17ed12-8897-4f84-bbfc-85419a7f8038","system_id":"levelo_inurba_marseille","lat":43.270991,"lon":5.394252,"is_reserved":false,"is_disabled":false,"rental_uris":{"android":"levelo://app?vid=5c17ed12-8897-4f84-bbfc-85419a7f8038","ios":"levelo://app?vid=5c17ed12-8897-4f84-bbfc-85419a7f8038"},"vehicle_type_id":"4","last_reported":1762708074,"current_range_meters":4400,"station_id":"","pricing_plan_id":"cebpf4jnsgd1na2vs0mg"},{"bike_id":"186a3e1d-26cc-46d1-bbc6-4713a07f2388","system_id":"levelo_inurba_marseille","lat":43.285054,"lon":5.384071,"is_reserved":false,"is_disabled":false,"rental_uris":{"android":"levelo://app?vid=186a3e1d-26cc-46d1-bbc6-4713a07f2388","ios":"levelo://app?vid=186a3e1d-26cc-46d1-bbc6-4713a07f2388"},"vehicle_type_id":"4","last_reported":1762708074,"current_range_meters":4400,"station_id":"ce4bhg12rcd13ifvqf70","pricing_plan_id":"cebpf4jnsgd1na2vs0mg"},{"bike_id":"5b1541b3-5833-4d9d-a450-f0b0bf07c01c","system_id":"levelo_inurba_marseille","lat":43.292753,"lon":5.368455,"is_reserved":false,"is_disabled":false,"rental_uris":{"android":"levelo://app?vid=5b1541b3-5833-4d9d-a450-f0b0bf07c01c","ios":"levelo://app?vid=5b1541b3-5833-4d9d-a450-f0b0bf07c01c"},"vehicle_type_id":"4","last_reported":1762708074,"current_range_meters":4400,"station_id":"ce4bhbp2rcd13ifvqesg","pricing_plan_id":"cebpf4jnsgd1na2vs0mg"},{"bike_id":"3f85ea87-f517-49e3-b2f0-0f4c4953d00c","system_id":"levelo_inurba_marseille","lat":43.303109,"lon":5.368997,"is_reserved":false,"is_disabled":false,"rental_uris":{"android":"levelo://app?vid=3f85ea87-f517-49e3-b2f0-0f4c4953d00c","ios":"levelo://app?vid=3f85ea87-f517-49e3-b2f0-0f4c4953d00c"},"vehicle_type_id":"4","last_reported":1762708074,"current_range_meters":4400,"station_id":"ce4bgqh2rcd13ifvqc5g","pricing_plan_id":"cebpf4jnsgd1na2vs0mg"},{"bike_id":"f4c682e4-ce49-4cf3-812a-723ed825aea0","system_id":"levelo_inurba_marseille","lat":43.313324,"lon":5.397098,"is_reserved":false,"is_disabled":false,"rental_uris":{"android":"levelo://app?vid=f4c682e4-ce49-4cf3-812a-723ed825aea0","ios":"levelo://app?vid=f4c682e4-ce49-4cf3-812a-723ed825aea0"},"vehicle_type_id":"4","last_reported":1762708074,"current_range_meters":4400,"station_id":"ce4bgvp2rcd13ifvqcu0","pricing_plan_id":"cebpf4jnsgd1na2vs0mg"},{"bike_id":"e88dfb4f-0061-4eb1-b11b-aed4b3c65357","system_id":"levelo_inurba_marseille","lat":43.307752,"lon":5.376495,"is_reserved":false,"is_disabled":false,"rental_uris":{"android":"levelo://app?vid=e88dfb4f-0061-4eb1-b11b-aed4b3c65357","ios":"levelo://app?vid=e88dfb4f-0061-4eb1-b11b-aed4b3c65357"},"vehicle_type_id":"4","last_reported":1762708074,"current_range_meters":4400,"station_id":"ce4bgr92rcd13ifvqc7g","pricing_plan_id":"cebpf4jnsgd1na2vs0mg"},{"bike_id":"41745662-c1c3-4a42-ac3e-ccd9671cf5ce","system_id":"levelo_inurba_marseille","lat":43.24802,"lon":5.37456,"is_reserved":false,"is_disabled":false,"rental_uris":{"android":"levelo://app?vid=41745662-c1c3-4a42-ac3e-ccd9671cf5ce","ios":"levelo://app?vid=41745662-c1c3-4a42-ac3e-ccd9671cf5ce"},"vehicle_type_id":"4","last_reported":1762708074,"current_range_meters":4400,"station_id":"ce4bhgh2rcd13ifvqfb0","pricing_plan_id":"cebpf4jnsgd1na2vs0mg"},{"bike_id":"d891d557-1006-4509-962a-f3ca31c954ce","system_id":"levelo_inurba_marseille","lat":43.28658,"lon":5.36351,"is_reserved":false,"is_disabled":false,"rental_uris":{"android":"levelo://app?vid=d891d557-1006-4509-962a-f3ca31c954ce","ios":"levelo://app?vid=d891d557-1006-4509-962a-f3ca31c954ce"},"vehicle_type_id":"4","last_reported":1762708074,"current_range_meters":4800,"station_id":"ce4bhah2rcd13ifvqej0","pricing_plan_id":"cebpf4jnsgd1na2vs0mg"},{"bike_id":"78b4c311-b3d0-4884-b0da-6082785efb0e","system_id":"levelo_inurba_marseille","lat":43.28475,"lon":5.48397,"is_reserved":false,"is_disabled":false,"rental_uris":{"android":"levelo://app?vid=78b4c311-b3d0-4884-b0da-6082785efb0e","ios":"levelo://app?vid=78b4c311-b3d0-4884-b0da-6082785efb0e"},"vehicle_type_id":"4","last_reported":1762708074,"current_range_meters":4800,"station_id":"","pricing_plan_id":"cebpf4jnsgd1na2vs0mg"},{"bike_id":"6ec9d084-9997-42eb-9ac9-1e8232218b1b","system_id":"levelo_inurba_marseille","lat":43.29706,"lon":5.36595,"is_reserved":false,"is_disabled":false,"rental_uris":{"android":"levelo://app?vid=6ec9d084-9997-42eb-9ac9-1e8232218b1b","ios":"levelo://app?vid=6ec9d084-9997-42eb-9ac9-1e8232218b1b"},"vehicle_type_id":"4","last_reported":1762708074,"current_range_meters":4800,"station_id":"ce4bgn12rcd13ifvqbt0","pricing_plan_id":"cebpf4jnsgd1na2vs0mg"},{"bike_id":"865dde63-4cef-40be-8e30-6cb39016030d","system_id":"levelo_inurba_marseille","lat":43.28451,"lon":5.35884,"is_reserved":false,"is_disabled":false,"rental_uris":{"android":"levelo://app?vid=865dde63-4cef-40be-8e30-6cb39016030d","ios":"levelo://app?vid=865dde63-4cef-40be-8e30-6cb39016030d"},"vehicle_type_id":"4","last_reported":1762708074,"current_range_meters":4800,"station_id":"ce4bhah2rcd13ifvqei0","pricing_plan_id":"cebpf4jnsgd1na2vs0mg"},{"bike_id":"9849b5d3-623c-44ab-9c57-8edf31efa3de","system_id":"levelo_inurba_marseille","lat":43.284156,"lon":5.3499,"is_reserved":false,"is_disabled":false,"rental_uris":{"android":"levelo://app?vid=9849b5d3-623c-44ab-9c57-8edf31efa3de","ios":"levelo://app?vid=9849b5d3-623c-44ab-9c57-8edf31efa3de"},"vehicle_type_id":"4","last_reported":1762708074,"current_range_meters":4800,"station_id":"ce4bhbh2rcd13ifvqepg","pricing_plan_id":"cebpf4jnsgd1na2vs0mg"},{"bike_id":"6c6f65b3-0314-4d51-ad33-575d2b20e8f4","system_id":"levelo_inurba_marseille","lat":43.21742,"lon":5.34608,"is_reserved":false,"is_disabled":true,"rental_uris":{"android":"levelo://app?vid=6c6f65b3-0314-4d51-ad33-575d2b20e8f4","ios":"levelo://app?vid=6c6f65b3-0314-4d51-ad33-575d2b20e8f4"},"vehicle_type_id":"4","last_reported":1762708074,"current_range_meters":4800,"station_id":"st_cvj6r9ubvosntc0bgbag","pricing_plan_id":"cebpf4jnsgd1na2vs0mg"},{"bike_id":"b05048b6-3636-4628-97b9-678771374061","system_id":"levelo_inurba_marseille","lat":43.30451,"lon":5.36744,"is_reserved":false,"is_disabled":true,"rental_uris":{"android":"levelo://app?vid=b05048b6-3636-4628-97b9-678771374061","ios":"levelo://app?vid=b05048b6-3636-4628-97b9-678771374061"},"vehicle_type_id":"4","last_reported":1762708074,"current_range_meters":4800,"station_id":"","pricing_plan_id":"cebpf4jnsgd1na2vs0mg"},{"bike_id":"16eb5b18-7340-498d-af9f-4506f9d041b2","system_id":"levelo_inurba_marseille","lat":43.2904,"lon":5.39966,"is_reserved":false,"is_disabled":false,"rental_uris":{"android":"levelo://app?vid=16eb5b18-7340-498d-af9f-4506f9d041b2","ios":"levelo://app?vid=16eb5b18-7340-498d-af9f-4506f9d041b2"},"vehicle_type_id":"4","last_reported":1762708074,"current_range_meters":4800,"station_id":"ce4bh392rcd13ifvqdm0","pricing_plan_id":"cebpf4jnsgd1na2vs0mg"},{"bike_id":"d13f7aac-3326-47eb-8c83-0485dd333747","system_id":"levelo_inurba_marseille","lat":43.30486,"lon":5.39251,"is_reserved":false,"is_disabled":false,"rental_uris":{"android":"levelo://app?vid=d13f7aac-3326-47eb-8c83-0485dd333747","ios":"levelo://app?vid=d13f7aac-3326-47eb-8c83-0485dd333747"},"vehicle_type_id":"4","last_reported":1762708074,"current_range_meters":4800,"station_id":"","pricing_plan_id":"cebpf4jnsgd1na2vs0mg"},{"bike_id":"a4b8ac1d-0aa1-4ff6-a8b0-a2576e509b09","system_id":"levelo_inurba_marseille","lat":43.28671,"lon":5.38657,"is_reserved":false,"is_disabled":false,"rental_uris":{"android":"levelo://app?vid=a4b8ac1d-0aa1-4ff6-a8b0-a2576e509b09","ios":"levelo://app?vid=a4b8ac1d-0aa1-4ff6-a8b0-a2576e509b09"},"vehicle_type_id":"4","last_reported":1762708074,"current_range_meters":5600,"station_id":"ce4bh492rcd13ifvqdug","pricing_plan_id":"cebpf4jnsgd1na2vs0mg"},{"bike_id":"26aad628-bd01-4664-890e-ba85447bad9f","system_id":"levelo_inurba_marseille","lat":43.303332,"lon":5.40429,"is_reserved":false,"is_disabled":true,"rental_uris":{"android":"levelo://app?vid=26aad628-bd01-4664-890e-ba85447bad9f","ios":"levelo://app?vid=26aad628-bd01-4664-890e-ba85447bad9f"},"vehicle_type_id":"4","last_reported":1762708074,"current_range_meters":5600,"station_id":"ce4bh012rcd13ifvqd10","pricing_plan_id":"cebpf4jnsgd1na2vs0mg"},{"bike_id":"6bdb3a33-a48d-46d4-b6ff-e6738dd53272","system_id":"levelo_inurba_marseille","lat":43.253104,"lon":5.421895,"is_reserved":false,"is_disabled":false,"rental_uris":{"android":"levelo://app?vid=6bdb3a33-a48d-46d4-b6ff-e6738dd53272","ios":"levelo://app?vid=6bdb3a33-a48d-46d4-b6ff-e6738dd53272"},"vehicle_type_id":"4","last_reported":1762708074,"current_range_meters":5600,"station_id":"st_d2m65c5bi1j21697t3ng","pricing_plan_id":"cebpf4jnsgd1na2vs0mg"},{"bike_id":"ddbc4407-6748-4f53-ab26-fa403d1bca0a","system_id":"levelo_inurba_marseille","lat":43.270717,"lon":5.383072,"is_reserved":false,"is_disabled":false,"rental_uris":{"android":"levelo://app?vid=ddbc4407-6748-4f53-ab26-fa403d1bca0a","ios":"levelo://app?vid=ddbc4407-6748-4f53-ab26-fa403d1bca0a"},"vehicle_type_id":"4","last_reported":1762708074,"current_range_meters":5600,"station_id":"st_d3n2fo6cfp8s73cte1j0","pricing_plan_id":"cebpf4jnsgd1na2vs0mg"},{"bike_id":"896c40fe-c4e1-425f-8e49-201dadbdb19d","system_id":"levelo_inurba_marseille","lat":43.29103,"lon":5.38135,"is_reserved":false,"is_disabled":false,"rental_uris":{"android":"levelo://app?vid=896c40fe-c4e1-425f-8e49-201dadbdb19d","ios":"levelo://app?vid=896c40fe-c4e1-425f-8e49-201dadbdb19d"},"vehicle_type_id":"4","last_reported":1762708074,"current_range_meters":6000,"station_id":"ce4bh512rcd13ifvqe2g","pricing_plan_id":"cebpf4jnsgd1na2vs0mg"},{"bike_id":"7d355d6b-66e0-49b9-af31-68687992738c","system_id":"levelo_inurba_marseille","lat":43.27351,"lon":5.392961,"is_reserved":false,"is_disabled":false,"rental_uris":{"android":"levelo://app?vid=7d355d6b-66e0-49b9-af31-68687992738c","ios":"levelo://app?vid=7d355d6b-66e0-49b9-af31-68687992738c"},"vehicle_type_id":"4","last_reported":1762708074,"current_range_meters":6000,"station_id":"ce4bhdp2rcd13ifvqf20","pricing_plan_id":"cebpf4jnsgd1na2vs0mg"},{"bike_id":"533d8c9a-be7d-4569-9443-68f2bdd6df08","system_id":"levelo_inurba_marseille","lat":43.286538,"lon":5.386466,"is_reserved":false,"is_disabled":false,"rental_uris":{"android":"levelo://app?vid=533d8c9a-be7d-4569-9443-68f2bdd6df08","ios":"levelo://app?vid=533d8c9a-be7d-4569-9443-68f2bdd6df08"},"vehicle_type_id":"4","last_reported":1762708074,"current_range_meters":6000,"station_id":"ce4bh492rcd13ifvqdug","pricing_plan_id":"cebpf4jnsgd1na2vs0mg"},{"bike_id":"63d30812-700e-441e-9d99-f15a237c026e","system_id":"levelo_inurba_marseille","lat":43.30608,"lon":5.37221,"is_reserved":false,"is_disabled":false,"rental_uris":{"android":"levelo://app?vid=63d30812-700e-441e-9d99-f15a237c026e","ios":"levelo://app?vid=63d30812-700e-441e-9d99-f15a237c026e"},"vehicle_type_id":"4","last_reported":1762708074,"current_range_meters":6000,"station_id":"ce4bgqh2rcd13ifvqc4g","pricing_plan_id":"cebpf4jnsgd1na2vs0mg"},{"bike_id":"e1f8c25d-2021-457c-b61d-e6c345de735e","system_id":"levelo_inurba_marseille","lat":43.28576,"lon":5.39501,"is_reserved":false,"is_disabled":false,"rental_uris":{"android":"levelo://app?vid=e1f8c25d-2021-457c-b61d-e6c345de735e","ios":"levelo://app?vid=e1f8c25d-2021-457c-b61d-e6c345de735e"},"vehicle_type_id":"4","last_reported":1762708074,"current_range_meters":6400,"station_id":"ce4bh292rcd13ifvqdg0","pricing_plan_id":"cebpf4jnsgd1na2vs0mg"},{"bike_id":"382f597e-181c-4839-b1de-04339df9aa55","system_id":"levelo_inurba_marseille","lat":43.26802,"lon":5.40269,"is_reserved":false,"is_disabled":true,"rental_uris":{"android":"levelo://app?vid=382f597e-181c-4839-b1de-04339df9aa55","ios":"levelo://app?vid=382f597e-181c-4839-b1de-04339df9aa55"},"vehicle_type_id":"4","last_reported":1762708074,"current_range_meters":6400,"station_id":"ce501612rcd8frsf0b60","pricing_plan_id":"cebpf4jnsgd1na2vs0mg"},{"bike_id":"9dda5635-a624-436d-9b12-22fb00320230","system_id":"levelo_inurba_marseille","lat":43.29322,"lon":5.37155,"is_reserved":false,"is_disabled":false,"rental_uris":{"android":"levelo://app?vid=9dda5635-a624-436d-9b12-22fb00320230","ios":"levelo://app?vid=9dda5635-a624-436d-9b12-22fb00320230"},"vehicle_type_id":"4","last_reported":1762708074,"current_range_meters":6400,"station_id":"","pricing_plan_id":"cebpf4jnsgd1na2vs0mg"},{"bike_id":"81a4d71e-a58f-4495-b712-314e8718e9dd","system_id":"levelo_inurba_marseille","lat":43.29303,"lon":5.37458,"is_reserved":false,"is_disabled":false,"rental_uris":{"android":"levelo://app?vid=81a4d71e-a58f-4495-b712-314e8718e9dd","ios":"levelo://app?vid=81a4d71e-a58f-4495-b712-314e8718e9dd"},"vehicle_type_id":"4","last_reported":1762708074,"current_range_meters":6400,"station_id":"ce4bgi12rcd13ifvqb70","pricing_plan_id":"cebpf4jnsgd1na2vs0mg"},{"bike_id":"c3d92383-a21a-4257-84a1-4edbe4f24ff9","system_id":"levelo_inurba_marseille","lat":43.26476,"lon":5.40933,"is_reserved":false,"is_disabled":false,"rental_uris":{"android":"levelo://app?vid=c3d92383-a21a-4257-84a1-4edbe4f24ff9","ios":"levelo://app?vid=c3d92383-a21a-4257-84a1-4edbe4f24ff9"},"vehicle_type_id":"4","last_reported":1762708074,"current_range_meters":6400,"station_id":"","pricing_plan_id":"cebpf4jnsgd1na2vs0mg"},{"bike_id":"bbf4d01f-53c7-4861-88cb-f79b104424c4","system_id":"levelo_inurba_marseille","lat":43.32357,"lon":5.389,"is_reserved":false,"is_disabled":false,"rental_uris":{"android":"levelo://app?vid=bbf4d01f-53c7-4861-88cb-f79b104424c4","ios":"levelo://app?vid=bbf4d01f-53c7-4861-88cb-f79b104424c4"},"vehicle_type_id":"4","last_reported":1762708074,"current_range_meters":6400,"station_id":"ce4bhqp2rcd13ifvqhog","pricing_plan_id":"cebpf4jnsgd1na2vs0mg"},{"bike_id":"eb065fb6-a7b4-445c-9804-c12cff9878db","system_id":"levelo_inurba_marseille","lat":43.30889,"lon":5.39664,"is_reserved":false,"is_disabled":false,"rental_uris":{"android":"levelo://app?vid=eb065fb6-a7b4-445c-9804-c12cff9878db","ios":"levelo://app?vid=eb065fb6-a7b4-445c-9804-c12cff9878db"},"vehicle_type_id":"4","last_reported":1762708074,"current_range_meters":6400,"station_id":"ce4bh012rcd13ifvqcv0","pricing_plan_id":"cebpf4jnsgd1na2vs0mg"},{"bike_id":"95565d88-4e0c-4b5d-b6d1-9a4c73bcb1f1","system_id":"levelo_inurba_marseille","lat":43.33767,"lon":5.37436,"is_reserved":false,"is_disabled":false,"rental_uris":{"android":"levelo://app?vid=95565d88-4e0c-4b5d-b6d1-9a4c73bcb1f1","ios":"levelo://app?vid=95565d88-4e0c-4b5d-b6d1-9a4c73bcb1f1"},"vehicle_type_id":"4","last_reported":1762708074,"current_range_meters":6400,"station_id":"","pricing_plan_id":"cebpf4jnsgd1na2vs0mg"},{"bike_id":"6cd5f434-fa3d-41e8-9da1-f10ec2c6b8ff","system_id":"levelo_inurba_marseille","lat":43.291923,"lon":5.382993,"is_reserved":false,"is_disabled":false,"rental_uris":{"android":"levelo://app?vid=6cd5f434-fa3d-41e8-9da1-f10ec2c6b8ff","ios":"levelo://app?vid=6cd5f434-fa3d-41e8-9da1-f10ec2c6b8ff"},"vehicle_type_id":"4","last_reported":1762708074,"current_range_meters":6400,"station_id":"","pricing_plan_id":"cebpf4jnsgd1na2vs0mg"},{"bike_id":"b70c22d8-7e97-447d-bf21-7d0107120def","system_id":"levelo_inurba_marseille","lat":43.29703,"lon":5.37697,"is_reserved":false,"is_disabled":false,"rental_uris":{"android":"levelo://app?vid=b70c22d8-7e97-447d-bf21-7d0107120def","ios":"levelo://app?vid=b70c22d8-7e97-447d-bf21-7d0107120def"},"vehicle_type_id":"4","last_reported":1762708074,"current_range_meters":6400,"station_id":"ce4bgkh2rcd13ifvqbl0","pricing_plan_id":"cebpf4jnsgd1na2vs0mg"},{"bike_id":"e2f235ac-b8f2-4a55-9787-1ff963e6e335","system_id":"levelo_inurba_marseille","lat":43.284742,"lon":5.384166,"is_reserved":false,"is_disabled":false,"rental_uris":{"android":"levelo://app?vid=e2f235ac-b8f2-4a55-9787-1ff963e6e335","ios":"levelo://app?vid=e2f235ac-b8f2-4a55-9787-1ff963e6e335"},"vehicle_type_id":"4","last_reported":1762708074,"current_range_meters":6400,"station_id":"ce4bh512rcd13ifvqe3g","pricing_plan_id":"cebpf4jnsgd1na2vs0mg"},{"bike_id":"9f611ac1-6f6a-4437-9025-ea87f35606a4","system_id":"levelo_inurba_marseille","lat":43.28562,"lon":5.3777,"is_reserved":false,"is_disabled":false,"rental_uris":{"android":"levelo://app?vid=9f611ac1-6f6a-4437-9025-ea87f35606a4","ios":"levelo://app?vid=9f611ac1-6f6a-4437-9025-ea87f35606a4"},"vehicle_type_id":"4","last_reported":1762708074,"current_range_meters":6800,"station_id":"","pricing_plan_id":"cebpf4jnsgd1na2vs0mg"},{"bike_id":"cd36fb7c-4385-47bd-96a8-f8889a6e3476","system_id":"levelo_inurba_marseille","lat":43.29891,"lon":5.43682,"is_reserved":false,"is_disabled":false,"rental_uris":{"android":"levelo://app?vid=cd36fb7c-4385-47bd-96a8-f8889a6e3476","ios":"levelo://app?vid=cd36fb7c-4385-47bd-96a8-f8889a6e3476"},"vehicle_type_id":"4","last_reported":1762708074,"current_range_meters":6800,"station_id":"ce4bhpp2rcd13ifvqhfg","pricing_plan_id":"cebpf4jnsgd1na2vs0mg"},{"bike_id":"08edbe1d-2daf-4432-8021-7dbd9bc0bf73","system_id":"levelo_inurba_marseille","lat":43.26028,"lon":5.37554,"is_reserved":false,"is_disabled":false,"rental_uris":{"android":"levelo://app?vid=08edbe1d-2daf-4432-8021-7dbd9bc0bf73","ios":"levelo://app?vid=08edbe1d-2daf-4432-8021-7dbd9bc0bf73"},"vehicle_type_id":"4","last_reported":1762708074,"current_range_meters":6800,"station_id":"ce4bhgh2rcd13ifvqfa0","pricing_plan_id":"cebpf4jnsgd1na2vs0mg"},{"bike_id":"c0969de0-74b0-4b5a-9248-b43b0ee3e19e","system_id":"levelo_inurba_marseille","lat":43.249079,"lon":5.3767,"is_reserved":false,"is_disabled":false,"rental_uris":{"android":"levelo://app?vid=c0969de0-74b0-4b5a-9248-b43b0ee3e19e","ios":"levelo://app?vid=c0969de0-74b0-4b5a-9248-b43b0ee3e19e"},"vehicle_type_id":"4","last_reported":1762708074,"current_range_meters":6800,"station_id":"","pricing_plan_id":"cebpf4jnsgd1na2vs0mg"},{"bike_id":"71405ec0-7f40-4e03-bb7b-7b97165eb87d","system_id":"levelo_inurba_marseille","lat":43.29278,"lon":5.36849,"is_reserved":false,"is_disabled":false,"rental_uris":{"android":"levelo://app?vid=71405ec0-7f40-4e03-bb7b-7b97165eb87d","ios":"levelo://app?vid=71405ec0-7f40-4e03-bb7b-7b97165eb87d"},"vehicle_type_id":"4","last_reported":1762708074,"current_range_meters":6800,"station_id":"ce4bhbp2rcd13ifvqesg","pricing_plan_id":"cebpf4jnsgd1na2vs0mg"},{"bike_id":"33c55ef3-f133-4ad9-8902-78ba36612b34","system_id":"levelo_inurba_marseille","lat":43.28834,"lon":5.35835,"is_reserved":false,"is_disabled":true,"rental_uris":{"android":"levelo://app?vid=33c55ef3-f133-4ad9-8902-78ba36612b34","ios":"levelo://app?vid=33c55ef3-f133-4ad9-8902-78ba36612b34"},"vehicle_type_id":"4","last_reported":1762708074,"current_range_meters":6800,"station_id":"ce4bhb12rcd13ifvqem0","pricing_plan_id":"cebpf4jnsgd1na2vs0mg"},{"bike_id":"142d20fe-20c7-47ed-83c8-36f24f00710f","system_id":"levelo_inurba_marseille","lat":43.29526,"lon":5.3855,"is_reserved":false,"is_disabled":false,"rental_uris":{"android":"levelo://app?vid=142d20fe-20c7-47ed-83c8-36f24f00710f","ios":"levelo://app?vid=142d20fe-20c7-47ed-83c8-36f24f00710f"},"vehicle_type_id":"4","last_reported":1762708074,"current_range_meters":6800,"station_id":"ce4bgih2rcd13ifvqba0","pricing_plan_id":"cebpf4jnsgd1na2vs0mg"},{"bike_id":"5320d673-8f17-42b0-b637-4e20de7189dd","system_id":"levelo_inurba_marseille","lat":43.29932,"lon":5.36541,"is_reserved":false,"is_disabled":true,"rental_uris":{"android":"levelo://app?vid=5320d673-8f17-42b0-b637-4e20de7189dd","ios":"levelo://app?vid=5320d673-8f17-42b0-b637-4e20de7189dd"},"vehicle_type_id":"4","last_reported":1762708074,"current_range_meters":7200,"station_id":"ce4bgm92rcd13ifvqbr0","pricing_plan_id":"cebpf4jnsgd1na2vs0mg"},{"bike_id":"a0f71728-139b-49fb-8751-74c47ab0a299","system_id":"levelo_inurba_marseille","lat":43.29257,"lon":5.38447,"is_reserved":false,"is_disabled":false,"rental_uris":{"android":"levelo://app?vid=a0f71728-139b-49fb-8751-74c47ab0a299","ios":"levelo://app?vid=a0f71728-139b-49fb-8751-74c47ab0a299"},"vehicle_type_id":"4","last_reported":1762708074,"current_range_meters":7200,"station_id":"ce4bh692rcd13ifvqea0","pricing_plan_id":"cebpf4jnsgd1na2vs0mg"},{"bike_id":"5b71cbd2-7f23-4647-8143-d5e79ea7c986","system_id":"levelo_inurba_marseille","lat":43.29257,"lon":5.40904,"is_reserved":false,"is_disabled":false,"rental_uris":{"android":"levelo://app?vid=5b71cbd2-7f23-4647-8143-d5e79ea7c986","ios":"levelo://app?vid=5b71cbd2-7f23-4647-8143-d5e79ea7c986"},"vehicle_type_id":"4","last_reported":1762708074,"current_range_meters":7200,"station_id":"ce4bh192rcd13ifvqdc0","pricing_plan_id":"cebpf4jnsgd1na2vs0mg"},{"bike_id":"c59975b4-8f8a-4708-933b-a384b8eda7d9","system_id":"levelo_inurba_marseille","lat":43.29773,"lon":5.37111,"is_reserved":false,"is_disabled":false,"rental_uris":{"android":"levelo://app?vid=c59975b4-8f8a-4708-933b-a384b8eda7d9","ios":"levelo://app?vid=c59975b4-8f8a-4708-933b-a384b8eda7d9"},"vehicle_type_id":"4","last_reported":1762708074,"current_range_meters":7200,"station_id":"ce4bgop2rcd13ifvqc1g","pricing_plan_id":"cebpf4jnsgd1na2vs0mg"},{"bike_id":"d510b29d-06c6-4a67-8cee-2182097a14e2","system_id":"levelo_inurba_marseille","lat":43.29271,"lon":5.37615,"is_reserved":false,"is_disabled":true,"rental_uris":{"android":"levelo://app?vid=d510b29d-06c6-4a67-8cee-2182097a14e2","ios":"levelo://app?vid=d510b29d-06c6-4a67-8cee-2182097a14e2"},"vehicle_type_id":"4","last_reported":1762708074,"current_range_meters":7200,"station_id":"ce4bgi12rcd13ifvqb80","pricing_plan_id":"cebpf4jnsgd1na2vs0mg"},{"bike_id":"321d43c2-a97c-419e-a110-a172b4ee23e9","system_id":"levelo_inurba_marseille","lat":43.26171,"lon":5.41761,"is_reserved":false,"is_disabled":false,"rental_uris":{"android":"levelo://app?vid=321d43c2-a97c-419e-a110-a172b4ee23e9","ios":"levelo://app?vid=321d43c2-a97c-419e-a110-a172b4ee23e9"},"vehicle_type_id":"4","last_reported":1762708074,"current_range_meters":7200,"station_id":"","pricing_plan_id":"cebpf4jnsgd1na2vs0mg"},{"bike_id":"96cc52ff-e65a-4648-98b9-1401bfc43173","system_id":"levelo_inurba_marseille","lat":43.279401,"lon":5.410492,"is_reserved":false,"is_disabled":false,"rental_uris":{"android":"levelo://app?vid=96cc52ff-e65a-4648-98b9-1401bfc43173","ios":"levelo://app?vid=96cc52ff-e65a-4648-98b9-1401bfc43173"},"vehicle_type_id":"4","last_reported":1762708074,"current_range_meters":7200,"station_id":"ce4bhbh2rcd13ifvqeqg","pricing_plan_id":"cebpf4jnsgd1na2vs0mg"},{"bike_id":"9b00c42d-299b-4363-8e25-61413b11ee49","system_id":"levelo_inurba_marseille","lat":43.27055,"lon":5.40264,"is_reserved":false,"is_disabled":false,"rental_uris":{"android":"levelo://app?vid=9b00c42d-299b-4363-8e25-61413b11ee49","ios":"levelo://app?vid=9b00c42d-299b-4363-8e25-61413b11ee49"},"vehicle_type_id":"4","last_reported":1762708074,"current_range_meters":7200,"station_id":"ce4bhk92rcd13ifvqgc0","pricing_plan_id":"cebpf4jnsgd1na2vs0mg"},{"bike_id":"a98eb5f7-2b78-4fcd-8cc1-f9604b535f51","system_id":"levelo_inurba_marseille","lat":43.30201,"lon":5.39455,"is_reserved":false,"is_disabled":true,"rental_uris":{"android":"levelo://app?vid=a98eb5f7-2b78-4fcd-8cc1-f9604b535f51","ios":"levelo://app?vid=a98eb5f7-2b78-4fcd-8cc1-f9604b535f51"},"vehicle_type_id":"4","last_reported":1762708074,"current_range_meters":7200,"station_id":"ce4bh0p2rcd13ifvqd70","pricing_plan_id":"cebpf4jnsgd1na2vs0mg"},{"bike_id":"87a52d68-aa66-4bdd-88db-e4fe79dca7d1","system_id":"levelo_inurba_marseille","lat":43.3043,"lon":5.38901,"is_reserved":false,"is_disabled":false,"rental_uris":{"android":"levelo://app?vid=87a52d68-aa66-4bdd-88db-e4fe79dca7d1","ios":"levelo://app?vid=87a52d68-aa66-4bdd-88db-e4fe79dca7d1"},"vehicle_type_id":"4","last_reported":1762708074,"current_range_meters":7200,"station_id":"ce4bgk12rcd13ifvqbi0","pricing_plan_id":"cebpf4jnsgd1na2vs0mg"},{"bike_id":"59736966-d2af-4cbc-8ac5-e955aeb2f190","system_id":"levelo_inurba_marseille","lat":43.28871,"lon":5.42511,"is_reserved":false,"is_disabled":false,"rental_uris":{"android":"levelo://app?vid=59736966-d2af-4cbc-8ac5-e955aeb2f190","ios":"levelo://app?vid=59736966-d2af-4cbc-8ac5-e955aeb2f190"},"vehicle_type_id":"4","last_reported":1762708074,"current_range_meters":7200,"station_id":"st_d3b462108ojc7389ooeg","pricing_plan_id":"cebpf4jnsgd1na2vs0mg"},{"bike_id":"05444e8b-1e08-43b9-8cb4-b992bb042233","system_id":"levelo_inurba_marseille","lat":43.29306,"lon":5.37456,"is_reserved":false,"is_disabled":false,"rental_uris":{"android":"levelo://app?vid=05444e8b-1e08-43b9-8cb4-b992bb042233","ios":"levelo://app?vid=05444e8b-1e08-43b9-8cb4-b992bb042233"},"vehicle_type_id":"4","last_reported":1762708074,"current_range_meters":7200,"station_id":"ce4bgi12rcd13ifvqb70","pricing_plan_id":"cebpf4jnsgd1na2vs0mg"},{"bike_id":"3b5a6196-4700-4ee0-a587-c1dc29303170","system_id":"levelo_inurba_marseille","lat":43.27813,"lon":5.40725,"is_reserved":false,"is_disabled":false,"rental_uris":{"android":"levelo://app?vid=3b5a6196-4700-4ee0-a587-c1dc29303170","ios":"levelo://app?vid=3b5a6196-4700-4ee0-a587-c1dc29303170"},"vehicle_type_id":"4","last_reported":1762708074,"current_range_meters":7200,"station_id":"ce4bhnh2rcd13ifvqgtg","pricing_plan_id":"cebpf4jnsgd1na2vs0mg"},{"bike_id":"3b294fa9-3f9f-4381-a2a8-e3592d375a68","system_id":"levelo_inurba_marseille","lat":43.26688,"lon":5.3969,"is_reserved":false,"is_disabled":false,"rental_uris":{"android":"levelo://app?vid=3b294fa9-3f9f-4381-a2a8-e3592d375a68","ios":"levelo://app?vid=3b294fa9-3f9f-4381-a2a8-e3592d375a68"},"vehicle_type_id":"4","last_reported":1762708074,"current_range_meters":7200,"station_id":"","pricing_plan_id":"cebpf4jnsgd1na2vs0mg"},{"bike_id":"2611e6e3-78b9-48da-be4c-93706ff61ae6","system_id":"levelo_inurba_marseille","lat":43.24401,"lon":5.37079,"is_reserved":false,"is_disabled":false,"rental_uris":{"android":"levelo://app?vid=2611e6e3-78b9-48da-be4c-93706ff61ae6","ios":"levelo://app?vid=2611e6e3-78b9-48da-be4c-93706ff61ae6"},"vehicle_type_id":"4","last_reported":1762708074,"current_range_meters":7200,"station_id":"ce4bhhh2rcd13ifvqfk0","pricing_plan_id":"cebpf4jnsgd1na2vs0mg"},{"bike_id":"7f00a8c3-c8b2-4ed5-a96f-c234db052b04","system_id":"levelo_inurba_marseille","lat":43.29277,"lon":5.36848,"is_reserved":false,"is_disabled":false,"rental_uris":{"android":"levelo://app?vid=7f00a8c3-c8b2-4ed5-a96f-c234db052b04","ios":"levelo://app?vid=7f00a8c3-c8b2-4ed5-a96f-c234db052b04"},"vehicle_type_id":"4","last_reported":1762708074,"current_range_meters":7200,"station_id":"ce4bhbp2rcd13ifvqesg","pricing_plan_id":"cebpf4jnsgd1na2vs0mg"},{"bike_id":"dce6c1e6-7f1a-4c82-96b4-8ba2a1930222","system_id":"levelo_inurba_marseille","lat":43.28313,"lon":5.39974,"is_reserved":false,"is_disabled":false,"rental_uris":{"android":"levelo://app?vid=dce6c1e6-7f1a-4c82-96b4-8ba2a1930222","ios":"levelo://app?vid=dce6c1e6-7f1a-4c82-96b4-8ba2a1930222"},"vehicle_type_id":"4","last_reported":1762708074,"current_range_meters":8000,"station_id":"","pricing_plan_id":"cebpf4jnsgd1na2vs0mg"},{"bike_id":"96d3e67d-e00c-45ff-a633-8b2ce26c1112","system_id":"levelo_inurba_marseille","lat":43.28501,"lon":5.38468,"is_reserved":false,"is_disabled":false,"rental_uris":{"android":"levelo://app?vid=96d3e67d-e00c-45ff-a633-8b2ce26c1112","ios":"levelo://app?vid=96d3e67d-e00c-45ff-a633-8b2ce26c1112"},"vehicle_type_id":"4","last_reported":1762708074,"current_range_meters":8000,"station_id":"ce4bh512rcd13ifvqe3g","pricing_plan_id":"cebpf4jnsgd1na2vs0mg"},{"bike_id":"8c712939-8fc6-4b5c-b4fd-f0f45098b493","system_id":"levelo_inurba_marseille","lat":43.28726,"lon":5.36088,"is_reserved":false,"is_disabled":false,"rental_uris":{"android":"levelo://app?vid=8c712939-8fc6-4b5c-b4fd-f0f45098b493","ios":"levelo://app?vid=8c712939-8fc6-4b5c-b4fd-f0f45098b493"},"vehicle_type_id":"4","last_reported":1762708074,"current_range_meters":8000,"station_id":"cki0cbj6b192h4jlfktg","pricing_plan_id":"cebpf4jnsgd1na2vs0mg"},{"bike_id":"76fac608-1184-49da-941d-7da5b297ff5f","system_id":"levelo_inurba_marseille","lat":43.22533,"lon":5.348348,"is_reserved":false,"is_disabled":false,"rental_uris":{"android":"levelo://app?vid=76fac608-1184-49da-941d-7da5b297ff5f","ios":"levelo://app?vid=76fac608-1184-49da-941d-7da5b297ff5f"},"vehicle_type_id":"4","last_reported":1762708074,"current_range_meters":8000,"station_id":"","pricing_plan_id":"cebpf4jnsgd1na2vs0mg"},{"bike_id":"a2df7740-874b-4449-97e4-f6f70a2fda85","system_id":"levelo_inurba_marseille","lat":43.30602,"lon":5.372348,"is_reserved":false,"is_disabled":false,"rental_uris":{"android":"levelo://app?vid=a2df7740-874b-4449-97e4-f6f70a2fda85","ios":"levelo://app?vid=a2df7740-874b-4449-97e4-f6f70a2fda85"},"vehicle_type_id":"4","last_reported":1762708074,"current_range_meters":8000,"station_id":"ce4bgqh2rcd13ifvqc4g","pricing_plan_id":"cebpf4jnsgd1na2vs0mg"},{"bike_id":"1339ef90-7056-4f6c-97e9-32c4fa532151","system_id":"levelo_inurba_marseille","lat":43.24019,"lon":5.37748,"is_reserved":false,"is_disabled":false,"rental_uris":{"android":"levelo://app?vid=1339ef90-7056-4f6c-97e9-32c4fa532151","ios":"levelo://app?vid=1339ef90-7056-4f6c-97e9-32c4fa532151"},"vehicle_type_id":"4","last_reported":1762708074,"current_range_meters":8000,"station_id":"","pricing_plan_id":"cebpf4jnsgd1na2vs0mg"},{"bike_id":"10acd982-009f-4555-9a63-85901b071378","system_id":"levelo_inurba_marseille","lat":43.29274,"lon":5.36843,"is_reserved":false,"is_disabled":false,"rental_uris":{"android":"levelo://app?vid=10acd982-009f-4555-9a63-85901b071378","ios":"levelo://app?vid=10acd982-009f-4555-9a63-85901b071378"},"vehicle_type_id":"4","last_reported":1762708074,"current_range_meters":8000,"station_id":"ce4bhbp2rcd13ifvqesg","pricing_plan_id":"cebpf4jnsgd1na2vs0mg"},{"bike_id":"1a96e42d-98e2-4b11-ab13-24f68b67c44e","system_id":"levelo_inurba_marseille","lat":43.25932,"lon":5.40911,"is_reserved":false,"is_disabled":false,"rental_uris":{"android":"levelo://app?vid=1a96e42d-98e2-4b11-ab13-24f68b67c44e","ios":"levelo://app?vid=1a96e42d-98e2-4b11-ab13-24f68b67c44e"},"vehicle_type_id":"4","last_reported":1762708074,"current_range_meters":8400,"station_id":"ce4bhm92rcd13ifvqglg","pricing_plan_id":"cebpf4jnsgd1na2vs0mg"},{"bike_id":"4d779485-5a72-4cb7-ac55-a6fb4721bdda","system_id":"levelo_inurba_marseille","lat":43.284598,"lon":5.358988,"is_reserved":false,"is_disabled":false,"rental_uris":{"android":"levelo://app?vid=4d779485-5a72-4cb7-ac55-a6fb4721bdda","ios":"levelo://app?vid=4d779485-5a72-4cb7-ac55-a6fb4721bdda"},"vehicle_type_id":"4","last_reported":1762708074,"current_range_meters":8400,"station_id":"ce4bhah2rcd13ifvqei0","pricing_plan_id":"cebpf4jnsgd1na2vs0mg"},{"bike_id":"15890588-3579-404d-85ff-208ef5ad1baa","system_id":"levelo_inurba_marseille","lat":43.26505,"lon":5.39529,"is_reserved":false,"is_disabled":false,"rental_uris":{"android":"levelo://app?vid=15890588-3579-404d-85ff-208ef5ad1baa","ios":"levelo://app?vid=15890588-3579-404d-85ff-208ef5ad1baa"},"vehicle_type_id":"4","last_reported":1762708074,"current_range_meters":8400,"station_id":"ce4bhi12rcd13ifvqfq0","pricing_plan_id":"cebpf4jnsgd1na2vs0mg"},{"bike_id":"f54299dc-3ad8-4d40-b17e-b898abbc5034","system_id":"levelo_inurba_marseille","lat":43.28277,"lon":5.35069,"is_reserved":false,"is_disabled":true,"rental_uris":{"android":"levelo://app?vid=f54299dc-3ad8-4d40-b17e-b898abbc5034","ios":"levelo://app?vid=f54299dc-3ad8-4d40-b17e-b898abbc5034"},"vehicle_type_id":"4","last_reported":1762708074,"current_range_meters":8400,"station_id":"ce4bhbp2rcd13ifvqerg","pricing_plan_id":"cebpf4jnsgd1na2vs0mg"},{"bike_id":"2eb48f07-abd2-41de-a7da-dd505426e3ed","system_id":"levelo_inurba_marseille","lat":43.252057,"lon":5.380447,"is_reserved":false,"is_disabled":false,"rental_uris":{"android":"levelo://app?vid=2eb48f07-abd2-41de-a7da-dd505426e3ed","ios":"levelo://app?vid=2eb48f07-abd2-41de-a7da-dd505426e3ed"},"vehicle_type_id":"4","last_reported":1762708074,"current_range_meters":8400,"station_id":"","pricing_plan_id":"cebpf4jnsgd1na2vs0mg"},{"bike_id":"5d9bbf36-f4f4-4586-9c3d-81b4d91fe40e","system_id":"levelo_inurba_marseille","lat":43.32537,"lon":5.41431,"is_reserved":false,"is_disabled":false,"rental_uris":{"android":"levelo://app?vid=5d9bbf36-f4f4-4586-9c3d-81b4d91fe40e","ios":"levelo://app?vid=5d9bbf36-f4f4-4586-9c3d-81b4d91fe40e"},"vehicle_type_id":"4","last_reported":1762708074,"current_range_meters":8400,"station_id":"ce4bhq12rcd13ifvqhhg","pricing_plan_id":"cebpf4jnsgd1na2vs0mg"},{"bike_id":"9247ec75-2bdd-4bed-a043-9462e3d86f7b","system_id":"levelo_inurba_marseille","lat":43.287019,"lon":5.373837,"is_reserved":false,"is_disabled":false,"rental_uris":{"android":"levelo://app?vid=9247ec75-2bdd-4bed-a043-9462e3d86f7b","ios":"levelo://app?vid=9247ec75-2bdd-4bed-a043-9462e3d86f7b"},"vehicle_type_id":"4","last_reported":1762708074,"current_range_meters":8400,"station_id":"ce4bh3p2rcd13ifvqdq0","pricing_plan_id":"cebpf4jnsgd1na2vs0mg"},{"bike_id":"ba1b1428-9e70-4ade-b8a4-a7453471831e","system_id":"levelo_inurba_marseille","lat":43.28663,"lon":5.38668,"is_reserved":false,"is_disabled":false,"rental_uris":{"android":"levelo://app?vid=ba1b1428-9e70-4ade-b8a4-a7453471831e","ios":"levelo://app?vid=ba1b1428-9e70-4ade-b8a4-a7453471831e"},"vehicle_type_id":"4","last_reported":1762708074,"current_range_meters":8400,"station_id":"ce4bh492rcd13ifvqdug","pricing_plan_id":"cebpf4jnsgd1na2vs0mg"},{"bike_id":"870a9ad1-db35-4ab0-bc9a-84476efc6571","system_id":"levelo_inurba_marseille","lat":43.328,"lon":5.42657,"is_reserved":false,"is_disabled":false,"rental_uris":{"android":"levelo://app?vid=870a9ad1-db35-4ab0-bc9a-84476efc6571","ios":"levelo://app?vid=870a9ad1-db35-4ab0-bc9a-84476efc6571"},"vehicle_type_id":"4","last_reported":1762708074,"current_range_meters":8400,"station_id":"","pricing_plan_id":"cebpf4jnsgd1na2vs0mg"},{"bike_id":"d2991a60-dcfa-4252-8f9d-bfff4b1dc433","system_id":"levelo_inurba_marseille","lat":43.31093,"lon":5.37181,"is_reserved":false,"is_disabled":false,"rental_uris":{"android":"levelo://app?vid=d2991a60-dcfa-4252-8f9d-bfff4b1dc433","ios":"levelo://app?vid=d2991a60-dcfa-4252-8f9d-bfff4b1dc433"},"vehicle_type_id":"4","last_reported":1762708074,"current_range_meters":8400,"station_id":"","pricing_plan_id":"cebpf4jnsgd1na2vs0mg"},{"bike_id":"f91118a8-47f3-4a0e-a47b-d18d66096582","system_id":"levelo_inurba_marseille","lat":43.27905,"lon":5.38011,"is_reserved":false,"is_disabled":false,"rental_uris":{"android":"levelo://app?vid=f91118a8-47f3-4a0e-a47b-d18d66096582","ios":"levelo://app?vid=f91118a8-47f3-4a0e-a47b-d18d66096582"},"vehicle_type_id":"4","last_reported":1762708074,"current_range_meters":8400,"station_id":"ce4bhf92rcd13ifvqf50","pricing_plan_id":"cebpf4jnsgd1na2vs0mg"},{"bike_id":"b0c85de4-4949-440b-9fc8-d237b1e9634a","system_id":"levelo_inurba_marseille","lat":43.292694,"lon":5.384742,"is_reserved":false,"is_disabled":false,"rental_uris":{"android":"levelo://app?vid=b0c85de4-4949-440b-9fc8-d237b1e9634a","ios":"levelo://app?vid=b0c85de4-4949-440b-9fc8-d237b1e9634a"},"vehicle_type_id":"4","last_reported":1762708074,"current_range_meters":8400,"station_id":"ce4bh692rcd13ifvqea0","pricing_plan_id":"cebpf4jnsgd1na2vs0mg"},{"bike_id":"825a1957-d327-49da-97b3-2485c79c40e7","system_id":"levelo_inurba_marseille","lat":43.21753,"lon":5.34608,"is_reserved":false,"is_disabled":true,"rental_uris":{"android":"levelo://app?vid=825a1957-d327-49da-97b3-2485c79c40e7","ios":"levelo://app?vid=825a1957-d327-49da-97b3-2485c79c40e7"},"vehicle_type_id":"4","last_reported":1762708074,"current_range_meters":8800,"station_id":"st_cvj6r9ubvosntc0bgbag","pricing_plan_id":"cebpf4jnsgd1na2vs0mg"},{"bike_id":"0283e573-4cb8-445f-bcf8-077728ce1268","system_id":"levelo_inurba_marseille","lat":43.27941,"lon":5.41052,"is_reserved":false,"is_disabled":false,"rental_uris":{"android":"levelo://app?vid=0283e573-4cb8-445f-bcf8-077728ce1268","ios":"levelo://app?vid=0283e573-4cb8-445f-bcf8-077728ce1268"},"vehicle_type_id":"4","last_reported":1762708074,"current_range_meters":8800,"station_id":"ce4bhnp2rcd13ifvqh0g","pricing_plan_id":"cebpf4jnsgd1na2vs0mg"},{"bike_id":"86e75951-1ab6-4a80-ad31-0280313ff696","system_id":"levelo_inurba_marseille","lat":43.30182,"lon":5.36613,"is_reserved":false,"is_disabled":false,"rental_uris":{"android":"levelo://app?vid=86e75951-1ab6-4a80-ad31-0280313ff696","ios":"levelo://app?vid=86e75951-1ab6-4a80-ad31-0280313ff696"},"vehicle_type_id":"4","last_reported":1762708074,"current_range_meters":8800,"station_id":"ce4bgrh2rcd13ifvqc8g","pricing_plan_id":"cebpf4jnsgd1na2vs0mg"},{"bike_id":"84e461de-1dc5-4c10-a7a5-e1afbcef7d6e","system_id":"levelo_inurba_marseille","lat":43.28077,"lon":5.396606,"is_reserved":false,"is_disabled":false,"rental_uris":{"android":"levelo://app?vid=84e461de-1dc5-4c10-a7a5-e1afbcef7d6e","ios":"levelo://app?vid=84e461de-1dc5-4c10-a7a5-e1afbcef7d6e"},"vehicle_type_id":"4","last_reported":1762708074,"current_range_meters":8800,"station_id":"ce4bho12rcd13ifvqh2g","pricing_plan_id":"cebpf4jnsgd1na2vs0mg"},{"bike_id":"e0e6ce8a-9e33-4347-8824-6790f89af711","system_id":"levelo_inurba_marseille","lat":43.29531,"lon":5.38545,"is_reserved":false,"is_disabled":false,"rental_uris":{"android":"levelo://app?vid=e0e6ce8a-9e33-4347-8824-6790f89af711","ios":"levelo://app?vid=e0e6ce8a-9e33-4347-8824-6790f89af711"},"vehicle_type_id":"4","last_reported":1762708074,"current_range_meters":8800,"station_id":"ce4bgih2rcd13ifvqba0","pricing_plan_id":"cebpf4jnsgd1na2vs0mg"},{"bike_id":"4c9e791d-9729-4c1a-bc68-55604a3ae65e","system_id":"levelo_inurba_marseille","lat":43.30951,"lon":5.39033,"is_reserved":false,"is_disabled":false,"rental_uris":{"android":"levelo://app?vid=4c9e791d-9729-4c1a-bc68-55604a3ae65e","ios":"levelo://app?vid=4c9e791d-9729-4c1a-bc68-55604a3ae65e"},"vehicle_type_id":"4","last_reported":1762708074,"current_range_meters":8800,"station_id":"ce4bgup2rcd13ifvqco0","pricing_plan_id":"cebpf4jnsgd1na2vs0mg"},{"bike_id":"7c85a98a-7998-4f50-b38b-c1e01834ac53","system_id":"levelo_inurba_marseille","lat":43.298671,"lon":5.397349,"is_reserved":false,"is_disabled":false,"rental_uris":{"android":"levelo://app?vid=7c85a98a-7998-4f50-b38b-c1e01834ac53","ios":"levelo://app?vid=7c85a98a-7998-4f50-b38b-c1e01834ac53"},"vehicle_type_id":"4","last_reported":1762708074,"current_range_meters":8800,"station_id":"ce4bh0h2rcd13ifvqd50","pricing_plan_id":"cebpf4jnsgd1na2vs0mg"},{"bike_id":"cf673477-a61f-4da4-8a76-fe54343e980e","system_id":"levelo_inurba_marseille","lat":43.30801,"lon":5.43531,"is_reserved":false,"is_disabled":true,"rental_uris":{"android":"levelo://app?vid=cf673477-a61f-4da4-8a76-fe54343e980e","ios":"levelo://app?vid=cf673477-a61f-4da4-8a76-fe54343e980e"},"vehicle_type_id":"4","last_reported":1762708074,"current_range_meters":8800,"station_id":"","pricing_plan_id":"cebpf4jnsgd1na2vs0mg"},{"bike_id":"9705aef4-1ae0-497e-81ae-482fc778998c","system_id":"levelo_inurba_marseille","lat":43.3029,"lon":5.39208,"is_reserved":false,"is_disabled":false,"rental_uris":{"android":"levelo://app?vid=9705aef4-1ae0-497e-81ae-482fc778998c","ios":"levelo://app?vid=9705aef4-1ae0-497e-81ae-482fc778998c"},"vehicle_type_id":"4","last_reported":1762708074,"current_range_meters":8800,"station_id":"ce4bgkh2rcd13ifvqbk0","pricing_plan_id":"cebpf4jnsgd1na2vs0mg"},{"bike_id":"77e85531-19c5-42f9-aeb6-f842467ed943","system_id":"levelo_inurba_marseille","lat":43.297811,"lon":5.393254,"is_reserved":false,"is_disabled":false,"rental_uris":{"android":"levelo://app?vid=77e85531-19c5-42f9-aeb6-f842467ed943","ios":"levelo://app?vid=77e85531-19c5-42f9-aeb6-f842467ed943"},"vehicle_type_id":"4","last_reported":1762708074,"current_range_meters":8800,"station_id":"chh1huq6cuj3fo74tm60","pricing_plan_id":"cebpf4jnsgd1na2vs0mg"},{"bike_id":"006d14f8-9a06-4925-922f-d8b06400da2d","system_id":"levelo_inurba_marseille","lat":43.28922,"lon":5.38392,"is_reserved":false,"is_disabled":false,"rental_uris":{"android":"levelo://app?vid=006d14f8-9a06-4925-922f-d8b06400da2d","ios":"levelo://app?vid=006d14f8-9a06-4925-922f-d8b06400da2d"},"vehicle_type_id":"4","last_reported":1762708074,"current_range_meters":9200,"station_id":"ce4bh612rcd13ifvqe6g","pricing_plan_id":"cebpf4jnsgd1na2vs0mg"},{"bike_id":"fec91c3a-85e6-40ff-973e-d2a33b3b293e","system_id":"levelo_inurba_marseille","lat":43.2494,"lon":5.405,"is_reserved":false,"is_disabled":false,"rental_uris":{"android":"levelo://app?vid=fec91c3a-85e6-40ff-973e-d2a33b3b293e","ios":"levelo://app?vid=fec91c3a-85e6-40ff-973e-d2a33b3b293e"},"vehicle_type_id":"4","last_reported":1762708074,"current_range_meters":9200,"station_id":"st_d2ngiaodas8pm72gd1h0","pricing_plan_id":"cebpf4jnsgd1na2vs0mg"},{"bike_id":"5f083e95-15b9-4672-b444-1d2b76083002","system_id":"levelo_inurba_marseille","lat":43.29973,"lon":5.37173,"is_reserved":false,"is_disabled":false,"rental_uris":{"android":"levelo://app?vid=5f083e95-15b9-4672-b444-1d2b76083002","ios":"levelo://app?vid=5f083e95-15b9-4672-b444-1d2b76083002"},"vehicle_type_id":"4","last_reported":1762708074,"current_range_meters":9200,"station_id":"ce4bgr92rcd13ifvqc7g","pricing_plan_id":"cebpf4jnsgd1na2vs0mg"},{"bike_id":"6e516340-9641-4325-9cd8-46780776c1ed","system_id":"levelo_inurba_marseille","lat":43.30552,"lon":5.3667,"is_reserved":false,"is_disabled":true,"rental_uris":{"android":"levelo://app?vid=6e516340-9641-4325-9cd8-46780776c1ed","ios":"levelo://app?vid=6e516340-9641-4325-9cd8-46780776c1ed"},"vehicle_type_id":"4","last_reported":1762708074,"current_range_meters":9200,"station_id":"","pricing_plan_id":"cebpf4jnsgd1na2vs0mg"},{"bike_id":"9241a3f3-2cdd-4653-98a8-6ac42c006513","system_id":"levelo_inurba_marseille","lat":43.27559,"lon":5.38438,"is_reserved":false,"is_disabled":false,"rental_uris":{"android":"levelo://app?vid=9241a3f3-2cdd-4653-98a8-6ac42c006513","ios":"levelo://app?vid=9241a3f3-2cdd-4653-98a8-6ac42c006513"},"vehicle_type_id":"4","last_reported":1762708074,"current_range_meters":9200,"station_id":"ce4bhh92rcd13ifvqfi0","pricing_plan_id":"cebpf4jnsgd1na2vs0mg"},{"bike_id":"53ca8b77-f904-4e8a-b112-59c12a9cf69b","system_id":"levelo_inurba_marseille","lat":43.29179,"lon":5.38616,"is_reserved":false,"is_disabled":false,"rental_uris":{"android":"levelo://app?vid=53ca8b77-f904-4e8a-b112-59c12a9cf69b","ios":"levelo://app?vid=53ca8b77-f904-4e8a-b112-59c12a9cf69b"},"vehicle_type_id":"4","last_reported":1762708074,"current_range_meters":9200,"station_id":"","pricing_plan_id":"cebpf4jnsgd1na2vs0mg"},{"bike_id":"21dcb4e2-bef4-415f-aa59-cd0b9e2cb07b","system_id":"levelo_inurba_marseille","lat":43.22811,"lon":5.43489,"is_reserved":false,"is_disabled":false,"rental_uris":{"android":"levelo://app?vid=21dcb4e2-bef4-415f-aa59-cd0b9e2cb07b","ios":"levelo://app?vid=21dcb4e2-bef4-415f-aa59-cd0b9e2cb07b"},"vehicle_type_id":"4","last_reported":1762708074,"current_range_meters":9200,"station_id":"","pricing_plan_id":"cebpf4jnsgd1na2vs0mg"},{"bike_id":"06fe3283-3edd-4aa3-b531-02e81b6ba62b","system_id":"levelo_inurba_marseille","lat":43.276804,"lon":5.388927,"is_reserved":false,"is_disabled":false,"rental_uris":{"android":"levelo://app?vid=06fe3283-3edd-4aa3-b531-02e81b6ba62b","ios":"levelo://app?vid=06fe3283-3edd-4aa3-b531-02e81b6ba62b"},"vehicle_type_id":"4","last_reported":1762708074,"current_range_meters":9200,"station_id":"ce4bhi12rcd13ifvqfo0","pricing_plan_id":"cebpf4jnsgd1na2vs0mg"},{"bike_id":"6fb9aaeb-fd54-4120-8c7f-cb19a69f6629","system_id":"levelo_inurba_marseille","lat":43.23569,"lon":5.37466,"is_reserved":false,"is_disabled":false,"rental_uris":{"android":"levelo://app?vid=6fb9aaeb-fd54-4120-8c7f-cb19a69f6629","ios":"levelo://app?vid=6fb9aaeb-fd54-4120-8c7f-cb19a69f6629"},"vehicle_type_id":"4","last_reported":1762708074,"current_range_meters":9600,"station_id":"","pricing_plan_id":"cebpf4jnsgd1na2vs0mg"},{"bike_id":"d32acf6f-21aa-4fbf-bed6-33d296ca0f9f","system_id":"levelo_inurba_marseille","lat":43.21754,"lon":5.34599,"is_reserved":false,"is_disabled":true,"rental_uris":{"android":"levelo://app?vid=d32acf6f-21aa-4fbf-bed6-33d296ca0f9f","ios":"levelo://app?vid=d32acf6f-21aa-4fbf-bed6-33d296ca0f9f"},"vehicle_type_id":"4","last_reported":1762708074,"current_range_meters":9600,"station_id":"st_cvj6r9ubvosntc0bgbag","pricing_plan_id":"cebpf4jnsgd1na2vs0mg"},{"bike_id":"33a0cec5-86f2-4e3c-a472-42817818518d","system_id":"levelo_inurba_marseille","lat":43.29297,"lon":5.3745,"is_reserved":false,"is_disabled":false,"rental_uris":{"android":"levelo://app?vid=33a0cec5-86f2-4e3c-a472-42817818518d","ios":"levelo://app?vid=33a0cec5-86f2-4e3c-a472-42817818518d"},"vehicle_type_id":"4","last_reported":1762708074,"current_range_meters":9600,"station_id":"ce4bgi12rcd13ifvqb70","pricing_plan_id":"cebpf4jnsgd1na2vs0mg"},{"bike_id":"15db09df-59b0-446a-87c5-e354a3319258","system_id":"levelo_inurba_marseille","lat":43.28472,"lon":5.48393,"is_reserved":false,"is_disabled":false,"rental_uris":{"android":"levelo://app?vid=15db09df-59b0-446a-87c5-e354a3319258","ios":"levelo://app?vid=15db09df-59b0-446a-87c5-e354a3319258"},"vehicle_type_id":"4","last_reported":1762708074,"current_range_meters":9600,"station_id":"","pricing_plan_id":"cebpf4jnsgd1na2vs0mg"},{"bike_id":"3d844b3f-c1e2-4ec7-afe5-805071cdeb2a","system_id":"levelo_inurba_marseille","lat":43.29017,"lon":5.38136,"is_reserved":false,"is_disabled":false,"rental_uris":{"android":"levelo://app?vid=3d844b3f-c1e2-4ec7-afe5-805071cdeb2a","ios":"levelo://app?vid=3d844b3f-c1e2-4ec7-afe5-805071cdeb2a"},"vehicle_type_id":"4","last_reported":1762708074,"current_range_meters":9600,"station_id":"ce4bh4p2rcd13ifvqe1g","pricing_plan_id":"cebpf4jnsgd1na2vs0mg"},{"bike_id":"28abc6cf-f087-4b84-8a52-ee5648e705f2","system_id":"levelo_inurba_marseille","lat":43.2797,"lon":5.38736,"is_reserved":false,"is_disabled":false,"rental_uris":{"android":"levelo://app?vid=28abc6cf-f087-4b84-8a52-ee5648e705f2","ios":"levelo://app?vid=28abc6cf-f087-4b84-8a52-ee5648e705f2"},"vehicle_type_id":"4","last_reported":1762708074,"current_range_meters":9600,"station_id":"ce4bhg12rcd13ifvqf80","pricing_plan_id":"cebpf4jnsgd1na2vs0mg"},{"bike_id":"e35bb883-68aa-4f66-bf87-dcfdeb40537b","system_id":"levelo_inurba_marseille","lat":43.22533,"lon":5.34833,"is_reserved":false,"is_disabled":false,"rental_uris":{"android":"levelo://app?vid=e35bb883-68aa-4f66-bf87-dcfdeb40537b","ios":"levelo://app?vid=e35bb883-68aa-4f66-bf87-dcfdeb40537b"},"vehicle_type_id":"4","last_reported":1762708074,"current_range_meters":9600,"station_id":"","pricing_plan_id":"cebpf4jnsgd1na2vs0mg"},{"bike_id":"36c4d96c-9685-4cd8-b532-c87a5f94129d","system_id":"levelo_inurba_marseille","lat":43.29097,"lon":5.38129,"is_reserved":false,"is_disabled":false,"rental_uris":{"android":"levelo://app?vid=36c4d96c-9685-4cd8-b532-c87a5f94129d","ios":"levelo://app?vid=36c4d96c-9685-4cd8-b532-c87a5f94129d"},"vehicle_type_id":"4","last_reported":1762708074,"current_range_meters":9600,"station_id":"ce4bh512rcd13ifvqe2g","pricing_plan_id":"cebpf4jnsgd1na2vs0mg"},{"bike_id":"21d8d85e-e478-45b6-a5a8-554ed15637ef","system_id":"levelo_inurba_marseille","lat":43.29578,"lon":5.39969,"is_reserved":false,"is_disabled":false,"rental_uris":{"android":"levelo://app?vid=21d8d85e-e478-45b6-a5a8-554ed15637ef","ios":"levelo://app?vid=21d8d85e-e478-45b6-a5a8-554ed15637ef"},"vehicle_type_id":"4","last_reported":1762708074,"current_range_meters":9600,"station_id":"ce4bh312rcd13ifvqdj0","pricing_plan_id":"cebpf4jnsgd1na2vs0mg"},{"bike_id":"3f9e86d5-8270-4ad7-9edf-9c3fa2492dca","system_id":"levelo_inurba_marseille","lat":43.2969,"lon":5.37683,"is_reserved":false,"is_disabled":false,"rental_uris":{"android":"levelo://app?vid=3f9e86d5-8270-4ad7-9edf-9c3fa2492dca","ios":"levelo://app?vid=3f9e86d5-8270-4ad7-9edf-9c3fa2492dca"},"vehicle_type_id":"4","last_reported":1762708074,"current_range_meters":10000,"station_id":"ce4bgkh2rcd13ifvqbl0","pricing_plan_id":"cebpf4jnsgd1na2vs0mg"},{"bike_id":"80729c4f-58d7-4f8a-b3dd-351fe11656c6","system_id":"levelo_inurba_marseille","lat":43.29971,"lon":5.37176,"is_reserved":false,"is_disabled":false,"rental_uris":{"android":"levelo://app?vid=80729c4f-58d7-4f8a-b3dd-351fe11656c6","ios":"levelo://app?vid=80729c4f-58d7-4f8a-b3dd-351fe11656c6"},"vehicle_type_id":"4","last_reported":1762708074,"current_range_meters":10000,"station_id":"ce4bgr92rcd13ifvqc7g","pricing_plan_id":"cebpf4jnsgd1na2vs0mg"},{"bike_id":"71521a48-17a1-4f93-b856-7a47c2d10d0a","system_id":"levelo_inurba_marseille","lat":43.30132,"lon":5.43113,"is_reserved":false,"is_disabled":false,"rental_uris":{"android":"levelo://app?vid=71521a48-17a1-4f93-b856-7a47c2d10d0a","ios":"levelo://app?vid=71521a48-17a1-4f93-b856-7a47c2d10d0a"},"vehicle_type_id":"4","last_reported":1762708074,"current_range_meters":10000,"station_id":"st_d3js3co5814s73ftftug","pricing_plan_id":"cebpf4jnsgd1na2vs0mg"},{"bike_id":"e488b3ca-2acc-4fc9-af64-f2ea8712f4bb","system_id":"levelo_inurba_marseille","lat":43.28493,"lon":5.38412,"is_reserved":false,"is_disabled":false,"rental_uris":{"android":"levelo://app?vid=e488b3ca-2acc-4fc9-af64-f2ea8712f4bb","ios":"levelo://app?vid=e488b3ca-2acc-4fc9-af64-f2ea8712f4bb"},"vehicle_type_id":"4","last_reported":1762708074,"current_range_meters":10000,"station_id":"ce4bh512rcd13ifvqe3g","pricing_plan_id":"cebpf4jnsgd1na2vs0mg"},{"bike_id":"67efb670-bce5-4049-8122-c2052c82e196","system_id":"levelo_inurba_marseille","lat":43.29551,"lon":5.38541,"is_reserved":false,"is_disabled":false,"rental_uris":{"android":"levelo://app?vid=67efb670-bce5-4049-8122-c2052c82e196","ios":"levelo://app?vid=67efb670-bce5-4049-8122-c2052c82e196"},"vehicle_type_id":"4","last_reported":1762708074,"current_range_meters":10000,"station_id":"ce4bgih2rcd13ifvqba0","pricing_plan_id":"cebpf4jnsgd1na2vs0mg"},{"bike_id":"28c5cc9e-e2be-4842-b0cc-eca3bb9f9d3e","system_id":"levelo_inurba_marseille","lat":43.292311,"lon":5.364797,"is_reserved":false,"is_disabled":false,"rental_uris":{"android":"levelo://app?vid=28c5cc9e-e2be-4842-b0cc-eca3bb9f9d3e","ios":"levelo://app?vid=28c5cc9e-e2be-4842-b0cc-eca3bb9f9d3e"},"vehicle_type_id":"4","last_reported":1762708074,"current_range_meters":10000,"station_id":"","pricing_plan_id":"cebpf4jnsgd1na2vs0mg"},{"bike_id":"6bec7f5c-47e6-440a-bd38-0e609c35e101","system_id":"levelo_inurba_marseille","lat":43.28436,"lon":5.39191,"is_reserved":false,"is_disabled":false,"rental_uris":{"android":"levelo://app?vid=6bec7f5c-47e6-440a-bd38-0e609c35e101","ios":"levelo://app?vid=6bec7f5c-47e6-440a-bd38-0e609c35e101"},"vehicle_type_id":"4","last_reported":1762708074,"current_range_meters":10000,"station_id":"ce4bhoh2rcd13ifvqh5g","pricing_plan_id":"cebpf4jnsgd1na2vs0mg"},{"bike_id":"d1e2d633-7605-45da-8a44-8aad27c531ba","system_id":"levelo_inurba_marseille","lat":43.2894,"lon":5.36387,"is_reserved":false,"is_disabled":false,"rental_uris":{"android":"levelo://app?vid=d1e2d633-7605-45da-8a44-8aad27c531ba","ios":"levelo://app?vid=d1e2d633-7605-45da-8a44-8aad27c531ba"},"vehicle_type_id":"4","last_reported":1762708074,"current_range_meters":10000,"station_id":"ce4bhc92rcd13ifvqetg","pricing_plan_id":"cebpf4jnsgd1na2vs0mg"},{"bike_id":"8d7e3c44-160d-406d-b7dc-b78369a28e7f","system_id":"levelo_inurba_marseille","lat":43.28216,"lon":5.39052,"is_reserved":false,"is_disabled":false,"rental_uris":{"android":"levelo://app?vid=8d7e3c44-160d-406d-b7dc-b78369a28e7f","ios":"levelo://app?vid=8d7e3c44-160d-406d-b7dc-b78369a28e7f"},"vehicle_type_id":"4","last_reported":1762708074,"current_range_meters":10000,"station_id":"ce4bhn92rcd13ifvqgsg","pricing_plan_id":"cebpf4jnsgd1na2vs0mg"},{"bike_id":"3c6ac483-c31e-4f0d-b45d-e64d2207e4f3","system_id":"levelo_inurba_marseille","lat":43.246609,"lon":5.381587,"is_reserved":false,"is_disabled":false,"rental_uris":{"android":"levelo://app?vid=3c6ac483-c31e-4f0d-b45d-e64d2207e4f3","ios":"levelo://app?vid=3c6ac483-c31e-4f0d-b45d-e64d2207e4f3"},"vehicle_type_id":"4","last_reported":1762708074,"current_range_meters":10800,"station_id":"","pricing_plan_id":"cebpf4jnsgd1na2vs0mg"},{"bike_id":"6ca580b9-ae87-4e9b-a62c-4e0f6a07370c","system_id":"levelo_inurba_marseille","lat":43.21188,"lon":5.35074,"is_reserved":false,"is_disabled":false,"rental_uris":{"android":"levelo://app?vid=6ca580b9-ae87-4e9b-a62c-4e0f6a07370c","ios":"levelo://app?vid=6ca580b9-ae87-4e9b-a62c-4e0f6a07370c"},"vehicle_type_id":"4","last_reported":1762708074,"current_range_meters":10800,"station_id":"st_cvj6sg6p6f1abm77japg","pricing_plan_id":"cebpf4jnsgd1na2vs0mg"},{"bike_id":"a295ba32-0f8c-4040-97e9-6718d320f978","system_id":"levelo_inurba_marseille","lat":43.225311,"lon":5.348363,"is_reserved":false,"is_disabled":false,"rental_uris":{"android":"levelo://app?vid=a295ba32-0f8c-4040-97e9-6718d320f978","ios":"levelo://app?vid=a295ba32-0f8c-4040-97e9-6718d320f978"},"vehicle_type_id":"4","last_reported":1762708074,"current_range_meters":10800,"station_id":"","pricing_plan_id":"cebpf4jnsgd1na2vs0mg"},{"bike_id":"02aaf661-9259-4562-9ba3-741b2907450b","system_id":"levelo_inurba_marseille","lat":43.28471,"lon":5.384,"is_reserved":false,"is_disabled":false,"rental_uris":{"android":"levelo://app?vid=02aaf661-9259-4562-9ba3-741b2907450b","ios":"levelo://app?vid=02aaf661-9259-4562-9ba3-741b2907450b"},"vehicle_type_id":"4","last_reported":1762708074,"current_range_meters":10800,"station_id":"ce4bh512rcd13ifvqe3g","pricing_plan_id":"cebpf4jnsgd1na2vs0mg"},{"bike_id":"f403dcd9-c0a7-4b2d-afda-e0e398397789","system_id":"levelo_inurba_marseille","lat":43.28476,"lon":5.38414,"is_reserved":false,"is_disabled":false,"rental_uris":{"android":"levelo://app?vid=f403dcd9-c0a7-4b2d-afda-e0e398397789","ios":"levelo://app?vid=f403dcd9-c0a7-4b2d-afda-e0e398397789"},"vehicle_type_id":"4","last_reported":1762708074,"current_range_meters":10800,"station_id":"ce4bh512rcd13ifvqe3g","pricing_plan_id":"cebpf4jnsgd1na2vs0mg"},{"bike_id":"b3139d86-435e-431d-acf5-1b1398fecd52","system_id":"levelo_inurba_marseille","lat":43.26502,"lon":5.39538,"is_reserved":false,"is_disabled":false,"rental_uris":{"android":"levelo://app?vid=b3139d86-435e-431d-acf5-1b1398fecd52","ios":"levelo://app?vid=b3139d86-435e-431d-acf5-1b1398fecd52"},"vehicle_type_id":"4","last_reported":1762708074,"current_range_meters":10800,"station_id":"ce4bhi12rcd13ifvqfq0","pricing_plan_id":"cebpf4jnsgd1na2vs0mg"},{"bike_id":"ac1012d0-7872-4c6e-85e6-fc8eaff39396","system_id":"levelo_inurba_marseille","lat":43.28452,"lon":5.35902,"is_reserved":false,"is_disabled":true,"rental_uris":{"android":"levelo://app?vid=ac1012d0-7872-4c6e-85e6-fc8eaff39396","ios":"levelo://app?vid=ac1012d0-7872-4c6e-85e6-fc8eaff39396"},"vehicle_type_id":"4","last_reported":1762708074,"current_range_meters":10800,"station_id":"ce4bhah2rcd13ifvqei0","pricing_plan_id":"cebpf4jnsgd1na2vs0mg"},{"bike_id":"9151687d-25d7-4513-8b75-7528aa1984bd","system_id":"levelo_inurba_marseille","lat":43.28917,"lon":5.38396,"is_reserved":false,"is_disabled":false,"rental_uris":{"android":"levelo://app?vid=9151687d-25d7-4513-8b75-7528aa1984bd","ios":"levelo://app?vid=9151687d-25d7-4513-8b75-7528aa1984bd"},"vehicle_type_id":"4","last_reported":1762708074,"current_range_meters":10800,"station_id":"ce4bh612rcd13ifvqe6g","pricing_plan_id":"cebpf4jnsgd1na2vs0mg"},{"bike_id":"2ba132bc-17fc-4390-afc2-5cd9764b0e30","system_id":"levelo_inurba_marseille","lat":43.30331,"lon":5.40433,"is_reserved":false,"is_disabled":false,"rental_uris":{"android":"levelo://app?vid=2ba132bc-17fc-4390-afc2-5cd9764b0e30","ios":"levelo://app?vid=2ba132bc-17fc-4390-afc2-5cd9764b0e30"},"vehicle_type_id":"4","last_reported":1762708074,"current_range_meters":10800,"station_id":"ce4bh012rcd13ifvqd10","pricing_plan_id":"cebpf4jnsgd1na2vs0mg"},{"bike_id":"8472eccc-75d0-4f95-9a9f-8626dbb413f0","system_id":"levelo_inurba_marseille","lat":43.296321,"lon":5.371628,"is_reserved":false,"is_disabled":false,"rental_uris":{"android":"levelo://app?vid=8472eccc-75d0-4f95-9a9f-8626dbb413f0","ios":"levelo://app?vid=8472eccc-75d0-4f95-9a9f-8626dbb413f0"},"vehicle_type_id":"4","last_reported":1762708074,"current_range_meters":11200,"station_id":"ce4bgnh2rcd13ifvqc0g","pricing_plan_id":"cebpf4jnsgd1na2vs0mg"},{"bike_id":"a54bc971-d417-4a3e-8794-4d669876a3aa","system_id":"levelo_inurba_marseille","lat":43.27175,"lon":5.40997,"is_reserved":false,"is_disabled":false,"rental_uris":{"android":"levelo://app?vid=a54bc971-d417-4a3e-8794-4d669876a3aa","ios":"levelo://app?vid=a54bc971-d417-4a3e-8794-4d669876a3aa"},"vehicle_type_id":"4","last_reported":1762708074,"current_range_meters":11200,"station_id":"ce4bhl12rcd13ifvqgf0","pricing_plan_id":"cebpf4jnsgd1na2vs0mg"},{"bike_id":"317822ad-eebe-4d49-be47-de3738a7f974","system_id":"levelo_inurba_marseille","lat":43.33154,"lon":5.37693,"is_reserved":false,"is_disabled":false,"rental_uris":{"android":"levelo://app?vid=317822ad-eebe-4d49-be47-de3738a7f974","ios":"levelo://app?vid=317822ad-eebe-4d49-be47-de3738a7f974"},"vehicle_type_id":"4","last_reported":1762708074,"current_range_meters":11200,"station_id":"st_d46cu089ee8s73dldbu0","pricing_plan_id":"cebpf4jnsgd1na2vs0mg"},{"bike_id":"93e6901d-3569-4c64-94a3-3782d49554f1","system_id":"levelo_inurba_marseille","lat":43.29555,"lon":5.42294,"is_reserved":false,"is_disabled":false,"rental_uris":{"android":"levelo://app?vid=93e6901d-3569-4c64-94a3-3782d49554f1","ios":"levelo://app?vid=93e6901d-3569-4c64-94a3-3782d49554f1"},"vehicle_type_id":"4","last_reported":1762708074,"current_range_meters":11200,"station_id":"ce4bhph2rcd13ifvqhdg","pricing_plan_id":"cebpf4jnsgd1na2vs0mg"},{"bike_id":"06b572d6-d95a-4f1a-9a9a-b316897ad6d5","system_id":"levelo_inurba_marseille","lat":43.29545,"lon":5.3752,"is_reserved":false,"is_disabled":false,"rental_uris":{"android":"levelo://app?vid=06b572d6-d95a-4f1a-9a9a-b316897ad6d5","ios":"levelo://app?vid=06b572d6-d95a-4f1a-9a9a-b316897ad6d5"},"vehicle_type_id":"4","last_reported":1762708074,"current_range_meters":11200,"station_id":"ce4bgkp2rcd13ifvqbmg","pricing_plan_id":"cebpf4jnsgd1na2vs0mg"},{"bike_id":"bbcf3583-79a5-4a69-b383-ce928f158d77","system_id":"levelo_inurba_marseille","lat":43.24549,"lon":5.39523,"is_reserved":false,"is_disabled":false,"rental_uris":{"android":"levelo://app?vid=bbcf3583-79a5-4a69-b383-ce928f158d77","ios":"levelo://app?vid=bbcf3583-79a5-4a69-b383-ce928f158d77"},"vehicle_type_id":"4","last_reported":1762708074,"current_range_meters":11200,"station_id":"ce4bhlp2rcd13ifvqgjg","pricing_plan_id":"cebpf4jnsgd1na2vs0mg"},{"bike_id":"bcb7664a-39c2-46f8-930f-41cebd3d0b86","system_id":"levelo_inurba_marseille","lat":43.21205,"lon":5.35077,"is_reserved":false,"is_disabled":true,"rental_uris":{"android":"levelo://app?vid=bcb7664a-39c2-46f8-930f-41cebd3d0b86","ios":"levelo://app?vid=bcb7664a-39c2-46f8-930f-41cebd3d0b86"},"vehicle_type_id":"4","last_reported":1762708074,"current_range_meters":11200,"station_id":"st_cvj6sg6p6f1abm77japg","pricing_plan_id":"cebpf4jnsgd1na2vs0mg"},{"bike_id":"528c9d05-92ce-4255-b97c-6b74d75b52e5","system_id":"levelo_inurba_marseille","lat":43.28482,"lon":5.38418,"is_reserved":false,"is_disabled":false,"rental_uris":{"android":"levelo://app?vid=528c9d05-92ce-4255-b97c-6b74d75b52e5","ios":"levelo://app?vid=528c9d05-92ce-4255-b97c-6b74d75b52e5"},"vehicle_type_id":"4","last_reported":1762708074,"current_range_meters":11200,"station_id":"ce4bh512rcd13ifvqe3g","pricing_plan_id":"cebpf4jnsgd1na2vs0mg"},{"bike_id":"d43b8ef6-2e72-4d7f-9e67-274e449ab2e2","system_id":"levelo_inurba_marseille","lat":43.28716,"lon":5.36097,"is_reserved":false,"is_disabled":false,"rental_uris":{"android":"levelo://app?vid=d43b8ef6-2e72-4d7f-9e67-274e449ab2e2","ios":"levelo://app?vid=d43b8ef6-2e72-4d7f-9e67-274e449ab2e2"},"vehicle_type_id":"4","last_reported":1762708074,"current_range_meters":11200,"station_id":"cki0cbj6b192h4jlfktg","pricing_plan_id":"cebpf4jnsgd1na2vs0mg"},{"bike_id":"d60c13f7-30b2-4dd5-a1ea-ba00e2a41611","system_id":"levelo_inurba_marseille","lat":43.30309,"lon":5.36897,"is_reserved":false,"is_disabled":false,"rental_uris":{"android":"levelo://app?vid=d60c13f7-30b2-4dd5-a1ea-ba00e2a41611","ios":"levelo://app?vid=d60c13f7-30b2-4dd5-a1ea-ba00e2a41611"},"vehicle_type_id":"4","last_reported":1762708074,"current_range_meters":11200,"station_id":"ce4bgqh2rcd13ifvqc5g","pricing_plan_id":"cebpf4jnsgd1na2vs0mg"},{"bike_id":"7ad52df8-ac32-4c6b-98f4-1b3f6369ead7","system_id":"levelo_inurba_marseille","lat":43.291,"lon":5.38109,"is_reserved":false,"is_disabled":false,"rental_uris":{"android":"levelo://app?vid=7ad52df8-ac32-4c6b-98f4-1b3f6369ead7","ios":"levelo://app?vid=7ad52df8-ac32-4c6b-98f4-1b3f6369ead7"},"vehicle_type_id":"4","last_reported":1762708074,"current_range_meters":11600,"station_id":"ce4bh512rcd13ifvqe2g","pricing_plan_id":"cebpf4jnsgd1na2vs0mg"},{"bike_id":"2d50a16e-1203-48d2-970d-6d7a1ac542b1","system_id":"levelo_inurba_marseille","lat":43.25335,"lon":5.42177,"is_reserved":false,"is_disabled":false,"rental_uris":{"android":"levelo://app?vid=2d50a16e-1203-48d2-970d-6d7a1ac542b1","ios":"levelo://app?vid=2d50a16e-1203-48d2-970d-6d7a1ac542b1"},"vehicle_type_id":"4","last_reported":1762708074,"current_range_meters":11600,"station_id":"st_d2m65c5bi1j21697t3ng","pricing_plan_id":"cebpf4jnsgd1na2vs0mg"},{"bike_id":"41e7a42c-1b9a-4e75-9839-f8762ef2ddf6","system_id":"levelo_inurba_marseille","lat":43.28458,"lon":5.35887,"is_reserved":false,"is_disabled":false,"rental_uris":{"android":"levelo://app?vid=41e7a42c-1b9a-4e75-9839-f8762ef2ddf6","ios":"levelo://app?vid=41e7a42c-1b9a-4e75-9839-f8762ef2ddf6"},"vehicle_type_id":"4","last_reported":1762708074,"current_range_meters":11600,"station_id":"ce4bhah2rcd13ifvqei0","pricing_plan_id":"cebpf4jnsgd1na2vs0mg"},{"bike_id":"90e75491-f300-4cd4-95d9-4fcce675996b","system_id":"levelo_inurba_marseille","lat":43.2841,"lon":5.37553,"is_reserved":false,"is_disabled":true,"rental_uris":{"android":"levelo://app?vid=90e75491-f300-4cd4-95d9-4fcce675996b","ios":"levelo://app?vid=90e75491-f300-4cd4-95d9-4fcce675996b"},"vehicle_type_id":"4","last_reported":1762708074,"current_range_meters":11600,"station_id":"ce4bh412rcd13ifvqds0","pricing_plan_id":"cebpf4jnsgd1na2vs0mg"},{"bike_id":"747628a0-abbb-4017-9b13-b0ee432b38ab","system_id":"levelo_inurba_marseille","lat":43.28412,"lon":5.37511,"is_reserved":false,"is_disabled":false,"rental_uris":{"android":"levelo://app?vid=747628a0-abbb-4017-9b13-b0ee432b38ab","ios":"levelo://app?vid=747628a0-abbb-4017-9b13-b0ee432b38ab"},"vehicle_type_id":"4","last_reported":1762708074,"current_range_meters":11600,"station_id":"ce4bh412rcd13ifvqds0","pricing_plan_id":"cebpf4jnsgd1na2vs0mg"},{"bike_id":"7f106518-046b-4f85-818d-c0e03b39c914","system_id":"levelo_inurba_marseille","lat":43.25002,"lon":5.38922,"is_reserved":false,"is_disabled":false,"rental_uris":{"android":"levelo://app?vid=7f106518-046b-4f85-818d-c0e03b39c914","ios":"levelo://app?vid=7f106518-046b-4f85-818d-c0e03b39c914"},"vehicle_type_id":"4","last_reported":1762708074,"current_range_meters":11600,"station_id":"ce4bhgp2rcd13ifvqfd0","pricing_plan_id":"cebpf4jnsgd1na2vs0mg"},{"bike_id":"c55df3d8-56cc-4d69-9c3f-8589a518af48","system_id":"levelo_inurba_marseille","lat":43.26806,"lon":5.40272,"is_reserved":false,"is_disabled":false,"rental_uris":{"android":"levelo://app?vid=c55df3d8-56cc-4d69-9c3f-8589a518af48","ios":"levelo://app?vid=c55df3d8-56cc-4d69-9c3f-8589a518af48"},"vehicle_type_id":"4","last_reported":1762708074,"current_range_meters":12000,"station_id":"ce501612rcd8frsf0b60","pricing_plan_id":"cebpf4jnsgd1na2vs0mg"},{"bike_id":"19eccabe-a678-4bee-8b97-49386d012922","system_id":"levelo_inurba_marseille","lat":43.28465,"lon":5.38412,"is_reserved":false,"is_disabled":false,"rental_uris":{"android":"levelo://app?vid=19eccabe-a678-4bee-8b97-49386d012922","ios":"levelo://app?vid=19eccabe-a678-4bee-8b97-49386d012922"},"vehicle_type_id":"4","last_reported":1762708074,"current_range_meters":12000,"station_id":"ce4bh512rcd13ifvqe3g","pricing_plan_id":"cebpf4jnsgd1na2vs0mg"},{"bike_id":"5997c6b0-b0f4-4848-a8f1-63ca201df211","system_id":"levelo_inurba_marseille","lat":43.33896,"lon":5.41574,"is_reserved":false,"is_disabled":false,"rental_uris":{"android":"levelo://app?vid=5997c6b0-b0f4-4848-a8f1-63ca201df211","ios":"levelo://app?vid=5997c6b0-b0f4-4848-a8f1-63ca201df211"},"vehicle_type_id":"4","last_reported":1762708074,"current_range_meters":12000,"station_id":"","pricing_plan_id":"cebpf4jnsgd1na2vs0mg"},{"bike_id":"a7108f84-f68c-4bd2-8f3d-eb8bbca4c11d","system_id":"levelo_inurba_marseille","lat":43.29027,"lon":5.39975,"is_reserved":false,"is_disabled":false,"rental_uris":{"android":"levelo://app?vid=a7108f84-f68c-4bd2-8f3d-eb8bbca4c11d","ios":"levelo://app?vid=a7108f84-f68c-4bd2-8f3d-eb8bbca4c11d"},"vehicle_type_id":"4","last_reported":1762708074,"current_range_meters":12400,"station_id":"ce4bh392rcd13ifvqdm0","pricing_plan_id":"cebpf4jnsgd1na2vs0mg"},{"bike_id":"88acd228-19f0-4aee-84e0-7f3c6f8e0ce4","system_id":"levelo_inurba_marseille","lat":43.295762,"lon":5.399449,"is_reserved":false,"is_disabled":false,"rental_uris":{"android":"levelo://app?vid=88acd228-19f0-4aee-84e0-7f3c6f8e0ce4","ios":"levelo://app?vid=88acd228-19f0-4aee-84e0-7f3c6f8e0ce4"},"vehicle_type_id":"4","last_reported":1762708074,"current_range_meters":12400,"station_id":"ce4bh312rcd13ifvqdj0","pricing_plan_id":"cebpf4jnsgd1na2vs0mg"},{"bike_id":"98a850cc-53c2-4014-98f7-042c47c8231b","system_id":"levelo_inurba_marseille","lat":43.31194,"lon":5.3742,"is_reserved":false,"is_disabled":false,"rental_uris":{"android":"levelo://app?vid=98a850cc-53c2-4014-98f7-042c47c8231b","ios":"levelo://app?vid=98a850cc-53c2-4014-98f7-042c47c8231b"},"vehicle_type_id":"4","last_reported":1762708074,"current_range_meters":12400,"station_id":"","pricing_plan_id":"cebpf4jnsgd1na2vs0mg"},{"bike_id":"463a290c-c5be-4174-a32f-730bd0f7139d","system_id":"levelo_inurba_marseille","lat":43.28468,"lon":5.38417,"is_reserved":false,"is_disabled":false,"rental_uris":{"android":"levelo://app?vid=463a290c-c5be-4174-a32f-730bd0f7139d","ios":"levelo://app?vid=463a290c-c5be-4174-a32f-730bd0f7139d"},"vehicle_type_id":"4","last_reported":1762708074,"current_range_meters":12400,"station_id":"ce4bh512rcd13ifvqe3g","pricing_plan_id":"cebpf4jnsgd1na2vs0mg"},{"bike_id":"cb244d29-0b13-4592-9dbe-0ce5927dd4d8","system_id":"levelo_inurba_marseille","lat":43.302567,"lon":5.400717,"is_reserved":false,"is_disabled":false,"rental_uris":{"android":"levelo://app?vid=cb244d29-0b13-4592-9dbe-0ce5927dd4d8","ios":"levelo://app?vid=cb244d29-0b13-4592-9dbe-0ce5927dd4d8"},"vehicle_type_id":"4","last_reported":1762708074,"current_range_meters":12400,"station_id":"ce4bgvh2rcd13ifvqcs0","pricing_plan_id":"cebpf4jnsgd1na2vs0mg"},{"bike_id":"68e2a4eb-9515-41fd-aa1c-8497e40ac482","system_id":"levelo_inurba_marseille","lat":43.29887,"lon":5.38133,"is_reserved":false,"is_disabled":true,"rental_uris":{"android":"levelo://app?vid=68e2a4eb-9515-41fd-aa1c-8497e40ac482","ios":"levelo://app?vid=68e2a4eb-9515-41fd-aa1c-8497e40ac482"},"vehicle_type_id":"4","last_reported":1762708074,"current_range_meters":12400,"station_id":"ce4bgj12rcd13ifvqbc0","pricing_plan_id":"cebpf4jnsgd1na2vs0mg"},{"bike_id":"84397bcb-ee0b-476f-92a3-2addcb255b45","system_id":"levelo_inurba_marseille","lat":43.254094,"lon":5.376328,"is_reserved":false,"is_disabled":false,"rental_uris":{"android":"levelo://app?vid=84397bcb-ee0b-476f-92a3-2addcb255b45","ios":"levelo://app?vid=84397bcb-ee0b-476f-92a3-2addcb255b45"},"vehicle_type_id":"4","last_reported":1762708074,"current_range_meters":12400,"station_id":"ce4bhh12rcd13ifvqff0","pricing_plan_id":"cebpf4jnsgd1na2vs0mg"},{"bike_id":"198b024a-fce3-4f98-aeba-c415d42b587c","system_id":"levelo_inurba_marseille","lat":43.29192,"lon":5.39313,"is_reserved":false,"is_disabled":false,"rental_uris":{"android":"levelo://app?vid=198b024a-fce3-4f98-aeba-c415d42b587c","ios":"levelo://app?vid=198b024a-fce3-4f98-aeba-c415d42b587c"},"vehicle_type_id":"4","last_reported":1762708074,"current_range_meters":12800,"station_id":"","pricing_plan_id":"cebpf4jnsgd1na2vs0mg"},{"bike_id":"31948292-19c6-4fc4-a2a4-c59b8b252d1f","system_id":"levelo_inurba_marseille","lat":43.284821,"lon":5.384227,"is_reserved":false,"is_disabled":false,"rental_uris":{"android":"levelo://app?vid=31948292-19c6-4fc4-a2a4-c59b8b252d1f","ios":"levelo://app?vid=31948292-19c6-4fc4-a2a4-c59b8b252d1f"},"vehicle_type_id":"4","last_reported":1762708074,"current_range_meters":12800,"station_id":"ce4bh512rcd13ifvqe3g","pricing_plan_id":"cebpf4jnsgd1na2vs0mg"},{"bike_id":"4b668a53-f77f-417a-8972-eb06cd6f6b94","system_id":"levelo_inurba_marseille","lat":43.29969,"lon":5.37176,"is_reserved":false,"is_disabled":false,"rental_uris":{"android":"levelo://app?vid=4b668a53-f77f-417a-8972-eb06cd6f6b94","ios":"levelo://app?vid=4b668a53-f77f-417a-8972-eb06cd6f6b94"},"vehicle_type_id":"4","last_reported":1762708074,"current_range_meters":12800,"station_id":"ce4bgr92rcd13ifvqc7g","pricing_plan_id":"cebpf4jnsgd1na2vs0mg"},{"bike_id":"4eac3eb9-9ac1-4ff6-ad57-ed359befeed2","system_id":"levelo_inurba_marseille","lat":43.22871,"lon":5.40222,"is_reserved":false,"is_disabled":false,"rental_uris":{"android":"levelo://app?vid=4eac3eb9-9ac1-4ff6-ad57-ed359befeed2","ios":"levelo://app?vid=4eac3eb9-9ac1-4ff6-ad57-ed359befeed2"},"vehicle_type_id":"4","last_reported":1762708074,"current_range_meters":12800,"station_id":"","pricing_plan_id":"cebpf4jnsgd1na2vs0mg"},{"bike_id":"f6990166-8c3b-4c66-8f62-880bad0dfa4b","system_id":"levelo_inurba_marseille","lat":43.22561,"lon":5.41631,"is_reserved":false,"is_disabled":false,"rental_uris":{"android":"levelo://app?vid=f6990166-8c3b-4c66-8f62-880bad0dfa4b","ios":"levelo://app?vid=f6990166-8c3b-4c66-8f62-880bad0dfa4b"},"vehicle_type_id":"4","last_reported":1762708074,"current_range_meters":12800,"station_id":"st_d2o4gvlbi1j2169b742g","pricing_plan_id":"cebpf4jnsgd1na2vs0mg"},{"bike_id":"d8a2355e-a776-4b85-8a3e-22368796688d","system_id":"levelo_inurba_marseille","lat":43.30804,"lon":5.36838,"is_reserved":false,"is_disabled":false,"rental_uris":{"android":"levelo://app?vid=d8a2355e-a776-4b85-8a3e-22368796688d","ios":"levelo://app?vid=d8a2355e-a776-4b85-8a3e-22368796688d"},"vehicle_type_id":"4","last_reported":1762708074,"current_range_meters":12800,"station_id":"","pricing_plan_id":"cebpf4jnsgd1na2vs0mg"},{"bike_id":"5f51530e-ad6d-4525-9dbe-df8ccdff7435","system_id":"levelo_inurba_marseille","lat":43.31597,"lon":5.38201,"is_reserved":false,"is_disabled":false,"rental_uris":{"android":"levelo://app?vid=5f51530e-ad6d-4525-9dbe-df8ccdff7435","ios":"levelo://app?vid=5f51530e-ad6d-4525-9dbe-df8ccdff7435"},"vehicle_type_id":"4","last_reported":1762708074,"current_range_meters":12800,"station_id":"","pricing_plan_id":"cebpf4jnsgd1na2vs0mg"},{"bike_id":"fc956e11-57db-4aee-92a3-c882c2983839","system_id":"levelo_inurba_marseille","lat":43.28567,"lon":5.39496,"is_reserved":false,"is_disabled":false,"rental_uris":{"android":"levelo://app?vid=fc956e11-57db-4aee-92a3-c882c2983839","ios":"levelo://app?vid=fc956e11-57db-4aee-92a3-c882c2983839"},"vehicle_type_id":"4","last_reported":1762708074,"current_range_meters":13600,"station_id":"ce4bh292rcd13ifvqdg0","pricing_plan_id":"cebpf4jnsgd1na2vs0mg"},{"bike_id":"a6883ff0-f607-46ba-a664-f3fb248008fc","system_id":"levelo_inurba_marseille","lat":43.2509,"lon":5.39522,"is_reserved":false,"is_disabled":false,"rental_uris":{"android":"levelo://app?vid=a6883ff0-f607-46ba-a664-f3fb248008fc","ios":"levelo://app?vid=a6883ff0-f607-46ba-a664-f3fb248008fc"},"vehicle_type_id":"4","last_reported":1762708074,"current_range_meters":13600,"station_id":"ce4bhm12rcd13ifvqgkg","pricing_plan_id":"cebpf4jnsgd1na2vs0mg"},{"bike_id":"fee4f445-bba8-4be4-a3da-4decf51271b2","system_id":"levelo_inurba_marseille","lat":43.31833,"lon":5.40719,"is_reserved":false,"is_disabled":false,"rental_uris":{"android":"levelo://app?vid=fee4f445-bba8-4be4-a3da-4decf51271b2","ios":"levelo://app?vid=fee4f445-bba8-4be4-a3da-4decf51271b2"},"vehicle_type_id":"4","last_reported":1762708074,"current_range_meters":13600,"station_id":"","pricing_plan_id":"cebpf4jnsgd1na2vs0mg"},{"bike_id":"b5a3ef7a-41d5-43bf-a4ee-77532ab66e4e","system_id":"levelo_inurba_marseille","lat":43.30216,"lon":5.37432,"is_reserved":false,"is_disabled":false,"rental_uris":{"android":"levelo://app?vid=b5a3ef7a-41d5-43bf-a4ee-77532ab66e4e","ios":"levelo://app?vid=b5a3ef7a-41d5-43bf-a4ee-77532ab66e4e"},"vehicle_type_id":"4","last_reported":1762708074,"current_range_meters":13600,"station_id":"","pricing_plan_id":"cebpf4jnsgd1na2vs0mg"},{"bike_id":"792cee93-cde8-4934-8200-ff144466056c","system_id":"levelo_inurba_marseille","lat":43.28228,"lon":5.39079,"is_reserved":false,"is_disabled":false,"rental_uris":{"android":"levelo://app?vid=792cee93-cde8-4934-8200-ff144466056c","ios":"levelo://app?vid=792cee93-cde8-4934-8200-ff144466056c"},"vehicle_type_id":"4","last_reported":1762708074,"current_range_meters":13600,"station_id":"ce4bhn92rcd13ifvqgsg","pricing_plan_id":"cebpf4jnsgd1na2vs0mg"},{"bike_id":"7fbd1ff9-4b4c-41ae-8d84-cca75e8f7f8a","system_id":"levelo_inurba_marseille","lat":43.27331,"lon":5.39088,"is_reserved":false,"is_disabled":false,"rental_uris":{"android":"levelo://app?vid=7fbd1ff9-4b4c-41ae-8d84-cca75e8f7f8a","ios":"levelo://app?vid=7fbd1ff9-4b4c-41ae-8d84-cca75e8f7f8a"},"vehicle_type_id":"4","last_reported":1762708074,"current_range_meters":13600,"station_id":"ce4bhgp2rcd13ifvqfe0","pricing_plan_id":"cebpf4jnsgd1na2vs0mg"},{"bike_id":"2225e6f9-b8fc-411b-815a-7ab046339893","system_id":"levelo_inurba_marseille","lat":43.28462,"lon":5.35851,"is_reserved":false,"is_disabled":false,"rental_uris":{"android":"levelo://app?vid=2225e6f9-b8fc-411b-815a-7ab046339893","ios":"levelo://app?vid=2225e6f9-b8fc-411b-815a-7ab046339893"},"vehicle_type_id":"4","last_reported":1762708074,"current_range_meters":13600,"station_id":"ce4bhah2rcd13ifvqei0","pricing_plan_id":"cebpf4jnsgd1na2vs0mg"},{"bike_id":"61a72d0e-7530-4bfe-a071-573c27c4b8aa","system_id":"levelo_inurba_marseille","lat":43.31073,"lon":5.38357,"is_reserved":false,"is_disabled":false,"rental_uris":{"android":"levelo://app?vid=61a72d0e-7530-4bfe-a071-573c27c4b8aa","ios":"levelo://app?vid=61a72d0e-7530-4bfe-a071-573c27c4b8aa"},"vehicle_type_id":"4","last_reported":1762708074,"current_range_meters":13600,"station_id":"ce4bgv92rcd13ifvqcr0","pricing_plan_id":"cebpf4jnsgd1na2vs0mg"},{"bike_id":"880703f3-1e3f-4260-9fa2-773c46cc13e0","system_id":"levelo_inurba_marseille","lat":43.291944,"lon":5.393203,"is_reserved":false,"is_disabled":false,"rental_uris":{"android":"levelo://app?vid=880703f3-1e3f-4260-9fa2-773c46cc13e0","ios":"levelo://app?vid=880703f3-1e3f-4260-9fa2-773c46cc13e0"},"vehicle_type_id":"4","last_reported":1762708074,"current_range_meters":13600,"station_id":"ce4bh192rcd13ifvqdd0","pricing_plan_id":"cebpf4jnsgd1na2vs0mg"},{"bike_id":"0c4dd1d1-df8d-43aa-85c2-e067a91c7391","system_id":"levelo_inurba_marseille","lat":43.29273,"lon":5.36839,"is_reserved":false,"is_disabled":false,"rental_uris":{"android":"levelo://app?vid=0c4dd1d1-df8d-43aa-85c2-e067a91c7391","ios":"levelo://app?vid=0c4dd1d1-df8d-43aa-85c2-e067a91c7391"},"vehicle_type_id":"4","last_reported":1762708074,"current_range_meters":13600,"station_id":"ce4bhbp2rcd13ifvqesg","pricing_plan_id":"cebpf4jnsgd1na2vs0mg"},{"bike_id":"3ef6734d-ee33-4d2b-ba93-98ac7021046c","system_id":"levelo_inurba_marseille","lat":43.28696,"lon":5.37387,"is_reserved":false,"is_disabled":false,"rental_uris":{"android":"levelo://app?vid=3ef6734d-ee33-4d2b-ba93-98ac7021046c","ios":"levelo://app?vid=3ef6734d-ee33-4d2b-ba93-98ac7021046c"},"vehicle_type_id":"4","last_reported":1762708074,"current_range_meters":14000,"station_id":"ce4bh3p2rcd13ifvqdq0","pricing_plan_id":"cebpf4jnsgd1na2vs0mg"},{"bike_id":"dec615cf-a774-425e-a470-63523c85a0cf","system_id":"levelo_inurba_marseille","lat":43.27671,"lon":5.38865,"is_reserved":false,"is_disabled":false,"rental_uris":{"android":"levelo://app?vid=dec615cf-a774-425e-a470-63523c85a0cf","ios":"levelo://app?vid=dec615cf-a774-425e-a470-63523c85a0cf"},"vehicle_type_id":"4","last_reported":1762708074,"current_range_meters":14000,"station_id":"ce4bhi12rcd13ifvqfo0","pricing_plan_id":"cebpf4jnsgd1na2vs0mg"},{"bike_id":"f08621f1-92b2-4985-8a3a-96dd283a7c2b","system_id":"levelo_inurba_marseille","lat":43.31354,"lon":5.37932,"is_reserved":false,"is_disabled":false,"rental_uris":{"android":"levelo://app?vid=f08621f1-92b2-4985-8a3a-96dd283a7c2b","ios":"levelo://app?vid=f08621f1-92b2-4985-8a3a-96dd283a7c2b"},"vehicle_type_id":"4","last_reported":1762708074,"current_range_meters":14000,"station_id":"","pricing_plan_id":"cebpf4jnsgd1na2vs0mg"},{"bike_id":"819643e0-75a1-4796-afef-8e5f318a5dda","system_id":"levelo_inurba_marseille","lat":43.308698,"lon":5.36833,"is_reserved":false,"is_disabled":false,"rental_uris":{"android":"levelo://app?vid=819643e0-75a1-4796-afef-8e5f318a5dda","ios":"levelo://app?vid=819643e0-75a1-4796-afef-8e5f318a5dda"},"vehicle_type_id":"4","last_reported":1762708074,"current_range_meters":14000,"station_id":"ce4bgn92rcd13ifvqbvg","pricing_plan_id":"cebpf4jnsgd1na2vs0mg"},{"bike_id":"47c84682-677e-49f6-afff-32576d2806a6","system_id":"levelo_inurba_marseille","lat":43.3127,"lon":5.40165,"is_reserved":false,"is_disabled":false,"rental_uris":{"android":"levelo://app?vid=47c84682-677e-49f6-afff-32576d2806a6","ios":"levelo://app?vid=47c84682-677e-49f6-afff-32576d2806a6"},"vehicle_type_id":"4","last_reported":1762708074,"current_range_meters":14400,"station_id":"ce4bh092rcd13ifvqd30","pricing_plan_id":"cebpf4jnsgd1na2vs0mg"},{"bike_id":"1e40bf4a-2a1a-44b7-b08a-f8e06a146d4c","system_id":"levelo_inurba_marseille","lat":43.28031,"lon":5.36956,"is_reserved":false,"is_disabled":false,"rental_uris":{"android":"levelo://app?vid=1e40bf4a-2a1a-44b7-b08a-f8e06a146d4c","ios":"levelo://app?vid=1e40bf4a-2a1a-44b7-b08a-f8e06a146d4c"},"vehicle_type_id":"4","last_reported":1762708074,"current_range_meters":14400,"station_id":"ce4bha12rcd13ifvqef0","pricing_plan_id":"cebpf4jnsgd1na2vs0mg"},{"bike_id":"062032e1-fdcc-4a2c-85d8-7ca14269cc2e","system_id":"levelo_inurba_marseille","lat":43.31075,"lon":5.42427,"is_reserved":false,"is_disabled":false,"rental_uris":{"android":"levelo://app?vid=062032e1-fdcc-4a2c-85d8-7ca14269cc2e","ios":"levelo://app?vid=062032e1-fdcc-4a2c-85d8-7ca14269cc2e"},"vehicle_type_id":"4","last_reported":1762708074,"current_range_meters":14400,"station_id":"ce4bhp92rcd13ifvqhag","pricing_plan_id":"cebpf4jnsgd1na2vs0mg"},{"bike_id":"a0b0d528-5dd2-4940-a944-012d4f0da37b","system_id":"levelo_inurba_marseille","lat":43.31225,"lon":5.36869,"is_reserved":false,"is_disabled":false,"rental_uris":{"android":"levelo://app?vid=a0b0d528-5dd2-4940-a944-012d4f0da37b","ios":"levelo://app?vid=a0b0d528-5dd2-4940-a944-012d4f0da37b"},"vehicle_type_id":"4","last_reported":1762708074,"current_range_meters":14400,"station_id":"ce4bgl92rcd13ifvqbq0","pricing_plan_id":"cebpf4jnsgd1na2vs0mg"},{"bike_id":"3f229283-4156-40f5-8b33-733d496807b4","system_id":"levelo_inurba_marseille","lat":43.29282,"lon":5.37286,"is_reserved":false,"is_disabled":false,"rental_uris":{"android":"levelo://app?vid=3f229283-4156-40f5-8b33-733d496807b4","ios":"levelo://app?vid=3f229283-4156-40f5-8b33-733d496807b4"},"vehicle_type_id":"4","last_reported":1762708074,"current_range_meters":14400,"station_id":"","pricing_plan_id":"cebpf4jnsgd1na2vs0mg"},{"bike_id":"970709d9-5b24-44bb-beb3-4dbbfc3d4098","system_id":"levelo_inurba_marseille","lat":43.287183,"lon":5.399485,"is_reserved":false,"is_disabled":true,"rental_uris":{"android":"levelo://app?vid=970709d9-5b24-44bb-beb3-4dbbfc3d4098","ios":"levelo://app?vid=970709d9-5b24-44bb-beb3-4dbbfc3d4098"},"vehicle_type_id":"4","last_reported":1762708074,"current_range_meters":14400,"station_id":"ce4bho92rcd13ifvqh3g","pricing_plan_id":"cebpf4jnsgd1na2vs0mg"},{"bike_id":"5ca02541-368a-48a2-b167-b685742da8f8","system_id":"levelo_inurba_marseille","lat":43.30304,"lon":5.39208,"is_reserved":false,"is_disabled":false,"rental_uris":{"android":"levelo://app?vid=5ca02541-368a-48a2-b167-b685742da8f8","ios":"levelo://app?vid=5ca02541-368a-48a2-b167-b685742da8f8"},"vehicle_type_id":"4","last_reported":1762708074,"current_range_meters":14400,"station_id":"ce4bgkh2rcd13ifvqbk0","pricing_plan_id":"cebpf4jnsgd1na2vs0mg"},{"bike_id":"d7c7bb5e-282c-466d-81b9-223bd7cfd548","system_id":"levelo_inurba_marseille","lat":43.287878,"lon":5.362992,"is_reserved":false,"is_disabled":false,"rental_uris":{"android":"levelo://app?vid=d7c7bb5e-282c-466d-81b9-223bd7cfd548","ios":"levelo://app?vid=d7c7bb5e-282c-466d-81b9-223bd7cfd548"},"vehicle_type_id":"4","last_reported":1762708074,"current_range_meters":14400,"station_id":"cki0cbj6b192h4jlfktg","pricing_plan_id":"cebpf4jnsgd1na2vs0mg"},{"bike_id":"4f7d80f0-f28e-4e61-a14e-488c741e0f56","system_id":"levelo_inurba_marseille","lat":43.30601,"lon":5.37212,"is_reserved":false,"is_disabled":false,"rental_uris":{"android":"levelo://app?vid=4f7d80f0-f28e-4e61-a14e-488c741e0f56","ios":"levelo://app?vid=4f7d80f0-f28e-4e61-a14e-488c741e0f56"},"vehicle_type_id":"4","last_reported":1762708074,"current_range_meters":14800,"station_id":"ce4bgqh2rcd13ifvqc4g","pricing_plan_id":"cebpf4jnsgd1na2vs0mg"},{"bike_id":"1b608766-d12f-43b3-8b68-b0135e72a218","system_id":"levelo_inurba_marseille","lat":43.30244,"lon":5.40047,"is_reserved":false,"is_disabled":true,"rental_uris":{"android":"levelo://app?vid=1b608766-d12f-43b3-8b68-b0135e72a218","ios":"levelo://app?vid=1b608766-d12f-43b3-8b68-b0135e72a218"},"vehicle_type_id":"4","last_reported":1762708074,"current_range_meters":14800,"station_id":"ce4bgvh2rcd13ifvqcs0","pricing_plan_id":"cebpf4jnsgd1na2vs0mg"},{"bike_id":"4ab9847f-31fc-4a91-ae16-90168b5b9e42","system_id":"levelo_inurba_marseille","lat":43.340825,"lon":5.409937,"is_reserved":false,"is_disabled":false,"rental_uris":{"android":"levelo://app?vid=4ab9847f-31fc-4a91-ae16-90168b5b9e42","ios":"levelo://app?vid=4ab9847f-31fc-4a91-ae16-90168b5b9e42"},"vehicle_type_id":"4","last_reported":1762708074,"current_range_meters":14800,"station_id":"ce4bhqh2rcd13ifvqhlg","pricing_plan_id":"cebpf4jnsgd1na2vs0mg"},{"bike_id":"be7d44a9-c2ac-4470-9b15-8b11d6742a31","system_id":"levelo_inurba_marseille","lat":43.27446,"lon":5.39375,"is_reserved":false,"is_disabled":false,"rental_uris":{"android":"levelo://app?vid=be7d44a9-c2ac-4470-9b15-8b11d6742a31","ios":"levelo://app?vid=be7d44a9-c2ac-4470-9b15-8b11d6742a31"},"vehicle_type_id":"4","last_reported":1762708074,"current_range_meters":15200,"station_id":"ce4bhdp2rcd13ifvqf20","pricing_plan_id":"cebpf4jnsgd1na2vs0mg"},{"bike_id":"a9d08e4c-0813-4aef-85b1-1d50cf456f69","system_id":"levelo_inurba_marseille","lat":43.2174,"lon":5.34613,"is_reserved":false,"is_disabled":true,"rental_uris":{"android":"levelo://app?vid=a9d08e4c-0813-4aef-85b1-1d50cf456f69","ios":"levelo://app?vid=a9d08e4c-0813-4aef-85b1-1d50cf456f69"},"vehicle_type_id":"4","last_reported":1762708074,"current_range_meters":15200,"station_id":"st_cvj6r9ubvosntc0bgbag","pricing_plan_id":"cebpf4jnsgd1na2vs0mg"},{"bike_id":"f4cd1f76-686b-443b-bf62-c78f0f11dda9","system_id":"levelo_inurba_marseille","lat":43.28377,"lon":5.37525,"is_reserved":false,"is_disabled":true,"rental_uris":{"android":"levelo://app?vid=f4cd1f76-686b-443b-bf62-c78f0f11dda9","ios":"levelo://app?vid=f4cd1f76-686b-443b-bf62-c78f0f11dda9"},"vehicle_type_id":"4","last_reported":1762708074,"current_range_meters":15200,"station_id":"ce4bh412rcd13ifvqds0","pricing_plan_id":"cebpf4jnsgd1na2vs0mg"},{"bike_id":"ab4ac132-5519-4aac-ac12-8b8c2929bb7e","system_id":"levelo_inurba_marseille","lat":43.32302,"lon":5.38493,"is_reserved":false,"is_disabled":false,"rental_uris":{"android":"levelo://app?vid=ab4ac132-5519-4aac-ac12-8b8c2929bb7e","ios":"levelo://app?vid=ab4ac132-5519-4aac-ac12-8b8c2929bb7e"},"vehicle_type_id":"4","last_reported":1762708074,"current_range_meters":15200,"station_id":"st_d45171o9ee8s73djdqug","pricing_plan_id":"cebpf4jnsgd1na2vs0mg"},{"bike_id":"b6ba799f-93a0-474d-970a-cd786094f7da","system_id":"levelo_inurba_marseille","lat":43.284731,"lon":5.384587,"is_reserved":false,"is_disabled":true,"rental_uris":{"android":"levelo://app?vid=b6ba799f-93a0-474d-970a-cd786094f7da","ios":"levelo://app?vid=b6ba799f-93a0-474d-970a-cd786094f7da"},"vehicle_type_id":"4","last_reported":1762708074,"current_range_meters":15200,"station_id":"ce4bh512rcd13ifvqe3g","pricing_plan_id":"cebpf4jnsgd1na2vs0mg"},{"bike_id":"f0f552c9-dd5b-44e5-8d71-e97f687d54ee","system_id":"levelo_inurba_marseille","lat":43.28418,"lon":5.34986,"is_reserved":false,"is_disabled":true,"rental_uris":{"android":"levelo://app?vid=f0f552c9-dd5b-44e5-8d71-e97f687d54ee","ios":"levelo://app?vid=f0f552c9-dd5b-44e5-8d71-e97f687d54ee"},"vehicle_type_id":"4","last_reported":1762708074,"current_range_meters":15200,"station_id":"ce4bhbh2rcd13ifvqepg","pricing_plan_id":"cebpf4jnsgd1na2vs0mg"},{"bike_id":"36e770cb-4419-4f19-8296-f3a6ed30f840","system_id":"levelo_inurba_marseille","lat":43.29434,"lon":5.374383,"is_reserved":false,"is_disabled":false,"rental_uris":{"android":"levelo://app?vid=36e770cb-4419-4f19-8296-f3a6ed30f840","ios":"levelo://app?vid=36e770cb-4419-4f19-8296-f3a6ed30f840"},"vehicle_type_id":"4","last_reported":1762708074,"current_range_meters":15200,"station_id":"ce4bgi12rcd13ifvqb70","pricing_plan_id":"cebpf4jnsgd1na2vs0mg"},{"bike_id":"19a5c246-94c5-46a9-a00a-fac08429d38c","system_id":"levelo_inurba_marseille","lat":43.30297,"lon":5.39211,"is_reserved":false,"is_disabled":false,"rental_uris":{"android":"levelo://app?vid=19a5c246-94c5-46a9-a00a-fac08429d38c","ios":"levelo://app?vid=19a5c246-94c5-46a9-a00a-fac08429d38c"},"vehicle_type_id":"4","last_reported":1762708074,"current_range_meters":15200,"station_id":"ce4bgkh2rcd13ifvqbk0","pricing_plan_id":"cebpf4jnsgd1na2vs0mg"},{"bike_id":"c8f66e21-9d6d-4294-90ca-52dae71f5a38","system_id":"levelo_inurba_marseille","lat":43.296265,"lon":5.377138,"is_reserved":false,"is_disabled":false,"rental_uris":{"android":"levelo://app?vid=c8f66e21-9d6d-4294-90ca-52dae71f5a38","ios":"levelo://app?vid=c8f66e21-9d6d-4294-90ca-52dae71f5a38"},"vehicle_type_id":"4","last_reported":1762708074,"current_range_meters":16000,"station_id":"ce4bgi92rcd13ifvqb90","pricing_plan_id":"cebpf4jnsgd1na2vs0mg"},{"bike_id":"223ff284-1b4b-4e36-81cf-8cc8ee90d3bc","system_id":"levelo_inurba_marseille","lat":43.30542,"lon":5.38419,"is_reserved":false,"is_disabled":false,"rental_uris":{"android":"levelo://app?vid=223ff284-1b4b-4e36-81cf-8cc8ee90d3bc","ios":"levelo://app?vid=223ff284-1b4b-4e36-81cf-8cc8ee90d3bc"},