{"last_updated":1737486418,"ttl":60,"version":"2.2","data":{"bikes":[{"bike_id":"a319178b-5f98-41a6-9d48-283823ef5830","system_id":"levelo_inurba_marseille","lat":43.31725,"lon":5.40451,"is_reserved":false,"is_disabled":false,"rental_uris":{"android":"levelo://app?vid=a319178b-5f98-41a6-9d48-283823ef5830","ios":"levelo://app?vid=a319178b-5f98-41a6-9d48-283823ef5830"},"vehicle_type_id":"4","last_reported":1737486418,"current_range_meters":30000,"station_id":"ce4bh012rcd13ifvqd00","pricing_plan_id":"cebpf4jnsgd1na2vs0mg"},{"bike_id":"0fcc71e3-2624-43dd-986b-24fced952228","system_id":"levelo_inurba_marseille","lat":43.31717,"lon":5.42397,"is_reserved":false,"is_disabled":false,"rental_uris":{"android":"levelo://app?vid=0fcc71e3-2624-43dd-986b-24fced952228","ios":"levelo://app?vid=0fcc71e3-2624-43dd-986b-24fced952228"},"vehicle_type_id":"4","last_reported":1737486418,"current_range_meters":32000,"station_id":"ce4bhp92rcd13ifvqhbg","pricing_plan_id":"cebpf4jnsgd1na2vs0mg"},{"bike_id":"15ff19e5-2a66-4f3c-ab74-1c5e066fdbc4","system_id":"levelo_inurba_marseille","lat":43.29269,"lon":5.38437,"is_reserved":false,"is_disabled":false,"rental_uris":{"android":"levelo://app?vid=15ff19e5-2a66-4f3c-ab74-1c5e066fdbc4","ios":"levelo://app?vid=15ff19e5-2a66-4f3c-ab74-1c5e066fdbc4"},"vehicle_type_id":"4","last_reported":1737486418,"current_range_meters":10800,"station_id":"ce4bh692rcd13ifvqea0","pricing_plan_id":"cebpf4jnsgd1na2vs0mg"},{"bike_id":"d3702038-bd9f-4bca-898b-6971e8b60969","system_id":"levelo_inurba_marseille","lat":43.27623,"lon":5.36112,"is_reserved":false,"is_disabled":false,"rental_uris":{"android":"levelo://app?vid=d3702038-bd9f-4bca-898b-6971e8b60969","ios":"levelo://app?vid=d3702038-bd9f-4bca-898b-6971e8b60969"},"vehicle_type_id":"4","last_reported":1737486418,"current_range_meters":38400,"station_id":"ce4bgj92rcd13ifvqbe0","pricing_plan_id":"cebpf4jnsgd1na2vs0mg"},{"bike_id":"3948ea88-cf3f-4efe-ace3-cb99aab83717","system_id":"levelo_inurba_marseille","lat":43.28603,"lon":5.35125,"is_reserved":false,"is_disabled":false,"rental_uris":{"android":"levelo://app?vid=3948ea88-cf3f-4efe-ace3-cb99aab83717","ios":"levelo://app?vid=3948ea88-cf3f-4efe-ace3-cb99aab83717"},"vehicle_type_id":"4","last_reported":1737486418,"current_range_meters":25600,"station_id":"ce4bhch2rcd13ifvqeug","pricing_plan_id":"cebpf4jnsgd1na2vs0mg"},{"bike_id":"55dbad9e-5e23-4ba1-9963-87f7576ac874","system_id":"levelo_inurba_marseille","lat":43.28151,"lon":5.42649,"is_reserved":false,"is_disabled":false,"rental_uris":{"android":"levelo://app?vid=55dbad9e-5e23-4ba1-9963-87f7576ac874","ios":"levelo://app?vid=55dbad9e-5e23-4ba1-9963-87f7576ac874"},"vehicle_type_id":"4","last_reported":1737486418,"current_range_meters":39200,"station_id":"ce4bhnh2rcd13ifvqgug","pricing_plan_id":"cebpf4jnsgd1na2vs0mg"},{"bike_id":"61aa1f1e-08bf-47e0-9ef8-f4c88863cb4e","system_id":"levelo_inurba_marseille","lat":43.3132,"lon":5.39696,"is_reserved":false,"is_disabled":false,"rental_uris":{"android":"levelo://app?vid=61aa1f1e-08bf-47e0-9ef8-f4c88863cb4e","ios":"levelo://app?vid=61aa1f1e-08bf-47e0-9ef8-f4c88863cb4e"},"vehicle_type_id":"4","last_reported":1737486418,"current_range_meters":26000,"station_id":"ce4bgvp2rcd13ifvqcu0","pricing_plan_id":"cebpf4jnsgd1na2vs0mg"},{"bike_id":"579da97f-04e4-4a85-bf0e-7715dc714586","system_id":"levelo_inurba_marseille","lat":43.28704,"lon":5.37397,"is_reserved":false,"is_disabled":false,"rental_uris":{"android":"levelo://app?vid=579da97f-04e4-4a85-bf0e-7715dc714586","ios":"levelo://app?vid=579da97f-04e4-4a85-bf0e-7715dc714586"},"vehicle_type_id":"4","last_reported":1737486418,"current_range_meters":39200,"station_id":"ce4bh3p2rcd13ifvqdq0","pricing_plan_id":"cebpf4jnsgd1na2vs0mg"},{"bike_id":"e9e9e41e-68b7-4380-8f77-bbca30747476","system_id":"levelo_inurba_marseille","lat":43.28656,"lon":5.36354,"is_reserved":false,"is_disabled":false,"rental_uris":{"android":"levelo://app?vid=e9e9e41e-68b7-4380-8f77-bbca30747476","ios":"levelo://app?vid=e9e9e41e-68b7-4380-8f77-bbca30747476"},"vehicle_type_id":"4","last_reported":1737486418,"current_range_meters":22000,"station_id":"ce4bhah2rcd13ifvqej0","pricing_plan_id":"cebpf4jnsgd1na2vs0mg"},{"bike_id":"7bb5cbe7-960b-4bbe-abf2-43db3023ead0","system_id":"levelo_inurba_marseille","lat":43.29626,"lon":5.37144,"is_reserved":false,"is_disabled":false,"rental_uris":{"android":"levelo://app?vid=7bb5cbe7-960b-4bbe-abf2-43db3023ead0","ios":"levelo://app?vid=7bb5cbe7-960b-4bbe-abf2-43db3023ead0"},"vehicle_type_id":"4","last_reported":1737486418,"current_range_meters":38400,"station_id":"ce4bgnh2rcd13ifvqc0g","pricing_plan_id":"cebpf4jnsgd1na2vs0mg"},{"bike_id":"d828c6c0-2857-4d4f-a9aa-7c7d934ecae7","system_id":"levelo_inurba_marseille","lat":43.25086,"lon":5.39516,"is_reserved":false,"is_disabled":false,"rental_uris":{"android":"levelo://app?vid=d828c6c0-2857-4d4f-a9aa-7c7d934ecae7","ios":"levelo://app?vid=d828c6c0-2857-4d4f-a9aa-7c7d934ecae7"},"vehicle_type_id":"4","last_reported":1737486418,"current_range_meters":10000,"station_id":"ce4bhm12rcd13ifvqgkg","pricing_plan_id":"cebpf4jnsgd1na2vs0mg"},{"bike_id":"ab85e102-e8bc-48d9-ac36-4d53a9a08718","system_id":"levelo_inurba_marseille","lat":43.29897,"lon":5.39721,"is_reserved":false,"is_disabled":false,"rental_uris":{"android":"levelo://app?vid=ab85e102-e8bc-48d9-ac36-4d53a9a08718","ios":"levelo://app?vid=ab85e102-e8bc-48d9-ac36-4d53a9a08718"},"vehicle_type_id":"4","last_reported":1737486418,"current_range_meters":38800,"station_id":"ce4bh0h2rcd13ifvqd50","pricing_plan_id":"cebpf4jnsgd1na2vs0mg"},{"bike_id":"fd2df14c-06df-4a14-b670-7375c6433489","system_id":"levelo_inurba_marseille","lat":43.29529,"lon":5.38544,"is_reserved":false,"is_disabled":false,"rental_uris":{"android":"levelo://app?vid=fd2df14c-06df-4a14-b670-7375c6433489","ios":"levelo://app?vid=fd2df14c-06df-4a14-b670-7375c6433489"},"vehicle_type_id":"4","last_reported":1737486418,"current_range_meters":18000,"station_id":"ce4bgih2rcd13ifvqba0","pricing_plan_id":"cebpf4jnsgd1na2vs0mg"},{"bike_id":"2948c027-3674-4ca2-a017-33393e39f681","system_id":"levelo_inurba_marseille","lat":43.28003,"lon":5.39999,"is_reserved":false,"is_disabled":false,"rental_uris":{"android":"levelo://app?vid=2948c027-3674-4ca2-a017-33393e39f681","ios":"levelo://app?vid=2948c027-3674-4ca2-a017-33393e39f681"},"vehicle_type_id":"4","last_reported":1737486418,"current_range_meters":9200,"station_id":"ce4bho92rcd13ifvqh4g","pricing_plan_id":"cebpf4jnsgd1na2vs0mg"},{"bike_id":"549c3120-8a46-4f1e-a28b-a21a94795783","system_id":"levelo_inurba_marseille","lat":43.27618,"lon":5.36112,"is_reserved":false,"is_disabled":false,"rental_uris":{"android":"levelo://app?vid=549c3120-8a46-4f1e-a28b-a21a94795783","ios":"levelo://app?vid=549c3120-8a46-4f1e-a28b-a21a94795783"},"vehicle_type_id":"4","last_reported":1737486418,"current_range_meters":34800,"station_id":"ce4bgj92rcd13ifvqbe0","pricing_plan_id":"cebpf4jnsgd1na2vs0mg"},{"bike_id":"06cfd958-c471-4dfe-8613-29275f91d3d2","system_id":"levelo_inurba_marseille","lat":43.29056,"lon":5.37155,"is_reserved":false,"is_disabled":false,"rental_uris":{"android":"levelo://app?vid=06cfd958-c471-4dfe-8613-29275f91d3d2","ios":"levelo://app?vid=06cfd958-c471-4dfe-8613-29275f91d3d2"},"vehicle_type_id":"4","last_reported":1737486418,"current_range_meters":38800,"station_id":"ce4bh5p2rcd13ifvqe4g","pricing_plan_id":"cebpf4jnsgd1na2vs0mg"},{"bike_id":"a2771881-b956-4a9a-9bc9-a89642d437c9","system_id":"levelo_inurba_marseille","lat":43.23205,"lon":5.3555,"is_reserved":false,"is_disabled":false,"rental_uris":{"android":"levelo://app?vid=a2771881-b956-4a9a-9bc9-a89642d437c9","ios":"levelo://app?vid=a2771881-b956-4a9a-9bc9-a89642d437c9"},"vehicle_type_id":"4","last_reported":1737486418,"current_range_meters":38800,"station_id":"ce4bhu92rcd13ifvqi70","pricing_plan_id":"cebpf4jnsgd1na2vs0mg"},{"bike_id":"6338d47a-b15f-4410-ac1a-220d6448183d","system_id":"levelo_inurba_marseille","lat":43.30535,"lon":5.38413,"is_reserved":false,"is_disabled":false,"rental_uris":{"android":"levelo://app?vid=6338d47a-b15f-4410-ac1a-220d6448183d","ios":"levelo://app?vid=6338d47a-b15f-4410-ac1a-220d6448183d"},"vehicle_type_id":"4","last_reported":1737486418,"current_range_meters":9200,"station_id":"ce4bgg92rcd13ifvqb30","pricing_plan_id":"cebpf4jnsgd1na2vs0mg"},{"bike_id":"4d071c99-59bc-4138-8b76-2f04d780bbaa","system_id":"levelo_inurba_marseille","lat":43.26228,"lon":5.4045,"is_reserved":false,"is_disabled":false,"rental_uris":{"android":"levelo://app?vid=4d071c99-59bc-4138-8b76-2f04d780bbaa","ios":"levelo://app?vid=4d071c99-59bc-4138-8b76-2f04d780bbaa"},"vehicle_type_id":"4","last_reported":1737486418,"current_range_meters":16800,"station_id":"","pricing_plan_id":"cebpf4jnsgd1na2vs0mg"},{"bike_id":"486e33e8-7855-495b-91db-d85039beecf1","system_id":"levelo_inurba_marseille","lat":43.25577,"lon":5.38226,"is_reserved":false,"is_disabled":false,"rental_uris":{"android":"levelo://app?vid=486e33e8-7855-495b-91db-d85039beecf1","ios":"levelo://app?vid=486e33e8-7855-495b-91db-d85039beecf1"},"vehicle_type_id":"4","last_reported":1737486418,"current_range_meters":14400,"station_id":"ce4bhih2rcd13ifvqfs0","pricing_plan_id":"cebpf4jnsgd1na2vs0mg"},{"bike_id":"7ce5f3ae-f11d-44d2-bfe6-e002ad3396be","system_id":"levelo_inurba_marseille","lat":43.2319,"lon":5.39994,"is_reserved":false,"is_disabled":false,"rental_uris":{"android":"levelo://app?vid=7ce5f3ae-f11d-44d2-bfe6-e002ad3396be","ios":"levelo://app?vid=7ce5f3ae-f11d-44d2-bfe6-e002ad3396be"},"vehicle_type_id":"4","last_reported":1737486418,"current_range_meters":19600,"station_id":"ce4bhn12rcd13ifvqgqg","pricing_plan_id":"cebpf4jnsgd1na2vs0mg"},{"bike_id":"48646053-32fc-4975-9af3-6eb74098e911","system_id":"levelo_inurba_marseille","lat":43.28079,"lon":5.39658,"is_reserved":false,"is_disabled":false,"rental_uris":{"android":"levelo://app?vid=48646053-32fc-4975-9af3-6eb74098e911","ios":"levelo://app?vid=48646053-32fc-4975-9af3-6eb74098e911"},"vehicle_type_id":"4","last_reported":1737486418,"current_range_meters":39200,"station_id":"ce4bho12rcd13ifvqh2g","pricing_plan_id":"cebpf4jnsgd1na2vs0mg"},{"bike_id":"b4f85f8e-5eb1-4657-a691-e2355c2e8a45","system_id":"levelo_inurba_marseille","lat":43.28425,"lon":5.37515,"is_reserved":false,"is_disabled":false,"rental_uris":{"android":"levelo://app?vid=b4f85f8e-5eb1-4657-a691-e2355c2e8a45","ios":"levelo://app?vid=b4f85f8e-5eb1-4657-a691-e2355c2e8a45"},"vehicle_type_id":"4","last_reported":1737486418,"current_range_meters":16800,"station_id":"ce4bh412rcd13ifvqds0","pricing_plan_id":"cebpf4jnsgd1na2vs0mg"},{"bike_id":"01fd2aea-dcbc-456e-8ea4-4bd7074979b4","system_id":"levelo_inurba_marseille","lat":43.23187,"lon":5.39984,"is_reserved":false,"is_disabled":false,"rental_uris":{"android":"levelo://app?vid=01fd2aea-dcbc-456e-8ea4-4bd7074979b4","ios":"levelo://app?vid=01fd2aea-dcbc-456e-8ea4-4bd7074979b4"},"vehicle_type_id":"4","last_reported":1737486418,"current_range_meters":24800,"station_id":"ce4bhn12rcd13ifvqgqg","pricing_plan_id":"cebpf4jnsgd1na2vs0mg"},{"bike_id":"4e8b8931-a08e-42a4-a5e1-272fdc079683","system_id":"levelo_inurba_marseille","lat":43.31878,"lon":5.40739,"is_reserved":false,"is_disabled":false,"rental_uris":{"android":"levelo://app?vid=4e8b8931-a08e-42a4-a5e1-272fdc079683","ios":"levelo://app?vid=4e8b8931-a08e-42a4-a5e1-272fdc079683"},"vehicle_type_id":"4","last_reported":1737486418,"current_range_meters":32000,"station_id":"ce4bhq12rcd13ifvqhig","pricing_plan_id":"cebpf4jnsgd1na2vs0mg"},{"bike_id":"b6a9fbe9-5f75-4031-80bf-3ea3fa1ecf83","system_id":"levelo_inurba_marseille","lat":43.29796,"lon":5.38104,"is_reserved":false,"is_disabled":false,"rental_uris":{"android":"levelo://app?vid=b6a9fbe9-5f75-4031-80bf-3ea3fa1ecf83","ios":"levelo://app?vid=b6a9fbe9-5f75-4031-80bf-3ea3fa1ecf83"},"vehicle_type_id":"4","last_reported":1737486418,"current_range_meters":10000,"station_id":"ce4bgip2rcd13ifvqbb0","pricing_plan_id":"cebpf4jnsgd1na2vs0mg"},{"bike_id":"3102a72b-882b-4111-af7e-422cd2d2818d","system_id":"levelo_inurba_marseille","lat":43.29619,"lon":5.37155,"is_reserved":false,"is_disabled":false,"rental_uris":{"android":"levelo://app?vid=3102a72b-882b-4111-af7e-422cd2d2818d","ios":"levelo://app?vid=3102a72b-882b-4111-af7e-422cd2d2818d"},"vehicle_type_id":"4","last_reported":1737486418,"current_range_meters":18000,"station_id":"ce4bgnh2rcd13ifvqc0g","pricing_plan_id":"cebpf4jnsgd1na2vs0mg"},{"bike_id":"7a66c201-1458-4405-b390-8cea4db3f22c","system_id":"levelo_inurba_marseille","lat":43.29444,"lon":5.39742,"is_reserved":false,"is_disabled":false,"rental_uris":{"android":"levelo://app?vid=7a66c201-1458-4405-b390-8cea4db3f22c","ios":"levelo://app?vid=7a66c201-1458-4405-b390-8cea4db3f22c"},"vehicle_type_id":"4","last_reported":1737486418,"current_range_meters":24000,"station_id":"ce4bh3h2rcd13ifvqdo0","pricing_plan_id":"cebpf4jnsgd1na2vs0mg"},{"bike_id":"e2c930fd-3112-46f1-bda5-61c8941f5b4b","system_id":"levelo_inurba_marseille","lat":43.29027,"lon":5.38653,"is_reserved":false,"is_disabled":false,"rental_uris":{"android":"levelo://app?vid=e2c930fd-3112-46f1-bda5-61c8941f5b4b","ios":"levelo://app?vid=e2c930fd-3112-46f1-bda5-61c8941f5b4b"},"vehicle_type_id":"4","last_reported":1737486418,"current_range_meters":39200,"station_id":"ce4bh4p2rcd13ifvqe0g","pricing_plan_id":"cebpf4jnsgd1na2vs0mg"},{"bike_id":"2de721d7-051a-43b9-9c1b-9ea9d7e4f7d0","system_id":"levelo_inurba_marseille","lat":43.29638,"lon":5.3718,"is_reserved":false,"is_disabled":false,"rental_uris":{"android":"levelo://app?vid=2de721d7-051a-43b9-9c1b-9ea9d7e4f7d0","ios":"levelo://app?vid=2de721d7-051a-43b9-9c1b-9ea9d7e4f7d0"},"vehicle_type_id":"4","last_reported":1737486418,"current_range_meters":38800,"station_id":"ce4bgnh2rcd13ifvqc0g","pricing_plan_id":"cebpf4jnsgd1na2vs0mg"},{"bike_id":"6dc1f3d0-b63b-4898-a867-b6168a3e818b","system_id":"levelo_inurba_marseille","lat":43.30215,"lon":5.39467,"is_reserved":false,"is_disabled":false,"rental_uris":{"android":"levelo://app?vid=6dc1f3d0-b63b-4898-a867-b6168a3e818b","ios":"levelo://app?vid=6dc1f3d0-b63b-4898-a867-b6168a3e818b"},"vehicle_type_id":"4","last_reported":1737486418,"current_range_meters":16400,"station_id":"ce4bh0p2rcd13ifvqd70","pricing_plan_id":"cebpf4jnsgd1na2vs0mg"},{"bike_id":"63ac8898-13b7-41ff-9418-e58ae0dbf1ba","system_id":"levelo_inurba_marseille","lat":43.27813,"lon":5.40732,"is_reserved":false,"is_disabled":true,"rental_uris":{"android":"levelo://app?vid=63ac8898-13b7-41ff-9418-e58ae0dbf1ba","ios":"levelo://app?vid=63ac8898-13b7-41ff-9418-e58ae0dbf1ba"},"vehicle_type_id":"4","last_reported":1737486418,"current_range_meters":27200,"station_id":"ce4bhnh2rcd13ifvqgtg","pricing_plan_id":"cebpf4jnsgd1na2vs0mg"},{"bike_id":"049812e9-10f0-441b-abdd-15da2e5e2e02","system_id":"levelo_inurba_marseille","lat":43.29005,"lon":5.35613,"is_reserved":false,"is_disabled":false,"rental_uris":{"android":"levelo://app?vid=049812e9-10f0-441b-abdd-15da2e5e2e02","ios":"levelo://app?vid=049812e9-10f0-441b-abdd-15da2e5e2e02"},"vehicle_type_id":"4","last_reported":1737486418,"current_range_meters":38400,"station_id":"ce4bhb92rcd13ifvqen0","pricing_plan_id":"cebpf4jnsgd1na2vs0mg"},{"bike_id":"d91be513-c350-4df2-80c9-9eac41eaf470","system_id":"levelo_inurba_marseille","lat":43.2796,"lon":5.38684,"is_reserved":false,"is_disabled":true,"rental_uris":{"android":"levelo://app?vid=d91be513-c350-4df2-80c9-9eac41eaf470","ios":"levelo://app?vid=d91be513-c350-4df2-80c9-9eac41eaf470"},"vehicle_type_id":"4","last_reported":1737486418,"current_range_meters":0,"station_id":"","pricing_plan_id":"cebpf4jnsgd1na2vs0mg"},{"bike_id":"56c16567-a209-442e-b152-823591129e8b","system_id":"levelo_inurba_marseille","lat":43.28265,"lon":5.3506,"is_reserved":false,"is_disabled":false,"rental_uris":{"android":"levelo://app?vid=56c16567-a209-442e-b152-823591129e8b","ios":"levelo://app?vid=56c16567-a209-442e-b152-823591129e8b"},"vehicle_type_id":"4","last_reported":1737486418,"current_range_meters":38800,"station_id":"ce4bhbp2rcd13ifvqerg","pricing_plan_id":"cebpf4jnsgd1na2vs0mg"},{"bike_id":"bda5c3c5-1ce2-40be-87ca-14619f5b97ef","system_id":"levelo_inurba_marseille","lat":43.31319,"lon":5.39703,"is_reserved":false,"is_disabled":false,"rental_uris":{"android":"levelo://app?vid=bda5c3c5-1ce2-40be-87ca-14619f5b97ef","ios":"levelo://app?vid=bda5c3c5-1ce2-40be-87ca-14619f5b97ef"},"vehicle_type_id":"4","last_reported":1737486418,"current_range_meters":39200,"station_id":"ce4bgvp2rcd13ifvqcu0","pricing_plan_id":"cebpf4jnsgd1na2vs0mg"},{"bike_id":"9b1c9d29-1067-4e16-9229-04e5a0677dcf","system_id":"levelo_inurba_marseille","lat":43.255798,"lon":5.38231,"is_reserved":false,"is_disabled":false,"rental_uris":{"android":"levelo://app?vid=9b1c9d29-1067-4e16-9229-04e5a0677dcf","ios":"levelo://app?vid=9b1c9d29-1067-4e16-9229-04e5a0677dcf"},"vehicle_type_id":"4","last_reported":1737486418,"current_range_meters":34800,"station_id":"ce4bhih2rcd13ifvqfs0","pricing_plan_id":"cebpf4jnsgd1na2vs0mg"},{"bike_id":"ef2c1b03-bd1f-4a60-b621-61f7751b628d","system_id":"levelo_inurba_marseille","lat":43.2944,"lon":5.39762,"is_reserved":false,"is_disabled":true,"rental_uris":{"android":"levelo://app?vid=ef2c1b03-bd1f-4a60-b621-61f7751b628d","ios":"levelo://app?vid=ef2c1b03-bd1f-4a60-b621-61f7751b628d"},"vehicle_type_id":"4","last_reported":1737486418,"current_range_meters":5600,"station_id":"ce4bh3h2rcd13ifvqdo0","pricing_plan_id":"cebpf4jnsgd1na2vs0mg"},{"bike_id":"5abf3f81-8b66-4826-861d-55abbb651539","system_id":"levelo_inurba_marseille","lat":43.337444,"lon":5.374475,"is_reserved":false,"is_disabled":true,"rental_uris":{"android":"levelo://app?vid=5abf3f81-8b66-4826-861d-55abbb651539","ios":"levelo://app?vid=5abf3f81-8b66-4826-861d-55abbb651539"},"vehicle_type_id":"4","last_reported":1737486418,"current_range_meters":0,"station_id":"","pricing_plan_id":"cebpf4jnsgd1na2vs0mg"},{"bike_id":"482d5205-a37c-4f5f-8be9-7d1f95ca025d","system_id":"levelo_inurba_marseille","lat":43.25836,"lon":5.39425,"is_reserved":false,"is_disabled":false,"rental_uris":{"android":"levelo://app?vid=482d5205-a37c-4f5f-8be9-7d1f95ca025d","ios":"levelo://app?vid=482d5205-a37c-4f5f-8be9-7d1f95ca025d"},"vehicle_type_id":"4","last_reported":1737486418,"current_range_meters":16800,"station_id":"ce4bhip2rcd13ifvqft0","pricing_plan_id":"cebpf4jnsgd1na2vs0mg"},{"bike_id":"9bc726c4-f0ae-46a7-9894-3042b33f1aaf","system_id":"levelo_inurba_marseille","lat":43.23161,"lon":5.43684,"is_reserved":false,"is_disabled":false,"rental_uris":{"android":"levelo://app?vid=9bc726c4-f0ae-46a7-9894-3042b33f1aaf","ios":"levelo://app?vid=9bc726c4-f0ae-46a7-9894-3042b33f1aaf"},"vehicle_type_id":"4","last_reported":1737486418,"current_range_meters":38800,"station_id":"ce4bhmp2rcd13ifvqgog","pricing_plan_id":"cebpf4jnsgd1na2vs0mg"},{"bike_id":"04656797-d164-454b-8244-55edc7fec428","system_id":"levelo_inurba_marseille","lat":43.31722,"lon":5.42399,"is_reserved":false,"is_disabled":false,"rental_uris":{"android":"levelo://app?vid=04656797-d164-454b-8244-55edc7fec428","ios":"levelo://app?vid=04656797-d164-454b-8244-55edc7fec428"},"vehicle_type_id":"4","last_reported":1737486418,"current_range_meters":38800,"station_id":"ce4bhp92rcd13ifvqhbg","pricing_plan_id":"cebpf4jnsgd1na2vs0mg"},{"bike_id":"8f0e139a-dde3-4169-8e33-598bfa2994af","system_id":"levelo_inurba_marseille","lat":43.29535,"lon":5.39037,"is_reserved":false,"is_disabled":false,"rental_uris":{"android":"levelo://app?vid=8f0e139a-dde3-4169-8e33-598bfa2994af","ios":"levelo://app?vid=8f0e139a-dde3-4169-8e33-598bfa2994af"},"vehicle_type_id":"4","last_reported":1737486418,"current_range_meters":37600,"station_id":"ce4bh3p2rcd13ifvqdp0","pricing_plan_id":"cebpf4jnsgd1na2vs0mg"},{"bike_id":"1f16ad06-6773-4946-8305-97dc88287b9f","system_id":"levelo_inurba_marseille","lat":43.30815,"lon":5.37336,"is_reserved":false,"is_disabled":false,"rental_uris":{"android":"levelo://app?vid=1f16ad06-6773-4946-8305-97dc88287b9f","ios":"levelo://app?vid=1f16ad06-6773-4946-8305-97dc88287b9f"},"vehicle_type_id":"4","last_reported":1737486418,"current_range_meters":25600,"station_id":"","pricing_plan_id":"cebpf4jnsgd1na2vs0mg"},{"bike_id":"c9468621-49af-49b3-a08e-74fa21cb7f48","system_id":"levelo_inurba_marseille","lat":43.29097,"lon":5.38129,"is_reserved":false,"is_disabled":false,"rental_uris":{"android":"levelo://app?vid=c9468621-49af-49b3-a08e-74fa21cb7f48","ios":"levelo://app?vid=c9468621-49af-49b3-a08e-74fa21cb7f48"},"vehicle_type_id":"4","last_reported":1737486418,"current_range_meters":38400,"station_id":"ce4bh512rcd13ifvqe2g","pricing_plan_id":"cebpf4jnsgd1na2vs0mg"},{"bike_id":"bb71d9e6-1af9-4d30-8d2f-c193bdf5f626","system_id":"levelo_inurba_marseille","lat":43.27677,"lon":5.38883,"is_reserved":false,"is_disabled":false,"rental_uris":{"android":"levelo://app?vid=bb71d9e6-1af9-4d30-8d2f-c193bdf5f626","ios":"levelo://app?vid=bb71d9e6-1af9-4d30-8d2f-c193bdf5f626"},"vehicle_type_id":"4","last_reported":1737486418,"current_range_meters":18000,"station_id":"ce4bhi12rcd13ifvqfo0","pricing_plan_id":"cebpf4jnsgd1na2vs0mg"},{"bike_id":"b1046013-328e-4c53-903b-26a0f78ff4e1","system_id":"levelo_inurba_marseille","lat":43.3133,"lon":5.39694,"is_reserved":false,"is_disabled":false,"rental_uris":{"android":"levelo://app?vid=b1046013-328e-4c53-903b-26a0f78ff4e1","ios":"levelo://app?vid=b1046013-328e-4c53-903b-26a0f78ff4e1"},"vehicle_type_id":"4","last_reported":1737486418,"current_range_meters":14000,"station_id":"ce4bgvp2rcd13ifvqcu0","pricing_plan_id":"cebpf4jnsgd1na2vs0mg"},{"bike_id":"ce059806-6084-4bef-aaf8-c839fe9fa25a","system_id":"levelo_inurba_marseille","lat":43.3013,"lon":5.38772,"is_reserved":false,"is_disabled":false,"rental_uris":{"android":"levelo://app?vid=ce059806-6084-4bef-aaf8-c839fe9fa25a","ios":"levelo://app?vid=ce059806-6084-4bef-aaf8-c839fe9fa25a"},"vehicle_type_id":"4","last_reported":1737486418,"current_range_meters":6800,"station_id":"ce4bghh2rcd13ifvqb60","pricing_plan_id":"cebpf4jnsgd1na2vs0mg"},{"bike_id":"fab6a36d-d225-4857-b5da-39566ab4596c","system_id":"levelo_inurba_marseille","lat":43.2937,"lon":5.3784,"is_reserved":false,"is_disabled":false,"rental_uris":{"android":"levelo://app?vid=fab6a36d-d225-4857-b5da-39566ab4596c","ios":"levelo://app?vid=fab6a36d-d225-4857-b5da-39566ab4596c"},"vehicle_type_id":"4","last_reported":1737486418,"current_range_meters":28000,"station_id":"ce4bgjh2rcd13ifvqbf0","pricing_plan_id":"cebpf4jnsgd1na2vs0mg"},{"bike_id":"2dba50ed-3ea3-4236-9c91-49787f02ddd5","system_id":"levelo_inurba_marseille","lat":43.2718,"lon":5.40993,"is_reserved":false,"is_disabled":false,"rental_uris":{"android":"levelo://app?vid=2dba50ed-3ea3-4236-9c91-49787f02ddd5","ios":"levelo://app?vid=2dba50ed-3ea3-4236-9c91-49787f02ddd5"},"vehicle_type_id":"4","last_reported":1737486418,"current_range_meters":39200,"station_id":"ce4bhl12rcd13ifvqgf0","pricing_plan_id":"cebpf4jnsgd1na2vs0mg"},{"bike_id":"2f6dec31-22de-43f1-9ef5-f918338f78de","system_id":"levelo_inurba_marseille","lat":43.29166,"lon":5.37164,"is_reserved":false,"is_disabled":false,"rental_uris":{"android":"levelo://app?vid=2f6dec31-22de-43f1-9ef5-f918338f78de","ios":"levelo://app?vid=2f6dec31-22de-43f1-9ef5-f918338f78de"},"vehicle_type_id":"4","last_reported":1737486418,"current_range_meters":30400,"station_id":"ce4bha92rcd13ifvqeh0","pricing_plan_id":"cebpf4jnsgd1na2vs0mg"},{"bike_id":"1f6dc155-db14-4993-a445-66a4306b1945","system_id":"levelo_inurba_marseille","lat":43.28414,"lon":5.37521,"is_reserved":false,"is_disabled":false,"rental_uris":{"android":"levelo://app?vid=1f6dc155-db14-4993-a445-66a4306b1945","ios":"levelo://app?vid=1f6dc155-db14-4993-a445-66a4306b1945"},"vehicle_type_id":"4","last_reported":1737486418,"current_range_meters":27600,"station_id":"ce4bh412rcd13ifvqds0","pricing_plan_id":"cebpf4jnsgd1na2vs0mg"},{"bike_id":"fb051a1b-f405-4fb7-8edb-82e638aff8f9","system_id":"levelo_inurba_marseille","lat":43.29806,"lon":5.36124,"is_reserved":false,"is_disabled":false,"rental_uris":{"android":"levelo://app?vid=fb051a1b-f405-4fb7-8edb-82e638aff8f9","ios":"levelo://app?vid=fb051a1b-f405-4fb7-8edb-82e638aff8f9"},"vehicle_type_id":"4","last_reported":1737486418,"current_range_meters":38000,"station_id":"","pricing_plan_id":"cebpf4jnsgd1na2vs0mg"},{"bike_id":"63468950-507d-45fc-b23b-b241b7129b89","system_id":"levelo_inurba_marseille","lat":43.23191,"lon":5.39986,"is_reserved":false,"is_disabled":false,"rental_uris":{"android":"levelo://app?vid=63468950-507d-45fc-b23b-b241b7129b89","ios":"levelo://app?vid=63468950-507d-45fc-b23b-b241b7129b89"},"vehicle_type_id":"4","last_reported":1737486418,"current_range_meters":35600,"station_id":"ce4bhn12rcd13ifvqgqg","pricing_plan_id":"cebpf4jnsgd1na2vs0mg"},{"bike_id":"b2ed8350-a09b-445c-9d1e-1ad7e0a7aba7","system_id":"levelo_inurba_marseille","lat":43.30139,"lon":5.38061,"is_reserved":false,"is_disabled":false,"rental_uris":{"android":"levelo://app?vid=b2ed8350-a09b-445c-9d1e-1ad7e0a7aba7","ios":"levelo://app?vid=b2ed8350-a09b-445c-9d1e-1ad7e0a7aba7"},"vehicle_type_id":"4","last_reported":1737486418,"current_range_meters":9600,"station_id":"ce4bgjp2rcd13ifvqbh0","pricing_plan_id":"cebpf4jnsgd1na2vs0mg"},{"bike_id":"4fcbfa2f-f45b-4d35-a9ff-02c82eeaea19","system_id":"levelo_inurba_marseille","lat":43.23967,"lon":5.36634,"is_reserved":false,"is_disabled":false,"rental_uris":{"android":"levelo://app?vid=4fcbfa2f-f45b-4d35-a9ff-02c82eeaea19","ios":"levelo://app?vid=4fcbfa2f-f45b-4d35-a9ff-02c82eeaea19"},"vehicle_type_id":"4","last_reported":1737486418,"current_range_meters":24400,"station_id":"ce4bhi12rcd13ifvqfp0","pricing_plan_id":"cebpf4jnsgd1na2vs0mg"},{"bike_id":"91a3724e-eb75-4b23-9321-16f8b0c1b019","system_id":"levelo_inurba_marseille","lat":43.31187,"lon":5.38715,"is_reserved":false,"is_disabled":false,"rental_uris":{"android":"levelo://app?vid=91a3724e-eb75-4b23-9321-16f8b0c1b019","ios":"levelo://app?vid=91a3724e-eb75-4b23-9321-16f8b0c1b019"},"vehicle_type_id":"4","last_reported":1737486418,"current_range_meters":31200,"station_id":"ce4bgv12rcd13ifvqcp0","pricing_plan_id":"cebpf4jnsgd1na2vs0mg"},{"bike_id":"bcd175e1-1fd1-4b01-ba8a-35156c99c1cc","system_id":"levelo_inurba_marseille","lat":43.31279,"lon":5.40171,"is_reserved":false,"is_disabled":false,"rental_uris":{"android":"levelo://app?vid=bcd175e1-1fd1-4b01-ba8a-35156c99c1cc","ios":"levelo://app?vid=bcd175e1-1fd1-4b01-ba8a-35156c99c1cc"},"vehicle_type_id":"4","last_reported":1737486418,"current_range_meters":38800,"station_id":"ce4bh092rcd13ifvqd30","pricing_plan_id":"cebpf4jnsgd1na2vs0mg"},{"bike_id":"89d12cd8-f184-4864-80fb-ae587f301e19","system_id":"levelo_inurba_marseille","lat":43.27828,"lon":5.39195,"is_reserved":false,"is_disabled":false,"rental_uris":{"android":"levelo://app?vid=89d12cd8-f184-4864-80fb-ae587f301e19","ios":"levelo://app?vid=89d12cd8-f184-4864-80fb-ae587f301e19"},"vehicle_type_id":"4","last_reported":1737486418,"current_range_meters":38800,"station_id":"ce4bhjp2rcd13ifvqga0","pricing_plan_id":"cebpf4jnsgd1na2vs0mg"},{"bike_id":"5c6932eb-9dcc-4c30-b1b5-ae5e340a7861","system_id":"levelo_inurba_marseille","lat":43.29009,"lon":5.38629,"is_reserved":false,"is_disabled":false,"rental_uris":{"android":"levelo://app?vid=5c6932eb-9dcc-4c30-b1b5-ae5e340a7861","ios":"levelo://app?vid=5c6932eb-9dcc-4c30-b1b5-ae5e340a7861"},"vehicle_type_id":"4","last_reported":1737486418,"current_range_meters":30400,"station_id":"ce4bh4p2rcd13ifvqe0g","pricing_plan_id":"cebpf4jnsgd1na2vs0mg"},{"bike_id":"25cce461-9c2a-4621-ab6f-7612add39744","system_id":"levelo_inurba_marseille","lat":43.31331,"lon":5.39694,"is_reserved":false,"is_disabled":false,"rental_uris":{"android":"levelo://app?vid=25cce461-9c2a-4621-ab6f-7612add39744","ios":"levelo://app?vid=25cce461-9c2a-4621-ab6f-7612add39744"},"vehicle_type_id":"4","last_reported":1737486418,"current_range_meters":39200,"station_id":"ce4bgvp2rcd13ifvqcu0","pricing_plan_id":"cebpf4jnsgd1na2vs0mg"},{"bike_id":"6f287a1d-efa4-4c14-b01a-f96e3d7ad51d","system_id":"levelo_inurba_marseille","lat":43.3107,"lon":5.3835,"is_reserved":false,"is_disabled":false,"rental_uris":{"android":"levelo://app?vid=6f287a1d-efa4-4c14-b01a-f96e3d7ad51d","ios":"levelo://app?vid=6f287a1d-efa4-4c14-b01a-f96e3d7ad51d"},"vehicle_type_id":"4","last_reported":1737486418,"current_range_meters":33200,"station_id":"ce4bgv92rcd13ifvqcr0","pricing_plan_id":"cebpf4jnsgd1na2vs0mg"},{"bike_id":"b78817bb-8b38-40a4-9ee4-06d60470606b","system_id":"levelo_inurba_marseille","lat":43.29554,"lon":5.42293,"is_reserved":false,"is_disabled":false,"rental_uris":{"android":"levelo://app?vid=b78817bb-8b38-40a4-9ee4-06d60470606b","ios":"levelo://app?vid=b78817bb-8b38-40a4-9ee4-06d60470606b"},"vehicle_type_id":"4","last_reported":1737486418,"current_range_meters":18000,"station_id":"ce4bhph2rcd13ifvqhdg","pricing_plan_id":"cebpf4jnsgd1na2vs0mg"},{"bike_id":"2b2a080b-639b-4823-8970-300e7eb9a076","system_id":"levelo_inurba_marseille","lat":43.31176,"lon":5.38688,"is_reserved":false,"is_disabled":false,"rental_uris":{"android":"levelo://app?vid=2b2a080b-639b-4823-8970-300e7eb9a076","ios":"levelo://app?vid=2b2a080b-639b-4823-8970-300e7eb9a076"},"vehicle_type_id":"4","last_reported":1737486418,"current_range_meters":32400,"station_id":"ce4bgv12rcd13ifvqcp0","pricing_plan_id":"cebpf4jnsgd1na2vs0mg"},{"bike_id":"229dd1d5-aa46-48d3-b747-f187a4236bff","system_id":"levelo_inurba_marseille","lat":43.32348,"lon":5.38898,"is_reserved":false,"is_disabled":false,"rental_uris":{"android":"levelo://app?vid=229dd1d5-aa46-48d3-b747-f187a4236bff","ios":"levelo://app?vid=229dd1d5-aa46-48d3-b747-f187a4236bff"},"vehicle_type_id":"4","last_reported":1737486418,"current_range_meters":26800,"station_id":"ce4bhqp2rcd13ifvqhog","pricing_plan_id":"cebpf4jnsgd1na2vs0mg"},{"bike_id":"16b5f34e-f3e2-4324-b0c8-0221b4770b7d","system_id":"levelo_inurba_marseille","lat":43.28143,"lon":5.42659,"is_reserved":false,"is_disabled":false,"rental_uris":{"android":"levelo://app?vid=16b5f34e-f3e2-4324-b0c8-0221b4770b7d","ios":"levelo://app?vid=16b5f34e-f3e2-4324-b0c8-0221b4770b7d"},"vehicle_type_id":"4","last_reported":1737486418,"current_range_meters":36000,"station_id":"ce4bhnh2rcd13ifvqgug","pricing_plan_id":"cebpf4jnsgd1na2vs0mg"},{"bike_id":"699b2aaa-b5e3-4f45-805d-1bb84d4edf0f","system_id":"levelo_inurba_marseille","lat":43.29444,"lon":5.39748,"is_reserved":false,"is_disabled":false,"rental_uris":{"android":"levelo://app?vid=699b2aaa-b5e3-4f45-805d-1bb84d4edf0f","ios":"levelo://app?vid=699b2aaa-b5e3-4f45-805d-1bb84d4edf0f"},"vehicle_type_id":"4","last_reported":1737486418,"current_range_meters":33200,"station_id":"ce4bh3h2rcd13ifvqdo0","pricing_plan_id":"cebpf4jnsgd1na2vs0mg"},{"bike_id":"b6cc31be-151e-4d56-8839-e71a9cd45b18","system_id":"levelo_inurba_marseille","lat":43.23197,"lon":5.3555,"is_reserved":false,"is_disabled":false,"rental_uris":{"android":"levelo://app?vid=b6cc31be-151e-4d56-8839-e71a9cd45b18","ios":"levelo://app?vid=b6cc31be-151e-4d56-8839-e71a9cd45b18"},"vehicle_type_id":"4","last_reported":1737486418,"current_range_meters":36000,"station_id":"ce4bhu92rcd13ifvqi70","pricing_plan_id":"cebpf4jnsgd1na2vs0mg"},{"bike_id":"2799c8cc-756c-4aea-b7b0-0c1669879e7b","system_id":"levelo_inurba_marseille","lat":43.28847,"lon":5.35851,"is_reserved":false,"is_disabled":false,"rental_uris":{"android":"levelo://app?vid=2799c8cc-756c-4aea-b7b0-0c1669879e7b","ios":"levelo://app?vid=2799c8cc-756c-4aea-b7b0-0c1669879e7b"},"vehicle_type_id":"4","last_reported":1737486418,"current_range_meters":18000,"station_id":"ce4bhb12rcd13ifvqem0","pricing_plan_id":"cebpf4jnsgd1na2vs0mg"},{"bike_id":"fe64966a-e343-4da5-b7d8-a247430a1c88","system_id":"levelo_inurba_marseille","lat":43.32993,"lon":5.39189,"is_reserved":false,"is_disabled":false,"rental_uris":{"android":"levelo://app?vid=fe64966a-e343-4da5-b7d8-a247430a1c88","ios":"levelo://app?vid=fe64966a-e343-4da5-b7d8-a247430a1c88"},"vehicle_type_id":"4","last_reported":1737486418,"current_range_meters":27600,"station_id":"","pricing_plan_id":"cebpf4jnsgd1na2vs0mg"},{"bike_id":"15524234-5401-4aa4-b353-f94ac2bcdc0d","system_id":"levelo_inurba_marseille","lat":43.29433,"lon":5.38623,"is_reserved":false,"is_disabled":false,"rental_uris":{"android":"levelo://app?vid=15524234-5401-4aa4-b353-f94ac2bcdc0d","ios":"levelo://app?vid=15524234-5401-4aa4-b353-f94ac2bcdc0d"},"vehicle_type_id":"4","last_reported":1737486418,"current_range_meters":38800,"station_id":"ce4bh2h2rcd13ifvqdh0","pricing_plan_id":"cebpf4jnsgd1na2vs0mg"},{"bike_id":"bef6c1af-f80b-4a93-9039-cf48e3f45fa6","system_id":"levelo_inurba_marseille","lat":43.23969,"lon":5.36633,"is_reserved":false,"is_disabled":false,"rental_uris":{"android":"levelo://app?vid=bef6c1af-f80b-4a93-9039-cf48e3f45fa6","ios":"levelo://app?vid=bef6c1af-f80b-4a93-9039-cf48e3f45fa6"},"vehicle_type_id":"4","last_reported":1737486418,"current_range_meters":29600,"station_id":"ce4bhi12rcd13ifvqfp0","pricing_plan_id":"cebpf4jnsgd1na2vs0mg"},{"bike_id":"3690aea7-07e6-4f20-9da7-ec7d8770835d","system_id":"levelo_inurba_marseille","lat":43.31164,"lon":5.38719,"is_reserved":false,"is_disabled":false,"rental_uris":{"android":"levelo://app?vid=3690aea7-07e6-4f20-9da7-ec7d8770835d","ios":"levelo://app?vid=3690aea7-07e6-4f20-9da7-ec7d8770835d"},"vehicle_type_id":"4","last_reported":1737486418,"current_range_meters":26800,"station_id":"ce4bgv12rcd13ifvqcp0","pricing_plan_id":"cebpf4jnsgd1na2vs0mg"},{"bike_id":"7913d9ce-121f-49fa-9a7c-09d5d8f80136","system_id":"levelo_inurba_marseille","lat":43.27904,"lon":5.38018,"is_reserved":false,"is_disabled":false,"rental_uris":{"android":"levelo://app?vid=7913d9ce-121f-49fa-9a7c-09d5d8f80136","ios":"levelo://app?vid=7913d9ce-121f-49fa-9a7c-09d5d8f80136"},"vehicle_type_id":"4","last_reported":1737486418,"current_range_meters":36800,"station_id":"ce4bhf92rcd13ifvqf50","pricing_plan_id":"cebpf4jnsgd1na2vs0mg"},{"bike_id":"72be22bb-5b67-4dec-87ab-d466c8c6e151","system_id":"levelo_inurba_marseille","lat":43.29036,"lon":5.37566,"is_reserved":false,"is_disabled":false,"rental_uris":{"android":"levelo://app?vid=72be22bb-5b67-4dec-87ab-d466c8c6e151","ios":"levelo://app?vid=72be22bb-5b67-4dec-87ab-d466c8c6e151"},"vehicle_type_id":"4","last_reported":1737486418,"current_range_meters":38800,"station_id":"ce4bh692rcd13ifvqe90","pricing_plan_id":"cebpf4jnsgd1na2vs0mg"},{"bike_id":"e1b86826-a513-4fa0-8111-6fab965861d5","system_id":"levelo_inurba_marseille","lat":43.3172,"lon":5.43696,"is_reserved":false,"is_disabled":false,"rental_uris":{"android":"levelo://app?vid=e1b86826-a513-4fa0-8111-6fab965861d5","ios":"levelo://app?vid=e1b86826-a513-4fa0-8111-6fab965861d5"},"vehicle_type_id":"4","last_reported":1737486418,"current_range_meters":13600,"station_id":"ce4bhp92rcd13ifvqhcg","pricing_plan_id":"cebpf4jnsgd1na2vs0mg"},{"bike_id":"53695af9-0d56-41ca-9102-6156d558bb8f","system_id":"levelo_inurba_marseille","lat":43.30139,"lon":5.37431,"is_reserved":false,"is_disabled":false,"rental_uris":{"android":"levelo://app?vid=53695af9-0d56-41ca-9102-6156d558bb8f","ios":"levelo://app?vid=53695af9-0d56-41ca-9102-6156d558bb8f"},"vehicle_type_id":"4","last_reported":1737486418,"current_range_meters":19200,"station_id":"ce4bgs92rcd13ifvqcc0","pricing_plan_id":"cebpf4jnsgd1na2vs0mg"},{"bike_id":"a502c690-872f-4f2c-9aa2-38a15a201f5f","system_id":"levelo_inurba_marseille","lat":43.29834,"lon":5.37414,"is_reserved":false,"is_disabled":false,"rental_uris":{"android":"levelo://app?vid=a502c690-872f-4f2c-9aa2-38a15a201f5f","ios":"levelo://app?vid=a502c690-872f-4f2c-9aa2-38a15a201f5f"},"vehicle_type_id":"4","last_reported":1737486418,"current_range_meters":32800,"station_id":"ce4bgth2rcd13ifvqch0","pricing_plan_id":"cebpf4jnsgd1na2vs0mg"},{"bike_id":"2512448d-137b-4c58-a2dc-a8485ce50ee5","system_id":"levelo_inurba_marseille","lat":43.27807,"lon":5.40712,"is_reserved":false,"is_disabled":false,"rental_uris":{"android":"levelo://app?vid=2512448d-137b-4c58-a2dc-a8485ce50ee5","ios":"levelo://app?vid=2512448d-137b-4c58-a2dc-a8485ce50ee5"},"vehicle_type_id":"4","last_reported":1737486418,"current_range_meters":38800,"station_id":"ce4bhnh2rcd13ifvqgtg","pricing_plan_id":"cebpf4jnsgd1na2vs0mg"},{"bike_id":"683b981e-de32-400b-b20f-339deb98a9a1","system_id":"levelo_inurba_marseille","lat":43.30427,"lon":5.38892,"is_reserved":false,"is_disabled":false,"rental_uris":{"android":"levelo://app?vid=683b981e-de32-400b-b20f-339deb98a9a1","ios":"levelo://app?vid=683b981e-de32-400b-b20f-339deb98a9a1"},"vehicle_type_id":"4","last_reported":1737486418,"current_range_meters":20400,"station_id":"ce4bgk12rcd13ifvqbi0","pricing_plan_id":"cebpf4jnsgd1na2vs0mg"},{"bike_id":"78f7382e-8fcb-4578-a536-bdfffeb211df","system_id":"levelo_inurba_marseille","lat":43.29963,"lon":5.3652,"is_reserved":false,"is_disabled":false,"rental_uris":{"android":"levelo://app?vid=78f7382e-8fcb-4578-a536-bdfffeb211df","ios":"levelo://app?vid=78f7382e-8fcb-4578-a536-bdfffeb211df"},"vehicle_type_id":"4","last_reported":1737486418,"current_range_meters":38800,"station_id":"","pricing_plan_id":"cebpf4jnsgd1na2vs0mg"},{"bike_id":"f74368c7-d357-4224-9e6d-5e00530203e7","system_id":"levelo_inurba_marseille","lat":43.28089,"lon":5.39672,"is_reserved":false,"is_disabled":false,"rental_uris":{"android":"levelo://app?vid=f74368c7-d357-4224-9e6d-5e00530203e7","ios":"levelo://app?vid=f74368c7-d357-4224-9e6d-5e00530203e7"},"vehicle_type_id":"4","last_reported":1737486418,"current_range_meters":39200,"station_id":"ce4bho12rcd13ifvqh2g","pricing_plan_id":"cebpf4jnsgd1na2vs0mg"},{"bike_id":"b0c9e352-eae2-43a2-b561-77e71d1530c6","system_id":"levelo_inurba_marseille","lat":43.24071,"lon":5.37765,"is_reserved":false,"is_disabled":false,"rental_uris":{"android":"levelo://app?vid=b0c9e352-eae2-43a2-b561-77e71d1530c6","ios":"levelo://app?vid=b0c9e352-eae2-43a2-b561-77e71d1530c6"},"vehicle_type_id":"4","last_reported":1737486418,"current_range_meters":20000,"station_id":"ce4bhnp2rcd13ifvqgvg","pricing_plan_id":"cebpf4jnsgd1na2vs0mg"},{"bike_id":"b2914432-1e6b-4d29-a281-869af3bb4d4f","system_id":"levelo_inurba_marseille","lat":43.30094,"lon":5.39083,"is_reserved":false,"is_disabled":false,"rental_uris":{"android":"levelo://app?vid=b2914432-1e6b-4d29-a281-869af3bb4d4f","ios":"levelo://app?vid=b2914432-1e6b-4d29-a281-869af3bb4d4f"},"vehicle_type_id":"4","last_reported":1737486418,"current_range_meters":26000,"station_id":"ce4bh192rcd13ifvqdb0","pricing_plan_id":"cebpf4jnsgd1na2vs0mg"},{"bike_id":"1f5cb474-798b-4357-9d76-fbb42e648fb5","system_id":"levelo_inurba_marseille","lat":43.28627,"lon":5.35087,"is_reserved":false,"is_disabled":false,"rental_uris":{"android":"levelo://app?vid=1f5cb474-798b-4357-9d76-fbb42e648fb5","ios":"levelo://app?vid=1f5cb474-798b-4357-9d76-fbb42e648fb5"},"vehicle_type_id":"4","last_reported":1737486418,"current_range_meters":13600,"station_id":"ce4bhch2rcd13ifvqeug","pricing_plan_id":"cebpf4jnsgd1na2vs0mg"},{"bike_id":"7602ec5e-b6be-4286-8ae1-0dcc95a85012","system_id":"levelo_inurba_marseille","lat":43.27373,"lon":5.36257,"is_reserved":false,"is_disabled":false,"rental_uris":{"android":"levelo://app?vid=7602ec5e-b6be-4286-8ae1-0dcc95a85012","ios":"levelo://app?vid=7602ec5e-b6be-4286-8ae1-0dcc95a85012"},"vehicle_type_id":"4","last_reported":1737486418,"current_range_meters":22400,"station_id":"ce4bhbh2rcd13ifvqeo0","pricing_plan_id":"cebpf4jnsgd1na2vs0mg"},{"bike_id":"60d97a4a-6922-4726-a709-975ba1a96986","system_id":"levelo_inurba_marseille","lat":43.31124,"lon":5.37755,"is_reserved":false,"is_disabled":false,"rental_uris":{"android":"levelo://app?vid=60d97a4a-6922-4726-a709-975ba1a96986","ios":"levelo://app?vid=60d97a4a-6922-4726-a709-975ba1a96986"},"vehicle_type_id":"4","last_reported":1737486418,"current_range_meters":9200,"station_id":"ce4bgt92rcd13ifvqcg0","pricing_plan_id":"cebpf4jnsgd1na2vs0mg"},{"bike_id":"a7e8924a-8b7d-44e2-8cda-e402f4ce6015","system_id":"levelo_inurba_marseille","lat":43.28923,"lon":5.38412,"is_reserved":false,"is_disabled":false,"rental_uris":{"android":"levelo://app?vid=a7e8924a-8b7d-44e2-8cda-e402f4ce6015","ios":"levelo://app?vid=a7e8924a-8b7d-44e2-8cda-e402f4ce6015"},"vehicle_type_id":"4","last_reported":1737486418,"current_range_meters":30000,"station_id":"ce4bh612rcd13ifvqe6g","pricing_plan_id":"cebpf4jnsgd1na2vs0mg"},{"bike_id":"065f4811-bbda-4fa3-9aef-98a88a93c377","system_id":"levelo_inurba_marseille","lat":43.26813,"lon":5.40273,"is_reserved":false,"is_disabled":false,"rental_uris":{"android":"levelo://app?vid=065f4811-bbda-4fa3-9aef-98a88a93c377","ios":"levelo://app?vid=065f4811-bbda-4fa3-9aef-98a88a93c377"},"vehicle_type_id":"4","last_reported":1737486418,"current_range_meters":38800,"station_id":"ce4bhkp2rcd13ifvqgd0","pricing_plan_id":"cebpf4jnsgd1na2vs0mg"},{"bike_id":"ba724f52-b50b-4ed1-b441-81f4f6d17a1e","system_id":"levelo_inurba_marseille","lat":43.29859,"lon":5.362805,"is_reserved":false,"is_disabled":false,"rental_uris":{"android":"levelo://app?vid=ba724f52-b50b-4ed1-b441-81f4f6d17a1e","ios":"levelo://app?vid=ba724f52-b50b-4ed1-b441-81f4f6d17a1e"},"vehicle_type_id":"4","last_reported":1737486418,"current_range_meters":38800,"station_id":"ce4bgpp2rcd13ifvqc3g","pricing_plan_id":"cebpf4jnsgd1na2vs0mg"},{"bike_id":"21a91e03-5954-4c62-a3e4-77ec3ce55606","system_id":"levelo_inurba_marseille","lat":43.27675,"lon":5.38873,"is_reserved":false,"is_disabled":false,"rental_uris":{"android":"levelo://app?vid=21a91e03-5954-4c62-a3e4-77ec3ce55606","ios":"levelo://app?vid=21a91e03-5954-4c62-a3e4-77ec3ce55606"},"vehicle_type_id":"4","last_reported":1737486418,"current_range_meters":38400,"station_id":"ce4bhi12rcd13ifvqfo0","pricing_plan_id":"cebpf4jnsgd1na2vs0mg"},{"bike_id":"6bae36f3-3e6e-42a7-b13e-a0eeb334e841","system_id":"levelo_inurba_marseille","lat":43.30209,"lon":5.39466,"is_reserved":false,"is_disabled":false,"rental_uris":{"android":"levelo://app?vid=6bae36f3-3e6e-42a7-b13e-a0eeb334e841","ios":"levelo://app?vid=6bae36f3-3e6e-42a7-b13e-a0eeb334e841"},"vehicle_type_id":"4","last_reported":1737486418,"current_range_meters":14400,"station_id":"ce4bh0p2rcd13ifvqd70","pricing_plan_id":"cebpf4jnsgd1na2vs0mg"},{"bike_id":"ea022585-3f38-44fc-8e8c-267512bef939","system_id":"levelo_inurba_marseille","lat":43.2903,"lon":5.39958,"is_reserved":false,"is_disabled":false,"rental_uris":{"android":"levelo://app?vid=ea022585-3f38-44fc-8e8c-267512bef939","ios":"levelo://app?vid=ea022585-3f38-44fc-8e8c-267512bef939"},"vehicle_type_id":"4","last_reported":1737486418,"current_range_meters":3200,"station_id":"ce4bh392rcd13ifvqdm0","pricing_plan_id":"cebpf4jnsgd1na2vs0mg"},{"bike_id":"f542ccc3-203e-41c0-bd66-f7c023f2d04d","system_id":"levelo_inurba_marseille","lat":43.28075,"lon":5.39637,"is_reserved":false,"is_disabled":false,"rental_uris":{"android":"levelo://app?vid=f542ccc3-203e-41c0-bd66-f7c023f2d04d","ios":"levelo://app?vid=f542ccc3-203e-41c0-bd66-f7c023f2d04d"},"vehicle_type_id":"4","last_reported":1737486418,"current_range_meters":38000,"station_id":"ce4bho12rcd13ifvqh2g","pricing_plan_id":"cebpf4jnsgd1na2vs0mg"},{"bike_id":"d4d1764d-04ec-465c-a2de-8d50196cdd08","system_id":"levelo_inurba_marseille","lat":43.23963,"lon":5.36634,"is_reserved":false,"is_disabled":false,"rental_uris":{"android":"levelo://app?vid=d4d1764d-04ec-465c-a2de-8d50196cdd08","ios":"levelo://app?vid=d4d1764d-04ec-465c-a2de-8d50196cdd08"},"vehicle_type_id":"4","last_reported":1737486418,"current_range_meters":13600,"station_id":"ce4bhi12rcd13ifvqfp0","pricing_plan_id":"cebpf4jnsgd1na2vs0mg"},{"bike_id":"51f18ef2-87ea-47fa-bbdc-b18149212c4f","system_id":"levelo_inurba_marseille","lat":43.30816,"lon":5.38156,"is_reserved":false,"is_disabled":true,"rental_uris":{"android":"levelo://app?vid=51f18ef2-87ea-47fa-bbdc-b18149212c4f","ios":"levelo://app?vid=51f18ef2-87ea-47fa-bbdc-b18149212c4f"},"vehicle_type_id":"4","last_reported":1737486418,"current_range_meters":800,"station_id":"ce4bgt12rcd13ifvqce0","pricing_plan_id":"cebpf4jnsgd1na2vs0mg"},{"bike_id":"11c84f7d-ce91-4b03-a591-81ea2df8d996","system_id":"levelo_inurba_marseille","lat":43.29189,"lon":5.39337,"is_reserved":false,"is_disabled":false,"rental_uris":{"android":"levelo://app?vid=11c84f7d-ce91-4b03-a591-81ea2df8d996","ios":"levelo://app?vid=11c84f7d-ce91-4b03-a591-81ea2df8d996"},"vehicle_type_id":"4","last_reported":1737486418,"current_range_meters":30000,"station_id":"ce4bh192rcd13ifvqdd0","pricing_plan_id":"cebpf4jnsgd1na2vs0mg"},{"bike_id":"cb800b4d-ddb4-4a43-9264-6a686c51415e","system_id":"levelo_inurba_marseille","lat":43.29419,"lon":5.38619,"is_reserved":false,"is_disabled":false,"rental_uris":{"android":"levelo://app?vid=cb800b4d-ddb4-4a43-9264-6a686c51415e","ios":"levelo://app?vid=cb800b4d-ddb4-4a43-9264-6a686c51415e"},"vehicle_type_id":"4","last_reported":1737486418,"current_range_meters":28000,"station_id":"ce4bh2h2rcd13ifvqdh0","pricing_plan_id":"cebpf4jnsgd1na2vs0mg"},{"bike_id":"6e1433da-ca9f-4090-b658-fb877339609a","system_id":"levelo_inurba_marseille","lat":43.27814,"lon":5.40713,"is_reserved":false,"is_disabled":false,"rental_uris":{"android":"levelo://app?vid=6e1433da-ca9f-4090-b658-fb877339609a","ios":"levelo://app?vid=6e1433da-ca9f-4090-b658-fb877339609a"},"vehicle_type_id":"4","last_reported":1737486418,"current_range_meters":36800,"station_id":"ce4bhnh2rcd13ifvqgtg","pricing_plan_id":"cebpf4jnsgd1na2vs0mg"},{"bike_id":"6c0999b3-4884-47b5-a5c8-f2c40c6b22a6","system_id":"levelo_inurba_marseille","lat":43.29207,"lon":5.35801,"is_reserved":false,"is_disabled":false,"rental_uris":{"android":"levelo://app?vid=6c0999b3-4884-47b5-a5c8-f2c40c6b22a6","ios":"levelo://app?vid=6c0999b3-4884-47b5-a5c8-f2c40c6b22a6"},"vehicle_type_id":"4","last_reported":1737486418,"current_range_meters":10000,"station_id":"ce4bhb12rcd13ifvqel0","pricing_plan_id":"cebpf4jnsgd1na2vs0mg"},{"bike_id":"2501ae24-5703-45d3-ac01-dec581041e28","system_id":"levelo_inurba_marseille","lat":43.28661,"lon":5.36349,"is_reserved":false,"is_disabled":false,"rental_uris":{"android":"levelo://app?vid=2501ae24-5703-45d3-ac01-dec581041e28","ios":"levelo://app?vid=2501ae24-5703-45d3-ac01-dec581041e28"},"vehicle_type_id":"4","last_reported":1737486418,"current_range_meters":10000,"station_id":"ce4bhah2rcd13ifvqej0","pricing_plan_id":"cebpf4jnsgd1na2vs0mg"},{"bike_id":"741aa226-41f7-40d7-9698-9eb35a5fef23","system_id":"levelo_inurba_marseille","lat":43.25122,"lon":5.40314,"is_reserved":false,"is_disabled":false,"rental_uris":{"android":"levelo://app?vid=741aa226-41f7-40d7-9698-9eb35a5fef23","ios":"levelo://app?vid=741aa226-41f7-40d7-9698-9eb35a5fef23"},"vehicle_type_id":"4","last_reported":1737486418,"current_range_meters":22400,"station_id":"ce4bhlh2rcd13ifvqgig","pricing_plan_id":"cebpf4jnsgd1na2vs0mg"},{"bike_id":"e57ac2e9-58d0-4a9e-8d12-cff43a720915","system_id":"levelo_inurba_marseille","lat":43.30937,"lon":5.40149,"is_reserved":false,"is_disabled":false,"rental_uris":{"android":"levelo://app?vid=e57ac2e9-58d0-4a9e-8d12-cff43a720915","ios":"levelo://app?vid=e57ac2e9-58d0-4a9e-8d12-cff43a720915"},"vehicle_type_id":"4","last_reported":1737486418,"current_range_meters":38800,"station_id":"ce4bgvp2rcd13ifvqct0","pricing_plan_id":"cebpf4jnsgd1na2vs0mg"},{"bike_id":"a858181c-287f-411d-8c00-36df8d78bf00","system_id":"levelo_inurba_marseille","lat":43.31373,"lon":5.38492,"is_reserved":false,"is_disabled":false,"rental_uris":{"android":"levelo://app?vid=a858181c-287f-411d-8c00-36df8d78bf00","ios":"levelo://app?vid=a858181c-287f-411d-8c00-36df8d78bf00"},"vehicle_type_id":"4","last_reported":1737486418,"current_range_meters":35600,"station_id":"ce4bgt92rcd13ifvqcf0","pricing_plan_id":"cebpf4jnsgd1na2vs0mg"},{"bike_id":"5a3399d5-97bb-4fe3-b679-1e5236ae7dc4","system_id":"levelo_inurba_marseille","lat":43.29265,"lon":5.38437,"is_reserved":false,"is_disabled":false,"rental_uris":{"android":"levelo://app?vid=5a3399d5-97bb-4fe3-b679-1e5236ae7dc4","ios":"levelo://app?vid=5a3399d5-97bb-4fe3-b679-1e5236ae7dc4"},"vehicle_type_id":"4","last_reported":1737486418,"current_range_meters":30400,"station_id":"ce4bh692rcd13ifvqea0","pricing_plan_id":"cebpf4jnsgd1na2vs0mg"},{"bike_id":"24afdfab-37c4-4735-92c6-d449a19a0169","system_id":"levelo_inurba_marseille","lat":43.28154,"lon":5.42636,"is_reserved":false,"is_disabled":false,"rental_uris":{"android":"levelo://app?vid=24afdfab-37c4-4735-92c6-d449a19a0169","ios":"levelo://app?vid=24afdfab-37c4-4735-92c6-d449a19a0169"},"vehicle_type_id":"4","last_reported":1737486418,"current_range_meters":38400,"station_id":"ce4bhnh2rcd13ifvqgug","pricing_plan_id":"cebpf4jnsgd1na2vs0mg"},{"bike_id":"ecb5b041-6b5e-4078-9351-03e340d23225","system_id":"levelo_inurba_marseille","lat":43.25583,"lon":5.38232,"is_reserved":false,"is_disabled":true,"rental_uris":{"android":"levelo://app?vid=ecb5b041-6b5e-4078-9351-03e340d23225","ios":"levelo://app?vid=ecb5b041-6b5e-4078-9351-03e340d23225"},"vehicle_type_id":"4","last_reported":1737486418,"current_range_meters":0,"station_id":"ce4bhih2rcd13ifvqfs0","pricing_plan_id":"cebpf4jnsgd1na2vs0mg"},{"bike_id":"3e2413f1-be2a-4539-9db1-7ce3307c11de","system_id":"levelo_inurba_marseille","lat":43.30699,"lon":5.40052,"is_reserved":false,"is_disabled":false,"rental_uris":{"android":"levelo://app?vid=3e2413f1-be2a-4539-9db1-7ce3307c11de","ios":"levelo://app?vid=3e2413f1-be2a-4539-9db1-7ce3307c11de"},"vehicle_type_id":"4","last_reported":1737486418,"current_range_meters":36800,"station_id":"ce4bh112rcd13ifvqda0","pricing_plan_id":"cebpf4jnsgd1na2vs0mg"},{"bike_id":"82b9fcb3-21e7-403c-b9c6-7c15b2e435d8","system_id":"levelo_inurba_marseille","lat":43.28158,"lon":5.42637,"is_reserved":false,"is_disabled":false,"rental_uris":{"android":"levelo://app?vid=82b9fcb3-21e7-403c-b9c6-7c15b2e435d8","ios":"levelo://app?vid=82b9fcb3-21e7-403c-b9c6-7c15b2e435d8"},"vehicle_type_id":"4","last_reported":1737486418,"current_range_meters":15200,"station_id":"ce4bhnh2rcd13ifvqgug","pricing_plan_id":"cebpf4jnsgd1na2vs0mg"},{"bike_id":"fb351521-7339-453e-ad06-c068124edeec","system_id":"levelo_inurba_marseille","lat":43.23189,"lon":5.40001,"is_reserved":false,"is_disabled":false,"rental_uris":{"android":"levelo://app?vid=fb351521-7339-453e-ad06-c068124edeec","ios":"levelo://app?vid=fb351521-7339-453e-ad06-c068124edeec"},"vehicle_type_id":"4","last_reported":1737486418,"current_range_meters":28000,"station_id":"ce4bhn12rcd13ifvqgqg","pricing_plan_id":"cebpf4jnsgd1na2vs0mg"},{"bike_id":"bce1d3ee-d3d5-4ba5-86ad-1732acd21442","system_id":"levelo_inurba_marseille","lat":43.25582,"lon":5.38233,"is_reserved":false,"is_disabled":false,"rental_uris":{"android":"levelo://app?vid=bce1d3ee-d3d5-4ba5-86ad-1732acd21442","ios":"levelo://app?vid=bce1d3ee-d3d5-4ba5-86ad-1732acd21442"},"vehicle_type_id":"4","last_reported":1737486418,"current_range_meters":27200,"station_id":"ce4bhih2rcd13ifvqfs0","pricing_plan_id":"cebpf4jnsgd1na2vs0mg"},{"bike_id":"7eecce52-558f-4dde-ae95-2d5fe7730cb3","system_id":"levelo_inurba_marseille","lat":43.29441,"lon":5.39744,"is_reserved":false,"is_disabled":false,"rental_uris":{"android":"levelo://app?vid=7eecce52-558f-4dde-ae95-2d5fe7730cb3","ios":"levelo://app?vid=7eecce52-558f-4dde-ae95-2d5fe7730cb3"},"vehicle_type_id":"4","last_reported":1737486418,"current_range_meters":22400,"station_id":"ce4bh3h2rcd13ifvqdo0","pricing_plan_id":"cebpf4jnsgd1na2vs0mg"},{"bike_id":"8b6bee80-e50c-4a97-b941-d0087c0d7ebc","system_id":"levelo_inurba_marseille","lat":43.23967,"lon":5.36632,"is_reserved":false,"is_disabled":false,"rental_uris":{"android":"levelo://app?vid=8b6bee80-e50c-4a97-b941-d0087c0d7ebc","ios":"levelo://app?vid=8b6bee80-e50c-4a97-b941-d0087c0d7ebc"},"vehicle_type_id":"4","last_reported":1737486418,"current_range_meters":19600,"station_id":"ce4bhi12rcd13ifvqfp0","pricing_plan_id":"cebpf4jnsgd1na2vs0mg"},{"bike_id":"50348d1e-afd5-4713-af14-072368523fb3","system_id":"levelo_inurba_marseille","lat":43.27488,"lon":5.42469,"is_reserved":false,"is_disabled":false,"rental_uris":{"android":"levelo://app?vid=50348d1e-afd5-4713-af14-072368523fb3","ios":"levelo://app?vid=50348d1e-afd5-4713-af14-072368523fb3"},"vehicle_type_id":"4","last_reported":1737486418,"current_range_meters":6800,"station_id":"ce4bhn92rcd13ifvqgrg","pricing_plan_id":"cebpf4jnsgd1na2vs0mg"},{"bike_id":"927c86c8-6c98-40ae-9411-d6655e1ef49b","system_id":"levelo_inurba_marseille","lat":43.29264,"lon":5.38443,"is_reserved":false,"is_disabled":false,"rental_uris":{"android":"levelo://app?vid=927c86c8-6c98-40ae-9411-d6655e1ef49b","ios":"levelo://app?vid=927c86c8-6c98-40ae-9411-d6655e1ef49b"},"vehicle_type_id":"4","last_reported":1737486418,"current_range_meters":8800,"station_id":"ce4bh692rcd13ifvqea0","pricing_plan_id":"cebpf4jnsgd1na2vs0mg"},{"bike_id":"5f8e19c0-9d34-400f-8357-29490985c9f2","system_id":"levelo_inurba_marseille","lat":43.27373,"lon":5.36252,"is_reserved":false,"is_disabled":true,"rental_uris":{"android":"levelo://app?vid=5f8e19c0-9d34-400f-8357-29490985c9f2","ios":"levelo://app?vid=5f8e19c0-9d34-400f-8357-29490985c9f2"},"vehicle_type_id":"4","last_reported":1737486418,"current_range_meters":800,"station_id":"ce4bhbh2rcd13ifvqeo0","pricing_plan_id":"cebpf4jnsgd1na2vs0mg"},{"bike_id":"97d4eaa4-75bd-47c8-abda-8e5367f41ce1","system_id":"levelo_inurba_marseille","lat":43.30804,"lon":5.38165,"is_reserved":false,"is_disabled":false,"rental_uris":{"android":"levelo://app?vid=97d4eaa4-75bd-47c8-abda-8e5367f41ce1","ios":"levelo://app?vid=97d4eaa4-75bd-47c8-abda-8e5367f41ce1"},"vehicle_type_id":"4","last_reported":1737486418,"current_range_meters":35200,"station_id":"ce4bgt12rcd13ifvqce0","pricing_plan_id":"cebpf4jnsgd1na2vs0mg"},{"bike_id":"f115555c-7ab6-4e23-af78-0efca96565a3","system_id":"levelo_inurba_marseille","lat":43.25938,"lon":5.40905,"is_reserved":false,"is_disabled":false,"rental_uris":{"android":"levelo://app?vid=f115555c-7ab6-4e23-af78-0efca96565a3","ios":"levelo://app?vid=f115555c-7ab6-4e23-af78-0efca96565a3"},"vehicle_type_id":"4","last_reported":1737486418,"current_range_meters":11600,"station_id":"ce4bhm92rcd13ifvqglg","pricing_plan_id":"cebpf4jnsgd1na2vs0mg"},{"bike_id":"041da02b-9c7e-425f-8720-65c9a3555272","system_id":"levelo_inurba_marseille","lat":43.31757,"lon":5.39022,"is_reserved":false,"is_disabled":false,"rental_uris":{"android":"levelo://app?vid=041da02b-9c7e-425f-8720-65c9a3555272","ios":"levelo://app?vid=041da02b-9c7e-425f-8720-65c9a3555272"},"vehicle_type_id":"4","last_reported":1737486418,"current_range_meters":22400,"station_id":"ce4bhqp2rcd13ifvqhng","pricing_plan_id":"cebpf4jnsgd1na2vs0mg"},{"bike_id":"a546c9b0-986b-47f8-b1d7-665e2fa1229f","system_id":"levelo_inurba_marseille","lat":43.28104,"lon":5.37832,"is_reserved":false,"is_disabled":true,"rental_uris":{"android":"levelo://app?vid=a546c9b0-986b-47f8-b1d7-665e2fa1229f","ios":"levelo://app?vid=a546c9b0-986b-47f8-b1d7-665e2fa1229f"},"vehicle_type_id":"4","last_reported":1737486418,"current_range_meters":38800,"station_id":"ce4bha12rcd13ifvqee0","pricing_plan_id":"cebpf4jnsgd1na2vs0mg"},{"bike_id":"54b85c65-c8ff-417f-9e67-f15db2d22445","system_id":"levelo_inurba_marseille","lat":43.29416,"lon":5.38629,"is_reserved":false,"is_disabled":false,"rental_uris":{"android":"levelo://app?vid=54b85c65-c8ff-417f-9e67-f15db2d22445","ios":"levelo://app?vid=54b85c65-c8ff-417f-9e67-f15db2d22445"},"vehicle_type_id":"4","last_reported":1737486418,"current_range_meters":30800,"station_id":"ce4bh2h2rcd13ifvqdh0","pricing_plan_id":"cebpf4jnsgd1na2vs0mg"},{"bike_id":"12a7c610-4527-4a95-b323-01e09d9077fc","system_id":"levelo_inurba_marseille","lat":43.29312,"lon":5.37418,"is_reserved":false,"is_disabled":false,"rental_uris":{"android":"levelo://app?vid=12a7c610-4527-4a95-b323-01e09d9077fc","ios":"levelo://app?vid=12a7c610-4527-4a95-b323-01e09d9077fc"},"vehicle_type_id":"4","last_reported":1737486418,"current_range_meters":7200,"station_id":"ce4bgi12rcd13ifvqb70","pricing_plan_id":"cebpf4jnsgd1na2vs0mg"},{"bike_id":"81eda55b-22f0-41ba-96da-0a2cbb301511","system_id":"levelo_inurba_marseille","lat":43.29003,"lon":5.35612,"is_reserved":false,"is_disabled":false,"rental_uris":{"android":"levelo://app?vid=81eda55b-22f0-41ba-96da-0a2cbb301511","ios":"levelo://app?vid=81eda55b-22f0-41ba-96da-0a2cbb301511"},"vehicle_type_id":"4","last_reported":1737486418,"current_range_meters":9200,"station_id":"ce4bhb92rcd13ifvqen0","pricing_plan_id":"cebpf4jnsgd1na2vs0mg"},{"bike_id":"974b85f1-3786-424b-b45c-00b3e1039cf2","system_id":"levelo_inurba_marseille","lat":43.28854,"lon":5.39304,"is_reserved":false,"is_disabled":false,"rental_uris":{"android":"levelo://app?vid=974b85f1-3786-424b-b45c-00b3e1039cf2","ios":"levelo://app?vid=974b85f1-3786-424b-b45c-00b3e1039cf2"},"vehicle_type_id":"4","last_reported":1737486418,"current_range_meters":34000,"station_id":"ce4bh2p2rcd13ifvqdi0","pricing_plan_id":"cebpf4jnsgd1na2vs0mg"},{"bike_id":"5bc55e98-e67e-42e5-ae2a-43409348dcdd","system_id":"levelo_inurba_marseille","lat":43.323438,"lon":5.406186,"is_reserved":false,"is_disabled":false,"rental_uris":{"android":"levelo://app?vid=5bc55e98-e67e-42e5-ae2a-43409348dcdd","ios":"levelo://app?vid=5bc55e98-e67e-42e5-ae2a-43409348dcdd"},"vehicle_type_id":"4","last_reported":1737486418,"current_range_meters":28400,"station_id":"ce4bhq92rcd13ifvqhjg","pricing_plan_id":"cebpf4jnsgd1na2vs0mg"},{"bike_id":"0b9b413f-7704-4860-841a-7f725dbde95d","system_id":"levelo_inurba_marseille","lat":43.25093,"lon":5.39521,"is_reserved":false,"is_disabled":true,"rental_uris":{"android":"levelo://app?vid=0b9b413f-7704-4860-841a-7f725dbde95d","ios":"levelo://app?vid=0b9b413f-7704-4860-841a-7f725dbde95d"},"vehicle_type_id":"4","last_reported":1737486418,"current_range_meters":4000,"station_id":"ce4bhm12rcd13ifvqgkg","pricing_plan_id":"cebpf4jnsgd1na2vs0mg"},{"bike_id":"44051abb-0986-42ca-b734-5f986a1c912d","system_id":"levelo_inurba_marseille","lat":43.2926,"lon":5.38444,"is_reserved":false,"is_disabled":false,"rental_uris":{"android":"levelo://app?vid=44051abb-0986-42ca-b734-5f986a1c912d","ios":"levelo://app?vid=44051abb-0986-42ca-b734-5f986a1c912d"},"vehicle_type_id":"4","last_reported":1737486418,"current_range_meters":18800,"station_id":"ce4bh692rcd13ifvqea0","pricing_plan_id":"cebpf4jnsgd1na2vs0mg"},{"bike_id":"6974ec36-364b-47ec-afbc-e384777462d5","system_id":"levelo_inurba_marseille","lat":43.29417,"lon":5.38623,"is_reserved":false,"is_disabled":false,"rental_uris":{"android":"levelo://app?vid=6974ec36-364b-47ec-afbc-e384777462d5","ios":"levelo://app?vid=6974ec36-364b-47ec-afbc-e384777462d5"},"vehicle_type_id":"4","last_reported":1737486418,"current_range_meters":28000,"station_id":"ce4bh2h2rcd13ifvqdh0","pricing_plan_id":"cebpf4jnsgd1na2vs0mg"},{"bike_id":"f7ff9809-554a-403c-a5f6-8cd0fbc6d406","system_id":"levelo_inurba_marseille","lat":43.30662,"lon":5.40098,"is_reserved":false,"is_disabled":false,"rental_uris":{"android":"levelo://app?vid=f7ff9809-554a-403c-a5f6-8cd0fbc6d406","ios":"levelo://app?vid=f7ff9809-554a-403c-a5f6-8cd0fbc6d406"},"vehicle_type_id":"4","last_reported":1737486418,"current_range_meters":38800,"station_id":"ce4bh112rcd13ifvqda0","pricing_plan_id":"cebpf4jnsgd1na2vs0mg"},{"bike_id":"ff20f90a-5863-414a-8a99-f6bfff287ea0","system_id":"levelo_inurba_marseille","lat":43.31755,"lon":5.39016,"is_reserved":false,"is_disabled":false,"rental_uris":{"android":"levelo://app?vid=ff20f90a-5863-414a-8a99-f6bfff287ea0","ios":"levelo://app?vid=ff20f90a-5863-414a-8a99-f6bfff287ea0"},"vehicle_type_id":"4","last_reported":1737486418,"current_range_meters":8000,"station_id":"ce4bhqp2rcd13ifvqhng","pricing_plan_id":"cebpf4jnsgd1na2vs0mg"},{"bike_id":"c43bdcb7-720e-4011-905f-292afc14076a","system_id":"levelo_inurba_marseille","lat":43.26555,"lon":5.37284,"is_reserved":false,"is_disabled":true,"rental_uris":{"android":"levelo://app?vid=c43bdcb7-720e-4011-905f-292afc14076a","ios":"levelo://app?vid=c43bdcb7-720e-4011-905f-292afc14076a"},"vehicle_type_id":"4","last_reported":1737486418,"current_range_meters":0,"station_id":"ce4bhg12rcd13ifvqf70","pricing_plan_id":"cebpf4jnsgd1na2vs0mg"},{"bike_id":"fa3c62a8-827a-4e24-af5b-a872c34a1e69","system_id":"levelo_inurba_marseille","lat":43.27919,"lon":5.39572,"is_reserved":false,"is_disabled":true,"rental_uris":{"android":"levelo://app?vid=fa3c62a8-827a-4e24-af5b-a872c34a1e69","ios":"levelo://app?vid=fa3c62a8-827a-4e24-af5b-a872c34a1e69"},"vehicle_type_id":"4","last_reported":1737486418,"current_range_meters":1200,"station_id":"ce4bhf92rcd13ifvqf40","pricing_plan_id":"cebpf4jnsgd1na2vs0mg"},{"bike_id":"0c9501e4-9bf3-49f5-bd4b-a7e3268be1e2","system_id":"levelo_inurba_marseille","lat":43.29186,"lon":5.39319,"is_reserved":false,"is_disabled":false,"rental_uris":{"android":"levelo://app?vid=0c9501e4-9bf3-49f5-bd4b-a7e3268be1e2","ios":"levelo://app?vid=0c9501e4-9bf3-49f5-bd4b-a7e3268be1e2"},"vehicle_type_id":"4","last_reported":1737486418,"current_range_meters":25200,"station_id":"ce4bh192rcd13ifvqdd0","pricing_plan_id":"cebpf4jnsgd1na2vs0mg"},{"bike_id":"2fc90e2b-7bc3-4c1c-b9a1-54e988a74917","system_id":"levelo_inurba_marseille","lat":43.279439,"lon":5.389008,"is_reserved":false,"is_disabled":true,"rental_uris":{"android":"levelo://app?vid=2fc90e2b-7bc3-4c1c-b9a1-54e988a74917","ios":"levelo://app?vid=2fc90e2b-7bc3-4c1c-b9a1-54e988a74917"},"vehicle_type_id":"4","last_reported":1737486418,"current_range_meters":32800,"station_id":"","pricing_plan_id":"cebpf4jnsgd1na2vs0mg"},{"bike_id":"6afeeefa-11c0-4f74-82c2-cb592a43a0b2","system_id":"levelo_inurba_marseille","lat":43.281519,"lon":5.426466,"is_reserved":false,"is_disabled":false,"rental_uris":{"android":"levelo://app?vid=6afeeefa-11c0-4f74-82c2-cb592a43a0b2","ios":"levelo://app?vid=6afeeefa-11c0-4f74-82c2-cb592a43a0b2"},"vehicle_type_id":"4","last_reported":1737486418,"current_range_meters":38800,"station_id":"ce4bhnh2rcd13ifvqgug","pricing_plan_id":"cebpf4jnsgd1na2vs0mg"},{"bike_id":"c7ddd3a4-15e8-495a-88c8-c9e8be4fd358","system_id":"levelo_inurba_marseille","lat":43.2862,"lon":5.35109,"is_reserved":false,"is_disabled":false,"rental_uris":{"android":"levelo://app?vid=c7ddd3a4-15e8-495a-88c8-c9e8be4fd358","ios":"levelo://app?vid=c7ddd3a4-15e8-495a-88c8-c9e8be4fd358"},"vehicle_type_id":"4","last_reported":1737486418,"current_range_meters":12800,"station_id":"ce4bhch2rcd13ifvqeug","pricing_plan_id":"cebpf4jnsgd1na2vs0mg"},{"bike_id":"bd3fc15b-802a-4797-9c22-b8f6e7d61297","system_id":"levelo_inurba_marseille","lat":43.3117,"lon":5.38719,"is_reserved":false,"is_disabled":false,"rental_uris":{"android":"levelo://app?vid=bd3fc15b-802a-4797-9c22-b8f6e7d61297","ios":"levelo://app?vid=bd3fc15b-802a-4797-9c22-b8f6e7d61297"},"vehicle_type_id":"4","last_reported":1737486418,"current_range_meters":38000,"station_id":"ce4bgv12rcd13ifvqcp0","pricing_plan_id":"cebpf4jnsgd1na2vs0mg"},{"bike_id":"a33c20bb-cefc-4363-8525-97f6d877ea04","system_id":"levelo_inurba_marseille","lat":43.25093,"lon":5.39518,"is_reserved":false,"is_disabled":false,"rental_uris":{"android":"levelo://app?vid=a33c20bb-cefc-4363-8525-97f6d877ea04","ios":"levelo://app?vid=a33c20bb-cefc-4363-8525-97f6d877ea04"},"vehicle_type_id":"4","last_reported":1737486418,"current_range_meters":38400,"station_id":"ce4bhm12rcd13ifvqgkg","pricing_plan_id":"cebpf4jnsgd1na2vs0mg"},{"bike_id":"6ad4ce4e-7f96-45d7-80ea-5b19a44b34c3","system_id":"levelo_inurba_marseille","lat":43.31332,"lon":5.39695,"is_reserved":false,"is_disabled":false,"rental_uris":{"android":"levelo://app?vid=6ad4ce4e-7f96-45d7-80ea-5b19a44b34c3","ios":"levelo://app?vid=6ad4ce4e-7f96-45d7-80ea-5b19a44b34c3"},"vehicle_type_id":"4","last_reported":1737486418,"current_range_meters":16400,"station_id":"ce4bgvp2rcd13ifvqcu0","pricing_plan_id":"cebpf4jnsgd1na2vs0mg"},{"bike_id":"227e78bf-cdca-4dfa-9c62-95921093e4a7","system_id":"levelo_inurba_marseille","lat":43.28422,"lon":5.3499,"is_reserved":false,"is_disabled":false,"rental_uris":{"android":"levelo://app?vid=227e78bf-cdca-4dfa-9c62-95921093e4a7","ios":"levelo://app?vid=227e78bf-cdca-4dfa-9c62-95921093e4a7"},"vehicle_type_id":"4","last_reported":1737486418,"current_range_meters":14400,"station_id":"ce4bhbh2rcd13ifvqepg","pricing_plan_id":"cebpf4jnsgd1na2vs0mg"},{"bike_id":"50303c09-440a-4fcc-915f-3ef4dff41a37","system_id":"levelo_inurba_marseille","lat":43.28657,"lon":5.36361,"is_reserved":false,"is_disabled":false,"rental_uris":{"android":"levelo://app?vid=50303c09-440a-4fcc-915f-3ef4dff41a37","ios":"levelo://app?vid=50303c09-440a-4fcc-915f-3ef4dff41a37"},"vehicle_type_id":"4","last_reported":1737486418,"current_range_meters":38000,"station_id":"ce4bhah2rcd13ifvqej0","pricing_plan_id":"cebpf4jnsgd1na2vs0mg"},{"bike_id":"14bf62af-c950-435b-82dd-0bca67231add","system_id":"levelo_inurba_marseille","lat":43.25721,"lon":5.4112,"is_reserved":false,"is_disabled":false,"rental_uris":{"android":"levelo://app?vid=14bf62af-c950-435b-82dd-0bca67231add","ios":"levelo://app?vid=14bf62af-c950-435b-82dd-0bca67231add"},"vehicle_type_id":"4","last_reported":1737486418,"current_range_meters":38800,"station_id":"ce4bhkp2rcd13ifvqgd0","pricing_plan_id":"cebpf4jnsgd1na2vs0mg"},{"bike_id":"509edcb3-c5bb-4913-aeae-8110c0663740","system_id":"levelo_inurba_marseille","lat":43.29571,"lon":5.39962,"is_reserved":false,"is_disabled":true,"rental_uris":{"android":"levelo://app?vid=509edcb3-c5bb-4913-aeae-8110c0663740","ios":"levelo://app?vid=509edcb3-c5bb-4913-aeae-8110c0663740"},"vehicle_type_id":"4","last_reported":1737486418,"current_range_meters":24800,"station_id":"ce4bh312rcd13ifvqdj0","pricing_plan_id":"cebpf4jnsgd1na2vs0mg"},{"bike_id":"d3c6f435-a47b-4863-a5c1-f63982402f0c","system_id":"levelo_inurba_marseille","lat":43.28457,"lon":5.35899,"is_reserved":false,"is_disabled":false,"rental_uris":{"android":"levelo://app?vid=d3c6f435-a47b-4863-a5c1-f63982402f0c","ios":"levelo://app?vid=d3c6f435-a47b-4863-a5c1-f63982402f0c"},"vehicle_type_id":"4","last_reported":1737486418,"current_range_meters":23200,"station_id":"ce4bhah2rcd13ifvqei0","pricing_plan_id":"cebpf4jnsgd1na2vs0mg"},{"bike_id":"6fd267bc-a341-4208-b6b8-8807a815a293","system_id":"levelo_inurba_marseille","lat":43.284837,"lon":5.384078,"is_reserved":false,"is_disabled":false,"rental_uris":{"android":"levelo://app?vid=6fd267bc-a341-4208-b6b8-8807a815a293","ios":"levelo://app?vid=6fd267bc-a341-4208-b6b8-8807a815a293"},"vehicle_type_id":"4","last_reported":1737486418,"current_range_meters":27200,"station_id":"ce4bh512rcd13ifvqe3g","pricing_plan_id":"cebpf4jnsgd1na2vs0mg"},{"bike_id":"f422bbff-0f2f-49ed-9b1c-227ec1411414","system_id":"levelo_inurba_marseille","lat":43.27993,"lon":5.40026,"is_reserved":false,"is_disabled":false,"rental_uris":{"android":"levelo://app?vid=f422bbff-0f2f-49ed-9b1c-227ec1411414","ios":"levelo://app?vid=f422bbff-0f2f-49ed-9b1c-227ec1411414"},"vehicle_type_id":"4","last_reported":1737486418,"current_range_meters":9600,"station_id":"ce4bho92rcd13ifvqh4g","pricing_plan_id":"cebpf4jnsgd1na2vs0mg"},{"bike_id":"641a8296-ae52-4500-8f2d-eec6d49b0e11","system_id":"levelo_inurba_marseille","lat":43.29531,"lon":5.39045,"is_reserved":false,"is_disabled":false,"rental_uris":{"android":"levelo://app?vid=641a8296-ae52-4500-8f2d-eec6d49b0e11","ios":"levelo://app?vid=641a8296-ae52-4500-8f2d-eec6d49b0e11"},"vehicle_type_id":"4","last_reported":1737486418,"current_range_meters":10000,"station_id":"ce4bh3p2rcd13ifvqdp0","pricing_plan_id":"cebpf4jnsgd1na2vs0mg"},{"bike_id":"f1e53540-21ab-4f69-93a5-258d82c2555d","system_id":"levelo_inurba_marseille","lat":43.29567,"lon":5.39976,"is_reserved":false,"is_disabled":false,"rental_uris":{"android":"levelo://app?vid=f1e53540-21ab-4f69-93a5-258d82c2555d","ios":"levelo://app?vid=f1e53540-21ab-4f69-93a5-258d82c2555d"},"vehicle_type_id":"4","last_reported":1737486418,"current_range_meters":11200,"station_id":"ce4bh312rcd13ifvqdj0","pricing_plan_id":"cebpf4jnsgd1na2vs0mg"},{"bike_id":"02ad824b-d7dc-42dc-aeab-fa239be6d8ae","system_id":"levelo_inurba_marseille","lat":43.30331,"lon":5.40435,"is_reserved":false,"is_disabled":false,"rental_uris":{"android":"levelo://app?vid=02ad824b-d7dc-42dc-aeab-fa239be6d8ae","ios":"levelo://app?vid=02ad824b-d7dc-42dc-aeab-fa239be6d8ae"},"vehicle_type_id":"4","last_reported":1737486418,"current_range_meters":33600,"station_id":"ce4bh012rcd13ifvqd10","pricing_plan_id":"cebpf4jnsgd1na2vs0mg"},{"bike_id":"4e574611-a3f8-452a-a155-fe58a7adfdc0","system_id":"levelo_inurba_marseille","lat":43.30315,"lon":5.40431,"is_reserved":false,"is_disabled":false,"rental_uris":{"android":"levelo://app?vid=4e574611-a3f8-452a-a155-fe58a7adfdc0","ios":"levelo://app?vid=4e574611-a3f8-452a-a155-fe58a7adfdc0"},"vehicle_type_id":"4","last_reported":1737486418,"current_range_meters":38000,"station_id":"ce4bh012rcd13ifvqd10","pricing_plan_id":"cebpf4jnsgd1na2vs0mg"},{"bike_id":"2b45d3a7-91d8-49d0-8c5f-128d9bc93a89","system_id":"levelo_inurba_marseille","lat":43.29425,"lon":5.38621,"is_reserved":false,"is_disabled":false,"rental_uris":{"android":"levelo://app?vid=2b45d3a7-91d8-49d0-8c5f-128d9bc93a89","ios":"levelo://app?vid=2b45d3a7-91d8-49d0-8c5f-128d9bc93a89"},"vehicle_type_id":"4","last_reported":1737486418,"current_range_meters":38800,"station_id":"ce4bh2h2rcd13ifvqdh0","pricing_plan_id":"cebpf4jnsgd1na2vs0mg"},{"bike_id":"5954b14c-b84c-496e-95b6-f96cad1f6599","system_id":"levelo_inurba_marseille","lat":43.2866,"lon":5.36341,"is_reserved":false,"is_disabled":false,"rental_uris":{"android":"levelo://app?vid=5954b14c-b84c-496e-95b6-f96cad1f6599","ios":"levelo://app?vid=5954b14c-b84c-496e-95b6-f96cad1f6599"},"vehicle_type_id":"4","last_reported":1737486418,"current_range_meters":10000,"station_id":"ce4bhah2rcd13ifvqej0","pricing_plan_id":"cebpf4jnsgd1na2vs0mg"},{"bike_id":"47fbab1b-621a-49c9-a08e-bd0bf2527ca6","system_id":"levelo_inurba_marseille","lat":43.30593,"lon":5.39355,"is_reserved":false,"is_disabled":false,"rental_uris":{"android":"levelo://app?vid=47fbab1b-621a-49c9-a08e-bd0bf2527ca6","ios":"levelo://app?vid=47fbab1b-621a-49c9-a08e-bd0bf2527ca6"},"vehicle_type_id":"4","last_reported":1737486418,"current_range_meters":22000,"station_id":"ce4bh0p2rcd13ifvqd80","pricing_plan_id":"cebpf4jnsgd1na2vs0mg"},{"bike_id":"7dda9ae6-7af0-4b5f-bf8d-cc0e380a029b","system_id":"levelo_inurba_marseille","lat":43.30797,"lon":5.38154,"is_reserved":false,"is_disabled":false,"rental_uris":{"android":"levelo://app?vid=7dda9ae6-7af0-4b5f-bf8d-cc0e380a029b","ios":"levelo://app?vid=7dda9ae6-7af0-4b5f-bf8d-cc0e380a029b"},"vehicle_type_id":"4","last_reported":1737486418,"current_range_meters":28800,"station_id":"ce4bgt12rcd13ifvqce0","pricing_plan_id":"cebpf4jnsgd1na2vs0mg"},{"bike_id":"11d2ed04-7854-4a68-b448-42a5b92b9097","system_id":"levelo_inurba_marseille","lat":43.30287,"lon":5.3919,"is_reserved":false,"is_disabled":false,"rental_uris":{"android":"levelo://app?vid=11d2ed04-7854-4a68-b448-42a5b92b9097","ios":"levelo://app?vid=11d2ed04-7854-4a68-b448-42a5b92b9097"},"vehicle_type_id":"4","last_reported":1737486418,"current_range_meters":38800,"station_id":"ce4bgkh2rcd13ifvqbk0","pricing_plan_id":"cebpf4jnsgd1na2vs0mg"},{"bike_id":"e26271d0-d0dc-479b-8fc7-94e5f338e130","system_id":"levelo_inurba_marseille","lat":43.27675,"lon":5.3888,"is_reserved":false,"is_disabled":false,"rental_uris":{"android":"levelo://app?vid=e26271d0-d0dc-479b-8fc7-94e5f338e130","ios":"levelo://app?vid=e26271d0-d0dc-479b-8fc7-94e5f338e130"},"vehicle_type_id":"4","last_reported":1737486418,"current_range_meters":27600,"station_id":"ce4bhi12rcd13ifvqfo0","pricing_plan_id":"cebpf4jnsgd1na2vs0mg"},{"bike_id":"bee69d10-83cf-4606-b95e-6eebf13aa4e4","system_id":"levelo_inurba_marseille","lat":43.31352,"lon":5.385,"is_reserved":false,"is_disabled":false,"rental_uris":{"android":"levelo://app?vid=bee69d10-83cf-4606-b95e-6eebf13aa4e4","ios":"levelo://app?vid=bee69d10-83cf-4606-b95e-6eebf13aa4e4"},"vehicle_type_id":"4","last_reported":1737486418,"current_range_meters":33200,"station_id":"ce4bgt92rcd13ifvqcf0","pricing_plan_id":"cebpf4jnsgd1na2vs0mg"},{"bike_id":"6b3fa79b-efa4-49e4-8349-a92455f84dea","system_id":"levelo_inurba_marseille","lat":43.32337,"lon":5.40617,"is_reserved":false,"is_disabled":false,"rental_uris":{"android":"levelo://app?vid=6b3fa79b-efa4-49e4-8349-a92455f84dea","ios":"levelo://app?vid=6b3fa79b-efa4-49e4-8349-a92455f84dea"},"vehicle_type_id":"4","last_reported":1737486418,"current_range_meters":37600,"station_id":"ce4bhq92rcd13ifvqhjg","pricing_plan_id":"cebpf4jnsgd1na2vs0mg"},{"bike_id":"ce727daa-4df6-4930-bda1-ea76f30235a9","system_id":"levelo_inurba_marseille","lat":43.27962,"lon":5.41032,"is_reserved":false,"is_disabled":false,"rental_uris":{"android":"levelo://app?vid=ce727daa-4df6-4930-bda1-ea76f30235a9","ios":"levelo://app?vid=ce727daa-4df6-4930-bda1-ea76f30235a9"},"vehicle_type_id":"4","last_reported":1737486418,"current_range_meters":38800,"station_id":"ce4bhnp2rcd13ifvqh0g","pricing_plan_id":"cebpf4jnsgd1na2vs0mg"},{"bike_id":"e3195009-f3b5-4bfa-86a4-b36e59ce3395","system_id":"levelo_inurba_marseille","lat":43.30291,"lon":5.39202,"is_reserved":false,"is_disabled":false,"rental_uris":{"android":"levelo://app?vid=e3195009-f3b5-4bfa-86a4-b36e59ce3395","ios":"levelo://app?vid=e3195009-f3b5-4bfa-86a4-b36e59ce3395"},"vehicle_type_id":"4","last_reported":1737486418,"current_range_meters":19600,"station_id":"ce4bgkh2rcd13ifvqbk0","pricing_plan_id":"cebpf4jnsgd1na2vs0mg"},{"bike_id":"301ad218-79fc-4f77-96f2-3aac2d1a8ccf","system_id":"levelo_inurba_marseille","lat":43.2593,"lon":5.39418,"is_reserved":false,"is_disabled":true,"rental_uris":{"android":"levelo://app?vid=301ad218-79fc-4f77-96f2-3aac2d1a8ccf","ios":"levelo://app?vid=301ad218-79fc-4f77-96f2-3aac2d1a8ccf"},"vehicle_type_id":"4","last_reported":1737486418,"current_range_meters":6400,"station_id":"","pricing_plan_id":"cebpf4jnsgd1na2vs0mg"},{"bike_id":"586a2980-e4c2-41d5-8aec-10c6ea4c877d","system_id":"levelo_inurba_marseille","lat":43.27918,"lon":5.39588,"is_reserved":false,"is_disabled":true,"rental_uris":{"android":"levelo://app?vid=586a2980-e4c2-41d5-8aec-10c6ea4c877d","ios":"levelo://app?vid=586a2980-e4c2-41d5-8aec-10c6ea4c877d"},"vehicle_type_id":"4","last_reported":1737486418,"current_range_meters":38400,"station_id":"ce4bhf92rcd13ifvqf40","pricing_plan_id":"cebpf4jnsgd1na2vs0mg"},{"bike_id":"36313935-8c2e-4995-b78c-2ec8117060b7","system_id":"levelo_inurba_marseille","lat":43.28453,"lon":5.35882,"is_reserved":false,"is_disabled":false,"rental_uris":{"android":"levelo://app?vid=36313935-8c2e-4995-b78c-2ec8117060b7","ios":"levelo://app?vid=36313935-8c2e-4995-b78c-2ec8117060b7"},"vehicle_type_id":"4","last_reported":1737486418,"current_range_meters":32000,"station_id":"ce4bhah2rcd13ifvqei0","pricing_plan_id":"cebpf4jnsgd1na2vs0mg"},{"bike_id":"93155067-b46c-4d49-bac5-b8119b3718a9","system_id":"levelo_inurba_marseille","lat":43.30798,"lon":5.3816,"is_reserved":false,"is_disabled":false,"rental_uris":{"android":"levelo://app?vid=93155067-b46c-4d49-bac5-b8119b3718a9","ios":"levelo://app?vid=93155067-b46c-4d49-bac5-b8119b3718a9"},"vehicle_type_id":"4","last_reported":1737486418,"current_range_meters":37600,"station_id":"ce4bgt12rcd13ifvqce0","pricing_plan_id":"cebpf4jnsgd1na2vs0mg"},{"bike_id":"a478c8e4-70f7-4330-80af-a80f08fe66b3","system_id":"levelo_inurba_marseille","lat":43.25719,"lon":5.41104,"is_reserved":false,"is_disabled":false,"rental_uris":{"android":"levelo://app?vid=a478c8e4-70f7-4330-80af-a80f08fe66b3","ios":"levelo://app?vid=a478c8e4-70f7-4330-80af-a80f08fe66b3"},"vehicle_type_id":"4","last_reported":1737486418,"current_range_meters":23200,"station_id":"ce4bhkp2rcd13ifvqgd0","pricing_plan_id":"cebpf4jnsgd1na2vs0mg"},{"bike_id":"4806a606-9d68-4dda-865e-687fe402f8eb","system_id":"levelo_inurba_marseille","lat":43.33725,"lon":5.39184,"is_reserved":false,"is_disabled":false,"rental_uris":{"android":"levelo://app?vid=4806a606-9d68-4dda-865e-687fe402f8eb","ios":"levelo://app?vid=4806a606-9d68-4dda-865e-687fe402f8eb"},"vehicle_type_id":"4","last_reported":1737486418,"current_range_meters":11200,"station_id":"ce4bhr92rcd13ifvqhsg","pricing_plan_id":"cebpf4jnsgd1na2vs0mg"},{"bike_id":"35b99832-e516-4167-b4d3-3a041a781051","system_id":"levelo_inurba_marseille","lat":43.29446,"lon":5.39738,"is_reserved":false,"is_disabled":false,"rental_uris":{"android":"levelo://app?vid=35b99832-e516-4167-b4d3-3a041a781051","ios":"levelo://app?vid=35b99832-e516-4167-b4d3-3a041a781051"},"vehicle_type_id":"4","last_reported":1737486418,"current_range_meters":10000,"station_id":"ce4bh3h2rcd13ifvqdo0","pricing_plan_id":"cebpf4jnsgd1na2vs0mg"},{"bike_id":"ac24dab0-73a5-4938-8b78-8d285d6dc18f","system_id":"levelo_inurba_marseille","lat":43.27906,"lon":5.3959,"is_reserved":false,"is_disabled":false,"rental_uris":{"android":"levelo://app?vid=ac24dab0-73a5-4938-8b78-8d285d6dc18f","ios":"levelo://app?vid=ac24dab0-73a5-4938-8b78-8d285d6dc18f"},"vehicle_type_id":"4","last_reported":1737486418,"current_range_meters":20800,"station_id":"ce4bhf92rcd13ifvqf40","pricing_plan_id":"cebpf4jnsgd1na2vs0mg"},{"bike_id":"b834a014-a9be-4559-bbaa-15aa5f1cbaa1","system_id":"levelo_inurba_marseille","lat":43.23194,"lon":5.355559,"is_reserved":false,"is_disabled":false,"rental_uris":{"android":"levelo://app?vid=b834a014-a9be-4559-bbaa-15aa5f1cbaa1","ios":"levelo://app?vid=b834a014-a9be-4559-bbaa-15aa5f1cbaa1"},"vehicle_type_id":"4","last_reported":1737486418,"current_range_meters":36800,"station_id":"ce4bhu92rcd13ifvqi70","pricing_plan_id":"cebpf4jnsgd1na2vs0mg"},{"bike_id":"5f776b34-b727-4c57-9619-656fb56904de","system_id":"levelo_inurba_marseille","lat":43.31738,"lon":5.42389,"is_reserved":false,"is_disabled":false,"rental_uris":{"android":"levelo://app?vid=5f776b34-b727-4c57-9619-656fb56904de","ios":"levelo://app?vid=5f776b34-b727-4c57-9619-656fb56904de"},"vehicle_type_id":"4","last_reported":1737486418,"current_range_meters":37600,"station_id":"ce4bhp92rcd13ifvqhbg","pricing_plan_id":"cebpf4jnsgd1na2vs0mg"},{"bike_id":"ca0dc8e0-206b-40b7-8d43-9b4ec69057c7","system_id":"levelo_inurba_marseille","lat":43.24166,"lon":5.36396,"is_reserved":false,"is_disabled":false,"rental_uris":{"android":"levelo://app?vid=ca0dc8e0-206b-40b7-8d43-9b4ec69057c7","ios":"levelo://app?vid=ca0dc8e0-206b-40b7-8d43-9b4ec69057c7"},"vehicle_type_id":"4","last_reported":1737486418,"current_range_meters":20400,"station_id":"cpo36qri1sfpv3e86is0","pricing_plan_id":"cebpf4jnsgd1na2vs0mg"},{"bike_id":"e68b1a06-e343-4aee-acef-4b2247b0a6d0","system_id":"levelo_inurba_marseille","lat":43.2993,"lon":5.36519,"is_reserved":false,"is_disabled":false,"rental_uris":{"android":"levelo://app?vid=e68b1a06-e343-4aee-acef-4b2247b0a6d0","ios":"levelo://app?vid=e68b1a06-e343-4aee-acef-4b2247b0a6d0"},"vehicle_type_id":"4","last_reported":1737486418,"current_range_meters":23200,"station_id":"ce4bgm92rcd13ifvqbr0","pricing_plan_id":"cebpf4jnsgd1na2vs0mg"},{"bike_id":"748437f3-7778-48d5-a968-a6ee3b0408c7","system_id":"levelo_inurba_marseille","lat":43.28077,"lon":5.3966,"is_reserved":false,"is_disabled":false,"rental_uris":{"android":"levelo://app?vid=748437f3-7778-48d5-a968-a6ee3b0408c7","ios":"levelo://app?vid=748437f3-7778-48d5-a968-a6ee3b0408c7"},"vehicle_type_id":"4","last_reported":1737486418,"current_range_meters":39200,"station_id":"ce4bho12rcd13ifvqh2g","pricing_plan_id":"cebpf4jnsgd1na2vs0mg"},{"bike_id":"d30c6dcf-861f-40e2-9275-5e16f82ebb89","system_id":"levelo_inurba_marseille","lat":43.31067,"lon":5.40089,"is_reserved":false,"is_disabled":false,"rental_uris":{"android":"levelo://app?vid=d30c6dcf-861f-40e2-9275-5e16f82ebb89","ios":"levelo://app?vid=d30c6dcf-861f-40e2-9275-5e16f82ebb89"},"vehicle_type_id":"4","last_reported":1737486418,"current_range_meters":16400,"station_id":"","pricing_plan_id":"cebpf4jnsgd1na2vs0mg"},{"bike_id":"0b173ddb-679f-48a0-a20f-69eedf1f060e","system_id":"levelo_inurba_marseille","lat":43.29172,"lon":5.37176,"is_reserved":false,"is_disabled":false,"rental_uris":{"android":"levelo://app?vid=0b173ddb-679f-48a0-a20f-69eedf1f060e","ios":"levelo://app?vid=0b173ddb-679f-48a0-a20f-69eedf1f060e"},"vehicle_type_id":"4","last_reported":1737486418,"current_range_meters":26800,"station_id":"ce4bha92rcd13ifvqeh0","pricing_plan_id":"cebpf4jnsgd1na2vs0mg"},{"bike_id":"d8b49f42-144a-4cb8-8172-0b5099baab4f","system_id":"levelo_inurba_marseille","lat":43.2397,"lon":5.36631,"is_reserved":false,"is_disabled":false,"rental_uris":{"android":"levelo://app?vid=d8b49f42-144a-4cb8-8172-0b5099baab4f","ios":"levelo://app?vid=d8b49f42-144a-4cb8-8172-0b5099baab4f"},"vehicle_type_id":"4","last_reported":1737486418,"current_range_meters":27600,"station_id":"ce4bhi12rcd13ifvqfp0","pricing_plan_id":"cebpf4jnsgd1na2vs0mg"},{"bike_id":"555c7526-6823-4916-be23-850ed9316971","system_id":"levelo_inurba_marseille","lat":43.31354,"lon":5.3849,"is_reserved":false,"is_disabled":false,"rental_uris":{"android":"levelo://app?vid=555c7526-6823-4916-be23-850ed9316971","ios":"levelo://app?vid=555c7526-6823-4916-be23-850ed9316971"},"vehicle_type_id":"4","last_reported":1737486418,"current_range_meters":35600,"station_id":"ce4bgt92rcd13ifvqcf0","pricing_plan_id":"cebpf4jnsgd1na2vs0mg"},{"bike_id":"f48ef6ea-4ef2-4dce-a486-e088ebe84980","system_id":"levelo_inurba_marseille","lat":43.29276,"lon":5.36839,"is_reserved":false,"is_disabled":false,"rental_uris":{"android":"levelo://app?vid=f48ef6ea-4ef2-4dce-a486-e088ebe84980","ios":"levelo://app?vid=f48ef6ea-4ef2-4dce-a486-e088ebe84980"},"vehicle_type_id":"4","last_reported":1737486418,"current_range_meters":7200,"station_id":"ce4bhbp2rcd13ifvqesg","pricing_plan_id":"cebpf4jnsgd1na2vs0mg"},{"bike_id":"e4ee8ff5-67ba-4f76-8dea-95e4c50917fc","system_id":"levelo_inurba_marseille","lat":43.29244,"lon":5.38456,"is_reserved":false,"is_disabled":false,"rental_uris":{"android":"levelo://app?vid=e4ee8ff5-67ba-4f76-8dea-95e4c50917fc","ios":"levelo://app?vid=e4ee8ff5-67ba-4f76-8dea-95e4c50917fc"},"vehicle_type_id":"4","last_reported":1737486418,"current_range_meters":20800,"station_id":"ce4bh692rcd13ifvqea0","pricing_plan_id":"cebpf4jnsgd1na2vs0mg"},{"bike_id":"0ddd0856-31f1-4750-bad7-c1a5c107c49e","system_id":"levelo_inurba_marseille","lat":43.31066,"lon":5.38337,"is_reserved":false,"is_disabled":false,"rental_uris":{"android":"levelo://app?vid=0ddd0856-31f1-4750-bad7-c1a5c107c49e","ios":"levelo://app?vid=0ddd0856-31f1-4750-bad7-c1a5c107c49e"},"vehicle_type_id":"4","last_reported":1737486418,"current_range_meters":36000,"station_id":"ce4bgv92rcd13ifvqcr0","pricing_plan_id":"cebpf4jnsgd1na2vs0mg"},{"bike_id":"4d73addb-9a2c-42ca-90aa-6fa767cadab0","system_id":"levelo_inurba_marseille","lat":43.31367,"lon":5.38496,"is_reserved":false,"is_disabled":false,"rental_uris":{"android":"levelo://app?vid=4d73addb-9a2c-42ca-90aa-6fa767cadab0","ios":"levelo://app?vid=4d73addb-9a2c-42ca-90aa-6fa767cadab0"},"vehicle_type_id":"4","last_reported":1737486418,"current_range_meters":33600,"station_id":"ce4bgt92rcd13ifvqcf0","pricing_plan_id":"cebpf4jnsgd1na2vs0mg"},{"bike_id":"444c3f16-6bca-4a72-8ef2-dfde4bce7a48","system_id":"levelo_inurba_marseille","lat":43.28154,"lon":5.42647,"is_reserved":false,"is_disabled":false,"rental_uris":{"android":"levelo://app?vid=444c3f16-6bca-4a72-8ef2-dfde4bce7a48","ios":"levelo://app?vid=444c3f16-6bca-4a72-8ef2-dfde4bce7a48"},"vehicle_type_id":"4","last_reported":1737486418,"current_range_meters":22800,"station_id":"ce4bhnh2rcd13ifvqgug","pricing_plan_id":"cebpf4jnsgd1na2vs0mg"},{"bike_id":"52b24477-8bd3-4b72-ae59-39743df5fbcf","system_id":"levelo_inurba_marseille","lat":43.28576,"lon":5.39492,"is_reserved":false,"is_disabled":false,"rental_uris":{"android":"levelo://app?vid=52b24477-8bd3-4b72-ae59-39743df5fbcf","ios":"levelo://app?vid=52b24477-8bd3-4b72-ae59-39743df5fbcf"},"vehicle_type_id":"4","last_reported":1737486418,"current_range_meters":28000,"station_id":"ce4bh292rcd13ifvqdg0","pricing_plan_id":"cebpf4jnsgd1na2vs0mg"},{"bike_id":"b2598b4d-9a68-478b-8e42-9c332ae2a893","system_id":"levelo_inurba_marseille","lat":43.28715,"lon":5.36087,"is_reserved":false,"is_disabled":false,"rental_uris":{"android":"levelo://app?vid=b2598b4d-9a68-478b-8e42-9c332ae2a893","ios":"levelo://app?vid=b2598b4d-9a68-478b-8e42-9c332ae2a893"},"vehicle_type_id":"4","last_reported":1737486418,"current_range_meters":39200,"station_id":"cki0cbj6b192h4jlfktg","pricing_plan_id":"cebpf4jnsgd1na2vs0mg"},{"bike_id":"a95c4a82-20f8-4222-b1c2-f5c9c6934a26","system_id":"levelo_inurba_marseille","lat":43.28072,"lon":5.39654,"is_reserved":false,"is_disabled":false,"rental_uris":{"android":"levelo://app?vid=a95c4a82-20f8-4222-b1c2-f5c9c6934a26","ios":"levelo://app?vid=a95c4a82-20f8-4222-b1c2-f5c9c6934a26"},"vehicle_type_id":"4","last_reported":1737486418,"current_range_meters":39200,"station_id":"ce4bho12rcd13ifvqh2g","pricing_plan_id":"cebpf4jnsgd1na2vs0mg"},{"bike_id":"aff68d45-bbc9-4858-ba56-48d23d1fd2b4","system_id":"levelo_inurba_marseille","lat":43.29541,"lon":5.38528,"is_reserved":false,"is_disabled":false,"rental_uris":{"android":"levelo://app?vid=aff68d45-bbc9-4858-ba56-48d23d1fd2b4","ios":"levelo://app?vid=aff68d45-bbc9-4858-ba56-48d23d1fd2b4"},"vehicle_type_id":"4","last_reported":1737486418,"current_range_meters":36800,"station_id":"ce4bgih2rcd13ifvqba0","pricing_plan_id":"cebpf4jnsgd1na2vs0mg"},{"bike_id":"3d0ff210-1bf1-4b65-b116-e903d3aeffbb","system_id":"levelo_inurba_marseille","lat":43.27991,"lon":5.40012,"is_reserved":false,"is_disabled":false,"rental_uris":{"android":"levelo://app?vid=3d0ff210-1bf1-4b65-b116-e903d3aeffbb","ios":"levelo://app?vid=3d0ff210-1bf1-4b65-b116-e903d3aeffbb"},"vehicle_type_id":"4","last_reported":1737486418,"current_range_meters":18800,"station_id":"ce4bho92rcd13ifvqh4g","pricing_plan_id":"cebpf4jnsgd1na2vs0mg"},{"bike_id":"792e0f31-7c31-4271-88c2-6d8e4dcbcece","system_id":"levelo_inurba_marseille","lat":43.27669,"lon":5.38895,"is_reserved":false,"is_disabled":false,"rental_uris":{"android":"levelo://app?vid=792e0f31-7c31-4271-88c2-6d8e4dcbcece","ios":"levelo://app?vid=792e0f31-7c31-4271-88c2-6d8e4dcbcece"},"vehicle_type_id":"4","last_reported":1737486418,"current_range_meters":33600,"station_id":"ce4bhi12rcd13ifvqfo0","pricing_plan_id":"cebpf4jnsgd1na2vs0mg"},{"bike_id":"a125f3cf-7d62-4e96-b816-99257e7bfdce","system_id":"levelo_inurba_marseille","lat":43.25008,"lon":5.38936,"is_reserved":false,"is_disabled":false,"rental_uris":{"android":"levelo://app?vid=a125f3cf-7d62-4e96-b816-99257e7bfdce","ios":"levelo://app?vid=a125f3cf-7d62-4e96-b816-99257e7bfdce"},"vehicle_type_id":"4","last_reported":1737486418,"current_range_meters":16000,"station_id":"ce4bhgp2rcd13ifvqfd0","pricing_plan_id":"cebpf4jnsgd1na2vs0mg"},{"bike_id":"0d865648-693d-416c-b1fe-1ec56ef76af3","system_id":"levelo_inurba_marseille","lat":43.26563,"lon":5.39045,"is_reserved":false,"is_disabled":false,"rental_uris":{"android":"levelo://app?vid=0d865648-693d-416c-b1fe-1ec56ef76af3","ios":"levelo://app?vid=0d865648-693d-416c-b1fe-1ec56ef76af3"},"vehicle_type_id":"4","last_reported":1737486418,"current_range_meters":6000,"station_id":"ce4bhe12rcd13ifvqf30","pricing_plan_id":"cebpf4jnsgd1na2vs0mg"},{"bike_id":"188bc35e-b96d-4353-8224-81939b718e35","system_id":"levelo_inurba_marseille","lat":43.32364,"lon":5.38884,"is_reserved":false,"is_disabled":false,"rental_uris":{"android":"levelo://app?vid=188bc35e-b96d-4353-8224-81939b718e35","ios":"levelo://app?vid=188bc35e-b96d-4353-8224-81939b718e35"},"vehicle_type_id":"4","last_reported":1737486418,"current_range_meters":28800,"station_id":"ce4bhqp2rcd13ifvqhog","pricing_plan_id":"cebpf4jnsgd1na2vs0mg"},{"bike_id":"e6ed9d8f-1efe-400a-b4ab-72d195b01e7f","system_id":"levelo_inurba_marseille","lat":43.31484,"lon":5.37304,"is_reserved":false,"is_disabled":true,"rental_uris":{"android":"levelo://app?vid=e6ed9d8f-1efe-400a-b4ab-72d195b01e7f","ios":"levelo://app?vid=e6ed9d8f-1efe-400a-b4ab-72d195b01e7f"},"vehicle_type_id":"4","last_reported":1737486418,"current_range_meters":0,"station_id":"ce4bgt12rcd13ifvqcd0","pricing_plan_id":"cebpf4jnsgd1na2vs0mg"},{"bike_id":"42707e4f-fc86-4055-94d3-267e0305077b","system_id":"levelo_inurba_marseille","lat":43.29864,"lon":5.36278,"is_reserved":false,"is_disabled":false,"rental_uris":{"android":"levelo://app?vid=42707e4f-fc86-4055-94d3-267e0305077b","ios":"levelo://app?vid=42707e4f-fc86-4055-94d3-267e0305077b"},"vehicle_type_id":"4","last_reported":1737486418,"current_range_meters":38800,"station_id":"ce4bgpp2rcd13ifvqc3g","pricing_plan_id":"cebpf4jnsgd1na2vs0mg"},{"bike_id":"d7066ef6-f78a-4ee8-bc2b-f4a8832f1df2","system_id":"levelo_inurba_marseille","lat":43.24996,"lon":5.38927,"is_reserved":false,"is_disabled":false,"rental_uris":{"android":"levelo://app?vid=d7066ef6-f78a-4ee8-bc2b-f4a8832f1df2","ios":"levelo://app?vid=d7066ef6-f78a-4ee8-bc2b-f4a8832f1df2"},"vehicle_type_id":"4","last_reported":1737486418,"current_range_meters":8400,"station_id":"ce4bhgp2rcd13ifvqfd0","pricing_plan_id":"cebpf4jnsgd1na2vs0mg"},{"bike_id":"7aa0960a-1cfb-4822-873e-dd187a11905b","system_id":"levelo_inurba_marseille","lat":43.31503,"lon":5.42966,"is_reserved":false,"is_disabled":false,"rental_uris":{"android":"levelo://app?vid=7aa0960a-1cfb-4822-873e-dd187a11905b","ios":"levelo://app?vid=7aa0960a-1cfb-4822-873e-dd187a11905b"},"vehicle_type_id":"4","last_reported":1737486418,"current_range_meters":36000,"station_id":"","pricing_plan_id":"cebpf4jnsgd1na2vs0mg"},{"bike_id":"bdce6ba5-64e6-497d-91b4-fa3ed31b216a","system_id":"levelo_inurba_marseille","lat":43.30168,"lon":5.39886,"is_reserved":false,"is_disabled":false,"rental_uris":{"android":"levelo://app?vid=bdce6ba5-64e6-497d-91b4-fa3ed31b216a","ios":"levelo://app?vid=bdce6ba5-64e6-497d-91b4-fa3ed31b216a"},"vehicle_type_id":"4","last_reported":1737486418,"current_range_meters":32000,"station_id":"ce4bh0h2rcd13ifvqd40","pricing_plan_id":"cebpf4jnsgd1na2vs0mg"},{"bike_id":"698671a8-f03e-4f8b-9a64-66ae0c700a62","system_id":"levelo_inurba_marseille","lat":43.29425,"lon":5.38623,"is_reserved":false,"is_disabled":false,"rental_uris":{"android":"levelo://app?vid=698671a8-f03e-4f8b-9a64-66ae0c700a62","ios":"levelo://app?vid=698671a8-f03e-4f8b-9a64-66ae0c700a62"},"vehicle_type_id":"4","last_reported":1737486418,"current_range_meters":8000,"station_id":"ce4bh2h2rcd13ifvqdh0","pricing_plan_id":"cebpf4jnsgd1na2vs0mg"},{"bike_id":"73209e18-4149-4f1a-9f39-3410ec8579a2","system_id":"levelo_inurba_marseille","lat":43.33018,"lon":5.39047,"is_reserved":false,"is_disabled":false,"rental_uris":{"android":"levelo://app?vid=73209e18-4149-4f1a-9f39-3410ec8579a2","ios":"levelo://app?vid=73209e18-4149-4f1a-9f39-3410ec8579a2"},"vehicle_type_id":"4","last_reported":1737486418,"current_range_meters":7200,"station_id":"ce4bhr92rcd13ifvqhrg","pricing_plan_id":"cebpf4jnsgd1na2vs0mg"},{"bike_id":"b2182e43-165e-4f5a-b9e0-61613bf6cbdd","system_id":"levelo_inurba_marseille","lat":43.2885,"lon":5.39307,"is_reserved":false,"is_disabled":false,"rental_uris":{"android":"levelo://app?vid=b2182e43-165e-4f5a-b9e0-61613bf6cbdd","ios":"levelo://app?vid=b2182e43-165e-4f5a-b9e0-61613bf6cbdd"},"vehicle_type_id":"4","last_reported":1737486418,"current_range_meters":30400,"station_id":"ce4bh2p2rcd13ifvqdi0","pricing_plan_id":"cebpf4jnsgd1na2vs0mg"},{"bike_id":"daa95c34-b998-42f7-a8b9-b93b3a858a82","system_id":"levelo_inurba_marseille","lat":43.31376,"lon":5.3849,"is_reserved":false,"is_disabled":false,"rental_uris":{"android":"levelo://app?vid=daa95c34-b998-42f7-a8b9-b93b3a858a82","ios":"levelo://app?vid=daa95c34-b998-42f7-a8b9-b93b3a858a82"},"vehicle_type_id":"4","last_reported":1737486418,"current_range_meters":39200,"station_id":"ce4bgt92rcd13ifvqcf0","pricing_plan_id":"cebpf4jnsgd1na2vs0mg"},{"bike_id":"ac60b8e6-40f9-44a5-8d16-b88f803db539","system_id":"levelo_inurba_marseille","lat":43.27634,"lon":5.36112,"is_reserved":false,"is_disabled":false,"rental_uris":{"android":"levelo://app?vid=ac60b8e6-40f9-44a5-8d16-b88f803db539","ios":"levelo://app?vid=ac60b8e6-40f9-44a5-8d16-b88f803db539"},"vehicle_type_id":"4","last_reported":1737486418,"current_range_meters":38800,"station_id":"ce4bgj92rcd13ifvqbe0","pricing_plan_id":"cebpf4jnsgd1na2vs0mg"},{"bike_id":"01cd13ee-681d-4a61-8609-68d170d4511a","system_id":"levelo_inurba_marseille","lat":43.29621,"lon":5.37161,"is_reserved":false,"is_disabled":false,"rental_uris":{"android":"levelo://app?vid=01cd13ee-681d-4a61-8609-68d170d4511a","ios":"levelo://app?vid=01cd13ee-681d-4a61-8609-68d170d4511a"},"vehicle_type_id":"4","last_reported":1737486418,"current_range_meters":38800,"station_id":"ce4bgnh2rcd13ifvqc0g","pricing_plan_id":"cebpf4jnsgd1na2vs0mg"},{"bike_id":"de261717-ca35-4e92-831f-d11499afafef","system_id":"levelo_inurba_marseille","lat":43.29513,"lon":5.39408,"is_reserved":false,"is_disabled":false,"rental_uris":{"android":"levelo://app?vid=de261717-ca35-4e92-831f-d11499afafef","ios":"levelo://app?vid=de261717-ca35-4e92-831f-d11499afafef"},"vehicle_type_id":"4","last_reported":1737486418,"current_range_meters":16400,"station_id":"ce4bh292rcd13ifvqdf0","pricing_plan_id":"cebpf4jnsgd1na2vs0mg"},{"bike_id":"4bd40555-5ceb-49d0-9dcd-042735dca289","system_id":"levelo_inurba_marseille","lat":43.24671,"lon":5.38165,"is_reserved":false,"is_disabled":false,"rental_uris":{"android":"levelo://app?vid=4bd40555-5ceb-49d0-9dcd-042735dca289","ios":"levelo://app?vid=4bd40555-5ceb-49d0-9dcd-042735dca289"},"vehicle_type_id":"4","last_reported":1737486418,"current_range_meters":24800,"station_id":"ce4bhih2rcd13ifvqfr0","pricing_plan_id":"cebpf4jnsgd1na2vs0mg"},{"bike_id":"b819103e-ebdb-4983-ae1d-9f3bc21929c0","system_id":"levelo_inurba_marseille","lat":43.29529,"lon":5.39388,"is_reserved":false,"is_disabled":false,"rental_uris":{"android":"levelo://app?vid=b819103e-ebdb-4983-ae1d-9f3bc21929c0","ios":"levelo://app?vid=b819103e-ebdb-4983-ae1d-9f3bc21929c0"},"vehicle_type_id":"4","last_reported":1737486418,"current_range_meters":6800,"station_id":"ce4bh292rcd13ifvqdf0","pricing_plan_id":"cebpf4jnsgd1na2vs0mg"},{"bike_id":"60b7d049-237a-4dbd-ad0c-436ecde1802f","system_id":"levelo_inurba_marseille","lat":43.231946,"lon":5.355523,"is_reserved":false,"is_disabled":false,"rental_uris":{"android":"levelo://app?vid=60b7d049-237a-4dbd-ad0c-436ecde1802f","ios":"levelo://app?vid=60b7d049-237a-4dbd-ad0c-436ecde1802f"},"vehicle_type_id":"4","last_reported":1737486418,"current_range_meters":19200,"station_id":"ce4bhu92rcd13ifvqi70","pricing_plan_id":"cebpf4jnsgd1na2vs0mg"},{"bike_id":"fe7011bb-5454-4247-a00a-90c1b444d493","system_id":"levelo_inurba_marseille","lat":43.23963,"lon":5.36633,"is_reserved":false,"is_disabled":false,"rental_uris":{"android":"levelo://app?vid=fe7011bb-5454-4247-a00a-90c1b444d493","ios":"levelo://app?vid=fe7011bb-5454-4247-a00a-90c1b444d493"},"vehicle_type_id":"4","last_reported":1737486418,"current_range_meters":12000,"station_id":"ce4bhi12rcd13ifvqfp0","pricing_plan_id":"cebpf4jnsgd1na2vs0mg"},{"bike_id":"b7d724f5-1bfc-40be-9900-285286bbdc39","system_id":"levelo_inurba_marseille","lat":43.298,"lon":5.38092,"is_reserved":false,"is_disabled":false,"rental_uris":{"android":"levelo://app?vid=b7d724f5-1bfc-40be-9900-285286bbdc39","ios":"levelo://app?vid=b7d724f5-1bfc-40be-9900-285286bbdc39"},"vehicle_type_id":"4","last_reported":1737486418,"current_range_meters":38000,"station_id":"ce4bgip2rcd13ifvqbb0","pricing_plan_id":"cebpf4jnsgd1na2vs0mg"},{"bike_id":"107fe636-67b2-4152-8678-7f7143e550a7","system_id":"levelo_inurba_marseille","lat":43.27829,"lon":5.40701,"is_reserved":false,"is_disabled":false,"rental_uris":{"android":"levelo://app?vid=107fe636-67b2-4152-8678-7f7143e550a7","ios":"levelo://app?vid=107fe636-67b2-4152-8678-7f7143e550a7"},"vehicle_type_id":"4","last_reported":1737486418,"current_range_meters":16400,"station_id":"ce4bhnh2rcd13ifvqgtg","pricing_plan_id":"cebpf4jnsgd1na2vs0mg"},{"bike_id":"108732b6-5e06-4482-8db5-ff0a5532a5b2","system_id":"levelo_inurba_marseille","lat":43.32279,"lon":5.38251,"is_reserved":false,"is_disabled":false,"rental_uris":{"android":"levelo://app?vid=108732b6-5e06-4482-8db5-ff0a5532a5b2","ios":"levelo://app?vid=108732b6-5e06-4482-8db5-ff0a5532a5b2"},"vehicle_type_id":"4","last_reported":1737486418,"current_range_meters":36800,"station_id":"ce4bhr12rcd13ifvqhqg","pricing_plan_id":"cebpf4jnsgd1na2vs0mg"},{"bike_id":"ab16df05-408c-46ed-9298-11ffc384ef7c","system_id":"levelo_inurba_marseille","lat":43.29533,"lon":5.38544,"is_reserved":false,"is_disabled":false,"rental_uris":{"android":"levelo://app?vid=ab16df05-408c-46ed-9298-11ffc384ef7c","ios":"levelo://app?vid=ab16df05-408c-46ed-9298-11ffc384ef7c"},"vehicle_type_id":"4","last_reported":1737486418,"current_range_meters":18000,"station_id":"ce4bgih2rcd13ifvqba0","pricing_plan_id":"cebpf4jnsgd1na2vs0mg"},{"bike_id":"8a07a245-359d-4e89-a6c4-0564255eb75b","system_id":"levelo_inurba_marseille","lat":43.28035,"lon":5.36953,"is_reserved":false,"is_disabled":false,"rental_uris":{"android":"levelo://app?vid=8a07a245-359d-4e89-a6c4-0564255eb75b","ios":"levelo://app?vid=8a07a245-359d-4e89-a6c4-0564255eb75b"},"vehicle_type_id":"4","last_reported":1737486418,"current_range_meters":20000,"station_id":"ce4bha12rcd13ifvqef0","pricing_plan_id":"cebpf4jnsgd1na2vs0mg"},{"bike_id":"f4cd2278-ce69-4a70-9327-76172aeda7fb","system_id":"levelo_inurba_marseille","lat":43.24345,"lon":5.40186,"is_reserved":false,"is_disabled":false,"rental_uris":{"android":"levelo://app?vid=f4cd2278-ce69-4a70-9327-76172aeda7fb","ios":"levelo://app?vid=f4cd2278-ce69-4a70-9327-76172aeda7fb"},"vehicle_type_id":"4","last_reported":1737486418,"current_range_meters":17200,"station_id":"","pricing_plan_id":"cebpf4jnsgd1na2vs0mg"},{"bike_id":"1f44efd1-3459-405c-b6fd-2b9e778660a9","system_id":"levelo_inurba_marseille","lat":43.29533,"lon":5.3853,"is_reserved":false,"is_disabled":false,"rental_uris":{"android":"levelo://app?vid=1f44efd1-3459-405c-b6fd-2b9e778660a9","ios":"levelo://app?vid=1f44efd1-3459-405c-b6fd-2b9e778660a9"},"vehicle_type_id":"4","last_reported":1737486418,"current_range_meters":22800,"station_id":"ce4bgih2rcd13ifvqba0","pricing_plan_id":"cebpf4jnsgd1na2vs0mg"},{"bike_id":"74d89b75-d9b8-4895-9221-42ebeb782c94","system_id":"levelo_inurba_marseille","lat":43.26808,"lon":5.40271,"is_reserved":false,"is_disabled":false,"rental_uris":{"android":"levelo://app?vid=74d89b75-d9b8-4895-9221-42ebeb782c94","ios":"levelo://app?vid=74d89b75-d9b8-4895-9221-42ebeb782c94"},"vehicle_type_id":"4","last_reported":1737486418,"current_range_meters":38800,"station_id":"ce501612rcd8frsf0b60","pricing_plan_id":"cebpf4jnsgd1na2vs0mg"},{"bike_id":"ba769519-d785-483e-a5f5-f1a1ebdda9f3","system_id":"levelo_inurba_marseille","lat":43.279183,"lon":5.411917,"is_reserved":false,"is_disabled":true,"rental_uris":{"android":"levelo://app?vid=ba769519-d785-483e-a5f5-f1a1ebdda9f3","ios":"levelo://app?vid=ba769519-d785-483e-a5f5-f1a1ebdda9f3"},"vehicle_type_id":"4","last_reported":1737486418,"current_range_meters":0,"station_id":"","pricing_plan_id":"cebpf4jnsgd1na2vs0mg"},{"bike_id":"ddceefa9-5537-4b51-85f3-064e3459b8e9","system_id":"levelo_inurba_marseille","lat":43.27905,"lon":5.38016,"is_reserved":false,"is_disabled":false,"rental_uris":{"android":"levelo://app?vid=ddceefa9-5537-4b51-85f3-064e3459b8e9","ios":"levelo://app?vid=ddceefa9-5537-4b51-85f3-064e3459b8e9"},"vehicle_type_id":"4","last_reported":1737486418,"current_range_meters":24400,"station_id":"ce4bhf92rcd13ifvqf50","pricing_plan_id":"cebpf4jnsgd1na2vs0mg"},{"bike_id":"32a600cc-e2f7-40d5-a782-84fc1e0f52aa","system_id":"levelo_inurba_marseille","lat":43.29872,"lon":5.39752,"is_reserved":false,"is_disabled":false,"rental_uris":{"android":"levelo://app?vid=32a600cc-e2f7-40d5-a782-84fc1e0f52aa","ios":"levelo://app?vid=32a600cc-e2f7-40d5-a782-84fc1e0f52aa"},"vehicle_type_id":"4","last_reported":1737486418,"current_range_meters":30400,"station_id":"ce4bh0h2rcd13ifvqd50","pricing_plan_id":"cebpf4jnsgd1na2vs0mg"},{"bike_id":"c9869f97-1647-4a57-871a-0fcfaed72fa0","system_id":"levelo_inurba_marseille","lat":43.27991,"lon":5.41662,"is_reserved":false,"is_disabled":false,"rental_uris":{"android":"levelo://app?vid=c9869f97-1647-4a57-871a-0fcfaed72fa0","ios":"levelo://app?vid=c9869f97-1647-4a57-871a-0fcfaed72fa0"},"vehicle_type_id":"4","last_reported":1737486418,"current_range_meters":38800,"station_id":"ce4bho12rcd13ifvqh1g","pricing_plan_id":"cebpf4jnsgd1na2vs0mg"},