{"last_updated":1725707194,"ttl":30,"version":"2.2","data":{"bikes":[{"bike_id":"3a3ac1d3-363f-49aa-972c-61ca5073821a","system_id":"levelo_inurba_marseille","lat":43.31222,"lon":5.36863,"is_reserved":false,"is_disabled":false,"rental_uris":{"android":"levelo://app?vid=3a3ac1d3-363f-49aa-972c-61ca5073821a","ios":"levelo://app?vid=3a3ac1d3-363f-49aa-972c-61ca5073821a"},"vehicle_type_id":"4","last_reported":1725707194,"current_range_meters":22800,"station_id":"ce4bgl92rcd13ifvqbq0","pricing_plan_id":"cebpf4jnsgd1na2vs0mg"},{"bike_id":"1c2e52fb-4929-4062-b0c7-a85741e56f77","system_id":"levelo_inurba_marseille","lat":43.31221,"lon":5.3687,"is_reserved":false,"is_disabled":false,"rental_uris":{"android":"levelo://app?vid=1c2e52fb-4929-4062-b0c7-a85741e56f77","ios":"levelo://app?vid=1c2e52fb-4929-4062-b0c7-a85741e56f77"},"vehicle_type_id":"4","last_reported":1725707194,"current_range_meters":31200,"station_id":"ce4bgl92rcd13ifvqbq0","pricing_plan_id":"cebpf4jnsgd1na2vs0mg"},{"bike_id":"743ab9a1-f6fd-4527-85f5-e8b7e9663f76","system_id":"levelo_inurba_marseille","lat":43.309076,"lon":5.368465,"is_reserved":false,"is_disabled":false,"rental_uris":{"android":"levelo://app?vid=743ab9a1-f6fd-4527-85f5-e8b7e9663f76","ios":"levelo://app?vid=743ab9a1-f6fd-4527-85f5-e8b7e9663f76"},"vehicle_type_id":"4","last_reported":1725707194,"current_range_meters":31200,"station_id":"ce4bgn92rcd13ifvqbvg","pricing_plan_id":"cebpf4jnsgd1na2vs0mg"},{"bike_id":"8c952bc3-55ce-4ec7-a835-ab396b359df0","system_id":"levelo_inurba_marseille","lat":43.314811,"lon":5.373103,"is_reserved":false,"is_disabled":false,"rental_uris":{"android":"levelo://app?vid=8c952bc3-55ce-4ec7-a835-ab396b359df0","ios":"levelo://app?vid=8c952bc3-55ce-4ec7-a835-ab396b359df0"},"vehicle_type_id":"4","last_reported":1725707194,"current_range_meters":15200,"station_id":"ce4bgt12rcd13ifvqcd0","pricing_plan_id":"cebpf4jnsgd1na2vs0mg"},{"bike_id":"42d61c47-ba27-4a41-a392-0c166dd03076","system_id":"levelo_inurba_marseille","lat":43.314811,"lon":5.373103,"is_reserved":false,"is_disabled":false,"rental_uris":{"android":"levelo://app?vid=42d61c47-ba27-4a41-a392-0c166dd03076","ios":"levelo://app?vid=42d61c47-ba27-4a41-a392-0c166dd03076"},"vehicle_type_id":"4","last_reported":1725707194,"current_range_meters":13600,"station_id":"ce4bgt12rcd13ifvqcd0","pricing_plan_id":"cebpf4jnsgd1na2vs0mg"},{"bike_id":"b10bb417-2dc7-49a1-8e75-b7c0d4183764","system_id":"levelo_inurba_marseille","lat":43.309034,"lon":5.371783,"is_reserved":false,"is_disabled":false,"rental_uris":{"android":"levelo://app?vid=b10bb417-2dc7-49a1-8e75-b7c0d4183764","ios":"levelo://app?vid=b10bb417-2dc7-49a1-8e75-b7c0d4183764"},"vehicle_type_id":"4","last_reported":1725707194,"current_range_meters":3200,"station_id":"ce4bguh2rcd13ifvqckg","pricing_plan_id":"cebpf4jnsgd1na2vs0mg"},{"bike_id":"d1987a94-3335-44d1-8148-1bd96a7a4950","system_id":"levelo_inurba_marseille","lat":43.305712,"lon":5.365641,"is_reserved":false,"is_disabled":false,"rental_uris":{"android":"levelo://app?vid=d1987a94-3335-44d1-8148-1bd96a7a4950","ios":"levelo://app?vid=d1987a94-3335-44d1-8148-1bd96a7a4950"},"vehicle_type_id":"4","last_reported":1725707194,"current_range_meters":21200,"station_id":"ce4bgs12rcd13ifvqcag","pricing_plan_id":"cebpf4jnsgd1na2vs0mg"},{"bike_id":"26c9e5d1-7790-49af-ab8b-0cd3fd1abb66","system_id":"levelo_inurba_marseille","lat":43.305712,"lon":5.365641,"is_reserved":false,"is_disabled":false,"rental_uris":{"android":"levelo://app?vid=26c9e5d1-7790-49af-ab8b-0cd3fd1abb66","ios":"levelo://app?vid=26c9e5d1-7790-49af-ab8b-0cd3fd1abb66"},"vehicle_type_id":"4","last_reported":1725707194,"current_range_meters":4000,"station_id":"ce4bgs12rcd13ifvqcag","pricing_plan_id":"cebpf4jnsgd1na2vs0mg"},{"bike_id":"dd9cecf5-59db-42a7-9787-8ae785a6ad6c","system_id":"levelo_inurba_marseille","lat":43.30537,"lon":5.367345,"is_reserved":false,"is_disabled":false,"rental_uris":{"android":"levelo://app?vid=dd9cecf5-59db-42a7-9787-8ae785a6ad6c","ios":"levelo://app?vid=dd9cecf5-59db-42a7-9787-8ae785a6ad6c"},"vehicle_type_id":"4","last_reported":1725707194,"current_range_meters":31600,"station_id":"ce4bgrp2rcd13ifvqc9g","pricing_plan_id":"cebpf4jnsgd1na2vs0mg"},{"bike_id":"4992b0fc-cb68-45df-9b0f-0a0e61da8125","system_id":"levelo_inurba_marseille","lat":43.30537,"lon":5.367345,"is_reserved":false,"is_disabled":false,"rental_uris":{"android":"levelo://app?vid=4992b0fc-cb68-45df-9b0f-0a0e61da8125","ios":"levelo://app?vid=4992b0fc-cb68-45df-9b0f-0a0e61da8125"},"vehicle_type_id":"4","last_reported":1725707194,"current_range_meters":28800,"station_id":"ce4bgrp2rcd13ifvqc9g","pricing_plan_id":"cebpf4jnsgd1na2vs0mg"},{"bike_id":"ebe67563-8064-42be-a54f-5b71396b0622","system_id":"levelo_inurba_marseille","lat":43.305712,"lon":5.365641,"is_reserved":false,"is_disabled":false,"rental_uris":{"android":"levelo://app?vid=ebe67563-8064-42be-a54f-5b71396b0622","ios":"levelo://app?vid=ebe67563-8064-42be-a54f-5b71396b0622"},"vehicle_type_id":"4","last_reported":1725707194,"current_range_meters":22800,"station_id":"ce4bgs12rcd13ifvqcag","pricing_plan_id":"cebpf4jnsgd1na2vs0mg"},{"bike_id":"96f5f9b4-c7d0-4894-aac8-ec94f48a5a79","system_id":"levelo_inurba_marseille","lat":43.305712,"lon":5.365641,"is_reserved":false,"is_disabled":false,"rental_uris":{"android":"levelo://app?vid=96f5f9b4-c7d0-4894-aac8-ec94f48a5a79","ios":"levelo://app?vid=96f5f9b4-c7d0-4894-aac8-ec94f48a5a79"},"vehicle_type_id":"4","last_reported":1725707194,"current_range_meters":27200,"station_id":"ce4bgs12rcd13ifvqcag","pricing_plan_id":"cebpf4jnsgd1na2vs0mg"},{"bike_id":"192e91e7-63b3-4ef8-805a-f3abe4d95934","system_id":"levelo_inurba_marseille","lat":43.305706,"lon":5.365654,"is_reserved":false,"is_disabled":false,"rental_uris":{"android":"levelo://app?vid=192e91e7-63b3-4ef8-805a-f3abe4d95934","ios":"levelo://app?vid=192e91e7-63b3-4ef8-805a-f3abe4d95934"},"vehicle_type_id":"4","last_reported":1725707194,"current_range_meters":12800,"station_id":"ce4bgs12rcd13ifvqcag","pricing_plan_id":"cebpf4jnsgd1na2vs0mg"},{"bike_id":"887fb71a-aadf-4714-ac1d-fc4a6197b3cc","system_id":"levelo_inurba_marseille","lat":43.305706,"lon":5.365654,"is_reserved":false,"is_disabled":false,"rental_uris":{"android":"levelo://app?vid=887fb71a-aadf-4714-ac1d-fc4a6197b3cc","ios":"levelo://app?vid=887fb71a-aadf-4714-ac1d-fc4a6197b3cc"},"vehicle_type_id":"4","last_reported":1725707194,"current_range_meters":31200,"station_id":"ce4bgs12rcd13ifvqcag","pricing_plan_id":"cebpf4jnsgd1na2vs0mg"},{"bike_id":"fbed1ff6-9a2e-4761-bcbc-f43d9604ad46","system_id":"levelo_inurba_marseille","lat":43.305706,"lon":5.365654,"is_reserved":false,"is_disabled":false,"rental_uris":{"android":"levelo://app?vid=fbed1ff6-9a2e-4761-bcbc-f43d9604ad46","ios":"levelo://app?vid=fbed1ff6-9a2e-4761-bcbc-f43d9604ad46"},"vehicle_type_id":"4","last_reported":1725707194,"current_range_meters":18400,"station_id":"ce4bgs12rcd13ifvqcag","pricing_plan_id":"cebpf4jnsgd1na2vs0mg"},{"bike_id":"77de31fd-c17e-4f46-a7cc-a8fe983e7c00","system_id":"levelo_inurba_marseille","lat":43.305706,"lon":5.365654,"is_reserved":false,"is_disabled":false,"rental_uris":{"android":"levelo://app?vid=77de31fd-c17e-4f46-a7cc-a8fe983e7c00","ios":"levelo://app?vid=77de31fd-c17e-4f46-a7cc-a8fe983e7c00"},"vehicle_type_id":"4","last_reported":1725707194,"current_range_meters":19200,"station_id":"ce4bgs12rcd13ifvqcag","pricing_plan_id":"cebpf4jnsgd1na2vs0mg"},{"bike_id":"a6321b78-576a-49fb-b384-81860201efc8","system_id":"levelo_inurba_marseille","lat":43.305706,"lon":5.365654,"is_reserved":false,"is_disabled":false,"rental_uris":{"android":"levelo://app?vid=a6321b78-576a-49fb-b384-81860201efc8","ios":"levelo://app?vid=a6321b78-576a-49fb-b384-81860201efc8"},"vehicle_type_id":"4","last_reported":1725707194,"current_range_meters":25200,"station_id":"ce4bgs12rcd13ifvqcag","pricing_plan_id":"cebpf4jnsgd1na2vs0mg"},{"bike_id":"79c0a146-901c-4c6b-9003-2bf1f426a171","system_id":"levelo_inurba_marseille","lat":43.305706,"lon":5.365654,"is_reserved":false,"is_disabled":false,"rental_uris":{"android":"levelo://app?vid=79c0a146-901c-4c6b-9003-2bf1f426a171","ios":"levelo://app?vid=79c0a146-901c-4c6b-9003-2bf1f426a171"},"vehicle_type_id":"4","last_reported":1725707194,"current_range_meters":20000,"station_id":"ce4bgs12rcd13ifvqcag","pricing_plan_id":"cebpf4jnsgd1na2vs0mg"},{"bike_id":"d58d8bc3-d8b6-4adb-9085-8f75e8ae9df9","system_id":"levelo_inurba_marseille","lat":43.305706,"lon":5.365654,"is_reserved":false,"is_disabled":false,"rental_uris":{"android":"levelo://app?vid=d58d8bc3-d8b6-4adb-9085-8f75e8ae9df9","ios":"levelo://app?vid=d58d8bc3-d8b6-4adb-9085-8f75e8ae9df9"},"vehicle_type_id":"4","last_reported":1725707194,"current_range_meters":14400,"station_id":"ce4bgs12rcd13ifvqcag","pricing_plan_id":"cebpf4jnsgd1na2vs0mg"},{"bike_id":"cc87e688-3d54-4573-bd62-f60f9153a935","system_id":"levelo_inurba_marseille","lat":43.305712,"lon":5.365641,"is_reserved":false,"is_disabled":false,"rental_uris":{"android":"levelo://app?vid=cc87e688-3d54-4573-bd62-f60f9153a935","ios":"levelo://app?vid=cc87e688-3d54-4573-bd62-f60f9153a935"},"vehicle_type_id":"4","last_reported":1725707194,"current_range_meters":22400,"station_id":"ce4bgs12rcd13ifvqcag","pricing_plan_id":"cebpf4jnsgd1na2vs0mg"},{"bike_id":"ef99cd7a-4d5f-497e-b6fb-cf9f68ce81fd","system_id":"levelo_inurba_marseille","lat":43.305706,"lon":5.365654,"is_reserved":false,"is_disabled":false,"rental_uris":{"android":"levelo://app?vid=ef99cd7a-4d5f-497e-b6fb-cf9f68ce81fd","ios":"levelo://app?vid=ef99cd7a-4d5f-497e-b6fb-cf9f68ce81fd"},"vehicle_type_id":"4","last_reported":1725707194,"current_range_meters":30400,"station_id":"ce4bgs12rcd13ifvqcag","pricing_plan_id":"cebpf4jnsgd1na2vs0mg"},{"bike_id":"ca2dc0d9-479c-484d-99df-16e90a8531b8","system_id":"levelo_inurba_marseille","lat":43.305706,"lon":5.365654,"is_reserved":false,"is_disabled":false,"rental_uris":{"android":"levelo://app?vid=ca2dc0d9-479c-484d-99df-16e90a8531b8","ios":"levelo://app?vid=ca2dc0d9-479c-484d-99df-16e90a8531b8"},"vehicle_type_id":"4","last_reported":1725707194,"current_range_meters":31200,"station_id":"ce4bgs12rcd13ifvqcag","pricing_plan_id":"cebpf4jnsgd1na2vs0mg"},{"bike_id":"736dc9db-0b9c-4b86-8dfd-bb3c3c9acac6","system_id":"levelo_inurba_marseille","lat":43.305989,"lon":5.37225,"is_reserved":false,"is_disabled":false,"rental_uris":{"android":"levelo://app?vid=736dc9db-0b9c-4b86-8dfd-bb3c3c9acac6","ios":"levelo://app?vid=736dc9db-0b9c-4b86-8dfd-bb3c3c9acac6"},"vehicle_type_id":"4","last_reported":1725707194,"current_range_meters":16800,"station_id":"ce4bgqh2rcd13ifvqc4g","pricing_plan_id":"cebpf4jnsgd1na2vs0mg"},{"bike_id":"c18d69e0-5167-40ab-b82b-d988b5e87aa7","system_id":"levelo_inurba_marseille","lat":43.305989,"lon":5.37225,"is_reserved":false,"is_disabled":false,"rental_uris":{"android":"levelo://app?vid=c18d69e0-5167-40ab-b82b-d988b5e87aa7","ios":"levelo://app?vid=c18d69e0-5167-40ab-b82b-d988b5e87aa7"},"vehicle_type_id":"4","last_reported":1725707194,"current_range_meters":13200,"station_id":"ce4bgqh2rcd13ifvqc4g","pricing_plan_id":"cebpf4jnsgd1na2vs0mg"},{"bike_id":"ca014f25-2aaf-461b-84cd-5890971876e1","system_id":"levelo_inurba_marseille","lat":43.317101,"lon":5.377285,"is_reserved":false,"is_disabled":false,"rental_uris":{"android":"levelo://app?vid=ca014f25-2aaf-461b-84cd-5890971876e1","ios":"levelo://app?vid=ca014f25-2aaf-461b-84cd-5890971876e1"},"vehicle_type_id":"4","last_reported":1725707194,"current_range_meters":31200,"station_id":"ce4bgth2rcd13ifvqch0","pricing_plan_id":"cebpf4jnsgd1na2vs0mg"},{"bike_id":"e81c243b-d0f8-457b-bb7f-baecb8731484","system_id":"levelo_inurba_marseille","lat":43.3063,"lon":5.37545,"is_reserved":false,"is_disabled":false,"rental_uris":{"android":"levelo://app?vid=e81c243b-d0f8-457b-bb7f-baecb8731484","ios":"levelo://app?vid=e81c243b-d0f8-457b-bb7f-baecb8731484"},"vehicle_type_id":"4","last_reported":1725707194,"current_range_meters":30000,"station_id":"","pricing_plan_id":"cebpf4jnsgd1na2vs0mg"},{"bike_id":"e6240958-5766-4e43-be3c-5414d3e93fa9","system_id":"levelo_inurba_marseille","lat":43.313357,"lon":5.379317,"is_reserved":false,"is_disabled":false,"rental_uris":{"android":"levelo://app?vid=e6240958-5766-4e43-be3c-5414d3e93fa9","ios":"levelo://app?vid=e6240958-5766-4e43-be3c-5414d3e93fa9"},"vehicle_type_id":"4","last_reported":1725707194,"current_range_meters":8400,"station_id":"","pricing_plan_id":"cebpf4jnsgd1na2vs0mg"},{"bike_id":"38d5bd79-11da-44e3-a61d-92c834e6fae8","system_id":"levelo_inurba_marseille","lat":43.303046,"lon":5.368981,"is_reserved":false,"is_disabled":false,"rental_uris":{"android":"levelo://app?vid=38d5bd79-11da-44e3-a61d-92c834e6fae8","ios":"levelo://app?vid=38d5bd79-11da-44e3-a61d-92c834e6fae8"},"vehicle_type_id":"4","last_reported":1725707194,"current_range_meters":1200,"station_id":"ce4bgqh2rcd13ifvqc5g","pricing_plan_id":"cebpf4jnsgd1na2vs0mg"},{"bike_id":"b58bbec2-337c-466d-b432-5373f1c601e7","system_id":"levelo_inurba_marseille","lat":43.30286,"lon":5.370373,"is_reserved":false,"is_disabled":false,"rental_uris":{"android":"levelo://app?vid=b58bbec2-337c-466d-b432-5373f1c601e7","ios":"levelo://app?vid=b58bbec2-337c-466d-b432-5373f1c601e7"},"vehicle_type_id":"4","last_reported":1725707194,"current_range_meters":7600,"station_id":"","pricing_plan_id":"cebpf4jnsgd1na2vs0mg"},{"bike_id":"5c7e602c-f961-461f-96ab-799dea8e8115","system_id":"levelo_inurba_marseille","lat":43.32315,"lon":5.36737,"is_reserved":false,"is_disabled":false,"rental_uris":{"android":"levelo://app?vid=5c7e602c-f961-461f-96ab-799dea8e8115","ios":"levelo://app?vid=5c7e602c-f961-461f-96ab-799dea8e8115"},"vehicle_type_id":"4","last_reported":1725707194,"current_range_meters":14800,"station_id":"","pricing_plan_id":"cebpf4jnsgd1na2vs0mg"},{"bike_id":"f52291b5-c1e0-41bc-a611-8feed7a602e3","system_id":"levelo_inurba_marseille","lat":43.301939,"lon":5.366286,"is_reserved":false,"is_disabled":false,"rental_uris":{"android":"levelo://app?vid=f52291b5-c1e0-41bc-a611-8feed7a602e3","ios":"levelo://app?vid=f52291b5-c1e0-41bc-a611-8feed7a602e3"},"vehicle_type_id":"4","last_reported":1725707194,"current_range_meters":18800,"station_id":"ce4bgrh2rcd13ifvqc8g","pricing_plan_id":"cebpf4jnsgd1na2vs0mg"},{"bike_id":"ce79248d-1cf6-4f59-b559-8490b2508238","system_id":"levelo_inurba_marseille","lat":43.301939,"lon":5.366286,"is_reserved":false,"is_disabled":false,"rental_uris":{"android":"levelo://app?vid=ce79248d-1cf6-4f59-b559-8490b2508238","ios":"levelo://app?vid=ce79248d-1cf6-4f59-b559-8490b2508238"},"vehicle_type_id":"4","last_reported":1725707194,"current_range_meters":23600,"station_id":"ce4bgrh2rcd13ifvqc8g","pricing_plan_id":"cebpf4jnsgd1na2vs0mg"},{"bike_id":"c38fe385-1b24-4e04-b42f-9184fa6b415e","system_id":"levelo_inurba_marseille","lat":43.301939,"lon":5.366286,"is_reserved":false,"is_disabled":false,"rental_uris":{"android":"levelo://app?vid=c38fe385-1b24-4e04-b42f-9184fa6b415e","ios":"levelo://app?vid=c38fe385-1b24-4e04-b42f-9184fa6b415e"},"vehicle_type_id":"4","last_reported":1725707194,"current_range_meters":30000,"station_id":"ce4bgrh2rcd13ifvqc8g","pricing_plan_id":"cebpf4jnsgd1na2vs0mg"},{"bike_id":"867125e7-78c1-413f-83ea-b413df40bbd2","system_id":"levelo_inurba_marseille","lat":43.308012,"lon":5.381511,"is_reserved":false,"is_disabled":false,"rental_uris":{"android":"levelo://app?vid=867125e7-78c1-413f-83ea-b413df40bbd2","ios":"levelo://app?vid=867125e7-78c1-413f-83ea-b413df40bbd2"},"vehicle_type_id":"4","last_reported":1725707194,"current_range_meters":12000,"station_id":"ce4bgt12rcd13ifvqce0","pricing_plan_id":"cebpf4jnsgd1na2vs0mg"},{"bike_id":"434c2fbe-7f36-43bb-8b50-cf8dc7279d78","system_id":"levelo_inurba_marseille","lat":43.304832,"lon":5.378944,"is_reserved":false,"is_disabled":false,"rental_uris":{"android":"levelo://app?vid=434c2fbe-7f36-43bb-8b50-cf8dc7279d78","ios":"levelo://app?vid=434c2fbe-7f36-43bb-8b50-cf8dc7279d78"},"vehicle_type_id":"4","last_reported":1725707194,"current_range_meters":22800,"station_id":"ce4bgup2rcd13ifvqcn0","pricing_plan_id":"cebpf4jnsgd1na2vs0mg"},{"bike_id":"d4631e32-4c76-44dc-a220-06a6df794606","system_id":"levelo_inurba_marseille","lat":43.304606,"lon":5.379026,"is_reserved":false,"is_disabled":false,"rental_uris":{"android":"levelo://app?vid=d4631e32-4c76-44dc-a220-06a6df794606","ios":"levelo://app?vid=d4631e32-4c76-44dc-a220-06a6df794606"},"vehicle_type_id":"4","last_reported":1725707194,"current_range_meters":14400,"station_id":"ce4bgup2rcd13ifvqcn0","pricing_plan_id":"cebpf4jnsgd1na2vs0mg"},{"bike_id":"487b4d21-2988-4ddb-87cb-54b1475da679","system_id":"levelo_inurba_marseille","lat":43.31686,"lon":5.38218,"is_reserved":false,"is_disabled":false,"rental_uris":{"android":"levelo://app?vid=487b4d21-2988-4ddb-87cb-54b1475da679","ios":"levelo://app?vid=487b4d21-2988-4ddb-87cb-54b1475da679"},"vehicle_type_id":"4","last_reported":1725707194,"current_range_meters":1200,"station_id":"","pricing_plan_id":"cebpf4jnsgd1na2vs0mg"},{"bike_id":"acd5cc14-e01e-49f2-bb1f-bd1e0e2eceac","system_id":"levelo_inurba_marseille","lat":43.304606,"lon":5.379026,"is_reserved":false,"is_disabled":false,"rental_uris":{"android":"levelo://app?vid=acd5cc14-e01e-49f2-bb1f-bd1e0e2eceac","ios":"levelo://app?vid=acd5cc14-e01e-49f2-bb1f-bd1e0e2eceac"},"vehicle_type_id":"4","last_reported":1725707194,"current_range_meters":7600,"station_id":"ce4bgup2rcd13ifvqcn0","pricing_plan_id":"cebpf4jnsgd1na2vs0mg"},{"bike_id":"dd936932-2142-4c24-9b0a-fa4eb35a8eba","system_id":"levelo_inurba_marseille","lat":43.304606,"lon":5.379026,"is_reserved":false,"is_disabled":false,"rental_uris":{"android":"levelo://app?vid=dd936932-2142-4c24-9b0a-fa4eb35a8eba","ios":"levelo://app?vid=dd936932-2142-4c24-9b0a-fa4eb35a8eba"},"vehicle_type_id":"4","last_reported":1725707194,"current_range_meters":30800,"station_id":"ce4bgup2rcd13ifvqcn0","pricing_plan_id":"cebpf4jnsgd1na2vs0mg"},{"bike_id":"f941bc6d-64ae-400d-970b-0065f758d122","system_id":"levelo_inurba_marseille","lat":43.304606,"lon":5.379026,"is_reserved":false,"is_disabled":false,"rental_uris":{"android":"levelo://app?vid=f941bc6d-64ae-400d-970b-0065f758d122","ios":"levelo://app?vid=f941bc6d-64ae-400d-970b-0065f758d122"},"vehicle_type_id":"4","last_reported":1725707194,"current_range_meters":14000,"station_id":"ce4bgup2rcd13ifvqcn0","pricing_plan_id":"cebpf4jnsgd1na2vs0mg"},{"bike_id":"f55ddaa5-9ace-40bb-b10d-7c51d96ea2da","system_id":"levelo_inurba_marseille","lat":43.304606,"lon":5.379026,"is_reserved":false,"is_disabled":false,"rental_uris":{"android":"levelo://app?vid=f55ddaa5-9ace-40bb-b10d-7c51d96ea2da","ios":"levelo://app?vid=f55ddaa5-9ace-40bb-b10d-7c51d96ea2da"},"vehicle_type_id":"4","last_reported":1725707194,"current_range_meters":31200,"station_id":"ce4bgup2rcd13ifvqcn0","pricing_plan_id":"cebpf4jnsgd1na2vs0mg"},{"bike_id":"8796e1e2-9d27-4409-9c2f-b0f5956d465c","system_id":"levelo_inurba_marseille","lat":43.304606,"lon":5.379026,"is_reserved":false,"is_disabled":false,"rental_uris":{"android":"levelo://app?vid=8796e1e2-9d27-4409-9c2f-b0f5956d465c","ios":"levelo://app?vid=8796e1e2-9d27-4409-9c2f-b0f5956d465c"},"vehicle_type_id":"4","last_reported":1725707194,"current_range_meters":31200,"station_id":"ce4bgup2rcd13ifvqcn0","pricing_plan_id":"cebpf4jnsgd1na2vs0mg"},{"bike_id":"1f5409ab-ebed-444b-bdbc-4e04c3355d30","system_id":"levelo_inurba_marseille","lat":43.304606,"lon":5.379026,"is_reserved":false,"is_disabled":false,"rental_uris":{"android":"levelo://app?vid=1f5409ab-ebed-444b-bdbc-4e04c3355d30","ios":"levelo://app?vid=1f5409ab-ebed-444b-bdbc-4e04c3355d30"},"vehicle_type_id":"4","last_reported":1725707194,"current_range_meters":25600,"station_id":"ce4bgup2rcd13ifvqcn0","pricing_plan_id":"cebpf4jnsgd1na2vs0mg"},{"bike_id":"3467d0f8-ac3f-4f6a-8955-c46ae773695e","system_id":"levelo_inurba_marseille","lat":43.304606,"lon":5.379026,"is_reserved":false,"is_disabled":false,"rental_uris":{"android":"levelo://app?vid=3467d0f8-ac3f-4f6a-8955-c46ae773695e","ios":"levelo://app?vid=3467d0f8-ac3f-4f6a-8955-c46ae773695e"},"vehicle_type_id":"4","last_reported":1725707194,"current_range_meters":4400,"station_id":"ce4bgup2rcd13ifvqcn0","pricing_plan_id":"cebpf4jnsgd1na2vs0mg"},{"bike_id":"cd214e77-4ebe-4266-9f46-fdcec1d16b4e","system_id":"levelo_inurba_marseille","lat":43.304606,"lon":5.379026,"is_reserved":false,"is_disabled":false,"rental_uris":{"android":"levelo://app?vid=cd214e77-4ebe-4266-9f46-fdcec1d16b4e","ios":"levelo://app?vid=cd214e77-4ebe-4266-9f46-fdcec1d16b4e"},"vehicle_type_id":"4","last_reported":1725707194,"current_range_meters":20400,"station_id":"ce4bgup2rcd13ifvqcn0","pricing_plan_id":"cebpf4jnsgd1na2vs0mg"},{"bike_id":"b8a42ecb-7922-4177-9655-3e5d9aa73c96","system_id":"levelo_inurba_marseille","lat":43.304606,"lon":5.379026,"is_reserved":false,"is_disabled":false,"rental_uris":{"android":"levelo://app?vid=b8a42ecb-7922-4177-9655-3e5d9aa73c96","ios":"levelo://app?vid=b8a42ecb-7922-4177-9655-3e5d9aa73c96"},"vehicle_type_id":"4","last_reported":1725707194,"current_range_meters":20400,"station_id":"ce4bgup2rcd13ifvqcn0","pricing_plan_id":"cebpf4jnsgd1na2vs0mg"},{"bike_id":"5059a847-d414-4a85-9b6c-bdfd30520957","system_id":"levelo_inurba_marseille","lat":43.304606,"lon":5.379026,"is_reserved":false,"is_disabled":false,"rental_uris":{"android":"levelo://app?vid=5059a847-d414-4a85-9b6c-bdfd30520957","ios":"levelo://app?vid=5059a847-d414-4a85-9b6c-bdfd30520957"},"vehicle_type_id":"4","last_reported":1725707194,"current_range_meters":26000,"station_id":"ce4bgup2rcd13ifvqcn0","pricing_plan_id":"cebpf4jnsgd1na2vs0mg"},{"bike_id":"1413aae5-efcb-4eec-bcee-2c3b4eaa8231","system_id":"levelo_inurba_marseille","lat":43.304606,"lon":5.379026,"is_reserved":false,"is_disabled":false,"rental_uris":{"android":"levelo://app?vid=1413aae5-efcb-4eec-bcee-2c3b4eaa8231","ios":"levelo://app?vid=1413aae5-efcb-4eec-bcee-2c3b4eaa8231"},"vehicle_type_id":"4","last_reported":1725707194,"current_range_meters":4400,"station_id":"ce4bgup2rcd13ifvqcn0","pricing_plan_id":"cebpf4jnsgd1na2vs0mg"},{"bike_id":"34257289-76ca-4a91-b880-1bb2885870b6","system_id":"levelo_inurba_marseille","lat":43.304606,"lon":5.379026,"is_reserved":false,"is_disabled":false,"rental_uris":{"android":"levelo://app?vid=34257289-76ca-4a91-b880-1bb2885870b6","ios":"levelo://app?vid=34257289-76ca-4a91-b880-1bb2885870b6"},"vehicle_type_id":"4","last_reported":1725707194,"current_range_meters":31600,"station_id":"ce4bgup2rcd13ifvqcn0","pricing_plan_id":"cebpf4jnsgd1na2vs0mg"},{"bike_id":"0984b71c-6f69-448e-8521-2cb8a14f6e06","system_id":"levelo_inurba_marseille","lat":43.324771,"lon":5.36557,"is_reserved":false,"is_disabled":false,"rental_uris":{"android":"levelo://app?vid=0984b71c-6f69-448e-8521-2cb8a14f6e06","ios":"levelo://app?vid=0984b71c-6f69-448e-8521-2cb8a14f6e06"},"vehicle_type_id":"4","last_reported":1725707194,"current_range_meters":31200,"station_id":"ce4bhs12rcd13ifvqhvg","pricing_plan_id":"cebpf4jnsgd1na2vs0mg"},{"bike_id":"33a5524d-9e06-48a0-b030-c181cf3ce0c9","system_id":"levelo_inurba_marseille","lat":43.324771,"lon":5.36557,"is_reserved":false,"is_disabled":false,"rental_uris":{"android":"levelo://app?vid=33a5524d-9e06-48a0-b030-c181cf3ce0c9","ios":"levelo://app?vid=33a5524d-9e06-48a0-b030-c181cf3ce0c9"},"vehicle_type_id":"4","last_reported":1725707194,"current_range_meters":12400,"station_id":"ce4bhs12rcd13ifvqhvg","pricing_plan_id":"cebpf4jnsgd1na2vs0mg"},{"bike_id":"c30bb852-e35e-45ef-b5b6-a933a90c8e44","system_id":"levelo_inurba_marseille","lat":43.324771,"lon":5.36557,"is_reserved":false,"is_disabled":false,"rental_uris":{"android":"levelo://app?vid=c30bb852-e35e-45ef-b5b6-a933a90c8e44","ios":"levelo://app?vid=c30bb852-e35e-45ef-b5b6-a933a90c8e44"},"vehicle_type_id":"4","last_reported":1725707194,"current_range_meters":31200,"station_id":"ce4bhs12rcd13ifvqhvg","pricing_plan_id":"cebpf4jnsgd1na2vs0mg"},{"bike_id":"8e8b7298-bda1-42f1-9283-662fa4189aca","system_id":"levelo_inurba_marseille","lat":43.324771,"lon":5.36557,"is_reserved":false,"is_disabled":false,"rental_uris":{"android":"levelo://app?vid=8e8b7298-bda1-42f1-9283-662fa4189aca","ios":"levelo://app?vid=8e8b7298-bda1-42f1-9283-662fa4189aca"},"vehicle_type_id":"4","last_reported":1725707194,"current_range_meters":31200,"station_id":"ce4bhs12rcd13ifvqhvg","pricing_plan_id":"cebpf4jnsgd1na2vs0mg"},{"bike_id":"c81dba2c-e2bb-4032-bdb6-83c41e5cf771","system_id":"levelo_inurba_marseille","lat":43.324771,"lon":5.36557,"is_reserved":false,"is_disabled":false,"rental_uris":{"android":"levelo://app?vid=c81dba2c-e2bb-4032-bdb6-83c41e5cf771","ios":"levelo://app?vid=c81dba2c-e2bb-4032-bdb6-83c41e5cf771"},"vehicle_type_id":"4","last_reported":1725707194,"current_range_meters":12400,"station_id":"ce4bhs12rcd13ifvqhvg","pricing_plan_id":"cebpf4jnsgd1na2vs0mg"},{"bike_id":"d5959fbd-009b-4440-810f-601f3cb302d3","system_id":"levelo_inurba_marseille","lat":43.324771,"lon":5.36557,"is_reserved":false,"is_disabled":false,"rental_uris":{"android":"levelo://app?vid=d5959fbd-009b-4440-810f-601f3cb302d3","ios":"levelo://app?vid=d5959fbd-009b-4440-810f-601f3cb302d3"},"vehicle_type_id":"4","last_reported":1725707194,"current_range_meters":7200,"station_id":"ce4bhs12rcd13ifvqhvg","pricing_plan_id":"cebpf4jnsgd1na2vs0mg"},{"bike_id":"ed6742d1-4cec-455c-bbc7-f5a0651a802c","system_id":"levelo_inurba_marseille","lat":43.32489,"lon":5.36574,"is_reserved":false,"is_disabled":false,"rental_uris":{"android":"levelo://app?vid=ed6742d1-4cec-455c-bbc7-f5a0651a802c","ios":"levelo://app?vid=ed6742d1-4cec-455c-bbc7-f5a0651a802c"},"vehicle_type_id":"4","last_reported":1725707194,"current_range_meters":27200,"station_id":"ce4bhs12rcd13ifvqhvg","pricing_plan_id":"cebpf4jnsgd1na2vs0mg"},{"bike_id":"0affed82-db5d-4f1c-9824-f792968eeb44","system_id":"levelo_inurba_marseille","lat":43.324883,"lon":5.365587,"is_reserved":false,"is_disabled":false,"rental_uris":{"android":"levelo://app?vid=0affed82-db5d-4f1c-9824-f792968eeb44","ios":"levelo://app?vid=0affed82-db5d-4f1c-9824-f792968eeb44"},"vehicle_type_id":"4","last_reported":1725707194,"current_range_meters":27200,"station_id":"ce4bhs12rcd13ifvqhvg","pricing_plan_id":"cebpf4jnsgd1na2vs0mg"},{"bike_id":"ceafc242-0873-411d-9016-4855dc3b18ab","system_id":"levelo_inurba_marseille","lat":43.302784,"lon":5.377158,"is_reserved":false,"is_disabled":false,"rental_uris":{"android":"levelo://app?vid=ceafc242-0873-411d-9016-4855dc3b18ab","ios":"levelo://app?vid=ceafc242-0873-411d-9016-4855dc3b18ab"},"vehicle_type_id":"4","last_reported":1725707194,"current_range_meters":24000,"station_id":"ce4bguh2rcd13ifvqcj0","pricing_plan_id":"cebpf4jnsgd1na2vs0mg"},{"bike_id":"87129816-d970-4025-a9c9-8a87fe13c59f","system_id":"levelo_inurba_marseille","lat":43.310804,"lon":5.38359,"is_reserved":false,"is_disabled":false,"rental_uris":{"android":"levelo://app?vid=87129816-d970-4025-a9c9-8a87fe13c59f","ios":"levelo://app?vid=87129816-d970-4025-a9c9-8a87fe13c59f"},"vehicle_type_id":"4","last_reported":1725707194,"current_range_meters":15200,"station_id":"ce4bgv92rcd13ifvqcr0","pricing_plan_id":"cebpf4jnsgd1na2vs0mg"},{"bike_id":"ddc980b3-c2e7-4ccb-b8e4-f8494abce111","system_id":"levelo_inurba_marseille","lat":43.302784,"lon":5.377158,"is_reserved":false,"is_disabled":false,"rental_uris":{"android":"levelo://app?vid=ddc980b3-c2e7-4ccb-b8e4-f8494abce111","ios":"levelo://app?vid=ddc980b3-c2e7-4ccb-b8e4-f8494abce111"},"vehicle_type_id":"4","last_reported":1725707194,"current_range_meters":29200,"station_id":"ce4bguh2rcd13ifvqcj0","pricing_plan_id":"cebpf4jnsgd1na2vs0mg"},{"bike_id":"3db8d351-db5b-4908-9bd2-24bb65c316be","system_id":"levelo_inurba_marseille","lat":43.313571,"lon":5.384829,"is_reserved":false,"is_disabled":false,"rental_uris":{"android":"levelo://app?vid=3db8d351-db5b-4908-9bd2-24bb65c316be","ios":"levelo://app?vid=3db8d351-db5b-4908-9bd2-24bb65c316be"},"vehicle_type_id":"4","last_reported":1725707194,"current_range_meters":13600,"station_id":"ce4bgt92rcd13ifvqcf0","pricing_plan_id":"cebpf4jnsgd1na2vs0mg"},{"bike_id":"eec4b531-de3f-4dc5-8dcd-0dfe4ac81ae5","system_id":"levelo_inurba_marseille","lat":43.302784,"lon":5.377158,"is_reserved":false,"is_disabled":false,"rental_uris":{"android":"levelo://app?vid=eec4b531-de3f-4dc5-8dcd-0dfe4ac81ae5","ios":"levelo://app?vid=eec4b531-de3f-4dc5-8dcd-0dfe4ac81ae5"},"vehicle_type_id":"4","last_reported":1725707194,"current_range_meters":31200,"station_id":"ce4bguh2rcd13ifvqcj0","pricing_plan_id":"cebpf4jnsgd1na2vs0mg"},{"bike_id":"2f8ba309-042f-4257-8377-0acfefa26ca7","system_id":"levelo_inurba_marseille","lat":43.302784,"lon":5.377158,"is_reserved":false,"is_disabled":false,"rental_uris":{"android":"levelo://app?vid=2f8ba309-042f-4257-8377-0acfefa26ca7","ios":"levelo://app?vid=2f8ba309-042f-4257-8377-0acfefa26ca7"},"vehicle_type_id":"4","last_reported":1725707194,"current_range_meters":31200,"station_id":"ce4bguh2rcd13ifvqcj0","pricing_plan_id":"cebpf4jnsgd1na2vs0mg"},{"bike_id":"f52fc69d-9352-4278-a75f-321e291060d8","system_id":"levelo_inurba_marseille","lat":43.30147,"lon":5.37418,"is_reserved":false,"is_disabled":false,"rental_uris":{"android":"levelo://app?vid=f52fc69d-9352-4278-a75f-321e291060d8","ios":"levelo://app?vid=f52fc69d-9352-4278-a75f-321e291060d8"},"vehicle_type_id":"4","last_reported":1725707194,"current_range_meters":13200,"station_id":"ce4bgs92rcd13ifvqcc0","pricing_plan_id":"cebpf4jnsgd1na2vs0mg"},{"bike_id":"6817788a-f785-4828-aafa-774df2c8a165","system_id":"levelo_inurba_marseille","lat":43.302784,"lon":5.377158,"is_reserved":false,"is_disabled":false,"rental_uris":{"android":"levelo://app?vid=6817788a-f785-4828-aafa-774df2c8a165","ios":"levelo://app?vid=6817788a-f785-4828-aafa-774df2c8a165"},"vehicle_type_id":"4","last_reported":1725707194,"current_range_meters":30000,"station_id":"ce4bguh2rcd13ifvqcj0","pricing_plan_id":"cebpf4jnsgd1na2vs0mg"},{"bike_id":"55890cc6-564c-40f6-bc8a-f5265bf8144e","system_id":"levelo_inurba_marseille","lat":43.302784,"lon":5.377158,"is_reserved":false,"is_disabled":false,"rental_uris":{"android":"levelo://app?vid=55890cc6-564c-40f6-bc8a-f5265bf8144e","ios":"levelo://app?vid=55890cc6-564c-40f6-bc8a-f5265bf8144e"},"vehicle_type_id":"4","last_reported":1725707194,"current_range_meters":20800,"station_id":"ce4bguh2rcd13ifvqcj0","pricing_plan_id":"cebpf4jnsgd1na2vs0mg"},{"bike_id":"0258a2ec-3943-45a3-a38c-2d3a4a922e3b","system_id":"levelo_inurba_marseille","lat":43.30143,"lon":5.37413,"is_reserved":false,"is_disabled":false,"rental_uris":{"android":"levelo://app?vid=0258a2ec-3943-45a3-a38c-2d3a4a922e3b","ios":"levelo://app?vid=0258a2ec-3943-45a3-a38c-2d3a4a922e3b"},"vehicle_type_id":"4","last_reported":1725707194,"current_range_meters":25600,"station_id":"ce4bgs92rcd13ifvqcc0","pricing_plan_id":"cebpf4jnsgd1na2vs0mg"},{"bike_id":"7cd6e7e4-e335-42ff-99f2-1c3308d71c14","system_id":"levelo_inurba_marseille","lat":43.319935,"lon":5.381699,"is_reserved":false,"is_disabled":false,"rental_uris":{"android":"levelo://app?vid=7cd6e7e4-e335-42ff-99f2-1c3308d71c14","ios":"levelo://app?vid=7cd6e7e4-e335-42ff-99f2-1c3308d71c14"},"vehicle_type_id":"4","last_reported":1725707194,"current_range_meters":20400,"station_id":"ce4bhr12rcd13ifvqhpg","pricing_plan_id":"cebpf4jnsgd1na2vs0mg"},{"bike_id":"91c06e63-f054-45fc-9c98-1b7a4127406c","system_id":"levelo_inurba_marseille","lat":43.299724,"lon":5.371829,"is_reserved":false,"is_disabled":false,"rental_uris":{"android":"levelo://app?vid=91c06e63-f054-45fc-9c98-1b7a4127406c","ios":"levelo://app?vid=91c06e63-f054-45fc-9c98-1b7a4127406c"},"vehicle_type_id":"4","last_reported":1725707194,"current_range_meters":28400,"station_id":"ce4bgr92rcd13ifvqc7g","pricing_plan_id":"cebpf4jnsgd1na2vs0mg"},{"bike_id":"6278f34b-4f0f-49de-9f60-d41300ae23de","system_id":"levelo_inurba_marseille","lat":43.299724,"lon":5.371829,"is_reserved":false,"is_disabled":false,"rental_uris":{"android":"levelo://app?vid=6278f34b-4f0f-49de-9f60-d41300ae23de","ios":"levelo://app?vid=6278f34b-4f0f-49de-9f60-d41300ae23de"},"vehicle_type_id":"4","last_reported":1725707194,"current_range_meters":25200,"station_id":"ce4bgr92rcd13ifvqc7g","pricing_plan_id":"cebpf4jnsgd1na2vs0mg"},{"bike_id":"a320daf8-462c-40a1-819f-aab623d38fe9","system_id":"levelo_inurba_marseille","lat":43.299222,"lon":5.365554,"is_reserved":false,"is_disabled":false,"rental_uris":{"android":"levelo://app?vid=a320daf8-462c-40a1-819f-aab623d38fe9","ios":"levelo://app?vid=a320daf8-462c-40a1-819f-aab623d38fe9"},"vehicle_type_id":"4","last_reported":1725707194,"current_range_meters":16400,"station_id":"ce4bgm92rcd13ifvqbr0","pricing_plan_id":"cebpf4jnsgd1na2vs0mg"},{"bike_id":"a437049d-2891-494d-806e-26a22b5ec370","system_id":"levelo_inurba_marseille","lat":43.299724,"lon":5.371829,"is_reserved":false,"is_disabled":false,"rental_uris":{"android":"levelo://app?vid=a437049d-2891-494d-806e-26a22b5ec370","ios":"levelo://app?vid=a437049d-2891-494d-806e-26a22b5ec370"},"vehicle_type_id":"4","last_reported":1725707194,"current_range_meters":29600,"station_id":"ce4bgr92rcd13ifvqc7g","pricing_plan_id":"cebpf4jnsgd1na2vs0mg"},{"bike_id":"27c9cb6e-1a1f-4682-b133-08d3b079c186","system_id":"levelo_inurba_marseille","lat":43.299724,"lon":5.371829,"is_reserved":false,"is_disabled":false,"rental_uris":{"android":"levelo://app?vid=27c9cb6e-1a1f-4682-b133-08d3b079c186","ios":"levelo://app?vid=27c9cb6e-1a1f-4682-b133-08d3b079c186"},"vehicle_type_id":"4","last_reported":1725707194,"current_range_meters":10800,"station_id":"ce4bgr92rcd13ifvqc7g","pricing_plan_id":"cebpf4jnsgd1na2vs0mg"},{"bike_id":"366f791b-0da6-46a6-b594-b67946dafde8","system_id":"levelo_inurba_marseille","lat":43.29849,"lon":5.36272,"is_reserved":false,"is_disabled":false,"rental_uris":{"android":"levelo://app?vid=366f791b-0da6-46a6-b594-b67946dafde8","ios":"levelo://app?vid=366f791b-0da6-46a6-b594-b67946dafde8"},"vehicle_type_id":"4","last_reported":1725707194,"current_range_meters":31200,"station_id":"ce4bgpp2rcd13ifvqc3g","pricing_plan_id":"cebpf4jnsgd1na2vs0mg"},{"bike_id":"17003fcb-f0f6-473e-bdbe-62582a1c5a7a","system_id":"levelo_inurba_marseille","lat":43.298433,"lon":5.362774,"is_reserved":false,"is_disabled":false,"rental_uris":{"android":"levelo://app?vid=17003fcb-f0f6-473e-bdbe-62582a1c5a7a","ios":"levelo://app?vid=17003fcb-f0f6-473e-bdbe-62582a1c5a7a"},"vehicle_type_id":"4","last_reported":1725707194,"current_range_meters":25200,"station_id":"ce4bgpp2rcd13ifvqc3g","pricing_plan_id":"cebpf4jnsgd1na2vs0mg"},{"bike_id":"ec50db43-d25c-4879-9794-ef3d5888572b","system_id":"levelo_inurba_marseille","lat":43.30176,"lon":5.38022,"is_reserved":false,"is_disabled":false,"rental_uris":{"android":"levelo://app?vid=ec50db43-d25c-4879-9794-ef3d5888572b","ios":"levelo://app?vid=ec50db43-d25c-4879-9794-ef3d5888572b"},"vehicle_type_id":"4","last_reported":1725707194,"current_range_meters":31200,"station_id":"","pricing_plan_id":"cebpf4jnsgd1na2vs0mg"},{"bike_id":"18325962-3329-4692-b886-7278496fc331","system_id":"levelo_inurba_marseille","lat":43.298433,"lon":5.362774,"is_reserved":false,"is_disabled":false,"rental_uris":{"android":"levelo://app?vid=18325962-3329-4692-b886-7278496fc331","ios":"levelo://app?vid=18325962-3329-4692-b886-7278496fc331"},"vehicle_type_id":"4","last_reported":1725707194,"current_range_meters":31200,"station_id":"ce4bgpp2rcd13ifvqc3g","pricing_plan_id":"cebpf4jnsgd1na2vs0mg"},{"bike_id":"a8a30847-9cd8-4e85-b4b7-c9b5a8546b69","system_id":"levelo_inurba_marseille","lat":43.298433,"lon":5.362774,"is_reserved":false,"is_disabled":false,"rental_uris":{"android":"levelo://app?vid=a8a30847-9cd8-4e85-b4b7-c9b5a8546b69","ios":"levelo://app?vid=a8a30847-9cd8-4e85-b4b7-c9b5a8546b69"},"vehicle_type_id":"4","last_reported":1725707194,"current_range_meters":18000,"station_id":"ce4bgpp2rcd13ifvqc3g","pricing_plan_id":"cebpf4jnsgd1na2vs0mg"},{"bike_id":"f9728f0a-a9bd-4af4-a45e-e63f54d96d17","system_id":"levelo_inurba_marseille","lat":43.298433,"lon":5.362774,"is_reserved":false,"is_disabled":false,"rental_uris":{"android":"levelo://app?vid=f9728f0a-a9bd-4af4-a45e-e63f54d96d17","ios":"levelo://app?vid=f9728f0a-a9bd-4af4-a45e-e63f54d96d17"},"vehicle_type_id":"4","last_reported":1725707194,"current_range_meters":31200,"station_id":"ce4bgpp2rcd13ifvqc3g","pricing_plan_id":"cebpf4jnsgd1na2vs0mg"},{"bike_id":"26e14042-2794-4e40-b1d4-c31295ade603","system_id":"levelo_inurba_marseille","lat":43.298433,"lon":5.362774,"is_reserved":false,"is_disabled":false,"rental_uris":{"android":"levelo://app?vid=26e14042-2794-4e40-b1d4-c31295ade603","ios":"levelo://app?vid=26e14042-2794-4e40-b1d4-c31295ade603"},"vehicle_type_id":"4","last_reported":1725707194,"current_range_meters":30800,"station_id":"ce4bgpp2rcd13ifvqc3g","pricing_plan_id":"cebpf4jnsgd1na2vs0mg"},{"bike_id":"c074d969-cd93-40fe-bc40-a97a2eb78652","system_id":"levelo_inurba_marseille","lat":43.298433,"lon":5.362774,"is_reserved":false,"is_disabled":false,"rental_uris":{"android":"levelo://app?vid=c074d969-cd93-40fe-bc40-a97a2eb78652","ios":"levelo://app?vid=c074d969-cd93-40fe-bc40-a97a2eb78652"},"vehicle_type_id":"4","last_reported":1725707194,"current_range_meters":28800,"station_id":"ce4bgpp2rcd13ifvqc3g","pricing_plan_id":"cebpf4jnsgd1na2vs0mg"},{"bike_id":"f8372116-1d0c-4fdf-86ac-da27940bd80c","system_id":"levelo_inurba_marseille","lat":43.305364,"lon":5.384119,"is_reserved":false,"is_disabled":false,"rental_uris":{"android":"levelo://app?vid=f8372116-1d0c-4fdf-86ac-da27940bd80c","ios":"levelo://app?vid=f8372116-1d0c-4fdf-86ac-da27940bd80c"},"vehicle_type_id":"4","last_reported":1725707194,"current_range_meters":400,"station_id":"ce4bgg92rcd13ifvqb30","pricing_plan_id":"cebpf4jnsgd1na2vs0mg"},{"bike_id":"9e4f7660-8550-4941-ada1-2588de853502","system_id":"levelo_inurba_marseille","lat":43.29914,"lon":5.374873,"is_reserved":false,"is_disabled":false,"rental_uris":{"android":"levelo://app?vid=9e4f7660-8550-4941-ada1-2588de853502","ios":"levelo://app?vid=9e4f7660-8550-4941-ada1-2588de853502"},"vehicle_type_id":"4","last_reported":1725707194,"current_range_meters":27200,"station_id":"ce4bgjh2rcd13ifvqbg0","pricing_plan_id":"cebpf4jnsgd1na2vs0mg"},{"bike_id":"10950b60-c0fe-4c98-b954-c9dc7fe8478a","system_id":"levelo_inurba_marseille","lat":43.311722,"lon":5.387247,"is_reserved":false,"is_disabled":false,"rental_uris":{"android":"levelo://app?vid=10950b60-c0fe-4c98-b954-c9dc7fe8478a","ios":"levelo://app?vid=10950b60-c0fe-4c98-b954-c9dc7fe8478a"},"vehicle_type_id":"4","last_reported":1725707194,"current_range_meters":13600,"station_id":"ce4bgv12rcd13ifvqcp0","pricing_plan_id":"cebpf4jnsgd1na2vs0mg"},{"bike_id":"d9947bb5-465b-4796-8729-35d9c84bd7da","system_id":"levelo_inurba_marseille","lat":43.301417,"lon":5.3809,"is_reserved":false,"is_disabled":false,"rental_uris":{"android":"levelo://app?vid=d9947bb5-465b-4796-8729-35d9c84bd7da","ios":"levelo://app?vid=d9947bb5-465b-4796-8729-35d9c84bd7da"},"vehicle_type_id":"4","last_reported":1725707194,"current_range_meters":6800,"station_id":"ce4bgjp2rcd13ifvqbh0","pricing_plan_id":"cebpf4jnsgd1na2vs0mg"},{"bike_id":"4ae51d6b-aaaf-442a-873d-f8eca9a3e7b5","system_id":"levelo_inurba_marseille","lat":43.32068,"lon":5.384486,"is_reserved":false,"is_disabled":false,"rental_uris":{"android":"levelo://app?vid=4ae51d6b-aaaf-442a-873d-f8eca9a3e7b5","ios":"levelo://app?vid=4ae51d6b-aaaf-442a-873d-f8eca9a3e7b5"},"vehicle_type_id":"4","last_reported":1725707194,"current_range_meters":6800,"station_id":"","pricing_plan_id":"cebpf4jnsgd1na2vs0mg"},{"bike_id":"13b4cc5c-cd8d-4f9a-9867-d5d064c3856e","system_id":"levelo_inurba_marseille","lat":43.301417,"lon":5.3809,"is_reserved":false,"is_disabled":false,"rental_uris":{"android":"levelo://app?vid=13b4cc5c-cd8d-4f9a-9867-d5d064c3856e","ios":"levelo://app?vid=13b4cc5c-cd8d-4f9a-9867-d5d064c3856e"},"vehicle_type_id":"4","last_reported":1725707194,"current_range_meters":22000,"station_id":"ce4bgjp2rcd13ifvqbh0","pricing_plan_id":"cebpf4jnsgd1na2vs0mg"},{"bike_id":"6aebb149-37b7-496b-9fe1-4580e760886c","system_id":"levelo_inurba_marseille","lat":43.301417,"lon":5.3809,"is_reserved":false,"is_disabled":false,"rental_uris":{"android":"levelo://app?vid=6aebb149-37b7-496b-9fe1-4580e760886c","ios":"levelo://app?vid=6aebb149-37b7-496b-9fe1-4580e760886c"},"vehicle_type_id":"4","last_reported":1725707194,"current_range_meters":31200,"station_id":"ce4bgjp2rcd13ifvqbh0","pricing_plan_id":"cebpf4jnsgd1na2vs0mg"},{"bike_id":"db67e98e-684c-4401-ab3e-bca0453433ff","system_id":"levelo_inurba_marseille","lat":43.301417,"lon":5.3809,"is_reserved":false,"is_disabled":false,"rental_uris":{"android":"levelo://app?vid=db67e98e-684c-4401-ab3e-bca0453433ff","ios":"levelo://app?vid=db67e98e-684c-4401-ab3e-bca0453433ff"},"vehicle_type_id":"4","last_reported":1725707194,"current_range_meters":8800,"station_id":"ce4bgjp2rcd13ifvqbh0","pricing_plan_id":"cebpf4jnsgd1na2vs0mg"},{"bike_id":"a999ea92-0e84-47c5-a463-b1cbc7d9959d","system_id":"levelo_inurba_marseille","lat":43.301417,"lon":5.3809,"is_reserved":false,"is_disabled":false,"rental_uris":{"android":"levelo://app?vid=a999ea92-0e84-47c5-a463-b1cbc7d9959d","ios":"levelo://app?vid=a999ea92-0e84-47c5-a463-b1cbc7d9959d"},"vehicle_type_id":"4","last_reported":1725707194,"current_range_meters":13200,"station_id":"ce4bgjp2rcd13ifvqbh0","pricing_plan_id":"cebpf4jnsgd1na2vs0mg"},{"bike_id":"1ba5f6f6-4199-485d-97e8-4bab53a13e0e","system_id":"levelo_inurba_marseille","lat":43.301417,"lon":5.3809,"is_reserved":false,"is_disabled":false,"rental_uris":{"android":"levelo://app?vid=1ba5f6f6-4199-485d-97e8-4bab53a13e0e","ios":"levelo://app?vid=1ba5f6f6-4199-485d-97e8-4bab53a13e0e"},"vehicle_type_id":"4","last_reported":1725707194,"current_range_meters":12800,"station_id":"ce4bgjp2rcd13ifvqbh0","pricing_plan_id":"cebpf4jnsgd1na2vs0mg"},{"bike_id":"304dfd66-aea4-4a2e-a8fc-7dc9e1234b52","system_id":"levelo_inurba_marseille","lat":43.297774,"lon":5.370875,"is_reserved":false,"is_disabled":false,"rental_uris":{"android":"levelo://app?vid=304dfd66-aea4-4a2e-a8fc-7dc9e1234b52","ios":"levelo://app?vid=304dfd66-aea4-4a2e-a8fc-7dc9e1234b52"},"vehicle_type_id":"4","last_reported":1725707194,"current_range_meters":10000,"station_id":"ce4bgop2rcd13ifvqc1g","pricing_plan_id":"cebpf4jnsgd1na2vs0mg"},{"bike_id":"9d4d4ad3-9fa4-4394-8995-8a5887e80cc8","system_id":"levelo_inurba_marseille","lat":43.32285,"lon":5.38269,"is_reserved":false,"is_disabled":false,"rental_uris":{"android":"levelo://app?vid=9d4d4ad3-9fa4-4394-8995-8a5887e80cc8","ios":"levelo://app?vid=9d4d4ad3-9fa4-4394-8995-8a5887e80cc8"},"vehicle_type_id":"4","last_reported":1725707194,"current_range_meters":14000,"station_id":"ce4bhr12rcd13ifvqhqg","pricing_plan_id":"cebpf4jnsgd1na2vs0mg"},{"bike_id":"e5419a4d-1119-4eea-a4e4-da096c887444","system_id":"levelo_inurba_marseille","lat":43.322872,"lon":5.382756,"is_reserved":false,"is_disabled":false,"rental_uris":{"android":"levelo://app?vid=e5419a4d-1119-4eea-a4e4-da096c887444","ios":"levelo://app?vid=e5419a4d-1119-4eea-a4e4-da096c887444"},"vehicle_type_id":"4","last_reported":1725707194,"current_range_meters":24000,"station_id":"ce4bhr12rcd13ifvqhqg","pricing_plan_id":"cebpf4jnsgd1na2vs0mg"},{"bike_id":"2cdf5292-ad6e-498e-bec2-1d4849673dee","system_id":"levelo_inurba_marseille","lat":43.297163,"lon":5.365866,"is_reserved":false,"is_disabled":false,"rental_uris":{"android":"levelo://app?vid=2cdf5292-ad6e-498e-bec2-1d4849673dee","ios":"levelo://app?vid=2cdf5292-ad6e-498e-bec2-1d4849673dee"},"vehicle_type_id":"4","last_reported":1725707194,"current_range_meters":6000,"station_id":"ce4bgn12rcd13ifvqbt0","pricing_plan_id":"cebpf4jnsgd1na2vs0mg"},{"bike_id":"daf6701a-9e86-4f23-9983-5bac8a79fd62","system_id":"levelo_inurba_marseille","lat":43.297163,"lon":5.365866,"is_reserved":false,"is_disabled":false,"rental_uris":{"android":"levelo://app?vid=daf6701a-9e86-4f23-9983-5bac8a79fd62","ios":"levelo://app?vid=daf6701a-9e86-4f23-9983-5bac8a79fd62"},"vehicle_type_id":"4","last_reported":1725707194,"current_range_meters":4400,"station_id":"ce4bgn12rcd13ifvqbt0","pricing_plan_id":"cebpf4jnsgd1na2vs0mg"},{"bike_id":"826c8563-3eac-4297-9e92-d7177259964a","system_id":"levelo_inurba_marseille","lat":43.297163,"lon":5.365866,"is_reserved":false,"is_disabled":false,"rental_uris":{"android":"levelo://app?vid=826c8563-3eac-4297-9e92-d7177259964a","ios":"levelo://app?vid=826c8563-3eac-4297-9e92-d7177259964a"},"vehicle_type_id":"4","last_reported":1725707194,"current_range_meters":12400,"station_id":"ce4bgn12rcd13ifvqbt0","pricing_plan_id":"cebpf4jnsgd1na2vs0mg"},{"bike_id":"d57f7645-ec38-48ca-bf82-d9ceaf3b023c","system_id":"levelo_inurba_marseille","lat":43.297163,"lon":5.365866,"is_reserved":false,"is_disabled":false,"rental_uris":{"android":"levelo://app?vid=d57f7645-ec38-48ca-bf82-d9ceaf3b023c","ios":"levelo://app?vid=d57f7645-ec38-48ca-bf82-d9ceaf3b023c"},"vehicle_type_id":"4","last_reported":1725707194,"current_range_meters":26800,"station_id":"ce4bgn12rcd13ifvqbt0","pricing_plan_id":"cebpf4jnsgd1na2vs0mg"},{"bike_id":"95fd675f-eb85-4f65-b2bc-8094269c7895","system_id":"levelo_inurba_marseille","lat":43.297163,"lon":5.365866,"is_reserved":false,"is_disabled":false,"rental_uris":{"android":"levelo://app?vid=95fd675f-eb85-4f65-b2bc-8094269c7895","ios":"levelo://app?vid=95fd675f-eb85-4f65-b2bc-8094269c7895"},"vehicle_type_id":"4","last_reported":1725707194,"current_range_meters":4000,"station_id":"ce4bgn12rcd13ifvqbt0","pricing_plan_id":"cebpf4jnsgd1na2vs0mg"},{"bike_id":"d7abc801-6972-4dc7-8431-16b0e1a096ab","system_id":"levelo_inurba_marseille","lat":43.297163,"lon":5.365866,"is_reserved":false,"is_disabled":false,"rental_uris":{"android":"levelo://app?vid=d7abc801-6972-4dc7-8431-16b0e1a096ab","ios":"levelo://app?vid=d7abc801-6972-4dc7-8431-16b0e1a096ab"},"vehicle_type_id":"4","last_reported":1725707194,"current_range_meters":13200,"station_id":"ce4bgn12rcd13ifvqbt0","pricing_plan_id":"cebpf4jnsgd1na2vs0mg"},{"bike_id":"83f7e5b1-e2ed-4339-a5a6-94d3d94b3a41","system_id":"levelo_inurba_marseille","lat":43.31586,"lon":5.3887,"is_reserved":false,"is_disabled":false,"rental_uris":{"android":"levelo://app?vid=83f7e5b1-e2ed-4339-a5a6-94d3d94b3a41","ios":"levelo://app?vid=83f7e5b1-e2ed-4339-a5a6-94d3d94b3a41"},"vehicle_type_id":"4","last_reported":1725707194,"current_range_meters":14800,"station_id":"","pricing_plan_id":"cebpf4jnsgd1na2vs0mg"},{"bike_id":"385b3954-2647-4c12-bc17-5ffc929d370f","system_id":"levelo_inurba_marseille","lat":43.297163,"lon":5.365866,"is_reserved":false,"is_disabled":false,"rental_uris":{"android":"levelo://app?vid=385b3954-2647-4c12-bc17-5ffc929d370f","ios":"levelo://app?vid=385b3954-2647-4c12-bc17-5ffc929d370f"},"vehicle_type_id":"4","last_reported":1725707194,"current_range_meters":15200,"station_id":"ce4bgn12rcd13ifvqbt0","pricing_plan_id":"cebpf4jnsgd1na2vs0mg"},{"bike_id":"5f29f7e8-f57f-4bda-be63-fa489e41ebb8","system_id":"levelo_inurba_marseille","lat":43.30163,"lon":5.383458,"is_reserved":false,"is_disabled":false,"rental_uris":{"android":"levelo://app?vid=5f29f7e8-f57f-4bda-be63-fa489e41ebb8","ios":"levelo://app?vid=5f29f7e8-f57f-4bda-be63-fa489e41ebb8"},"vehicle_type_id":"4","last_reported":1725707194,"current_range_meters":18800,"station_id":"","pricing_plan_id":"cebpf4jnsgd1na2vs0mg"},{"bike_id":"8a8887de-5c7d-4b1c-91b2-78e9c920b48d","system_id":"levelo_inurba_marseille","lat":43.2968,"lon":5.37291,"is_reserved":false,"is_disabled":false,"rental_uris":{"android":"levelo://app?vid=8a8887de-5c7d-4b1c-91b2-78e9c920b48d","ios":"levelo://app?vid=8a8887de-5c7d-4b1c-91b2-78e9c920b48d"},"vehicle_type_id":"4","last_reported":1725707194,"current_range_meters":28000,"station_id":"ce4bgk12rcd13ifvqbj0","pricing_plan_id":"cebpf4jnsgd1na2vs0mg"},{"bike_id":"23496291-1b76-4f09-8485-d0ac4dcdd4a1","system_id":"levelo_inurba_marseille","lat":43.296131,"lon":5.370791,"is_reserved":false,"is_disabled":false,"rental_uris":{"android":"levelo://app?vid=23496291-1b76-4f09-8485-d0ac4dcdd4a1","ios":"levelo://app?vid=23496291-1b76-4f09-8485-d0ac4dcdd4a1"},"vehicle_type_id":"4","last_reported":1725707194,"current_range_meters":19200,"station_id":"ce4bgnh2rcd13ifvqc0g","pricing_plan_id":"cebpf4jnsgd1na2vs0mg"},{"bike_id":"9d1afc4f-89d8-445b-a69b-b339dcbe83d3","system_id":"levelo_inurba_marseille","lat":43.29628,"lon":5.37156,"is_reserved":false,"is_disabled":false,"rental_uris":{"android":"levelo://app?vid=9d1afc4f-89d8-445b-a69b-b339dcbe83d3","ios":"levelo://app?vid=9d1afc4f-89d8-445b-a69b-b339dcbe83d3"},"vehicle_type_id":"4","last_reported":1725707194,"current_range_meters":28400,"station_id":"ce4bgnh2rcd13ifvqc0g","pricing_plan_id":"cebpf4jnsgd1na2vs0mg"},{"bike_id":"961e92c3-ef69-4a8f-88e2-adad4afaa555","system_id":"levelo_inurba_marseille","lat":43.29626,"lon":5.37163,"is_reserved":false,"is_disabled":false,"rental_uris":{"android":"levelo://app?vid=961e92c3-ef69-4a8f-88e2-adad4afaa555","ios":"levelo://app?vid=961e92c3-ef69-4a8f-88e2-adad4afaa555"},"vehicle_type_id":"4","last_reported":1725707194,"current_range_meters":26000,"station_id":"ce4bgnh2rcd13ifvqc0g","pricing_plan_id":"cebpf4jnsgd1na2vs0mg"},{"bike_id":"01b2bd6f-676a-47ab-b00f-5f2168c9d809","system_id":"levelo_inurba_marseille","lat":43.296131,"lon":5.370791,"is_reserved":false,"is_disabled":false,"rental_uris":{"android":"levelo://app?vid=01b2bd6f-676a-47ab-b00f-5f2168c9d809","ios":"levelo://app?vid=01b2bd6f-676a-47ab-b00f-5f2168c9d809"},"vehicle_type_id":"4","last_reported":1725707194,"current_range_meters":5600,"station_id":"ce4bgnh2rcd13ifvqc0g","pricing_plan_id":"cebpf4jnsgd1na2vs0mg"},{"bike_id":"7bcfe98f-2a9a-4add-989a-0fca8271799b","system_id":"levelo_inurba_marseille","lat":43.296131,"lon":5.370791,"is_reserved":false,"is_disabled":false,"rental_uris":{"android":"levelo://app?vid=7bcfe98f-2a9a-4add-989a-0fca8271799b","ios":"levelo://app?vid=7bcfe98f-2a9a-4add-989a-0fca8271799b"},"vehicle_type_id":"4","last_reported":1725707194,"current_range_meters":28400,"station_id":"ce4bgnh2rcd13ifvqc0g","pricing_plan_id":"cebpf4jnsgd1na2vs0mg"},{"bike_id":"937f3d41-2d47-4bf2-b8d8-edfebd55fa2c","system_id":"levelo_inurba_marseille","lat":43.296131,"lon":5.370791,"is_reserved":false,"is_disabled":false,"rental_uris":{"android":"levelo://app?vid=937f3d41-2d47-4bf2-b8d8-edfebd55fa2c","ios":"levelo://app?vid=937f3d41-2d47-4bf2-b8d8-edfebd55fa2c"},"vehicle_type_id":"4","last_reported":1725707194,"current_range_meters":19200,"station_id":"ce4bgnh2rcd13ifvqc0g","pricing_plan_id":"cebpf4jnsgd1na2vs0mg"},{"bike_id":"c716f777-c206-4b6f-90ef-3d15b2f35c76","system_id":"levelo_inurba_marseille","lat":43.296131,"lon":5.370791,"is_reserved":false,"is_disabled":false,"rental_uris":{"android":"levelo://app?vid=c716f777-c206-4b6f-90ef-3d15b2f35c76","ios":"levelo://app?vid=c716f777-c206-4b6f-90ef-3d15b2f35c76"},"vehicle_type_id":"4","last_reported":1725707194,"current_range_meters":30400,"station_id":"ce4bgnh2rcd13ifvqc0g","pricing_plan_id":"cebpf4jnsgd1na2vs0mg"},{"bike_id":"bcd710b3-d104-4012-8cd8-aa29fac309ad","system_id":"levelo_inurba_marseille","lat":43.296131,"lon":5.370773,"is_reserved":false,"is_disabled":false,"rental_uris":{"android":"levelo://app?vid=bcd710b3-d104-4012-8cd8-aa29fac309ad","ios":"levelo://app?vid=bcd710b3-d104-4012-8cd8-aa29fac309ad"},"vehicle_type_id":"4","last_reported":1725707194,"current_range_meters":20800,"station_id":"ce4bgnh2rcd13ifvqc0g","pricing_plan_id":"cebpf4jnsgd1na2vs0mg"},{"bike_id":"2f7586f0-acc0-4701-ba9e-da64f773602d","system_id":"levelo_inurba_marseille","lat":43.296131,"lon":5.370791,"is_reserved":false,"is_disabled":false,"rental_uris":{"android":"levelo://app?vid=2f7586f0-acc0-4701-ba9e-da64f773602d","ios":"levelo://app?vid=2f7586f0-acc0-4701-ba9e-da64f773602d"},"vehicle_type_id":"4","last_reported":1725707194,"current_range_meters":24000,"station_id":"ce4bgnh2rcd13ifvqc0g","pricing_plan_id":"cebpf4jnsgd1na2vs0mg"},{"bike_id":"a2645d96-71f6-4fb7-b7f2-f3fe5ce8a9c6","system_id":"levelo_inurba_marseille","lat":43.296131,"lon":5.370773,"is_reserved":false,"is_disabled":false,"rental_uris":{"android":"levelo://app?vid=a2645d96-71f6-4fb7-b7f2-f3fe5ce8a9c6","ios":"levelo://app?vid=a2645d96-71f6-4fb7-b7f2-f3fe5ce8a9c6"},"vehicle_type_id":"4","last_reported":1725707194,"current_range_meters":29200,"station_id":"ce4bgnh2rcd13ifvqc0g","pricing_plan_id":"cebpf4jnsgd1na2vs0mg"},{"bike_id":"36ef9987-58de-4c06-9dd1-13c95734dd9d","system_id":"levelo_inurba_marseille","lat":43.29573,"lon":5.367355,"is_reserved":false,"is_disabled":false,"rental_uris":{"android":"levelo://app?vid=36ef9987-58de-4c06-9dd1-13c95734dd9d","ios":"levelo://app?vid=36ef9987-58de-4c06-9dd1-13c95734dd9d"},"vehicle_type_id":"4","last_reported":1725707194,"current_range_meters":25600,"station_id":"ce4bgph2rcd13ifvqc2g","pricing_plan_id":"cebpf4jnsgd1na2vs0mg"},{"bike_id":"0bf3e6c3-fdd9-4e6b-8114-787b523abe7f","system_id":"levelo_inurba_marseille","lat":43.296935,"lon":5.376544,"is_reserved":false,"is_disabled":false,"rental_uris":{"android":"levelo://app?vid=0bf3e6c3-fdd9-4e6b-8114-787b523abe7f","ios":"levelo://app?vid=0bf3e6c3-fdd9-4e6b-8114-787b523abe7f"},"vehicle_type_id":"4","last_reported":1725707194,"current_range_meters":27600,"station_id":"ce4bgkh2rcd13ifvqbl0","pricing_plan_id":"cebpf4jnsgd1na2vs0mg"},{"bike_id":"6f17c681-e825-4509-a3bd-3496488525af","system_id":"levelo_inurba_marseille","lat":43.296921,"lon":5.376579,"is_reserved":false,"is_disabled":false,"rental_uris":{"android":"levelo://app?vid=6f17c681-e825-4509-a3bd-3496488525af","ios":"levelo://app?vid=6f17c681-e825-4509-a3bd-3496488525af"},"vehicle_type_id":"4","last_reported":1725707194,"current_range_meters":24400,"station_id":"ce4bgkh2rcd13ifvqbl0","pricing_plan_id":"cebpf4jnsgd1na2vs0mg"},{"bike_id":"7e2a9981-304b-427f-9c45-fdaba7c305e1","system_id":"levelo_inurba_marseille","lat":43.295666,"lon":5.365239,"is_reserved":false,"is_disabled":false,"rental_uris":{"android":"levelo://app?vid=7e2a9981-304b-427f-9c45-fdaba7c305e1","ios":"levelo://app?vid=7e2a9981-304b-427f-9c45-fdaba7c305e1"},"vehicle_type_id":"4","last_reported":1725707194,"current_range_meters":21200,"station_id":"","pricing_plan_id":"cebpf4jnsgd1na2vs0mg"},{"bike_id":"ad08accf-15ae-45e0-8f93-8a143e7da09a","system_id":"levelo_inurba_marseille","lat":43.296935,"lon":5.376544,"is_reserved":false,"is_disabled":false,"rental_uris":{"android":"levelo://app?vid=ad08accf-15ae-45e0-8f93-8a143e7da09a","ios":"levelo://app?vid=ad08accf-15ae-45e0-8f93-8a143e7da09a"},"vehicle_type_id":"4","last_reported":1725707194,"current_range_meters":13600,"station_id":"ce4bgkh2rcd13ifvqbl0","pricing_plan_id":"cebpf4jnsgd1na2vs0mg"},{"bike_id":"e4330a65-06e6-4a7d-a64a-0ba990fa5774","system_id":"levelo_inurba_marseille","lat":43.299253,"lon":5.38161,"is_reserved":false,"is_disabled":false,"rental_uris":{"android":"levelo://app?vid=e4330a65-06e6-4a7d-a64a-0ba990fa5774","ios":"levelo://app?vid=e4330a65-06e6-4a7d-a64a-0ba990fa5774"},"vehicle_type_id":"4","last_reported":1725707194,"current_range_meters":18800,"station_id":"ce4bgj12rcd13ifvqbc0","pricing_plan_id":"cebpf4jnsgd1na2vs0mg"},{"bike_id":"3fc38f7e-ec53-4b81-9c13-2d12c87d946b","system_id":"levelo_inurba_marseille","lat":43.29714,"lon":5.37698,"is_reserved":false,"is_disabled":false,"rental_uris":{"android":"levelo://app?vid=3fc38f7e-ec53-4b81-9c13-2d12c87d946b","ios":"levelo://app?vid=3fc38f7e-ec53-4b81-9c13-2d12c87d946b"},"vehicle_type_id":"4","last_reported":1725707194,"current_range_meters":0,"station_id":"ce4bgkh2rcd13ifvqbl0","pricing_plan_id":"cebpf4jnsgd1na2vs0mg"},{"bike_id":"819f659f-6afe-41d3-a04a-6b59cb601088","system_id":"levelo_inurba_marseille","lat":43.309589,"lon":5.390258,"is_reserved":false,"is_disabled":false,"rental_uris":{"android":"levelo://app?vid=819f659f-6afe-41d3-a04a-6b59cb601088","ios":"levelo://app?vid=819f659f-6afe-41d3-a04a-6b59cb601088"},"vehicle_type_id":"4","last_reported":1725707194,"current_range_meters":25600,"station_id":"ce4bgup2rcd13ifvqco0","pricing_plan_id":"cebpf4jnsgd1na2vs0mg"},{"bike_id":"b884f71c-985d-45a6-9b44-cba21140f94e","system_id":"levelo_inurba_marseille","lat":43.299028,"lon":5.381509,"is_reserved":false,"is_disabled":false,"rental_uris":{"android":"levelo://app?vid=b884f71c-985d-45a6-9b44-cba21140f94e","ios":"levelo://app?vid=b884f71c-985d-45a6-9b44-cba21140f94e"},"vehicle_type_id":"4","last_reported":1725707194,"current_range_meters":8000,"station_id":"ce4bgj12rcd13ifvqbc0","pricing_plan_id":"cebpf4jnsgd1na2vs0mg"},{"bike_id":"73a9ecba-d7cd-4755-949f-f6d90f482a98","system_id":"levelo_inurba_marseille","lat":43.317557,"lon":5.390173,"is_reserved":false,"is_disabled":false,"rental_uris":{"android":"levelo://app?vid=73a9ecba-d7cd-4755-949f-f6d90f482a98","ios":"levelo://app?vid=73a9ecba-d7cd-4755-949f-f6d90f482a98"},"vehicle_type_id":"4","last_reported":1725707194,"current_range_meters":26400,"station_id":"ce4bhqp2rcd13ifvqhng","pricing_plan_id":"cebpf4jnsgd1na2vs0mg"},{"bike_id":"10f69fe8-7773-460f-8cbc-84d5043d302b","system_id":"levelo_inurba_marseille","lat":43.32253,"lon":5.387034,"is_reserved":false,"is_disabled":false,"rental_uris":{"android":"levelo://app?vid=10f69fe8-7773-460f-8cbc-84d5043d302b","ios":"levelo://app?vid=10f69fe8-7773-460f-8cbc-84d5043d302b"},"vehicle_type_id":"4","last_reported":1725707194,"current_range_meters":23600,"station_id":"","pricing_plan_id":"cebpf4jnsgd1na2vs0mg"},{"bike_id":"8d82f581-725d-4f46-9820-6dc8826058f5","system_id":"levelo_inurba_marseille","lat":43.31752,"lon":5.39026,"is_reserved":false,"is_disabled":false,"rental_uris":{"android":"levelo://app?vid=8d82f581-725d-4f46-9820-6dc8826058f5","ios":"levelo://app?vid=8d82f581-725d-4f46-9820-6dc8826058f5"},"vehicle_type_id":"4","last_reported":1725707194,"current_range_meters":29600,"station_id":"ce4bhqp2rcd13ifvqhng","pricing_plan_id":"cebpf4jnsgd1na2vs0mg"},{"bike_id":"e47e5151-57c8-44be-823f-0175aebd43b8","system_id":"levelo_inurba_marseille","lat":43.317557,"lon":5.390173,"is_reserved":false,"is_disabled":false,"rental_uris":{"android":"levelo://app?vid=e47e5151-57c8-44be-823f-0175aebd43b8","ios":"levelo://app?vid=e47e5151-57c8-44be-823f-0175aebd43b8"},"vehicle_type_id":"4","last_reported":1725707194,"current_range_meters":25600,"station_id":"ce4bhqp2rcd13ifvqhng","pricing_plan_id":"cebpf4jnsgd1na2vs0mg"},{"bike_id":"c0387abf-b428-49ed-a96b-aeefec5f00c7","system_id":"levelo_inurba_marseille","lat":43.317557,"lon":5.390173,"is_reserved":false,"is_disabled":false,"rental_uris":{"android":"levelo://app?vid=c0387abf-b428-49ed-a96b-aeefec5f00c7","ios":"levelo://app?vid=c0387abf-b428-49ed-a96b-aeefec5f00c7"},"vehicle_type_id":"4","last_reported":1725707194,"current_range_meters":31200,"station_id":"ce4bhqp2rcd13ifvqhng","pricing_plan_id":"cebpf4jnsgd1na2vs0mg"},{"bike_id":"26ce4a78-b5f8-46ab-97b5-120442a3b526","system_id":"levelo_inurba_marseille","lat":43.29588,"lon":5.37524,"is_reserved":false,"is_disabled":false,"rental_uris":{"android":"levelo://app?vid=26ce4a78-b5f8-46ab-97b5-120442a3b526","ios":"levelo://app?vid=26ce4a78-b5f8-46ab-97b5-120442a3b526"},"vehicle_type_id":"4","last_reported":1725707194,"current_range_meters":26000,"station_id":"ce4bgh92rcd13ifvqb50","pricing_plan_id":"cebpf4jnsgd1na2vs0mg"},{"bike_id":"f3581a3a-5838-4323-b77f-e97378eeb6b1","system_id":"levelo_inurba_marseille","lat":43.29582,"lon":5.37513,"is_reserved":false,"is_disabled":false,"rental_uris":{"android":"levelo://app?vid=f3581a3a-5838-4323-b77f-e97378eeb6b1","ios":"levelo://app?vid=f3581a3a-5838-4323-b77f-e97378eeb6b1"},"vehicle_type_id":"4","last_reported":1725707194,"current_range_meters":22400,"station_id":"ce4bgh92rcd13ifvqb50","pricing_plan_id":"cebpf4jnsgd1na2vs0mg"},{"bike_id":"6809acab-6e63-4d8a-a38d-0d8ba7df5c86","system_id":"levelo_inurba_marseille","lat":43.29579,"lon":5.3751,"is_reserved":false,"is_disabled":false,"rental_uris":{"android":"levelo://app?vid=6809acab-6e63-4d8a-a38d-0d8ba7df5c86","ios":"levelo://app?vid=6809acab-6e63-4d8a-a38d-0d8ba7df5c86"},"vehicle_type_id":"4","last_reported":1725707194,"current_range_meters":27600,"station_id":"ce4bgh92rcd13ifvqb50","pricing_plan_id":"cebpf4jnsgd1na2vs0mg"},{"bike_id":"4342d2fc-b86c-4552-9501-7fea5d7d1d8a","system_id":"levelo_inurba_marseille","lat":43.2958,"lon":5.37519,"is_reserved":false,"is_disabled":false,"rental_uris":{"android":"levelo://app?vid=4342d2fc-b86c-4552-9501-7fea5d7d1d8a","ios":"levelo://app?vid=4342d2fc-b86c-4552-9501-7fea5d7d1d8a"},"vehicle_type_id":"4","last_reported":1725707194,"current_range_meters":5200,"station_id":"ce4bgh92rcd13ifvqb50","pricing_plan_id":"cebpf4jnsgd1na2vs0mg"},{"bike_id":"7bae5f6d-ecff-4791-b647-8ea08cd31294","system_id":"levelo_inurba_marseille","lat":43.295777,"lon":5.375168,"is_reserved":false,"is_disabled":false,"rental_uris":{"android":"levelo://app?vid=7bae5f6d-ecff-4791-b647-8ea08cd31294","ios":"levelo://app?vid=7bae5f6d-ecff-4791-b647-8ea08cd31294"},"vehicle_type_id":"4","last_reported":1725707194,"current_range_meters":14800,"station_id":"ce4bgh92rcd13ifvqb50","pricing_plan_id":"cebpf4jnsgd1na2vs0mg"},{"bike_id":"ae57cc59-bac9-45ce-9b1f-def16616ffdb","system_id":"levelo_inurba_marseille","lat":43.29577,"lon":5.37515,"is_reserved":false,"is_disabled":false,"rental_uris":{"android":"levelo://app?vid=ae57cc59-bac9-45ce-9b1f-def16616ffdb","ios":"levelo://app?vid=ae57cc59-bac9-45ce-9b1f-def16616ffdb"},"vehicle_type_id":"4","last_reported":1725707194,"current_range_meters":31200,"station_id":"ce4bgh92rcd13ifvqb50","pricing_plan_id":"cebpf4jnsgd1na2vs0mg"},{"bike_id":"bd7da55e-34ff-44df-a9f4-ae8ce383705e","system_id":"levelo_inurba_marseille","lat":43.295779,"lon":5.375187,"is_reserved":false,"is_disabled":false,"rental_uris":{"android":"levelo://app?vid=bd7da55e-34ff-44df-a9f4-ae8ce383705e","ios":"levelo://app?vid=bd7da55e-34ff-44df-a9f4-ae8ce383705e"},"vehicle_type_id":"4","last_reported":1725707194,"current_range_meters":10400,"station_id":"ce4bgh92rcd13ifvqb50","pricing_plan_id":"cebpf4jnsgd1na2vs0mg"},{"bike_id":"9468cd9d-81aa-46d5-a88c-85330cdf7f9b","system_id":"levelo_inurba_marseille","lat":43.295769,"lon":5.375203,"is_reserved":false,"is_disabled":false,"rental_uris":{"android":"levelo://app?vid=9468cd9d-81aa-46d5-a88c-85330cdf7f9b","ios":"levelo://app?vid=9468cd9d-81aa-46d5-a88c-85330cdf7f9b"},"vehicle_type_id":"4","last_reported":1725707194,"current_range_meters":30400,"station_id":"ce4bgh92rcd13ifvqb50","pricing_plan_id":"cebpf4jnsgd1na2vs0mg"},{"bike_id":"541c2641-7a80-48fe-896f-81972b36045c","system_id":"levelo_inurba_marseille","lat":43.295748,"lon":5.37522,"is_reserved":false,"is_disabled":false,"rental_uris":{"android":"levelo://app?vid=541c2641-7a80-48fe-896f-81972b36045c","ios":"levelo://app?vid=541c2641-7a80-48fe-896f-81972b36045c"},"vehicle_type_id":"4","last_reported":1725707194,"current_range_meters":31200,"station_id":"ce4bgh92rcd13ifvqb50","pricing_plan_id":"cebpf4jnsgd1na2vs0mg"},{"bike_id":"33a13210-98d2-4686-bc87-fb2e568add25","system_id":"levelo_inurba_marseille","lat":43.29576,"lon":5.37521,"is_reserved":false,"is_disabled":false,"rental_uris":{"android":"levelo://app?vid=33a13210-98d2-4686-bc87-fb2e568add25","ios":"levelo://app?vid=33a13210-98d2-4686-bc87-fb2e568add25"},"vehicle_type_id":"4","last_reported":1725707194,"current_range_meters":28400,"station_id":"ce4bgh92rcd13ifvqb50","pricing_plan_id":"cebpf4jnsgd1na2vs0mg"},{"bike_id":"6d24d5bc-d1f1-42cd-8d1b-515c297b9b7c","system_id":"levelo_inurba_marseille","lat":43.29572,"lon":5.37506,"is_reserved":false,"is_disabled":false,"rental_uris":{"android":"levelo://app?vid=6d24d5bc-d1f1-42cd-8d1b-515c297b9b7c","ios":"levelo://app?vid=6d24d5bc-d1f1-42cd-8d1b-515c297b9b7c"},"vehicle_type_id":"4","last_reported":1725707194,"current_range_meters":31600,"station_id":"ce4bgh92rcd13ifvqb50","pricing_plan_id":"cebpf4jnsgd1na2vs0mg"},{"bike_id":"2af9d902-3a28-43dc-85ef-9d759c286619","system_id":"levelo_inurba_marseille","lat":43.295746,"lon":5.375192,"is_reserved":false,"is_disabled":false,"rental_uris":{"android":"levelo://app?vid=2af9d902-3a28-43dc-85ef-9d759c286619","ios":"levelo://app?vid=2af9d902-3a28-43dc-85ef-9d759c286619"},"vehicle_type_id":"4","last_reported":1725707194,"current_range_meters":31600,"station_id":"ce4bgh92rcd13ifvqb50","pricing_plan_id":"cebpf4jnsgd1na2vs0mg"},{"bike_id":"8c03dc7a-62d7-4afa-bcb9-89d3bc7a6afe","system_id":"levelo_inurba_marseille","lat":43.29575,"lon":5.37521,"is_reserved":false,"is_disabled":false,"rental_uris":{"android":"levelo://app?vid=8c03dc7a-62d7-4afa-bcb9-89d3bc7a6afe","ios":"levelo://app?vid=8c03dc7a-62d7-4afa-bcb9-89d3bc7a6afe"},"vehicle_type_id":"4","last_reported":1725707194,"current_range_meters":12000,"station_id":"ce4bgh92rcd13ifvqb50","pricing_plan_id":"cebpf4jnsgd1na2vs0mg"},{"bike_id":"54c4def0-af04-4b74-af7c-26ee8f4554ca","system_id":"levelo_inurba_marseille","lat":43.304274,"lon":5.388873,"is_reserved":false,"is_disabled":false,"rental_uris":{"android":"levelo://app?vid=54c4def0-af04-4b74-af7c-26ee8f4554ca","ios":"levelo://app?vid=54c4def0-af04-4b74-af7c-26ee8f4554ca"},"vehicle_type_id":"4","last_reported":1725707194,"current_range_meters":16400,"station_id":"ce4bgk12rcd13ifvqbi0","pricing_plan_id":"cebpf4jnsgd1na2vs0mg"},{"bike_id":"2d9cb345-3447-492e-bba2-aaa21265c911","system_id":"levelo_inurba_marseille","lat":43.29572,"lon":5.37512,"is_reserved":false,"is_disabled":false,"rental_uris":{"android":"levelo://app?vid=2d9cb345-3447-492e-bba2-aaa21265c911","ios":"levelo://app?vid=2d9cb345-3447-492e-bba2-aaa21265c911"},"vehicle_type_id":"4","last_reported":1725707194,"current_range_meters":30800,"station_id":"ce4bgh92rcd13ifvqb50","pricing_plan_id":"cebpf4jnsgd1na2vs0mg"},{"bike_id":"3d993013-8db7-4262-a4ba-6f7f493c349a","system_id":"levelo_inurba_marseille","lat":43.295725,"lon":5.375155,"is_reserved":false,"is_disabled":false,"rental_uris":{"android":"levelo://app?vid=3d993013-8db7-4262-a4ba-6f7f493c349a","ios":"levelo://app?vid=3d993013-8db7-4262-a4ba-6f7f493c349a"},"vehicle_type_id":"4","last_reported":1725707194,"current_range_meters":22400,"station_id":"ce4bgh92rcd13ifvqb50","pricing_plan_id":"cebpf4jnsgd1na2vs0mg"},{"bike_id":"46dff643-1afa-4c94-bf35-80a5aa2ada46","system_id":"levelo_inurba_marseille","lat":43.295708,"lon":5.375108,"is_reserved":false,"is_disabled":false,"rental_uris":{"android":"levelo://app?vid=46dff643-1afa-4c94-bf35-80a5aa2ada46","ios":"levelo://app?vid=46dff643-1afa-4c94-bf35-80a5aa2ada46"},"vehicle_type_id":"4","last_reported":1725707194,"current_range_meters":31200,"station_id":"ce4bgh92rcd13ifvqb50","pricing_plan_id":"cebpf4jnsgd1na2vs0mg"},{"bike_id":"0bcbd448-735a-4aea-a8d0-2afd065f8513","system_id":"levelo_inurba_marseille","lat":43.298037,"lon":5.381066,"is_reserved":false,"is_disabled":false,"rental_uris":{"android":"levelo://app?vid=0bcbd448-735a-4aea-a8d0-2afd065f8513","ios":"levelo://app?vid=0bcbd448-735a-4aea-a8d0-2afd065f8513"},"vehicle_type_id":"4","last_reported":1725707194,"current_range_meters":27200,"station_id":"ce4bgip2rcd13ifvqbb0","pricing_plan_id":"cebpf4jnsgd1na2vs0mg"},{"bike_id":"d9f9983c-1511-4e6a-b34e-a7afc8352505","system_id":"levelo_inurba_marseille","lat":43.295697,"lon":5.375192,"is_reserved":false,"is_disabled":false,"rental_uris":{"android":"levelo://app?vid=d9f9983c-1511-4e6a-b34e-a7afc8352505","ios":"levelo://app?vid=d9f9983c-1511-4e6a-b34e-a7afc8352505"},"vehicle_type_id":"4","last_reported":1725707194,"current_range_meters":25600,"station_id":"ce4bgh92rcd13ifvqb50","pricing_plan_id":"cebpf4jnsgd1na2vs0mg"},{"bike_id":"c090f167-d8eb-4653-9db2-d20f88312e03","system_id":"levelo_inurba_marseille","lat":43.29635,"lon":5.3774,"is_reserved":false,"is_disabled":false,"rental_uris":{"android":"levelo://app?vid=c090f167-d8eb-4653-9db2-d20f88312e03","ios":"levelo://app?vid=c090f167-d8eb-4653-9db2-d20f88312e03"},"vehicle_type_id":"4","last_reported":1725707194,"current_range_meters":1200,"station_id":"ce4bgi92rcd13ifvqb90","pricing_plan_id":"cebpf4jnsgd1na2vs0mg"},{"bike_id":"b4ea4254-ec19-46f6-b931-c92216e117bf","system_id":"levelo_inurba_marseille","lat":43.29567,"lon":5.3751,"is_reserved":false,"is_disabled":false,"rental_uris":{"android":"levelo://app?vid=b4ea4254-ec19-46f6-b931-c92216e117bf","ios":"levelo://app?vid=b4ea4254-ec19-46f6-b931-c92216e117bf"},"vehicle_type_id":"4","last_reported":1725707194,"current_range_meters":25200,"station_id":"ce4bgh92rcd13ifvqb50","pricing_plan_id":"cebpf4jnsgd1na2vs0mg"},{"bike_id":"3c0557e5-ab2d-4013-974f-de90c5018997","system_id":"levelo_inurba_marseille","lat":43.295648,"lon":5.375025,"is_reserved":false,"is_disabled":false,"rental_uris":{"android":"levelo://app?vid=3c0557e5-ab2d-4013-974f-de90c5018997","ios":"levelo://app?vid=3c0557e5-ab2d-4013-974f-de90c5018997"},"vehicle_type_id":"4","last_reported":1725707194,"current_range_meters":11200,"station_id":"ce4bgh92rcd13ifvqb50","pricing_plan_id":"cebpf4jnsgd1na2vs0mg"},{"bike_id":"b0a0f4ac-5fa4-41f6-bc9a-61308e48c125","system_id":"levelo_inurba_marseille","lat":43.29567,"lon":5.37512,"is_reserved":false,"is_disabled":false,"rental_uris":{"android":"levelo://app?vid=b0a0f4ac-5fa4-41f6-bc9a-61308e48c125","ios":"levelo://app?vid=b0a0f4ac-5fa4-41f6-bc9a-61308e48c125"},"vehicle_type_id":"4","last_reported":1725707194,"current_range_meters":22400,"station_id":"ce4bgh92rcd13ifvqb50","pricing_plan_id":"cebpf4jnsgd1na2vs0mg"},{"bike_id":"78261e03-0978-4924-a3bb-ac9d98c0e752","system_id":"levelo_inurba_marseille","lat":43.29568,"lon":5.37518,"is_reserved":false,"is_disabled":false,"rental_uris":{"android":"levelo://app?vid=78261e03-0978-4924-a3bb-ac9d98c0e752","ios":"levelo://app?vid=78261e03-0978-4924-a3bb-ac9d98c0e752"},"vehicle_type_id":"4","last_reported":1725707194,"current_range_meters":22400,"station_id":"ce4bgh92rcd13ifvqb50","pricing_plan_id":"cebpf4jnsgd1na2vs0mg"},{"bike_id":"42df1daf-f91b-4f03-b2ed-39d41e0f8906","system_id":"levelo_inurba_marseille","lat":43.296263,"lon":5.377094,"is_reserved":false,"is_disabled":false,"rental_uris":{"android":"levelo://app?vid=42df1daf-f91b-4f03-b2ed-39d41e0f8906","ios":"levelo://app?vid=42df1daf-f91b-4f03-b2ed-39d41e0f8906"},"vehicle_type_id":"4","last_reported":1725707194,"current_range_meters":23200,"station_id":"ce4bgi92rcd13ifvqb90","pricing_plan_id":"cebpf4jnsgd1na2vs0mg"},{"bike_id":"9a329ac9-5253-4487-9604-811780de81ca","system_id":"levelo_inurba_marseille","lat":43.295668,"lon":5.375227,"is_reserved":false,"is_disabled":false,"rental_uris":{"android":"levelo://app?vid=9a329ac9-5253-4487-9604-811780de81ca","ios":"levelo://app?vid=9a329ac9-5253-4487-9604-811780de81ca"},"vehicle_type_id":"4","last_reported":1725707194,"current_range_meters":8400,"station_id":"ce4bgh92rcd13ifvqb50","pricing_plan_id":"cebpf4jnsgd1na2vs0mg"},{"bike_id":"3b8e21a0-aee3-4148-8706-f42dae101f23","system_id":"levelo_inurba_marseille","lat":43.29568,"lon":5.3753,"is_reserved":false,"is_disabled":false,"rental_uris":{"android":"levelo://app?vid=3b8e21a0-aee3-4148-8706-f42dae101f23","ios":"levelo://app?vid=3b8e21a0-aee3-4148-8706-f42dae101f23"},"vehicle_type_id":"4","last_reported":1725707194,"current_range_meters":10000,"station_id":"ce4bgh92rcd13ifvqb50","pricing_plan_id":"cebpf4jnsgd1na2vs0mg"},{"bike_id":"af200fd2-8c49-4d08-bf03-e84aebfdbc88","system_id":"levelo_inurba_marseille","lat":43.29565,"lon":5.37519,"is_reserved":false,"is_disabled":false,"rental_uris":{"android":"levelo://app?vid=af200fd2-8c49-4d08-bf03-e84aebfdbc88","ios":"levelo://app?vid=af200fd2-8c49-4d08-bf03-e84aebfdbc88"},"vehicle_type_id":"4","last_reported":1725707194,"current_range_meters":18000,"station_id":"ce4bgh92rcd13ifvqb50","pricing_plan_id":"cebpf4jnsgd1na2vs0mg"},{"bike_id":"5688aac4-d82c-485b-96b8-50dbc93ae122","system_id":"levelo_inurba_marseille","lat":43.296263,"lon":5.377094,"is_reserved":false,"is_disabled":false,"rental_uris":{"android":"levelo://app?vid=5688aac4-d82c-485b-96b8-50dbc93ae122","ios":"levelo://app?vid=5688aac4-d82c-485b-96b8-50dbc93ae122"},"vehicle_type_id":"4","last_reported":1725707194,"current_range_meters":4800,"station_id":"ce4bgi92rcd13ifvqb90","pricing_plan_id":"cebpf4jnsgd1na2vs0mg"},{"bike_id":"39f102e8-abab-4d94-b489-122169fe4749","system_id":"levelo_inurba_marseille","lat":43.296165,"lon":5.377032,"is_reserved":false,"is_disabled":false,"rental_uris":{"android":"levelo://app?vid=39f102e8-abab-4d94-b489-122169fe4749","ios":"levelo://app?vid=39f102e8-abab-4d94-b489-122169fe4749"},"vehicle_type_id":"4","last_reported":1725707194,"current_range_meters":6400,"station_id":"ce4bgi92rcd13ifvqb90","pricing_plan_id":"cebpf4jnsgd1na2vs0mg"},{"bike_id":"49d9d55a-e6e5-46ab-8bcd-0e2689991c27","system_id":"levelo_inurba_marseille","lat":43.29564,"lon":5.37523,"is_reserved":false,"is_disabled":false,"rental_uris":{"android":"levelo://app?vid=49d9d55a-e6e5-46ab-8bcd-0e2689991c27","ios":"levelo://app?vid=49d9d55a-e6e5-46ab-8bcd-0e2689991c27"},"vehicle_type_id":"4","last_reported":1725707194,"current_range_meters":8800,"station_id":"ce4bgh92rcd13ifvqb50","pricing_plan_id":"cebpf4jnsgd1na2vs0mg"},{"bike_id":"d170ea2b-23a0-4a44-bd53-dd3cd072e5f6","system_id":"levelo_inurba_marseille","lat":43.29621,"lon":5.37724,"is_reserved":false,"is_disabled":false,"rental_uris":{"android":"levelo://app?vid=d170ea2b-23a0-4a44-bd53-dd3cd072e5f6","ios":"levelo://app?vid=d170ea2b-23a0-4a44-bd53-dd3cd072e5f6"},"vehicle_type_id":"4","last_reported":1725707194,"current_range_meters":1600,"station_id":"ce4bgi92rcd13ifvqb90","pricing_plan_id":"cebpf4jnsgd1na2vs0mg"},{"bike_id":"f4f881cc-c435-4a27-9fc6-ebf3c52ec72d","system_id":"levelo_inurba_marseille","lat":43.304274,"lon":5.388873,"is_reserved":false,"is_disabled":false,"rental_uris":{"android":"levelo://app?vid=f4f881cc-c435-4a27-9fc6-ebf3c52ec72d","ios":"levelo://app?vid=f4f881cc-c435-4a27-9fc6-ebf3c52ec72d"},"vehicle_type_id":"4","last_reported":1725707194,"current_range_meters":22400,"station_id":"ce4bgk12rcd13ifvqbi0","pricing_plan_id":"cebpf4jnsgd1na2vs0mg"},{"bike_id":"b913a0d9-1992-4d95-bace-dc1dffbaa250","system_id":"levelo_inurba_marseille","lat":43.29561,"lon":5.375205,"is_reserved":false,"is_disabled":false,"rental_uris":{"android":"levelo://app?vid=b913a0d9-1992-4d95-bace-dc1dffbaa250","ios":"levelo://app?vid=b913a0d9-1992-4d95-bace-dc1dffbaa250"},"vehicle_type_id":"4","last_reported":1725707194,"current_range_meters":20800,"station_id":"ce4bgh92rcd13ifvqb50","pricing_plan_id":"cebpf4jnsgd1na2vs0mg"},{"bike_id":"11bdd935-f6c5-4337-b6ea-3a73969dee1d","system_id":"levelo_inurba_marseille","lat":43.296187,"lon":5.37722,"is_reserved":false,"is_disabled":false,"rental_uris":{"android":"levelo://app?vid=11bdd935-f6c5-4337-b6ea-3a73969dee1d","ios":"levelo://app?vid=11bdd935-f6c5-4337-b6ea-3a73969dee1d"},"vehicle_type_id":"4","last_reported":1725707194,"current_range_meters":28800,"station_id":"ce4bgi92rcd13ifvqb90","pricing_plan_id":"cebpf4jnsgd1na2vs0mg"},{"bike_id":"fece4a65-eb64-48fc-9068-25756f84ad2a","system_id":"levelo_inurba_marseille","lat":43.296263,"lon":5.377094,"is_reserved":false,"is_disabled":false,"rental_uris":{"android":"levelo://app?vid=fece4a65-eb64-48fc-9068-25756f84ad2a","ios":"levelo://app?vid=fece4a65-eb64-48fc-9068-25756f84ad2a"},"vehicle_type_id":"4","last_reported":1725707194,"current_range_meters":23200,"station_id":"ce4bgi92rcd13ifvqb90","pricing_plan_id":"cebpf4jnsgd1na2vs0mg"},{"bike_id":"8d193f7e-c7af-4fba-a4c3-2483327edb82","system_id":"levelo_inurba_marseille","lat":43.296263,"lon":5.377094,"is_reserved":false,"is_disabled":false,"rental_uris":{"android":"levelo://app?vid=8d193f7e-c7af-4fba-a4c3-2483327edb82","ios":"levelo://app?vid=8d193f7e-c7af-4fba-a4c3-2483327edb82"},"vehicle_type_id":"4","last_reported":1725707194,"current_range_meters":14400,"station_id":"ce4bgi92rcd13ifvqb90","pricing_plan_id":"cebpf4jnsgd1na2vs0mg"},{"bike_id":"380bfb31-106e-4f1f-a95d-2373870d9faf","system_id":"levelo_inurba_marseille","lat":43.296277,"lon":5.377108,"is_reserved":false,"is_disabled":false,"rental_uris":{"android":"levelo://app?vid=380bfb31-106e-4f1f-a95d-2373870d9faf","ios":"levelo://app?vid=380bfb31-106e-4f1f-a95d-2373870d9faf"},"vehicle_type_id":"4","last_reported":1725707194,"current_range_meters":14000,"station_id":"ce4bgi92rcd13ifvqb90","pricing_plan_id":"cebpf4jnsgd1na2vs0mg"},{"bike_id":"122139dc-d24f-4bf0-b9e6-7253efac9e25","system_id":"levelo_inurba_marseille","lat":43.29609,"lon":5.3773,"is_reserved":false,"is_disabled":false,"rental_uris":{"android":"levelo://app?vid=122139dc-d24f-4bf0-b9e6-7253efac9e25","ios":"levelo://app?vid=122139dc-d24f-4bf0-b9e6-7253efac9e25"},"vehicle_type_id":"4","last_reported":1725707194,"current_range_meters":17600,"station_id":"ce4bgi92rcd13ifvqb90","pricing_plan_id":"cebpf4jnsgd1na2vs0mg"},{"bike_id":"df822c16-0b69-4e2c-9159-9d7b13276abf","system_id":"levelo_inurba_marseille","lat":43.296277,"lon":5.377108,"is_reserved":false,"is_disabled":false,"rental_uris":{"android":"levelo://app?vid=df822c16-0b69-4e2c-9159-9d7b13276abf","ios":"levelo://app?vid=df822c16-0b69-4e2c-9159-9d7b13276abf"},"vehicle_type_id":"4","last_reported":1725707194,"current_range_meters":14800,"station_id":"ce4bgi92rcd13ifvqb90","pricing_plan_id":"cebpf4jnsgd1na2vs0mg"},{"bike_id":"eed70830-c1f7-4007-8eb9-d271fddbecb6","system_id":"levelo_inurba_marseille","lat":43.295279,"lon":5.375048,"is_reserved":false,"is_disabled":false,"rental_uris":{"android":"levelo://app?vid=eed70830-c1f7-4007-8eb9-d271fddbecb6","ios":"levelo://app?vid=eed70830-c1f7-4007-8eb9-d271fddbecb6"},"vehicle_type_id":"4","last_reported":1725707194,"current_range_meters":14800,"station_id":"ce4bgkp2rcd13ifvqbmg","pricing_plan_id":"cebpf4jnsgd1na2vs0mg"},{"bike_id":"4b4d65bb-334f-47eb-8c6f-b22eb47d531b","system_id":"levelo_inurba_marseille","lat":43.29533,"lon":5.37497,"is_reserved":false,"is_disabled":false,"rental_uris":{"android":"levelo://app?vid=4b4d65bb-334f-47eb-8c6f-b22eb47d531b","ios":"levelo://app?vid=4b4d65bb-334f-47eb-8c6f-b22eb47d531b"},"vehicle_type_id":"4","last_reported":1725707194,"current_range_meters":12400,"station_id":"ce4bgkp2rcd13ifvqbmg","pricing_plan_id":"cebpf4jnsgd1na2vs0mg"},{"bike_id":"be1ca499-9c59-4f84-9c08-e0bd7a865a7f","system_id":"levelo_inurba_marseille","lat":43.299717,"lon":5.384845,"is_reserved":false,"is_disabled":false,"rental_uris":{"android":"levelo://app?vid=be1ca499-9c59-4f84-9c08-e0bd7a865a7f","ios":"levelo://app?vid=be1ca499-9c59-4f84-9c08-e0bd7a865a7f"},"vehicle_type_id":"4","last_reported":1725707194,"current_range_meters":17200,"station_id":"ce4bgj92rcd13ifvqbd0","pricing_plan_id":"cebpf4jnsgd1na2vs0mg"},{"bike_id":"81158bf0-6594-4d9f-9c24-cf019eded3b5","system_id":"levelo_inurba_marseille","lat":43.29527,"lon":5.37494,"is_reserved":false,"is_disabled":false,"rental_uris":{"android":"levelo://app?vid=81158bf0-6594-4d9f-9c24-cf019eded3b5","ios":"levelo://app?vid=81158bf0-6594-4d9f-9c24-cf019eded3b5"},"vehicle_type_id":"4","last_reported":1725707194,"current_range_meters":16000,"station_id":"ce4bgkp2rcd13ifvqbmg","pricing_plan_id":"cebpf4jnsgd1na2vs0mg"},{"bike_id":"e15cc650-1c9c-41c8-ab63-fe4af26311ba","system_id":"levelo_inurba_marseille","lat":43.29527,"lon":5.375022,"is_reserved":false,"is_disabled":false,"rental_uris":{"android":"levelo://app?vid=e15cc650-1c9c-41c8-ab63-fe4af26311ba","ios":"levelo://app?vid=e15cc650-1c9c-41c8-ab63-fe4af26311ba"},"vehicle_type_id":"4","last_reported":1725707194,"current_range_meters":8800,"station_id":"ce4bgkp2rcd13ifvqbmg","pricing_plan_id":"cebpf4jnsgd1na2vs0mg"},{"bike_id":"1bc3ab5d-e21b-4480-a2f4-bbf2d53983e6","system_id":"levelo_inurba_marseille","lat":43.295279,"lon":5.375048,"is_reserved":false,"is_disabled":false,"rental_uris":{"android":"levelo://app?vid=1bc3ab5d-e21b-4480-a2f4-bbf2d53983e6","ios":"levelo://app?vid=1bc3ab5d-e21b-4480-a2f4-bbf2d53983e6"},"vehicle_type_id":"4","last_reported":1725707194,"current_range_meters":29600,"station_id":"ce4bgkp2rcd13ifvqbmg","pricing_plan_id":"cebpf4jnsgd1na2vs0mg"},{"bike_id":"f4e104e0-c70e-4f69-8b87-f35765016f57","system_id":"levelo_inurba_marseille","lat":43.29528,"lon":5.37512,"is_reserved":false,"is_disabled":false,"rental_uris":{"android":"levelo://app?vid=f4e104e0-c70e-4f69-8b87-f35765016f57","ios":"levelo://app?vid=f4e104e0-c70e-4f69-8b87-f35765016f57"},"vehicle_type_id":"4","last_reported":1725707194,"current_range_meters":10400,"station_id":"ce4bgkp2rcd13ifvqbmg","pricing_plan_id":"cebpf4jnsgd1na2vs0mg"},{"bike_id":"ca4e271a-ba1d-47ae-9fdd-6d10bbdace17","system_id":"levelo_inurba_marseille","lat":43.295279,"lon":5.375048,"is_reserved":false,"is_disabled":false,"rental_uris":{"android":"levelo://app?vid=ca4e271a-ba1d-47ae-9fdd-6d10bbdace17","ios":"levelo://app?vid=ca4e271a-ba1d-47ae-9fdd-6d10bbdace17"},"vehicle_type_id":"4","last_reported":1725707194,"current_range_meters":23200,"station_id":"ce4bgkp2rcd13ifvqbmg","pricing_plan_id":"cebpf4jnsgd1na2vs0mg"},{"bike_id":"d0da8137-758f-40c6-8032-fd2434601b4b","system_id":"levelo_inurba_marseille","lat":43.295279,"lon":5.375048,"is_reserved":false,"is_disabled":false,"rental_uris":{"android":"levelo://app?vid=d0da8137-758f-40c6-8032-fd2434601b4b","ios":"levelo://app?vid=d0da8137-758f-40c6-8032-fd2434601b4b"},"vehicle_type_id":"4","last_reported":1725707194,"current_range_meters":17200,"station_id":"ce4bgkp2rcd13ifvqbmg","pricing_plan_id":"cebpf4jnsgd1na2vs0mg"},{"bike_id":"93abac59-5d38-46e5-925d-62e649948548","system_id":"levelo_inurba_marseille","lat":43.299717,"lon":5.384845,"is_reserved":false,"is_disabled":false,"rental_uris":{"android":"levelo://app?vid=93abac59-5d38-46e5-925d-62e649948548","ios":"levelo://app?vid=93abac59-5d38-46e5-925d-62e649948548"},"vehicle_type_id":"4","last_reported":1725707194,"current_range_meters":6000,"station_id":"ce4bgj92rcd13ifvqbd0","pricing_plan_id":"cebpf4jnsgd1na2vs0mg"},{"bike_id":"075ac727-0297-4f86-9e2a-f6e18487b4c3","system_id":"levelo_inurba_marseille","lat":43.29518,"lon":5.37505,"is_reserved":false,"is_disabled":false,"rental_uris":{"android":"levelo://app?vid=075ac727-0297-4f86-9e2a-f6e18487b4c3","ios":"levelo://app?vid=075ac727-0297-4f86-9e2a-f6e18487b4c3"},"vehicle_type_id":"4","last_reported":1725707194,"current_range_meters":22400,"station_id":"ce4bgkp2rcd13ifvqbmg","pricing_plan_id":"cebpf4jnsgd1na2vs0mg"},{"bike_id":"72ffcbbc-6333-448a-be59-adb795c8e532","system_id":"levelo_inurba_marseille","lat":43.299724,"lon":5.384848,"is_reserved":false,"is_disabled":false,"rental_uris":{"android":"levelo://app?vid=72ffcbbc-6333-448a-be59-adb795c8e532","ios":"levelo://app?vid=72ffcbbc-6333-448a-be59-adb795c8e532"},"vehicle_type_id":"4","last_reported":1725707194,"current_range_meters":21600,"station_id":"ce4bgj92rcd13ifvqbd0","pricing_plan_id":"cebpf4jnsgd1na2vs0mg"},{"bike_id":"f152956c-3d42-433c-afdd-196145a15c1a","system_id":"levelo_inurba_marseille","lat":43.29516,"lon":5.37505,"is_reserved":false,"is_disabled":false,"rental_uris":{"android":"levelo://app?vid=f152956c-3d42-433c-afdd-196145a15c1a","ios":"levelo://app?vid=f152956c-3d42-433c-afdd-196145a15c1a"},"vehicle_type_id":"4","last_reported":1725707194,"current_range_meters":22000,"station_id":"ce4bgkp2rcd13ifvqbmg","pricing_plan_id":"cebpf4jnsgd1na2vs0mg"},{"bike_id":"759fe3d1-52e8-4db3-9bd2-750b67a0ddcd","system_id":"levelo_inurba_marseille","lat":43.295279,"lon":5.375048,"is_reserved":false,"is_disabled":false,"rental_uris":{"android":"levelo://app?vid=759fe3d1-52e8-4db3-9bd2-750b67a0ddcd","ios":"levelo://app?vid=759fe3d1-52e8-4db3-9bd2-750b67a0ddcd"},"vehicle_type_id":"4","last_reported":1725707194,"current_range_meters":27600,"station_id":"ce4bgkp2rcd13ifvqbmg","pricing_plan_id":"cebpf4jnsgd1na2vs0mg"},{"bike_id":"6f56ef16-2056-4c36-a26b-7c8b51dcd5b3","system_id":"levelo_inurba_marseille","lat":43.295163,"lon":5.375198,"is_reserved":false,"is_disabled":false,"rental_uris":{"android":"levelo://app?vid=6f56ef16-2056-4c36-a26b-7c8b51dcd5b3","ios":"levelo://app?vid=6f56ef16-2056-4c36-a26b-7c8b51dcd5b3"},"vehicle_type_id":"4","last_reported":1725707194,"current_range_meters":26400,"station_id":"ce4bgkp2rcd13ifvqbmg","pricing_plan_id":"cebpf4jnsgd1na2vs0mg"},{"bike_id":"30e0bf95-baf4-4d1c-9c8a-d9ab8c37567a","system_id":"levelo_inurba_marseille","lat":43.295279,"lon":5.375048,"is_reserved":false,"is_disabled":false,"rental_uris":{"android":"levelo://app?vid=30e0bf95-baf4-4d1c-9c8a-d9ab8c37567a","ios":"levelo://app?vid=30e0bf95-baf4-4d1c-9c8a-d9ab8c37567a"},"vehicle_type_id":"4","last_reported":1725707194,"current_range_meters":31200,"station_id":"ce4bgkp2rcd13ifvqbmg","pricing_plan_id":"cebpf4jnsgd1na2vs0mg"},{"bike_id":"f7cada0a-0593-4309-98ab-4e9c2957b5b4","system_id":"levelo_inurba_marseille","lat":43.29511,"lon":5.37508,"is_reserved":false,"is_disabled":false,"rental_uris":{"android":"levelo://app?vid=f7cada0a-0593-4309-98ab-4e9c2957b5b4","ios":"levelo://app?vid=f7cada0a-0593-4309-98ab-4e9c2957b5b4"},"vehicle_type_id":"4","last_reported":1725707194,"current_range_meters":16800,"station_id":"ce4bgkp2rcd13ifvqbmg","pricing_plan_id":"cebpf4jnsgd1na2vs0mg"},{"bike_id":"d1b7153f-46a7-4001-adf7-d22a1b43830e","system_id":"levelo_inurba_marseille","lat":43.29511,"lon":5.37511,"is_reserved":false,"is_disabled":false,"rental_uris":{"android":"levelo://app?vid=d1b7153f-46a7-4001-adf7-d22a1b43830e","ios":"levelo://app?vid=d1b7153f-46a7-4001-adf7-d22a1b43830e"},"vehicle_type_id":"4","last_reported":1725707194,"current_range_meters":31200,"station_id":"ce4bgkp2rcd13ifvqbmg","pricing_plan_id":"cebpf4jnsgd1na2vs0mg"},{"bike_id":"32bacfdf-5e22-44cf-a98c-9ece50c051ff","system_id":"levelo_inurba_marseille","lat":43.29509,"lon":5.37513,"is_reserved":false,"is_disabled":false,"rental_uris":{"android":"levelo://app?vid=32bacfdf-5e22-44cf-a98c-9ece50c051ff","ios":"levelo://app?vid=32bacfdf-5e22-44cf-a98c-9ece50c051ff"},"vehicle_type_id":"4","last_reported":1725707194,"current_range_meters":7600,"station_id":"ce4bgkp2rcd13ifvqbmg","pricing_plan_id":"cebpf4jnsgd1na2vs0mg"},{"bike_id":"578af5f1-18d0-4960-b05d-32c7803d0ab6","system_id":"levelo_inurba_marseille","lat":43.29698,"lon":5.38111,"is_reserved":false,"is_disabled":false,"rental_uris":{"android":"levelo://app?vid=578af5f1-18d0-4960-b05d-32c7803d0ab6","ios":"levelo://app?vid=578af5f1-18d0-4960-b05d-32c7803d0ab6"},"vehicle_type_id":"4","last_reported":1725707194,"current_range_meters":21200,"station_id":"","pricing_plan_id":"cebpf4jnsgd1na2vs0mg"},{"bike_id":"5dde8471-56bd-4fe0-8cc9-39ee9e5bb4eb","system_id":"levelo_inurba_marseille","lat":43.301396,"lon":5.387812,"is_reserved":false,"is_disabled":false,"rental_uris":{"android":"levelo://app?vid=5dde8471-56bd-4fe0-8cc9-39ee9e5bb4eb","ios":"levelo://app?vid=5dde8471-56bd-4fe0-8cc9-39ee9e5bb4eb"},"vehicle_type_id":"4","last_reported":1725707194,"current_range_meters":25200,"station_id":"ce4bghh2rcd13ifvqb60","pricing_plan_id":"cebpf4jnsgd1na2vs0mg"},{"bike_id":"cf653b09-91c9-4243-a98b-00734ecc6418","system_id":"levelo_inurba_marseille","lat":43.299717,"lon":5.384845,"is_reserved":false,"is_disabled":false,"rental_uris":{"android":"levelo://app?vid=cf653b09-91c9-4243-a98b-00734ecc6418","ios":"levelo://app?vid=cf653b09-91c9-4243-a98b-00734ecc6418"},"vehicle_type_id":"4","last_reported":1725707194,"current_range_meters":12000,"station_id":"ce4bgj92rcd13ifvqbd0","pricing_plan_id":"cebpf4jnsgd1na2vs0mg"},{"bike_id":"9d70faf1-94c5-440e-a778-14bcc2ec97d0","system_id":"levelo_inurba_marseille","lat":43.301396,"lon":5.387812,"is_reserved":false,"is_disabled":false,"rental_uris":{"android":"levelo://app?vid=9d70faf1-94c5-440e-a778-14bcc2ec97d0","ios":"levelo://app?vid=9d70faf1-94c5-440e-a778-14bcc2ec97d0"},"vehicle_type_id":"4","last_reported":1725707194,"current_range_meters":28000,"station_id":"ce4bghh2rcd13ifvqb60","pricing_plan_id":"cebpf4jnsgd1na2vs0mg"},{"bike_id":"7dfad6ee-3a0a-4e82-bc25-e7f709db6a07","system_id":"levelo_inurba_marseille","lat":43.29381,"lon":5.36255,"is_reserved":false,"is_disabled":false,"rental_uris":{"android":"levelo://app?vid=7dfad6ee-3a0a-4e82-bc25-e7f709db6a07","ios":"levelo://app?vid=7dfad6ee-3a0a-4e82-bc25-e7f709db6a07"},"vehicle_type_id":"4","last_reported":1725707194,"current_range_meters":14400,"station_id":"","pricing_plan_id":"cebpf4jnsgd1na2vs0mg"},{"bike_id":"f1505e76-30e7-4198-b296-253cc255b826","system_id":"levelo_inurba_marseille","lat":43.32367,"lon":5.388836,"is_reserved":false,"is_disabled":false,"rental_uris":{"android":"levelo://app?vid=f1505e76-30e7-4198-b296-253cc255b826","ios":"levelo://app?vid=f1505e76-30e7-4198-b296-253cc255b826"},"vehicle_type_id":"4","last_reported":1725707194,"current_range_meters":28800,"station_id":"ce4bhqp2rcd13ifvqhog","pricing_plan_id":"cebpf4jnsgd1na2vs0mg"},{"bike_id":"1389f4a0-fe8c-45a8-89e1-761602337135","system_id":"levelo_inurba_marseille","lat":43.32367,"lon":5.38925,"is_reserved":false,"is_disabled":false,"rental_uris":{"android":"levelo://app?vid=1389f4a0-fe8c-45a8-89e1-761602337135","ios":"levelo://app?vid=1389f4a0-fe8c-45a8-89e1-761602337135"},"vehicle_type_id":"4","last_reported":1725707194,"current_range_meters":20400,"station_id":"ce4bhqp2rcd13ifvqhog","pricing_plan_id":"cebpf4jnsgd1na2vs0mg"},{"bike_id":"7616d9fd-51d0-47f8-89ab-8d1d0b3bb83e","system_id":"levelo_inurba_marseille","lat":43.29602,"lon":5.381084,"is_reserved":false,"is_disabled":false,"rental_uris":{"android":"levelo://app?vid=7616d9fd-51d0-47f8-89ab-8d1d0b3bb83e","ios":"levelo://app?vid=7616d9fd-51d0-47f8-89ab-8d1d0b3bb83e"},"vehicle_type_id":"4","last_reported":1725707194,"current_range_meters":2000,"station_id":"ce4bgl12rcd13ifvqbo0","pricing_plan_id":"cebpf4jnsgd1na2vs0mg"},{"bike_id":"74c59e3d-56c9-4373-9efe-a345696f9a5c","system_id":"levelo_inurba_marseille","lat":43.3237,"lon":5.38926,"is_reserved":false,"is_disabled":false,"rental_uris":{"android":"levelo://app?vid=74c59e3d-56c9-4373-9efe-a345696f9a5c","ios":"levelo://app?vid=74c59e3d-56c9-4373-9efe-a345696f9a5c"},"vehicle_type_id":"4","last_reported":1725707194,"current_range_meters":25600,"station_id":"","pricing_plan_id":"cebpf4jnsgd1na2vs0mg"},{"bike_id":"41704600-e9e6-4869-aefd-a4a12996605b","system_id":"levelo_inurba_marseille","lat":43.3237,"lon":5.38926,"is_reserved":false,"is_disabled":false,"rental_uris":{"android":"levelo://app?vid=41704600-e9e6-4869-aefd-a4a12996605b","ios":"levelo://app?vid=41704600-e9e6-4869-aefd-a4a12996605b"},"vehicle_type_id":"4","last_reported":1725707194,"current_range_meters":13200,"station_id":"ce4bhqp2rcd13ifvqhog","pricing_plan_id":"cebpf4jnsgd1na2vs0mg"},{"bike_id":"ac653f1a-fea8-43d7-b9ae-d4fb6698f6a0","system_id":"levelo_inurba_marseille","lat":43.29602,"lon":5.381084,"is_reserved":false,"is_disabled":false,"rental_uris":{"android":"levelo://app?vid=ac653f1a-fea8-43d7-b9ae-d4fb6698f6a0","ios":"levelo://app?vid=ac653f1a-fea8-43d7-b9ae-d4fb6698f6a0"},"vehicle_type_id":"4","last_reported":1725707194,"current_range_meters":12800,"station_id":"ce4bgl12rcd13ifvqbo0","pricing_plan_id":"cebpf4jnsgd1na2vs0mg"},{"bike_id":"4ab94bc6-20c6-43c2-8e04-b2ccd0058f21","system_id":"levelo_inurba_marseille","lat":43.29327,"lon":5.37076,"is_reserved":false,"is_disabled":false,"rental_uris":{"android":"levelo://app?vid=4ab94bc6-20c6-43c2-8e04-b2ccd0058f21","ios":"levelo://app?vid=4ab94bc6-20c6-43c2-8e04-b2ccd0058f21"},"vehicle_type_id":"4","last_reported":1725707194,"current_range_meters":28400,"station_id":"","pricing_plan_id":"cebpf4jnsgd1na2vs0mg"},{"bike_id":"1d74cd49-072a-467b-a988-a01998574ce8","system_id":"levelo_inurba_marseille","lat":43.29598,"lon":5.38109,"is_reserved":false,"is_disabled":false,"rental_uris":{"android":"levelo://app?vid=1d74cd49-072a-467b-a988-a01998574ce8","ios":"levelo://app?vid=1d74cd49-072a-467b-a988-a01998574ce8"},"vehicle_type_id":"4","last_reported":1725707194,"current_range_meters":14400,"station_id":"ce4bgl12rcd13ifvqbo0","pricing_plan_id":"cebpf4jnsgd1na2vs0mg"},{"bike_id":"9cf4cc96-c651-45b5-9f8b-20e0569aea9f","system_id":"levelo_inurba_marseille","lat":43.293249,"lon":5.371578,"is_reserved":false,"is_disabled":false,"rental_uris":{"android":"levelo://app?vid=9cf4cc96-c651-45b5-9f8b-20e0569aea9f","ios":"levelo://app?vid=9cf4cc96-c651-45b5-9f8b-20e0569aea9f"},"vehicle_type_id":"4","last_reported":1725707194,"current_range_meters":17600,"station_id":"ce4bgh92rcd13ifvqb40","pricing_plan_id":"cebpf4jnsgd1na2vs0mg"},{"bike_id":"f2e0a5d5-2a62-4f27-9660-3c728b0de8f2","system_id":"levelo_inurba_marseille","lat":43.293249,"lon":5.371578,"is_reserved":false,"is_disabled":false,"rental_uris":{"android":"levelo://app?vid=f2e0a5d5-2a62-4f27-9660-3c728b0de8f2","ios":"levelo://app?vid=f2e0a5d5-2a62-4f27-9660-3c728b0de8f2"},"vehicle_type_id":"4","last_reported":1725707194,"current_range_meters":11600,"station_id":"ce4bgh92rcd13ifvqb40","pricing_plan_id":"cebpf4jnsgd1na2vs0mg"},{"bike_id":"20bbc6e9-a187-4134-95e3-21ccefd3a16e","system_id":"levelo_inurba_marseille","lat":43.29312,"lon":5.37179,"is_reserved":false,"is_disabled":false,"rental_uris":{"android":"levelo://app?vid=20bbc6e9-a187-4134-95e3-21ccefd3a16e","ios":"levelo://app?vid=20bbc6e9-a187-4134-95e3-21ccefd3a16e"},"vehicle_type_id":"4","last_reported":1725707194,"current_range_meters":16400,"station_id":"ce4bgh92rcd13ifvqb40","pricing_plan_id":"cebpf4jnsgd1na2vs0mg"},{"bike_id":"6d65e4c0-444c-4e77-a9c3-869d451fddc7","system_id":"levelo_inurba_marseille","lat":43.293249,"lon":5.371578,"is_reserved":false,"is_disabled":false,"rental_uris":{"android":"levelo://app?vid=6d65e4c0-444c-4e77-a9c3-869d451fddc7","ios":"levelo://app?vid=6d65e4c0-444c-4e77-a9c3-869d451fddc7"},"vehicle_type_id":"4","last_reported":1725707194,"current_range_meters":28400,"station_id":"ce4bgh92rcd13ifvqb40","pricing_plan_id":"cebpf4jnsgd1na2vs0mg"},{"bike_id":"e180f5df-0efc-4f23-8b86-b0087b06faf9","system_id":"levelo_inurba_marseille","lat":43.292749,"lon":5.368398,"is_reserved":false,"is_disabled":false,"rental_uris":{"android":"levelo://app?vid=e180f5df-0efc-4f23-8b86-b0087b06faf9","ios":"levelo://app?vid=e180f5df-0efc-4f23-8b86-b0087b06faf9"},"vehicle_type_id":"4","last_reported":1725707194,"current_range_meters":16800,"station_id":"ce4bhbp2rcd13ifvqesg","pricing_plan_id":"cebpf4jnsgd1na2vs0mg"},{"bike_id":"62945705-1e11-4207-bf62-5927c5b72956","system_id":"levelo_inurba_marseille","lat":43.293094,"lon":5.37184,"is_reserved":false,"is_disabled":false,"rental_uris":{"android":"levelo://app?vid=62945705-1e11-4207-bf62-5927c5b72956","ios":"levelo://app?vid=62945705-1e11-4207-bf62-5927c5b72956"},"vehicle_type_id":"4","last_reported":1725707194,"current_range_meters":11600,"station_id":"ce4bgh92rcd13ifvqb40","pricing_plan_id":"cebpf4jnsgd1na2vs0mg"},{"bike_id":"b3ef54c0-5764-484a-b924-f4cfb143bb99","system_id":"levelo_inurba_marseille","lat":43.292749,"lon":5.368402,"is_reserved":false,"is_disabled":false,"rental_uris":{"android":"levelo://app?vid=b3ef54c0-5764-484a-b924-f4cfb143bb99","ios":"levelo://app?vid=b3ef54c0-5764-484a-b924-f4cfb143bb99"},"vehicle_type_id":"4","last_reported":1725707194,"current_range_meters":22800,"station_id":"ce4bhbp2rcd13ifvqesg","pricing_plan_id":"cebpf4jnsgd1na2vs0mg"},{"bike_id":"84fab907-130d-4c83-94e3-57ea903e5d09","system_id":"levelo_inurba_marseille","lat":43.292749,"lon":5.368402,"is_reserved":false,"is_disabled":false,"rental_uris":{"android":"levelo://app?vid=84fab907-130d-4c83-94e3-57ea903e5d09","ios":"levelo://app?vid=84fab907-130d-4c83-94e3-57ea903e5d09"},"vehicle_type_id":"4","last_reported":1725707194,"current_range_meters":24800,"station_id":"ce4bhbp2rcd13ifvqesg","pricing_plan_id":"cebpf4jnsgd1na2vs0mg"},{"bike_id":"5145ee06-c0d0-46dd-979b-53a310110fac","system_id":"levelo_inurba_marseille","lat":43.29306,"lon":5.37173,"is_reserved":false,"is_disabled":false,"rental_uris":{"android":"levelo://app?vid=5145ee06-c0d0-46dd-979b-53a310110fac","ios":"levelo://app?vid=5145ee06-c0d0-46dd-979b-53a310110fac"},"vehicle_type_id":"4","last_reported":1725707194,"current_range_meters":24400,"station_id":"ce4bgh92rcd13ifvqb40","pricing_plan_id":"cebpf4jnsgd1na2vs0mg"},{"bike_id":"29e2adc3-f9bb-4e14-988a-71492e428e03","system_id":"levelo_inurba_marseille","lat":43.29308,"lon":5.37193,"is_reserved":false,"is_disabled":false,"rental_uris":{"android":"levelo://app?vid=29e2adc3-f9bb-4e14-988a-71492e428e03","ios":"levelo://app?vid=29e2adc3-f9bb-4e14-988a-71492e428e03"},"vehicle_type_id":"4","last_reported":1725707194,"current_range_meters":29600,"station_id":"ce4bgh92rcd13ifvqb40","pricing_plan_id":"cebpf4jnsgd1na2vs0mg"},{"bike_id":"0ab53d8b-1031-428b-acfc-21e54c6d689c","system_id":"levelo_inurba_marseille","lat":43.293047,"lon":5.371767,"is_reserved":false,"is_disabled":false,"rental_uris":{"android":"levelo://app?vid=0ab53d8b-1031-428b-acfc-21e54c6d689c","ios":"levelo://app?vid=0ab53d8b-1031-428b-acfc-21e54c6d689c"},"vehicle_type_id":"4","last_reported":1725707194,"current_range_meters":16400,"station_id":"ce4bgh92rcd13ifvqb40","pricing_plan_id":"cebpf4jnsgd1na2vs0mg"},{"bike_id":"fd5f092e-b06f-45b6-a844-fb9c425722a0","system_id":"levelo_inurba_marseille","lat":43.29305,"lon":5.37189,"is_reserved":false,"is_disabled":false,"rental_uris":{"android":"levelo://app?vid=fd5f092e-b06f-45b6-a844-fb9c425722a0","ios":"levelo://app?vid=fd5f092e-b06f-45b6-a844-fb9c425722a0"},"vehicle_type_id":"4","last_reported":1725707194,"current_range_meters":28800,"station_id":"ce4bgh92rcd13ifvqb40","pricing_plan_id":"cebpf4jnsgd1na2vs0mg"},{"bike_id":"48727308-6402-4132-b520-ec9db4be79ed","system_id":"levelo_inurba_marseille","lat":43.293037,"lon":5.371823,"is_reserved":false,"is_disabled":false,"rental_uris":{"android":"levelo://app?vid=48727308-6402-4132-b520-ec9db4be79ed","ios":"levelo://app?vid=48727308-6402-4132-b520-ec9db4be79ed"},"vehicle_type_id":"4","last_reported":1725707194,"current_range_meters":11600,"station_id":"ce4bgh92rcd13ifvqb40","pricing_plan_id":"cebpf4jnsgd1na2vs0mg"},{"bike_id":"b0d76a00-d03b-4a24-90bc-ac7a9daf2dcc","system_id":"levelo_inurba_marseille","lat":43.292749,"lon":5.368402,"is_reserved":false,"is_disabled":false,"rental_uris":{"android":"levelo://app?vid=b0d76a00-d03b-4a24-90bc-ac7a9daf2dcc","ios":"levelo://app?vid=b0d76a00-d03b-4a24-90bc-ac7a9daf2dcc"},"vehicle_type_id":"4","last_reported":1725707194,"current_range_meters":4800,"station_id":"ce4bhbp2rcd13ifvqesg","pricing_plan_id":"cebpf4jnsgd1na2vs0mg"},{"bike_id":"19648a95-5833-49ef-b2cf-e42c30a0ca4d","system_id":"levelo_inurba_marseille","lat":43.2931,"lon":5.37454,"is_reserved":false,"is_disabled":false,"rental_uris":{"android":"levelo://app?vid=19648a95-5833-49ef-b2cf-e42c30a0ca4d","ios":"levelo://app?vid=19648a95-5833-49ef-b2cf-e42c30a0ca4d"},"vehicle_type_id":"4","last_reported":1725707194,"current_range_meters":31200,"station_id":"ce4bgi12rcd13ifvqb70","pricing_plan_id":"cebpf4jnsgd1na2vs0mg"},{"bike_id":"a5b80b70-65cd-4be5-ac70-27c6774fdee7","system_id":"levelo_inurba_marseille","lat":43.293009,"lon":5.374584,"is_reserved":false,"is_disabled":false,"rental_uris":{"android":"levelo://app?vid=a5b80b70-65cd-4be5-ac70-27c6774fdee7","ios":"levelo://app?vid=a5b80b70-65cd-4be5-ac70-27c6774fdee7"},"vehicle_type_id":"4","last_reported":1725707194,"current_range_meters":14000,"station_id":"ce4bgi12rcd13ifvqb70","pricing_plan_id":"cebpf4jnsgd1na2vs0mg"},{"bike_id":"ca81a789-b3c1-42d8-a942-89fdcab88986","system_id":"levelo_inurba_marseille","lat":43.293009,"lon":5.374584,"is_reserved":false,"is_disabled":false,"rental_uris":{"android":"levelo://app?vid=ca81a789-b3c1-42d8-a942-89fdcab88986","ios":"levelo://app?vid=ca81a789-b3c1-42d8-a942-89fdcab88986"},"vehicle_type_id":"4","last_reported":1725707194,"current_range_meters":2800,"station_id":"ce4bgi12rcd13ifvqb70","pricing_plan_id":"cebpf4jnsgd1na2vs0mg"},{"bike_id":"804637b6-4dd6-405a-a62b-4a7e76a9de4d","system_id":"levelo_inurba_marseille","lat":43.305994,"lon":5.393687,"is_reserved":false,"is_disabled":false,"rental_uris":{"android":"levelo://app?vid=804637b6-4dd6-405a-a62b-4a7e76a9de4d","ios":"levelo://app?vid=804637b6-4dd6-405a-a62b-4a7e76a9de4d"},"vehicle_type_id":"4","last_reported":1725707194,"current_range_meters":8000,"station_id":"ce4bh0p2rcd13ifvqd80","pricing_plan_id":"cebpf4jnsgd1na2vs0mg"},{"bike_id":"2856a11d-5042-4b3c-b2f4-41da0a660672","system_id":"levelo_inurba_marseille","lat":43.305994,"lon":5.393687,"is_reserved":false,"is_disabled":false,"rental_uris":{"android":"levelo://app?vid=2856a11d-5042-4b3c-b2f4-41da0a660672","ios":"levelo://app?vid=2856a11d-5042-4b3c-b2f4-41da0a660672"},