{"last_updated":1743164279,"ttl":60,"version":"2.2","data":{"bikes":[{"bike_id":"9034d27a-b95d-4315-8ce7-bdadc422b160","system_id":"levelo_inurba_marseille","lat":43.290395,"lon":5.386417,"is_reserved":false,"is_disabled":false,"rental_uris":{"android":"levelo://app?vid=9034d27a-b95d-4315-8ce7-bdadc422b160","ios":"levelo://app?vid=9034d27a-b95d-4315-8ce7-bdadc422b160"},"vehicle_type_id":"4","last_reported":1743164279,"current_range_meters":2800,"station_id":"ce4bh4p2rcd13ifvqe0g","pricing_plan_id":"cebpf4jnsgd1na2vs0mg"},{"bike_id":"2145bb51-4b40-4ff9-911f-460b471136d4","system_id":"levelo_inurba_marseille","lat":43.28043,"lon":5.36934,"is_reserved":false,"is_disabled":false,"rental_uris":{"android":"levelo://app?vid=2145bb51-4b40-4ff9-911f-460b471136d4","ios":"levelo://app?vid=2145bb51-4b40-4ff9-911f-460b471136d4"},"vehicle_type_id":"4","last_reported":1743164279,"current_range_meters":2000,"station_id":"ce4bha12rcd13ifvqef0","pricing_plan_id":"cebpf4jnsgd1na2vs0mg"},{"bike_id":"c752cc87-456e-4134-9a44-62eff5dadbd0","system_id":"levelo_inurba_marseille","lat":43.27831,"lon":5.40709,"is_reserved":false,"is_disabled":false,"rental_uris":{"android":"levelo://app?vid=c752cc87-456e-4134-9a44-62eff5dadbd0","ios":"levelo://app?vid=c752cc87-456e-4134-9a44-62eff5dadbd0"},"vehicle_type_id":"4","last_reported":1743164279,"current_range_meters":3200,"station_id":"ce4bhnh2rcd13ifvqgtg","pricing_plan_id":"cebpf4jnsgd1na2vs0mg"},{"bike_id":"4643630a-96a8-475d-ae83-80790d2076fe","system_id":"levelo_inurba_marseille","lat":43.27818,"lon":5.40719,"is_reserved":false,"is_disabled":false,"rental_uris":{"android":"levelo://app?vid=4643630a-96a8-475d-ae83-80790d2076fe","ios":"levelo://app?vid=4643630a-96a8-475d-ae83-80790d2076fe"},"vehicle_type_id":"4","last_reported":1743164279,"current_range_meters":3200,"station_id":"ce4bhnh2rcd13ifvqgtg","pricing_plan_id":"cebpf4jnsgd1na2vs0mg"},{"bike_id":"8add1765-2d59-476f-be7a-5ecb8e55419c","system_id":"levelo_inurba_marseille","lat":43.28359,"lon":5.38648,"is_reserved":false,"is_disabled":false,"rental_uris":{"android":"levelo://app?vid=8add1765-2d59-476f-be7a-5ecb8e55419c","ios":"levelo://app?vid=8add1765-2d59-476f-be7a-5ecb8e55419c"},"vehicle_type_id":"4","last_reported":1743164279,"current_range_meters":3200,"station_id":"ce4bh492rcd13ifvqdvg","pricing_plan_id":"cebpf4jnsgd1na2vs0mg"},{"bike_id":"8848e101-3158-42ef-879c-e4423ab2ae4e","system_id":"levelo_inurba_marseille","lat":43.28273,"lon":5.35063,"is_reserved":false,"is_disabled":false,"rental_uris":{"android":"levelo://app?vid=8848e101-3158-42ef-879c-e4423ab2ae4e","ios":"levelo://app?vid=8848e101-3158-42ef-879c-e4423ab2ae4e"},"vehicle_type_id":"4","last_reported":1743164279,"current_range_meters":3200,"station_id":"ce4bhbp2rcd13ifvqerg","pricing_plan_id":"cebpf4jnsgd1na2vs0mg"},{"bike_id":"046b80e3-ee99-4dec-b617-4fd43f7bd890","system_id":"levelo_inurba_marseille","lat":43.31373,"lon":5.38474,"is_reserved":false,"is_disabled":false,"rental_uris":{"android":"levelo://app?vid=046b80e3-ee99-4dec-b617-4fd43f7bd890","ios":"levelo://app?vid=046b80e3-ee99-4dec-b617-4fd43f7bd890"},"vehicle_type_id":"4","last_reported":1743164279,"current_range_meters":3600,"station_id":"ce4bgt92rcd13ifvqcf0","pricing_plan_id":"cebpf4jnsgd1na2vs0mg"},{"bike_id":"f990b337-34dd-41c6-9e9d-0bb3221574c4","system_id":"levelo_inurba_marseille","lat":43.308874,"lon":5.396589,"is_reserved":false,"is_disabled":false,"rental_uris":{"android":"levelo://app?vid=f990b337-34dd-41c6-9e9d-0bb3221574c4","ios":"levelo://app?vid=f990b337-34dd-41c6-9e9d-0bb3221574c4"},"vehicle_type_id":"4","last_reported":1743164279,"current_range_meters":4000,"station_id":"ce4bh012rcd13ifvqcv0","pricing_plan_id":"cebpf4jnsgd1na2vs0mg"},{"bike_id":"d8552a5b-a7e2-4caa-b4f1-daa9dde96ec3","system_id":"levelo_inurba_marseille","lat":43.24808,"lon":5.37452,"is_reserved":false,"is_disabled":false,"rental_uris":{"android":"levelo://app?vid=d8552a5b-a7e2-4caa-b4f1-daa9dde96ec3","ios":"levelo://app?vid=d8552a5b-a7e2-4caa-b4f1-daa9dde96ec3"},"vehicle_type_id":"4","last_reported":1743164279,"current_range_meters":4000,"station_id":"ce4bhgh2rcd13ifvqfb0","pricing_plan_id":"cebpf4jnsgd1na2vs0mg"},{"bike_id":"0f129aca-6c3a-4d86-b124-a0bae786590e","system_id":"levelo_inurba_marseille","lat":43.29274,"lon":5.37213,"is_reserved":false,"is_disabled":false,"rental_uris":{"android":"levelo://app?vid=0f129aca-6c3a-4d86-b124-a0bae786590e","ios":"levelo://app?vid=0f129aca-6c3a-4d86-b124-a0bae786590e"},"vehicle_type_id":"4","last_reported":1743164279,"current_range_meters":4000,"station_id":"ce4bgh92rcd13ifvqb40","pricing_plan_id":"cebpf4jnsgd1na2vs0mg"},{"bike_id":"da6ca4ed-99c8-407d-afcc-553346f2d460","system_id":"levelo_inurba_marseille","lat":43.24661,"lon":5.38158,"is_reserved":false,"is_disabled":false,"rental_uris":{"android":"levelo://app?vid=da6ca4ed-99c8-407d-afcc-553346f2d460","ios":"levelo://app?vid=da6ca4ed-99c8-407d-afcc-553346f2d460"},"vehicle_type_id":"4","last_reported":1743164279,"current_range_meters":4000,"station_id":"ce4bhih2rcd13ifvqfr0","pricing_plan_id":"cebpf4jnsgd1na2vs0mg"},{"bike_id":"516006b9-ba41-4bd3-aee2-386fbeb74d63","system_id":"levelo_inurba_marseille","lat":43.31707,"lon":5.37734,"is_reserved":false,"is_disabled":false,"rental_uris":{"android":"levelo://app?vid=516006b9-ba41-4bd3-aee2-386fbeb74d63","ios":"levelo://app?vid=516006b9-ba41-4bd3-aee2-386fbeb74d63"},"vehicle_type_id":"4","last_reported":1743164279,"current_range_meters":8000,"station_id":"ce4bgth2rcd13ifvqch0","pricing_plan_id":"cebpf4jnsgd1na2vs0mg"},{"bike_id":"19a0874a-ee88-4b99-ad2d-0974f055242e","system_id":"levelo_inurba_marseille","lat":43.28263,"lon":5.3509,"is_reserved":false,"is_disabled":false,"rental_uris":{"android":"levelo://app?vid=19a0874a-ee88-4b99-ad2d-0974f055242e","ios":"levelo://app?vid=19a0874a-ee88-4b99-ad2d-0974f055242e"},"vehicle_type_id":"4","last_reported":1743164279,"current_range_meters":4400,"station_id":"ce4bhbp2rcd13ifvqerg","pricing_plan_id":"cebpf4jnsgd1na2vs0mg"},{"bike_id":"72407b9c-71b7-4feb-83e9-97e5f2a36163","system_id":"levelo_inurba_marseille","lat":43.24162,"lon":5.36398,"is_reserved":false,"is_disabled":false,"rental_uris":{"android":"levelo://app?vid=72407b9c-71b7-4feb-83e9-97e5f2a36163","ios":"levelo://app?vid=72407b9c-71b7-4feb-83e9-97e5f2a36163"},"vehicle_type_id":"4","last_reported":1743164279,"current_range_meters":4400,"station_id":"cpo36qri1sfpv3e86is0","pricing_plan_id":"cebpf4jnsgd1na2vs0mg"},{"bike_id":"9044759d-71e8-40a5-a5fc-890af352eeb5","system_id":"levelo_inurba_marseille","lat":43.29959,"lon":5.38513,"is_reserved":false,"is_disabled":true,"rental_uris":{"android":"levelo://app?vid=9044759d-71e8-40a5-a5fc-890af352eeb5","ios":"levelo://app?vid=9044759d-71e8-40a5-a5fc-890af352eeb5"},"vehicle_type_id":"4","last_reported":1743164279,"current_range_meters":4400,"station_id":"ce4bgj92rcd13ifvqbd0","pricing_plan_id":"cebpf4jnsgd1na2vs0mg"},{"bike_id":"0e552a2b-b844-4a07-bbd3-fc3f148dedc9","system_id":"levelo_inurba_marseille","lat":43.284826,"lon":5.385491,"is_reserved":false,"is_disabled":false,"rental_uris":{"android":"levelo://app?vid=0e552a2b-b844-4a07-bbd3-fc3f148dedc9","ios":"levelo://app?vid=0e552a2b-b844-4a07-bbd3-fc3f148dedc9"},"vehicle_type_id":"4","last_reported":1743164279,"current_range_meters":4400,"station_id":"ce4bh8p2rcd13ifvqeb0","pricing_plan_id":"cebpf4jnsgd1na2vs0mg"},{"bike_id":"1fdf12ce-a473-4951-ba79-b89bbdf99bbb","system_id":"levelo_inurba_marseille","lat":43.27674,"lon":5.38956,"is_reserved":false,"is_disabled":false,"rental_uris":{"android":"levelo://app?vid=1fdf12ce-a473-4951-ba79-b89bbdf99bbb","ios":"levelo://app?vid=1fdf12ce-a473-4951-ba79-b89bbdf99bbb"},"vehicle_type_id":"4","last_reported":1743164279,"current_range_meters":4400,"station_id":"","pricing_plan_id":"cebpf4jnsgd1na2vs0mg"},{"bike_id":"134d72f0-8bfa-4faf-8dd3-488a7dec543e","system_id":"levelo_inurba_marseille","lat":43.3052,"lon":5.36562,"is_reserved":false,"is_disabled":false,"rental_uris":{"android":"levelo://app?vid=134d72f0-8bfa-4faf-8dd3-488a7dec543e","ios":"levelo://app?vid=134d72f0-8bfa-4faf-8dd3-488a7dec543e"},"vehicle_type_id":"4","last_reported":1743164279,"current_range_meters":4400,"station_id":"ce4bgs12rcd13ifvqcag","pricing_plan_id":"cebpf4jnsgd1na2vs0mg"},{"bike_id":"d2efa84f-3e0b-4f90-9340-340730e51757","system_id":"levelo_inurba_marseille","lat":43.28281,"lon":5.35071,"is_reserved":false,"is_disabled":false,"rental_uris":{"android":"levelo://app?vid=d2efa84f-3e0b-4f90-9340-340730e51757","ios":"levelo://app?vid=d2efa84f-3e0b-4f90-9340-340730e51757"},"vehicle_type_id":"4","last_reported":1743164279,"current_range_meters":4400,"station_id":"ce4bhbp2rcd13ifvqerg","pricing_plan_id":"cebpf4jnsgd1na2vs0mg"},{"bike_id":"f331d4b2-6c89-4079-9a55-d5e93d6e701f","system_id":"levelo_inurba_marseille","lat":43.28452,"lon":5.35888,"is_reserved":false,"is_disabled":false,"rental_uris":{"android":"levelo://app?vid=f331d4b2-6c89-4079-9a55-d5e93d6e701f","ios":"levelo://app?vid=f331d4b2-6c89-4079-9a55-d5e93d6e701f"},"vehicle_type_id":"4","last_reported":1743164279,"current_range_meters":4800,"station_id":"ce4bhah2rcd13ifvqei0","pricing_plan_id":"cebpf4jnsgd1na2vs0mg"},{"bike_id":"1da71e8d-d2d6-424c-b681-ac4eca7e17b0","system_id":"levelo_inurba_marseille","lat":43.27997,"lon":5.40014,"is_reserved":false,"is_disabled":false,"rental_uris":{"android":"levelo://app?vid=1da71e8d-d2d6-424c-b681-ac4eca7e17b0","ios":"levelo://app?vid=1da71e8d-d2d6-424c-b681-ac4eca7e17b0"},"vehicle_type_id":"4","last_reported":1743164279,"current_range_meters":4400,"station_id":"ce4bho92rcd13ifvqh4g","pricing_plan_id":"cebpf4jnsgd1na2vs0mg"},{"bike_id":"6e702916-f25c-49b9-a9f6-bd4c329b3504","system_id":"levelo_inurba_marseille","lat":43.27607,"lon":5.36105,"is_reserved":false,"is_disabled":false,"rental_uris":{"android":"levelo://app?vid=6e702916-f25c-49b9-a9f6-bd4c329b3504","ios":"levelo://app?vid=6e702916-f25c-49b9-a9f6-bd4c329b3504"},"vehicle_type_id":"4","last_reported":1743164279,"current_range_meters":4800,"station_id":"ce4bgj92rcd13ifvqbe0","pricing_plan_id":"cebpf4jnsgd1na2vs0mg"},{"bike_id":"bff6d89e-d044-40c4-8f83-2e7f9a7e1d08","system_id":"levelo_inurba_marseille","lat":43.27441,"lon":5.3939,"is_reserved":false,"is_disabled":false,"rental_uris":{"android":"levelo://app?vid=bff6d89e-d044-40c4-8f83-2e7f9a7e1d08","ios":"levelo://app?vid=bff6d89e-d044-40c4-8f83-2e7f9a7e1d08"},"vehicle_type_id":"4","last_reported":1743164279,"current_range_meters":4800,"station_id":"ce4bhdp2rcd13ifvqf20","pricing_plan_id":"cebpf4jnsgd1na2vs0mg"},{"bike_id":"0e173472-5a4b-4021-b0c5-dd55f1f57390","system_id":"levelo_inurba_marseille","lat":43.2509,"lon":5.3951,"is_reserved":false,"is_disabled":false,"rental_uris":{"android":"levelo://app?vid=0e173472-5a4b-4021-b0c5-dd55f1f57390","ios":"levelo://app?vid=0e173472-5a4b-4021-b0c5-dd55f1f57390"},"vehicle_type_id":"4","last_reported":1743164279,"current_range_meters":4800,"station_id":"ce4bhm12rcd13ifvqgkg","pricing_plan_id":"cebpf4jnsgd1na2vs0mg"},{"bike_id":"4dfbd5ff-b675-471e-a2c2-8f36bcc1b3c1","system_id":"levelo_inurba_marseille","lat":43.24561,"lon":5.39506,"is_reserved":false,"is_disabled":false,"rental_uris":{"android":"levelo://app?vid=4dfbd5ff-b675-471e-a2c2-8f36bcc1b3c1","ios":"levelo://app?vid=4dfbd5ff-b675-471e-a2c2-8f36bcc1b3c1"},"vehicle_type_id":"4","last_reported":1743164279,"current_range_meters":4800,"station_id":"ce4bhlp2rcd13ifvqgjg","pricing_plan_id":"cebpf4jnsgd1na2vs0mg"},{"bike_id":"e17800f8-db31-4696-b7f7-47eb7fedad91","system_id":"levelo_inurba_marseille","lat":43.22941,"lon":5.35368,"is_reserved":false,"is_disabled":false,"rental_uris":{"android":"levelo://app?vid=e17800f8-db31-4696-b7f7-47eb7fedad91","ios":"levelo://app?vid=e17800f8-db31-4696-b7f7-47eb7fedad91"},"vehicle_type_id":"4","last_reported":1743164279,"current_range_meters":4800,"station_id":"cpo3532slgdg3j2ikp40","pricing_plan_id":"cebpf4jnsgd1na2vs0mg"},{"bike_id":"d170588b-b967-4209-b8a8-9ff58379ee90","system_id":"levelo_inurba_marseille","lat":43.28153,"lon":5.42651,"is_reserved":false,"is_disabled":false,"rental_uris":{"android":"levelo://app?vid=d170588b-b967-4209-b8a8-9ff58379ee90","ios":"levelo://app?vid=d170588b-b967-4209-b8a8-9ff58379ee90"},"vehicle_type_id":"4","last_reported":1743164279,"current_range_meters":5600,"station_id":"ce4bhnh2rcd13ifvqgug","pricing_plan_id":"cebpf4jnsgd1na2vs0mg"},{"bike_id":"ccec5b98-9f46-44ad-9a7d-8092e7bdfa4a","system_id":"levelo_inurba_marseille","lat":43.292678,"lon":5.384329,"is_reserved":false,"is_disabled":false,"rental_uris":{"android":"levelo://app?vid=ccec5b98-9f46-44ad-9a7d-8092e7bdfa4a","ios":"levelo://app?vid=ccec5b98-9f46-44ad-9a7d-8092e7bdfa4a"},"vehicle_type_id":"4","last_reported":1743164279,"current_range_meters":5600,"station_id":"ce4bh692rcd13ifvqea0","pricing_plan_id":"cebpf4jnsgd1na2vs0mg"},{"bike_id":"9b32423e-4016-4187-891b-f153e9fc656d","system_id":"levelo_inurba_marseille","lat":43.29205,"lon":5.36057,"is_reserved":false,"is_disabled":false,"rental_uris":{"android":"levelo://app?vid=9b32423e-4016-4187-891b-f153e9fc656d","ios":"levelo://app?vid=9b32423e-4016-4187-891b-f153e9fc656d"},"vehicle_type_id":"4","last_reported":1743164279,"current_range_meters":5600,"station_id":"ce4bhbh2rcd13ifvqeqg","pricing_plan_id":"cebpf4jnsgd1na2vs0mg"},{"bike_id":"0acd526e-d7bf-446f-8abc-688b22a02cf0","system_id":"levelo_inurba_marseille","lat":43.27377,"lon":5.36247,"is_reserved":false,"is_disabled":false,"rental_uris":{"android":"levelo://app?vid=0acd526e-d7bf-446f-8abc-688b22a02cf0","ios":"levelo://app?vid=0acd526e-d7bf-446f-8abc-688b22a02cf0"},"vehicle_type_id":"4","last_reported":1743164279,"current_range_meters":5600,"station_id":"ce4bhbh2rcd13ifvqeo0","pricing_plan_id":"cebpf4jnsgd1na2vs0mg"},{"bike_id":"85ffaa9e-325a-46a0-9ecf-802df6ae673c","system_id":"levelo_inurba_marseille","lat":43.30543,"lon":5.36556,"is_reserved":false,"is_disabled":false,"rental_uris":{"android":"levelo://app?vid=85ffaa9e-325a-46a0-9ecf-802df6ae673c","ios":"levelo://app?vid=85ffaa9e-325a-46a0-9ecf-802df6ae673c"},"vehicle_type_id":"4","last_reported":1743164279,"current_range_meters":5600,"station_id":"ce4bgs12rcd13ifvqcag","pricing_plan_id":"cebpf4jnsgd1na2vs0mg"},{"bike_id":"5e7d515b-946e-40cf-99c1-3c51f2270c80","system_id":"levelo_inurba_marseille","lat":43.27382,"lon":5.36257,"is_reserved":false,"is_disabled":false,"rental_uris":{"android":"levelo://app?vid=5e7d515b-946e-40cf-99c1-3c51f2270c80","ios":"levelo://app?vid=5e7d515b-946e-40cf-99c1-3c51f2270c80"},"vehicle_type_id":"4","last_reported":1743164279,"current_range_meters":5600,"station_id":"ce4bhbh2rcd13ifvqeo0","pricing_plan_id":"cebpf4jnsgd1na2vs0mg"},{"bike_id":"63c4dd3e-c935-485d-8444-8498f2e9e2bd","system_id":"levelo_inurba_marseille","lat":43.25105,"lon":5.40321,"is_reserved":false,"is_disabled":false,"rental_uris":{"android":"levelo://app?vid=63c4dd3e-c935-485d-8444-8498f2e9e2bd","ios":"levelo://app?vid=63c4dd3e-c935-485d-8444-8498f2e9e2bd"},"vehicle_type_id":"4","last_reported":1743164279,"current_range_meters":6000,"station_id":"ce4bhlh2rcd13ifvqgig","pricing_plan_id":"cebpf4jnsgd1na2vs0mg"},{"bike_id":"91115129-db8b-4e11-9f08-9f6e4d00350d","system_id":"levelo_inurba_marseille","lat":43.27811,"lon":5.4072,"is_reserved":false,"is_disabled":false,"rental_uris":{"android":"levelo://app?vid=91115129-db8b-4e11-9f08-9f6e4d00350d","ios":"levelo://app?vid=91115129-db8b-4e11-9f08-9f6e4d00350d"},"vehicle_type_id":"4","last_reported":1743164279,"current_range_meters":6000,"station_id":"ce4bhnh2rcd13ifvqgtg","pricing_plan_id":"cebpf4jnsgd1na2vs0mg"},{"bike_id":"da76ef48-2f92-41cb-b7ea-11e6bb0bc372","system_id":"levelo_inurba_marseille","lat":43.25929,"lon":5.40907,"is_reserved":false,"is_disabled":false,"rental_uris":{"android":"levelo://app?vid=da76ef48-2f92-41cb-b7ea-11e6bb0bc372","ios":"levelo://app?vid=da76ef48-2f92-41cb-b7ea-11e6bb0bc372"},"vehicle_type_id":"4","last_reported":1743164279,"current_range_meters":6000,"station_id":"ce4bhm92rcd13ifvqglg","pricing_plan_id":"cebpf4jnsgd1na2vs0mg"},{"bike_id":"4e6faa15-fb9c-4955-93bf-3fbbc874f1da","system_id":"levelo_inurba_marseille","lat":43.27949,"lon":5.38732,"is_reserved":false,"is_disabled":false,"rental_uris":{"android":"levelo://app?vid=4e6faa15-fb9c-4955-93bf-3fbbc874f1da","ios":"levelo://app?vid=4e6faa15-fb9c-4955-93bf-3fbbc874f1da"},"vehicle_type_id":"4","last_reported":1743164279,"current_range_meters":6000,"station_id":"ce4bhg12rcd13ifvqf80","pricing_plan_id":"cebpf4jnsgd1na2vs0mg"},{"bike_id":"99ba283f-adaa-4f97-a965-4d928786afc7","system_id":"levelo_inurba_marseille","lat":43.26924,"lon":5.40261,"is_reserved":false,"is_disabled":false,"rental_uris":{"android":"levelo://app?vid=99ba283f-adaa-4f97-a965-4d928786afc7","ios":"levelo://app?vid=99ba283f-adaa-4f97-a965-4d928786afc7"},"vehicle_type_id":"4","last_reported":1743164279,"current_range_meters":6000,"station_id":"cjm6bp8fraef2m0cb0m0","pricing_plan_id":"cebpf4jnsgd1na2vs0mg"},{"bike_id":"06d84635-44fd-48fb-a017-08f0698bef5f","system_id":"levelo_inurba_marseille","lat":43.28268,"lon":5.35063,"is_reserved":false,"is_disabled":false,"rental_uris":{"android":"levelo://app?vid=06d84635-44fd-48fb-a017-08f0698bef5f","ios":"levelo://app?vid=06d84635-44fd-48fb-a017-08f0698bef5f"},"vehicle_type_id":"4","last_reported":1743164279,"current_range_meters":6000,"station_id":"ce4bhbp2rcd13ifvqerg","pricing_plan_id":"cebpf4jnsgd1na2vs0mg"},{"bike_id":"c55d3df9-6bd2-406e-93cc-6963ce11d8a1","system_id":"levelo_inurba_marseille","lat":43.33594,"lon":5.41037,"is_reserved":false,"is_disabled":false,"rental_uris":{"android":"levelo://app?vid=c55d3df9-6bd2-406e-93cc-6963ce11d8a1","ios":"levelo://app?vid=c55d3df9-6bd2-406e-93cc-6963ce11d8a1"},"vehicle_type_id":"4","last_reported":1743164279,"current_range_meters":6000,"station_id":"ce4bhqh2rcd13ifvqhmg","pricing_plan_id":"cebpf4jnsgd1na2vs0mg"},{"bike_id":"c18155db-65c7-4d5a-8c5b-923eb75c675d","system_id":"levelo_inurba_marseille","lat":43.32101,"lon":5.36772,"is_reserved":false,"is_disabled":false,"rental_uris":{"android":"levelo://app?vid=c18155db-65c7-4d5a-8c5b-923eb75c675d","ios":"levelo://app?vid=c18155db-65c7-4d5a-8c5b-923eb75c675d"},"vehicle_type_id":"4","last_reported":1743164279,"current_range_meters":6000,"station_id":"ce4bhrh2rcd13ifvqhug","pricing_plan_id":"cebpf4jnsgd1na2vs0mg"},{"bike_id":"805dd49b-c269-40d4-bae2-5fcabd2c5671","system_id":"levelo_inurba_marseille","lat":43.27812,"lon":5.40699,"is_reserved":false,"is_disabled":false,"rental_uris":{"android":"levelo://app?vid=805dd49b-c269-40d4-bae2-5fcabd2c5671","ios":"levelo://app?vid=805dd49b-c269-40d4-bae2-5fcabd2c5671"},"vehicle_type_id":"4","last_reported":1743164279,"current_range_meters":6000,"station_id":"ce4bhnh2rcd13ifvqgtg","pricing_plan_id":"cebpf4jnsgd1na2vs0mg"},{"bike_id":"9ff7e736-ae44-4210-a3bc-cf7efa7039bf","system_id":"levelo_inurba_marseille","lat":43.31259,"lon":5.36885,"is_reserved":false,"is_disabled":true,"rental_uris":{"android":"levelo://app?vid=9ff7e736-ae44-4210-a3bc-cf7efa7039bf","ios":"levelo://app?vid=9ff7e736-ae44-4210-a3bc-cf7efa7039bf"},"vehicle_type_id":"4","last_reported":1743164279,"current_range_meters":6400,"station_id":"ce4bgl92rcd13ifvqbq0","pricing_plan_id":"cebpf4jnsgd1na2vs0mg"},{"bike_id":"ab12f224-4614-4b79-bc2e-dd551aa5f99d","system_id":"levelo_inurba_marseille","lat":43.27498,"lon":5.42452,"is_reserved":false,"is_disabled":false,"rental_uris":{"android":"levelo://app?vid=ab12f224-4614-4b79-bc2e-dd551aa5f99d","ios":"levelo://app?vid=ab12f224-4614-4b79-bc2e-dd551aa5f99d"},"vehicle_type_id":"4","last_reported":1743164279,"current_range_meters":6400,"station_id":"ce4bhn92rcd13ifvqgrg","pricing_plan_id":"cebpf4jnsgd1na2vs0mg"},{"bike_id":"241b3bbf-0d79-4c4a-9645-7eaa4cd68cd1","system_id":"levelo_inurba_marseille","lat":43.29051,"lon":5.3996,"is_reserved":false,"is_disabled":false,"rental_uris":{"android":"levelo://app?vid=241b3bbf-0d79-4c4a-9645-7eaa4cd68cd1","ios":"levelo://app?vid=241b3bbf-0d79-4c4a-9645-7eaa4cd68cd1"},"vehicle_type_id":"4","last_reported":1743164279,"current_range_meters":6400,"station_id":"ce4bh392rcd13ifvqdm0","pricing_plan_id":"cebpf4jnsgd1na2vs0mg"},{"bike_id":"5e52ccb1-f106-41c3-9943-04a10237e184","system_id":"levelo_inurba_marseille","lat":43.28468,"lon":5.38417,"is_reserved":false,"is_disabled":false,"rental_uris":{"android":"levelo://app?vid=5e52ccb1-f106-41c3-9943-04a10237e184","ios":"levelo://app?vid=5e52ccb1-f106-41c3-9943-04a10237e184"},"vehicle_type_id":"4","last_reported":1743164279,"current_range_meters":6400,"station_id":"ce4bgup2rcd13ifvqcn0","pricing_plan_id":"cebpf4jnsgd1na2vs0mg"},{"bike_id":"c756d32d-efcb-4a9e-8494-37e13de07e39","system_id":"levelo_inurba_marseille","lat":43.26949,"lon":5.38629,"is_reserved":false,"is_disabled":false,"rental_uris":{"android":"levelo://app?vid=c756d32d-efcb-4a9e-8494-37e13de07e39","ios":"levelo://app?vid=c756d32d-efcb-4a9e-8494-37e13de07e39"},"vehicle_type_id":"4","last_reported":1743164279,"current_range_meters":6400,"station_id":"ce4bhh92rcd13ifvqfh0","pricing_plan_id":"cebpf4jnsgd1na2vs0mg"},{"bike_id":"768d77b3-e28c-4c0e-baab-63ed55142c9d","system_id":"levelo_inurba_marseille","lat":43.29441,"lon":5.39762,"is_reserved":false,"is_disabled":false,"rental_uris":{"android":"levelo://app?vid=768d77b3-e28c-4c0e-baab-63ed55142c9d","ios":"levelo://app?vid=768d77b3-e28c-4c0e-baab-63ed55142c9d"},"vehicle_type_id":"4","last_reported":1743164279,"current_range_meters":6400,"station_id":"ce4bh3h2rcd13ifvqdo0","pricing_plan_id":"cebpf4jnsgd1na2vs0mg"},{"bike_id":"e9ceab59-f51e-412a-b27f-cb58bde1add3","system_id":"levelo_inurba_marseille","lat":43.30087,"lon":5.39081,"is_reserved":false,"is_disabled":false,"rental_uris":{"android":"levelo://app?vid=e9ceab59-f51e-412a-b27f-cb58bde1add3","ios":"levelo://app?vid=e9ceab59-f51e-412a-b27f-cb58bde1add3"},"vehicle_type_id":"4","last_reported":1743164279,"current_range_meters":6400,"station_id":"ce4bh192rcd13ifvqdb0","pricing_plan_id":"cebpf4jnsgd1na2vs0mg"},{"bike_id":"517063f0-b5af-48c3-a5d1-3320df3e55d1","system_id":"levelo_inurba_marseille","lat":43.272084,"lon":5.391827,"is_reserved":false,"is_disabled":false,"rental_uris":{"android":"levelo://app?vid=517063f0-b5af-48c3-a5d1-3320df3e55d1","ios":"levelo://app?vid=517063f0-b5af-48c3-a5d1-3320df3e55d1"},"vehicle_type_id":"4","last_reported":1743164279,"current_range_meters":6000,"station_id":"ce4bhhp2rcd13ifvqfm0","pricing_plan_id":"cebpf4jnsgd1na2vs0mg"},{"bike_id":"cda3078a-2d37-41a5-946f-aad062afbf12","system_id":"levelo_inurba_marseille","lat":43.24558,"lon":5.3952,"is_reserved":false,"is_disabled":false,"rental_uris":{"android":"levelo://app?vid=cda3078a-2d37-41a5-946f-aad062afbf12","ios":"levelo://app?vid=cda3078a-2d37-41a5-946f-aad062afbf12"},"vehicle_type_id":"4","last_reported":1743164279,"current_range_meters":6800,"station_id":"ce4bhlp2rcd13ifvqgjg","pricing_plan_id":"cebpf4jnsgd1na2vs0mg"},{"bike_id":"2d06d774-e77a-420f-b359-9fa5d7c92812","system_id":"levelo_inurba_marseille","lat":43.27813,"lon":5.40714,"is_reserved":false,"is_disabled":false,"rental_uris":{"android":"levelo://app?vid=2d06d774-e77a-420f-b359-9fa5d7c92812","ios":"levelo://app?vid=2d06d774-e77a-420f-b359-9fa5d7c92812"},"vehicle_type_id":"4","last_reported":1743164279,"current_range_meters":6800,"station_id":"ce4bhnh2rcd13ifvqgtg","pricing_plan_id":"cebpf4jnsgd1na2vs0mg"},{"bike_id":"bf19485f-66bf-4716-ab94-dd96ca68a689","system_id":"levelo_inurba_marseille","lat":43.28156,"lon":5.42639,"is_reserved":false,"is_disabled":false,"rental_uris":{"android":"levelo://app?vid=bf19485f-66bf-4716-ab94-dd96ca68a689","ios":"levelo://app?vid=bf19485f-66bf-4716-ab94-dd96ca68a689"},"vehicle_type_id":"4","last_reported":1743164279,"current_range_meters":6800,"station_id":"ce4bhnh2rcd13ifvqgug","pricing_plan_id":"cebpf4jnsgd1na2vs0mg"},{"bike_id":"0d268bc8-088b-4f54-90a0-0d14ccc60ae3","system_id":"levelo_inurba_marseille","lat":43.29315,"lon":5.37445,"is_reserved":false,"is_disabled":true,"rental_uris":{"android":"levelo://app?vid=0d268bc8-088b-4f54-90a0-0d14ccc60ae3","ios":"levelo://app?vid=0d268bc8-088b-4f54-90a0-0d14ccc60ae3"},"vehicle_type_id":"4","last_reported":1743164279,"current_range_meters":6800,"station_id":"ce4bgi12rcd13ifvqb70","pricing_plan_id":"cebpf4jnsgd1na2vs0mg"},{"bike_id":"991eac33-3cb7-45d5-9d71-f856fe43016f","system_id":"levelo_inurba_marseille","lat":43.284159,"lon":5.349716,"is_reserved":false,"is_disabled":false,"rental_uris":{"android":"levelo://app?vid=991eac33-3cb7-45d5-9d71-f856fe43016f","ios":"levelo://app?vid=991eac33-3cb7-45d5-9d71-f856fe43016f"},"vehicle_type_id":"4","last_reported":1743164279,"current_range_meters":12000,"station_id":"ce4bhgp2rcd13ifvqfd0","pricing_plan_id":"cebpf4jnsgd1na2vs0mg"},{"bike_id":"21925214-7918-4f03-ae7e-09fa9cf978ff","system_id":"levelo_inurba_marseille","lat":43.245544,"lon":5.395239,"is_reserved":false,"is_disabled":true,"rental_uris":{"android":"levelo://app?vid=21925214-7918-4f03-ae7e-09fa9cf978ff","ios":"levelo://app?vid=21925214-7918-4f03-ae7e-09fa9cf978ff"},"vehicle_type_id":"4","last_reported":1743164279,"current_range_meters":6800,"station_id":"ce4bhlp2rcd13ifvqgjg","pricing_plan_id":"cebpf4jnsgd1na2vs0mg"},{"bike_id":"c5d17eb8-cde1-49a3-9672-ac8d8cf34632","system_id":"levelo_inurba_marseille","lat":43.33419,"lon":5.39999,"is_reserved":false,"is_disabled":false,"rental_uris":{"android":"levelo://app?vid=c5d17eb8-cde1-49a3-9672-ac8d8cf34632","ios":"levelo://app?vid=c5d17eb8-cde1-49a3-9672-ac8d8cf34632"},"vehicle_type_id":"4","last_reported":1743164279,"current_range_meters":6800,"station_id":"","pricing_plan_id":"cebpf4jnsgd1na2vs0mg"},{"bike_id":"a3da10bc-b067-4a00-b60a-7be6ff45323e","system_id":"levelo_inurba_marseille","lat":43.32114,"lon":5.36775,"is_reserved":false,"is_disabled":false,"rental_uris":{"android":"levelo://app?vid=a3da10bc-b067-4a00-b60a-7be6ff45323e","ios":"levelo://app?vid=a3da10bc-b067-4a00-b60a-7be6ff45323e"},"vehicle_type_id":"4","last_reported":1743164279,"current_range_meters":6800,"station_id":"ce4bhrh2rcd13ifvqhug","pricing_plan_id":"cebpf4jnsgd1na2vs0mg"},{"bike_id":"793f6213-8fee-438f-b686-0d04f8e550c3","system_id":"levelo_inurba_marseille","lat":43.30602,"lon":5.37235,"is_reserved":false,"is_disabled":false,"rental_uris":{"android":"levelo://app?vid=793f6213-8fee-438f-b686-0d04f8e550c3","ios":"levelo://app?vid=793f6213-8fee-438f-b686-0d04f8e550c3"},"vehicle_type_id":"4","last_reported":1743164279,"current_range_meters":6400,"station_id":"ce4bgqh2rcd13ifvqc4g","pricing_plan_id":"cebpf4jnsgd1na2vs0mg"},{"bike_id":"dff97280-508e-43a4-ae25-651d0cb2a298","system_id":"levelo_inurba_marseille","lat":43.25119,"lon":5.40318,"is_reserved":false,"is_disabled":false,"rental_uris":{"android":"levelo://app?vid=dff97280-508e-43a4-ae25-651d0cb2a298","ios":"levelo://app?vid=dff97280-508e-43a4-ae25-651d0cb2a298"},"vehicle_type_id":"4","last_reported":1743164279,"current_range_meters":6800,"station_id":"ce4bhlh2rcd13ifvqgig","pricing_plan_id":"cebpf4jnsgd1na2vs0mg"},{"bike_id":"fc8e8371-f4e9-4721-bc19-563801e389dc","system_id":"levelo_inurba_marseille","lat":43.337444,"lon":5.374475,"is_reserved":false,"is_disabled":false,"rental_uris":{"android":"levelo://app?vid=fc8e8371-f4e9-4721-bc19-563801e389dc","ios":"levelo://app?vid=fc8e8371-f4e9-4721-bc19-563801e389dc"},"vehicle_type_id":"4","last_reported":1743164279,"current_range_meters":6800,"station_id":"","pricing_plan_id":"cebpf4jnsgd1na2vs0mg"},{"bike_id":"14047aa8-f0ab-4e97-9be1-0de655be94b5","system_id":"levelo_inurba_marseille","lat":43.25921,"lon":5.40885,"is_reserved":false,"is_disabled":false,"rental_uris":{"android":"levelo://app?vid=14047aa8-f0ab-4e97-9be1-0de655be94b5","ios":"levelo://app?vid=14047aa8-f0ab-4e97-9be1-0de655be94b5"},"vehicle_type_id":"4","last_reported":1743164279,"current_range_meters":7200,"station_id":"ce4bhm92rcd13ifvqglg","pricing_plan_id":"cebpf4jnsgd1na2vs0mg"},{"bike_id":"597c4159-84ca-4ec5-b4f4-125fbc1c07ee","system_id":"levelo_inurba_marseille","lat":43.31975,"lon":5.38142,"is_reserved":false,"is_disabled":false,"rental_uris":{"android":"levelo://app?vid=597c4159-84ca-4ec5-b4f4-125fbc1c07ee","ios":"levelo://app?vid=597c4159-84ca-4ec5-b4f4-125fbc1c07ee"},"vehicle_type_id":"4","last_reported":1743164279,"current_range_meters":7200,"station_id":"ce4bhr12rcd13ifvqhpg","pricing_plan_id":"cebpf4jnsgd1na2vs0mg"},{"bike_id":"71132635-7f98-49ea-87f1-861b0446eec9","system_id":"levelo_inurba_marseille","lat":43.301402,"lon":5.380837,"is_reserved":false,"is_disabled":false,"rental_uris":{"android":"levelo://app?vid=71132635-7f98-49ea-87f1-861b0446eec9","ios":"levelo://app?vid=71132635-7f98-49ea-87f1-861b0446eec9"},"vehicle_type_id":"4","last_reported":1743164279,"current_range_meters":7200,"station_id":"ce4bgjp2rcd13ifvqbh0","pricing_plan_id":"cebpf4jnsgd1na2vs0mg"},{"bike_id":"36d9e143-6b8b-4534-b6df-3b6ba2a5925c","system_id":"levelo_inurba_marseille","lat":43.30102,"lon":5.39095,"is_reserved":false,"is_disabled":false,"rental_uris":{"android":"levelo://app?vid=36d9e143-6b8b-4534-b6df-3b6ba2a5925c","ios":"levelo://app?vid=36d9e143-6b8b-4534-b6df-3b6ba2a5925c"},"vehicle_type_id":"4","last_reported":1743164279,"current_range_meters":6800,"station_id":"ce4bh192rcd13ifvqdb0","pricing_plan_id":"cebpf4jnsgd1na2vs0mg"},{"bike_id":"64cc9711-e527-4d9a-9c4c-544f7be28b0d","system_id":"levelo_inurba_marseille","lat":43.28275,"lon":5.35078,"is_reserved":false,"is_disabled":false,"rental_uris":{"android":"levelo://app?vid=64cc9711-e527-4d9a-9c4c-544f7be28b0d","ios":"levelo://app?vid=64cc9711-e527-4d9a-9c4c-544f7be28b0d"},"vehicle_type_id":"4","last_reported":1743164279,"current_range_meters":7200,"station_id":"ce4bhbp2rcd13ifvqerg","pricing_plan_id":"cebpf4jnsgd1na2vs0mg"},{"bike_id":"09e9cff6-0f11-41b0-905e-d2975e747a84","system_id":"levelo_inurba_marseille","lat":43.30592,"lon":5.39342,"is_reserved":false,"is_disabled":false,"rental_uris":{"android":"levelo://app?vid=09e9cff6-0f11-41b0-905e-d2975e747a84","ios":"levelo://app?vid=09e9cff6-0f11-41b0-905e-d2975e747a84"},"vehicle_type_id":"4","last_reported":1743164279,"current_range_meters":7200,"station_id":"ce4bh0p2rcd13ifvqd80","pricing_plan_id":"cebpf4jnsgd1na2vs0mg"},{"bike_id":"d15e32cb-1754-44a5-befb-e75caebd888f","system_id":"levelo_inurba_marseille","lat":43.29676,"lon":5.37934,"is_reserved":false,"is_disabled":false,"rental_uris":{"android":"levelo://app?vid=d15e32cb-1754-44a5-befb-e75caebd888f","ios":"levelo://app?vid=d15e32cb-1754-44a5-befb-e75caebd888f"},"vehicle_type_id":"4","last_reported":1743164279,"current_range_meters":7200,"station_id":"","pricing_plan_id":"cebpf4jnsgd1na2vs0mg"},{"bike_id":"7dcca495-f787-4903-a0ba-8d245e40c714","system_id":"levelo_inurba_marseille","lat":43.267784,"lon":5.394173,"is_reserved":false,"is_disabled":false,"rental_uris":{"android":"levelo://app?vid=7dcca495-f787-4903-a0ba-8d245e40c714","ios":"levelo://app?vid=7dcca495-f787-4903-a0ba-8d245e40c714"},"vehicle_type_id":"4","last_reported":1743164279,"current_range_meters":7200,"station_id":"ce4bhh12rcd13ifvqfg0","pricing_plan_id":"cebpf4jnsgd1na2vs0mg"},{"bike_id":"b6277294-9c97-4bd2-bb72-519bd900d431","system_id":"levelo_inurba_marseille","lat":43.29308,"lon":5.37445,"is_reserved":false,"is_disabled":true,"rental_uris":{"android":"levelo://app?vid=b6277294-9c97-4bd2-bb72-519bd900d431","ios":"levelo://app?vid=b6277294-9c97-4bd2-bb72-519bd900d431"},"vehicle_type_id":"4","last_reported":1743164279,"current_range_meters":8000,"station_id":"ce4bgi12rcd13ifvqb70","pricing_plan_id":"cebpf4jnsgd1na2vs0mg"},{"bike_id":"ec940620-2a09-4eae-aace-1a0a72b62180","system_id":"levelo_inurba_marseille","lat":43.30301,"lon":5.4007,"is_reserved":false,"is_disabled":false,"rental_uris":{"android":"levelo://app?vid=ec940620-2a09-4eae-aace-1a0a72b62180","ios":"levelo://app?vid=ec940620-2a09-4eae-aace-1a0a72b62180"},"vehicle_type_id":"4","last_reported":1743164279,"current_range_meters":8000,"station_id":"ce4bgvh2rcd13ifvqcs0","pricing_plan_id":"cebpf4jnsgd1na2vs0mg"},{"bike_id":"50b58485-1b75-43bb-a404-55d7f170d69a","system_id":"levelo_inurba_marseille","lat":43.23151,"lon":5.43704,"is_reserved":false,"is_disabled":false,"rental_uris":{"android":"levelo://app?vid=50b58485-1b75-43bb-a404-55d7f170d69a","ios":"levelo://app?vid=50b58485-1b75-43bb-a404-55d7f170d69a"},"vehicle_type_id":"4","last_reported":1743164279,"current_range_meters":8000,"station_id":"ce4bhmp2rcd13ifvqgog","pricing_plan_id":"cebpf4jnsgd1na2vs0mg"},{"bike_id":"bc3f138a-3af0-4b4e-9b07-2d2a8e540795","system_id":"levelo_inurba_marseille","lat":43.26491,"lon":5.39554,"is_reserved":false,"is_disabled":true,"rental_uris":{"android":"levelo://app?vid=bc3f138a-3af0-4b4e-9b07-2d2a8e540795","ios":"levelo://app?vid=bc3f138a-3af0-4b4e-9b07-2d2a8e540795"},"vehicle_type_id":"4","last_reported":1743164279,"current_range_meters":8000,"station_id":"ce4bhi12rcd13ifvqfq0","pricing_plan_id":"cebpf4jnsgd1na2vs0mg"},{"bike_id":"beb6d875-d674-4e13-9e32-bab5c7618b11","system_id":"levelo_inurba_marseille","lat":43.280813,"lon":5.39664,"is_reserved":false,"is_disabled":false,"rental_uris":{"android":"levelo://app?vid=beb6d875-d674-4e13-9e32-bab5c7618b11","ios":"levelo://app?vid=beb6d875-d674-4e13-9e32-bab5c7618b11"},"vehicle_type_id":"4","last_reported":1743164279,"current_range_meters":7200,"station_id":"ce4bh0h2rcd13ifvqd40","pricing_plan_id":"cebpf4jnsgd1na2vs0mg"},{"bike_id":"c567b8be-8532-4d95-9b4e-79fba994d2f7","system_id":"levelo_inurba_marseille","lat":43.33608,"lon":5.41017,"is_reserved":false,"is_disabled":false,"rental_uris":{"android":"levelo://app?vid=c567b8be-8532-4d95-9b4e-79fba994d2f7","ios":"levelo://app?vid=c567b8be-8532-4d95-9b4e-79fba994d2f7"},"vehicle_type_id":"4","last_reported":1743164279,"current_range_meters":7200,"station_id":"ce4bhqh2rcd13ifvqhmg","pricing_plan_id":"cebpf4jnsgd1na2vs0mg"},{"bike_id":"0ac88cdf-dd3a-494f-aaa5-2b24d1ce393f","system_id":"levelo_inurba_marseille","lat":43.23207,"lon":5.35546,"is_reserved":false,"is_disabled":false,"rental_uris":{"android":"levelo://app?vid=0ac88cdf-dd3a-494f-aaa5-2b24d1ce393f","ios":"levelo://app?vid=0ac88cdf-dd3a-494f-aaa5-2b24d1ce393f"},"vehicle_type_id":"4","last_reported":1743164279,"current_range_meters":8000,"station_id":"ce4bhu92rcd13ifvqi70","pricing_plan_id":"cebpf4jnsgd1na2vs0mg"},{"bike_id":"faa03ad0-ffc7-487d-a748-4ef44b2e51d6","system_id":"levelo_inurba_marseille","lat":43.29011,"lon":5.35611,"is_reserved":false,"is_disabled":false,"rental_uris":{"android":"levelo://app?vid=faa03ad0-ffc7-487d-a748-4ef44b2e51d6","ios":"levelo://app?vid=faa03ad0-ffc7-487d-a748-4ef44b2e51d6"},"vehicle_type_id":"4","last_reported":1743164279,"current_range_meters":8000,"station_id":"ce4bhb92rcd13ifvqen0","pricing_plan_id":"cebpf4jnsgd1na2vs0mg"},{"bike_id":"19221227-42ec-4f4b-8f04-42a0818e22f5","system_id":"levelo_inurba_marseille","lat":43.31913,"lon":5.3693,"is_reserved":false,"is_disabled":false,"rental_uris":{"android":"levelo://app?vid=19221227-42ec-4f4b-8f04-42a0818e22f5","ios":"levelo://app?vid=19221227-42ec-4f4b-8f04-42a0818e22f5"},"vehicle_type_id":"4","last_reported":1743164279,"current_range_meters":8000,"station_id":"ce4bhrh2rcd13ifvqhug","pricing_plan_id":"cebpf4jnsgd1na2vs0mg"},{"bike_id":"64f0ea86-1180-4755-95e1-3cbc9c8d4cf5","system_id":"levelo_inurba_marseille","lat":43.33017,"lon":5.43865,"is_reserved":false,"is_disabled":true,"rental_uris":{"android":"levelo://app?vid=64f0ea86-1180-4755-95e1-3cbc9c8d4cf5","ios":"levelo://app?vid=64f0ea86-1180-4755-95e1-3cbc9c8d4cf5"},"vehicle_type_id":"4","last_reported":1743164279,"current_range_meters":8000,"station_id":"","pricing_plan_id":"cebpf4jnsgd1na2vs0mg"},{"bike_id":"377bfdf5-bc1c-4c55-962d-8040e4043b10","system_id":"levelo_inurba_marseille","lat":43.29534,"lon":5.37507,"is_reserved":false,"is_disabled":false,"rental_uris":{"android":"levelo://app?vid=377bfdf5-bc1c-4c55-962d-8040e4043b10","ios":"levelo://app?vid=377bfdf5-bc1c-4c55-962d-8040e4043b10"},"vehicle_type_id":"4","last_reported":1743164279,"current_range_meters":8000,"station_id":"ce4bgkp2rcd13ifvqbmg","pricing_plan_id":"cebpf4jnsgd1na2vs0mg"},{"bike_id":"db739c88-355d-49a2-8fee-2e88cce10416","system_id":"levelo_inurba_marseille","lat":43.27206,"lon":5.3918,"is_reserved":false,"is_disabled":false,"rental_uris":{"android":"levelo://app?vid=db739c88-355d-49a2-8fee-2e88cce10416","ios":"levelo://app?vid=db739c88-355d-49a2-8fee-2e88cce10416"},"vehicle_type_id":"4","last_reported":1743164279,"current_range_meters":3200,"station_id":"ce4bhhp2rcd13ifvqfm0","pricing_plan_id":"cebpf4jnsgd1na2vs0mg"},{"bike_id":"46c28a22-89b5-42f9-ae78-f8dbf813427a","system_id":"levelo_inurba_marseille","lat":43.27922,"lon":5.39574,"is_reserved":false,"is_disabled":false,"rental_uris":{"android":"levelo://app?vid=46c28a22-89b5-42f9-ae78-f8dbf813427a","ios":"levelo://app?vid=46c28a22-89b5-42f9-ae78-f8dbf813427a"},"vehicle_type_id":"4","last_reported":1743164279,"current_range_meters":8000,"station_id":"ce4bhf92rcd13ifvqf40","pricing_plan_id":"cebpf4jnsgd1na2vs0mg"},{"bike_id":"cc717883-29b7-47bd-bb33-c0e44acd7b5c","system_id":"levelo_inurba_marseille","lat":43.33027,"lon":5.39042,"is_reserved":false,"is_disabled":false,"rental_uris":{"android":"levelo://app?vid=cc717883-29b7-47bd-bb33-c0e44acd7b5c","ios":"levelo://app?vid=cc717883-29b7-47bd-bb33-c0e44acd7b5c"},"vehicle_type_id":"4","last_reported":1743164279,"current_range_meters":8000,"station_id":"ce4bhr92rcd13ifvqhrg","pricing_plan_id":"cebpf4jnsgd1na2vs0mg"},{"bike_id":"961245ca-8d90-4d71-b735-61afea929100","system_id":"levelo_inurba_marseille","lat":43.24168,"lon":5.36401,"is_reserved":false,"is_disabled":false,"rental_uris":{"android":"levelo://app?vid=961245ca-8d90-4d71-b735-61afea929100","ios":"levelo://app?vid=961245ca-8d90-4d71-b735-61afea929100"},"vehicle_type_id":"4","last_reported":1743164279,"current_range_meters":8400,"station_id":"cpo36qri1sfpv3e86is0","pricing_plan_id":"cebpf4jnsgd1na2vs0mg"},{"bike_id":"8dacc42a-6e00-4e5b-94ba-24e8cd68865f","system_id":"levelo_inurba_marseille","lat":43.29258,"lon":5.38441,"is_reserved":false,"is_disabled":false,"rental_uris":{"android":"levelo://app?vid=8dacc42a-6e00-4e5b-94ba-24e8cd68865f","ios":"levelo://app?vid=8dacc42a-6e00-4e5b-94ba-24e8cd68865f"},"vehicle_type_id":"4","last_reported":1743164279,"current_range_meters":8400,"station_id":"ce4bh692rcd13ifvqea0","pricing_plan_id":"cebpf4jnsgd1na2vs0mg"},{"bike_id":"605e146e-7d12-431d-bfff-48a740fc799a","system_id":"levelo_inurba_marseille","lat":43.32375,"lon":5.38867,"is_reserved":false,"is_disabled":false,"rental_uris":{"android":"levelo://app?vid=605e146e-7d12-431d-bfff-48a740fc799a","ios":"levelo://app?vid=605e146e-7d12-431d-bfff-48a740fc799a"},"vehicle_type_id":"4","last_reported":1743164279,"current_range_meters":8400,"station_id":"ce4bhqp2rcd13ifvqhog","pricing_plan_id":"cebpf4jnsgd1na2vs0mg"},{"bike_id":"8df5095f-5c9e-4ef7-a5ca-bea21dd27f96","system_id":"levelo_inurba_marseille","lat":43.2919,"lon":5.35807,"is_reserved":false,"is_disabled":false,"rental_uris":{"android":"levelo://app?vid=8df5095f-5c9e-4ef7-a5ca-bea21dd27f96","ios":"levelo://app?vid=8df5095f-5c9e-4ef7-a5ca-bea21dd27f96"},"vehicle_type_id":"4","last_reported":1743164279,"current_range_meters":8400,"station_id":"ce4bhb12rcd13ifvqel0","pricing_plan_id":"cebpf4jnsgd1na2vs0mg"},{"bike_id":"ce9e7efc-c14c-46e7-abaa-8ba9eeec87d7","system_id":"levelo_inurba_marseille","lat":43.255878,"lon":5.382331,"is_reserved":false,"is_disabled":false,"rental_uris":{"android":"levelo://app?vid=ce9e7efc-c14c-46e7-abaa-8ba9eeec87d7","ios":"levelo://app?vid=ce9e7efc-c14c-46e7-abaa-8ba9eeec87d7"},"vehicle_type_id":"4","last_reported":1743164279,"current_range_meters":8400,"station_id":"ce4bhih2rcd13ifvqfs0","pricing_plan_id":"cebpf4jnsgd1na2vs0mg"},{"bike_id":"33252521-acee-4dd2-90bf-db8d27abb04c","system_id":"levelo_inurba_marseille","lat":43.2828,"lon":5.35069,"is_reserved":false,"is_disabled":false,"rental_uris":{"android":"levelo://app?vid=33252521-acee-4dd2-90bf-db8d27abb04c","ios":"levelo://app?vid=33252521-acee-4dd2-90bf-db8d27abb04c"},"vehicle_type_id":"4","last_reported":1743164279,"current_range_meters":8400,"station_id":"ce4bhbp2rcd13ifvqerg","pricing_plan_id":"cebpf4jnsgd1na2vs0mg"},{"bike_id":"c4929d7e-5a31-4f08-9105-2d588d30f36b","system_id":"levelo_inurba_marseille","lat":43.2315,"lon":5.43725,"is_reserved":false,"is_disabled":false,"rental_uris":{"android":"levelo://app?vid=c4929d7e-5a31-4f08-9105-2d588d30f36b","ios":"levelo://app?vid=c4929d7e-5a31-4f08-9105-2d588d30f36b"},"vehicle_type_id":"4","last_reported":1743164279,"current_range_meters":8400,"station_id":"ce4bhmp2rcd13ifvqgog","pricing_plan_id":"cebpf4jnsgd1na2vs0mg"},{"bike_id":"9043c11e-fc9c-4a4f-be86-393f483d3f64","system_id":"levelo_inurba_marseille","lat":43.26955,"lon":5.38637,"is_reserved":false,"is_disabled":false,"rental_uris":{"android":"levelo://app?vid=9043c11e-fc9c-4a4f-be86-393f483d3f64","ios":"levelo://app?vid=9043c11e-fc9c-4a4f-be86-393f483d3f64"},"vehicle_type_id":"4","last_reported":1743164279,"current_range_meters":8400,"station_id":"ce4bhh92rcd13ifvqfh0","pricing_plan_id":"cebpf4jnsgd1na2vs0mg"},{"bike_id":"37703b88-0681-4fe0-a352-8323ebd0e7ba","system_id":"levelo_inurba_marseille","lat":43.28608,"lon":5.37056,"is_reserved":false,"is_disabled":false,"rental_uris":{"android":"levelo://app?vid=37703b88-0681-4fe0-a352-8323ebd0e7ba","ios":"levelo://app?vid=37703b88-0681-4fe0-a352-8323ebd0e7ba"},"vehicle_type_id":"4","last_reported":1743164279,"current_range_meters":8400,"station_id":"ce4bht12rcd13ifvqi60","pricing_plan_id":"cebpf4jnsgd1na2vs0mg"},{"bike_id":"7d19f0b7-656d-4635-87e1-3efc66d1906b","system_id":"levelo_inurba_marseille","lat":43.29959,"lon":5.37178,"is_reserved":false,"is_disabled":false,"rental_uris":{"android":"levelo://app?vid=7d19f0b7-656d-4635-87e1-3efc66d1906b","ios":"levelo://app?vid=7d19f0b7-656d-4635-87e1-3efc66d1906b"},"vehicle_type_id":"4","last_reported":1743164279,"current_range_meters":8000,"station_id":"ce4bgr92rcd13ifvqc7g","pricing_plan_id":"cebpf4jnsgd1na2vs0mg"},{"bike_id":"b65c76db-652c-4422-aff2-a65af153687a","system_id":"levelo_inurba_marseille","lat":43.28265,"lon":5.35066,"is_reserved":false,"is_disabled":false,"rental_uris":{"android":"levelo://app?vid=b65c76db-652c-4422-aff2-a65af153687a","ios":"levelo://app?vid=b65c76db-652c-4422-aff2-a65af153687a"},"vehicle_type_id":"4","last_reported":1743164279,"current_range_meters":8400,"station_id":"ce4bhbp2rcd13ifvqerg","pricing_plan_id":"cebpf4jnsgd1na2vs0mg"},{"bike_id":"f00e0bf1-e77c-4752-8f1b-63a2e565cf51","system_id":"levelo_inurba_marseille","lat":43.279621,"lon":5.387168,"is_reserved":false,"is_disabled":true,"rental_uris":{"android":"levelo://app?vid=f00e0bf1-e77c-4752-8f1b-63a2e565cf51","ios":"levelo://app?vid=f00e0bf1-e77c-4752-8f1b-63a2e565cf51"},"vehicle_type_id":"4","last_reported":1743164279,"current_range_meters":8800,"station_id":"ce4bhg12rcd13ifvqf80","pricing_plan_id":"cebpf4jnsgd1na2vs0mg"},{"bike_id":"df03e74f-18da-4747-9a95-98e973fcb060","system_id":"levelo_inurba_marseille","lat":43.30433,"lon":5.38885,"is_reserved":false,"is_disabled":false,"rental_uris":{"android":"levelo://app?vid=df03e74f-18da-4747-9a95-98e973fcb060","ios":"levelo://app?vid=df03e74f-18da-4747-9a95-98e973fcb060"},"vehicle_type_id":"4","last_reported":1743164279,"current_range_meters":8800,"station_id":"ce4bgk12rcd13ifvqbi0","pricing_plan_id":"cebpf4jnsgd1na2vs0mg"},{"bike_id":"de1ca0e9-4fc2-4179-99cb-96d838fd081c","system_id":"levelo_inurba_marseille","lat":43.27816,"lon":5.40715,"is_reserved":false,"is_disabled":false,"rental_uris":{"android":"levelo://app?vid=de1ca0e9-4fc2-4179-99cb-96d838fd081c","ios":"levelo://app?vid=de1ca0e9-4fc2-4179-99cb-96d838fd081c"},"vehicle_type_id":"4","last_reported":1743164279,"current_range_meters":8800,"station_id":"ce4bhnh2rcd13ifvqgtg","pricing_plan_id":"cebpf4jnsgd1na2vs0mg"},{"bike_id":"7514a973-b66f-4fbd-9602-b469578203eb","system_id":"levelo_inurba_marseille","lat":43.3043,"lon":5.38897,"is_reserved":false,"is_disabled":false,"rental_uris":{"android":"levelo://app?vid=7514a973-b66f-4fbd-9602-b469578203eb","ios":"levelo://app?vid=7514a973-b66f-4fbd-9602-b469578203eb"},"vehicle_type_id":"4","last_reported":1743164279,"current_range_meters":8800,"station_id":"ce4bgk12rcd13ifvqbi0","pricing_plan_id":"cebpf4jnsgd1na2vs0mg"},{"bike_id":"2a2e96e2-fe21-4d08-a3ea-122e7ca7c3e9","system_id":"levelo_inurba_marseille","lat":43.302765,"lon":5.377088,"is_reserved":false,"is_disabled":false,"rental_uris":{"android":"levelo://app?vid=2a2e96e2-fe21-4d08-a3ea-122e7ca7c3e9","ios":"levelo://app?vid=2a2e96e2-fe21-4d08-a3ea-122e7ca7c3e9"},"vehicle_type_id":"4","last_reported":1743164279,"current_range_meters":8800,"station_id":"","pricing_plan_id":"cebpf4jnsgd1na2vs0mg"},{"bike_id":"25c93242-72e6-4525-aea7-7d96e2cd1825","system_id":"levelo_inurba_marseille","lat":43.33077,"lon":5.40847,"is_reserved":false,"is_disabled":false,"rental_uris":{"android":"levelo://app?vid=25c93242-72e6-4525-aea7-7d96e2cd1825","ios":"levelo://app?vid=25c93242-72e6-4525-aea7-7d96e2cd1825"},"vehicle_type_id":"4","last_reported":1743164279,"current_range_meters":8800,"station_id":"","pricing_plan_id":"cebpf4jnsgd1na2vs0mg"},{"bike_id":"88b443c0-d194-45a8-becc-1cacc74ddf68","system_id":"levelo_inurba_marseille","lat":43.229893,"lon":5.354387,"is_reserved":false,"is_disabled":false,"rental_uris":{"android":"levelo://app?vid=88b443c0-d194-45a8-becc-1cacc74ddf68","ios":"levelo://app?vid=88b443c0-d194-45a8-becc-1cacc74ddf68"},"vehicle_type_id":"4","last_reported":1743164279,"current_range_meters":8800,"station_id":"cpo3342slgdg3j2ifvpg","pricing_plan_id":"cebpf4jnsgd1na2vs0mg"},{"bike_id":"a9b2f1bd-18e3-4fc6-972f-a5e36e76f35e","system_id":"levelo_inurba_marseille","lat":43.29306,"lon":5.37173,"is_reserved":false,"is_disabled":false,"rental_uris":{"android":"levelo://app?vid=a9b2f1bd-18e3-4fc6-972f-a5e36e76f35e","ios":"levelo://app?vid=a9b2f1bd-18e3-4fc6-972f-a5e36e76f35e"},"vehicle_type_id":"4","last_reported":1743164279,"current_range_meters":8800,"station_id":"ce4bgh92rcd13ifvqb40","pricing_plan_id":"cebpf4jnsgd1na2vs0mg"},{"bike_id":"813634ed-e21d-4b9e-88e8-aa8b87581eb3","system_id":"levelo_inurba_marseille","lat":43.3211,"lon":5.36771,"is_reserved":false,"is_disabled":false,"rental_uris":{"android":"levelo://app?vid=813634ed-e21d-4b9e-88e8-aa8b87581eb3","ios":"levelo://app?vid=813634ed-e21d-4b9e-88e8-aa8b87581eb3"},"vehicle_type_id":"4","last_reported":1743164279,"current_range_meters":9200,"station_id":"ce4bhrh2rcd13ifvqhug","pricing_plan_id":"cebpf4jnsgd1na2vs0mg"},{"bike_id":"3baabe1e-785f-4275-b2ae-669cc3f900da","system_id":"levelo_inurba_marseille","lat":43.27815,"lon":5.40721,"is_reserved":false,"is_disabled":true,"rental_uris":{"android":"levelo://app?vid=3baabe1e-785f-4275-b2ae-669cc3f900da","ios":"levelo://app?vid=3baabe1e-785f-4275-b2ae-669cc3f900da"},"vehicle_type_id":"4","last_reported":1743164279,"current_range_meters":9200,"station_id":"ce4bhnh2rcd13ifvqgtg","pricing_plan_id":"cebpf4jnsgd1na2vs0mg"},{"bike_id":"85bdcdcd-3b24-4266-96f9-09a378c1efa4","system_id":"levelo_inurba_marseille","lat":43.25919,"lon":5.40884,"is_reserved":false,"is_disabled":false,"rental_uris":{"android":"levelo://app?vid=85bdcdcd-3b24-4266-96f9-09a378c1efa4","ios":"levelo://app?vid=85bdcdcd-3b24-4266-96f9-09a378c1efa4"},"vehicle_type_id":"4","last_reported":1743164279,"current_range_meters":9200,"station_id":"ce4bhm92rcd13ifvqglg","pricing_plan_id":"cebpf4jnsgd1na2vs0mg"},{"bike_id":"861ae205-c318-4688-ac53-947993e1b65f","system_id":"levelo_inurba_marseille","lat":43.24171,"lon":5.36388,"is_reserved":false,"is_disabled":false,"rental_uris":{"android":"levelo://app?vid=861ae205-c318-4688-ac53-947993e1b65f","ios":"levelo://app?vid=861ae205-c318-4688-ac53-947993e1b65f"},"vehicle_type_id":"4","last_reported":1743164279,"current_range_meters":9200,"station_id":"cpo36qri1sfpv3e86is0","pricing_plan_id":"cebpf4jnsgd1na2vs0mg"},{"bike_id":"2e919ca5-ce98-4c47-a9d7-66e6ab7584e4","system_id":"levelo_inurba_marseille","lat":43.32117,"lon":5.36791,"is_reserved":false,"is_disabled":false,"rental_uris":{"android":"levelo://app?vid=2e919ca5-ce98-4c47-a9d7-66e6ab7584e4","ios":"levelo://app?vid=2e919ca5-ce98-4c47-a9d7-66e6ab7584e4"},"vehicle_type_id":"4","last_reported":1743164279,"current_range_meters":9200,"station_id":"ce4bhrh2rcd13ifvqhug","pricing_plan_id":"cebpf4jnsgd1na2vs0mg"},{"bike_id":"58573f28-42ac-4a0b-9db3-6ed4a4c9d03e","system_id":"levelo_inurba_marseille","lat":43.30967,"lon":5.39051,"is_reserved":false,"is_disabled":true,"rental_uris":{"android":"levelo://app?vid=58573f28-42ac-4a0b-9db3-6ed4a4c9d03e","ios":"levelo://app?vid=58573f28-42ac-4a0b-9db3-6ed4a4c9d03e"},"vehicle_type_id":"4","last_reported":1743164279,"current_range_meters":9200,"station_id":"ce4bgup2rcd13ifvqco0","pricing_plan_id":"cebpf4jnsgd1na2vs0mg"},{"bike_id":"2648bce3-8f78-442e-b733-d9347ec43f83","system_id":"levelo_inurba_marseille","lat":43.304565,"lon":5.378936,"is_reserved":false,"is_disabled":false,"rental_uris":{"android":"levelo://app?vid=2648bce3-8f78-442e-b733-d9347ec43f83","ios":"levelo://app?vid=2648bce3-8f78-442e-b733-d9347ec43f83"},"vehicle_type_id":"4","last_reported":1743164279,"current_range_meters":9200,"station_id":"ce4bgup2rcd13ifvqcn0","pricing_plan_id":"cebpf4jnsgd1na2vs0mg"},{"bike_id":"78dd89b4-e883-4f88-85a9-6713bcff677d","system_id":"levelo_inurba_marseille","lat":43.25124,"lon":5.4032,"is_reserved":false,"is_disabled":false,"rental_uris":{"android":"levelo://app?vid=78dd89b4-e883-4f88-85a9-6713bcff677d","ios":"levelo://app?vid=78dd89b4-e883-4f88-85a9-6713bcff677d"},"vehicle_type_id":"4","last_reported":1743164279,"current_range_meters":9200,"station_id":"ce4bhlh2rcd13ifvqgig","pricing_plan_id":"cebpf4jnsgd1na2vs0mg"},{"bike_id":"170a51e8-cf04-4425-b05f-2c171e5f4984","system_id":"levelo_inurba_marseille","lat":43.28481,"lon":5.38563,"is_reserved":false,"is_disabled":false,"rental_uris":{"android":"levelo://app?vid=170a51e8-cf04-4425-b05f-2c171e5f4984","ios":"levelo://app?vid=170a51e8-cf04-4425-b05f-2c171e5f4984"},"vehicle_type_id":"4","last_reported":1743164279,"current_range_meters":9200,"station_id":"ce4bh8p2rcd13ifvqeb0","pricing_plan_id":"cebpf4jnsgd1na2vs0mg"},{"bike_id":"58bbe779-0bb3-4285-9a89-5310df6eee00","system_id":"levelo_inurba_marseille","lat":43.29856,"lon":5.3625,"is_reserved":false,"is_disabled":false,"rental_uris":{"android":"levelo://app?vid=58bbe779-0bb3-4285-9a89-5310df6eee00","ios":"levelo://app?vid=58bbe779-0bb3-4285-9a89-5310df6eee00"},"vehicle_type_id":"4","last_reported":1743164279,"current_range_meters":9200,"station_id":"ce4bgpp2rcd13ifvqc3g","pricing_plan_id":"cebpf4jnsgd1na2vs0mg"},{"bike_id":"9d90e281-d5a3-4faf-a20d-49a31e828d8f","system_id":"levelo_inurba_marseille","lat":43.27582,"lon":5.3841,"is_reserved":false,"is_disabled":false,"rental_uris":{"android":"levelo://app?vid=9d90e281-d5a3-4faf-a20d-49a31e828d8f","ios":"levelo://app?vid=9d90e281-d5a3-4faf-a20d-49a31e828d8f"},"vehicle_type_id":"4","last_reported":1743164279,"current_range_meters":9200,"station_id":"ce4bhh92rcd13ifvqfi0","pricing_plan_id":"cebpf4jnsgd1na2vs0mg"},{"bike_id":"58a2d4df-6f33-4164-89b6-fe0644bccf0f","system_id":"levelo_inurba_marseille","lat":43.27827,"lon":5.40756,"is_reserved":false,"is_disabled":false,"rental_uris":{"android":"levelo://app?vid=58a2d4df-6f33-4164-89b6-fe0644bccf0f","ios":"levelo://app?vid=58a2d4df-6f33-4164-89b6-fe0644bccf0f"},"vehicle_type_id":"4","last_reported":1743164279,"current_range_meters":9600,"station_id":"ce4bhnh2rcd13ifvqgtg","pricing_plan_id":"cebpf4jnsgd1na2vs0mg"},{"bike_id":"4a42ca1e-41e4-4233-a4bb-a180f04564d6","system_id":"levelo_inurba_marseille","lat":43.29198,"lon":5.37139,"is_reserved":false,"is_disabled":true,"rental_uris":{"android":"levelo://app?vid=4a42ca1e-41e4-4233-a4bb-a180f04564d6","ios":"levelo://app?vid=4a42ca1e-41e4-4233-a4bb-a180f04564d6"},"vehicle_type_id":"4","last_reported":1743164279,"current_range_meters":9600,"station_id":"ce4bha92rcd13ifvqeh0","pricing_plan_id":"cebpf4jnsgd1na2vs0mg"},{"bike_id":"0c7c8c97-c432-41cd-96f5-01a03f56e852","system_id":"levelo_inurba_marseille","lat":43.24163,"lon":5.36389,"is_reserved":false,"is_disabled":false,"rental_uris":{"android":"levelo://app?vid=0c7c8c97-c432-41cd-96f5-01a03f56e852","ios":"levelo://app?vid=0c7c8c97-c432-41cd-96f5-01a03f56e852"},"vehicle_type_id":"4","last_reported":1743164279,"current_range_meters":9600,"station_id":"cpo36qri1sfpv3e86is0","pricing_plan_id":"cebpf4jnsgd1na2vs0mg"},{"bike_id":"897c5ac3-57de-4861-915f-d8c3e3e79b59","system_id":"levelo_inurba_marseille","lat":43.28264,"lon":5.35084,"is_reserved":false,"is_disabled":false,"rental_uris":{"android":"levelo://app?vid=897c5ac3-57de-4861-915f-d8c3e3e79b59","ios":"levelo://app?vid=897c5ac3-57de-4861-915f-d8c3e3e79b59"},"vehicle_type_id":"4","last_reported":1743164279,"current_range_meters":9600,"station_id":"ce4bhbp2rcd13ifvqerg","pricing_plan_id":"cebpf4jnsgd1na2vs0mg"},{"bike_id":"fa847661-b485-46b4-9026-bbf7d7813924","system_id":"levelo_inurba_marseille","lat":43.28076,"lon":5.39641,"is_reserved":false,"is_disabled":false,"rental_uris":{"android":"levelo://app?vid=fa847661-b485-46b4-9026-bbf7d7813924","ios":"levelo://app?vid=fa847661-b485-46b4-9026-bbf7d7813924"},"vehicle_type_id":"4","last_reported":1743164279,"current_range_meters":9600,"station_id":"ce4bho12rcd13ifvqh2g","pricing_plan_id":"cebpf4jnsgd1na2vs0mg"},{"bike_id":"ed3f340d-7b56-49a7-952a-c79c8daa5f0f","system_id":"levelo_inurba_marseille","lat":43.30166,"lon":5.3881,"is_reserved":false,"is_disabled":true,"rental_uris":{"android":"levelo://app?vid=ed3f340d-7b56-49a7-952a-c79c8daa5f0f","ios":"levelo://app?vid=ed3f340d-7b56-49a7-952a-c79c8daa5f0f"},"vehicle_type_id":"4","last_reported":1743164279,"current_range_meters":9600,"station_id":"ce4bghh2rcd13ifvqb60","pricing_plan_id":"cebpf4jnsgd1na2vs0mg"},{"bike_id":"14e8351b-7d71-46ca-82eb-d58cf3fecc4a","system_id":"levelo_inurba_marseille","lat":43.24658,"lon":5.38868,"is_reserved":false,"is_disabled":false,"rental_uris":{"android":"levelo://app?vid=14e8351b-7d71-46ca-82eb-d58cf3fecc4a","ios":"levelo://app?vid=14e8351b-7d71-46ca-82eb-d58cf3fecc4a"},"vehicle_type_id":"4","last_reported":1743164279,"current_range_meters":9600,"station_id":"ce4bhg12rcd13ifvqf60","pricing_plan_id":"cebpf4jnsgd1na2vs0mg"},{"bike_id":"c26335fb-5262-4711-a518-14b7fa31f2db","system_id":"levelo_inurba_marseille","lat":43.29059,"lon":5.35924,"is_reserved":false,"is_disabled":false,"rental_uris":{"android":"levelo://app?vid=c26335fb-5262-4711-a518-14b7fa31f2db","ios":"levelo://app?vid=c26335fb-5262-4711-a518-14b7fa31f2db"},"vehicle_type_id":"4","last_reported":1743164279,"current_range_meters":9600,"station_id":"ce4bha92rcd13ifvqeg0","pricing_plan_id":"cebpf4jnsgd1na2vs0mg"},{"bike_id":"87960793-d0ac-4d73-9ff2-8702ba28ad2e","system_id":"levelo_inurba_marseille","lat":43.23178,"lon":5.39987,"is_reserved":false,"is_disabled":false,"rental_uris":{"android":"levelo://app?vid=87960793-d0ac-4d73-9ff2-8702ba28ad2e","ios":"levelo://app?vid=87960793-d0ac-4d73-9ff2-8702ba28ad2e"},"vehicle_type_id":"4","last_reported":1743164279,"current_range_meters":9600,"station_id":"ce4bhn12rcd13ifvqgqg","pricing_plan_id":"cebpf4jnsgd1na2vs0mg"},{"bike_id":"bb7a3026-a490-400d-a51e-73a475e86549","system_id":"levelo_inurba_marseille","lat":43.30154,"lon":5.38095,"is_reserved":false,"is_disabled":false,"rental_uris":{"android":"levelo://app?vid=bb7a3026-a490-400d-a51e-73a475e86549","ios":"levelo://app?vid=bb7a3026-a490-400d-a51e-73a475e86549"},"vehicle_type_id":"4","last_reported":1743164279,"current_range_meters":9600,"station_id":"ce4bgjp2rcd13ifvqbh0","pricing_plan_id":"cebpf4jnsgd1na2vs0mg"},{"bike_id":"e309699e-0843-4135-b236-3d55bd6466fb","system_id":"levelo_inurba_marseille","lat":43.23151,"lon":5.43688,"is_reserved":false,"is_disabled":false,"rental_uris":{"android":"levelo://app?vid=e309699e-0843-4135-b236-3d55bd6466fb","ios":"levelo://app?vid=e309699e-0843-4135-b236-3d55bd6466fb"},"vehicle_type_id":"4","last_reported":1743164279,"current_range_meters":9600,"station_id":"ce4bhmp2rcd13ifvqgog","pricing_plan_id":"cebpf4jnsgd1na2vs0mg"},{"bike_id":"971c92cb-66df-438d-9a85-e63af939e6ff","system_id":"levelo_inurba_marseille","lat":43.28623,"lon":5.35093,"is_reserved":false,"is_disabled":true,"rental_uris":{"android":"levelo://app?vid=971c92cb-66df-438d-9a85-e63af939e6ff","ios":"levelo://app?vid=971c92cb-66df-438d-9a85-e63af939e6ff"},"vehicle_type_id":"4","last_reported":1743164279,"current_range_meters":10000,"station_id":"ce4bhch2rcd13ifvqeug","pricing_plan_id":"cebpf4jnsgd1na2vs0mg"},{"bike_id":"c5887b5d-7662-4633-9b7e-c1f693b96552","system_id":"levelo_inurba_marseille","lat":43.27382,"lon":5.36246,"is_reserved":false,"is_disabled":false,"rental_uris":{"android":"levelo://app?vid=c5887b5d-7662-4633-9b7e-c1f693b96552","ios":"levelo://app?vid=c5887b5d-7662-4633-9b7e-c1f693b96552"},"vehicle_type_id":"4","last_reported":1743164279,"current_range_meters":10000,"station_id":"ce4bhbh2rcd13ifvqeo0","pricing_plan_id":"cebpf4jnsgd1na2vs0mg"},{"bike_id":"81a5f7f7-0518-4202-9506-785334cbf7c5","system_id":"levelo_inurba_marseille","lat":43.26232,"lon":5.40454,"is_reserved":false,"is_disabled":false,"rental_uris":{"android":"levelo://app?vid=81a5f7f7-0518-4202-9506-785334cbf7c5","ios":"levelo://app?vid=81a5f7f7-0518-4202-9506-785334cbf7c5"},"vehicle_type_id":"4","last_reported":1743164279,"current_range_meters":10000,"station_id":"ce4bhmh2rcd13ifvqgmg","pricing_plan_id":"cebpf4jnsgd1na2vs0mg"},{"bike_id":"2487664b-6ca6-4300-b86d-a9ce75c31f9e","system_id":"levelo_inurba_marseille","lat":43.305349,"lon":5.365263,"is_reserved":false,"is_disabled":false,"rental_uris":{"android":"levelo://app?vid=2487664b-6ca6-4300-b86d-a9ce75c31f9e","ios":"levelo://app?vid=2487664b-6ca6-4300-b86d-a9ce75c31f9e"},"vehicle_type_id":"4","last_reported":1743164279,"current_range_meters":10000,"station_id":"ce4bgs12rcd13ifvqcag","pricing_plan_id":"cebpf4jnsgd1na2vs0mg"},{"bike_id":"56c10afe-1246-4e58-aeee-0df68a9791fc","system_id":"levelo_inurba_marseille","lat":43.29229,"lon":5.36078,"is_reserved":false,"is_disabled":false,"rental_uris":{"android":"levelo://app?vid=56c10afe-1246-4e58-aeee-0df68a9791fc","ios":"levelo://app?vid=56c10afe-1246-4e58-aeee-0df68a9791fc"},"vehicle_type_id":"4","last_reported":1743164279,"current_range_meters":10000,"station_id":"ce4bhbh2rcd13ifvqeqg","pricing_plan_id":"cebpf4jnsgd1na2vs0mg"},{"bike_id":"2580ab7b-c2c0-4c7f-bdbd-6fa15b196b9f","system_id":"levelo_inurba_marseille","lat":43.3361,"lon":5.41029,"is_reserved":false,"is_disabled":false,"rental_uris":{"android":"levelo://app?vid=2580ab7b-c2c0-4c7f-bdbd-6fa15b196b9f","ios":"levelo://app?vid=2580ab7b-c2c0-4c7f-bdbd-6fa15b196b9f"},"vehicle_type_id":"4","last_reported":1743164279,"current_range_meters":10000,"station_id":"ce4bhqh2rcd13ifvqhmg","pricing_plan_id":"cebpf4jnsgd1na2vs0mg"},{"bike_id":"1c14bf9c-ada4-4a36-8853-740a1a2c000a","system_id":"levelo_inurba_marseille","lat":43.23194,"lon":5.35549,"is_reserved":false,"is_disabled":false,"rental_uris":{"android":"levelo://app?vid=1c14bf9c-ada4-4a36-8853-740a1a2c000a","ios":"levelo://app?vid=1c14bf9c-ada4-4a36-8853-740a1a2c000a"},"vehicle_type_id":"4","last_reported":1743164279,"current_range_meters":10000,"station_id":"ce4bhu92rcd13ifvqi70","pricing_plan_id":"cebpf4jnsgd1na2vs0mg"},{"bike_id":"a6c300c0-bb97-4550-9eea-fbf7a2a9c4ee","system_id":"levelo_inurba_marseille","lat":43.285988,"lon":5.370641,"is_reserved":false,"is_disabled":false,"rental_uris":{"android":"levelo://app?vid=a6c300c0-bb97-4550-9eea-fbf7a2a9c4ee","ios":"levelo://app?vid=a6c300c0-bb97-4550-9eea-fbf7a2a9c4ee"},"vehicle_type_id":"4","last_reported":1743164279,"current_range_meters":10800,"station_id":"","pricing_plan_id":"cebpf4jnsgd1na2vs0mg"},{"bike_id":"74360686-d570-45c3-9b4c-fe8144a56c72","system_id":"levelo_inurba_marseille","lat":43.27824,"lon":5.407,"is_reserved":false,"is_disabled":false,"rental_uris":{"android":"levelo://app?vid=74360686-d570-45c3-9b4c-fe8144a56c72","ios":"levelo://app?vid=74360686-d570-45c3-9b4c-fe8144a56c72"},"vehicle_type_id":"4","last_reported":1743164279,"current_range_meters":10800,"station_id":"ce4bhnh2rcd13ifvqgtg","pricing_plan_id":"cebpf4jnsgd1na2vs0mg"},{"bike_id":"4f52466c-29c3-4eab-bb2d-2e4d5b61dbce","system_id":"levelo_inurba_marseille","lat":43.28274,"lon":5.35078,"is_reserved":false,"is_disabled":false,"rental_uris":{"android":"levelo://app?vid=4f52466c-29c3-4eab-bb2d-2e4d5b61dbce","ios":"levelo://app?vid=4f52466c-29c3-4eab-bb2d-2e4d5b61dbce"},"vehicle_type_id":"4","last_reported":1743164279,"current_range_meters":10800,"station_id":"ce4bhbp2rcd13ifvqerg","pricing_plan_id":"cebpf4jnsgd1na2vs0mg"},{"bike_id":"a3dcdf8f-122c-4ecd-8257-4198832734a4","system_id":"levelo_inurba_marseille","lat":43.25121,"lon":5.4031,"is_reserved":false,"is_disabled":false,"rental_uris":{"android":"levelo://app?vid=a3dcdf8f-122c-4ecd-8257-4198832734a4","ios":"levelo://app?vid=a3dcdf8f-122c-4ecd-8257-4198832734a4"},"vehicle_type_id":"4","last_reported":1743164279,"current_range_meters":10800,"station_id":"ce4bhlh2rcd13ifvqgig","pricing_plan_id":"cebpf4jnsgd1na2vs0mg"},{"bike_id":"74bb3be4-214a-4907-a0a6-cb5edcf13a83","system_id":"levelo_inurba_marseille","lat":43.29723,"lon":5.3658,"is_reserved":false,"is_disabled":true,"rental_uris":{"android":"levelo://app?vid=74bb3be4-214a-4907-a0a6-cb5edcf13a83","ios":"levelo://app?vid=74bb3be4-214a-4907-a0a6-cb5edcf13a83"},"vehicle_type_id":"4","last_reported":1743164279,"current_range_meters":10800,"station_id":"ce4bgn12rcd13ifvqbt0","pricing_plan_id":"cebpf4jnsgd1na2vs0mg"},{"bike_id":"4f99b80a-b483-4387-8ea8-cfb49d8cc427","system_id":"levelo_inurba_marseille","lat":43.28481,"lon":5.38411,"is_reserved":false,"is_disabled":false,"rental_uris":{"android":"levelo://app?vid=4f99b80a-b483-4387-8ea8-cfb49d8cc427","ios":"levelo://app?vid=4f99b80a-b483-4387-8ea8-cfb49d8cc427"},"vehicle_type_id":"4","last_reported":1743164279,"current_range_meters":11200,"station_id":"ce4bh512rcd13ifvqe3g","pricing_plan_id":"cebpf4jnsgd1na2vs0mg"},{"bike_id":"3fbcdfd8-5176-471d-aa84-e8e20bb4418e","system_id":"levelo_inurba_marseille","lat":43.32116,"lon":5.3678,"is_reserved":false,"is_disabled":false,"rental_uris":{"android":"levelo://app?vid=3fbcdfd8-5176-471d-aa84-e8e20bb4418e","ios":"levelo://app?vid=3fbcdfd8-5176-471d-aa84-e8e20bb4418e"},"vehicle_type_id":"4","last_reported":1743164279,"current_range_meters":11200,"station_id":"ce4bhrh2rcd13ifvqhug","pricing_plan_id":"cebpf4jnsgd1na2vs0mg"},{"bike_id":"7a8acbf9-cf40-4e87-857d-c80ad27fbb9a","system_id":"levelo_inurba_marseille","lat":43.30316,"lon":5.37699,"is_reserved":false,"is_disabled":false,"rental_uris":{"android":"levelo://app?vid=7a8acbf9-cf40-4e87-857d-c80ad27fbb9a","ios":"levelo://app?vid=7a8acbf9-cf40-4e87-857d-c80ad27fbb9a"},"vehicle_type_id":"4","last_reported":1743164279,"current_range_meters":11200,"station_id":"ce4bguh2rcd13ifvqcj0","pricing_plan_id":"cebpf4jnsgd1na2vs0mg"},{"bike_id":"514786c5-60f1-452b-b297-d34aa3c1862b","system_id":"levelo_inurba_marseille","lat":43.27618,"lon":5.36113,"is_reserved":false,"is_disabled":false,"rental_uris":{"android":"levelo://app?vid=514786c5-60f1-452b-b297-d34aa3c1862b","ios":"levelo://app?vid=514786c5-60f1-452b-b297-d34aa3c1862b"},"vehicle_type_id":"4","last_reported":1743164279,"current_range_meters":0,"station_id":"ce4bgj92rcd13ifvqbe0","pricing_plan_id":"cebpf4jnsgd1na2vs0mg"},{"bike_id":"aeee719e-56c9-4414-9561-e5b2a78b28a9","system_id":"levelo_inurba_marseille","lat":43.25079,"lon":5.39519,"is_reserved":false,"is_disabled":false,"rental_uris":{"android":"levelo://app?vid=aeee719e-56c9-4414-9561-e5b2a78b28a9","ios":"levelo://app?vid=aeee719e-56c9-4414-9561-e5b2a78b28a9"},"vehicle_type_id":"4","last_reported":1743164279,"current_range_meters":11200,"station_id":"ce4bhm12rcd13ifvqgkg","pricing_plan_id":"cebpf4jnsgd1na2vs0mg"},{"bike_id":"f3ec13dc-1411-46ef-b289-c8335d1ac1c9","system_id":"levelo_inurba_marseille","lat":43.28377,"lon":5.38643,"is_reserved":false,"is_disabled":false,"rental_uris":{"android":"levelo://app?vid=f3ec13dc-1411-46ef-b289-c8335d1ac1c9","ios":"levelo://app?vid=f3ec13dc-1411-46ef-b289-c8335d1ac1c9"},"vehicle_type_id":"4","last_reported":1743164279,"current_range_meters":10800,"station_id":"ce4bh492rcd13ifvqdvg","pricing_plan_id":"cebpf4jnsgd1na2vs0mg"},{"bike_id":"0f2d06e1-be65-45bd-9427-c365d33cea0e","system_id":"levelo_inurba_marseille","lat":43.30906,"lon":5.36844,"is_reserved":false,"is_disabled":false,"rental_uris":{"android":"levelo://app?vid=0f2d06e1-be65-45bd-9427-c365d33cea0e","ios":"levelo://app?vid=0f2d06e1-be65-45bd-9427-c365d33cea0e"},"vehicle_type_id":"4","last_reported":1743164279,"current_range_meters":11200,"station_id":"ce4bgn92rcd13ifvqbvg","pricing_plan_id":"cebpf4jnsgd1na2vs0mg"},{"bike_id":"939545b8-b56f-4a60-a60e-6fbdb25b5c2d","system_id":"levelo_inurba_marseille","lat":43.2919,"lon":5.35797,"is_reserved":false,"is_disabled":false,"rental_uris":{"android":"levelo://app?vid=939545b8-b56f-4a60-a60e-6fbdb25b5c2d","ios":"levelo://app?vid=939545b8-b56f-4a60-a60e-6fbdb25b5c2d"},"vehicle_type_id":"4","last_reported":1743164279,"current_range_meters":10800,"station_id":"ce4bhb12rcd13ifvqel0","pricing_plan_id":"cebpf4jnsgd1na2vs0mg"},{"bike_id":"e89c9d0e-db60-4a8d-86d7-d29e030fdb47","system_id":"levelo_inurba_marseille","lat":43.30209,"lon":5.39466,"is_reserved":false,"is_disabled":false,"rental_uris":{"android":"levelo://app?vid=e89c9d0e-db60-4a8d-86d7-d29e030fdb47","ios":"levelo://app?vid=e89c9d0e-db60-4a8d-86d7-d29e030fdb47"},"vehicle_type_id":"4","last_reported":1743164279,"current_range_meters":11200,"station_id":"ce4bh0p2rcd13ifvqd70","pricing_plan_id":"cebpf4jnsgd1na2vs0mg"},{"bike_id":"8c740aa7-c288-4bee-bba3-bfa8560b37ac","system_id":"levelo_inurba_marseille","lat":43.26206,"lon":5.37928,"is_reserved":false,"is_disabled":false,"rental_uris":{"android":"levelo://app?vid=8c740aa7-c288-4bee-bba3-bfa8560b37ac","ios":"levelo://app?vid=8c740aa7-c288-4bee-bba3-bfa8560b37ac"},"vehicle_type_id":"4","last_reported":1743164279,"current_range_meters":11600,"station_id":"ce4bhjp2rcd13ifvqg90","pricing_plan_id":"cebpf4jnsgd1na2vs0mg"},{"bike_id":"55f704b7-903b-4c3e-8e76-f22266ee0b2d","system_id":"levelo_inurba_marseille","lat":43.26554,"lon":5.37284,"is_reserved":false,"is_disabled":false,"rental_uris":{"android":"levelo://app?vid=55f704b7-903b-4c3e-8e76-f22266ee0b2d","ios":"levelo://app?vid=55f704b7-903b-4c3e-8e76-f22266ee0b2d"},"vehicle_type_id":"4","last_reported":1743164279,"current_range_meters":11600,"station_id":"ce4bhg12rcd13ifvqf70","pricing_plan_id":"cebpf4jnsgd1na2vs0mg"},{"bike_id":"6cbddcc1-9609-4503-9874-4b78c26df24e","system_id":"levelo_inurba_marseille","lat":43.32147,"lon":5.3683,"is_reserved":false,"is_disabled":false,"rental_uris":{"android":"levelo://app?vid=6cbddcc1-9609-4503-9874-4b78c26df24e","ios":"levelo://app?vid=6cbddcc1-9609-4503-9874-4b78c26df24e"},"vehicle_type_id":"4","last_reported":1743164279,"current_range_meters":11600,"station_id":"ce4bhrh2rcd13ifvqhug","pricing_plan_id":"cebpf4jnsgd1na2vs0mg"},{"bike_id":"f52347bc-84e4-4835-9729-de38ede08611","system_id":"levelo_inurba_marseille","lat":43.29536,"lon":5.39405,"is_reserved":false,"is_disabled":false,"rental_uris":{"android":"levelo://app?vid=f52347bc-84e4-4835-9729-de38ede08611","ios":"levelo://app?vid=f52347bc-84e4-4835-9729-de38ede08611"},"vehicle_type_id":"4","last_reported":1743164279,"current_range_meters":11600,"station_id":"ce4bhop2rcd13ifvqh8g","pricing_plan_id":"cebpf4jnsgd1na2vs0mg"},{"bike_id":"666754fe-4743-4afe-abb2-10e0bfd88001","system_id":"levelo_inurba_marseille","lat":43.29919,"lon":5.37475,"is_reserved":false,"is_disabled":false,"rental_uris":{"android":"levelo://app?vid=666754fe-4743-4afe-abb2-10e0bfd88001","ios":"levelo://app?vid=666754fe-4743-4afe-abb2-10e0bfd88001"},"vehicle_type_id":"4","last_reported":1743164279,"current_range_meters":11600,"station_id":"ce4bgjh2rcd13ifvqbg0","pricing_plan_id":"cebpf4jnsgd1na2vs0mg"},{"bike_id":"c69eb21e-c49e-413a-8ccd-27975e687c94","system_id":"levelo_inurba_marseille","lat":43.26958,"lon":5.38632,"is_reserved":false,"is_disabled":false,"rental_uris":{"android":"levelo://app?vid=c69eb21e-c49e-413a-8ccd-27975e687c94","ios":"levelo://app?vid=c69eb21e-c49e-413a-8ccd-27975e687c94"},"vehicle_type_id":"4","last_reported":1743164279,"current_range_meters":11600,"station_id":"ce4bhh92rcd13ifvqfh0","pricing_plan_id":"cebpf4jnsgd1na2vs0mg"},{"bike_id":"06f4a67a-b922-473c-9074-32f848be455f","system_id":"levelo_inurba_marseille","lat":43.23143,"lon":5.43725,"is_reserved":false,"is_disabled":false,"rental_uris":{"android":"levelo://app?vid=06f4a67a-b922-473c-9074-32f848be455f","ios":"levelo://app?vid=06f4a67a-b922-473c-9074-32f848be455f"},"vehicle_type_id":"4","last_reported":1743164279,"current_range_meters":11600,"station_id":"ce4bhmp2rcd13ifvqgog","pricing_plan_id":"cebpf4jnsgd1na2vs0mg"},{"bike_id":"4068a412-e485-4789-beab-0501196ae332","system_id":"levelo_inurba_marseille","lat":43.28361,"lon":5.38638,"is_reserved":false,"is_disabled":false,"rental_uris":{"android":"levelo://app?vid=4068a412-e485-4789-beab-0501196ae332","ios":"levelo://app?vid=4068a412-e485-4789-beab-0501196ae332"},"vehicle_type_id":"4","last_reported":1743164279,"current_range_meters":11600,"station_id":"ce4bh492rcd13ifvqdvg","pricing_plan_id":"cebpf4jnsgd1na2vs0mg"},{"bike_id":"dd48d129-4432-4017-a552-8dd11ccac955","system_id":"levelo_inurba_marseille","lat":43.28274,"lon":5.3507,"is_reserved":false,"is_disabled":false,"rental_uris":{"android":"levelo://app?vid=dd48d129-4432-4017-a552-8dd11ccac955","ios":"levelo://app?vid=dd48d129-4432-4017-a552-8dd11ccac955"},"vehicle_type_id":"4","last_reported":1743164279,"current_range_meters":11600,"station_id":"ce4bhbp2rcd13ifvqerg","pricing_plan_id":"cebpf4jnsgd1na2vs0mg"},{"bike_id":"39ea9b72-b36d-4fca-9b38-2d6234508e2b","system_id":"levelo_inurba_marseille","lat":43.27377,"lon":5.36267,"is_reserved":false,"is_disabled":false,"rental_uris":{"android":"levelo://app?vid=39ea9b72-b36d-4fca-9b38-2d6234508e2b","ios":"levelo://app?vid=39ea9b72-b36d-4fca-9b38-2d6234508e2b"},"vehicle_type_id":"4","last_reported":1743164279,"current_range_meters":11600,"station_id":"ce4bhbh2rcd13ifvqeo0","pricing_plan_id":"cebpf4jnsgd1na2vs0mg"},{"bike_id":"68e9fc26-8998-4bf7-8da8-af47209f9b7c","system_id":"levelo_inurba_marseille","lat":43.32105,"lon":5.36764,"is_reserved":false,"is_disabled":false,"rental_uris":{"android":"levelo://app?vid=68e9fc26-8998-4bf7-8da8-af47209f9b7c","ios":"levelo://app?vid=68e9fc26-8998-4bf7-8da8-af47209f9b7c"},"vehicle_type_id":"4","last_reported":1743164279,"current_range_meters":11600,"station_id":"ce4bhrh2rcd13ifvqhug","pricing_plan_id":"cebpf4jnsgd1na2vs0mg"},{"bike_id":"65c86302-8ef0-46f4-ab6e-bac7149a2865","system_id":"levelo_inurba_marseille","lat":43.32111,"lon":5.3676,"is_reserved":false,"is_disabled":false,"rental_uris":{"android":"levelo://app?vid=65c86302-8ef0-46f4-ab6e-bac7149a2865","ios":"levelo://app?vid=65c86302-8ef0-46f4-ab6e-bac7149a2865"},"vehicle_type_id":"4","last_reported":1743164279,"current_range_meters":11600,"station_id":"ce4bhrh2rcd13ifvqhug","pricing_plan_id":"cebpf4jnsgd1na2vs0mg"},{"bike_id":"32612ce0-330c-42b2-98f4-477bbb788ad1","system_id":"levelo_inurba_marseille","lat":43.30594,"lon":5.37231,"is_reserved":false,"is_disabled":false,"rental_uris":{"android":"levelo://app?vid=32612ce0-330c-42b2-98f4-477bbb788ad1","ios":"levelo://app?vid=32612ce0-330c-42b2-98f4-477bbb788ad1"},"vehicle_type_id":"4","last_reported":1743164279,"current_range_meters":11200,"station_id":"ce4bgqh2rcd13ifvqc4g","pricing_plan_id":"cebpf4jnsgd1na2vs0mg"},{"bike_id":"d2be6ce3-8e79-4804-b0d3-008c875e7b9d","system_id":"levelo_inurba_marseille","lat":43.26249,"lon":5.3792,"is_reserved":false,"is_disabled":false,"rental_uris":{"android":"levelo://app?vid=d2be6ce3-8e79-4804-b0d3-008c875e7b9d","ios":"levelo://app?vid=d2be6ce3-8e79-4804-b0d3-008c875e7b9d"},"vehicle_type_id":"4","last_reported":1743164279,"current_range_meters":12000,"station_id":"","pricing_plan_id":"cebpf4jnsgd1na2vs0mg"},{"bike_id":"8ce57e29-9e4e-4c4b-9eac-25dbada77966","system_id":"levelo_inurba_marseille","lat":43.27627,"lon":5.36118,"is_reserved":false,"is_disabled":false,"rental_uris":{"android":"levelo://app?vid=8ce57e29-9e4e-4c4b-9eac-25dbada77966","ios":"levelo://app?vid=8ce57e29-9e4e-4c4b-9eac-25dbada77966"},"vehicle_type_id":"4","last_reported":1743164279,"current_range_meters":12000,"station_id":"ce4bgj92rcd13ifvqbe0","pricing_plan_id":"cebpf4jnsgd1na2vs0mg"},{"bike_id":"6082a6d8-29f3-4441-bd82-d0f95ead75d7","system_id":"levelo_inurba_marseille","lat":43.23196,"lon":5.35536,"is_reserved":false,"is_disabled":false,"rental_uris":{"android":"levelo://app?vid=6082a6d8-29f3-4441-bd82-d0f95ead75d7","ios":"levelo://app?vid=6082a6d8-29f3-4441-bd82-d0f95ead75d7"},"vehicle_type_id":"4","last_reported":1743164279,"current_range_meters":12000,"station_id":"ce4bhu92rcd13ifvqi70","pricing_plan_id":"cebpf4jnsgd1na2vs0mg"},{"bike_id":"aed2caaf-e63e-4d9f-9fab-effd4b56045d","system_id":"levelo_inurba_marseille","lat":43.26225,"lon":5.40436,"is_reserved":false,"is_disabled":false,"rental_uris":{"android":"levelo://app?vid=aed2caaf-e63e-4d9f-9fab-effd4b56045d","ios":"levelo://app?vid=aed2caaf-e63e-4d9f-9fab-effd4b56045d"},"vehicle_type_id":"4","last_reported":1743164279,"current_range_meters":12000,"station_id":"ce4bhmh2rcd13ifvqgmg","pricing_plan_id":"cebpf4jnsgd1na2vs0mg"},{"bike_id":"53554dd0-ab58-4c6c-97f5-ca5e02b02fd9","system_id":"levelo_inurba_marseille","lat":43.28573,"lon":5.39486,"is_reserved":false,"is_disabled":false,"rental_uris":{"android":"levelo://app?vid=53554dd0-ab58-4c6c-97f5-ca5e02b02fd9","ios":"levelo://app?vid=53554dd0-ab58-4c6c-97f5-ca5e02b02fd9"},"vehicle_type_id":"4","last_reported":1743164279,"current_range_meters":12000,"station_id":"ce4bh292rcd13ifvqdg0","pricing_plan_id":"cebpf4jnsgd1na2vs0mg"},{"bike_id":"d844ab2d-c075-4158-bf4f-052f7881809a","system_id":"levelo_inurba_marseille","lat":43.28274,"lon":5.35069,"is_reserved":false,"is_disabled":false,"rental_uris":{"android":"levelo://app?vid=d844ab2d-c075-4158-bf4f-052f7881809a","ios":"levelo://app?vid=d844ab2d-c075-4158-bf4f-052f7881809a"},"vehicle_type_id":"4","last_reported":1743164279,"current_range_meters":12000,"station_id":"ce4bhbp2rcd13ifvqerg","pricing_plan_id":"cebpf4jnsgd1na2vs0mg"},{"bike_id":"fb348b09-6abb-47a4-a266-91f2eeaee291","system_id":"levelo_inurba_marseille","lat":43.32098,"lon":5.36807,"is_reserved":false,"is_disabled":false,"rental_uris":{"android":"levelo://app?vid=fb348b09-6abb-47a4-a266-91f2eeaee291","ios":"levelo://app?vid=fb348b09-6abb-47a4-a266-91f2eeaee291"},"vehicle_type_id":"4","last_reported":1743164279,"current_range_meters":12400,"station_id":"ce4bhrh2rcd13ifvqhug","pricing_plan_id":"cebpf4jnsgd1na2vs0mg"},{"bike_id":"c6c8fb31-86de-4758-859b-e74b70125ab7","system_id":"levelo_inurba_marseille","lat":43.32124,"lon":5.36782,"is_reserved":false,"is_disabled":false,"rental_uris":{"android":"levelo://app?vid=c6c8fb31-86de-4758-859b-e74b70125ab7","ios":"levelo://app?vid=c6c8fb31-86de-4758-859b-e74b70125ab7"},"vehicle_type_id":"4","last_reported":1743164279,"current_range_meters":12400,"station_id":"ce4bhrh2rcd13ifvqhug","pricing_plan_id":"cebpf4jnsgd1na2vs0mg"},{"bike_id":"9462a91b-8b4b-430a-ac7a-4612f1bebb31","system_id":"levelo_inurba_marseille","lat":43.29087,"lon":5.38158,"is_reserved":false,"is_disabled":true,"rental_uris":{"android":"levelo://app?vid=9462a91b-8b4b-430a-ac7a-4612f1bebb31","ios":"levelo://app?vid=9462a91b-8b4b-430a-ac7a-4612f1bebb31"},"vehicle_type_id":"4","last_reported":1743164279,"current_range_meters":12400,"station_id":"ce4bh512rcd13ifvqe2g","pricing_plan_id":"cebpf4jnsgd1na2vs0mg"},{"bike_id":"9f2583cf-461d-4d57-8c37-99ef1e89cade","system_id":"levelo_inurba_marseille","lat":43.23199,"lon":5.35555,"is_reserved":false,"is_disabled":false,"rental_uris":{"android":"levelo://app?vid=9f2583cf-461d-4d57-8c37-99ef1e89cade","ios":"levelo://app?vid=9f2583cf-461d-4d57-8c37-99ef1e89cade"},"vehicle_type_id":"4","last_reported":1743164279,"current_range_meters":12400,"station_id":"ce4bhu92rcd13ifvqi70","pricing_plan_id":"cebpf4jnsgd1na2vs0mg"},{"bike_id":"e4cda1a5-ed5a-4080-bd26-0b718e550ad4","system_id":"levelo_inurba_marseille","lat":43.28159,"lon":5.42625,"is_reserved":false,"is_disabled":true,"rental_uris":{"android":"levelo://app?vid=e4cda1a5-ed5a-4080-bd26-0b718e550ad4","ios":"levelo://app?vid=e4cda1a5-ed5a-4080-bd26-0b718e550ad4"},"vehicle_type_id":"4","last_reported":1743164279,"current_range_meters":12800,"station_id":"ce4bhnh2rcd13ifvqgug","pricing_plan_id":"cebpf4jnsgd1na2vs0mg"},{"bike_id":"dbee6a00-a85c-4692-adfd-061e6e30d571","system_id":"levelo_inurba_marseille","lat":43.29321,"lon":5.37199,"is_reserved":false,"is_disabled":false,"rental_uris":{"android":"levelo://app?vid=dbee6a00-a85c-4692-adfd-061e6e30d571","ios":"levelo://app?vid=dbee6a00-a85c-4692-adfd-061e6e30d571"},"vehicle_type_id":"4","last_reported":1743164279,"current_range_meters":12400,"station_id":"ce4bgh92rcd13ifvqb40","pricing_plan_id":"cebpf4jnsgd1na2vs0mg"},{"bike_id":"d8cf8927-2917-43e0-a6d8-23c8938b7837","system_id":"levelo_inurba_marseille","lat":43.28263,"lon":5.35069,"is_reserved":false,"is_disabled":false,"rental_uris":{"android":"levelo://app?vid=d8cf8927-2917-43e0-a6d8-23c8938b7837","ios":"levelo://app?vid=d8cf8927-2917-43e0-a6d8-23c8938b7837"},"vehicle_type_id":"4","last_reported":1743164279,"current_range_meters":12800,"station_id":"ce4bhbp2rcd13ifvqerg","pricing_plan_id":"cebpf4jnsgd1na2vs0mg"},{"bike_id":"9f4a7ed6-290f-4ac1-b05e-471b2f21c37d","system_id":"levelo_inurba_marseille","lat":43.27378,"lon":5.36259,"is_reserved":false,"is_disabled":false,"rental_uris":{"android":"levelo://app?vid=9f4a7ed6-290f-4ac1-b05e-471b2f21c37d","ios":"levelo://app?vid=9f4a7ed6-290f-4ac1-b05e-471b2f21c37d"},"vehicle_type_id":"4","last_reported":1743164279,"current_range_meters":12800,"station_id":"ce4bhbh2rcd13ifvqeo0","pricing_plan_id":"cebpf4jnsgd1na2vs0mg"},{"bike_id":"641adfb4-7dbd-41ea-af74-3b8a1e5fd438","system_id":"levelo_inurba_marseille","lat":43.29012,"lon":5.35605,"is_reserved":false,"is_disabled":false,"rental_uris":{"android":"levelo://app?vid=641adfb4-7dbd-41ea-af74-3b8a1e5fd438","ios":"levelo://app?vid=641adfb4-7dbd-41ea-af74-3b8a1e5fd438"},"vehicle_type_id":"4","last_reported":1743164279,"current_range_meters":12800,"station_id":"ce4bhb92rcd13ifvqen0","pricing_plan_id":"cebpf4jnsgd1na2vs0mg"},{"bike_id":"4e13cf74-0b1e-4513-9bc4-fe5db171b617","system_id":"levelo_inurba_marseille","lat":43.26225,"lon":5.37917,"is_reserved":false,"is_disabled":false,"rental_uris":{"android":"levelo://app?vid=4e13cf74-0b1e-4513-9bc4-fe5db171b617","ios":"levelo://app?vid=4e13cf74-0b1e-4513-9bc4-fe5db171b617"},"vehicle_type_id":"4","last_reported":1743164279,"current_range_meters":12800,"station_id":"ce4bhjp2rcd13ifvqg90","pricing_plan_id":"cebpf4jnsgd1na2vs0mg"},{"bike_id":"735fda06-8c0d-454e-98b5-b2c1b3f34c8f","system_id":"levelo_inurba_marseille","lat":43.23155,"lon":5.43724,"is_reserved":false,"is_disabled":false,"rental_uris":{"android":"levelo://app?vid=735fda06-8c0d-454e-98b5-b2c1b3f34c8f","ios":"levelo://app?vid=735fda06-8c0d-454e-98b5-b2c1b3f34c8f"},"vehicle_type_id":"4","last_reported":1743164279,"current_range_meters":12800,"station_id":"ce4bhmp2rcd13ifvqgog","pricing_plan_id":"cebpf4jnsgd1na2vs0mg"},{"bike_id":"9cec4b83-61a5-449e-a3b6-0eb2c38cd09a","system_id":"levelo_inurba_marseille","lat":43.264975,"lon":5.3956,"is_reserved":false,"is_disabled":false,"rental_uris":{"android":"levelo://app?vid=9cec4b83-61a5-449e-a3b6-0eb2c38cd09a","ios":"levelo://app?vid=9cec4b83-61a5-449e-a3b6-0eb2c38cd09a"},"vehicle_type_id":"4","last_reported":1743164279,"current_range_meters":13600,"station_id":"ce4bhi12rcd13ifvqfq0","pricing_plan_id":"cebpf4jnsgd1na2vs0mg"},{"bike_id":"435be48f-a76b-49c3-89da-9fc29a72ffba","system_id":"levelo_inurba_marseille","lat":43.2977,"lon":5.37099,"is_reserved":false,"is_disabled":false,"rental_uris":{"android":"levelo://app?vid=435be48f-a76b-49c3-89da-9fc29a72ffba","ios":"levelo://app?vid=435be48f-a76b-49c3-89da-9fc29a72ffba"},"vehicle_type_id":"4","last_reported":1743164279,"current_range_meters":12800,"station_id":"ce4bgop2rcd13ifvqc1g","pricing_plan_id":"cebpf4jnsgd1na2vs0mg"},{"bike_id":"40f5f579-1608-4e54-bd1f-efccc656b1e9","system_id":"levelo_inurba_marseille","lat":43.30553,"lon":5.38433,"is_reserved":false,"is_disabled":false,"rental_uris":{"android":"levelo://app?vid=40f5f579-1608-4e54-bd1f-efccc656b1e9","ios":"levelo://app?vid=40f5f579-1608-4e54-bd1f-efccc656b1e9"},"vehicle_type_id":"4","last_reported":1743164279,"current_range_meters":12800,"station_id":"ce4bgg92rcd13ifvqb30","pricing_plan_id":"cebpf4jnsgd1na2vs0mg"},{"bike_id":"8111f39f-d077-4179-af0a-0cee03a3a69c","system_id":"levelo_inurba_marseille","lat":43.29923,"lon":5.37475,"is_reserved":false,"is_disabled":false,"rental_uris":{"android":"levelo://app?vid=8111f39f-d077-4179-af0a-0cee03a3a69c","ios":"levelo://app?vid=8111f39f-d077-4179-af0a-0cee03a3a69c"},"vehicle_type_id":"4","last_reported":1743164279,"current_range_meters":13600,"station_id":"ce4bgjh2rcd13ifvqbg0","pricing_plan_id":"cebpf4jnsgd1na2vs0mg"},{"bike_id":"aceadaa2-db7b-4a54-8776-2e3d27bd71ec","system_id":"levelo_inurba_marseille","lat":43.25886,"lon":5.40964,"is_reserved":false,"is_disabled":false,"rental_uris":{"android":"levelo://app?vid=aceadaa2-db7b-4a54-8776-2e3d27bd71ec","ios":"levelo://app?vid=aceadaa2-db7b-4a54-8776-2e3d27bd71ec"},"vehicle_type_id":"4","last_reported":1743164279,"current_range_meters":13600,"station_id":"","pricing_plan_id":"cebpf4jnsgd1na2vs0mg"},{"bike_id":"4606cdc8-4680-4d2d-ba4f-58b54cf1848f","system_id":"levelo_inurba_marseille","lat":43.30156,"lon":5.38085,"is_reserved":false,"is_disabled":false,"rental_uris":{"android":"levelo://app?vid=4606cdc8-4680-4d2d-ba4f-58b54cf1848f","ios":"levelo://app?vid=4606cdc8-4680-4d2d-ba4f-58b54cf1848f"},"vehicle_type_id":"4","last_reported":1743164279,"current_range_meters":12800,"station_id":"ce4bgjp2rcd13ifvqbh0","pricing_plan_id":"cebpf4jnsgd1na2vs0mg"},{"bike_id":"eb9df5c2-ff50-4c61-81e3-d9d3b5e137bd","system_id":"levelo_inurba_marseille","lat":43.25723,"lon":5.41107,"is_reserved":false,"is_disabled":false,"rental_uris":{"android":"levelo://app?vid=eb9df5c2-ff50-4c61-81e3-d9d3b5e137bd","ios":"levelo://app?vid=eb9df5c2-ff50-4c61-81e3-d9d3b5e137bd"},"vehicle_type_id":"4","last_reported":1743164279,"current_range_meters":13600,"station_id":"ce4bhkp2rcd13ifvqgd0","pricing_plan_id":"cebpf4jnsgd1na2vs0mg"},{"bike_id":"eab3b318-ab24-45d5-b928-412f7a7a3638","system_id":"levelo_inurba_marseille","lat":43.29975,"lon":5.37177,"is_reserved":false,"is_disabled":false,"rental_uris":{"android":"levelo://app?vid=eab3b318-ab24-45d5-b928-412f7a7a3638","ios":"levelo://app?vid=eab3b318-ab24-45d5-b928-412f7a7a3638"},"vehicle_type_id":"4","last_reported":1743164279,"current_range_meters":13600,"station_id":"ce4bgr92rcd13ifvqc7g","pricing_plan_id":"cebpf4jnsgd1na2vs0mg"},{"bike_id":"dd46fab5-7e5a-46a8-9b08-d025ab434115","system_id":"levelo_inurba_marseille","lat":43.30431,"lon":5.38897,"is_reserved":false,"is_disabled":false,"rental_uris":{"android":"levelo://app?vid=dd46fab5-7e5a-46a8-9b08-d025ab434115","ios":"levelo://app?vid=dd46fab5-7e5a-46a8-9b08-d025ab434115"},"vehicle_type_id":"4","last_reported":1743164279,"current_range_meters":13600,"station_id":"ce4bgk12rcd13ifvqbi0","pricing_plan_id":"cebpf4jnsgd1na2vs0mg"},{"bike_id":"478832ba-4093-441b-9d36-acb3f1b0611a","system_id":"levelo_inurba_marseille","lat":43.28357,"lon":5.38119,"is_reserved":false,"is_disabled":false,"rental_uris":{"android":"levelo://app?vid=478832ba-4093-441b-9d36-acb3f1b0611a","ios":"levelo://app?vid=478832ba-4093-441b-9d36-acb3f1b0611a"},"vehicle_type_id":"4","last_reported":1743164279,"current_range_meters":14000,"station_id":"ce4bh412rcd13ifvqdr0","pricing_plan_id":"cebpf4jnsgd1na2vs0mg"},{"bike_id":"10db6db3-9691-40a7-9fb1-03d0dff3c95b","system_id":"levelo_inurba_marseille","lat":43.27069,"lon":5.42276,"is_reserved":false,"is_disabled":false,"rental_uris":{"android":"levelo://app?vid=10db6db3-9691-40a7-9fb1-03d0dff3c95b","ios":"levelo://app?vid=10db6db3-9691-40a7-9fb1-03d0dff3c95b"},"vehicle_type_id":"4","last_reported":1743164279,"current_range_meters":13600,"station_id":"ce4bhk92rcd13ifvqgb0","pricing_plan_id":"cebpf4jnsgd1na2vs0mg"},{"bike_id":"ede20201-4217-4adb-9c77-4c89ffb74fe3","system_id":"levelo_inurba_marseille","lat":43.29529,"lon":5.38551,"is_reserved":false,"is_disabled":false,"rental_uris":{"android":"levelo://app?vid=ede20201-4217-4adb-9c77-4c89ffb74fe3","ios":"levelo://app?vid=ede20201-4217-4adb-9c77-4c89ffb74fe3"},"vehicle_type_id":"4","last_reported":1743164279,"current_range_meters":14800,"station_id":"ce4bgih2rcd13ifvqba0","pricing_plan_id":"cebpf4jnsgd1na2vs0mg"},{"bike_id":"983c4c9f-ee1a-4d13-8ce7-bfd36c479f46","system_id":"levelo_inurba_marseille","lat":43.241705,"lon":5.36398,"is_reserved":false,"is_disabled":false,"rental_uris":{"android":"levelo://app?vid=983c4c9f-ee1a-4d13-8ce7-bfd36c479f46","ios":"levelo://app?vid=983c4c9f-ee1a-4d13-8ce7-bfd36c479f46"},"vehicle_type_id":"4","last_reported":1743164279,"current_range_meters":14400,"station_id":"cpo36qri1sfpv3e86is0","pricing_plan_id":"cebpf4jnsgd1na2vs0mg"},{"bike_id":"d67d8652-0f04-45a0-b34d-bbd8839b9d56","system_id":"levelo_inurba_marseille","lat":43.26309,"lon":5.38815,"is_reserved":false,"is_disabled":false,"rental_uris":{"android":"levelo://app?vid=d67d8652-0f04-45a0-b34d-bbd8839b9d56","ios":"levelo://app?vid=d67d8652-0f04-45a0-b34d-bbd8839b9d56"},"vehicle_type_id":"4","last_reported":1743164279,"current_range_meters":14400,"station_id":"","pricing_plan_id":"cebpf4jnsgd1na2vs0mg"},{"bike_id":"212c8e98-dbd0-430f-965c-a5211ae16902","system_id":"levelo_inurba_marseille","lat":43.25076,"lon":5.39537,"is_reserved":false,"is_disabled":false,"rental_uris":{"android":"levelo://app?vid=212c8e98-dbd0-430f-965c-a5211ae16902","ios":"levelo://app?vid=212c8e98-dbd0-430f-965c-a5211ae16902"},"vehicle_type_id":"4","last_reported":1743164279,"current_range_meters":14400,"station_id":"ce4bhm12rcd13ifvqgkg","pricing_plan_id":"cebpf4jnsgd1na2vs0mg"},{"bike_id":"c52bfc53-9dc3-4674-af50-c4a5cf819bc5","system_id":"levelo_inurba_marseille","lat":43.29922,"lon":5.37461,"is_reserved":false,"is_disabled":false,"rental_uris":{"android":"levelo://app?vid=c52bfc53-9dc3-4674-af50-c4a5cf819bc5","ios":"levelo://app?vid=c52bfc53-9dc3-4674-af50-c4a5cf819bc5"},"vehicle_type_id":"4","last_reported":1743164279,"current_range_meters":14400,"station_id":"ce4bgjh2rcd13ifvqbg0","pricing_plan_id":"cebpf4jnsgd1na2vs0mg"},{"bike_id":"3ef26545-d5f1-4d37-98f1-81c47f66c3fd","system_id":"levelo_inurba_marseille","lat":43.31665,"lon":5.3881,"is_reserved":false,"is_disabled":false,"rental_uris":{"android":"levelo://app?vid=3ef26545-d5f1-4d37-98f1-81c47f66c3fd","ios":"levelo://app?vid=3ef26545-d5f1-4d37-98f1-81c47f66c3fd"},"vehicle_type_id":"4","last_reported":1743164279,"current_range_meters":14400,"station_id":"","pricing_plan_id":"cebpf4jnsgd1na2vs0mg"},{"bike_id":"6b6da6d1-b8d3-43c5-8c81-c955a48b585c","system_id":"levelo_inurba_marseille","lat":43.28672,"lon":5.38662,"is_reserved":false,"is_disabled":false,"rental_uris":{"android":"levelo://app?vid=6b6da6d1-b8d3-43c5-8c81-c955a48b585c","ios":"levelo://app?vid=6b6da6d1-b8d3-43c5-8c81-c955a48b585c"},"vehicle_type_id":"4","last_reported":1743164279,"current_range_meters":14400,"station_id":"ce4bh492rcd13ifvqdug","pricing_plan_id":"cebpf4jnsgd1na2vs0mg"},{"bike_id":"ab5156bd-499e-4940-8af8-200f841ae768","system_id":"levelo_inurba_marseille","lat":43.30376,"lon":5.4249,"is_reserved":false,"is_disabled":false,"rental_uris":{"android":"levelo://app?vid=ab5156bd-499e-4940-8af8-200f841ae768","ios":"levelo://app?vid=ab5156bd-499e-4940-8af8-200f841ae768"},"vehicle_type_id":"4","last_reported":1743164279,"current_range_meters":14400,"station_id":"ce4bhoh2rcd13ifvqh6g","pricing_plan_id":"cebpf4jnsgd1na2vs0mg"},{"bike_id":"e13b96b8-8e79-4c3c-8534-5ad35b5ada23","system_id":"levelo_inurba_marseille","lat":43.29898,"lon":5.43663,"is_reserved":false,"is_disabled":false,"rental_uris":{"android":"levelo://app?vid=e13b96b8-8e79-4c3c-8534-5ad35b5ada23","ios":"levelo://app?vid=e13b96b8-8e79-4c3c-8534-5ad35b5ada23"},"vehicle_type_id":"4","last_reported":1743164279,"current_range_meters":14400,"station_id":"ce4bhpp2rcd13ifvqhfg","pricing_plan_id":"cebpf4jnsgd1na2vs0mg"},{"bike_id":"3efe8d80-6d73-4a45-a6d3-e0a23bb6a5ef","system_id":"levelo_inurba_marseille","lat":43.24658,"lon":5.381635,"is_reserved":false,"is_disabled":false,"rental_uris":{"android":"levelo://app?vid=3efe8d80-6d73-4a45-a6d3-e0a23bb6a5ef","ios":"levelo://app?vid=3efe8d80-6d73-4a45-a6d3-e0a23bb6a5ef"},"vehicle_type_id":"4","last_reported":1743164279,"current_range_meters":14400,"station_id":"ce4bhih2rcd13ifvqfr0","pricing_plan_id":"cebpf4jnsgd1na2vs0mg"},{"bike_id":"68e0c223-7634-4ff4-938f-2150c4c06853","system_id":"levelo_inurba_marseille","lat":43.28464,"lon":5.35883,"is_reserved":false,"is_disabled":false,"rental_uris":{"android":"levelo://app?vid=68e0c223-7634-4ff4-938f-2150c4c06853","ios":"levelo://app?vid=68e0c223-7634-4ff4-938f-2150c4c06853"},"vehicle_type_id":"4","last_reported":1743164279,"current_range_meters":14400,"station_id":"ce4bhah2rcd13ifvqei0","pricing_plan_id":"cebpf4jnsgd1na2vs0mg"},{"bike_id":"5e472880-f315-4080-a8e2-ca345bbb74f6","system_id":"levelo_inurba_marseille","lat":43.29888,"lon":5.3892,"is_reserved":false,"is_disabled":false,"rental_uris":{"android":"levelo://app?vid=5e472880-f315-4080-a8e2-ca345bbb74f6","ios":"levelo://app?vid=5e472880-f315-4080-a8e2-ca345bbb74f6"},"vehicle_type_id":"4","last_reported":1743164279,"current_range_meters":14800,"station_id":"ce4bh392rcd13ifvqdl0","pricing_plan_id":"cebpf4jnsgd1na2vs0mg"},{"bike_id":"73103e82-3c78-4448-b5eb-aee7b464e00e","system_id":"levelo_inurba_marseille","lat":43.28492,"lon":5.38577,"is_reserved":false,"is_disabled":false,"rental_uris":{"android":"levelo://app?vid=73103e82-3c78-4448-b5eb-aee7b464e00e","ios":"levelo://app?vid=73103e82-3c78-4448-b5eb-aee7b464e00e"},"vehicle_type_id":"4","last_reported":1743164279,"current_range_meters":15200,"station_id":"ce4bh8p2rcd13ifvqeb0","pricing_plan_id":"cebpf4jnsgd1na2vs0mg"},{"bike_id":"2c4be945-47f5-4a35-9112-cbec0e0cb109","system_id":"levelo_inurba_marseille","lat":43.265586,"lon":5.372792,"is_reserved":false,"is_disabled":false,"rental_uris":{"android":"levelo://app?vid=2c4be945-47f5-4a35-9112-cbec0e0cb109","ios":"levelo://app?vid=2c4be945-47f5-4a35-9112-cbec0e0cb109"},"vehicle_type_id":"4","last_reported":1743164279,"current_range_meters":15200,"station_id":"ce4bhh92rcd13ifvqfi0","pricing_plan_id":"cebpf4jnsgd1na2vs0mg"},{"bike_id":"33280ab2-74cd-4dc8-a16a-1cdd24f22109","system_id":"levelo_inurba_marseille","lat":43.28481,"lon":5.38423,"is_reserved":false,"is_disabled":false,"rental_uris":{"android":"levelo://app?vid=33280ab2-74cd-4dc8-a16a-1cdd24f22109","ios":"levelo://app?vid=33280ab2-74cd-4dc8-a16a-1cdd24f22109"},"vehicle_type_id":"4","last_reported":1743164279,"current_range_meters":14800,"station_id":"ce4bh512rcd13ifvqe3g","pricing_plan_id":"cebpf4jnsgd1na2vs0mg"},{"bike_id":"32ce4fae-4873-49dc-8820-dde5305b3a27","system_id":"levelo_inurba_marseille","lat":43.26948,"lon":5.38631,"is_reserved":false,"is_disabled":false,"rental_uris":{"android":"levelo://app?vid=32ce4fae-4873-49dc-8820-dde5305b3a27","ios":"levelo://app?vid=32ce4fae-4873-49dc-8820-dde5305b3a27"},"vehicle_type_id":"4","last_reported":1743164279,"current_range_meters":16000,"station_id":"ce4bhh92rcd13ifvqfh0","pricing_plan_id":"cebpf4jnsgd1na2vs0mg"},{"bike_id":"261d5f6d-ea8c-4c0f-8cf2-154d28772696","system_id":"levelo_inurba_marseille","lat":43.298677,"lon":5.397348,"is_reserved":false,"is_disabled":false,"rental_uris":{"android":"levelo://app?vid=261d5f6d-ea8c-4c0f-8cf2-154d28772696","ios":"levelo://app?vid=261d5f6d-ea8c-4c0f-8cf2-154d28772696"},"vehicle_type_id":"4","last_reported":1743164279,"current_range_meters":15200,"station_id":"ce4bh0h2rcd13ifvqd50","pricing_plan_id":"cebpf4jnsgd1na2vs0mg"},{"bike_id":"6ef9525b-64cc-41a4-a913-e8548e7e051a","system_id":"levelo_inurba_marseille","lat":43.29006,"lon":5.35617,"is_reserved":false,"is_disabled":false,"rental_uris":{"android":"levelo://app?vid=6ef9525b-64cc-41a4-a913-e8548e7e051a","ios":"levelo://app?vid=6ef9525b-64cc-41a4-a913-e8548e7e051a"},"vehicle_type_id":"4","last_reported":1743164279,"current_range_meters":15200,"station_id":"ce4bhb92rcd13ifvqen0","pricing_plan_id":"cebpf4jnsgd1na2vs0mg"},{"bike_id":"36afd4fb-5c3d-4b59-be68-f05d3d00a6ac","system_id":"levelo_inurba_marseille","lat":43.29932,"lon":5.36502,"is_reserved":false,"is_disabled":false,"rental_uris":{"android":"levelo://app?vid=36afd4fb-5c3d-4b59-be68-f05d3d00a6ac","ios":"levelo://app?vid=36afd4fb-5c3d-4b59-be68-f05d3d00a6ac"},"vehicle_type_id":"4","last_reported":1743164279,"current_range_meters":16000,"station_id":"ce4bgm92rcd13ifvqbr0","pricing_plan_id":"cebpf4jnsgd1na2vs0mg"},{"bike_id":"4b2323ae-94b8-41f7-9062-4d9bd4bd549e","system_id":"levelo_inurba_marseille","lat":43.24182,"lon":5.36391,"is_reserved":false,"is_disabled":false,"rental_uris":{"android":"levelo://app?vid=4b2323ae-94b8-41f7-9062-4d9bd4bd549e","ios":"levelo://app?vid=4b2323ae-94b8-41f7-9062-4d9bd4bd549e"},"vehicle_type_id":"4","last_reported":1743164279,"current_range_meters":16000,"station_id":"cpo36qri1sfpv3e86is0","pricing_plan_id":"cebpf4jnsgd1na2vs0mg"},{"bike_id":"4bda2c29-7418-40cd-9cb4-c4774b75a656","system_id":"levelo_inurba_marseille","lat":43.26029,"lon":5.37548,"is_reserved":false,"is_disabled":false,"rental_uris":{"android":"levelo://app?vid=4bda2c29-7418-40cd-9cb4-c4774b75a656","ios":"levelo://app?vid=4bda2c29-7418-40cd-9cb4-c4774b75a656"},"vehicle_type_id":"4","last_reported":1743164279,"current_range_meters":15200,"station_id":"ce4bhgh2rcd13ifvqfa0","pricing_plan_id":"cebpf4jnsgd1na2vs0mg"},{"bike_id":"433e2dca-d480-49f1-a166-848f37c66f9e","system_id":"levelo_inurba_marseille","lat":43.27825,"lon":5.40696,"is_reserved":false,"is_disabled":false,"rental_uris":{"android":"levelo://app?vid=433e2dca-d480-49f1-a166-848f37c66f9e","ios":"levelo://app?vid=433e2dca-d480-49f1-a166-848f37c66f9e"},"vehicle_type_id":"4","last_reported":1743164279,"current_range_meters":16000,"station_id":"ce4bhnh2rcd13ifvqgtg","pricing_plan_id":"cebpf4jnsgd1na2vs0mg"},{"bike_id":"5843f25e-8687-403b-b200-a0279bdb33a9","system_id":"levelo_inurba_marseille","lat":43.30505,"lon":5.37884,"is_reserved":false,"is_disabled":false,"rental_uris":{"android":"levelo://app?vid=5843f25e-8687-403b-b200-a0279bdb33a9","ios":"levelo://app?vid=5843f25e-8687-403b-b200-a0279bdb33a9"},"vehicle_type_id":"4","last_reported":1743164279,"current_range_meters":16000,"station_id":"ce4bgup2rcd13ifvqcn0","pricing_plan_id":"cebpf4jnsgd1na2vs0mg"},{"bike_id":"147140e3-4a0b-49e4-a9bb-a323f85a932b","system_id":"levelo_inurba_marseille","lat":43.23208,"lon":5.39985,"is_reserved":false,"is_disabled":false,"rental_uris":{"android":"levelo://app?vid=147140e3-4a0b-49e4-a9bb-a323f85a932b","ios":"levelo://app?vid=147140e3-4a0b-49e4-a9bb-a323f85a932b"},"vehicle_type_id":"4","last_reported":1743164279,"current_range_meters":16000,"station_id":"ce4bhn12rcd13ifvqgqg","pricing_plan_id":"cebpf4jnsgd1na2vs0mg"},{"bike_id":"cc2feb73-2143-4a27-844c-53e99e42e37f","system_id":"levelo_inurba_marseille","lat":43.26963,"lon":5.38622,"is_reserved":false,"is_disabled":false,"rental_uris":{"android":"levelo://app?vid=cc2feb73-2143-4a27-844c-53e99e42e37f","ios":"levelo://app?vid=cc2feb73-2143-4a27-844c-53e99e42e37f"},"vehicle_type_id":"4","last_reported":1743164279,"current_range_meters":16000,"station_id":"ce4bhh92rcd13ifvqfh0","pricing_plan_id":"cebpf4jnsgd1na2vs0mg"},{"bike_id":"8ad82aaa-4faf-4fc5-8abb-51a9b441d8c4","system_id":"levelo_inurba_marseille","lat":43.28719,"lon":5.37937,"is_reserved":false,"is_disabled":false,"rental_uris":{"android":"levelo://app?vid=8ad82aaa-4faf-4fc5-8abb-51a9b441d8c4","ios":"levelo://app?vid=8ad82aaa-4faf-4fc5-8abb-51a9b441d8c4"},"vehicle_type_id":"4","last_reported":1743164279,"current_range_meters":16000,"station_id":"ce4bh9p2rcd13ifvqec0","pricing_plan_id":"cebpf4jnsgd1na2vs0mg"},{"bike_id":"ec664ccc-cc70-47f4-8452-72eb7057fad0","system_id":"levelo_inurba_marseille","lat":43.30156,"lon":5.3809,"is_reserved":false,"is_disabled":false,"rental_uris":{"android":"levelo://app?vid=ec664ccc-cc70-47f4-8452-72eb7057fad0","ios":"levelo://app?vid=ec664ccc-cc70-47f4-8452-72eb7057fad0"},"vehicle_type_id":"4","last_reported":1743164279,"current_range_meters":16400,"station_id":"ce4bgjp2rcd13ifvqbh0","pricing_plan_id":"cebpf4jnsgd1na2vs0mg"},{"bike_id":"52552158-590d-4884-82bb-31a389b7474b","system_id":"levelo_inurba_marseille","lat":43.26809,"lon":5.40251,"is_reserved":false,"is_disabled":false,"rental_uris":{"android":"levelo://app?vid=52552158-590d-4884-82bb-31a389b7474b","ios":"levelo://app?vid=52552158-590d-4884-82bb-31a389b7474b"},"vehicle_type_id":"4","last_reported":1743164279,"current_range_meters":16400,"station_id":"ce501612rcd8frsf0b60","pricing_plan_id":"cebpf4jnsgd1na2vs0mg"},{"bike_id":"afe2a021-521b-4e17-a0be-2467040b9920","system_id":"levelo_inurba_marseille","lat":43.28363,"lon":5.38627,"is_reserved":false,"is_disabled":false,"rental_uris":{"android":"levelo://app?vid=afe2a021-521b-4e17-a0be-2467040b9920","ios":"levelo://app?vid=afe2a021-521b-4e17-a0be-2467040b9920"},"vehicle_type_id":"4","last_reported":1743164279,"current_range_meters":16000,"station_id":"ce4bh492rcd13ifvqdvg","pricing_plan_id":"cebpf4jnsgd1na2vs0mg"},{"bike_id":"a66c344f-6cc3-4818-b011-66e6dbefb3ab","system_id":"levelo_inurba_marseille","lat":43.30183,"lon":5.36622,"is_reserved":false,"is_disabled":false,"rental_uris":{"android":"levelo://app?vid=a66c344f-6cc3-4818-b011-66e6dbefb3ab","ios":"levelo://app?vid=a66c344f-6cc3-4818-b011-66e6dbefb3ab"},"vehicle_type_id":"4","last_reported":1743164279,"current_range_meters":15200,"station_id":"ce4bgrh2rcd13ifvqc8g","pricing_plan_id":"cebpf4jnsgd1na2vs0mg"},{"bike_id":"7d6e2e88-3d81-4d69-bf90-063429281a0f","system_id":"levelo_inurba_marseille","lat":43.28355,"lon":5.38112,"is_reserved":false,"is_disabled":false,"rental_uris":{"android":"levelo://app?vid=7d6e2e88-3d81-4d69-bf90-063429281a0f","ios":"levelo://app?vid=7d6e2e88-3d81-4d69-bf90-063429281a0f"},"vehicle_type_id":"4","last_reported":1743164279,"current_range_meters":16400,"station_id":"ce4bh412rcd13ifvqdr0","pricing_plan_id":"cebpf4jnsgd1na2vs0mg"},{"bike_id":"a5e58861-fe45-4871-8b8e-3d30e7aad627","system_id":"levelo_inurba_marseille","lat":43.25085,"lon":5.39516,"is_reserved":false,"is_disabled":false,"rental_uris":{"android":"levelo://app?vid=a5e58861-fe45-4871-8b8e-3d30e7aad627","ios":"levelo://app?vid=a5e58861-fe45-4871-8b8e-3d30e7aad627"},"vehicle_type_id":"4","last_reported":1743164279,"current_range_meters":16400,"station_id":"ce4bhm12rcd13ifvqgkg","pricing_plan_id":"cebpf4jnsgd1na2vs0mg"},{"bike_id":"36a49bbf-172b-4fe2-a9d0-a2e62ab94281","system_id":"levelo_inurba_marseille","lat":43.32371,"lon":5.36781,"is_reserved":false,"is_disabled":false,"rental_uris":{"android":"levelo://app?vid=36a49bbf-172b-4fe2-a9d0-a2e62ab94281","ios":"levelo://app?vid=36a49bbf-172b-4fe2-a9d0-a2e62ab94281"},"vehicle_type_id":"4","last_reported":1743164279,"current_range_meters":16400,"station_id":"ce4bhsh2rcd13ifvqi2g","pricing_plan_id":"cebpf4jnsgd1na2vs0mg"},{"bike_id":"3e559912-9a8a-474e-86f5-6b0533ba325c","system_id":"levelo_inurba_marseille","lat":43.28709,"lon":5.39981,"is_reserved":false,"is_disabled":false,"rental_uris":{"android":"levelo://app?vid=3e559912-9a8a-474e-86f5-6b0533ba325c","ios":"levelo://app?vid=3e559912-9a8a-474e-86f5-6b0533ba325c"},"vehicle_type_id":"4","last_reported":1743164279,"current_range_meters":16400,"station_id":"ce4bho92rcd13ifvqh3g","pricing_plan_id":"cebpf4jnsgd1na2vs0mg"},