{"last_updated":1686413254,"ttl":30,"version":"2.2","data":{"bikes":[{"bike_id":"29b8fbde-2568-4262-bdc9-449f8607fd3f","system_id":"levelo_inurba_marseille","lat":43.312239,"lon":5.368562,"is_reserved":false,"is_disabled":false,"rental_uris":{"android":"levelo://app?vid=29b8fbde-2568-4262-bdc9-449f8607fd3f","ios":"levelo://app?vid=29b8fbde-2568-4262-bdc9-449f8607fd3f"},"vehicle_type_id":"4","last_reported":1686413255,"current_range_meters":4800,"station_id":"ce4bgl92rcd13ifvqbq0","pricing_plan_id":"free"},{"bike_id":"e215e44b-264e-4626-ae88-2d3a12aefe09","system_id":"levelo_inurba_marseille","lat":43.309076,"lon":5.368465,"is_reserved":false,"is_disabled":false,"rental_uris":{"android":"levelo://app?vid=e215e44b-264e-4626-ae88-2d3a12aefe09","ios":"levelo://app?vid=e215e44b-264e-4626-ae88-2d3a12aefe09"},"vehicle_type_id":"4","last_reported":1686413255,"current_range_meters":12800,"station_id":"ce4bgn92rcd13ifvqbvg","pricing_plan_id":"free"},{"bike_id":"2dbc8303-1e1a-4d08-9dee-6babc9247d38","system_id":"levelo_inurba_marseille","lat":43.30691,"lon":5.36605,"is_reserved":false,"is_disabled":false,"rental_uris":{"android":"levelo://app?vid=2dbc8303-1e1a-4d08-9dee-6babc9247d38","ios":"levelo://app?vid=2dbc8303-1e1a-4d08-9dee-6babc9247d38"},"vehicle_type_id":"4","last_reported":1686413255,"current_range_meters":25600,"station_id":"","pricing_plan_id":"free"},{"bike_id":"726e69fe-0789-44cc-8872-aafade0684ce","system_id":"levelo_inurba_marseille","lat":43.306,"lon":5.36574,"is_reserved":false,"is_disabled":false,"rental_uris":{"android":"levelo://app?vid=726e69fe-0789-44cc-8872-aafade0684ce","ios":"levelo://app?vid=726e69fe-0789-44cc-8872-aafade0684ce"},"vehicle_type_id":"4","last_reported":1686413255,"current_range_meters":8800,"station_id":"","pricing_plan_id":"free"},{"bike_id":"c18d71ce-78fc-4aba-8fdf-69f7cb530b4b","system_id":"levelo_inurba_marseille","lat":43.305706,"lon":5.365654,"is_reserved":false,"is_disabled":false,"rental_uris":{"android":"levelo://app?vid=c18d71ce-78fc-4aba-8fdf-69f7cb530b4b","ios":"levelo://app?vid=c18d71ce-78fc-4aba-8fdf-69f7cb530b4b"},"vehicle_type_id":"4","last_reported":1686413255,"current_range_meters":28800,"station_id":"ce4bgs12rcd13ifvqcag","pricing_plan_id":"free"},{"bike_id":"e13287f9-25c2-4ec5-8ab9-d8a96da95b66","system_id":"levelo_inurba_marseille","lat":43.31749,"lon":5.37471,"is_reserved":false,"is_disabled":false,"rental_uris":{"android":"levelo://app?vid=e13287f9-25c2-4ec5-8ab9-d8a96da95b66","ios":"levelo://app?vid=e13287f9-25c2-4ec5-8ab9-d8a96da95b66"},"vehicle_type_id":"4","last_reported":1686413255,"current_range_meters":12400,"station_id":"","pricing_plan_id":"free"},{"bike_id":"12a9cd77-87f2-467d-a292-41b2c8e1f05a","system_id":"levelo_inurba_marseille","lat":43.30492,"lon":5.36826,"is_reserved":false,"is_disabled":false,"rental_uris":{"android":"levelo://app?vid=12a9cd77-87f2-467d-a292-41b2c8e1f05a","ios":"levelo://app?vid=12a9cd77-87f2-467d-a292-41b2c8e1f05a"},"vehicle_type_id":"4","last_reported":1686413255,"current_range_meters":12800,"station_id":"","pricing_plan_id":"free"},{"bike_id":"6ca7f4f0-9c0c-44fb-aa3e-979faab6c99c","system_id":"levelo_inurba_marseille","lat":43.3059,"lon":5.37467,"is_reserved":false,"is_disabled":false,"rental_uris":{"android":"levelo://app?vid=6ca7f4f0-9c0c-44fb-aa3e-979faab6c99c","ios":"levelo://app?vid=6ca7f4f0-9c0c-44fb-aa3e-979faab6c99c"},"vehicle_type_id":"4","last_reported":1686413255,"current_range_meters":29600,"station_id":"","pricing_plan_id":"free"},{"bike_id":"8eca7e10-d6e4-4c71-9168-0a9e8f05aff4","system_id":"levelo_inurba_marseille","lat":43.31083,"lon":5.3799,"is_reserved":false,"is_disabled":false,"rental_uris":{"android":"levelo://app?vid=8eca7e10-d6e4-4c71-9168-0a9e8f05aff4","ios":"levelo://app?vid=8eca7e10-d6e4-4c71-9168-0a9e8f05aff4"},"vehicle_type_id":"4","last_reported":1686413255,"current_range_meters":16000,"station_id":"","pricing_plan_id":"free"},{"bike_id":"50446256-b134-45d9-b8d5-49d012a79bb7","system_id":"levelo_inurba_marseille","lat":43.301939,"lon":5.366286,"is_reserved":false,"is_disabled":false,"rental_uris":{"android":"levelo://app?vid=50446256-b134-45d9-b8d5-49d012a79bb7","ios":"levelo://app?vid=50446256-b134-45d9-b8d5-49d012a79bb7"},"vehicle_type_id":"4","last_reported":1686413255,"current_range_meters":16800,"station_id":"ce4bgrh2rcd13ifvqc8g","pricing_plan_id":"free"},{"bike_id":"a7ef6819-2138-44d4-9dd5-01d5593dd9c2","system_id":"levelo_inurba_marseille","lat":43.31595,"lon":5.38202,"is_reserved":false,"is_disabled":false,"rental_uris":{"android":"levelo://app?vid=a7ef6819-2138-44d4-9dd5-01d5593dd9c2","ios":"levelo://app?vid=a7ef6819-2138-44d4-9dd5-01d5593dd9c2"},"vehicle_type_id":"4","last_reported":1686413255,"current_range_meters":15200,"station_id":"","pricing_plan_id":"free"},{"bike_id":"ab0a4627-5069-4164-88be-8d7f58f18732","system_id":"levelo_inurba_marseille","lat":43.308012,"lon":5.381511,"is_reserved":false,"is_disabled":false,"rental_uris":{"android":"levelo://app?vid=ab0a4627-5069-4164-88be-8d7f58f18732","ios":"levelo://app?vid=ab0a4627-5069-4164-88be-8d7f58f18732"},"vehicle_type_id":"4","last_reported":1686413255,"current_range_meters":10000,"station_id":"ce4bgt12rcd13ifvqce0","pricing_plan_id":"free"},{"bike_id":"c7d87a0c-4a4d-40e9-8637-7afcecf40c5f","system_id":"levelo_inurba_marseille","lat":43.308012,"lon":5.381511,"is_reserved":false,"is_disabled":false,"rental_uris":{"android":"levelo://app?vid=c7d87a0c-4a4d-40e9-8637-7afcecf40c5f","ios":"levelo://app?vid=c7d87a0c-4a4d-40e9-8637-7afcecf40c5f"},"vehicle_type_id":"4","last_reported":1686413255,"current_range_meters":17200,"station_id":"ce4bgt12rcd13ifvqce0","pricing_plan_id":"free"},{"bike_id":"3fad8947-2234-4753-b991-52700f692f68","system_id":"levelo_inurba_marseille","lat":43.302784,"lon":5.377158,"is_reserved":false,"is_disabled":false,"rental_uris":{"android":"levelo://app?vid=3fad8947-2234-4753-b991-52700f692f68","ios":"levelo://app?vid=3fad8947-2234-4753-b991-52700f692f68"},"vehicle_type_id":"4","last_reported":1686413255,"current_range_meters":21200,"station_id":"ce4bguh2rcd13ifvqcj0","pricing_plan_id":"free"},{"bike_id":"f75c337d-d1ae-4f06-a074-875ebc2eac07","system_id":"levelo_inurba_marseille","lat":43.313571,"lon":5.384829,"is_reserved":false,"is_disabled":false,"rental_uris":{"android":"levelo://app?vid=f75c337d-d1ae-4f06-a074-875ebc2eac07","ios":"levelo://app?vid=f75c337d-d1ae-4f06-a074-875ebc2eac07"},"vehicle_type_id":"4","last_reported":1686413255,"current_range_meters":22400,"station_id":"ce4bgt92rcd13ifvqcf0","pricing_plan_id":"free"},{"bike_id":"1fefc191-47bb-4fb2-be09-6bb2fe34abf7","system_id":"levelo_inurba_marseille","lat":43.313571,"lon":5.384829,"is_reserved":false,"is_disabled":false,"rental_uris":{"android":"levelo://app?vid=1fefc191-47bb-4fb2-be09-6bb2fe34abf7","ios":"levelo://app?vid=1fefc191-47bb-4fb2-be09-6bb2fe34abf7"},"vehicle_type_id":"4","last_reported":1686413255,"current_range_meters":0,"station_id":"ce4bgt92rcd13ifvqcf0","pricing_plan_id":"free"},{"bike_id":"431a1f72-4fd7-41f8-a460-490c3ad60c19","system_id":"levelo_inurba_marseille","lat":43.32828,"lon":5.36684,"is_reserved":false,"is_disabled":false,"rental_uris":{"android":"levelo://app?vid=431a1f72-4fd7-41f8-a460-490c3ad60c19","ios":"levelo://app?vid=431a1f72-4fd7-41f8-a460-490c3ad60c19"},"vehicle_type_id":"4","last_reported":1686413255,"current_range_meters":31200,"station_id":"ce4bhs92rcd13ifvqi0g","pricing_plan_id":"free"},{"bike_id":"ef113ebd-504e-4171-965a-bb2c481d7b30","system_id":"levelo_inurba_marseille","lat":43.328371,"lon":5.366909,"is_reserved":false,"is_disabled":false,"rental_uris":{"android":"levelo://app?vid=ef113ebd-504e-4171-965a-bb2c481d7b30","ios":"levelo://app?vid=ef113ebd-504e-4171-965a-bb2c481d7b30"},"vehicle_type_id":"4","last_reported":1686413255,"current_range_meters":9600,"station_id":"ce4bhs92rcd13ifvqi0g","pricing_plan_id":"free"},{"bike_id":"03114c25-71f1-4ffc-b23f-3909ed4d045b","system_id":"levelo_inurba_marseille","lat":43.29716,"lon":5.36615,"is_reserved":false,"is_disabled":false,"rental_uris":{"android":"levelo://app?vid=03114c25-71f1-4ffc-b23f-3909ed4d045b","ios":"levelo://app?vid=03114c25-71f1-4ffc-b23f-3909ed4d045b"},"vehicle_type_id":"4","last_reported":1686413255,"current_range_meters":12000,"station_id":"","pricing_plan_id":"free"},{"bike_id":"a171b683-f844-4b6f-8205-0c579bd8e9e8","system_id":"levelo_inurba_marseille","lat":43.32837,"lon":5.36687,"is_reserved":false,"is_disabled":false,"rental_uris":{"android":"levelo://app?vid=a171b683-f844-4b6f-8205-0c579bd8e9e8","ios":"levelo://app?vid=a171b683-f844-4b6f-8205-0c579bd8e9e8"},"vehicle_type_id":"4","last_reported":1686413255,"current_range_meters":31200,"station_id":"ce4bhs92rcd13ifvqi0g","pricing_plan_id":"free"},{"bike_id":"c4e407e0-1c75-4bad-b2dd-15a5a3c0ba3f","system_id":"levelo_inurba_marseille","lat":43.317557,"lon":5.390173,"is_reserved":false,"is_disabled":false,"rental_uris":{"android":"levelo://app?vid=c4e407e0-1c75-4bad-b2dd-15a5a3c0ba3f","ios":"levelo://app?vid=c4e407e0-1c75-4bad-b2dd-15a5a3c0ba3f"},"vehicle_type_id":"4","last_reported":1686413255,"current_range_meters":0,"station_id":"ce4bhqp2rcd13ifvqhng","pricing_plan_id":"free"},{"bike_id":"44efb6c1-5dba-40aa-939d-e9d4696e67b9","system_id":"levelo_inurba_marseille","lat":43.29788,"lon":5.38117,"is_reserved":false,"is_disabled":false,"rental_uris":{"android":"levelo://app?vid=44efb6c1-5dba-40aa-939d-e9d4696e67b9","ios":"levelo://app?vid=44efb6c1-5dba-40aa-939d-e9d4696e67b9"},"vehicle_type_id":"4","last_reported":1686413255,"current_range_meters":8800,"station_id":"ce4bgip2rcd13ifvqbb0","pricing_plan_id":"free"},{"bike_id":"0d910166-b385-4f7f-8c65-82d59465224e","system_id":"levelo_inurba_marseille","lat":43.299717,"lon":5.384845,"is_reserved":false,"is_disabled":false,"rental_uris":{"android":"levelo://app?vid=0d910166-b385-4f7f-8c65-82d59465224e","ios":"levelo://app?vid=0d910166-b385-4f7f-8c65-82d59465224e"},"vehicle_type_id":"4","last_reported":1686413255,"current_range_meters":0,"station_id":"ce4bgj92rcd13ifvqbd0","pricing_plan_id":"free"},{"bike_id":"3b15afa4-92a5-4de4-b099-d1a73d024711","system_id":"levelo_inurba_marseille","lat":43.323663,"lon":5.388856,"is_reserved":false,"is_disabled":false,"rental_uris":{"android":"levelo://app?vid=3b15afa4-92a5-4de4-b099-d1a73d024711","ios":"levelo://app?vid=3b15afa4-92a5-4de4-b099-d1a73d024711"},"vehicle_type_id":"4","last_reported":1686413255,"current_range_meters":16400,"station_id":"ce4bhqp2rcd13ifvqhog","pricing_plan_id":"free"},{"bike_id":"242e1c97-1b41-4adc-8dd9-53bc204e98a8","system_id":"levelo_inurba_marseille","lat":43.293249,"lon":5.371578,"is_reserved":false,"is_disabled":false,"rental_uris":{"android":"levelo://app?vid=242e1c97-1b41-4adc-8dd9-53bc204e98a8","ios":"levelo://app?vid=242e1c97-1b41-4adc-8dd9-53bc204e98a8"},"vehicle_type_id":"4","last_reported":1686413255,"current_range_meters":6000,"station_id":"ce4bgh92rcd13ifvqb40","pricing_plan_id":"free"},{"bike_id":"8a03c592-d238-412a-86eb-c99183685eae","system_id":"levelo_inurba_marseille","lat":43.292749,"lon":5.368398,"is_reserved":false,"is_disabled":false,"rental_uris":{"android":"levelo://app?vid=8a03c592-d238-412a-86eb-c99183685eae","ios":"levelo://app?vid=8a03c592-d238-412a-86eb-c99183685eae"},"vehicle_type_id":"4","last_reported":1686413255,"current_range_meters":0,"station_id":"ce4bhbp2rcd13ifvqesg","pricing_plan_id":"free"},{"bike_id":"134c1506-2f80-4717-8148-d30fec4373f9","system_id":"levelo_inurba_marseille","lat":43.292749,"lon":5.368402,"is_reserved":false,"is_disabled":false,"rental_uris":{"android":"levelo://app?vid=134c1506-2f80-4717-8148-d30fec4373f9","ios":"levelo://app?vid=134c1506-2f80-4717-8148-d30fec4373f9"},"vehicle_type_id":"4","last_reported":1686413255,"current_range_meters":17600,"station_id":"ce4bhbp2rcd13ifvqesg","pricing_plan_id":"free"},{"bike_id":"61e4ccfd-dc98-4837-8123-2dfa5e087f42","system_id":"levelo_inurba_marseille","lat":43.293723,"lon":5.378443,"is_reserved":false,"is_disabled":false,"rental_uris":{"android":"levelo://app?vid=61e4ccfd-dc98-4837-8123-2dfa5e087f42","ios":"levelo://app?vid=61e4ccfd-dc98-4837-8123-2dfa5e087f42"},"vehicle_type_id":"4","last_reported":1686413255,"current_range_meters":3200,"station_id":"","pricing_plan_id":"free"},{"bike_id":"13dfe547-1716-4feb-afb8-fca486deb87c","system_id":"levelo_inurba_marseille","lat":43.2936,"lon":5.37835,"is_reserved":false,"is_disabled":false,"rental_uris":{"android":"levelo://app?vid=13dfe547-1716-4feb-afb8-fca486deb87c","ios":"levelo://app?vid=13dfe547-1716-4feb-afb8-fca486deb87c"},"vehicle_type_id":"4","last_reported":1686413255,"current_range_meters":800,"station_id":"ce4bgjh2rcd13ifvqbf0","pricing_plan_id":"free"},{"bike_id":"849649c5-59d3-4e00-acde-a26698cbfc4e","system_id":"levelo_inurba_marseille","lat":43.2936,"lon":5.37835,"is_reserved":false,"is_disabled":false,"rental_uris":{"android":"levelo://app?vid=849649c5-59d3-4e00-acde-a26698cbfc4e","ios":"levelo://app?vid=849649c5-59d3-4e00-acde-a26698cbfc4e"},"vehicle_type_id":"4","last_reported":1686413255,"current_range_meters":0,"station_id":"ce4bgjh2rcd13ifvqbf0","pricing_plan_id":"free"},{"bike_id":"da18d172-afc3-458c-ace5-86828bf8296b","system_id":"levelo_inurba_marseille","lat":43.291768,"lon":5.371482,"is_reserved":false,"is_disabled":false,"rental_uris":{"android":"levelo://app?vid=da18d172-afc3-458c-ace5-86828bf8296b","ios":"levelo://app?vid=da18d172-afc3-458c-ace5-86828bf8296b"},"vehicle_type_id":"4","last_reported":1686413255,"current_range_meters":4800,"station_id":"","pricing_plan_id":"free"},{"bike_id":"a470134f-4a20-42c9-b745-936f13a61330","system_id":"levelo_inurba_marseille","lat":43.29167,"lon":5.37165,"is_reserved":false,"is_disabled":false,"rental_uris":{"android":"levelo://app?vid=a470134f-4a20-42c9-b745-936f13a61330","ios":"levelo://app?vid=a470134f-4a20-42c9-b745-936f13a61330"},"vehicle_type_id":"4","last_reported":1686413255,"current_range_meters":2000,"station_id":"ce4bha92rcd13ifvqeh0","pricing_plan_id":"free"},{"bike_id":"a922a9f5-fea5-49ff-ac01-d12f16622f4e","system_id":"levelo_inurba_marseille","lat":43.309038,"lon":5.396546,"is_reserved":false,"is_disabled":false,"rental_uris":{"android":"levelo://app?vid=a922a9f5-fea5-49ff-ac01-d12f16622f4e","ios":"levelo://app?vid=a922a9f5-fea5-49ff-ac01-d12f16622f4e"},"vehicle_type_id":"4","last_reported":1686413255,"current_range_meters":20400,"station_id":"ce4bh012rcd13ifvqcv0","pricing_plan_id":"free"},{"bike_id":"7bffb019-9cca-4868-ac1f-a7063679dc27","system_id":"levelo_inurba_marseille","lat":43.290779,"lon":5.371482,"is_reserved":false,"is_disabled":false,"rental_uris":{"android":"levelo://app?vid=7bffb019-9cca-4868-ac1f-a7063679dc27","ios":"levelo://app?vid=7bffb019-9cca-4868-ac1f-a7063679dc27"},"vehicle_type_id":"4","last_reported":1686413255,"current_range_meters":7200,"station_id":"ce4bh5p2rcd13ifvqe4g","pricing_plan_id":"free"},{"bike_id":"7fce0007-dfe1-4093-abb9-37e244007690","system_id":"levelo_inurba_marseille","lat":43.32922,"lon":5.38809,"is_reserved":false,"is_disabled":false,"rental_uris":{"android":"levelo://app?vid=7fce0007-dfe1-4093-abb9-37e244007690","ios":"levelo://app?vid=7fce0007-dfe1-4093-abb9-37e244007690"},"vehicle_type_id":"4","last_reported":1686413255,"current_range_meters":20400,"station_id":"","pricing_plan_id":"free"},{"bike_id":"6b8d4575-53b4-4ba2-a3ca-6900984e43d9","system_id":"levelo_inurba_marseille","lat":43.2919,"lon":5.37948,"is_reserved":false,"is_disabled":false,"rental_uris":{"android":"levelo://app?vid=6b8d4575-53b4-4ba2-a3ca-6900984e43d9","ios":"levelo://app?vid=6b8d4575-53b4-4ba2-a3ca-6900984e43d9"},"vehicle_type_id":"4","last_reported":1686413255,"current_range_meters":26800,"station_id":"","pricing_plan_id":"free"},{"bike_id":"db3762b2-1ae5-4668-a3b5-a78f994b745d","system_id":"levelo_inurba_marseille","lat":43.302008,"lon":5.394694,"is_reserved":false,"is_disabled":false,"rental_uris":{"android":"levelo://app?vid=db3762b2-1ae5-4668-a3b5-a78f994b745d","ios":"levelo://app?vid=db3762b2-1ae5-4668-a3b5-a78f994b745d"},"vehicle_type_id":"4","last_reported":1686413255,"current_range_meters":26400,"station_id":"ce4bh0p2rcd13ifvqd70","pricing_plan_id":"free"},{"bike_id":"eebb0572-4916-4105-a791-7d74572be411","system_id":"levelo_inurba_marseille","lat":43.290103,"lon":5.356114,"is_reserved":false,"is_disabled":false,"rental_uris":{"android":"levelo://app?vid=eebb0572-4916-4105-a791-7d74572be411","ios":"levelo://app?vid=eebb0572-4916-4105-a791-7d74572be411"},"vehicle_type_id":"4","last_reported":1686413255,"current_range_meters":4800,"station_id":"ce4bhb92rcd13ifvqen0","pricing_plan_id":"free"},{"bike_id":"c60f3d5c-0401-471c-bf19-221d82b5ee2f","system_id":"levelo_inurba_marseille","lat":43.295169,"lon":5.390426,"is_reserved":false,"is_disabled":false,"rental_uris":{"android":"levelo://app?vid=c60f3d5c-0401-471c-bf19-221d82b5ee2f","ios":"levelo://app?vid=c60f3d5c-0401-471c-bf19-221d82b5ee2f"},"vehicle_type_id":"4","last_reported":1686413255,"current_range_meters":24000,"station_id":"ce4bh3p2rcd13ifvqdp0","pricing_plan_id":"free"},{"bike_id":"6d27c5e0-cb06-42e0-936a-87f6f2d779bf","system_id":"levelo_inurba_marseille","lat":43.295169,"lon":5.390426,"is_reserved":false,"is_disabled":false,"rental_uris":{"android":"levelo://app?vid=6d27c5e0-cb06-42e0-936a-87f6f2d779bf","ios":"levelo://app?vid=6d27c5e0-cb06-42e0-936a-87f6f2d779bf"},"vehicle_type_id":"4","last_reported":1686413255,"current_range_meters":3200,"station_id":"ce4bh3p2rcd13ifvqdp0","pricing_plan_id":"free"},{"bike_id":"d1e79c47-88c0-41ec-bfd8-d2ccd28a6cf0","system_id":"levelo_inurba_marseille","lat":43.33742,"lon":5.37456,"is_reserved":false,"is_disabled":false,"rental_uris":{"android":"levelo://app?vid=d1e79c47-88c0-41ec-bfd8-d2ccd28a6cf0","ios":"levelo://app?vid=d1e79c47-88c0-41ec-bfd8-d2ccd28a6cf0"},"vehicle_type_id":"4","last_reported":1686413255,"current_range_meters":30800,"station_id":"","pricing_plan_id":"free"},{"bike_id":"265c0905-166c-408b-8d33-95a8e86424e1","system_id":"levelo_inurba_marseille","lat":43.337582,"lon":5.374483,"is_reserved":false,"is_disabled":false,"rental_uris":{"android":"levelo://app?vid=265c0905-166c-408b-8d33-95a8e86424e1","ios":"levelo://app?vid=265c0905-166c-408b-8d33-95a8e86424e1"},"vehicle_type_id":"4","last_reported":1686413255,"current_range_meters":16000,"station_id":"","pricing_plan_id":"free"},{"bike_id":"fb041ec1-b611-46eb-9d8b-3229cfb3396a","system_id":"levelo_inurba_marseille","lat":43.33768,"lon":5.37459,"is_reserved":false,"is_disabled":false,"rental_uris":{"android":"levelo://app?vid=fb041ec1-b611-46eb-9d8b-3229cfb3396a","ios":"levelo://app?vid=fb041ec1-b611-46eb-9d8b-3229cfb3396a"},"vehicle_type_id":"4","last_reported":1686413255,"current_range_meters":23200,"station_id":"","pricing_plan_id":"free"},{"bike_id":"3bebfdb3-5a51-46b8-9f06-1e539cea5039","system_id":"levelo_inurba_marseille","lat":43.30126,"lon":5.39859,"is_reserved":false,"is_disabled":false,"rental_uris":{"android":"levelo://app?vid=3bebfdb3-5a51-46b8-9f06-1e539cea5039","ios":"levelo://app?vid=3bebfdb3-5a51-46b8-9f06-1e539cea5039"},"vehicle_type_id":"4","last_reported":1686413255,"current_range_meters":4400,"station_id":"ce4bh0h2rcd13ifvqd40","pricing_plan_id":"free"},{"bike_id":"4404b0cc-e7f4-47e7-92c0-cdb2529b1c48","system_id":"levelo_inurba_marseille","lat":43.30188,"lon":5.39962,"is_reserved":false,"is_disabled":false,"rental_uris":{"android":"levelo://app?vid=4404b0cc-e7f4-47e7-92c0-cdb2529b1c48","ios":"levelo://app?vid=4404b0cc-e7f4-47e7-92c0-cdb2529b1c48"},"vehicle_type_id":"4","last_reported":1686413255,"current_range_meters":4400,"station_id":"","pricing_plan_id":"free"},{"bike_id":"6dffdf20-1520-4e54-8be1-10aa1c4691be","system_id":"levelo_inurba_marseille","lat":43.286591,"lon":5.363346,"is_reserved":false,"is_disabled":false,"rental_uris":{"android":"levelo://app?vid=6dffdf20-1520-4e54-8be1-10aa1c4691be","ios":"levelo://app?vid=6dffdf20-1520-4e54-8be1-10aa1c4691be"},"vehicle_type_id":"4","last_reported":1686413255,"current_range_meters":8800,"station_id":"ce4bhah2rcd13ifvqej0","pricing_plan_id":"free"},{"bike_id":"c0748cb4-7de2-429c-b94e-48b22da8e519","system_id":"levelo_inurba_marseille","lat":43.295196,"lon":5.39397,"is_reserved":false,"is_disabled":false,"rental_uris":{"android":"levelo://app?vid=c0748cb4-7de2-429c-b94e-48b22da8e519","ios":"levelo://app?vid=c0748cb4-7de2-429c-b94e-48b22da8e519"},"vehicle_type_id":"4","last_reported":1686413255,"current_range_meters":0,"station_id":"ce4bh292rcd13ifvqdf0","pricing_plan_id":"free"},{"bike_id":"2d93a0dc-7d05-456a-a742-eed9e9de8b59","system_id":"levelo_inurba_marseille","lat":43.291994,"lon":5.392907,"is_reserved":false,"is_disabled":false,"rental_uris":{"android":"levelo://app?vid=2d93a0dc-7d05-456a-a742-eed9e9de8b59","ios":"levelo://app?vid=2d93a0dc-7d05-456a-a742-eed9e9de8b59"},"vehicle_type_id":"4","last_reported":1686413255,"current_range_meters":11600,"station_id":"ce4bh192rcd13ifvqdd0","pricing_plan_id":"free"},{"bike_id":"875f1b27-aa0e-482a-984f-4f81c14e9f52","system_id":"levelo_inurba_marseille","lat":43.285856,"lon":5.350771,"is_reserved":false,"is_disabled":false,"rental_uris":{"android":"levelo://app?vid=875f1b27-aa0e-482a-984f-4f81c14e9f52","ios":"levelo://app?vid=875f1b27-aa0e-482a-984f-4f81c14e9f52"},"vehicle_type_id":"4","last_reported":1686413255,"current_range_meters":19600,"station_id":"ce4bhch2rcd13ifvqeug","pricing_plan_id":"free"},{"bike_id":"06d13f19-0cbf-4ce3-ac01-82816905cde5","system_id":"levelo_inurba_marseille","lat":43.296277,"lon":5.377108,"is_reserved":false,"is_disabled":false,"rental_uris":{"android":"levelo://app?vid=06d13f19-0cbf-4ce3-ac01-82816905cde5","ios":"levelo://app?vid=06d13f19-0cbf-4ce3-ac01-82816905cde5"},"vehicle_type_id":"4","last_reported":1686413255,"current_range_meters":22000,"station_id":"ce4bgi92rcd13ifvqb90","pricing_plan_id":"free"},{"bike_id":"6bf52bf0-1337-4037-80f8-b7d219738e48","system_id":"levelo_inurba_marseille","lat":43.296263,"lon":5.40601,"is_reserved":false,"is_disabled":false,"rental_uris":{"android":"levelo://app?vid=6bf52bf0-1337-4037-80f8-b7d219738e48","ios":"levelo://app?vid=6bf52bf0-1337-4037-80f8-b7d219738e48"},"vehicle_type_id":"4","last_reported":1686413255,"current_range_meters":24400,"station_id":"ce4bh0h2rcd13ifvqd60","pricing_plan_id":"free"},{"bike_id":"00631744-72fb-4d6b-a10e-c433b7f9ad89","system_id":"levelo_inurba_marseille","lat":43.29576,"lon":5.40011,"is_reserved":false,"is_disabled":false,"rental_uris":{"android":"levelo://app?vid=00631744-72fb-4d6b-a10e-c433b7f9ad89","ios":"levelo://app?vid=00631744-72fb-4d6b-a10e-c433b7f9ad89"},"vehicle_type_id":"4","last_reported":1686413255,"current_range_meters":0,"station_id":"ce4bh312rcd13ifvqdj0","pricing_plan_id":"free"},{"bike_id":"6604bf6b-0b3c-4a1f-8299-c4da03e86316","system_id":"levelo_inurba_marseille","lat":43.286595,"lon":5.386795,"is_reserved":false,"is_disabled":false,"rental_uris":{"android":"levelo://app?vid=6604bf6b-0b3c-4a1f-8299-c4da03e86316","ios":"levelo://app?vid=6604bf6b-0b3c-4a1f-8299-c4da03e86316"},"vehicle_type_id":"4","last_reported":1686413255,"current_range_meters":24800,"station_id":"ce4bh492rcd13ifvqdug","pricing_plan_id":"free"},{"bike_id":"7cee8e31-41b5-4468-a73a-b60780607147","system_id":"levelo_inurba_marseille","lat":43.33625,"lon":5.3922,"is_reserved":false,"is_disabled":false,"rental_uris":{"android":"levelo://app?vid=7cee8e31-41b5-4468-a73a-b60780607147","ios":"levelo://app?vid=7cee8e31-41b5-4468-a73a-b60780607147"},"vehicle_type_id":"4","last_reported":1686413255,"current_range_meters":1600,"station_id":"","pricing_plan_id":"free"},{"bike_id":"06cff570-236d-434b-b41a-bcb364e7356f","system_id":"levelo_inurba_marseille","lat":43.32332,"lon":5.40614,"is_reserved":false,"is_disabled":false,"rental_uris":{"android":"levelo://app?vid=06cff570-236d-434b-b41a-bcb364e7356f","ios":"levelo://app?vid=06cff570-236d-434b-b41a-bcb364e7356f"},"vehicle_type_id":"4","last_reported":1686413255,"current_range_meters":29200,"station_id":"ce4bhq92rcd13ifvqhjg","pricing_plan_id":"free"},{"bike_id":"deb583eb-96fb-4a10-97e9-a4d5ee7da756","system_id":"levelo_inurba_marseille","lat":43.32339,"lon":5.40619,"is_reserved":false,"is_disabled":false,"rental_uris":{"android":"levelo://app?vid=deb583eb-96fb-4a10-97e9-a4d5ee7da756","ios":"levelo://app?vid=deb583eb-96fb-4a10-97e9-a4d5ee7da756"},"vehicle_type_id":"4","last_reported":1686413255,"current_range_meters":10800,"station_id":"ce4bhq92rcd13ifvqhjg","pricing_plan_id":"free"},{"bike_id":"4ba20453-31de-4115-ac71-aad53c16ef43","system_id":"levelo_inurba_marseille","lat":43.3234,"lon":5.40619,"is_reserved":false,"is_disabled":false,"rental_uris":{"android":"levelo://app?vid=4ba20453-31de-4115-ac71-aad53c16ef43","ios":"levelo://app?vid=4ba20453-31de-4115-ac71-aad53c16ef43"},"vehicle_type_id":"4","last_reported":1686413255,"current_range_meters":29600,"station_id":"ce4bhq92rcd13ifvqhjg","pricing_plan_id":"free"},{"bike_id":"4fa06529-0c95-479a-995a-4b6b023ec5b1","system_id":"levelo_inurba_marseille","lat":43.323464,"lon":5.406297,"is_reserved":false,"is_disabled":false,"rental_uris":{"android":"levelo://app?vid=4fa06529-0c95-479a-995a-4b6b023ec5b1","ios":"levelo://app?vid=4fa06529-0c95-479a-995a-4b6b023ec5b1"},"vehicle_type_id":"4","last_reported":1686413255,"current_range_meters":23600,"station_id":"ce4bhq92rcd13ifvqhjg","pricing_plan_id":"free"},{"bike_id":"64eead76-2dc1-42bd-a4a2-05cec358379d","system_id":"levelo_inurba_marseille","lat":43.32339,"lon":5.40624,"is_reserved":false,"is_disabled":false,"rental_uris":{"android":"levelo://app?vid=64eead76-2dc1-42bd-a4a2-05cec358379d","ios":"levelo://app?vid=64eead76-2dc1-42bd-a4a2-05cec358379d"},"vehicle_type_id":"4","last_reported":1686413255,"current_range_meters":30000,"station_id":"ce4bhq92rcd13ifvqhjg","pricing_plan_id":"free"},{"bike_id":"30333e77-7cc7-4ad5-b030-c99c7af00601","system_id":"levelo_inurba_marseille","lat":43.3234,"lon":5.40626,"is_reserved":false,"is_disabled":false,"rental_uris":{"android":"levelo://app?vid=30333e77-7cc7-4ad5-b030-c99c7af00601","ios":"levelo://app?vid=30333e77-7cc7-4ad5-b030-c99c7af00601"},"vehicle_type_id":"4","last_reported":1686413255,"current_range_meters":31200,"station_id":"ce4bhq92rcd13ifvqhjg","pricing_plan_id":"free"},{"bike_id":"a3079b4d-45c0-4654-a084-416319c5cab5","system_id":"levelo_inurba_marseille","lat":43.32347,"lon":5.40625,"is_reserved":false,"is_disabled":false,"rental_uris":{"android":"levelo://app?vid=a3079b4d-45c0-4654-a084-416319c5cab5","ios":"levelo://app?vid=a3079b4d-45c0-4654-a084-416319c5cab5"},"vehicle_type_id":"4","last_reported":1686413255,"current_range_meters":31200,"station_id":"ce4bhq92rcd13ifvqhjg","pricing_plan_id":"free"},{"bike_id":"7d89e3b5-958d-47f6-80fa-adc2175a1ff9","system_id":"levelo_inurba_marseille","lat":43.32349,"lon":5.40628,"is_reserved":false,"is_disabled":false,"rental_uris":{"android":"levelo://app?vid=7d89e3b5-958d-47f6-80fa-adc2175a1ff9","ios":"levelo://app?vid=7d89e3b5-958d-47f6-80fa-adc2175a1ff9"},"vehicle_type_id":"4","last_reported":1686413255,"current_range_meters":31200,"station_id":"ce4bhq92rcd13ifvqhjg","pricing_plan_id":"free"},{"bike_id":"367b7fc5-ccea-42f3-b2d1-476afb65d413","system_id":"levelo_inurba_marseille","lat":43.284793,"lon":5.384113,"is_reserved":false,"is_disabled":false,"rental_uris":{"android":"levelo://app?vid=367b7fc5-ccea-42f3-b2d1-476afb65d413","ios":"levelo://app?vid=367b7fc5-ccea-42f3-b2d1-476afb65d413"},"vehicle_type_id":"4","last_reported":1686413255,"current_range_meters":12800,"station_id":"ce4bh512rcd13ifvqe3g","pricing_plan_id":"free"},{"bike_id":"664960d4-4a99-4775-a29d-ad121a6c6787","system_id":"levelo_inurba_marseille","lat":43.32236,"lon":5.40696,"is_reserved":false,"is_disabled":false,"rental_uris":{"android":"levelo://app?vid=664960d4-4a99-4775-a29d-ad121a6c6787","ios":"levelo://app?vid=664960d4-4a99-4775-a29d-ad121a6c6787"},"vehicle_type_id":"4","last_reported":1686413255,"current_range_meters":26800,"station_id":"","pricing_plan_id":"free"},{"bike_id":"52f4da21-1dc8-4556-9ce7-36c9b1f7dc82","system_id":"levelo_inurba_marseille","lat":43.288501,"lon":5.393087,"is_reserved":false,"is_disabled":false,"rental_uris":{"android":"levelo://app?vid=52f4da21-1dc8-4556-9ce7-36c9b1f7dc82","ios":"levelo://app?vid=52f4da21-1dc8-4556-9ce7-36c9b1f7dc82"},"vehicle_type_id":"4","last_reported":1686413255,"current_range_meters":8800,"station_id":"ce4bh2p2rcd13ifvqdi0","pricing_plan_id":"free"},{"bike_id":"59037eba-083b-4034-ae90-5aa1f27d7983","system_id":"levelo_inurba_marseille","lat":43.288501,"lon":5.393087,"is_reserved":false,"is_disabled":false,"rental_uris":{"android":"levelo://app?vid=59037eba-083b-4034-ae90-5aa1f27d7983","ios":"levelo://app?vid=59037eba-083b-4034-ae90-5aa1f27d7983"},"vehicle_type_id":"4","last_reported":1686413255,"current_range_meters":18800,"station_id":"ce4bh2p2rcd13ifvqdi0","pricing_plan_id":"free"},{"bike_id":"2c9c582c-6527-419d-813d-f4403a0dd296","system_id":"levelo_inurba_marseille","lat":43.283494,"lon":5.380945,"is_reserved":false,"is_disabled":false,"rental_uris":{"android":"levelo://app?vid=2c9c582c-6527-419d-813d-f4403a0dd296","ios":"levelo://app?vid=2c9c582c-6527-419d-813d-f4403a0dd296"},"vehicle_type_id":"4","last_reported":1686413255,"current_range_meters":3600,"station_id":"ce4bh412rcd13ifvqdr0","pricing_plan_id":"free"},{"bike_id":"ae232d39-b160-410f-a53c-e104a0631f2e","system_id":"levelo_inurba_marseille","lat":43.32422,"lon":5.4067,"is_reserved":false,"is_disabled":false,"rental_uris":{"android":"levelo://app?vid=ae232d39-b160-410f-a53c-e104a0631f2e","ios":"levelo://app?vid=ae232d39-b160-410f-a53c-e104a0631f2e"},"vehicle_type_id":"4","last_reported":1686413255,"current_range_meters":16000,"station_id":"","pricing_plan_id":"free"},{"bike_id":"3be6a7f8-1850-4939-b11b-6146efdb0b38","system_id":"levelo_inurba_marseille","lat":43.28045,"lon":5.36944,"is_reserved":false,"is_disabled":false,"rental_uris":{"android":"levelo://app?vid=3be6a7f8-1850-4939-b11b-6146efdb0b38","ios":"levelo://app?vid=3be6a7f8-1850-4939-b11b-6146efdb0b38"},"vehicle_type_id":"4","last_reported":1686413255,"current_range_meters":1600,"station_id":"ce4bha12rcd13ifvqef0","pricing_plan_id":"free"},{"bike_id":"79aa243d-4f55-4ebe-9878-a0a73a9e5163","system_id":"levelo_inurba_marseille","lat":43.28043,"lon":5.3694,"is_reserved":false,"is_disabled":false,"rental_uris":{"android":"levelo://app?vid=79aa243d-4f55-4ebe-9878-a0a73a9e5163","ios":"levelo://app?vid=79aa243d-4f55-4ebe-9878-a0a73a9e5163"},"vehicle_type_id":"4","last_reported":1686413255,"current_range_meters":1200,"station_id":"ce4bha12rcd13ifvqef0","pricing_plan_id":"free"},{"bike_id":"cbf540d0-69ad-4396-be36-a0262d7385c4","system_id":"levelo_inurba_marseille","lat":43.282744,"lon":5.350533,"is_reserved":false,"is_disabled":false,"rental_uris":{"android":"levelo://app?vid=cbf540d0-69ad-4396-be36-a0262d7385c4","ios":"levelo://app?vid=cbf540d0-69ad-4396-be36-a0262d7385c4"},"vehicle_type_id":"4","last_reported":1686413255,"current_range_meters":0,"station_id":"ce4bhbp2rcd13ifvqerg","pricing_plan_id":"free"},{"bike_id":"154c4974-9522-4db7-9d2a-c2da636e20c8","system_id":"levelo_inurba_marseille","lat":43.28035,"lon":5.36941,"is_reserved":false,"is_disabled":false,"rental_uris":{"android":"levelo://app?vid=154c4974-9522-4db7-9d2a-c2da636e20c8","ios":"levelo://app?vid=154c4974-9522-4db7-9d2a-c2da636e20c8"},"vehicle_type_id":"4","last_reported":1686413255,"current_range_meters":27600,"station_id":"ce4bha12rcd13ifvqef0","pricing_plan_id":"free"},{"bike_id":"31f06fcf-ac15-410a-8bfc-a05c15234907","system_id":"levelo_inurba_marseille","lat":43.28033,"lon":5.3694,"is_reserved":false,"is_disabled":false,"rental_uris":{"android":"levelo://app?vid=31f06fcf-ac15-410a-8bfc-a05c15234907","ios":"levelo://app?vid=31f06fcf-ac15-410a-8bfc-a05c15234907"},"vehicle_type_id":"4","last_reported":1686413255,"current_range_meters":400,"station_id":"ce4bha12rcd13ifvqef0","pricing_plan_id":"free"},{"bike_id":"7656eea1-2823-4080-81c8-4a9879dadc7c","system_id":"levelo_inurba_marseille","lat":43.284462,"lon":5.392121,"is_reserved":false,"is_disabled":false,"rental_uris":{"android":"levelo://app?vid=7656eea1-2823-4080-81c8-4a9879dadc7c","ios":"levelo://app?vid=7656eea1-2823-4080-81c8-4a9879dadc7c"},"vehicle_type_id":"4","last_reported":1686413255,"current_range_meters":16800,"station_id":"ce4bhoh2rcd13ifvqh5g","pricing_plan_id":"free"},{"bike_id":"d3051f3f-6cd7-408d-b249-b34caf1220b5","system_id":"levelo_inurba_marseille","lat":43.326605,"lon":5.409903,"is_reserved":false,"is_disabled":false,"rental_uris":{"android":"levelo://app?vid=d3051f3f-6cd7-408d-b249-b34caf1220b5","ios":"levelo://app?vid=d3051f3f-6cd7-408d-b249-b34caf1220b5"},"vehicle_type_id":"4","last_reported":1686413255,"current_range_meters":8800,"station_id":"ce4bhpp2rcd13ifvqhgg","pricing_plan_id":"free"},{"bike_id":"55ab8d3a-c341-47d7-8790-a584447b575b","system_id":"levelo_inurba_marseille","lat":43.32656,"lon":5.41036,"is_reserved":false,"is_disabled":false,"rental_uris":{"android":"levelo://app?vid=55ab8d3a-c341-47d7-8790-a584447b575b","ios":"levelo://app?vid=55ab8d3a-c341-47d7-8790-a584447b575b"},"vehicle_type_id":"4","last_reported":1686413255,"current_range_meters":20400,"station_id":"","pricing_plan_id":"free"},{"bike_id":"57fc2d9d-005a-48a6-8819-4bfaf2ecdc6f","system_id":"levelo_inurba_marseille","lat":43.32057,"lon":5.41536,"is_reserved":false,"is_disabled":false,"rental_uris":{"android":"levelo://app?vid=57fc2d9d-005a-48a6-8819-4bfaf2ecdc6f","ios":"levelo://app?vid=57fc2d9d-005a-48a6-8819-4bfaf2ecdc6f"},"vehicle_type_id":"4","last_reported":1686413255,"current_range_meters":26000,"station_id":"","pricing_plan_id":"free"},{"bike_id":"bb24800c-0201-48a4-8f1a-b6e1e15bfcc2","system_id":"levelo_inurba_marseille","lat":43.32047,"lon":5.4154,"is_reserved":false,"is_disabled":false,"rental_uris":{"android":"levelo://app?vid=bb24800c-0201-48a4-8f1a-b6e1e15bfcc2","ios":"levelo://app?vid=bb24800c-0201-48a4-8f1a-b6e1e15bfcc2"},"vehicle_type_id":"4","last_reported":1686413255,"current_range_meters":23200,"station_id":"","pricing_plan_id":"free"},{"bike_id":"e6d2d6c4-9ff2-40c7-a6f0-61f3764984b8","system_id":"levelo_inurba_marseille","lat":43.3205,"lon":5.41554,"is_reserved":false,"is_disabled":false,"rental_uris":{"android":"levelo://app?vid=e6d2d6c4-9ff2-40c7-a6f0-61f3764984b8","ios":"levelo://app?vid=e6d2d6c4-9ff2-40c7-a6f0-61f3764984b8"},"vehicle_type_id":"4","last_reported":1686413255,"current_range_meters":27600,"station_id":"","pricing_plan_id":"free"},{"bike_id":"03669867-3532-4381-b124-51d2614b61b5","system_id":"levelo_inurba_marseille","lat":43.32041,"lon":5.41557,"is_reserved":false,"is_disabled":false,"rental_uris":{"android":"levelo://app?vid=03669867-3532-4381-b124-51d2614b61b5","ios":"levelo://app?vid=03669867-3532-4381-b124-51d2614b61b5"},"vehicle_type_id":"4","last_reported":1686413255,"current_range_meters":25200,"station_id":"","pricing_plan_id":"free"},{"bike_id":"085bd568-ec40-4961-8fff-65962dfcc170","system_id":"levelo_inurba_marseille","lat":43.32547,"lon":5.41434,"is_reserved":false,"is_disabled":false,"rental_uris":{"android":"levelo://app?vid=085bd568-ec40-4961-8fff-65962dfcc170","ios":"levelo://app?vid=085bd568-ec40-4961-8fff-65962dfcc170"},"vehicle_type_id":"4","last_reported":1686413255,"current_range_meters":29200,"station_id":"ce4bhq12rcd13ifvqhhg","pricing_plan_id":"free"},{"bike_id":"bc3b5b32-b2af-4dfa-8e81-4a926ca94a2c","system_id":"levelo_inurba_marseille","lat":43.2756,"lon":5.38425,"is_reserved":false,"is_disabled":false,"rental_uris":{"android":"levelo://app?vid=bc3b5b32-b2af-4dfa-8e81-4a926ca94a2c","ios":"levelo://app?vid=bc3b5b32-b2af-4dfa-8e81-4a926ca94a2c"},"vehicle_type_id":"4","last_reported":1686413255,"current_range_meters":18400,"station_id":"","pricing_plan_id":"free"},{"bike_id":"df093a98-a561-4ded-a657-5255cbcfc7ea","system_id":"levelo_inurba_marseille","lat":43.33607,"lon":5.41027,"is_reserved":false,"is_disabled":false,"rental_uris":{"android":"levelo://app?vid=df093a98-a561-4ded-a657-5255cbcfc7ea","ios":"levelo://app?vid=df093a98-a561-4ded-a657-5255cbcfc7ea"},"vehicle_type_id":"4","last_reported":1686413255,"current_range_meters":24000,"station_id":"ce4bhqh2rcd13ifvqhmg","pricing_plan_id":"free"},{"bike_id":"5d0612c0-b331-4e83-89f4-48858ddc4741","system_id":"levelo_inurba_marseille","lat":43.33615,"lon":5.41021,"is_reserved":false,"is_disabled":false,"rental_uris":{"android":"levelo://app?vid=5d0612c0-b331-4e83-89f4-48858ddc4741","ios":"levelo://app?vid=5d0612c0-b331-4e83-89f4-48858ddc4741"},"vehicle_type_id":"4","last_reported":1686413255,"current_range_meters":31200,"station_id":"ce4bhqh2rcd13ifvqhmg","pricing_plan_id":"free"},{"bike_id":"68f2201d-f6f2-4923-8c58-864cf648b16b","system_id":"levelo_inurba_marseille","lat":43.273125,"lon":5.390731,"is_reserved":false,"is_disabled":false,"rental_uris":{"android":"levelo://app?vid=68f2201d-f6f2-4923-8c58-864cf648b16b","ios":"levelo://app?vid=68f2201d-f6f2-4923-8c58-864cf648b16b"},"vehicle_type_id":"4","last_reported":1686413255,"current_range_meters":26400,"station_id":"ce4bhgp2rcd13ifvqfe0","pricing_plan_id":"free"},{"bike_id":"bae29580-3af6-4d62-8c69-2fdcb5ea15bd","system_id":"levelo_inurba_marseille","lat":43.273125,"lon":5.390731,"is_reserved":false,"is_disabled":false,"rental_uris":{"android":"levelo://app?vid=bae29580-3af6-4d62-8c69-2fdcb5ea15bd","ios":"levelo://app?vid=bae29580-3af6-4d62-8c69-2fdcb5ea15bd"},"vehicle_type_id":"4","last_reported":1686413255,"current_range_meters":6800,"station_id":"ce4bhgp2rcd13ifvqfe0","pricing_plan_id":"free"},{"bike_id":"a27250bc-ec96-4265-bb80-542779db472f","system_id":"levelo_inurba_marseille","lat":43.272116,"lon":5.391747,"is_reserved":false,"is_disabled":false,"rental_uris":{"android":"levelo://app?vid=a27250bc-ec96-4265-bb80-542779db472f","ios":"levelo://app?vid=a27250bc-ec96-4265-bb80-542779db472f"},"vehicle_type_id":"4","last_reported":1686413255,"current_range_meters":24800,"station_id":"ce4bhhp2rcd13ifvqfm0","pricing_plan_id":"free"},{"bike_id":"2bfc4354-dcf6-421c-a5de-b19f6be4568b","system_id":"levelo_inurba_marseille","lat":43.278128,"lon":5.407195,"is_reserved":false,"is_disabled":false,"rental_uris":{"android":"levelo://app?vid=2bfc4354-dcf6-421c-a5de-b19f6be4568b","ios":"levelo://app?vid=2bfc4354-dcf6-421c-a5de-b19f6be4568b"},"vehicle_type_id":"4","last_reported":1686413255,"current_range_meters":4800,"station_id":"ce4bhnh2rcd13ifvqgtg","pricing_plan_id":"free"},{"bike_id":"320ee63a-fc92-4494-9842-3a49cc676f19","system_id":"levelo_inurba_marseille","lat":43.278128,"lon":5.407195,"is_reserved":false,"is_disabled":false,"rental_uris":{"android":"levelo://app?vid=320ee63a-fc92-4494-9842-3a49cc676f19","ios":"levelo://app?vid=320ee63a-fc92-4494-9842-3a49cc676f19"},"vehicle_type_id":"4","last_reported":1686413255,"current_range_meters":0,"station_id":"ce4bhnh2rcd13ifvqgtg","pricing_plan_id":"free"},{"bike_id":"47fd5ed2-b0c5-47dc-a66b-7ea669c54c99","system_id":"levelo_inurba_marseille","lat":43.269319,"lon":5.389397,"is_reserved":false,"is_disabled":false,"rental_uris":{"android":"levelo://app?vid=47fd5ed2-b0c5-47dc-a66b-7ea669c54c99","ios":"levelo://app?vid=47fd5ed2-b0c5-47dc-a66b-7ea669c54c99"},"vehicle_type_id":"4","last_reported":1686413255,"current_range_meters":4400,"station_id":"ce4bhhh2rcd13ifvqfl0","pricing_plan_id":"free"},{"bike_id":"6b97c008-b652-45d7-97ca-be4c16d26e6d","system_id":"levelo_inurba_marseille","lat":43.26637,"lon":5.382,"is_reserved":false,"is_disabled":false,"rental_uris":{"android":"levelo://app?vid=6b97c008-b652-45d7-97ca-be4c16d26e6d","ios":"levelo://app?vid=6b97c008-b652-45d7-97ca-be4c16d26e6d"},"vehicle_type_id":"4","last_reported":1686413255,"current_range_meters":31600,"station_id":"","pricing_plan_id":"free"},{"bike_id":"09706511-9637-4cfb-a8cf-69d9cc386777","system_id":"levelo_inurba_marseille","lat":43.27093,"lon":5.40007,"is_reserved":false,"is_disabled":false,"rental_uris":{"android":"levelo://app?vid=09706511-9637-4cfb-a8cf-69d9cc386777","ios":"levelo://app?vid=09706511-9637-4cfb-a8cf-69d9cc386777"},"vehicle_type_id":"4","last_reported":1686413255,"current_range_meters":28800,"station_id":"ce4bhhp2rcd13ifvqfm0","pricing_plan_id":"free"},{"bike_id":"91d94c71-8533-4efc-a134-db40f05119ac","system_id":"levelo_inurba_marseille","lat":43.26234,"lon":5.37046,"is_reserved":false,"is_disabled":false,"rental_uris":{"android":"levelo://app?vid=91d94c71-8533-4efc-a134-db40f05119ac","ios":"levelo://app?vid=91d94c71-8533-4efc-a134-db40f05119ac"},"vehicle_type_id":"4","last_reported":1686413255,"current_range_meters":16000,"station_id":"","pricing_plan_id":"free"},{"bike_id":"e0b38b4d-87b6-4e45-8f4e-99db5927d4a1","system_id":"levelo_inurba_marseille","lat":43.261782,"lon":5.374515,"is_reserved":false,"is_disabled":false,"rental_uris":{"android":"levelo://app?vid=e0b38b4d-87b6-4e45-8f4e-99db5927d4a1","ios":"levelo://app?vid=e0b38b4d-87b6-4e45-8f4e-99db5927d4a1"},"vehicle_type_id":"4","last_reported":1686413255,"current_range_meters":14800,"station_id":"ce4bhgp2rcd13ifvqfc0","pricing_plan_id":"free"},{"bike_id":"48775af0-c737-4fcb-91c6-5e271178f799","system_id":"levelo_inurba_marseille","lat":43.261782,"lon":5.374515,"is_reserved":false,"is_disabled":false,"rental_uris":{"android":"levelo://app?vid=48775af0-c737-4fcb-91c6-5e271178f799","ios":"levelo://app?vid=48775af0-c737-4fcb-91c6-5e271178f799"},"vehicle_type_id":"4","last_reported":1686413255,"current_range_meters":13600,"station_id":"ce4bhgp2rcd13ifvqfc0","pricing_plan_id":"free"},{"bike_id":"447c63d4-a54e-46c0-af21-498e3fcd85ce","system_id":"levelo_inurba_marseille","lat":43.33332,"lon":5.43134,"is_reserved":false,"is_disabled":false,"rental_uris":{"android":"levelo://app?vid=447c63d4-a54e-46c0-af21-498e3fcd85ce","ios":"levelo://app?vid=447c63d4-a54e-46c0-af21-498e3fcd85ce"},"vehicle_type_id":"4","last_reported":1686413255,"current_range_meters":21200,"station_id":"","pricing_plan_id":"free"},{"bike_id":"764037f4-29d7-4d18-a494-31dd843bb5ac","system_id":"levelo_inurba_marseille","lat":43.261782,"lon":5.374515,"is_reserved":false,"is_disabled":false,"rental_uris":{"android":"levelo://app?vid=764037f4-29d7-4d18-a494-31dd843bb5ac","ios":"levelo://app?vid=764037f4-29d7-4d18-a494-31dd843bb5ac"},"vehicle_type_id":"4","last_reported":1686413255,"current_range_meters":0,"station_id":"ce4bhgp2rcd13ifvqfc0","pricing_plan_id":"free"},{"bike_id":"6853ea80-78f9-4825-8105-002e10c67b8f","system_id":"levelo_inurba_marseille","lat":43.33326,"lon":5.43144,"is_reserved":false,"is_disabled":false,"rental_uris":{"android":"levelo://app?vid=6853ea80-78f9-4825-8105-002e10c67b8f","ios":"levelo://app?vid=6853ea80-78f9-4825-8105-002e10c67b8f"},"vehicle_type_id":"4","last_reported":1686413255,"current_range_meters":18800,"station_id":"","pricing_plan_id":"free"},{"bike_id":"0e42dff2-af02-4302-878e-d90f5cf37b40","system_id":"levelo_inurba_marseille","lat":43.317104,"lon":5.436818,"is_reserved":false,"is_disabled":false,"rental_uris":{"android":"levelo://app?vid=0e42dff2-af02-4302-878e-d90f5cf37b40","ios":"levelo://app?vid=0e42dff2-af02-4302-878e-d90f5cf37b40"},"vehicle_type_id":"4","last_reported":1686413255,"current_range_meters":7200,"station_id":"ce4bhp92rcd13ifvqhcg","pricing_plan_id":"free"},{"bike_id":"8e920f77-983f-4229-98ed-76d9d541cfc9","system_id":"levelo_inurba_marseille","lat":43.27184,"lon":5.40988,"is_reserved":false,"is_disabled":false,"rental_uris":{"android":"levelo://app?vid=8e920f77-983f-4229-98ed-76d9d541cfc9","ios":"levelo://app?vid=8e920f77-983f-4229-98ed-76d9d541cfc9"},"vehicle_type_id":"4","last_reported":1686413255,"current_range_meters":12000,"station_id":"","pricing_plan_id":"free"},{"bike_id":"d1ec23aa-41f6-44c8-b08d-1930ca296976","system_id":"levelo_inurba_marseille","lat":43.27183,"lon":5.40994,"is_reserved":false,"is_disabled":false,"rental_uris":{"android":"levelo://app?vid=d1ec23aa-41f6-44c8-b08d-1930ca296976","ios":"levelo://app?vid=d1ec23aa-41f6-44c8-b08d-1930ca296976"},"vehicle_type_id":"4","last_reported":1686413255,"current_range_meters":10000,"station_id":"","pricing_plan_id":"free"},{"bike_id":"387dda57-7343-4db6-bc10-20db60e7dca6","system_id":"levelo_inurba_marseille","lat":43.27167,"lon":5.40993,"is_reserved":false,"is_disabled":false,"rental_uris":{"android":"levelo://app?vid=387dda57-7343-4db6-bc10-20db60e7dca6","ios":"levelo://app?vid=387dda57-7343-4db6-bc10-20db60e7dca6"},"vehicle_type_id":"4","last_reported":1686413255,"current_range_meters":5600,"station_id":"","pricing_plan_id":"free"},{"bike_id":"66ca279f-ce8a-43c3-956e-d957d20a8b4d","system_id":"levelo_inurba_marseille","lat":43.26808,"lon":5.40273,"is_reserved":false,"is_disabled":false,"rental_uris":{"android":"levelo://app?vid=66ca279f-ce8a-43c3-956e-d957d20a8b4d","ios":"levelo://app?vid=66ca279f-ce8a-43c3-956e-d957d20a8b4d"},"vehicle_type_id":"4","last_reported":1686413255,"current_range_meters":0,"station_id":"ce501612rcd8frsf0b60","pricing_plan_id":"free"},{"bike_id":"f8bededa-9a44-4618-8047-bf20619ed59f","system_id":"levelo_inurba_marseille","lat":43.267959,"lon":5.402687,"is_reserved":false,"is_disabled":false,"rental_uris":{"android":"levelo://app?vid=f8bededa-9a44-4618-8047-bf20619ed59f","ios":"levelo://app?vid=f8bededa-9a44-4618-8047-bf20619ed59f"},"vehicle_type_id":"4","last_reported":1686413255,"current_range_meters":5200,"station_id":"ce501612rcd8frsf0b60","pricing_plan_id":"free"},{"bike_id":"1e50d4c5-46cf-4d7c-9130-3b1369edbffb","system_id":"levelo_inurba_marseille","lat":43.27347,"lon":5.41325,"is_reserved":false,"is_disabled":false,"rental_uris":{"android":"levelo://app?vid=1e50d4c5-46cf-4d7c-9130-3b1369edbffb","ios":"levelo://app?vid=1e50d4c5-46cf-4d7c-9130-3b1369edbffb"},"vehicle_type_id":"4","last_reported":1686413255,"current_range_meters":19600,"station_id":"","pricing_plan_id":"free"},{"bike_id":"a3d8898c-42ea-4424-b229-590f5f81bdad","system_id":"levelo_inurba_marseille","lat":43.26361,"lon":5.39258,"is_reserved":false,"is_disabled":false,"rental_uris":{"android":"levelo://app?vid=a3d8898c-42ea-4424-b229-590f5f81bdad","ios":"levelo://app?vid=a3d8898c-42ea-4424-b229-590f5f81bdad"},"vehicle_type_id":"4","last_reported":1686413255,"current_range_meters":15600,"station_id":"","pricing_plan_id":"free"},{"bike_id":"097beb3b-9a36-41ee-8ce6-343e3d2e510f","system_id":"levelo_inurba_marseille","lat":43.298768,"lon":5.43643,"is_reserved":false,"is_disabled":false,"rental_uris":{"android":"levelo://app?vid=097beb3b-9a36-41ee-8ce6-343e3d2e510f","ios":"levelo://app?vid=097beb3b-9a36-41ee-8ce6-343e3d2e510f"},"vehicle_type_id":"4","last_reported":1686413255,"current_range_meters":31600,"station_id":"ce4bhpp2rcd13ifvqhfg","pricing_plan_id":"free"},{"bike_id":"a1bd5fa6-ee2a-42a3-8e42-ec7885b2801a","system_id":"levelo_inurba_marseille","lat":43.298768,"lon":5.43643,"is_reserved":false,"is_disabled":false,"rental_uris":{"android":"levelo://app?vid=a1bd5fa6-ee2a-42a3-8e42-ec7885b2801a","ios":"levelo://app?vid=a1bd5fa6-ee2a-42a3-8e42-ec7885b2801a"},"vehicle_type_id":"4","last_reported":1686413255,"current_range_meters":25200,"station_id":"ce4bhpp2rcd13ifvqhfg","pricing_plan_id":"free"},{"bike_id":"a5b17771-de25-459f-a635-b718575b3b69","system_id":"levelo_inurba_marseille","lat":43.29902,"lon":5.43682,"is_reserved":false,"is_disabled":false,"rental_uris":{"android":"levelo://app?vid=a5b17771-de25-459f-a635-b718575b3b69","ios":"levelo://app?vid=a5b17771-de25-459f-a635-b718575b3b69"},"vehicle_type_id":"4","last_reported":1686413255,"current_range_meters":21600,"station_id":"","pricing_plan_id":"free"},{"bike_id":"c49f8925-22ed-45be-89a8-975bfff4712a","system_id":"levelo_inurba_marseille","lat":43.260225,"lon":5.375455,"is_reserved":false,"is_disabled":false,"rental_uris":{"android":"levelo://app?vid=c49f8925-22ed-45be-89a8-975bfff4712a","ios":"levelo://app?vid=c49f8925-22ed-45be-89a8-975bfff4712a"},"vehicle_type_id":"4","last_reported":1686413255,"current_range_meters":11600,"station_id":"ce4bhgh2rcd13ifvqfa0","pricing_plan_id":"free"},{"bike_id":"8bae052b-3edc-4345-85b1-d116189b7c89","system_id":"levelo_inurba_marseille","lat":43.33407,"lon":5.43425,"is_reserved":false,"is_disabled":false,"rental_uris":{"android":"levelo://app?vid=8bae052b-3edc-4345-85b1-d116189b7c89","ios":"levelo://app?vid=8bae052b-3edc-4345-85b1-d116189b7c89"},"vehicle_type_id":"4","last_reported":1686413255,"current_range_meters":12800,"station_id":"","pricing_plan_id":"free"},{"bike_id":"0abd466f-ae7a-4789-a218-e3b2c168a2b3","system_id":"levelo_inurba_marseille","lat":43.25961,"lon":5.3755,"is_reserved":false,"is_disabled":false,"rental_uris":{"android":"levelo://app?vid=0abd466f-ae7a-4789-a218-e3b2c168a2b3","ios":"levelo://app?vid=0abd466f-ae7a-4789-a218-e3b2c168a2b3"},"vehicle_type_id":"4","last_reported":1686413255,"current_range_meters":2000,"station_id":"","pricing_plan_id":"free"},{"bike_id":"bd5da142-9e08-421a-929d-5d8b54469f1b","system_id":"levelo_inurba_marseille","lat":43.26782,"lon":5.41148,"is_reserved":false,"is_disabled":false,"rental_uris":{"android":"levelo://app?vid=bd5da142-9e08-421a-929d-5d8b54469f1b","ios":"levelo://app?vid=bd5da142-9e08-421a-929d-5d8b54469f1b"},"vehicle_type_id":"4","last_reported":1686413255,"current_range_meters":16400,"station_id":"","pricing_plan_id":"free"},{"bike_id":"c6a5b0d2-7aea-44ce-a90a-0183bf8c8f1d","system_id":"levelo_inurba_marseille","lat":43.26085,"lon":5.39396,"is_reserved":false,"is_disabled":false,"rental_uris":{"android":"levelo://app?vid=c6a5b0d2-7aea-44ce-a90a-0183bf8c8f1d","ios":"levelo://app?vid=c6a5b0d2-7aea-44ce-a90a-0183bf8c8f1d"},"vehicle_type_id":"4","last_reported":1686413255,"current_range_meters":30400,"station_id":"ce4bhh92rcd13ifvqfj0","pricing_plan_id":"free"},{"bike_id":"e84f9986-654a-49b7-9d97-df5b3f3e1bd0","system_id":"levelo_inurba_marseille","lat":43.275028,"lon":5.424534,"is_reserved":false,"is_disabled":false,"rental_uris":{"android":"levelo://app?vid=e84f9986-654a-49b7-9d97-df5b3f3e1bd0","ios":"levelo://app?vid=e84f9986-654a-49b7-9d97-df5b3f3e1bd0"},"vehicle_type_id":"4","last_reported":1686413255,"current_range_meters":18000,"station_id":"ce4bhn92rcd13ifvqgrg","pricing_plan_id":"free"},{"bike_id":"8362e633-701d-430c-ac6c-21badf738d70","system_id":"levelo_inurba_marseille","lat":43.275028,"lon":5.424534,"is_reserved":false,"is_disabled":false,"rental_uris":{"android":"levelo://app?vid=8362e633-701d-430c-ac6c-21badf738d70","ios":"levelo://app?vid=8362e633-701d-430c-ac6c-21badf738d70"},"vehicle_type_id":"4","last_reported":1686413255,"current_range_meters":20800,"station_id":"ce4bhn92rcd13ifvqgrg","pricing_plan_id":"free"},{"bike_id":"75801e0d-04d4-4558-98a5-000b50d94ed6","system_id":"levelo_inurba_marseille","lat":43.255756,"lon":5.382303,"is_reserved":false,"is_disabled":false,"rental_uris":{"android":"levelo://app?vid=75801e0d-04d4-4558-98a5-000b50d94ed6","ios":"levelo://app?vid=75801e0d-04d4-4558-98a5-000b50d94ed6"},"vehicle_type_id":"4","last_reported":1686413255,"current_range_meters":7600,"station_id":"ce4bhih2rcd13ifvqfs0","pricing_plan_id":"free"},{"bike_id":"f84a2a66-146b-43ae-9121-d16298be3638","system_id":"levelo_inurba_marseille","lat":43.255756,"lon":5.382303,"is_reserved":false,"is_disabled":false,"rental_uris":{"android":"levelo://app?vid=f84a2a66-146b-43ae-9121-d16298be3638","ios":"levelo://app?vid=f84a2a66-146b-43ae-9121-d16298be3638"},"vehicle_type_id":"4","last_reported":1686413255,"current_range_meters":7200,"station_id":"ce4bhih2rcd13ifvqfs0","pricing_plan_id":"free"},{"bike_id":"c522e073-5a22-476d-8948-a7c1ea6d359a","system_id":"levelo_inurba_marseille","lat":43.255756,"lon":5.382303,"is_reserved":false,"is_disabled":false,"rental_uris":{"android":"levelo://app?vid=c522e073-5a22-476d-8948-a7c1ea6d359a","ios":"levelo://app?vid=c522e073-5a22-476d-8948-a7c1ea6d359a"},"vehicle_type_id":"4","last_reported":1686413255,"current_range_meters":16400,"station_id":"ce4bhih2rcd13ifvqfs0","pricing_plan_id":"free"},{"bike_id":"fa1ae36a-d559-4983-8d36-c749789d562b","system_id":"levelo_inurba_marseille","lat":43.255756,"lon":5.382303,"is_reserved":false,"is_disabled":false,"rental_uris":{"android":"levelo://app?vid=fa1ae36a-d559-4983-8d36-c749789d562b","ios":"levelo://app?vid=fa1ae36a-d559-4983-8d36-c749789d562b"},"vehicle_type_id":"4","last_reported":1686413255,"current_range_meters":30800,"station_id":"ce4bhih2rcd13ifvqfs0","pricing_plan_id":"free"},{"bike_id":"a781a343-b241-4f95-ab3c-8b2df648c6cb","system_id":"levelo_inurba_marseille","lat":43.33312,"lon":5.44167,"is_reserved":false,"is_disabled":false,"rental_uris":{"android":"levelo://app?vid=a781a343-b241-4f95-ab3c-8b2df648c6cb","ios":"levelo://app?vid=a781a343-b241-4f95-ab3c-8b2df648c6cb"},"vehicle_type_id":"4","last_reported":1686413255,"current_range_meters":5200,"station_id":"","pricing_plan_id":"free"},{"bike_id":"55512ea1-081c-4d17-bc61-a2c2b24ee984","system_id":"levelo_inurba_marseille","lat":43.25502,"lon":5.3762,"is_reserved":false,"is_disabled":false,"rental_uris":{"android":"levelo://app?vid=55512ea1-081c-4d17-bc61-a2c2b24ee984","ios":"levelo://app?vid=55512ea1-081c-4d17-bc61-a2c2b24ee984"},"vehicle_type_id":"4","last_reported":1686413255,"current_range_meters":400,"station_id":"ce4bhh12rcd13ifvqff0","pricing_plan_id":"free"},{"bike_id":"4fdfad33-2a72-4f2a-97b7-de3be86dbfdf","system_id":"levelo_inurba_marseille","lat":43.254947,"lon":5.376454,"is_reserved":false,"is_disabled":false,"rental_uris":{"android":"levelo://app?vid=4fdfad33-2a72-4f2a-97b7-de3be86dbfdf","ios":"levelo://app?vid=4fdfad33-2a72-4f2a-97b7-de3be86dbfdf"},"vehicle_type_id":"4","last_reported":1686413255,"current_range_meters":0,"station_id":"ce4bhh12rcd13ifvqff0","pricing_plan_id":"free"},{"bike_id":"aa069271-70bd-41fe-9bb6-f9833cddad4b","system_id":"levelo_inurba_marseille","lat":43.270721,"lon":5.422764,"is_reserved":false,"is_disabled":false,"rental_uris":{"android":"levelo://app?vid=aa069271-70bd-41fe-9bb6-f9833cddad4b","ios":"levelo://app?vid=aa069271-70bd-41fe-9bb6-f9833cddad4b"},"vehicle_type_id":"4","last_reported":1686413255,"current_range_meters":31200,"station_id":"ce4bhk92rcd13ifvqgb0","pricing_plan_id":"free"},{"bike_id":"d04cbe18-3b19-4b0e-ba62-bae70613db62","system_id":"levelo_inurba_marseille","lat":43.270721,"lon":5.422764,"is_reserved":false,"is_disabled":false,"rental_uris":{"android":"levelo://app?vid=d04cbe18-3b19-4b0e-ba62-bae70613db62","ios":"levelo://app?vid=d04cbe18-3b19-4b0e-ba62-bae70613db62"},"vehicle_type_id":"4","last_reported":1686413255,"current_range_meters":27600,"station_id":"ce4bhk92rcd13ifvqgb0","pricing_plan_id":"free"},{"bike_id":"57e86920-7d70-4682-924a-b979814588c2","system_id":"levelo_inurba_marseille","lat":43.27074,"lon":5.42281,"is_reserved":false,"is_disabled":false,"rental_uris":{"android":"levelo://app?vid=57e86920-7d70-4682-924a-b979814588c2","ios":"levelo://app?vid=57e86920-7d70-4682-924a-b979814588c2"},"vehicle_type_id":"4","last_reported":1686413255,"current_range_meters":0,"station_id":"ce4bhk92rcd13ifvqgb0","pricing_plan_id":"free"},{"bike_id":"ea75c2c5-8561-4314-a103-38c08005ff32","system_id":"levelo_inurba_marseille","lat":43.270721,"lon":5.422764,"is_reserved":false,"is_disabled":false,"rental_uris":{"android":"levelo://app?vid=ea75c2c5-8561-4314-a103-38c08005ff32","ios":"levelo://app?vid=ea75c2c5-8561-4314-a103-38c08005ff32"},"vehicle_type_id":"4","last_reported":1686413255,"current_range_meters":12000,"station_id":"ce4bhk92rcd13ifvqgb0","pricing_plan_id":"free"},{"bike_id":"14b7b405-3eb1-4c27-8c2e-1daca363610b","system_id":"levelo_inurba_marseille","lat":43.252,"lon":5.37418,"is_reserved":false,"is_disabled":false,"rental_uris":{"android":"levelo://app?vid=14b7b405-3eb1-4c27-8c2e-1daca363610b","ios":"levelo://app?vid=14b7b405-3eb1-4c27-8c2e-1daca363610b"},"vehicle_type_id":"4","last_reported":1686413255,"current_range_meters":9600,"station_id":"","pricing_plan_id":"free"},{"bike_id":"8c1d53ba-5a6e-4bae-8086-4dbf4d87f924","system_id":"levelo_inurba_marseille","lat":43.25171,"lon":5.37358,"is_reserved":false,"is_disabled":false,"rental_uris":{"android":"levelo://app?vid=8c1d53ba-5a6e-4bae-8086-4dbf4d87f924","ios":"levelo://app?vid=8c1d53ba-5a6e-4bae-8086-4dbf4d87f924"},"vehicle_type_id":"4","last_reported":1686413255,"current_range_meters":31200,"station_id":"","pricing_plan_id":"free"},{"bike_id":"db00ed7a-320f-49c3-8ab0-2e56afe5c7ac","system_id":"levelo_inurba_marseille","lat":43.24693,"lon":5.382096,"is_reserved":false,"is_disabled":false,"rental_uris":{"android":"levelo://app?vid=db00ed7a-320f-49c3-8ab0-2e56afe5c7ac","ios":"levelo://app?vid=db00ed7a-320f-49c3-8ab0-2e56afe5c7ac"},"vehicle_type_id":"4","last_reported":1686413255,"current_range_meters":21200,"station_id":"ce4bhih2rcd13ifvqfr0","pricing_plan_id":"free"},{"bike_id":"4c05b3d9-b402-47e7-84fc-29174609df66","system_id":"levelo_inurba_marseille","lat":43.25102,"lon":5.403214,"is_reserved":false,"is_disabled":false,"rental_uris":{"android":"levelo://app?vid=4c05b3d9-b402-47e7-84fc-29174609df66","ios":"levelo://app?vid=4c05b3d9-b402-47e7-84fc-29174609df66"},"vehicle_type_id":"4","last_reported":1686413255,"current_range_meters":13600,"station_id":"ce4bhlh2rcd13ifvqgig","pricing_plan_id":"free"},{"bike_id":"a1d42821-4f26-492d-85e6-26bf9ab76b05","system_id":"levelo_inurba_marseille","lat":43.24644,"lon":5.38912,"is_reserved":false,"is_disabled":false,"rental_uris":{"android":"levelo://app?vid=a1d42821-4f26-492d-85e6-26bf9ab76b05","ios":"levelo://app?vid=a1d42821-4f26-492d-85e6-26bf9ab76b05"},"vehicle_type_id":"4","last_reported":1686413255,"current_range_meters":30800,"station_id":"ce4bhg12rcd13ifvqf60","pricing_plan_id":"free"},{"bike_id":"c2955ade-e6ed-4972-a733-0f9f5e6029ea","system_id":"levelo_inurba_marseille","lat":43.24392,"lon":5.37063,"is_reserved":false,"is_disabled":false,"rental_uris":{"android":"levelo://app?vid=c2955ade-e6ed-4972-a733-0f9f5e6029ea","ios":"levelo://app?vid=c2955ade-e6ed-4972-a733-0f9f5e6029ea"},"vehicle_type_id":"4","last_reported":1686413255,"current_range_meters":31200,"station_id":"ce4bhhh2rcd13ifvqfk0","pricing_plan_id":"free"},{"bike_id":"56d1d180-f50f-402b-9fee-f65564b63952","system_id":"levelo_inurba_marseille","lat":43.245581,"lon":5.395069,"is_reserved":false,"is_disabled":false,"rental_uris":{"android":"levelo://app?vid=56d1d180-f50f-402b-9fee-f65564b63952","ios":"levelo://app?vid=56d1d180-f50f-402b-9fee-f65564b63952"},"vehicle_type_id":"4","last_reported":1686413255,"current_range_meters":29200,"station_id":"ce4bhlp2rcd13ifvqgjg","pricing_plan_id":"free"},{"bike_id":"7b92bb4e-c37f-408a-b8c5-8d9651549545","system_id":"levelo_inurba_marseille","lat":43.29012,"lon":5.45985,"is_reserved":false,"is_disabled":false,"rental_uris":{"android":"levelo://app?vid=7b92bb4e-c37f-408a-b8c5-8d9651549545","ios":"levelo://app?vid=7b92bb4e-c37f-408a-b8c5-8d9651549545"},"vehicle_type_id":"4","last_reported":1686413255,"current_range_meters":21600,"station_id":"","pricing_plan_id":"free"},{"bike_id":"7fc773ec-539a-420e-957f-61ba5e71cf04","system_id":"levelo_inurba_marseille","lat":43.24079,"lon":5.37751,"is_reserved":false,"is_disabled":false,"rental_uris":{"android":"levelo://app?vid=7fc773ec-539a-420e-957f-61ba5e71cf04","ios":"levelo://app?vid=7fc773ec-539a-420e-957f-61ba5e71cf04"},"vehicle_type_id":"4","last_reported":1686413255,"current_range_meters":0,"station_id":"","pricing_plan_id":"free"},{"bike_id":"1b83fc1e-5595-4ec6-9249-9d2f23a6015f","system_id":"levelo_inurba_marseille","lat":43.24079,"lon":5.37753,"is_reserved":false,"is_disabled":false,"rental_uris":{"android":"levelo://app?vid=1b83fc1e-5595-4ec6-9249-9d2f23a6015f","ios":"levelo://app?vid=1b83fc1e-5595-4ec6-9249-9d2f23a6015f"},"vehicle_type_id":"4","last_reported":1686413255,"current_range_meters":30400,"station_id":"","pricing_plan_id":"free"},{"bike_id":"2584cd1f-2dbb-4a60-8dcd-6546963a2b07","system_id":"levelo_inurba_marseille","lat":43.23968,"lon":5.36628,"is_reserved":false,"is_disabled":false,"rental_uris":{"android":"levelo://app?vid=2584cd1f-2dbb-4a60-8dcd-6546963a2b07","ios":"levelo://app?vid=2584cd1f-2dbb-4a60-8dcd-6546963a2b07"},"vehicle_type_id":"4","last_reported":1686413255,"current_range_meters":2400,"station_id":"ce4bhi12rcd13ifvqfp0","pricing_plan_id":"free"},{"bike_id":"1cc0b8cc-9d7a-49e5-a60e-c3d6ae7bcaf8","system_id":"levelo_inurba_marseille","lat":43.239588,"lon":5.366238,"is_reserved":false,"is_disabled":false,"rental_uris":{"android":"levelo://app?vid=1cc0b8cc-9d7a-49e5-a60e-c3d6ae7bcaf8","ios":"levelo://app?vid=1cc0b8cc-9d7a-49e5-a60e-c3d6ae7bcaf8"},"vehicle_type_id":"4","last_reported":1686413255,"current_range_meters":31600,"station_id":"ce4bhi12rcd13ifvqfp0","pricing_plan_id":"free"},{"bike_id":"27945972-c64b-41af-99fe-7112e3494202","system_id":"levelo_inurba_marseille","lat":43.239588,"lon":5.366238,"is_reserved":false,"is_disabled":false,"rental_uris":{"android":"levelo://app?vid=27945972-c64b-41af-99fe-7112e3494202","ios":"levelo://app?vid=27945972-c64b-41af-99fe-7112e3494202"},"vehicle_type_id":"4","last_reported":1686413255,"current_range_meters":32000,"station_id":"ce4bhi12rcd13ifvqfp0","pricing_plan_id":"free"},{"bike_id":"033c4fbb-438f-461c-b908-b2e82159f9a6","system_id":"levelo_inurba_marseille","lat":43.239588,"lon":5.366238,"is_reserved":false,"is_disabled":false,"rental_uris":{"android":"levelo://app?vid=033c4fbb-438f-461c-b908-b2e82159f9a6","ios":"levelo://app?vid=033c4fbb-438f-461c-b908-b2e82159f9a6"},"vehicle_type_id":"4","last_reported":1686413255,"current_range_meters":10800,"station_id":"ce4bhi12rcd13ifvqfp0","pricing_plan_id":"free"},{"bike_id":"67dc2350-e95d-4247-a209-6e7b32f29a69","system_id":"levelo_inurba_marseille","lat":43.239588,"lon":5.366238,"is_reserved":false,"is_disabled":false,"rental_uris":{"android":"levelo://app?vid=67dc2350-e95d-4247-a209-6e7b32f29a69","ios":"levelo://app?vid=67dc2350-e95d-4247-a209-6e7b32f29a69"},"vehicle_type_id":"4","last_reported":1686413255,"current_range_meters":31200,"station_id":"ce4bhi12rcd13ifvqfp0","pricing_plan_id":"free"},{"bike_id":"ceffc2f7-1542-4520-918e-b13be3161448","system_id":"levelo_inurba_marseille","lat":43.23962,"lon":5.3664,"is_reserved":false,"is_disabled":false,"rental_uris":{"android":"levelo://app?vid=ceffc2f7-1542-4520-918e-b13be3161448","ios":"levelo://app?vid=ceffc2f7-1542-4520-918e-b13be3161448"},"vehicle_type_id":"4","last_reported":1686413255,"current_range_meters":31200,"station_id":"ce4bhi12rcd13ifvqfp0","pricing_plan_id":"free"},{"bike_id":"5f5eba71-f80f-4b67-aeae-249c03e867fe","system_id":"levelo_inurba_marseille","lat":43.23962,"lon":5.36629,"is_reserved":false,"is_disabled":false,"rental_uris":{"android":"levelo://app?vid=5f5eba71-f80f-4b67-aeae-249c03e867fe","ios":"levelo://app?vid=5f5eba71-f80f-4b67-aeae-249c03e867fe"},"vehicle_type_id":"4","last_reported":1686413255,"current_range_meters":17600,"station_id":"ce4bhi12rcd13ifvqfp0","pricing_plan_id":"free"},{"bike_id":"435d10fb-9121-48fa-b51f-654aa6400079","system_id":"levelo_inurba_marseille","lat":43.23962,"lon":5.3662,"is_reserved":false,"is_disabled":false,"rental_uris":{"android":"levelo://app?vid=435d10fb-9121-48fa-b51f-654aa6400079","ios":"levelo://app?vid=435d10fb-9121-48fa-b51f-654aa6400079"},"vehicle_type_id":"4","last_reported":1686413255,"current_range_meters":31200,"station_id":"ce4bhi12rcd13ifvqfp0","pricing_plan_id":"free"},{"bike_id":"10b985bc-dbbb-4b3f-b9ff-a94f30249cc5","system_id":"levelo_inurba_marseille","lat":43.239588,"lon":5.366238,"is_reserved":false,"is_disabled":false,"rental_uris":{"android":"levelo://app?vid=10b985bc-dbbb-4b3f-b9ff-a94f30249cc5","ios":"levelo://app?vid=10b985bc-dbbb-4b3f-b9ff-a94f30249cc5"},"vehicle_type_id":"4","last_reported":1686413255,"current_range_meters":31600,"station_id":"ce4bhi12rcd13ifvqfp0","pricing_plan_id":"free"},{"bike_id":"da36eb3f-d343-40f7-ba60-d8252758d09c","system_id":"levelo_inurba_marseille","lat":43.23961,"lon":5.36638,"is_reserved":false,"is_disabled":false,"rental_uris":{"android":"levelo://app?vid=da36eb3f-d343-40f7-ba60-d8252758d09c","ios":"levelo://app?vid=da36eb3f-d343-40f7-ba60-d8252758d09c"},"vehicle_type_id":"4","last_reported":1686413255,"current_range_meters":31200,"station_id":"ce4bhi12rcd13ifvqfp0","pricing_plan_id":"free"},{"bike_id":"bec3a7d7-d1c5-4dd0-aebb-d67a51390251","system_id":"levelo_inurba_marseille","lat":43.23956,"lon":5.36623,"is_reserved":false,"is_disabled":false,"rental_uris":{"android":"levelo://app?vid=bec3a7d7-d1c5-4dd0-aebb-d67a51390251","ios":"levelo://app?vid=bec3a7d7-d1c5-4dd0-aebb-d67a51390251"},"vehicle_type_id":"4","last_reported":1686413255,"current_range_meters":30400,"station_id":"ce4bhi12rcd13ifvqfp0","pricing_plan_id":"free"},{"bike_id":"3c0d63a1-bf77-4a3b-9def-ae8da33f563f","system_id":"levelo_inurba_marseille","lat":43.23853,"lon":5.38966,"is_reserved":false,"is_disabled":false,"rental_uris":{"android":"levelo://app?vid=3c0d63a1-bf77-4a3b-9def-ae8da33f563f","ios":"levelo://app?vid=3c0d63a1-bf77-4a3b-9def-ae8da33f563f"},"vehicle_type_id":"4","last_reported":1686413255,"current_range_meters":4400,"station_id":"","pricing_plan_id":"free"},{"bike_id":"12de3828-4c9c-4f12-a7b0-5aa63b2a0c06","system_id":"levelo_inurba_marseille","lat":43.24836,"lon":5.42359,"is_reserved":false,"is_disabled":false,"rental_uris":{"android":"levelo://app?vid=12de3828-4c9c-4f12-a7b0-5aa63b2a0c06","ios":"levelo://app?vid=12de3828-4c9c-4f12-a7b0-5aa63b2a0c06"},"vehicle_type_id":"4","last_reported":1686413255,"current_range_meters":19200,"station_id":"","pricing_plan_id":"free"},{"bike_id":"9027a1ac-201d-41d4-8a6f-bd3ef1626537","system_id":"levelo_inurba_marseille","lat":43.23201,"lon":5.35554,"is_reserved":false,"is_disabled":false,"rental_uris":{"android":"levelo://app?vid=9027a1ac-201d-41d4-8a6f-bd3ef1626537","ios":"levelo://app?vid=9027a1ac-201d-41d4-8a6f-bd3ef1626537"},"vehicle_type_id":"4","last_reported":1686413255,"current_range_meters":18800,"station_id":"ce4bhu92rcd13ifvqi70","pricing_plan_id":"free"},{"bike_id":"2aae4bed-9cf6-4c5c-b245-93cfa99ea9f7","system_id":"levelo_inurba_marseille","lat":43.232,"lon":5.35558,"is_reserved":false,"is_disabled":false,"rental_uris":{"android":"levelo://app?vid=2aae4bed-9cf6-4c5c-b245-93cfa99ea9f7","ios":"levelo://app?vid=2aae4bed-9cf6-4c5c-b245-93cfa99ea9f7"},"vehicle_type_id":"4","last_reported":1686413255,"current_range_meters":26000,"station_id":"ce4bhu92rcd13ifvqi70","pricing_plan_id":"free"},{"bike_id":"e99badbb-f446-41e2-9ad4-266bf474b983","system_id":"levelo_inurba_marseille","lat":43.23199,"lon":5.35566,"is_reserved":false,"is_disabled":false,"rental_uris":{"android":"levelo://app?vid=e99badbb-f446-41e2-9ad4-266bf474b983","ios":"levelo://app?vid=e99badbb-f446-41e2-9ad4-266bf474b983"},"vehicle_type_id":"4","last_reported":1686413255,"current_range_meters":31200,"station_id":"ce4bhu92rcd13ifvqi70","pricing_plan_id":"free"},{"bike_id":"a0952f2b-d31a-496b-9aa3-f4ebb14eb140","system_id":"levelo_inurba_marseille","lat":43.232,"lon":5.35544,"is_reserved":false,"is_disabled":false,"rental_uris":{"android":"levelo://app?vid=a0952f2b-d31a-496b-9aa3-f4ebb14eb140","ios":"levelo://app?vid=a0952f2b-d31a-496b-9aa3-f4ebb14eb140"},"vehicle_type_id":"4","last_reported":1686413255,"current_range_meters":0,"station_id":"ce4bhu92rcd13ifvqi70","pricing_plan_id":"free"},{"bike_id":"36e83f6a-d78b-4c61-b605-737239a53f34","system_id":"levelo_inurba_marseille","lat":43.23195,"lon":5.35563,"is_reserved":false,"is_disabled":false,"rental_uris":{"android":"levelo://app?vid=36e83f6a-d78b-4c61-b605-737239a53f34","ios":"levelo://app?vid=36e83f6a-d78b-4c61-b605-737239a53f34"},"vehicle_type_id":"4","last_reported":1686413255,"current_range_meters":31200,"station_id":"ce4bhu92rcd13ifvqi70","pricing_plan_id":"free"},{"bike_id":"ca0b21d8-b9ee-4471-b50f-ca10ab96d89a","system_id":"levelo_inurba_marseille","lat":43.23196,"lon":5.35547,"is_reserved":false,"is_disabled":false,"rental_uris":{"android":"levelo://app?vid=ca0b21d8-b9ee-4471-b50f-ca10ab96d89a","ios":"levelo://app?vid=ca0b21d8-b9ee-4471-b50f-ca10ab96d89a"},"vehicle_type_id":"4","last_reported":1686413255,"current_range_meters":11600,"station_id":"ce4bhu92rcd13ifvqi70","pricing_plan_id":"free"},{"bike_id":"c3c01aaf-ceb9-49d5-8698-3e197097ce72","system_id":"levelo_inurba_marseille","lat":43.23195,"lon":5.35552,"is_reserved":false,"is_disabled":false,"rental_uris":{"android":"levelo://app?vid=c3c01aaf-ceb9-49d5-8698-3e197097ce72","ios":"levelo://app?vid=c3c01aaf-ceb9-49d5-8698-3e197097ce72"},"vehicle_type_id":"4","last_reported":1686413255,"current_range_meters":26800,"station_id":"ce4bhu92rcd13ifvqi70","pricing_plan_id":"free"},{"bike_id":"6c2145dc-59f8-4db6-baaa-a82744d5dd10","system_id":"levelo_inurba_marseille","lat":43.23195,"lon":5.35552,"is_reserved":false,"is_disabled":false,"rental_uris":{"android":"levelo://app?vid=6c2145dc-59f8-4db6-baaa-a82744d5dd10","ios":"levelo://app?vid=6c2145dc-59f8-4db6-baaa-a82744d5dd10"},"vehicle_type_id":"4","last_reported":1686413255,"current_range_meters":5600,"station_id":"ce4bhu92rcd13ifvqi70","pricing_plan_id":"free"},{"bike_id":"caaba9e1-90eb-4e70-b41e-a2f6cceb3da1","system_id":"levelo_inurba_marseille","lat":43.23195,"lon":5.3555,"is_reserved":false,"is_disabled":false,"rental_uris":{"android":"levelo://app?vid=caaba9e1-90eb-4e70-b41e-a2f6cceb3da1","ios":"levelo://app?vid=caaba9e1-90eb-4e70-b41e-a2f6cceb3da1"},"vehicle_type_id":"4","last_reported":1686413255,"current_range_meters":16400,"station_id":"ce4bhu92rcd13ifvqi70","pricing_plan_id":"free"},{"bike_id":"b06a4694-54fe-4672-ae54-99b24da40d5b","system_id":"levelo_inurba_marseille","lat":43.23194,"lon":5.35554,"is_reserved":false,"is_disabled":false,"rental_uris":{"android":"levelo://app?vid=b06a4694-54fe-4672-ae54-99b24da40d5b","ios":"levelo://app?vid=b06a4694-54fe-4672-ae54-99b24da40d5b"},"vehicle_type_id":"4","last_reported":1686413255,"current_range_meters":21200,"station_id":"ce4bhu92rcd13ifvqi70","pricing_plan_id":"free"},{"bike_id":"bec282f4-4a68-44a7-80e0-183b1b1a5ddc","system_id":"levelo_inurba_marseille","lat":43.23194,"lon":5.35553,"is_reserved":false,"is_disabled":false,"rental_uris":{"android":"levelo://app?vid=bec282f4-4a68-44a7-80e0-183b1b1a5ddc","ios":"levelo://app?vid=bec282f4-4a68-44a7-80e0-183b1b1a5ddc"},"vehicle_type_id":"4","last_reported":1686413255,"current_range_meters":23600,"station_id":"ce4bhu92rcd13ifvqi70","pricing_plan_id":"free"},{"bike_id":"d100295d-222c-4a6e-bade-c0d4ef03aa57","system_id":"levelo_inurba_marseille","lat":43.23193,"lon":5.35565,"is_reserved":false,"is_disabled":false,"rental_uris":{"android":"levelo://app?vid=d100295d-222c-4a6e-bade-c0d4ef03aa57","ios":"levelo://app?vid=d100295d-222c-4a6e-bade-c0d4ef03aa57"},"vehicle_type_id":"4","last_reported":1686413255,"current_range_meters":31200,"station_id":"ce4bhu92rcd13ifvqi70","pricing_plan_id":"free"},{"bike_id":"1cca9504-1ca6-4304-ae6b-96ac919e2b67","system_id":"levelo_inurba_marseille","lat":43.23193,"lon":5.3556,"is_reserved":false,"is_disabled":false,"rental_uris":{"android":"levelo://app?vid=1cca9504-1ca6-4304-ae6b-96ac919e2b67","ios":"levelo://app?vid=1cca9504-1ca6-4304-ae6b-96ac919e2b67"},"vehicle_type_id":"4","last_reported":1686413255,"current_range_meters":11200,"station_id":"ce4bhu92rcd13ifvqi70","pricing_plan_id":"free"},{"bike_id":"718bf399-2a1b-4e23-8a46-7027c392538e","system_id":"levelo_inurba_marseille","lat":43.23193,"lon":5.35558,"is_reserved":false,"is_disabled":false,"rental_uris":{"android":"levelo://app?vid=718bf399-2a1b-4e23-8a46-7027c392538e","ios":"levelo://app?vid=718bf399-2a1b-4e23-8a46-7027c392538e"},"vehicle_type_id":"4","last_reported":1686413255,"current_range_meters":27200,"station_id":"ce4bhu92rcd13ifvqi70","pricing_plan_id":"free"},{"bike_id":"2285596b-418c-4ae4-adeb-01942313177b","system_id":"levelo_inurba_marseille","lat":43.23193,"lon":5.35558,"is_reserved":false,"is_disabled":false,"rental_uris":{"android":"levelo://app?vid=2285596b-418c-4ae4-adeb-01942313177b","ios":"levelo://app?vid=2285596b-418c-4ae4-adeb-01942313177b"},"vehicle_type_id":"4","last_reported":1686413255,"current_range_meters":1600,"station_id":"ce4bhu92rcd13ifvqi70","pricing_plan_id":"free"},{"bike_id":"a4b9f7be-1974-42d2-b1b1-9fa6651fa4cc","system_id":"levelo_inurba_marseille","lat":43.23193,"lon":5.35557,"is_reserved":false,"is_disabled":false,"rental_uris":{"android":"levelo://app?vid=a4b9f7be-1974-42d2-b1b1-9fa6651fa4cc","ios":"levelo://app?vid=a4b9f7be-1974-42d2-b1b1-9fa6651fa4cc"},"vehicle_type_id":"4","last_reported":1686413255,"current_range_meters":0,"station_id":"ce4bhu92rcd13ifvqi70","pricing_plan_id":"free"},{"bike_id":"47b318f5-394e-4a50-80ef-6c63cd1a123f","system_id":"levelo_inurba_marseille","lat":43.23193,"lon":5.35556,"is_reserved":false,"is_disabled":false,"rental_uris":{"android":"levelo://app?vid=47b318f5-394e-4a50-80ef-6c63cd1a123f","ios":"levelo://app?vid=47b318f5-394e-4a50-80ef-6c63cd1a123f"},"vehicle_type_id":"4","last_reported":1686413255,"current_range_meters":30400,"station_id":"ce4bhu92rcd13ifvqi70","pricing_plan_id":"free"},{"bike_id":"5aec3ab7-104f-47ae-b2db-db3d74746044","system_id":"levelo_inurba_marseille","lat":43.23192,"lon":5.35562,"is_reserved":false,"is_disabled":false,"rental_uris":{"android":"levelo://app?vid=5aec3ab7-104f-47ae-b2db-db3d74746044","ios":"levelo://app?vid=5aec3ab7-104f-47ae-b2db-db3d74746044"},"vehicle_type_id":"4","last_reported":1686413255,"current_range_meters":8400,"station_id":"ce4bhu92rcd13ifvqi70","pricing_plan_id":"free"},{"bike_id":"a1305350-7b79-420e-b069-f189d8ad8c83","system_id":"levelo_inurba_marseille","lat":43.23193,"lon":5.35544,"is_reserved":false,"is_disabled":false,"rental_uris":{"android":"levelo://app?vid=a1305350-7b79-420e-b069-f189d8ad8c83","ios":"levelo://app?vid=a1305350-7b79-420e-b069-f189d8ad8c83"},"vehicle_type_id":"4","last_reported":1686413255,"current_range_meters":30800,"station_id":"ce4bhu92rcd13ifvqi70","pricing_plan_id":"free"},{"bike_id":"78a54dc7-693a-4f46-8e16-80770ef75069","system_id":"levelo_inurba_marseille","lat":43.23192,"lon":5.35555,"is_reserved":false,"is_disabled":false,"rental_uris":{"android":"levelo://app?vid=78a54dc7-693a-4f46-8e16-80770ef75069","ios":"levelo://app?vid=78a54dc7-693a-4f46-8e16-80770ef75069"},"vehicle_type_id":"4","last_reported":1686413255,"current_range_meters":3600,"station_id":"ce4bhu92rcd13ifvqi70","pricing_plan_id":"free"},{"bike_id":"c63bbd7d-e8bf-4b1a-8c3d-53c96a698b13","system_id":"levelo_inurba_marseille","lat":43.23192,"lon":5.35548,"is_reserved":false,"is_disabled":false,"rental_uris":{"android":"levelo://app?vid=c63bbd7d-e8bf-4b1a-8c3d-53c96a698b13","ios":"levelo://app?vid=c63bbd7d-e8bf-4b1a-8c3d-53c96a698b13"},"vehicle_type_id":"4","last_reported":1686413255,"current_range_meters":31200,"station_id":"ce4bhu92rcd13ifvqi70","pricing_plan_id":"free"},{"bike_id":"0b5585a7-1d9a-45ab-965c-a3ad5f00595e","system_id":"levelo_inurba_marseille","lat":43.23191,"lon":5.35557,"is_reserved":false,"is_disabled":false,"rental_uris":{"android":"levelo://app?vid=0b5585a7-1d9a-45ab-965c-a3ad5f00595e","ios":"levelo://app?vid=0b5585a7-1d9a-45ab-965c-a3ad5f00595e"},"vehicle_type_id":"4","last_reported":1686413255,"current_range_meters":16000,"station_id":"ce4bhu92rcd13ifvqi70","pricing_plan_id":"free"},{"bike_id":"bf034299-5ddd-4db8-98ab-9d09d56751fe","system_id":"levelo_inurba_marseille","lat":43.23191,"lon":5.35556,"is_reserved":false,"is_disabled":false,"rental_uris":{"android":"levelo://app?vid=bf034299-5ddd-4db8-98ab-9d09d56751fe","ios":"levelo://app?vid=bf034299-5ddd-4db8-98ab-9d09d56751fe"},"vehicle_type_id":"4","last_reported":1686413255,"current_range_meters":14400,"station_id":"ce4bhu92rcd13ifvqi70","pricing_plan_id":"free"},{"bike_id":"aa5198ae-fb4d-4888-b807-d3bd63fcc7ff","system_id":"levelo_inurba_marseille","lat":43.23191,"lon":5.35551,"is_reserved":false,"is_disabled":false,"rental_uris":{"android":"levelo://app?vid=aa5198ae-fb4d-4888-b807-d3bd63fcc7ff","ios":"levelo://app?vid=aa5198ae-fb4d-4888-b807-d3bd63fcc7ff"},"vehicle_type_id":"4","last_reported":1686413255,"current_range_meters":31200,"station_id":"ce4bhu92rcd13ifvqi70","pricing_plan_id":"free"},{"bike_id":"987badf1-6864-4d73-bd5a-9314b906e12a","system_id":"levelo_inurba_marseille","lat":43.2319,"lon":5.35558,"is_reserved":false,"is_disabled":false,"rental_uris":{"android":"levelo://app?vid=987badf1-6864-4d73-bd5a-9314b906e12a","ios":"levelo://app?vid=987badf1-6864-4d73-bd5a-9314b906e12a"},"vehicle_type_id":"4","last_reported":1686413255,"current_range_meters":25200,"station_id":"ce4bhu92rcd13ifvqi70","pricing_plan_id":"free"},{"bike_id":"07bcb0f7-f0a9-4259-aad7-e6b3a6654585","system_id":"levelo_inurba_marseille","lat":43.231923,"lon":5.355545,"is_reserved":false,"is_disabled":false,"rental_uris":{"android":"levelo://app?vid=07bcb0f7-f0a9-4259-aad7-e6b3a6654585","ios":"levelo://app?vid=07bcb0f7-f0a9-4259-aad7-e6b3a6654585"},"vehicle_type_id":"4","last_reported":1686413255,"current_range_meters":28800,"station_id":"ce4bhu92rcd13ifvqi70","pricing_plan_id":"free"},{"bike_id":"633692e6-86ff-45fe-8e04-a50fc217219f","system_id":"levelo_inurba_marseille","lat":43.23189,"lon":5.35556,"is_reserved":false,"is_disabled":false,"rental_uris":{"android":"levelo://app?vid=633692e6-86ff-45fe-8e04-a50fc217219f","ios":"levelo://app?vid=633692e6-86ff-45fe-8e04-a50fc217219f"},"vehicle_type_id":"4","last_reported":1686413255,"current_range_meters":24000,"station_id":"ce4bhu92rcd13ifvqi70","pricing_plan_id":"free"},{"bike_id":"c78af53f-fb28-403e-afaf-62f552a1a853","system_id":"levelo_inurba_marseille","lat":43.23188,"lon":5.35564,"is_reserved":false,"is_disabled":false,"rental_uris":{"android":"levelo://app?vid=c78af53f-fb28-403e-afaf-62f552a1a853","ios":"levelo://app?vid=c78af53f-fb28-403e-afaf-62f552a1a853"},"vehicle_type_id":"4","last_reported":1686413255,"current_range_meters":21600,"station_id":"ce4bhu92rcd13ifvqi70","pricing_plan_id":"free"},{"bike_id":"0a59d98a-cb5b-422e-b761-8bf64f3c7b44","system_id":"levelo_inurba_marseille","lat":43.2319,"lon":5.35535,"is_reserved":false,"is_disabled":false,"rental_uris":{"android":"levelo://app?vid=0a59d98a-cb5b-422e-b761-8bf64f3c7b44","ios":"levelo://app?vid=0a59d98a-cb5b-422e-b761-8bf64f3c7b44"},"vehicle_type_id":"4","last_reported":1686413255,"current_range_meters":8000,"station_id":"ce4bhu92rcd13ifvqi70","pricing_plan_id":"free"},{"bike_id":"0101ec48-5f0a-4de8-a29e-d371dac1b744","system_id":"levelo_inurba_marseille","lat":43.23188,"lon":5.35561,"is_reserved":false,"is_disabled":false,"rental_uris":{"android":"levelo://app?vid=0101ec48-5f0a-4de8-a29e-d371dac1b744","ios":"levelo://app?vid=0101ec48-5f0a-4de8-a29e-d371dac1b744"},"vehicle_type_id":"4","last_reported":1686413255,"current_range_meters":30400,"station_id":"ce4bhu92rcd13ifvqi70","pricing_plan_id":"free"},{"bike_id":"6fe4d5f9-fc0d-4509-8325-9e7e23bf55ba","system_id":"levelo_inurba_marseille","lat":43.23186,"lon":5.35548,"is_reserved":false,"is_disabled":false,"rental_uris":{"android":"levelo://app?vid=6fe4d5f9-fc0d-4509-8325-9e7e23bf55ba","ios":"levelo://app?vid=6fe4d5f9-fc0d-4509-8325-9e7e23bf55ba"},"vehicle_type_id":"4","last_reported":1686413255,"current_range_meters":25600,"station_id":"ce4bhu92rcd13ifvqi70","pricing_plan_id":"free"},{"bike_id":"a04c8117-507b-446a-ae36-671f78db8cd5","system_id":"levelo_inurba_marseille","lat":43.231793,"lon":5.400044,"is_reserved":false,"is_disabled":false,"rental_uris":{"android":"levelo://app?vid=a04c8117-507b-446a-ae36-671f78db8cd5","ios":"levelo://app?vid=a04c8117-507b-446a-ae36-671f78db8cd5"},"vehicle_type_id":"4","last_reported":1686413255,"current_range_meters":31600,"station_id":"ce4bhn12rcd13ifvqgqg","pricing_plan_id":"free"},{"bike_id":"005a79c3-7dd7-4eb7-87e8-97a841a6054a","system_id":"levelo_inurba_marseille","lat":43.23193,"lon":5.39984,"is_reserved":false,"is_disabled":false,"rental_uris":{"android":"levelo://app?vid=005a79c3-7dd7-4eb7-87e8-97a841a6054a","ios":"levelo://app?vid=005a79c3-7dd7-4eb7-87e8-97a841a6054a"},"vehicle_type_id":"4","last_reported":1686413255,"current_range_meters":18000,"station_id":"ce4bhn12rcd13ifvqgqg","pricing_plan_id":"free"},{"bike_id":"50366cc3-a1a8-4e5c-b222-de370252eae8","system_id":"levelo_inurba_marseille","lat":43.23192,"lon":5.39991,"is_reserved":false,"is_disabled":false,"rental_uris":{"android":"levelo://app?vid=50366cc3-a1a8-4e5c-b222-de370252eae8","ios":"levelo://app?vid=50366cc3-a1a8-4e5c-b222-de370252eae8"},"vehicle_type_id":"4","last_reported":1686413255,"current_range_meters":21600,"station_id":"ce4bhn12rcd13ifvqgqg","pricing_plan_id":"free"},{"bike_id":"074da808-e548-45d7-b6a1-8924ccf487a7","system_id":"levelo_inurba_marseille","lat":43.231794,"lon":5.400052,"is_reserved":false,"is_disabled":false,"rental_uris":{"android":"levelo://app?vid=074da808-e548-45d7-b6a1-8924ccf487a7","ios":"levelo://app?vid=074da808-e548-45d7-b6a1-8924ccf487a7"},"vehicle_type_id":"4","last_reported":1686413255,"current_range_meters":22800,"station_id":"ce4bhn12rcd13ifvqgqg","pricing_plan_id":"free"},{"bike_id":"aa944dee-8528-4069-87e9-77bd7974d6d8","system_id":"levelo_inurba_marseille","lat":43.23188,"lon":5.39987,"is_reserved":false,"is_disabled":false,"rental_uris":{"android":"levelo://app?vid=aa944dee-8528-4069-87e9-77bd7974d6d8","ios":"levelo://app?vid=aa944dee-8528-4069-87e9-77bd7974d6d8"},"vehicle_type_id":"4","last_reported":1686413255,"current_range_meters":24800,"station_id":"ce4bhn12rcd13ifvqgqg","pricing_plan_id":"free"},{"bike_id":"f91fbe82-26a2-43b8-bfd6-b6ab81930209","system_id":"levelo_inurba_marseille","lat":43.23184,"lon":5.399769,"is_reserved":false,"is_disabled":false,"rental_uris":{"android":"levelo://app?vid=f91fbe82-26a2-43b8-bfd6-b6ab81930209","ios":"levelo://app?vid=f91fbe82-26a2-43b8-bfd6-b6ab81930209"},"vehicle_type_id":"4","last_reported":1686413255,"current_range_meters":12000,"station_id":"ce4bhn12rcd13ifvqgqg","pricing_plan_id":"free"},{"bike_id":"19be0f53-ff8d-4c5c-a643-9ee665139c4d","system_id":"levelo_inurba_marseille","lat":43.23185,"lon":5.39983,"is_reserved":false,"is_disabled":false,"rental_uris":{"android":"levelo://app?vid=19be0f53-ff8d-4c5c-a643-9ee665139c4d","ios":"levelo://app?vid=19be0f53-ff8d-4c5c-a643-9ee665139c4d"},"vehicle_type_id":"4","last_reported":1686413255,"current_range_meters":14400,"station_id":"ce4bhn12rcd13ifvqgqg","pricing_plan_id":"free"},{"bike_id":"d274fe6b-b91b-4d61-af89-f9963e761314","system_id":"levelo_inurba_marseille","lat":43.23181,"lon":5.39993,"is_reserved":false,"is_disabled":false,"rental_uris":{"android":"levelo://app?vid=d274fe6b-b91b-4d61-af89-f9963e761314","ios":"levelo://app?vid=d274fe6b-b91b-4d61-af89-f9963e761314"},"vehicle_type_id":"4","last_reported":1686413255,"current_range_meters":6400,"station_id":"ce4bhn12rcd13ifvqgqg","pricing_plan_id":"free"},{"bike_id":"81b4060f-137b-4b1c-a372-7fab5efc0c9a","system_id":"levelo_inurba_marseille","lat":43.2318,"lon":5.3999,"is_reserved":false,"is_disabled":false,"rental_uris":{"android":"levelo://app?vid=81b4060f-137b-4b1c-a372-7fab5efc0c9a","ios":"levelo://app?vid=81b4060f-137b-4b1c-a372-7fab5efc0c9a"},"vehicle_type_id":"4","last_reported":1686413255,"current_range_meters":24000,"station_id":"ce4bhn12rcd13ifvqgqg","pricing_plan_id":"free"}]}}