{"last_updated":1730401562,"ttl":60,"version":"2.2","data":{"bikes":[{"bike_id":"017545e3-f945-4bf5-a8f4-9e171e0bdfdb","system_id":"levelo_inurba_marseille","lat":43.25578,"lon":5.38229,"is_reserved":false,"is_disabled":false,"rental_uris":{"android":"levelo://app?vid=017545e3-f945-4bf5-a8f4-9e171e0bdfdb","ios":"levelo://app?vid=017545e3-f945-4bf5-a8f4-9e171e0bdfdb"},"vehicle_type_id":"4","last_reported":1730401562,"current_range_meters":38800,"station_id":"ce4bhih2rcd13ifvqfs0","pricing_plan_id":"cebpf4jnsgd1na2vs0mg"},{"bike_id":"23a9ce77-6820-44e3-ac42-dc08c881cb29","system_id":"levelo_inurba_marseille","lat":43.279961,"lon":5.400066,"is_reserved":false,"is_disabled":false,"rental_uris":{"android":"levelo://app?vid=23a9ce77-6820-44e3-ac42-dc08c881cb29","ios":"levelo://app?vid=23a9ce77-6820-44e3-ac42-dc08c881cb29"},"vehicle_type_id":"4","last_reported":1730401562,"current_range_meters":9200,"station_id":"ce4bho92rcd13ifvqh4g","pricing_plan_id":"cebpf4jnsgd1na2vs0mg"},{"bike_id":"25491936-c7f1-4f41-ac55-938b39a2e4e2","system_id":"levelo_inurba_marseille","lat":43.30896,"lon":5.37195,"is_reserved":false,"is_disabled":false,"rental_uris":{"android":"levelo://app?vid=25491936-c7f1-4f41-ac55-938b39a2e4e2","ios":"levelo://app?vid=25491936-c7f1-4f41-ac55-938b39a2e4e2"},"vehicle_type_id":"4","last_reported":1730401562,"current_range_meters":38400,"station_id":"ce4bguh2rcd13ifvqckg","pricing_plan_id":"cebpf4jnsgd1na2vs0mg"},{"bike_id":"b2c70f28-a912-4552-b447-91d706e36032","system_id":"levelo_inurba_marseille","lat":43.298,"lon":5.40405,"is_reserved":false,"is_disabled":false,"rental_uris":{"android":"levelo://app?vid=b2c70f28-a912-4552-b447-91d706e36032","ios":"levelo://app?vid=b2c70f28-a912-4552-b447-91d706e36032"},"vehicle_type_id":"4","last_reported":1730401562,"current_range_meters":38000,"station_id":"ce4bh112rcd13ifvqd90","pricing_plan_id":"cebpf4jnsgd1na2vs0mg"},{"bike_id":"695423f6-b574-4d28-87bc-37f94ed982d2","system_id":"levelo_inurba_marseille","lat":43.31988,"lon":5.38151,"is_reserved":false,"is_disabled":false,"rental_uris":{"android":"levelo://app?vid=695423f6-b574-4d28-87bc-37f94ed982d2","ios":"levelo://app?vid=695423f6-b574-4d28-87bc-37f94ed982d2"},"vehicle_type_id":"4","last_reported":1730401562,"current_range_meters":11200,"station_id":"ce4bhr12rcd13ifvqhpg","pricing_plan_id":"cebpf4jnsgd1na2vs0mg"},{"bike_id":"06e32548-f808-43af-9ccc-f30b9b0d784e","system_id":"levelo_inurba_marseille","lat":43.29022,"lon":5.38133,"is_reserved":false,"is_disabled":false,"rental_uris":{"android":"levelo://app?vid=06e32548-f808-43af-9ccc-f30b9b0d784e","ios":"levelo://app?vid=06e32548-f808-43af-9ccc-f30b9b0d784e"},"vehicle_type_id":"4","last_reported":1730401562,"current_range_meters":38800,"station_id":"ce4bh4p2rcd13ifvqe1g","pricing_plan_id":"cebpf4jnsgd1na2vs0mg"},{"bike_id":"6011a0fe-708c-4d36-a7bb-f6be163320db","system_id":"levelo_inurba_marseille","lat":43.30682,"lon":5.42912,"is_reserved":false,"is_disabled":false,"rental_uris":{"android":"levelo://app?vid=6011a0fe-708c-4d36-a7bb-f6be163320db","ios":"levelo://app?vid=6011a0fe-708c-4d36-a7bb-f6be163320db"},"vehicle_type_id":"4","last_reported":1730401562,"current_range_meters":3200,"station_id":"ce4bhpp2rcd13ifvqhfg","pricing_plan_id":"cebpf4jnsgd1na2vs0mg"},{"bike_id":"6d5f036e-7e12-430a-9fc6-8d070be6dbb4","system_id":"levelo_inurba_marseille","lat":43.29258,"lon":5.38436,"is_reserved":false,"is_disabled":false,"rental_uris":{"android":"levelo://app?vid=6d5f036e-7e12-430a-9fc6-8d070be6dbb4","ios":"levelo://app?vid=6d5f036e-7e12-430a-9fc6-8d070be6dbb4"},"vehicle_type_id":"4","last_reported":1730401562,"current_range_meters":4800,"station_id":"ce4bh692rcd13ifvqea0","pricing_plan_id":"cebpf4jnsgd1na2vs0mg"},{"bike_id":"8de6679d-3627-4dfb-b64a-3ce8c6b30da3","system_id":"levelo_inurba_marseille","lat":43.29791,"lon":5.39356,"is_reserved":false,"is_disabled":false,"rental_uris":{"android":"levelo://app?vid=8de6679d-3627-4dfb-b64a-3ce8c6b30da3","ios":"levelo://app?vid=8de6679d-3627-4dfb-b64a-3ce8c6b30da3"},"vehicle_type_id":"4","last_reported":1730401562,"current_range_meters":30000,"station_id":"chh1huq6cuj3fo74tm60","pricing_plan_id":"cebpf4jnsgd1na2vs0mg"},{"bike_id":"5a630d2f-334a-434e-9444-556db0f632d1","system_id":"levelo_inurba_marseille","lat":43.30206,"lon":5.39462,"is_reserved":false,"is_disabled":false,"rental_uris":{"android":"levelo://app?vid=5a630d2f-334a-434e-9444-556db0f632d1","ios":"levelo://app?vid=5a630d2f-334a-434e-9444-556db0f632d1"},"vehicle_type_id":"4","last_reported":1730401562,"current_range_meters":38400,"station_id":"ce4bh0p2rcd13ifvqd70","pricing_plan_id":"cebpf4jnsgd1na2vs0mg"},{"bike_id":"a4627486-a087-47d1-bdea-e9476cd49986","system_id":"levelo_inurba_marseille","lat":43.23193,"lon":5.35548,"is_reserved":false,"is_disabled":false,"rental_uris":{"android":"levelo://app?vid=a4627486-a087-47d1-bdea-e9476cd49986","ios":"levelo://app?vid=a4627486-a087-47d1-bdea-e9476cd49986"},"vehicle_type_id":"4","last_reported":1730401562,"current_range_meters":36000,"station_id":"ce4bhu92rcd13ifvqi70","pricing_plan_id":"cebpf4jnsgd1na2vs0mg"},{"bike_id":"2c95352a-873b-484a-905a-65f21237566d","system_id":"levelo_inurba_marseille","lat":43.29294,"lon":5.37452,"is_reserved":false,"is_disabled":false,"rental_uris":{"android":"levelo://app?vid=2c95352a-873b-484a-905a-65f21237566d","ios":"levelo://app?vid=2c95352a-873b-484a-905a-65f21237566d"},"vehicle_type_id":"4","last_reported":1730401562,"current_range_meters":25600,"station_id":"ce4bgi12rcd13ifvqb70","pricing_plan_id":"cebpf4jnsgd1na2vs0mg"},{"bike_id":"209a2144-1436-4891-b7dd-3a92718302e8","system_id":"levelo_inurba_marseille","lat":43.29591,"lon":5.37406,"is_reserved":false,"is_disabled":false,"rental_uris":{"android":"levelo://app?vid=209a2144-1436-4891-b7dd-3a92718302e8","ios":"levelo://app?vid=209a2144-1436-4891-b7dd-3a92718302e8"},"vehicle_type_id":"4","last_reported":1730401562,"current_range_meters":30000,"station_id":"","pricing_plan_id":"cebpf4jnsgd1na2vs0mg"},{"bike_id":"ce32ce2c-2099-4121-8927-48f5c92c8dab","system_id":"levelo_inurba_marseille","lat":43.26828,"lon":5.39361,"is_reserved":false,"is_disabled":false,"rental_uris":{"android":"levelo://app?vid=ce32ce2c-2099-4121-8927-48f5c92c8dab","ios":"levelo://app?vid=ce32ce2c-2099-4121-8927-48f5c92c8dab"},"vehicle_type_id":"4","last_reported":1730401562,"current_range_meters":34800,"station_id":"ce4bhh92rcd13ifvqfh0","pricing_plan_id":"cebpf4jnsgd1na2vs0mg"},{"bike_id":"c065b76e-eaff-4c11-ada0-9790d8c71678","system_id":"levelo_inurba_marseille","lat":43.25107,"lon":5.40329,"is_reserved":false,"is_disabled":false,"rental_uris":{"android":"levelo://app?vid=c065b76e-eaff-4c11-ada0-9790d8c71678","ios":"levelo://app?vid=c065b76e-eaff-4c11-ada0-9790d8c71678"},"vehicle_type_id":"4","last_reported":1730401562,"current_range_meters":7200,"station_id":"ce4bhlh2rcd13ifvqgig","pricing_plan_id":"cebpf4jnsgd1na2vs0mg"},{"bike_id":"2e89346b-8a2e-45fc-82c8-59a843766407","system_id":"levelo_inurba_marseille","lat":43.26931,"lon":5.38922,"is_reserved":false,"is_disabled":false,"rental_uris":{"android":"levelo://app?vid=2e89346b-8a2e-45fc-82c8-59a843766407","ios":"levelo://app?vid=2e89346b-8a2e-45fc-82c8-59a843766407"},"vehicle_type_id":"4","last_reported":1730401562,"current_range_meters":15200,"station_id":"ce4bhhh2rcd13ifvqfl0","pricing_plan_id":"cebpf4jnsgd1na2vs0mg"},{"bike_id":"61a17217-866a-45e4-ad7d-ed917d0d9903","system_id":"levelo_inurba_marseille","lat":43.29527,"lon":5.38535,"is_reserved":false,"is_disabled":false,"rental_uris":{"android":"levelo://app?vid=61a17217-866a-45e4-ad7d-ed917d0d9903","ios":"levelo://app?vid=61a17217-866a-45e4-ad7d-ed917d0d9903"},"vehicle_type_id":"4","last_reported":1730401562,"current_range_meters":37600,"station_id":"ce4bgih2rcd13ifvqba0","pricing_plan_id":"cebpf4jnsgd1na2vs0mg"},{"bike_id":"efbe383f-83c6-4df5-ac1f-ffa8f2e0197b","system_id":"levelo_inurba_marseille","lat":43.31329,"lon":5.39694,"is_reserved":false,"is_disabled":false,"rental_uris":{"android":"levelo://app?vid=efbe383f-83c6-4df5-ac1f-ffa8f2e0197b","ios":"levelo://app?vid=efbe383f-83c6-4df5-ac1f-ffa8f2e0197b"},"vehicle_type_id":"4","last_reported":1730401562,"current_range_meters":14800,"station_id":"ce4bgvp2rcd13ifvqcu0","pricing_plan_id":"cebpf4jnsgd1na2vs0mg"},{"bike_id":"504c3616-4345-4079-91d9-35dec124aa24","system_id":"levelo_inurba_marseille","lat":43.34141,"lon":5.40908,"is_reserved":false,"is_disabled":false,"rental_uris":{"android":"levelo://app?vid=504c3616-4345-4079-91d9-35dec124aa24","ios":"levelo://app?vid=504c3616-4345-4079-91d9-35dec124aa24"},"vehicle_type_id":"4","last_reported":1730401562,"current_range_meters":27600,"station_id":"ce4bhqh2rcd13ifvqhlg","pricing_plan_id":"cebpf4jnsgd1na2vs0mg"},{"bike_id":"9501000e-52bd-4875-9834-93e1537dbf5f","system_id":"levelo_inurba_marseille","lat":43.29873,"lon":5.38911,"is_reserved":false,"is_disabled":false,"rental_uris":{"android":"levelo://app?vid=9501000e-52bd-4875-9834-93e1537dbf5f","ios":"levelo://app?vid=9501000e-52bd-4875-9834-93e1537dbf5f"},"vehicle_type_id":"4","last_reported":1730401562,"current_range_meters":37600,"station_id":"ce4bh392rcd13ifvqdl0","pricing_plan_id":"cebpf4jnsgd1na2vs0mg"},{"bike_id":"c877f25d-7701-4526-b4eb-1b351133f6e9","system_id":"levelo_inurba_marseille","lat":43.29526,"lon":5.38537,"is_reserved":false,"is_disabled":false,"rental_uris":{"android":"levelo://app?vid=c877f25d-7701-4526-b4eb-1b351133f6e9","ios":"levelo://app?vid=c877f25d-7701-4526-b4eb-1b351133f6e9"},"vehicle_type_id":"4","last_reported":1730401562,"current_range_meters":20800,"station_id":"ce4bgih2rcd13ifvqba0","pricing_plan_id":"cebpf4jnsgd1na2vs0mg"},{"bike_id":"a211c43b-7445-4701-81c8-06e31d438e5f","system_id":"levelo_inurba_marseille","lat":43.28704,"lon":5.39987,"is_reserved":false,"is_disabled":false,"rental_uris":{"android":"levelo://app?vid=a211c43b-7445-4701-81c8-06e31d438e5f","ios":"levelo://app?vid=a211c43b-7445-4701-81c8-06e31d438e5f"},"vehicle_type_id":"4","last_reported":1730401562,"current_range_meters":38800,"station_id":"ce4bho92rcd13ifvqh3g","pricing_plan_id":"cebpf4jnsgd1na2vs0mg"},{"bike_id":"e2bfe89a-e7a5-43a9-afcf-92392e65f8c5","system_id":"levelo_inurba_marseille","lat":43.30301,"lon":5.39204,"is_reserved":false,"is_disabled":false,"rental_uris":{"android":"levelo://app?vid=e2bfe89a-e7a5-43a9-afcf-92392e65f8c5","ios":"levelo://app?vid=e2bfe89a-e7a5-43a9-afcf-92392e65f8c5"},"vehicle_type_id":"4","last_reported":1730401562,"current_range_meters":22800,"station_id":"ce4bgkh2rcd13ifvqbk0","pricing_plan_id":"cebpf4jnsgd1na2vs0mg"},{"bike_id":"9ec06832-24ee-497b-b43a-c22e221cee6d","system_id":"levelo_inurba_marseille","lat":43.29532,"lon":5.38545,"is_reserved":false,"is_disabled":false,"rental_uris":{"android":"levelo://app?vid=9ec06832-24ee-497b-b43a-c22e221cee6d","ios":"levelo://app?vid=9ec06832-24ee-497b-b43a-c22e221cee6d"},"vehicle_type_id":"4","last_reported":1730401562,"current_range_meters":22000,"station_id":"ce4bgih2rcd13ifvqba0","pricing_plan_id":"cebpf4jnsgd1na2vs0mg"},{"bike_id":"93cf32d6-c9ea-4909-b0bd-7820a8d2213d","system_id":"levelo_inurba_marseille","lat":43.26682,"lon":5.38272,"is_reserved":false,"is_disabled":false,"rental_uris":{"android":"levelo://app?vid=93cf32d6-c9ea-4909-b0bd-7820a8d2213d","ios":"levelo://app?vid=93cf32d6-c9ea-4909-b0bd-7820a8d2213d"},"vehicle_type_id":"4","last_reported":1730401562,"current_range_meters":2800,"station_id":"ce4bhg92rcd13ifvqf90","pricing_plan_id":"cebpf4jnsgd1na2vs0mg"},{"bike_id":"43611269-a215-477e-8054-74e6555c43fe","system_id":"levelo_inurba_marseille","lat":43.2762,"lon":5.36109,"is_reserved":false,"is_disabled":false,"rental_uris":{"android":"levelo://app?vid=43611269-a215-477e-8054-74e6555c43fe","ios":"levelo://app?vid=43611269-a215-477e-8054-74e6555c43fe"},"vehicle_type_id":"4","last_reported":1730401562,"current_range_meters":14000,"station_id":"ce4bgj92rcd13ifvqbe0","pricing_plan_id":"cebpf4jnsgd1na2vs0mg"},{"bike_id":"adb0ea8b-9566-4d12-8630-a782db5ce23c","system_id":"levelo_inurba_marseille","lat":43.29538,"lon":5.38544,"is_reserved":false,"is_disabled":false,"rental_uris":{"android":"levelo://app?vid=adb0ea8b-9566-4d12-8630-a782db5ce23c","ios":"levelo://app?vid=adb0ea8b-9566-4d12-8630-a782db5ce23c"},"vehicle_type_id":"4","last_reported":1730401562,"current_range_meters":28000,"station_id":"ce4bgih2rcd13ifvqba0","pricing_plan_id":"cebpf4jnsgd1na2vs0mg"},{"bike_id":"dd1e6e7a-bc64-4da2-9950-11a570d7eaa5","system_id":"levelo_inurba_marseille","lat":43.29249,"lon":5.38437,"is_reserved":false,"is_disabled":false,"rental_uris":{"android":"levelo://app?vid=dd1e6e7a-bc64-4da2-9950-11a570d7eaa5","ios":"levelo://app?vid=dd1e6e7a-bc64-4da2-9950-11a570d7eaa5"},"vehicle_type_id":"4","last_reported":1730401562,"current_range_meters":38400,"station_id":"ce4bh692rcd13ifvqea0","pricing_plan_id":"cebpf4jnsgd1na2vs0mg"},{"bike_id":"c9af162e-d35f-4ec2-bc36-1f97d28f6a14","system_id":"levelo_inurba_marseille","lat":43.27565,"lon":5.38421,"is_reserved":false,"is_disabled":false,"rental_uris":{"android":"levelo://app?vid=c9af162e-d35f-4ec2-bc36-1f97d28f6a14","ios":"levelo://app?vid=c9af162e-d35f-4ec2-bc36-1f97d28f6a14"},"vehicle_type_id":"4","last_reported":1730401562,"current_range_meters":37600,"station_id":"ce4bhh92rcd13ifvqfi0","pricing_plan_id":"cebpf4jnsgd1na2vs0mg"},{"bike_id":"d20d133f-e75e-470b-8228-840b44509d35","system_id":"levelo_inurba_marseille","lat":43.26014,"lon":5.39815,"is_reserved":false,"is_disabled":false,"rental_uris":{"android":"levelo://app?vid=d20d133f-e75e-470b-8228-840b44509d35","ios":"levelo://app?vid=d20d133f-e75e-470b-8228-840b44509d35"},"vehicle_type_id":"4","last_reported":1730401562,"current_range_meters":28000,"station_id":"ce4bhlh2rcd13ifvqgig","pricing_plan_id":"cebpf4jnsgd1na2vs0mg"},{"bike_id":"9c697b6a-aecf-448a-97b2-3d026da42db9","system_id":"levelo_inurba_marseille","lat":43.29535,"lon":5.3854,"is_reserved":false,"is_disabled":false,"rental_uris":{"android":"levelo://app?vid=9c697b6a-aecf-448a-97b2-3d026da42db9","ios":"levelo://app?vid=9c697b6a-aecf-448a-97b2-3d026da42db9"},"vehicle_type_id":"4","last_reported":1730401562,"current_range_meters":38800,"station_id":"ce4bgih2rcd13ifvqba0","pricing_plan_id":"cebpf4jnsgd1na2vs0mg"},{"bike_id":"bcd8c41b-8085-4e0f-bf6b-dc2cce7a2d76","system_id":"levelo_inurba_marseille","lat":43.30588,"lon":5.39347,"is_reserved":false,"is_disabled":false,"rental_uris":{"android":"levelo://app?vid=bcd8c41b-8085-4e0f-bf6b-dc2cce7a2d76","ios":"levelo://app?vid=bcd8c41b-8085-4e0f-bf6b-dc2cce7a2d76"},"vehicle_type_id":"4","last_reported":1730401562,"current_range_meters":3200,"station_id":"ce4bh0p2rcd13ifvqd80","pricing_plan_id":"cebpf4jnsgd1na2vs0mg"},{"bike_id":"b9748c4a-d4fd-4575-bdb4-d87ec7438bdc","system_id":"levelo_inurba_marseille","lat":43.29894,"lon":5.43665,"is_reserved":false,"is_disabled":false,"rental_uris":{"android":"levelo://app?vid=b9748c4a-d4fd-4575-bdb4-d87ec7438bdc","ios":"levelo://app?vid=b9748c4a-d4fd-4575-bdb4-d87ec7438bdc"},"vehicle_type_id":"4","last_reported":1730401562,"current_range_meters":14000,"station_id":"ce4bhpp2rcd13ifvqhfg","pricing_plan_id":"cebpf4jnsgd1na2vs0mg"},{"bike_id":"aeea1237-3887-42d7-be21-0e7463630790","system_id":"levelo_inurba_marseille","lat":43.23717,"lon":5.4019,"is_reserved":false,"is_disabled":false,"rental_uris":{"android":"levelo://app?vid=aeea1237-3887-42d7-be21-0e7463630790","ios":"levelo://app?vid=aeea1237-3887-42d7-be21-0e7463630790"},"vehicle_type_id":"4","last_reported":1730401562,"current_range_meters":19600,"station_id":"","pricing_plan_id":"cebpf4jnsgd1na2vs0mg"},{"bike_id":"24a973a3-35db-4313-95c6-2ae58904154f","system_id":"levelo_inurba_marseille","lat":43.28765,"lon":5.36591,"is_reserved":false,"is_disabled":false,"rental_uris":{"android":"levelo://app?vid=24a973a3-35db-4313-95c6-2ae58904154f","ios":"levelo://app?vid=24a973a3-35db-4313-95c6-2ae58904154f"},"vehicle_type_id":"4","last_reported":1730401562,"current_range_meters":38000,"station_id":"","pricing_plan_id":"cebpf4jnsgd1na2vs0mg"},{"bike_id":"d29d64e6-83e0-468a-bcfc-8db2abfc6009","system_id":"levelo_inurba_marseille","lat":43.30085,"lon":5.39101,"is_reserved":false,"is_disabled":false,"rental_uris":{"android":"levelo://app?vid=d29d64e6-83e0-468a-bcfc-8db2abfc6009","ios":"levelo://app?vid=d29d64e6-83e0-468a-bcfc-8db2abfc6009"},"vehicle_type_id":"4","last_reported":1730401562,"current_range_meters":38800,"station_id":"ce4bh192rcd13ifvqdb0","pricing_plan_id":"cebpf4jnsgd1na2vs0mg"},{"bike_id":"956ab22a-c2e0-49ee-bcde-9837ea6853b7","system_id":"levelo_inurba_marseille","lat":43.28481,"lon":5.38411,"is_reserved":false,"is_disabled":false,"rental_uris":{"android":"levelo://app?vid=956ab22a-c2e0-49ee-bcde-9837ea6853b7","ios":"levelo://app?vid=956ab22a-c2e0-49ee-bcde-9837ea6853b7"},"vehicle_type_id":"4","last_reported":1730401562,"current_range_meters":38800,"station_id":"ce4bh512rcd13ifvqe3g","pricing_plan_id":"cebpf4jnsgd1na2vs0mg"},{"bike_id":"60b71c7c-4918-47ba-8287-329d23746782","system_id":"levelo_inurba_marseille","lat":43.29896,"lon":5.43662,"is_reserved":false,"is_disabled":false,"rental_uris":{"android":"levelo://app?vid=60b71c7c-4918-47ba-8287-329d23746782","ios":"levelo://app?vid=60b71c7c-4918-47ba-8287-329d23746782"},"vehicle_type_id":"4","last_reported":1730401562,"current_range_meters":36800,"station_id":"ce4bhpp2rcd13ifvqhfg","pricing_plan_id":"cebpf4jnsgd1na2vs0mg"},{"bike_id":"163fd9b0-8ced-43cd-a276-f2df45718c00","system_id":"levelo_inurba_marseille","lat":43.29898,"lon":5.38754,"is_reserved":false,"is_disabled":false,"rental_uris":{"android":"levelo://app?vid=163fd9b0-8ced-43cd-a276-f2df45718c00","ios":"levelo://app?vid=163fd9b0-8ced-43cd-a276-f2df45718c00"},"vehicle_type_id":"4","last_reported":1730401562,"current_range_meters":38400,"station_id":"chh1huq6cuj3fo74tm60","pricing_plan_id":"cebpf4jnsgd1na2vs0mg"},{"bike_id":"01b2a35e-0650-42cd-b787-293d7a6c4d67","system_id":"levelo_inurba_marseille","lat":43.28077,"lon":5.39661,"is_reserved":false,"is_disabled":false,"rental_uris":{"android":"levelo://app?vid=01b2a35e-0650-42cd-b787-293d7a6c4d67","ios":"levelo://app?vid=01b2a35e-0650-42cd-b787-293d7a6c4d67"},"vehicle_type_id":"4","last_reported":1730401562,"current_range_meters":20400,"station_id":"ce4bho12rcd13ifvqh2g","pricing_plan_id":"cebpf4jnsgd1na2vs0mg"},{"bike_id":"20819058-892f-4078-9c8c-b52dc3f83b8b","system_id":"levelo_inurba_marseille","lat":43.3168,"lon":5.40478,"is_reserved":false,"is_disabled":false,"rental_uris":{"android":"levelo://app?vid=20819058-892f-4078-9c8c-b52dc3f83b8b","ios":"levelo://app?vid=20819058-892f-4078-9c8c-b52dc3f83b8b"},"vehicle_type_id":"4","last_reported":1730401562,"current_range_meters":29600,"station_id":"ce4bh012rcd13ifvqd00","pricing_plan_id":"cebpf4jnsgd1na2vs0mg"},{"bike_id":"3be6db50-c063-4788-9f9c-4f4bde236d00","system_id":"levelo_inurba_marseille","lat":43.267124,"lon":5.389539,"is_reserved":false,"is_disabled":false,"rental_uris":{"android":"levelo://app?vid=3be6db50-c063-4788-9f9c-4f4bde236d00","ios":"levelo://app?vid=3be6db50-c063-4788-9f9c-4f4bde236d00"},"vehicle_type_id":"4","last_reported":1730401562,"current_range_meters":25200,"station_id":"ce4bhhh2rcd13ifvqfl0","pricing_plan_id":"cebpf4jnsgd1na2vs0mg"},{"bike_id":"89c69ac8-94a8-411c-8fbc-3ae956f1323b","system_id":"levelo_inurba_marseille","lat":43.31988,"lon":5.38168,"is_reserved":false,"is_disabled":false,"rental_uris":{"android":"levelo://app?vid=89c69ac8-94a8-411c-8fbc-3ae956f1323b","ios":"levelo://app?vid=89c69ac8-94a8-411c-8fbc-3ae956f1323b"},"vehicle_type_id":"4","last_reported":1730401562,"current_range_meters":36800,"station_id":"ce4bhr12rcd13ifvqhpg","pricing_plan_id":"cebpf4jnsgd1na2vs0mg"},{"bike_id":"eac6d106-015b-42d3-9a0f-a7559963694e","system_id":"levelo_inurba_marseille","lat":43.323402,"lon":5.406171,"is_reserved":false,"is_disabled":false,"rental_uris":{"android":"levelo://app?vid=eac6d106-015b-42d3-9a0f-a7559963694e","ios":"levelo://app?vid=eac6d106-015b-42d3-9a0f-a7559963694e"},"vehicle_type_id":"4","last_reported":1730401562,"current_range_meters":11600,"station_id":"ce4bhq92rcd13ifvqhjg","pricing_plan_id":"cebpf4jnsgd1na2vs0mg"},{"bike_id":"20685207-624b-4667-a847-3f4e3e1dfddf","system_id":"levelo_inurba_marseille","lat":43.28357,"lon":5.38112,"is_reserved":false,"is_disabled":false,"rental_uris":{"android":"levelo://app?vid=20685207-624b-4667-a847-3f4e3e1dfddf","ios":"levelo://app?vid=20685207-624b-4667-a847-3f4e3e1dfddf"},"vehicle_type_id":"4","last_reported":1730401562,"current_range_meters":22000,"station_id":"ce4bh412rcd13ifvqdr0","pricing_plan_id":"cebpf4jnsgd1na2vs0mg"},{"bike_id":"fece2b4d-5fbc-4072-950a-5fe5acd29804","system_id":"levelo_inurba_marseille","lat":43.2953,"lon":5.38547,"is_reserved":false,"is_disabled":false,"rental_uris":{"android":"levelo://app?vid=fece2b4d-5fbc-4072-950a-5fe5acd29804","ios":"levelo://app?vid=fece2b4d-5fbc-4072-950a-5fe5acd29804"},"vehicle_type_id":"4","last_reported":1730401562,"current_range_meters":16000,"station_id":"ce4bgih2rcd13ifvqba0","pricing_plan_id":"cebpf4jnsgd1na2vs0mg"},{"bike_id":"84098211-d98e-4aba-a423-13b0ea038f67","system_id":"levelo_inurba_marseille","lat":43.29248,"lon":5.38445,"is_reserved":false,"is_disabled":false,"rental_uris":{"android":"levelo://app?vid=84098211-d98e-4aba-a423-13b0ea038f67","ios":"levelo://app?vid=84098211-d98e-4aba-a423-13b0ea038f67"},"vehicle_type_id":"4","last_reported":1730401562,"current_range_meters":38800,"station_id":"ce4bh692rcd13ifvqea0","pricing_plan_id":"cebpf4jnsgd1na2vs0mg"},{"bike_id":"7b278c06-161f-4fa6-92a8-f89903978599","system_id":"levelo_inurba_marseille","lat":43.29707,"lon":5.3662,"is_reserved":false,"is_disabled":false,"rental_uris":{"android":"levelo://app?vid=7b278c06-161f-4fa6-92a8-f89903978599","ios":"levelo://app?vid=7b278c06-161f-4fa6-92a8-f89903978599"},"vehicle_type_id":"4","last_reported":1730401562,"current_range_meters":20400,"station_id":"ce4bgn12rcd13ifvqbt0","pricing_plan_id":"cebpf4jnsgd1na2vs0mg"},{"bike_id":"39e8b041-adb1-4368-9018-4beec5fbd600","system_id":"levelo_inurba_marseille","lat":43.297,"lon":5.36615,"is_reserved":false,"is_disabled":false,"rental_uris":{"android":"levelo://app?vid=39e8b041-adb1-4368-9018-4beec5fbd600","ios":"levelo://app?vid=39e8b041-adb1-4368-9018-4beec5fbd600"},"vehicle_type_id":"4","last_reported":1730401562,"current_range_meters":35200,"station_id":"ce4bgn12rcd13ifvqbt0","pricing_plan_id":"cebpf4jnsgd1na2vs0mg"},{"bike_id":"ceb55059-2562-42a2-9035-244f2e2577c8","system_id":"levelo_inurba_marseille","lat":43.29258,"lon":5.38445,"is_reserved":false,"is_disabled":false,"rental_uris":{"android":"levelo://app?vid=ceb55059-2562-42a2-9035-244f2e2577c8","ios":"levelo://app?vid=ceb55059-2562-42a2-9035-244f2e2577c8"},"vehicle_type_id":"4","last_reported":1730401562,"current_range_meters":8800,"station_id":"ce4bh692rcd13ifvqea0","pricing_plan_id":"cebpf4jnsgd1na2vs0mg"},{"bike_id":"a9bbcbbe-e1bb-449c-adcd-34688245503d","system_id":"levelo_inurba_marseille","lat":43.29536,"lon":5.38536,"is_reserved":false,"is_disabled":false,"rental_uris":{"android":"levelo://app?vid=a9bbcbbe-e1bb-449c-adcd-34688245503d","ios":"levelo://app?vid=a9bbcbbe-e1bb-449c-adcd-34688245503d"},"vehicle_type_id":"4","last_reported":1730401562,"current_range_meters":38800,"station_id":"ce4bgih2rcd13ifvqba0","pricing_plan_id":"cebpf4jnsgd1na2vs0mg"},{"bike_id":"10dd4f0a-3352-467f-bdd2-7b7d82421551","system_id":"levelo_inurba_marseille","lat":43.25725,"lon":5.41106,"is_reserved":false,"is_disabled":false,"rental_uris":{"android":"levelo://app?vid=10dd4f0a-3352-467f-bdd2-7b7d82421551","ios":"levelo://app?vid=10dd4f0a-3352-467f-bdd2-7b7d82421551"},"vehicle_type_id":"4","last_reported":1730401562,"current_range_meters":30000,"station_id":"ce4bhkp2rcd13ifvqgd0","pricing_plan_id":"cebpf4jnsgd1na2vs0mg"},{"bike_id":"697d4308-f515-468a-8849-9278b7b07344","system_id":"levelo_inurba_marseille","lat":43.303508,"lon":5.418797,"is_reserved":false,"is_disabled":false,"rental_uris":{"android":"levelo://app?vid=697d4308-f515-468a-8849-9278b7b07344","ios":"levelo://app?vid=697d4308-f515-468a-8849-9278b7b07344"},"vehicle_type_id":"4","last_reported":1730401562,"current_range_meters":9600,"station_id":"ce4bhop2rcd13ifvqh7g","pricing_plan_id":"cebpf4jnsgd1na2vs0mg"},{"bike_id":"eba7d97a-499d-4a6c-8ff8-5bda90a3716f","system_id":"levelo_inurba_marseille","lat":43.31713,"lon":5.37745,"is_reserved":false,"is_disabled":false,"rental_uris":{"android":"levelo://app?vid=eba7d97a-499d-4a6c-8ff8-5bda90a3716f","ios":"levelo://app?vid=eba7d97a-499d-4a6c-8ff8-5bda90a3716f"},"vehicle_type_id":"4","last_reported":1730401562,"current_range_meters":28400,"station_id":"ce4bgth2rcd13ifvqch0","pricing_plan_id":"cebpf4jnsgd1na2vs0mg"},{"bike_id":"bdd1624c-f4e5-4852-a7e3-0216ce999938","system_id":"levelo_inurba_marseille","lat":43.2418,"lon":5.39722,"is_reserved":false,"is_disabled":false,"rental_uris":{"android":"levelo://app?vid=bdd1624c-f4e5-4852-a7e3-0216ce999938","ios":"levelo://app?vid=bdd1624c-f4e5-4852-a7e3-0216ce999938"},"vehicle_type_id":"4","last_reported":1730401562,"current_range_meters":18800,"station_id":"ce4bhn12rcd13ifvqgpg","pricing_plan_id":"cebpf4jnsgd1na2vs0mg"},{"bike_id":"31810657-a511-4445-b6c0-5eac7659b3ca","system_id":"levelo_inurba_marseille","lat":43.314831,"lon":5.373107,"is_reserved":false,"is_disabled":false,"rental_uris":{"android":"levelo://app?vid=31810657-a511-4445-b6c0-5eac7659b3ca","ios":"levelo://app?vid=31810657-a511-4445-b6c0-5eac7659b3ca"},"vehicle_type_id":"4","last_reported":1730401562,"current_range_meters":23200,"station_id":"ce4bgt12rcd13ifvqcd0","pricing_plan_id":"cebpf4jnsgd1na2vs0mg"},{"bike_id":"27979eab-fbd5-446f-a10d-095eae8065dd","system_id":"levelo_inurba_marseille","lat":43.27841,"lon":5.39212,"is_reserved":false,"is_disabled":false,"rental_uris":{"android":"levelo://app?vid=27979eab-fbd5-446f-a10d-095eae8065dd","ios":"levelo://app?vid=27979eab-fbd5-446f-a10d-095eae8065dd"},"vehicle_type_id":"4","last_reported":1730401562,"current_range_meters":30800,"station_id":"ce4bhjp2rcd13ifvqga0","pricing_plan_id":"cebpf4jnsgd1na2vs0mg"},{"bike_id":"6a92d116-a970-41d5-b220-4aa660ca76d0","system_id":"levelo_inurba_marseille","lat":43.23185,"lon":5.39994,"is_reserved":false,"is_disabled":false,"rental_uris":{"android":"levelo://app?vid=6a92d116-a970-41d5-b220-4aa660ca76d0","ios":"levelo://app?vid=6a92d116-a970-41d5-b220-4aa660ca76d0"},"vehicle_type_id":"4","last_reported":1730401562,"current_range_meters":38800,"station_id":"ce4bhn12rcd13ifvqgqg","pricing_plan_id":"cebpf4jnsgd1na2vs0mg"},{"bike_id":"9eab8711-653c-4b44-96b8-de3a245d4008","system_id":"levelo_inurba_marseille","lat":43.29277,"lon":5.36848,"is_reserved":false,"is_disabled":false,"rental_uris":{"android":"levelo://app?vid=9eab8711-653c-4b44-96b8-de3a245d4008","ios":"levelo://app?vid=9eab8711-653c-4b44-96b8-de3a245d4008"},"vehicle_type_id":"4","last_reported":1730401562,"current_range_meters":36800,"station_id":"ce4bhbp2rcd13ifvqesg","pricing_plan_id":"cebpf4jnsgd1na2vs0mg"},{"bike_id":"d5aa17be-5f04-43fc-8c22-bd79145dda54","system_id":"levelo_inurba_marseille","lat":43.25579,"lon":5.38234,"is_reserved":false,"is_disabled":false,"rental_uris":{"android":"levelo://app?vid=d5aa17be-5f04-43fc-8c22-bd79145dda54","ios":"levelo://app?vid=d5aa17be-5f04-43fc-8c22-bd79145dda54"},"vehicle_type_id":"4","last_reported":1730401562,"current_range_meters":36800,"station_id":"ce4bhih2rcd13ifvqfs0","pricing_plan_id":"cebpf4jnsgd1na2vs0mg"},{"bike_id":"6f091c9c-e1f4-4df3-aa18-c140e4b15b86","system_id":"levelo_inurba_marseille","lat":43.28712,"lon":5.37934,"is_reserved":false,"is_disabled":false,"rental_uris":{"android":"levelo://app?vid=6f091c9c-e1f4-4df3-aa18-c140e4b15b86","ios":"levelo://app?vid=6f091c9c-e1f4-4df3-aa18-c140e4b15b86"},"vehicle_type_id":"4","last_reported":1730401562,"current_range_meters":36400,"station_id":"ce4bh9p2rcd13ifvqec0","pricing_plan_id":"cebpf4jnsgd1na2vs0mg"},{"bike_id":"ed9aa993-8003-4cbf-9aaf-8a3f2e010645","system_id":"levelo_inurba_marseille","lat":43.24167,"lon":5.36403,"is_reserved":false,"is_disabled":false,"rental_uris":{"android":"levelo://app?vid=ed9aa993-8003-4cbf-9aaf-8a3f2e010645","ios":"levelo://app?vid=ed9aa993-8003-4cbf-9aaf-8a3f2e010645"},"vehicle_type_id":"4","last_reported":1730401562,"current_range_meters":9200,"station_id":"cpo36qri1sfpv3e86is0","pricing_plan_id":"cebpf4jnsgd1na2vs0mg"},{"bike_id":"33a098b5-2f3f-4957-af96-675614306bdc","system_id":"levelo_inurba_marseille","lat":43.28285,"lon":5.39021,"is_reserved":false,"is_disabled":false,"rental_uris":{"android":"levelo://app?vid=33a098b5-2f3f-4957-af96-675614306bdc","ios":"levelo://app?vid=33a098b5-2f3f-4957-af96-675614306bdc"},"vehicle_type_id":"4","last_reported":1730401562,"current_range_meters":20000,"station_id":"","pricing_plan_id":"cebpf4jnsgd1na2vs0mg"},{"bike_id":"aa9601c0-622c-4ab6-a747-92657d1569b5","system_id":"levelo_inurba_marseille","lat":43.29252,"lon":5.38445,"is_reserved":false,"is_disabled":false,"rental_uris":{"android":"levelo://app?vid=aa9601c0-622c-4ab6-a747-92657d1569b5","ios":"levelo://app?vid=aa9601c0-622c-4ab6-a747-92657d1569b5"},"vehicle_type_id":"4","last_reported":1730401562,"current_range_meters":22800,"station_id":"ce4bh692rcd13ifvqea0","pricing_plan_id":"cebpf4jnsgd1na2vs0mg"},{"bike_id":"1afefc06-d5e2-4a15-85b1-d4e062890275","system_id":"levelo_inurba_marseille","lat":43.29775,"lon":5.3811,"is_reserved":false,"is_disabled":false,"rental_uris":{"android":"levelo://app?vid=1afefc06-d5e2-4a15-85b1-d4e062890275","ios":"levelo://app?vid=1afefc06-d5e2-4a15-85b1-d4e062890275"},"vehicle_type_id":"4","last_reported":1730401562,"current_range_meters":14000,"station_id":"ce4bh192rcd13ifvqdb0","pricing_plan_id":"cebpf4jnsgd1na2vs0mg"},{"bike_id":"c0ed1896-8ee5-4db7-ba02-82ac1f4ed403","system_id":"levelo_inurba_marseille","lat":43.29368,"lon":5.37845,"is_reserved":false,"is_disabled":false,"rental_uris":{"android":"levelo://app?vid=c0ed1896-8ee5-4db7-ba02-82ac1f4ed403","ios":"levelo://app?vid=c0ed1896-8ee5-4db7-ba02-82ac1f4ed403"},"vehicle_type_id":"4","last_reported":1730401562,"current_range_meters":27200,"station_id":"ce4bgjh2rcd13ifvqbf0","pricing_plan_id":"cebpf4jnsgd1na2vs0mg"},{"bike_id":"bd6e91cf-ea2a-40ac-b2d3-392c0cb852aa","system_id":"levelo_inurba_marseille","lat":43.27454,"lon":5.39408,"is_reserved":false,"is_disabled":false,"rental_uris":{"android":"levelo://app?vid=bd6e91cf-ea2a-40ac-b2d3-392c0cb852aa","ios":"levelo://app?vid=bd6e91cf-ea2a-40ac-b2d3-392c0cb852aa"},"vehicle_type_id":"4","last_reported":1730401562,"current_range_meters":10800,"station_id":"ce4bhdp2rcd13ifvqf20","pricing_plan_id":"cebpf4jnsgd1na2vs0mg"},{"bike_id":"9b0adaca-c729-441f-8585-a6d2b460b1e2","system_id":"levelo_inurba_marseille","lat":43.29029,"lon":5.38642,"is_reserved":false,"is_disabled":false,"rental_uris":{"android":"levelo://app?vid=9b0adaca-c729-441f-8585-a6d2b460b1e2","ios":"levelo://app?vid=9b0adaca-c729-441f-8585-a6d2b460b1e2"},"vehicle_type_id":"4","last_reported":1730401562,"current_range_meters":34000,"station_id":"ce4bh4p2rcd13ifvqe0g","pricing_plan_id":"cebpf4jnsgd1na2vs0mg"},{"bike_id":"3fa77693-cf62-494a-96e0-c73e17625edb","system_id":"levelo_inurba_marseille","lat":43.31325,"lon":5.39696,"is_reserved":false,"is_disabled":false,"rental_uris":{"android":"levelo://app?vid=3fa77693-cf62-494a-96e0-c73e17625edb","ios":"levelo://app?vid=3fa77693-cf62-494a-96e0-c73e17625edb"},"vehicle_type_id":"4","last_reported":1730401562,"current_range_meters":13600,"station_id":"ce4bgvp2rcd13ifvqcu0","pricing_plan_id":"cebpf4jnsgd1na2vs0mg"},{"bike_id":"c215b154-0f64-43f2-99fd-7529579ff77f","system_id":"levelo_inurba_marseille","lat":43.29791,"lon":5.38114,"is_reserved":false,"is_disabled":false,"rental_uris":{"android":"levelo://app?vid=c215b154-0f64-43f2-99fd-7529579ff77f","ios":"levelo://app?vid=c215b154-0f64-43f2-99fd-7529579ff77f"},"vehicle_type_id":"4","last_reported":1730401562,"current_range_meters":28800,"station_id":"ce4bgip2rcd13ifvqbb0","pricing_plan_id":"cebpf4jnsgd1na2vs0mg"},{"bike_id":"bb5b67f1-fdc4-4ec2-87ab-36ef2ae7d5a1","system_id":"levelo_inurba_marseille","lat":43.2847,"lon":5.38422,"is_reserved":false,"is_disabled":false,"rental_uris":{"android":"levelo://app?vid=bb5b67f1-fdc4-4ec2-87ab-36ef2ae7d5a1","ios":"levelo://app?vid=bb5b67f1-fdc4-4ec2-87ab-36ef2ae7d5a1"},"vehicle_type_id":"4","last_reported":1730401562,"current_range_meters":29600,"station_id":"ce4bh512rcd13ifvqe3g","pricing_plan_id":"cebpf4jnsgd1na2vs0mg"},{"bike_id":"cae7b15e-a9a9-4f33-b5c4-69cb631a99c2","system_id":"levelo_inurba_marseille","lat":43.30132,"lon":5.38769,"is_reserved":false,"is_disabled":false,"rental_uris":{"android":"levelo://app?vid=cae7b15e-a9a9-4f33-b5c4-69cb631a99c2","ios":"levelo://app?vid=cae7b15e-a9a9-4f33-b5c4-69cb631a99c2"},"vehicle_type_id":"4","last_reported":1730401562,"current_range_meters":36400,"station_id":"ce4bghh2rcd13ifvqb60","pricing_plan_id":"cebpf4jnsgd1na2vs0mg"},{"bike_id":"0eac5a1d-d684-45e0-be5d-a22f3e11c4ca","system_id":"levelo_inurba_marseille","lat":43.23964,"lon":5.36643,"is_reserved":false,"is_disabled":false,"rental_uris":{"android":"levelo://app?vid=0eac5a1d-d684-45e0-be5d-a22f3e11c4ca","ios":"levelo://app?vid=0eac5a1d-d684-45e0-be5d-a22f3e11c4ca"},"vehicle_type_id":"4","last_reported":1730401562,"current_range_meters":10800,"station_id":"ce4bhi12rcd13ifvqfp0","pricing_plan_id":"cebpf4jnsgd1na2vs0mg"},{"bike_id":"2ee8184d-2b23-4252-b200-afe95b3d1348","system_id":"levelo_inurba_marseille","lat":43.29572,"lon":5.375,"is_reserved":false,"is_disabled":false,"rental_uris":{"android":"levelo://app?vid=2ee8184d-2b23-4252-b200-afe95b3d1348","ios":"levelo://app?vid=2ee8184d-2b23-4252-b200-afe95b3d1348"},"vehicle_type_id":"4","last_reported":1730401562,"current_range_meters":37600,"station_id":"ce4bgh92rcd13ifvqb50","pricing_plan_id":"cebpf4jnsgd1na2vs0mg"},{"bike_id":"e7b2be94-21fc-42ac-bdf7-d486710a5d9a","system_id":"levelo_inurba_marseille","lat":43.2319,"lon":5.35552,"is_reserved":false,"is_disabled":false,"rental_uris":{"android":"levelo://app?vid=e7b2be94-21fc-42ac-bdf7-d486710a5d9a","ios":"levelo://app?vid=e7b2be94-21fc-42ac-bdf7-d486710a5d9a"},"vehicle_type_id":"4","last_reported":1730401562,"current_range_meters":38800,"station_id":"ce4bhu92rcd13ifvqi70","pricing_plan_id":"cebpf4jnsgd1na2vs0mg"},{"bike_id":"7dbc7367-c324-42fe-8826-d4f59b2465b4","system_id":"levelo_inurba_marseille","lat":43.30604,"lon":5.3723,"is_reserved":false,"is_disabled":false,"rental_uris":{"android":"levelo://app?vid=7dbc7367-c324-42fe-8826-d4f59b2465b4","ios":"levelo://app?vid=7dbc7367-c324-42fe-8826-d4f59b2465b4"},"vehicle_type_id":"4","last_reported":1730401562,"current_range_meters":22400,"station_id":"ce4bgqh2rcd13ifvqc4g","pricing_plan_id":"cebpf4jnsgd1na2vs0mg"},{"bike_id":"b2f93e51-c97f-41c9-9649-17484456962a","system_id":"levelo_inurba_marseille","lat":43.30121,"lon":5.39845,"is_reserved":false,"is_disabled":false,"rental_uris":{"android":"levelo://app?vid=b2f93e51-c97f-41c9-9649-17484456962a","ios":"levelo://app?vid=b2f93e51-c97f-41c9-9649-17484456962a"},"vehicle_type_id":"4","last_reported":1730401562,"current_range_meters":38800,"station_id":"ce4bh0h2rcd13ifvqd40","pricing_plan_id":"cebpf4jnsgd1na2vs0mg"},{"bike_id":"ddd61f92-90bb-4c96-bb29-cb24e60dddcf","system_id":"levelo_inurba_marseille","lat":43.29667,"lon":5.37296,"is_reserved":false,"is_disabled":false,"rental_uris":{"android":"levelo://app?vid=ddd61f92-90bb-4c96-bb29-cb24e60dddcf","ios":"levelo://app?vid=ddd61f92-90bb-4c96-bb29-cb24e60dddcf"},"vehicle_type_id":"4","last_reported":1730401562,"current_range_meters":22000,"station_id":"ce4bgk12rcd13ifvqbj0","pricing_plan_id":"cebpf4jnsgd1na2vs0mg"},{"bike_id":"1207f94c-6acd-451f-8a7b-140465beec8b","system_id":"levelo_inurba_marseille","lat":43.287,"lon":5.37388,"is_reserved":false,"is_disabled":false,"rental_uris":{"android":"levelo://app?vid=1207f94c-6acd-451f-8a7b-140465beec8b","ios":"levelo://app?vid=1207f94c-6acd-451f-8a7b-140465beec8b"},"vehicle_type_id":"4","last_reported":1730401562,"current_range_meters":6000,"station_id":"ce4bh3p2rcd13ifvqdq0","pricing_plan_id":"cebpf4jnsgd1na2vs0mg"},{"bike_id":"dacaf0a1-652d-4a4b-ae67-ee7a01f2112c","system_id":"levelo_inurba_marseille","lat":43.23193,"lon":5.35552,"is_reserved":false,"is_disabled":false,"rental_uris":{"android":"levelo://app?vid=dacaf0a1-652d-4a4b-ae67-ee7a01f2112c","ios":"levelo://app?vid=dacaf0a1-652d-4a4b-ae67-ee7a01f2112c"},"vehicle_type_id":"4","last_reported":1730401562,"current_range_meters":21600,"station_id":"ce4bhu92rcd13ifvqi70","pricing_plan_id":"cebpf4jnsgd1na2vs0mg"},{"bike_id":"46f626a0-2501-4540-ba80-fb070c2b5759","system_id":"levelo_inurba_marseille","lat":43.29525,"lon":5.38546,"is_reserved":false,"is_disabled":false,"rental_uris":{"android":"levelo://app?vid=46f626a0-2501-4540-ba80-fb070c2b5759","ios":"levelo://app?vid=46f626a0-2501-4540-ba80-fb070c2b5759"},"vehicle_type_id":"4","last_reported":1730401562,"current_range_meters":6400,"station_id":"ce4bgih2rcd13ifvqba0","pricing_plan_id":"cebpf4jnsgd1na2vs0mg"},{"bike_id":"0c0d4548-c9f5-4b26-84f3-518a85e46544","system_id":"levelo_inurba_marseille","lat":43.2742,"lon":5.39415,"is_reserved":false,"is_disabled":false,"rental_uris":{"android":"levelo://app?vid=0c0d4548-c9f5-4b26-84f3-518a85e46544","ios":"levelo://app?vid=0c0d4548-c9f5-4b26-84f3-518a85e46544"},"vehicle_type_id":"4","last_reported":1730401562,"current_range_meters":25200,"station_id":"ce4bhdp2rcd13ifvqf20","pricing_plan_id":"cebpf4jnsgd1na2vs0mg"},{"bike_id":"1bdfbd39-a0b8-4e60-a8c6-7fba8ed89c22","system_id":"levelo_inurba_marseille","lat":43.26209,"lon":5.37444,"is_reserved":false,"is_disabled":false,"rental_uris":{"android":"levelo://app?vid=1bdfbd39-a0b8-4e60-a8c6-7fba8ed89c22","ios":"levelo://app?vid=1bdfbd39-a0b8-4e60-a8c6-7fba8ed89c22"},"vehicle_type_id":"4","last_reported":1730401562,"current_range_meters":38800,"station_id":"ce4bhgp2rcd13ifvqfc0","pricing_plan_id":"cebpf4jnsgd1na2vs0mg"},{"bike_id":"b333824e-c9e0-4dac-aec9-0cb70e1ccd34","system_id":"levelo_inurba_marseille","lat":43.258586,"lon":5.398964,"is_reserved":false,"is_disabled":false,"rental_uris":{"android":"levelo://app?vid=b333824e-c9e0-4dac-aec9-0cb70e1ccd34","ios":"levelo://app?vid=b333824e-c9e0-4dac-aec9-0cb70e1ccd34"},"vehicle_type_id":"4","last_reported":1730401562,"current_range_meters":38800,"station_id":"ce4bhl92rcd13ifvqghg","pricing_plan_id":"cebpf4jnsgd1na2vs0mg"},{"bike_id":"5505627b-8278-457b-9c63-9a16aac49a16","system_id":"levelo_inurba_marseille","lat":43.26936,"lon":5.38916,"is_reserved":false,"is_disabled":false,"rental_uris":{"android":"levelo://app?vid=5505627b-8278-457b-9c63-9a16aac49a16","ios":"levelo://app?vid=5505627b-8278-457b-9c63-9a16aac49a16"},"vehicle_type_id":"4","last_reported":1730401562,"current_range_meters":27600,"station_id":"ce4bhhh2rcd13ifvqfl0","pricing_plan_id":"cebpf4jnsgd1na2vs0mg"},{"bike_id":"6fba7c0b-fb9b-42df-a58b-c64e62ee8a21","system_id":"levelo_inurba_marseille","lat":43.30242,"lon":5.40076,"is_reserved":false,"is_disabled":false,"rental_uris":{"android":"levelo://app?vid=6fba7c0b-fb9b-42df-a58b-c64e62ee8a21","ios":"levelo://app?vid=6fba7c0b-fb9b-42df-a58b-c64e62ee8a21"},"vehicle_type_id":"4","last_reported":1730401562,"current_range_meters":38800,"station_id":"ce4bgvh2rcd13ifvqcs0","pricing_plan_id":"cebpf4jnsgd1na2vs0mg"},{"bike_id":"6ebb58ed-1590-42c1-bd35-58362bfc1769","system_id":"levelo_inurba_marseille","lat":43.32372,"lon":5.38923,"is_reserved":false,"is_disabled":false,"rental_uris":{"android":"levelo://app?vid=6ebb58ed-1590-42c1-bd35-58362bfc1769","ios":"levelo://app?vid=6ebb58ed-1590-42c1-bd35-58362bfc1769"},"vehicle_type_id":"4","last_reported":1730401562,"current_range_meters":6800,"station_id":"ce4bhqp2rcd13ifvqhog","pricing_plan_id":"cebpf4jnsgd1na2vs0mg"},{"bike_id":"3c9d0b54-ac99-4072-bef1-0abd6f77571b","system_id":"levelo_inurba_marseille","lat":43.28419,"lon":5.3498,"is_reserved":false,"is_disabled":false,"rental_uris":{"android":"levelo://app?vid=3c9d0b54-ac99-4072-bef1-0abd6f77571b","ios":"levelo://app?vid=3c9d0b54-ac99-4072-bef1-0abd6f77571b"},"vehicle_type_id":"4","last_reported":1730401562,"current_range_meters":38800,"station_id":"ce4bhbh2rcd13ifvqepg","pricing_plan_id":"cebpf4jnsgd1na2vs0mg"},{"bike_id":"cd506133-45e2-421c-adbd-9501e6e43795","system_id":"levelo_inurba_marseille","lat":43.2803,"lon":5.36948,"is_reserved":false,"is_disabled":false,"rental_uris":{"android":"levelo://app?vid=cd506133-45e2-421c-adbd-9501e6e43795","ios":"levelo://app?vid=cd506133-45e2-421c-adbd-9501e6e43795"},"vehicle_type_id":"4","last_reported":1730401562,"current_range_meters":36400,"station_id":"ce4bha12rcd13ifvqef0","pricing_plan_id":"cebpf4jnsgd1na2vs0mg"},{"bike_id":"dbe99495-1f17-4681-a606-3023e8b7f906","system_id":"levelo_inurba_marseille","lat":43.25112,"lon":5.40322,"is_reserved":false,"is_disabled":false,"rental_uris":{"android":"levelo://app?vid=dbe99495-1f17-4681-a606-3023e8b7f906","ios":"levelo://app?vid=dbe99495-1f17-4681-a606-3023e8b7f906"},"vehicle_type_id":"4","last_reported":1730401562,"current_range_meters":39200,"station_id":"ce4bhlh2rcd13ifvqgig","pricing_plan_id":"cebpf4jnsgd1na2vs0mg"},{"bike_id":"be6db18b-53f7-4a3d-8206-6d91f4a07d41","system_id":"levelo_inurba_marseille","lat":43.25559,"lon":5.38238,"is_reserved":false,"is_disabled":false,"rental_uris":{"android":"levelo://app?vid=be6db18b-53f7-4a3d-8206-6d91f4a07d41","ios":"levelo://app?vid=be6db18b-53f7-4a3d-8206-6d91f4a07d41"},"vehicle_type_id":"4","last_reported":1730401562,"current_range_meters":20400,"station_id":"ce4bhih2rcd13ifvqfs0","pricing_plan_id":"cebpf4jnsgd1na2vs0mg"},{"bike_id":"6badb0e3-569f-479f-ab58-214ac3d8e72a","system_id":"levelo_inurba_marseille","lat":43.29417,"lon":5.38623,"is_reserved":false,"is_disabled":false,"rental_uris":{"android":"levelo://app?vid=6badb0e3-569f-479f-ab58-214ac3d8e72a","ios":"levelo://app?vid=6badb0e3-569f-479f-ab58-214ac3d8e72a"},"vehicle_type_id":"4","last_reported":1730401562,"current_range_meters":38800,"station_id":"ce4bh2h2rcd13ifvqdh0","pricing_plan_id":"cebpf4jnsgd1na2vs0mg"},{"bike_id":"e1dc1804-0545-4567-815a-9def7847ad07","system_id":"levelo_inurba_marseille","lat":43.27946,"lon":5.41041,"is_reserved":false,"is_disabled":false,"rental_uris":{"android":"levelo://app?vid=e1dc1804-0545-4567-815a-9def7847ad07","ios":"levelo://app?vid=e1dc1804-0545-4567-815a-9def7847ad07"},"vehicle_type_id":"4","last_reported":1730401562,"current_range_meters":31200,"station_id":"ce4bhnp2rcd13ifvqh0g","pricing_plan_id":"cebpf4jnsgd1na2vs0mg"},{"bike_id":"e3a98121-b36a-4fed-90ea-cb2befcd48c4","system_id":"levelo_inurba_marseille","lat":43.29865,"lon":5.39738,"is_reserved":false,"is_disabled":false,"rental_uris":{"android":"levelo://app?vid=e3a98121-b36a-4fed-90ea-cb2befcd48c4","ios":"levelo://app?vid=e3a98121-b36a-4fed-90ea-cb2befcd48c4"},"vehicle_type_id":"4","last_reported":1730401562,"current_range_meters":36400,"station_id":"ce4bh0h2rcd13ifvqd50","pricing_plan_id":"cebpf4jnsgd1na2vs0mg"},{"bike_id":"2080af06-73cf-4bdf-a453-5fb147d045c2","system_id":"levelo_inurba_marseille","lat":43.22932,"lon":5.35377,"is_reserved":false,"is_disabled":false,"rental_uris":{"android":"levelo://app?vid=2080af06-73cf-4bdf-a453-5fb147d045c2","ios":"levelo://app?vid=2080af06-73cf-4bdf-a453-5fb147d045c2"},"vehicle_type_id":"4","last_reported":1730401562,"current_range_meters":28400,"station_id":"cpo3532slgdg3j2ikp40","pricing_plan_id":"cebpf4jnsgd1na2vs0mg"},{"bike_id":"a80fc96d-6ec9-4f98-bfeb-b7eb4bb51d97","system_id":"levelo_inurba_marseille","lat":43.29426,"lon":5.38629,"is_reserved":false,"is_disabled":false,"rental_uris":{"android":"levelo://app?vid=a80fc96d-6ec9-4f98-bfeb-b7eb4bb51d97","ios":"levelo://app?vid=a80fc96d-6ec9-4f98-bfeb-b7eb4bb51d97"},"vehicle_type_id":"4","last_reported":1730401562,"current_range_meters":37600,"station_id":"ce4bh2h2rcd13ifvqdh0","pricing_plan_id":"cebpf4jnsgd1na2vs0mg"},{"bike_id":"000a2711-60e8-4a72-9191-621224c3143b","system_id":"levelo_inurba_marseille","lat":43.30881,"lon":5.39648,"is_reserved":false,"is_disabled":false,"rental_uris":{"android":"levelo://app?vid=000a2711-60e8-4a72-9191-621224c3143b","ios":"levelo://app?vid=000a2711-60e8-4a72-9191-621224c3143b"},"vehicle_type_id":"4","last_reported":1730401562,"current_range_meters":38800,"station_id":"ce4bh012rcd13ifvqcv0","pricing_plan_id":"cebpf4jnsgd1na2vs0mg"},{"bike_id":"d354cbb1-2217-4bb0-a016-76525e2e4932","system_id":"levelo_inurba_marseille","lat":43.306,"lon":5.37225,"is_reserved":false,"is_disabled":false,"rental_uris":{"android":"levelo://app?vid=d354cbb1-2217-4bb0-a016-76525e2e4932","ios":"levelo://app?vid=d354cbb1-2217-4bb0-a016-76525e2e4932"},"vehicle_type_id":"4","last_reported":1730401562,"current_range_meters":38800,"station_id":"ce4bgqh2rcd13ifvqc4g","pricing_plan_id":"cebpf4jnsgd1na2vs0mg"},{"bike_id":"c6a40189-1e8a-4768-bef9-05818ba1d0e3","system_id":"levelo_inurba_marseille","lat":43.25089,"lon":5.39523,"is_reserved":false,"is_disabled":false,"rental_uris":{"android":"levelo://app?vid=c6a40189-1e8a-4768-bef9-05818ba1d0e3","ios":"levelo://app?vid=c6a40189-1e8a-4768-bef9-05818ba1d0e3"},"vehicle_type_id":"4","last_reported":1730401562,"current_range_meters":28000,"station_id":"ce4bhm12rcd13ifvqgkg","pricing_plan_id":"cebpf4jnsgd1na2vs0mg"},{"bike_id":"9dba46b9-660a-4784-9234-fd82ea74c122","system_id":"levelo_inurba_marseille","lat":43.28618,"lon":5.35109,"is_reserved":false,"is_disabled":false,"rental_uris":{"android":"levelo://app?vid=9dba46b9-660a-4784-9234-fd82ea74c122","ios":"levelo://app?vid=9dba46b9-660a-4784-9234-fd82ea74c122"},"vehicle_type_id":"4","last_reported":1730401562,"current_range_meters":8000,"station_id":"ce4bhch2rcd13ifvqeug","pricing_plan_id":"cebpf4jnsgd1na2vs0mg"},{"bike_id":"cf984b07-c06a-489f-a198-682f7019d2a4","system_id":"levelo_inurba_marseille","lat":43.25579,"lon":5.38233,"is_reserved":false,"is_disabled":false,"rental_uris":{"android":"levelo://app?vid=cf984b07-c06a-489f-a198-682f7019d2a4","ios":"levelo://app?vid=cf984b07-c06a-489f-a198-682f7019d2a4"},"vehicle_type_id":"4","last_reported":1730401562,"current_range_meters":4400,"station_id":"ce4bhih2rcd13ifvqfs0","pricing_plan_id":"cebpf4jnsgd1na2vs0mg"},{"bike_id":"8f55f6cc-0b54-4d5f-9029-aa15dfd6d9b0","system_id":"levelo_inurba_marseille","lat":43.31613,"lon":5.39064,"is_reserved":false,"is_disabled":false,"rental_uris":{"android":"levelo://app?vid=8f55f6cc-0b54-4d5f-9029-aa15dfd6d9b0","ios":"levelo://app?vid=8f55f6cc-0b54-4d5f-9029-aa15dfd6d9b0"},"vehicle_type_id":"4","last_reported":1730401562,"current_range_meters":12400,"station_id":"","pricing_plan_id":"cebpf4jnsgd1na2vs0mg"},{"bike_id":"9dea5968-0e30-4366-947c-4679fc57c9ac","system_id":"levelo_inurba_marseille","lat":43.26062,"lon":5.39397,"is_reserved":false,"is_disabled":false,"rental_uris":{"android":"levelo://app?vid=9dea5968-0e30-4366-947c-4679fc57c9ac","ios":"levelo://app?vid=9dea5968-0e30-4366-947c-4679fc57c9ac"},"vehicle_type_id":"4","last_reported":1730401562,"current_range_meters":38000,"station_id":"ce4bhh92rcd13ifvqfj0","pricing_plan_id":"cebpf4jnsgd1na2vs0mg"},{"bike_id":"53b2beea-6a7c-43a4-a9ab-e664a4b2bcdb","system_id":"levelo_inurba_marseille","lat":43.29708,"lon":5.36619,"is_reserved":false,"is_disabled":false,"rental_uris":{"android":"levelo://app?vid=53b2beea-6a7c-43a4-a9ab-e664a4b2bcdb","ios":"levelo://app?vid=53b2beea-6a7c-43a4-a9ab-e664a4b2bcdb"},"vehicle_type_id":"4","last_reported":1730401562,"current_range_meters":10800,"station_id":"ce4bgn12rcd13ifvqbt0","pricing_plan_id":"cebpf4jnsgd1na2vs0mg"},{"bike_id":"5ff74640-5d39-40f8-808a-e5695df59fd4","system_id":"levelo_inurba_marseille","lat":43.27191,"lon":5.41027,"is_reserved":false,"is_disabled":false,"rental_uris":{"android":"levelo://app?vid=5ff74640-5d39-40f8-808a-e5695df59fd4","ios":"levelo://app?vid=5ff74640-5d39-40f8-808a-e5695df59fd4"},"vehicle_type_id":"4","last_reported":1730401562,"current_range_meters":6400,"station_id":"ce4bhl12rcd13ifvqgf0","pricing_plan_id":"cebpf4jnsgd1na2vs0mg"},{"bike_id":"b01f7fb7-581d-4a11-b1ff-60b1326781b9","system_id":"levelo_inurba_marseille","lat":43.29872,"lon":5.39732,"is_reserved":false,"is_disabled":false,"rental_uris":{"android":"levelo://app?vid=b01f7fb7-581d-4a11-b1ff-60b1326781b9","ios":"levelo://app?vid=b01f7fb7-581d-4a11-b1ff-60b1326781b9"},"vehicle_type_id":"4","last_reported":1730401562,"current_range_meters":37600,"station_id":"ce4bh0h2rcd13ifvqd50","pricing_plan_id":"cebpf4jnsgd1na2vs0mg"},{"bike_id":"54d08921-9671-4c05-9a79-2779a0a5935e","system_id":"levelo_inurba_marseille","lat":43.29255,"lon":5.38439,"is_reserved":false,"is_disabled":false,"rental_uris":{"android":"levelo://app?vid=54d08921-9671-4c05-9a79-2779a0a5935e","ios":"levelo://app?vid=54d08921-9671-4c05-9a79-2779a0a5935e"},"vehicle_type_id":"4","last_reported":1730401562,"current_range_meters":27200,"station_id":"ce4bh692rcd13ifvqea0","pricing_plan_id":"cebpf4jnsgd1na2vs0mg"},{"bike_id":"a931e96c-2049-447b-83ac-c717bfca3d41","system_id":"levelo_inurba_marseille","lat":43.25581,"lon":5.38232,"is_reserved":false,"is_disabled":false,"rental_uris":{"android":"levelo://app?vid=a931e96c-2049-447b-83ac-c717bfca3d41","ios":"levelo://app?vid=a931e96c-2049-447b-83ac-c717bfca3d41"},"vehicle_type_id":"4","last_reported":1730401562,"current_range_meters":2800,"station_id":"ce4bhih2rcd13ifvqfs0","pricing_plan_id":"cebpf4jnsgd1na2vs0mg"},{"bike_id":"59858903-9d81-44c5-b2b0-40cbb39e5501","system_id":"levelo_inurba_marseille","lat":43.29932,"lon":5.36551,"is_reserved":false,"is_disabled":false,"rental_uris":{"android":"levelo://app?vid=59858903-9d81-44c5-b2b0-40cbb39e5501","ios":"levelo://app?vid=59858903-9d81-44c5-b2b0-40cbb39e5501"},"vehicle_type_id":"4","last_reported":1730401562,"current_range_meters":15200,"station_id":"ce4bgm92rcd13ifvqbr0","pricing_plan_id":"cebpf4jnsgd1na2vs0mg"},{"bike_id":"bf7e4d3c-4c08-4031-80da-01a9b784e25c","system_id":"levelo_inurba_marseille","lat":43.262113,"lon":5.374409,"is_reserved":false,"is_disabled":false,"rental_uris":{"android":"levelo://app?vid=bf7e4d3c-4c08-4031-80da-01a9b784e25c","ios":"levelo://app?vid=bf7e4d3c-4c08-4031-80da-01a9b784e25c"},"vehicle_type_id":"4","last_reported":1730401562,"current_range_meters":19600,"station_id":"ce4bhgp2rcd13ifvqfc0","pricing_plan_id":"cebpf4jnsgd1na2vs0mg"},{"bike_id":"ec6b9073-f040-4b5d-9196-6ef1515ae5be","system_id":"levelo_inurba_marseille","lat":43.31997,"lon":5.38153,"is_reserved":false,"is_disabled":false,"rental_uris":{"android":"levelo://app?vid=ec6b9073-f040-4b5d-9196-6ef1515ae5be","ios":"levelo://app?vid=ec6b9073-f040-4b5d-9196-6ef1515ae5be"},"vehicle_type_id":"4","last_reported":1730401562,"current_range_meters":17200,"station_id":"ce4bhr12rcd13ifvqhpg","pricing_plan_id":"cebpf4jnsgd1na2vs0mg"},{"bike_id":"3a09ceaf-2e70-40df-b9b5-539e96d81463","system_id":"levelo_inurba_marseille","lat":43.26952,"lon":5.38633,"is_reserved":false,"is_disabled":false,"rental_uris":{"android":"levelo://app?vid=3a09ceaf-2e70-40df-b9b5-539e96d81463","ios":"levelo://app?vid=3a09ceaf-2e70-40df-b9b5-539e96d81463"},"vehicle_type_id":"4","last_reported":1730401562,"current_range_meters":30800,"station_id":"ce4bhh92rcd13ifvqfh0","pricing_plan_id":"cebpf4jnsgd1na2vs0mg"},{"bike_id":"5b1beb29-08c3-4517-96e1-89c4b727e0c3","system_id":"levelo_inurba_marseille","lat":43.2319,"lon":5.35547,"is_reserved":false,"is_disabled":false,"rental_uris":{"android":"levelo://app?vid=5b1beb29-08c3-4517-96e1-89c4b727e0c3","ios":"levelo://app?vid=5b1beb29-08c3-4517-96e1-89c4b727e0c3"},"vehicle_type_id":"4","last_reported":1730401562,"current_range_meters":33600,"station_id":"ce4bhu92rcd13ifvqi70","pricing_plan_id":"cebpf4jnsgd1na2vs0mg"},{"bike_id":"a6a92ce8-042b-4d3f-83f3-c5c50ac1bf96","system_id":"levelo_inurba_marseille","lat":43.2811,"lon":5.37837,"is_reserved":false,"is_disabled":false,"rental_uris":{"android":"levelo://app?vid=a6a92ce8-042b-4d3f-83f3-c5c50ac1bf96","ios":"levelo://app?vid=a6a92ce8-042b-4d3f-83f3-c5c50ac1bf96"},"vehicle_type_id":"4","last_reported":1730401562,"current_range_meters":16800,"station_id":"ce4bha12rcd13ifvqee0","pricing_plan_id":"cebpf4jnsgd1na2vs0mg"},{"bike_id":"22e5e5c1-6dbf-40f4-b818-a64e5c930397","system_id":"levelo_inurba_marseille","lat":43.23962,"lon":5.36644,"is_reserved":false,"is_disabled":false,"rental_uris":{"android":"levelo://app?vid=22e5e5c1-6dbf-40f4-b818-a64e5c930397","ios":"levelo://app?vid=22e5e5c1-6dbf-40f4-b818-a64e5c930397"},"vehicle_type_id":"4","last_reported":1730401562,"current_range_meters":31200,"station_id":"ce4bhi12rcd13ifvqfp0","pricing_plan_id":"cebpf4jnsgd1na2vs0mg"},{"bike_id":"678bd49d-4e97-464a-9d6b-ff8f1a094f5f","system_id":"levelo_inurba_marseille","lat":43.290223,"lon":5.386367,"is_reserved":false,"is_disabled":false,"rental_uris":{"android":"levelo://app?vid=678bd49d-4e97-464a-9d6b-ff8f1a094f5f","ios":"levelo://app?vid=678bd49d-4e97-464a-9d6b-ff8f1a094f5f"},"vehicle_type_id":"4","last_reported":1730401562,"current_range_meters":30000,"station_id":"ce4bh4p2rcd13ifvqe0g","pricing_plan_id":"cebpf4jnsgd1na2vs0mg"},{"bike_id":"42dfebb6-ce28-46ba-90a1-c3a7dc77abdc","system_id":"levelo_inurba_marseille","lat":43.30425,"lon":5.3976,"is_reserved":false,"is_disabled":false,"rental_uris":{"android":"levelo://app?vid=42dfebb6-ce28-46ba-90a1-c3a7dc77abdc","ios":"levelo://app?vid=42dfebb6-ce28-46ba-90a1-c3a7dc77abdc"},"vehicle_type_id":"4","last_reported":1730401562,"current_range_meters":36400,"station_id":"ce4bh092rcd13ifvqd20","pricing_plan_id":"cebpf4jnsgd1na2vs0mg"},{"bike_id":"f99547b6-e0b7-4a86-b4bb-f600f8ca5cb2","system_id":"levelo_inurba_marseille","lat":43.24168,"lon":5.36401,"is_reserved":false,"is_disabled":false,"rental_uris":{"android":"levelo://app?vid=f99547b6-e0b7-4a86-b4bb-f600f8ca5cb2","ios":"levelo://app?vid=f99547b6-e0b7-4a86-b4bb-f600f8ca5cb2"},"vehicle_type_id":"4","last_reported":1730401562,"current_range_meters":9600,"station_id":"cpo36qri1sfpv3e86is0","pricing_plan_id":"cebpf4jnsgd1na2vs0mg"},{"bike_id":"45a34f09-7fb7-40ca-b8fb-591f79a3282d","system_id":"levelo_inurba_marseille","lat":43.24018,"lon":5.38469,"is_reserved":false,"is_disabled":false,"rental_uris":{"android":"levelo://app?vid=45a34f09-7fb7-40ca-b8fb-591f79a3282d","ios":"levelo://app?vid=45a34f09-7fb7-40ca-b8fb-591f79a3282d"},"vehicle_type_id":"4","last_reported":1730401562,"current_range_meters":14800,"station_id":"","pricing_plan_id":"cebpf4jnsgd1na2vs0mg"},{"bike_id":"20922681-d856-4073-952c-56761e00805d","system_id":"levelo_inurba_marseille","lat":43.3189,"lon":5.40746,"is_reserved":false,"is_disabled":false,"rental_uris":{"android":"levelo://app?vid=20922681-d856-4073-952c-56761e00805d","ios":"levelo://app?vid=20922681-d856-4073-952c-56761e00805d"},"vehicle_type_id":"4","last_reported":1730401562,"current_range_meters":5600,"station_id":"ce4bhq12rcd13ifvqhig","pricing_plan_id":"cebpf4jnsgd1na2vs0mg"},{"bike_id":"ad423d48-e9c3-49a3-8744-a69ab957b193","system_id":"levelo_inurba_marseille","lat":43.2925,"lon":5.3843,"is_reserved":false,"is_disabled":false,"rental_uris":{"android":"levelo://app?vid=ad423d48-e9c3-49a3-8744-a69ab957b193","ios":"levelo://app?vid=ad423d48-e9c3-49a3-8744-a69ab957b193"},"vehicle_type_id":"4","last_reported":1730401562,"current_range_meters":16400,"station_id":"ce4bh692rcd13ifvqea0","pricing_plan_id":"cebpf4jnsgd1na2vs0mg"},{"bike_id":"32a7b847-ca99-48d0-8695-b92bf6f9b7c4","system_id":"levelo_inurba_marseille","lat":43.30422,"lon":5.41295,"is_reserved":false,"is_disabled":false,"rental_uris":{"android":"levelo://app?vid=32a7b847-ca99-48d0-8695-b92bf6f9b7c4","ios":"levelo://app?vid=32a7b847-ca99-48d0-8695-b92bf6f9b7c4"},"vehicle_type_id":"4","last_reported":1730401562,"current_range_meters":24800,"station_id":"ce4bhop2rcd13ifvqh8g","pricing_plan_id":"cebpf4jnsgd1na2vs0mg"},{"bike_id":"794d23c0-def7-4557-a69a-112ea268f585","system_id":"levelo_inurba_marseille","lat":43.232,"lon":5.35555,"is_reserved":false,"is_disabled":false,"rental_uris":{"android":"levelo://app?vid=794d23c0-def7-4557-a69a-112ea268f585","ios":"levelo://app?vid=794d23c0-def7-4557-a69a-112ea268f585"},"vehicle_type_id":"4","last_reported":1730401562,"current_range_meters":38800,"station_id":"ce4bhu92rcd13ifvqi70","pricing_plan_id":"cebpf4jnsgd1na2vs0mg"},{"bike_id":"e7b3876e-0692-4eb0-b28b-e396c7d0c567","system_id":"levelo_inurba_marseille","lat":43.29088,"lon":5.38139,"is_reserved":false,"is_disabled":false,"rental_uris":{"android":"levelo://app?vid=e7b3876e-0692-4eb0-b28b-e396c7d0c567","ios":"levelo://app?vid=e7b3876e-0692-4eb0-b28b-e396c7d0c567"},"vehicle_type_id":"4","last_reported":1730401562,"current_range_meters":37600,"station_id":"ce4bh512rcd13ifvqe2g","pricing_plan_id":"cebpf4jnsgd1na2vs0mg"},{"bike_id":"1205d633-4986-4c67-9432-2d423a89c40d","system_id":"levelo_inurba_marseille","lat":43.27181,"lon":5.40992,"is_reserved":false,"is_disabled":false,"rental_uris":{"android":"levelo://app?vid=1205d633-4986-4c67-9432-2d423a89c40d","ios":"levelo://app?vid=1205d633-4986-4c67-9432-2d423a89c40d"},"vehicle_type_id":"4","last_reported":1730401562,"current_range_meters":32800,"station_id":"ce4bhl12rcd13ifvqgf0","pricing_plan_id":"cebpf4jnsgd1na2vs0mg"},{"bike_id":"d843627f-14fd-4686-94e3-ce47a963fbbd","system_id":"levelo_inurba_marseille","lat":43.29251,"lon":5.38437,"is_reserved":false,"is_disabled":false,"rental_uris":{"android":"levelo://app?vid=d843627f-14fd-4686-94e3-ce47a963fbbd","ios":"levelo://app?vid=d843627f-14fd-4686-94e3-ce47a963fbbd"},"vehicle_type_id":"4","last_reported":1730401562,"current_range_meters":38800,"station_id":"ce4bh692rcd13ifvqea0","pricing_plan_id":"cebpf4jnsgd1na2vs0mg"},{"bike_id":"46e61866-3283-41f1-83fc-4b2779324ab6","system_id":"levelo_inurba_marseille","lat":43.29576,"lon":5.37511,"is_reserved":false,"is_disabled":false,"rental_uris":{"android":"levelo://app?vid=46e61866-3283-41f1-83fc-4b2779324ab6","ios":"levelo://app?vid=46e61866-3283-41f1-83fc-4b2779324ab6"},"vehicle_type_id":"4","last_reported":1730401562,"current_range_meters":38800,"station_id":"ce4bgh92rcd13ifvqb50","pricing_plan_id":"cebpf4jnsgd1na2vs0mg"},{"bike_id":"e1f38475-1a5f-460f-8d3a-c2ed01dbd393","system_id":"levelo_inurba_marseille","lat":43.29025,"lon":5.38637,"is_reserved":false,"is_disabled":false,"rental_uris":{"android":"levelo://app?vid=e1f38475-1a5f-460f-8d3a-c2ed01dbd393","ios":"levelo://app?vid=e1f38475-1a5f-460f-8d3a-c2ed01dbd393"},"vehicle_type_id":"4","last_reported":1730401562,"current_range_meters":9600,"station_id":"ce4bh4p2rcd13ifvqe0g","pricing_plan_id":"cebpf4jnsgd1na2vs0mg"},{"bike_id":"87f600bd-1cbf-4cfa-a348-9681b3a61b62","system_id":"levelo_inurba_marseille","lat":43.29417,"lon":5.38628,"is_reserved":false,"is_disabled":false,"rental_uris":{"android":"levelo://app?vid=87f600bd-1cbf-4cfa-a348-9681b3a61b62","ios":"levelo://app?vid=87f600bd-1cbf-4cfa-a348-9681b3a61b62"},"vehicle_type_id":"4","last_reported":1730401562,"current_range_meters":18800,"station_id":"ce4bh2h2rcd13ifvqdh0","pricing_plan_id":"cebpf4jnsgd1na2vs0mg"},{"bike_id":"4714ada8-93a5-4108-ae0d-b8d49c924193","system_id":"levelo_inurba_marseille","lat":43.24178,"lon":5.39729,"is_reserved":false,"is_disabled":false,"rental_uris":{"android":"levelo://app?vid=4714ada8-93a5-4108-ae0d-b8d49c924193","ios":"levelo://app?vid=4714ada8-93a5-4108-ae0d-b8d49c924193"},"vehicle_type_id":"4","last_reported":1730401562,"current_range_meters":12400,"station_id":"ce4bhn12rcd13ifvqgpg","pricing_plan_id":"cebpf4jnsgd1na2vs0mg"},{"bike_id":"5b65c998-a70a-4147-a5ad-cfde4a53ff4d","system_id":"levelo_inurba_marseille","lat":43.29028,"lon":5.38651,"is_reserved":false,"is_disabled":false,"rental_uris":{"android":"levelo://app?vid=5b65c998-a70a-4147-a5ad-cfde4a53ff4d","ios":"levelo://app?vid=5b65c998-a70a-4147-a5ad-cfde4a53ff4d"},"vehicle_type_id":"4","last_reported":1730401562,"current_range_meters":36400,"station_id":"ce4bh4p2rcd13ifvqe0g","pricing_plan_id":"cebpf4jnsgd1na2vs0mg"},{"bike_id":"b4515282-8674-46e4-bad3-2bf216f81b1f","system_id":"levelo_inurba_marseille","lat":43.29694,"lon":5.37293,"is_reserved":false,"is_disabled":false,"rental_uris":{"android":"levelo://app?vid=b4515282-8674-46e4-bad3-2bf216f81b1f","ios":"levelo://app?vid=b4515282-8674-46e4-bad3-2bf216f81b1f"},"vehicle_type_id":"4","last_reported":1730401562,"current_range_meters":38800,"station_id":"ce4bgk12rcd13ifvqbj0","pricing_plan_id":"cebpf4jnsgd1na2vs0mg"},{"bike_id":"d4247ed7-9f1e-4c56-9be6-367fdf0ad3b2","system_id":"levelo_inurba_marseille","lat":43.29531,"lon":5.38547,"is_reserved":false,"is_disabled":false,"rental_uris":{"android":"levelo://app?vid=d4247ed7-9f1e-4c56-9be6-367fdf0ad3b2","ios":"levelo://app?vid=d4247ed7-9f1e-4c56-9be6-367fdf0ad3b2"},"vehicle_type_id":"4","last_reported":1730401562,"current_range_meters":31200,"station_id":"ce4bgih2rcd13ifvqba0","pricing_plan_id":"cebpf4jnsgd1na2vs0mg"},{"bike_id":"3408e5d1-aba1-40c2-83bd-9a76b92daf27","system_id":"levelo_inurba_marseille","lat":43.26059,"lon":5.394,"is_reserved":false,"is_disabled":false,"rental_uris":{"android":"levelo://app?vid=3408e5d1-aba1-40c2-83bd-9a76b92daf27","ios":"levelo://app?vid=3408e5d1-aba1-40c2-83bd-9a76b92daf27"},"vehicle_type_id":"4","last_reported":1730401562,"current_range_meters":38800,"station_id":"ce4bhh92rcd13ifvqfj0","pricing_plan_id":"cebpf4jnsgd1na2vs0mg"},{"bike_id":"7efb3e50-a9d6-4c1a-aec2-e25cba31bddf","system_id":"levelo_inurba_marseille","lat":43.3091,"lon":5.36851,"is_reserved":false,"is_disabled":false,"rental_uris":{"android":"levelo://app?vid=7efb3e50-a9d6-4c1a-aec2-e25cba31bddf","ios":"levelo://app?vid=7efb3e50-a9d6-4c1a-aec2-e25cba31bddf"},"vehicle_type_id":"4","last_reported":1730401562,"current_range_meters":25600,"station_id":"ce4bgn92rcd13ifvqbvg","pricing_plan_id":"cebpf4jnsgd1na2vs0mg"},{"bike_id":"6942b42a-0e5c-418c-aff8-66728d07da76","system_id":"levelo_inurba_marseille","lat":43.27995,"lon":5.40025,"is_reserved":false,"is_disabled":false,"rental_uris":{"android":"levelo://app?vid=6942b42a-0e5c-418c-aff8-66728d07da76","ios":"levelo://app?vid=6942b42a-0e5c-418c-aff8-66728d07da76"},"vehicle_type_id":"4","last_reported":1730401562,"current_range_meters":17200,"station_id":"ce4bho92rcd13ifvqh4g","pricing_plan_id":"cebpf4jnsgd1na2vs0mg"},{"bike_id":"a170b4cb-3e23-4249-961a-c8b3c67a8011","system_id":"levelo_inurba_marseille","lat":43.29522,"lon":5.38536,"is_reserved":false,"is_disabled":false,"rental_uris":{"android":"levelo://app?vid=a170b4cb-3e23-4249-961a-c8b3c67a8011","ios":"levelo://app?vid=a170b4cb-3e23-4249-961a-c8b3c67a8011"},"vehicle_type_id":"4","last_reported":1730401562,"current_range_meters":12800,"station_id":"ce4bgih2rcd13ifvqba0","pricing_plan_id":"cebpf4jnsgd1na2vs0mg"},{"bike_id":"b0dfda2b-16ba-4695-ad13-06b8fcf2ae14","system_id":"levelo_inurba_marseille","lat":43.30896,"lon":5.3719,"is_reserved":false,"is_disabled":false,"rental_uris":{"android":"levelo://app?vid=b0dfda2b-16ba-4695-ad13-06b8fcf2ae14","ios":"levelo://app?vid=b0dfda2b-16ba-4695-ad13-06b8fcf2ae14"},"vehicle_type_id":"4","last_reported":1730401562,"current_range_meters":4000,"station_id":"ce4bguh2rcd13ifvqckg","pricing_plan_id":"cebpf4jnsgd1na2vs0mg"},{"bike_id":"0341849b-1df5-4730-bde3-a19e9cf925b4","system_id":"levelo_inurba_marseille","lat":43.29609,"lon":5.37711,"is_reserved":false,"is_disabled":false,"rental_uris":{"android":"levelo://app?vid=0341849b-1df5-4730-bde3-a19e9cf925b4","ios":"levelo://app?vid=0341849b-1df5-4730-bde3-a19e9cf925b4"},"vehicle_type_id":"4","last_reported":1730401562,"current_range_meters":38000,"station_id":"ce4bgi92rcd13ifvqb90","pricing_plan_id":"cebpf4jnsgd1na2vs0mg"},{"bike_id":"30cd3637-5231-4451-8b17-3902824e2d98","system_id":"levelo_inurba_marseille","lat":43.31434,"lon":5.39295,"is_reserved":false,"is_disabled":false,"rental_uris":{"android":"levelo://app?vid=30cd3637-5231-4451-8b17-3902824e2d98","ios":"levelo://app?vid=30cd3637-5231-4451-8b17-3902824e2d98"},"vehicle_type_id":"4","last_reported":1730401562,"current_range_meters":21600,"station_id":"","pricing_plan_id":"cebpf4jnsgd1na2vs0mg"},{"bike_id":"233fe4fc-03a3-485d-9ef9-155c13f60143","system_id":"levelo_inurba_marseille","lat":43.258193,"lon":5.39438,"is_reserved":false,"is_disabled":false,"rental_uris":{"android":"levelo://app?vid=233fe4fc-03a3-485d-9ef9-155c13f60143","ios":"levelo://app?vid=233fe4fc-03a3-485d-9ef9-155c13f60143"},"vehicle_type_id":"4","last_reported":1730401562,"current_range_meters":35200,"station_id":"ce4bhf92rcd13ifvqf50","pricing_plan_id":"cebpf4jnsgd1na2vs0mg"},{"bike_id":"43593456-1fc7-466e-9966-4e71827096d2","system_id":"levelo_inurba_marseille","lat":43.29267,"lon":5.38448,"is_reserved":false,"is_disabled":false,"rental_uris":{"android":"levelo://app?vid=43593456-1fc7-466e-9966-4e71827096d2","ios":"levelo://app?vid=43593456-1fc7-466e-9966-4e71827096d2"},"vehicle_type_id":"4","last_reported":1730401562,"current_range_meters":38800,"station_id":"ce4bh692rcd13ifvqea0","pricing_plan_id":"cebpf4jnsgd1na2vs0mg"},{"bike_id":"55e8dde2-617e-4c29-bde2-a7deb8339727","system_id":"levelo_inurba_marseille","lat":43.30211,"lon":5.39466,"is_reserved":false,"is_disabled":false,"rental_uris":{"android":"levelo://app?vid=55e8dde2-617e-4c29-bde2-a7deb8339727","ios":"levelo://app?vid=55e8dde2-617e-4c29-bde2-a7deb8339727"},"vehicle_type_id":"4","last_reported":1730401562,"current_range_meters":39200,"station_id":"ce4bh0p2rcd13ifvqd70","pricing_plan_id":"cebpf4jnsgd1na2vs0mg"},{"bike_id":"9b890426-5b13-4f80-bee4-646df696bd29","system_id":"levelo_inurba_marseille","lat":43.30912,"lon":5.36852,"is_reserved":false,"is_disabled":false,"rental_uris":{"android":"levelo://app?vid=9b890426-5b13-4f80-bee4-646df696bd29","ios":"levelo://app?vid=9b890426-5b13-4f80-bee4-646df696bd29"},"vehicle_type_id":"4","last_reported":1730401562,"current_range_meters":30400,"station_id":"ce4bgn92rcd13ifvqbvg","pricing_plan_id":"cebpf4jnsgd1na2vs0mg"},{"bike_id":"b3c9a8b7-a166-4ae9-801e-b9b573e02c87","system_id":"levelo_inurba_marseille","lat":43.26556,"lon":5.37285,"is_reserved":false,"is_disabled":false,"rental_uris":{"android":"levelo://app?vid=b3c9a8b7-a166-4ae9-801e-b9b573e02c87","ios":"levelo://app?vid=b3c9a8b7-a166-4ae9-801e-b9b573e02c87"},"vehicle_type_id":"4","last_reported":1730401562,"current_range_meters":24400,"station_id":"ce4bhg12rcd13ifvqf70","pricing_plan_id":"cebpf4jnsgd1na2vs0mg"},{"bike_id":"4ffbdeb5-6c44-41bd-84b0-94a7e9a5ce52","system_id":"levelo_inurba_marseille","lat":43.29779,"lon":5.39344,"is_reserved":false,"is_disabled":false,"rental_uris":{"android":"levelo://app?vid=4ffbdeb5-6c44-41bd-84b0-94a7e9a5ce52","ios":"levelo://app?vid=4ffbdeb5-6c44-41bd-84b0-94a7e9a5ce52"},"vehicle_type_id":"4","last_reported":1730401562,"current_range_meters":36800,"station_id":"chh1huq6cuj3fo74tm60","pricing_plan_id":"cebpf4jnsgd1na2vs0mg"},{"bike_id":"9a3e6e6f-8af1-4519-af72-d39b7acbc3d2","system_id":"levelo_inurba_marseille","lat":43.31491,"lon":5.3731,"is_reserved":false,"is_disabled":false,"rental_uris":{"android":"levelo://app?vid=9a3e6e6f-8af1-4519-af72-d39b7acbc3d2","ios":"levelo://app?vid=9a3e6e6f-8af1-4519-af72-d39b7acbc3d2"},"vehicle_type_id":"4","last_reported":1730401562,"current_range_meters":6000,"station_id":"ce4bgt12rcd13ifvqcd0","pricing_plan_id":"cebpf4jnsgd1na2vs0mg"},{"bike_id":"8e63b503-778b-42f4-ae04-a1cee9c5ac08","system_id":"levelo_inurba_marseille","lat":43.29422,"lon":5.38635,"is_reserved":false,"is_disabled":false,"rental_uris":{"android":"levelo://app?vid=8e63b503-778b-42f4-ae04-a1cee9c5ac08","ios":"levelo://app?vid=8e63b503-778b-42f4-ae04-a1cee9c5ac08"},"vehicle_type_id":"4","last_reported":1730401562,"current_range_meters":24800,"station_id":"ce4bh2h2rcd13ifvqdh0","pricing_plan_id":"cebpf4jnsgd1na2vs0mg"},{"bike_id":"5a6040ac-3086-4385-a44b-d88b49cbeeec","system_id":"levelo_inurba_marseille","lat":43.27493,"lon":5.42455,"is_reserved":false,"is_disabled":false,"rental_uris":{"android":"levelo://app?vid=5a6040ac-3086-4385-a44b-d88b49cbeeec","ios":"levelo://app?vid=5a6040ac-3086-4385-a44b-d88b49cbeeec"},"vehicle_type_id":"4","last_reported":1730401562,"current_range_meters":31200,"station_id":"ce4bhn92rcd13ifvqgrg","pricing_plan_id":"cebpf4jnsgd1na2vs0mg"},{"bike_id":"054ee56e-cf0e-440b-a682-7a1df4c36e7a","system_id":"levelo_inurba_marseille","lat":43.25591,"lon":5.38247,"is_reserved":false,"is_disabled":false,"rental_uris":{"android":"levelo://app?vid=054ee56e-cf0e-440b-a682-7a1df4c36e7a","ios":"levelo://app?vid=054ee56e-cf0e-440b-a682-7a1df4c36e7a"},"vehicle_type_id":"4","last_reported":1730401562,"current_range_meters":16000,"station_id":"ce4bhih2rcd13ifvqfs0","pricing_plan_id":"cebpf4jnsgd1na2vs0mg"},{"bike_id":"a46989d1-40cb-4edc-a303-ea27515b4f17","system_id":"levelo_inurba_marseille","lat":43.277994,"lon":5.406924,"is_reserved":false,"is_disabled":false,"rental_uris":{"android":"levelo://app?vid=a46989d1-40cb-4edc-a303-ea27515b4f17","ios":"levelo://app?vid=a46989d1-40cb-4edc-a303-ea27515b4f17"},"vehicle_type_id":"4","last_reported":1730401562,"current_range_meters":36000,"station_id":"ce4bhnh2rcd13ifvqgtg","pricing_plan_id":"cebpf4jnsgd1na2vs0mg"},{"bike_id":"1674bacb-d2a0-4b21-83ac-2820187535bc","system_id":"levelo_inurba_marseille","lat":43.29258,"lon":5.3844,"is_reserved":false,"is_disabled":false,"rental_uris":{"android":"levelo://app?vid=1674bacb-d2a0-4b21-83ac-2820187535bc","ios":"levelo://app?vid=1674bacb-d2a0-4b21-83ac-2820187535bc"},"vehicle_type_id":"4","last_reported":1730401562,"current_range_meters":22800,"station_id":"ce4bh692rcd13ifvqea0","pricing_plan_id":"cebpf4jnsgd1na2vs0mg"},{"bike_id":"7fc0462d-2bd0-4374-ba79-c584f4d14be6","system_id":"levelo_inurba_marseille","lat":43.2942,"lon":5.38626,"is_reserved":false,"is_disabled":false,"rental_uris":{"android":"levelo://app?vid=7fc0462d-2bd0-4374-ba79-c584f4d14be6","ios":"levelo://app?vid=7fc0462d-2bd0-4374-ba79-c584f4d14be6"},"vehicle_type_id":"4","last_reported":1730401562,"current_range_meters":7200,"station_id":"ce4bh2h2rcd13ifvqdh0","pricing_plan_id":"cebpf4jnsgd1na2vs0mg"},{"bike_id":"c569a582-5d93-4d31-9b80-b75d074d39b7","system_id":"levelo_inurba_marseille","lat":43.3088,"lon":5.39643,"is_reserved":false,"is_disabled":false,"rental_uris":{"android":"levelo://app?vid=c569a582-5d93-4d31-9b80-b75d074d39b7","ios":"levelo://app?vid=c569a582-5d93-4d31-9b80-b75d074d39b7"},"vehicle_type_id":"4","last_reported":1730401562,"current_range_meters":3600,"station_id":"ce4bh012rcd13ifvqcv0","pricing_plan_id":"cebpf4jnsgd1na2vs0mg"},{"bike_id":"eec6ee19-89bc-4d54-9536-5e40d51e9903","system_id":"levelo_inurba_marseille","lat":43.29188,"lon":5.39325,"is_reserved":false,"is_disabled":false,"rental_uris":{"android":"levelo://app?vid=eec6ee19-89bc-4d54-9536-5e40d51e9903","ios":"levelo://app?vid=eec6ee19-89bc-4d54-9536-5e40d51e9903"},"vehicle_type_id":"4","last_reported":1730401562,"current_range_meters":38800,"station_id":"ce4bh192rcd13ifvqdd0","pricing_plan_id":"cebpf4jnsgd1na2vs0mg"},{"bike_id":"ea860d18-d5bb-4b0e-a22b-25a2ca231534","system_id":"levelo_inurba_marseille","lat":43.29031,"lon":5.3865,"is_reserved":false,"is_disabled":false,"rental_uris":{"android":"levelo://app?vid=ea860d18-d5bb-4b0e-a22b-25a2ca231534","ios":"levelo://app?vid=ea860d18-d5bb-4b0e-a22b-25a2ca231534"},"vehicle_type_id":"4","last_reported":1730401562,"current_range_meters":8000,"station_id":"ce4bh4p2rcd13ifvqe0g","pricing_plan_id":"cebpf4jnsgd1na2vs0mg"},{"bike_id":"10a875f8-f6a9-429d-b344-e3de84aa0dfa","system_id":"levelo_inurba_marseille","lat":43.30146,"lon":5.37408,"is_reserved":false,"is_disabled":false,"rental_uris":{"android":"levelo://app?vid=10a875f8-f6a9-429d-b344-e3de84aa0dfa","ios":"levelo://app?vid=10a875f8-f6a9-429d-b344-e3de84aa0dfa"},"vehicle_type_id":"4","last_reported":1730401562,"current_range_meters":12000,"station_id":"ce4bgs92rcd13ifvqcc0","pricing_plan_id":"cebpf4jnsgd1na2vs0mg"},{"bike_id":"4d952016-0df5-4274-84bc-dbacacea231a","system_id":"levelo_inurba_marseille","lat":43.29563,"lon":5.37529,"is_reserved":false,"is_disabled":false,"rental_uris":{"android":"levelo://app?vid=4d952016-0df5-4274-84bc-dbacacea231a","ios":"levelo://app?vid=4d952016-0df5-4274-84bc-dbacacea231a"},"vehicle_type_id":"4","last_reported":1730401562,"current_range_meters":24800,"station_id":"ce4bgh92rcd13ifvqb50","pricing_plan_id":"cebpf4jnsgd1na2vs0mg"},{"bike_id":"94279a57-03c0-47b7-abe3-7226e86fd3b0","system_id":"levelo_inurba_marseille","lat":43.2761,"lon":5.36105,"is_reserved":false,"is_disabled":false,"rental_uris":{"android":"levelo://app?vid=94279a57-03c0-47b7-abe3-7226e86fd3b0","ios":"levelo://app?vid=94279a57-03c0-47b7-abe3-7226e86fd3b0"},"vehicle_type_id":"4","last_reported":1730401562,"current_range_meters":28400,"station_id":"ce4bgj92rcd13ifvqbe0","pricing_plan_id":"cebpf4jnsgd1na2vs0mg"},{"bike_id":"e4578546-19d3-4d2c-9701-34a0fb5f0a6c","system_id":"levelo_inurba_marseille","lat":43.2397,"lon":5.36629,"is_reserved":false,"is_disabled":false,"rental_uris":{"android":"levelo://app?vid=e4578546-19d3-4d2c-9701-34a0fb5f0a6c","ios":"levelo://app?vid=e4578546-19d3-4d2c-9701-34a0fb5f0a6c"},"vehicle_type_id":"4","last_reported":1730401562,"current_range_meters":4400,"station_id":"ce4bhi12rcd13ifvqfp0","pricing_plan_id":"cebpf4jnsgd1na2vs0mg"},{"bike_id":"94a877a4-8217-49da-9495-a5ad89537e8e","system_id":"levelo_inurba_marseille","lat":43.24664,"lon":5.38174,"is_reserved":false,"is_disabled":false,"rental_uris":{"android":"levelo://app?vid=94a877a4-8217-49da-9495-a5ad89537e8e","ios":"levelo://app?vid=94a877a4-8217-49da-9495-a5ad89537e8e"},"vehicle_type_id":"4","last_reported":1730401562,"current_range_meters":28400,"station_id":"ce4bhih2rcd13ifvqfr0","pricing_plan_id":"cebpf4jnsgd1na2vs0mg"},{"bike_id":"f42992ca-bc58-4c49-84db-8aabf8895aef","system_id":"levelo_inurba_marseille","lat":43.28266,"lon":5.37945,"is_reserved":false,"is_disabled":false,"rental_uris":{"android":"levelo://app?vid=f42992ca-bc58-4c49-84db-8aabf8895aef","ios":"levelo://app?vid=f42992ca-bc58-4c49-84db-8aabf8895aef"},"vehicle_type_id":"4","last_reported":1730401562,"current_range_meters":35200,"station_id":"ce4bgi12rcd13ifvqb70","pricing_plan_id":"cebpf4jnsgd1na2vs0mg"},{"bike_id":"82986391-2237-4a4f-9354-2621abb60706","system_id":"levelo_inurba_marseille","lat":43.2861,"lon":5.35108,"is_reserved":false,"is_disabled":false,"rental_uris":{"android":"levelo://app?vid=82986391-2237-4a4f-9354-2621abb60706","ios":"levelo://app?vid=82986391-2237-4a4f-9354-2621abb60706"},"vehicle_type_id":"4","last_reported":1730401562,"current_range_meters":36400,"station_id":"ce4bhch2rcd13ifvqeug","pricing_plan_id":"cebpf4jnsgd1na2vs0mg"},{"bike_id":"6ed6a989-9445-42cb-88f4-17f899a86427","system_id":"levelo_inurba_marseille","lat":43.25576,"lon":5.3824,"is_reserved":false,"is_disabled":false,"rental_uris":{"android":"levelo://app?vid=6ed6a989-9445-42cb-88f4-17f899a86427","ios":"levelo://app?vid=6ed6a989-9445-42cb-88f4-17f899a86427"},"vehicle_type_id":"4","last_reported":1730401562,"current_range_meters":2000,"station_id":"ce4bhih2rcd13ifvqfs0","pricing_plan_id":"cebpf4jnsgd1na2vs0mg"},{"bike_id":"5a2f12de-f461-49f6-b4ed-9c6aa4d3eb37","system_id":"levelo_inurba_marseille","lat":43.31992,"lon":5.38165,"is_reserved":false,"is_disabled":false,"rental_uris":{"android":"levelo://app?vid=5a2f12de-f461-49f6-b4ed-9c6aa4d3eb37","ios":"levelo://app?vid=5a2f12de-f461-49f6-b4ed-9c6aa4d3eb37"},"vehicle_type_id":"4","last_reported":1730401562,"current_range_meters":32800,"station_id":"ce4bhr12rcd13ifvqhpg","pricing_plan_id":"cebpf4jnsgd1na2vs0mg"},{"bike_id":"5d163bd3-ce7c-4ae9-a852-1d8e1cba867f","system_id":"levelo_inurba_marseille","lat":43.284088,"lon":5.375006,"is_reserved":false,"is_disabled":false,"rental_uris":{"android":"levelo://app?vid=5d163bd3-ce7c-4ae9-a852-1d8e1cba867f","ios":"levelo://app?vid=5d163bd3-ce7c-4ae9-a852-1d8e1cba867f"},"vehicle_type_id":"4","last_reported":1730401562,"current_range_meters":26000,"station_id":"ce4bh412rcd13ifvqds0","pricing_plan_id":"cebpf4jnsgd1na2vs0mg"},{"bike_id":"39a7a67d-1157-4d9d-9f66-45e6242af0da","system_id":"levelo_inurba_marseille","lat":43.28461,"lon":5.38412,"is_reserved":false,"is_disabled":false,"rental_uris":{"android":"levelo://app?vid=39a7a67d-1157-4d9d-9f66-45e6242af0da","ios":"levelo://app?vid=39a7a67d-1157-4d9d-9f66-45e6242af0da"},"vehicle_type_id":"4","last_reported":1730401562,"current_range_meters":30000,"station_id":"ce4bh512rcd13ifvqe3g","pricing_plan_id":"cebpf4jnsgd1na2vs0mg"},{"bike_id":"a0a4802c-f0d0-40ad-994b-6145f6e10c37","system_id":"levelo_inurba_marseille","lat":43.30591,"lon":5.39344,"is_reserved":false,"is_disabled":false,"rental_uris":{"android":"levelo://app?vid=a0a4802c-f0d0-40ad-994b-6145f6e10c37","ios":"levelo://app?vid=a0a4802c-f0d0-40ad-994b-6145f6e10c37"},"vehicle_type_id":"4","last_reported":1730401562,"current_range_meters":8400,"station_id":"ce4bh0p2rcd13ifvqd80","pricing_plan_id":"cebpf4jnsgd1na2vs0mg"},{"bike_id":"874723e1-933d-473f-8cde-a0fc358d7582","system_id":"levelo_inurba_marseille","lat":43.24074,"lon":5.3776,"is_reserved":false,"is_disabled":false,"rental_uris":{"android":"levelo://app?vid=874723e1-933d-473f-8cde-a0fc358d7582","ios":"levelo://app?vid=874723e1-933d-473f-8cde-a0fc358d7582"},"vehicle_type_id":"4","last_reported":1730401562,"current_range_meters":25200,"station_id":"ce4bhnp2rcd13ifvqgvg","pricing_plan_id":"cebpf4jnsgd1na2vs0mg"},{"bike_id":"cd93c24a-f3ac-44dd-b326-6b2ee308fc81","system_id":"levelo_inurba_marseille","lat":43.26497,"lon":5.39549,"is_reserved":false,"is_disabled":false,"rental_uris":{"android":"levelo://app?vid=cd93c24a-f3ac-44dd-b326-6b2ee308fc81","ios":"levelo://app?vid=cd93c24a-f3ac-44dd-b326-6b2ee308fc81"},"vehicle_type_id":"4","last_reported":1730401562,"current_range_meters":10800,"station_id":"ce4bhi12rcd13ifvqfq0","pricing_plan_id":"cebpf4jnsgd1na2vs0mg"},{"bike_id":"c2e04192-bb2c-4443-bb2a-b18b9b741d5d","system_id":"levelo_inurba_marseille","lat":43.2841,"lon":5.37521,"is_reserved":false,"is_disabled":false,"rental_uris":{"android":"levelo://app?vid=c2e04192-bb2c-4443-bb2a-b18b9b741d5d","ios":"levelo://app?vid=c2e04192-bb2c-4443-bb2a-b18b9b741d5d"},"vehicle_type_id":"4","last_reported":1730401562,"current_range_meters":29600,"station_id":"ce4bh412rcd13ifvqds0","pricing_plan_id":"cebpf4jnsgd1na2vs0mg"},{"bike_id":"5d6a12d4-786f-49be-90a0-a9127ebdefbe","system_id":"levelo_inurba_marseille","lat":43.25586,"lon":5.38243,"is_reserved":false,"is_disabled":false,"rental_uris":{"android":"levelo://app?vid=5d6a12d4-786f-49be-90a0-a9127ebdefbe","ios":"levelo://app?vid=5d6a12d4-786f-49be-90a0-a9127ebdefbe"},"vehicle_type_id":"4","last_reported":1730401562,"current_range_meters":11200,"station_id":"ce4bhih2rcd13ifvqfs0","pricing_plan_id":"cebpf4jnsgd1na2vs0mg"},{"bike_id":"98b6d671-73be-4e9f-9eb5-4e9410e42c9d","system_id":"levelo_inurba_marseille","lat":43.28728,"lon":5.39003,"is_reserved":false,"is_disabled":false,"rental_uris":{"android":"levelo://app?vid=98b6d671-73be-4e9f-9eb5-4e9410e42c9d","ios":"levelo://app?vid=98b6d671-73be-4e9f-9eb5-4e9410e42c9d"},"vehicle_type_id":"4","last_reported":1730401562,"current_range_meters":35600,"station_id":"ce4bgj92rcd13ifvqbe0","pricing_plan_id":"cebpf4jnsgd1na2vs0mg"},{"bike_id":"a3126011-34ea-44f9-8739-4e0b0ad74aa0","system_id":"levelo_inurba_marseille","lat":43.23965,"lon":5.36633,"is_reserved":false,"is_disabled":false,"rental_uris":{"android":"levelo://app?vid=a3126011-34ea-44f9-8739-4e0b0ad74aa0","ios":"levelo://app?vid=a3126011-34ea-44f9-8739-4e0b0ad74aa0"},"vehicle_type_id":"4","last_reported":1730401562,"current_range_meters":14400,"station_id":"ce4bhi12rcd13ifvqfp0","pricing_plan_id":"cebpf4jnsgd1na2vs0mg"},{"bike_id":"5eee4c02-bcab-48fe-93db-099212f8ecc5","system_id":"levelo_inurba_marseille","lat":43.23193,"lon":5.35551,"is_reserved":false,"is_disabled":false,"rental_uris":{"android":"levelo://app?vid=5eee4c02-bcab-48fe-93db-099212f8ecc5","ios":"levelo://app?vid=5eee4c02-bcab-48fe-93db-099212f8ecc5"},"vehicle_type_id":"4","last_reported":1730401562,"current_range_meters":18800,"station_id":"ce4bhu92rcd13ifvqi70","pricing_plan_id":"cebpf4jnsgd1na2vs0mg"},{"bike_id":"1b588415-ca33-4178-910e-fb32051f8c7c","system_id":"levelo_inurba_marseille","lat":43.3089,"lon":5.37196,"is_reserved":false,"is_disabled":false,"rental_uris":{"android":"levelo://app?vid=1b588415-ca33-4178-910e-fb32051f8c7c","ios":"levelo://app?vid=1b588415-ca33-4178-910e-fb32051f8c7c"},"vehicle_type_id":"4","last_reported":1730401562,"current_range_meters":25600,"station_id":"ce4bguh2rcd13ifvqckg","pricing_plan_id":"cebpf4jnsgd1na2vs0mg"},{"bike_id":"e36ca41c-6f7d-4df5-9dbf-082c1722ea27","system_id":"levelo_inurba_marseille","lat":43.31691,"lon":5.40473,"is_reserved":false,"is_disabled":false,"rental_uris":{"android":"levelo://app?vid=e36ca41c-6f7d-4df5-9dbf-082c1722ea27","ios":"levelo://app?vid=e36ca41c-6f7d-4df5-9dbf-082c1722ea27"},"vehicle_type_id":"4","last_reported":1730401562,"current_range_meters":38400,"station_id":"ce4bh012rcd13ifvqd00","pricing_plan_id":"cebpf4jnsgd1na2vs0mg"},{"bike_id":"160c3125-d109-49e3-a687-ede78b99dea2","system_id":"levelo_inurba_marseille","lat":43.23196,"lon":5.35543,"is_reserved":false,"is_disabled":false,"rental_uris":{"android":"levelo://app?vid=160c3125-d109-49e3-a687-ede78b99dea2","ios":"levelo://app?vid=160c3125-d109-49e3-a687-ede78b99dea2"},"vehicle_type_id":"4","last_reported":1730401562,"current_range_meters":33600,"station_id":"ce4bhu92rcd13ifvqi70","pricing_plan_id":"cebpf4jnsgd1na2vs0mg"},{"bike_id":"d93ceb2b-2576-4335-8e1c-fe39a92d1174","system_id":"levelo_inurba_marseille","lat":43.27176,"lon":5.40993,"is_reserved":false,"is_disabled":false,"rental_uris":{"android":"levelo://app?vid=d93ceb2b-2576-4335-8e1c-fe39a92d1174","ios":"levelo://app?vid=d93ceb2b-2576-4335-8e1c-fe39a92d1174"},"vehicle_type_id":"4","last_reported":1730401562,"current_range_meters":38800,"station_id":"ce4bhl12rcd13ifvqgf0","pricing_plan_id":"cebpf4jnsgd1na2vs0mg"},{"bike_id":"6d1acd7e-4bde-4426-8a38-4ba04ad31771","system_id":"levelo_inurba_marseille","lat":43.336,"lon":5.41031,"is_reserved":false,"is_disabled":false,"rental_uris":{"android":"levelo://app?vid=6d1acd7e-4bde-4426-8a38-4ba04ad31771","ios":"levelo://app?vid=6d1acd7e-4bde-4426-8a38-4ba04ad31771"},"vehicle_type_id":"4","last_reported":1730401562,"current_range_meters":27200,"station_id":"ce4bhqh2rcd13ifvqhmg","pricing_plan_id":"cebpf4jnsgd1na2vs0mg"},{"bike_id":"601b8f66-23fd-4f0d-9eed-a84664740c4a","system_id":"levelo_inurba_marseille","lat":43.28156,"lon":5.42643,"is_reserved":false,"is_disabled":false,"rental_uris":{"android":"levelo://app?vid=601b8f66-23fd-4f0d-9eed-a84664740c4a","ios":"levelo://app?vid=601b8f66-23fd-4f0d-9eed-a84664740c4a"},"vehicle_type_id":"4","last_reported":1730401562,"current_range_meters":8400,"station_id":"ce4bhnh2rcd13ifvqgug","pricing_plan_id":"cebpf4jnsgd1na2vs0mg"},{"bike_id":"9f4b3ed9-8fdf-49ee-82b0-52062da6c3cd","system_id":"levelo_inurba_marseille","lat":43.29421,"lon":5.38616,"is_reserved":false,"is_disabled":false,"rental_uris":{"android":"levelo://app?vid=9f4b3ed9-8fdf-49ee-82b0-52062da6c3cd","ios":"levelo://app?vid=9f4b3ed9-8fdf-49ee-82b0-52062da6c3cd"},"vehicle_type_id":"4","last_reported":1730401562,"current_range_meters":16000,"station_id":"ce4bh2h2rcd13ifvqdh0","pricing_plan_id":"cebpf4jnsgd1na2vs0mg"},{"bike_id":"71d10f41-2ffe-4394-bc10-bfa4bb58be1e","system_id":"levelo_inurba_marseille","lat":43.32339,"lon":5.40624,"is_reserved":false,"is_disabled":false,"rental_uris":{"android":"levelo://app?vid=71d10f41-2ffe-4394-bc10-bfa4bb58be1e","ios":"levelo://app?vid=71d10f41-2ffe-4394-bc10-bfa4bb58be1e"},"vehicle_type_id":"4","last_reported":1730401562,"current_range_meters":27200,"station_id":"ce4bhq92rcd13ifvqhjg","pricing_plan_id":"cebpf4jnsgd1na2vs0mg"},{"bike_id":"60b52f73-037f-43c6-8084-ac4f86706d98","system_id":"levelo_inurba_marseille","lat":43.29556,"lon":5.42288,"is_reserved":false,"is_disabled":false,"rental_uris":{"android":"levelo://app?vid=60b52f73-037f-43c6-8084-ac4f86706d98","ios":"levelo://app?vid=60b52f73-037f-43c6-8084-ac4f86706d98"},"vehicle_type_id":"4","last_reported":1730401562,"current_range_meters":36000,"station_id":"ce4bhph2rcd13ifvqhdg","pricing_plan_id":"cebpf4jnsgd1na2vs0mg"},{"bike_id":"f3e32bab-cdf1-463f-be3d-580e76c4c81e","system_id":"levelo_inurba_marseille","lat":43.30351,"lon":5.41877,"is_reserved":false,"is_disabled":false,"rental_uris":{"android":"levelo://app?vid=f3e32bab-cdf1-463f-be3d-580e76c4c81e","ios":"levelo://app?vid=f3e32bab-cdf1-463f-be3d-580e76c4c81e"},"vehicle_type_id":"4","last_reported":1730401562,"current_range_meters":16400,"station_id":"ce4bhop2rcd13ifvqh7g","pricing_plan_id":"cebpf4jnsgd1na2vs0mg"},{"bike_id":"56bf23b5-b89b-4068-aa80-4548df17eb67","system_id":"levelo_inurba_marseille","lat":43.28077,"lon":5.39641,"is_reserved":false,"is_disabled":false,"rental_uris":{"android":"levelo://app?vid=56bf23b5-b89b-4068-aa80-4548df17eb67","ios":"levelo://app?vid=56bf23b5-b89b-4068-aa80-4548df17eb67"},"vehicle_type_id":"4","last_reported":1730401562,"current_range_meters":35600,"station_id":"ce4bho12rcd13ifvqh2g","pricing_plan_id":"cebpf4jnsgd1na2vs0mg"},{"bike_id":"b5f5bea2-b214-47b2-93cf-314130ff2bd6","system_id":"levelo_inurba_marseille","lat":43.29396,"lon":5.41244,"is_reserved":false,"is_disabled":false,"rental_uris":{"android":"levelo://app?vid=b5f5bea2-b214-47b2-93cf-314130ff2bd6","ios":"levelo://app?vid=b5f5bea2-b214-47b2-93cf-314130ff2bd6"},"vehicle_type_id":"4","last_reported":1730401562,"current_range_meters":23200,"station_id":"ce4bh192rcd13ifvqdc0","pricing_plan_id":"cebpf4jnsgd1na2vs0mg"},{"bike_id":"84dc8485-1f28-487b-ba4e-e80311527271","system_id":"levelo_inurba_marseille","lat":43.27175,"lon":5.40998,"is_reserved":false,"is_disabled":false,"rental_uris":{"android":"levelo://app?vid=84dc8485-1f28-487b-ba4e-e80311527271","ios":"levelo://app?vid=84dc8485-1f28-487b-ba4e-e80311527271"},"vehicle_type_id":"4","last_reported":1730401562,"current_range_meters":26000,"station_id":"ce4bhl12rcd13ifvqgf0","pricing_plan_id":"cebpf4jnsgd1na2vs0mg"},{"bike_id":"a4e1ca50-ded6-4271-a5da-c67edd55fc27","system_id":"levelo_inurba_marseille","lat":43.279999,"lon":5.400145,"is_reserved":false,"is_disabled":false,"rental_uris":{"android":"levelo://app?vid=a4e1ca50-ded6-4271-a5da-c67edd55fc27","ios":"levelo://app?vid=a4e1ca50-ded6-4271-a5da-c67edd55fc27"},"vehicle_type_id":"4","last_reported":1730401562,"current_range_meters":33600,"station_id":"ce4bho92rcd13ifvqh4g","pricing_plan_id":"cebpf4jnsgd1na2vs0mg"},{"bike_id":"9c0ce7c2-266b-456a-b600-aad012ecaf01","system_id":"levelo_inurba_marseille","lat":43.24807,"lon":5.37462,"is_reserved":false,"is_disabled":false,"rental_uris":{"android":"levelo://app?vid=9c0ce7c2-266b-456a-b600-aad012ecaf01","ios":"levelo://app?vid=9c0ce7c2-266b-456a-b600-aad012ecaf01"},"vehicle_type_id":"4","last_reported":1730401562,"current_range_meters":28000,"station_id":"ce4bhjp2rcd13ifvqg90","pricing_plan_id":"cebpf4jnsgd1na2vs0mg"},{"bike_id":"c2670895-a3cd-4df5-9b7a-91bd0fa28dc6","system_id":"levelo_inurba_marseille","lat":43.2903,"lon":5.38642,"is_reserved":false,"is_disabled":false,"rental_uris":{"android":"levelo://app?vid=c2670895-a3cd-4df5-9b7a-91bd0fa28dc6","ios":"levelo://app?vid=c2670895-a3cd-4df5-9b7a-91bd0fa28dc6"},"vehicle_type_id":"4","last_reported":1730401562,"current_range_meters":18800,"station_id":"ce4bh4p2rcd13ifvqe0g","pricing_plan_id":"cebpf4jnsgd1na2vs0mg"},{"bike_id":"76c88db4-102f-426e-b805-48dcdd896e29","system_id":"levelo_inurba_marseille","lat":43.24076,"lon":5.37759,"is_reserved":false,"is_disabled":false,"rental_uris":{"android":"levelo://app?vid=76c88db4-102f-426e-b805-48dcdd896e29","ios":"levelo://app?vid=76c88db4-102f-426e-b805-48dcdd896e29"},"vehicle_type_id":"4","last_reported":1730401562,"current_range_meters":18000,"station_id":"ce4bhnp2rcd13ifvqgvg","pricing_plan_id":"cebpf4jnsgd1na2vs0mg"},{"bike_id":"8e2b27aa-369c-45b0-9b90-db27a90df897","system_id":"levelo_inurba_marseille","lat":43.30054,"lon":5.36974,"is_reserved":false,"is_disabled":false,"rental_uris":{"android":"levelo://app?vid=8e2b27aa-369c-45b0-9b90-db27a90df897","ios":"levelo://app?vid=8e2b27aa-369c-45b0-9b90-db27a90df897"},"vehicle_type_id":"4","last_reported":1730401562,"current_range_meters":29600,"station_id":"ce4bgm92rcd13ifvqbr0","pricing_plan_id":"cebpf4jnsgd1na2vs0mg"},{"bike_id":"b50abcef-c214-4d4c-92b9-5d0d787bcee5","system_id":"levelo_inurba_marseille","lat":43.28924,"lon":5.38398,"is_reserved":false,"is_disabled":false,"rental_uris":{"android":"levelo://app?vid=b50abcef-c214-4d4c-92b9-5d0d787bcee5","ios":"levelo://app?vid=b50abcef-c214-4d4c-92b9-5d0d787bcee5"},"vehicle_type_id":"4","last_reported":1730401562,"current_range_meters":28400,"station_id":"ce4bh612rcd13ifvqe6g","pricing_plan_id":"cebpf4jnsgd1na2vs0mg"},{"bike_id":"6fe95313-e873-4982-8420-95fec21f0b5f","system_id":"levelo_inurba_marseille","lat":43.31991,"lon":5.38153,"is_reserved":false,"is_disabled":false,"rental_uris":{"android":"levelo://app?vid=6fe95313-e873-4982-8420-95fec21f0b5f","ios":"levelo://app?vid=6fe95313-e873-4982-8420-95fec21f0b5f"},"vehicle_type_id":"4","last_reported":1730401562,"current_range_meters":24000,"station_id":"ce4bhr12rcd13ifvqhpg","pricing_plan_id":"cebpf4jnsgd1na2vs0mg"},{"bike_id":"e8293b4e-059a-4396-9bed-846c599622d5","system_id":"levelo_inurba_marseille","lat":43.2717,"lon":5.4099,"is_reserved":false,"is_disabled":false,"rental_uris":{"android":"levelo://app?vid=e8293b4e-059a-4396-9bed-846c599622d5","ios":"levelo://app?vid=e8293b4e-059a-4396-9bed-846c599622d5"},"vehicle_type_id":"4","last_reported":1730401562,"current_range_meters":39200,"station_id":"ce4bhl12rcd13ifvqgf0","pricing_plan_id":"cebpf4jnsgd1na2vs0mg"},{"bike_id":"d22e09bb-dafa-464b-bd89-da281c0b87cf","system_id":"levelo_inurba_marseille","lat":43.30245,"lon":5.40053,"is_reserved":false,"is_disabled":false,"rental_uris":{"android":"levelo://app?vid=d22e09bb-dafa-464b-bd89-da281c0b87cf","ios":"levelo://app?vid=d22e09bb-dafa-464b-bd89-da281c0b87cf"},"vehicle_type_id":"4","last_reported":1730401562,"current_range_meters":24000,"station_id":"ce4bgvh2rcd13ifvqcs0","pricing_plan_id":"cebpf4jnsgd1na2vs0mg"},{"bike_id":"971675c4-1ce7-44c9-a045-22d69053138e","system_id":"levelo_inurba_marseille","lat":43.28698,"lon":5.39976,"is_reserved":false,"is_disabled":false,"rental_uris":{"android":"levelo://app?vid=971675c4-1ce7-44c9-a045-22d69053138e","ios":"levelo://app?vid=971675c4-1ce7-44c9-a045-22d69053138e"},"vehicle_type_id":"4","last_reported":1730401562,"current_range_meters":17200,"station_id":"ce4bho92rcd13ifvqh3g","pricing_plan_id":"cebpf4jnsgd1na2vs0mg"},{"bike_id":"2e679aa2-6222-4666-94d2-8febbbac34cf","system_id":"levelo_inurba_marseille","lat":43.28942,"lon":5.48071,"is_reserved":false,"is_disabled":false,"rental_uris":{"android":"levelo://app?vid=2e679aa2-6222-4666-94d2-8febbbac34cf","ios":"levelo://app?vid=2e679aa2-6222-4666-94d2-8febbbac34cf"},"vehicle_type_id":"4","last_reported":1730401562,"current_range_meters":10800,"station_id":"ce4bgvp2rcd13ifvqct0","pricing_plan_id":"cebpf4jnsgd1na2vs0mg"},{"bike_id":"0bb01646-2cec-46b2-8298-930c9fb4d77e","system_id":"levelo_inurba_marseille","lat":43.29417,"lon":5.3863,"is_reserved":false,"is_disabled":false,"rental_uris":{"android":"levelo://app?vid=0bb01646-2cec-46b2-8298-930c9fb4d77e","ios":"levelo://app?vid=0bb01646-2cec-46b2-8298-930c9fb4d77e"},"vehicle_type_id":"4","last_reported":1730401562,"current_range_meters":19200,"station_id":"ce4bh2h2rcd13ifvqdh0","pricing_plan_id":"cebpf4jnsgd1na2vs0mg"},{"bike_id":"3109fae2-c3ea-4fe2-995b-1cb86118b057","system_id":"levelo_inurba_marseille","lat":43.30206,"lon":5.39466,"is_reserved":false,"is_disabled":false,"rental_uris":{"android":"levelo://app?vid=3109fae2-c3ea-4fe2-995b-1cb86118b057","ios":"levelo://app?vid=3109fae2-c3ea-4fe2-995b-1cb86118b057"},"vehicle_type_id":"4","last_reported":1730401562,"current_range_meters":38800,"station_id":"ce4bh0p2rcd13ifvqd70","pricing_plan_id":"cebpf4jnsgd1na2vs0mg"},{"bike_id":"c2f1f60e-4da7-4ef6-8db0-1291cb12ffe0","system_id":"levelo_inurba_marseille","lat":43.29262,"lon":5.38438,"is_reserved":false,"is_disabled":false,"rental_uris":{"android":"levelo://app?vid=c2f1f60e-4da7-4ef6-8db0-1291cb12ffe0","ios":"levelo://app?vid=c2f1f60e-4da7-4ef6-8db0-1291cb12ffe0"},"vehicle_type_id":"4","last_reported":1730401562,"current_range_meters":19200,"station_id":"ce4bh692rcd13ifvqea0","pricing_plan_id":"cebpf4jnsgd1na2vs0mg"},{"bike_id":"0483bfa3-11fd-4a1f-8173-f5ded1239110","system_id":"levelo_inurba_marseille","lat":43.23968,"lon":5.36639,"is_reserved":false,"is_disabled":false,"rental_uris":{"android":"levelo://app?vid=0483bfa3-11fd-4a1f-8173-f5ded1239110","ios":"levelo://app?vid=0483bfa3-11fd-4a1f-8173-f5ded1239110"},"vehicle_type_id":"4","last_reported":1730401562,"current_range_meters":39200,"station_id":"ce4bhi12rcd13ifvqfp0","pricing_plan_id":"cebpf4jnsgd1na2vs0mg"},{"bike_id":"b88053c0-3809-4101-8975-e0f82a1bcb5d","system_id":"levelo_inurba_marseille","lat":43.30874,"lon":5.39707,"is_reserved":false,"is_disabled":false,"rental_uris":{"android":"levelo://app?vid=b88053c0-3809-4101-8975-e0f82a1bcb5d","ios":"levelo://app?vid=b88053c0-3809-4101-8975-e0f82a1bcb5d"},"vehicle_type_id":"4","last_reported":1730401562,"current_range_meters":14400,"station_id":"","pricing_plan_id":"cebpf4jnsgd1na2vs0mg"},{"bike_id":"46eb2db5-f39a-4bf9-b20f-8029e969885e","system_id":"levelo_inurba_marseille","lat":43.29252,"lon":5.38444,"is_reserved":false,"is_disabled":false,"rental_uris":{"android":"levelo://app?vid=46eb2db5-f39a-4bf9-b20f-8029e969885e","ios":"levelo://app?vid=46eb2db5-f39a-4bf9-b20f-8029e969885e"},"vehicle_type_id":"4","last_reported":1730401562,"current_range_meters":16400,"station_id":"ce4bh692rcd13ifvqea0","pricing_plan_id":"cebpf4jnsgd1na2vs0mg"},{"bike_id":"c6bf5478-8cbd-4f9f-84c9-d44a8b59f18f","system_id":"levelo_inurba_marseille","lat":43.274364,"lon":5.394284,"is_reserved":false,"is_disabled":false,"rental_uris":{"android":"levelo://app?vid=c6bf5478-8cbd-4f9f-84c9-d44a8b59f18f","ios":"levelo://app?vid=c6bf5478-8cbd-4f9f-84c9-d44a8b59f18f"},"vehicle_type_id":"4","last_reported":1730401562,"current_range_meters":18000,"station_id":"ce4bhdp2rcd13ifvqf20","pricing_plan_id":"cebpf4jnsgd1na2vs0mg"},{"bike_id":"f5beaaad-8417-4e05-9e45-532f96b8c7bf","system_id":"levelo_inurba_marseille","lat":43.30413,"lon":5.41287,"is_reserved":false,"is_disabled":false,"rental_uris":{"android":"levelo://app?vid=f5beaaad-8417-4e05-9e45-532f96b8c7bf","ios":"levelo://app?vid=f5beaaad-8417-4e05-9e45-532f96b8c7bf"},"vehicle_type_id":"4","last_reported":1730401562,"current_range_meters":39200,"station_id":"ce4bhop2rcd13ifvqh8g","pricing_plan_id":"cebpf4jnsgd1na2vs0mg"},{"bike_id":"d7b11ea7-002a-4efd-994b-9a9df4e42526","system_id":"levelo_inurba_marseille","lat":43.30252,"lon":5.40071,"is_reserved":false,"is_disabled":false,"rental_uris":{"android":"levelo://app?vid=d7b11ea7-002a-4efd-994b-9a9df4e42526","ios":"levelo://app?vid=d7b11ea7-002a-4efd-994b-9a9df4e42526"},"vehicle_type_id":"4","last_reported":1730401562,"current_range_meters":14400,"station_id":"ce4bgvh2rcd13ifvqcs0","pricing_plan_id":"cebpf4jnsgd1na2vs0mg"},{"bike_id":"89a19feb-0687-423a-b9a7-3d8440edf596","system_id":"levelo_inurba_marseille","lat":43.27427,"lon":5.39422,"is_reserved":false,"is_disabled":false,"rental_uris":{"android":"levelo://app?vid=89a19feb-0687-423a-b9a7-3d8440edf596","ios":"levelo://app?vid=89a19feb-0687-423a-b9a7-3d8440edf596"},"vehicle_type_id":"4","last_reported":1730401562,"current_range_meters":2000,"station_id":"ce4bhdp2rcd13ifvqf20","pricing_plan_id":"cebpf4jnsgd1na2vs0mg"},{"bike_id":"ed279d38-b7eb-4b14-96b9-94c615824290","system_id":"levelo_inurba_marseille","lat":43.23189,"lon":5.35545,"is_reserved":false,"is_disabled":false,"rental_uris":{"android":"levelo://app?vid=ed279d38-b7eb-4b14-96b9-94c615824290","ios":"levelo://app?vid=ed279d38-b7eb-4b14-96b9-94c615824290"},"vehicle_type_id":"4","last_reported":1730401562,"current_range_meters":18800,"station_id":"ce4bhu92rcd13ifvqi70","pricing_plan_id":"cebpf4jnsgd1na2vs0mg"},{"bike_id":"8a747cb8-f6a1-4bc2-96fb-18e7dee5de4b","system_id":"levelo_inurba_marseille","lat":43.24646,"lon":5.38898,"is_reserved":false,"is_disabled":false,"rental_uris":{"android":"levelo://app?vid=8a747cb8-f6a1-4bc2-96fb-18e7dee5de4b","ios":"levelo://app?vid=8a747cb8-f6a1-4bc2-96fb-18e7dee5de4b"},"vehicle_type_id":"4","last_reported":1730401562,"current_range_meters":38400,"station_id":"ce4bhg12rcd13ifvqf60","pricing_plan_id":"cebpf4jnsgd1na2vs0mg"},{"bike_id":"7a170a62-73fa-4b71-8bdb-b144c992a04f","system_id":"levelo_inurba_marseille","lat":43.27374,"lon":5.36254,"is_reserved":false,"is_disabled":false,"rental_uris":{"android":"levelo://app?vid=7a170a62-73fa-4b71-8bdb-b144c992a04f","ios":"levelo://app?vid=7a170a62-73fa-4b71-8bdb-b144c992a04f"},"vehicle_type_id":"4","last_reported":1730401562,"current_range_meters":38000,"station_id":"ce4bhbh2rcd13ifvqeo0","pricing_plan_id":"cebpf4jnsgd1na2vs0mg"},{"bike_id":"94518144-54f5-4594-8c29-692dca19f11f","system_id":"levelo_inurba_marseille","lat":43.25583,"lon":5.38232,"is_reserved":false,"is_disabled":false,"rental_uris":{"android":"levelo://app?vid=94518144-54f5-4594-8c29-692dca19f11f","ios":"levelo://app?vid=94518144-54f5-4594-8c29-692dca19f11f"},"vehicle_type_id":"4","last_reported":1730401562,"current_range_meters":9200,"station_id":"ce4bhih2rcd13ifvqfs0","pricing_plan_id":"cebpf4jnsgd1na2vs0mg"},{"bike_id":"9e36010e-fbbb-4056-90ed-afecedc852ff","system_id":"levelo_inurba_marseille","lat":43.31756,"lon":5.39022,"is_reserved":false,"is_disabled":false,"rental_uris":{"android":"levelo://app?vid=9e36010e-fbbb-4056-90ed-afecedc852ff","ios":"levelo://app?vid=9e36010e-fbbb-4056-90ed-afecedc852ff"},"vehicle_type_id":"4","last_reported":1730401562,"current_range_meters":28400,"station_id":"ce4bhqp2rcd13ifvqhng","pricing_plan_id":"cebpf4jnsgd1na2vs0mg"},{"bike_id":"d6362912-7691-4532-aa8e-c159728b2e47","system_id":"levelo_inurba_marseille","lat":43.27814,"lon":5.40715,"is_reserved":false,"is_disabled":false,"rental_uris":{"android":"levelo://app?vid=d6362912-7691-4532-aa8e-c159728b2e47","ios":"levelo://app?vid=d6362912-7691-4532-aa8e-c159728b2e47"},"vehicle_type_id":"4","last_reported":1730401562,"current_range_meters":31200,"station_id":"ce4bhnh2rcd13ifvqgtg","pricing_plan_id":"cebpf4jnsgd1na2vs0mg"},{"bike_id":"7f6e8f4f-d992-4a94-916a-82d94622cfaf","system_id":"levelo_inurba_marseille","lat":43.289093,"lon":5.366445,"is_reserved":false,"is_disabled":false,"rental_uris":{"android":"levelo://app?vid=7f6e8f4f-d992-4a94-916a-82d94622cfaf","ios":"levelo://app?vid=7f6e8f4f-d992-4a94-916a-82d94622cfaf"},"vehicle_type_id":"4","last_reported":1730401562,"current_range_meters":2000,"station_id":"ce4bhbp2rcd13ifvqerg","pricing_plan_id":"cebpf4jnsgd1na2vs0mg"},{"bike_id":"0513ca36-d7af-4192-b5be-ec3b56c893e0","system_id":"levelo_inurba_marseille","lat":43.257991,"lon":5.399977,"is_reserved":false,"is_disabled":false,"rental_uris":{"android":"levelo://app?vid=0513ca36-d7af-4192-b5be-ec3b56c893e0","ios":"levelo://app?vid=0513ca36-d7af-4192-b5be-ec3b56c893e0"},"vehicle_type_id":"4","last_reported":1730401562,"current_range_meters":38800,"station_id":"","pricing_plan_id":"cebpf4jnsgd1na2vs0mg"},{"bike_id":"ae465581-6788-4f38-bb06-d2e0533545d6","system_id":"levelo_inurba_marseille","lat":43.23195,"lon":5.35547,"is_reserved":false,"is_disabled":false,"rental_uris":{"android":"levelo://app?vid=ae465581-6788-4f38-bb06-d2e0533545d6","ios":"levelo://app?vid=ae465581-6788-4f38-bb06-d2e0533545d6"},"vehicle_type_id":"4","last_reported":1730401562,"current_range_meters":32400,"station_id":"ce4bhu92rcd13ifvqi70","pricing_plan_id":"cebpf4jnsgd1na2vs0mg"},{"bike_id":"36fb883f-bf2b-463b-b62f-52724aa97e7d","system_id":"levelo_inurba_marseille","lat":43.28027,"lon":5.36945,"is_reserved":false,"is_disabled":false,"rental_uris":{"android":"levelo://app?vid=36fb883f-bf2b-463b-b62f-52724aa97e7d","ios":"levelo://app?vid=36fb883f-bf2b-463b-b62f-52724aa97e7d"},"vehicle_type_id":"4","last_reported":1730401562,"current_range_meters":3600,"station_id":"ce4bha12rcd13ifvqef0","pricing_plan_id":"cebpf4jnsgd1na2vs0mg"},