{"last_updated":1717448880,"ttl":30,"version":"2.2","data":{"bikes":[{"bike_id":"e22ffee5-132b-4816-a94d-66ddf86af856","system_id":"levelo_inurba_marseille","lat":43.31341,"lon":5.367098,"is_reserved":false,"is_disabled":false,"rental_uris":{"android":"levelo://app?vid=e22ffee5-132b-4816-a94d-66ddf86af856","ios":"levelo://app?vid=e22ffee5-132b-4816-a94d-66ddf86af856"},"vehicle_type_id":"4","last_reported":1717448881,"current_range_meters":0,"station_id":"ce4bgr92rcd13ifvqc6g","pricing_plan_id":"cebpf4jnsgd1na2vs0mg"},{"bike_id":"883eeb81-bd0d-4755-bed8-9f39733c7fe6","system_id":"levelo_inurba_marseille","lat":43.313583,"lon":5.367134,"is_reserved":false,"is_disabled":false,"rental_uris":{"android":"levelo://app?vid=883eeb81-bd0d-4755-bed8-9f39733c7fe6","ios":"levelo://app?vid=883eeb81-bd0d-4755-bed8-9f39733c7fe6"},"vehicle_type_id":"4","last_reported":1717448881,"current_range_meters":0,"station_id":"ce4bgr92rcd13ifvqc6g","pricing_plan_id":"cebpf4jnsgd1na2vs0mg"},{"bike_id":"6d137122-7d1a-4a9f-bda3-43a5f9e7e6e0","system_id":"levelo_inurba_marseille","lat":43.31341,"lon":5.367098,"is_reserved":false,"is_disabled":false,"rental_uris":{"android":"levelo://app?vid=6d137122-7d1a-4a9f-bda3-43a5f9e7e6e0","ios":"levelo://app?vid=6d137122-7d1a-4a9f-bda3-43a5f9e7e6e0"},"vehicle_type_id":"4","last_reported":1717448881,"current_range_meters":10400,"station_id":"ce4bgr92rcd13ifvqc6g","pricing_plan_id":"cebpf4jnsgd1na2vs0mg"},{"bike_id":"fee4d185-d783-48e4-aa88-a2a9e86770b1","system_id":"levelo_inurba_marseille","lat":43.312239,"lon":5.368562,"is_reserved":false,"is_disabled":false,"rental_uris":{"android":"levelo://app?vid=fee4d185-d783-48e4-aa88-a2a9e86770b1","ios":"levelo://app?vid=fee4d185-d783-48e4-aa88-a2a9e86770b1"},"vehicle_type_id":"4","last_reported":1717448881,"current_range_meters":7600,"station_id":"ce4bgl92rcd13ifvqbq0","pricing_plan_id":"cebpf4jnsgd1na2vs0mg"},{"bike_id":"e60971a2-d542-4262-a6dc-6fa183b180bc","system_id":"levelo_inurba_marseille","lat":43.314644,"lon":5.368803,"is_reserved":false,"is_disabled":false,"rental_uris":{"android":"levelo://app?vid=e60971a2-d542-4262-a6dc-6fa183b180bc","ios":"levelo://app?vid=e60971a2-d542-4262-a6dc-6fa183b180bc"},"vehicle_type_id":"4","last_reported":1717448881,"current_range_meters":19600,"station_id":"","pricing_plan_id":"cebpf4jnsgd1na2vs0mg"},{"bike_id":"74b32d6e-dce1-4b76-bc74-06f1c88b7d69","system_id":"levelo_inurba_marseille","lat":43.309076,"lon":5.368465,"is_reserved":false,"is_disabled":false,"rental_uris":{"android":"levelo://app?vid=74b32d6e-dce1-4b76-bc74-06f1c88b7d69","ios":"levelo://app?vid=74b32d6e-dce1-4b76-bc74-06f1c88b7d69"},"vehicle_type_id":"4","last_reported":1717448881,"current_range_meters":17600,"station_id":"ce4bgn92rcd13ifvqbvg","pricing_plan_id":"cebpf4jnsgd1na2vs0mg"},{"bike_id":"88ea8973-a2b0-427b-b314-70d3a607d431","system_id":"levelo_inurba_marseille","lat":43.309076,"lon":5.368465,"is_reserved":false,"is_disabled":false,"rental_uris":{"android":"levelo://app?vid=88ea8973-a2b0-427b-b314-70d3a607d431","ios":"levelo://app?vid=88ea8973-a2b0-427b-b314-70d3a607d431"},"vehicle_type_id":"4","last_reported":1717448881,"current_range_meters":13200,"station_id":"ce4bgn92rcd13ifvqbvg","pricing_plan_id":"cebpf4jnsgd1na2vs0mg"},{"bike_id":"c8f50644-4b10-4b26-b9ea-3b5aebc64778","system_id":"levelo_inurba_marseille","lat":43.309076,"lon":5.368465,"is_reserved":false,"is_disabled":false,"rental_uris":{"android":"levelo://app?vid=c8f50644-4b10-4b26-b9ea-3b5aebc64778","ios":"levelo://app?vid=c8f50644-4b10-4b26-b9ea-3b5aebc64778"},"vehicle_type_id":"4","last_reported":1717448881,"current_range_meters":21600,"station_id":"ce4bgn92rcd13ifvqbvg","pricing_plan_id":"cebpf4jnsgd1na2vs0mg"},{"bike_id":"4ab8d550-c197-4379-83f0-8b85334dedfc","system_id":"levelo_inurba_marseille","lat":43.31487,"lon":5.372634,"is_reserved":false,"is_disabled":false,"rental_uris":{"android":"levelo://app?vid=4ab8d550-c197-4379-83f0-8b85334dedfc","ios":"levelo://app?vid=4ab8d550-c197-4379-83f0-8b85334dedfc"},"vehicle_type_id":"4","last_reported":1717448881,"current_range_meters":12800,"station_id":"ce4bgt12rcd13ifvqcd0","pricing_plan_id":"cebpf4jnsgd1na2vs0mg"},{"bike_id":"eb32aaec-9b7d-4b4c-b6ef-38963d776fd3","system_id":"levelo_inurba_marseille","lat":43.314861,"lon":5.372784,"is_reserved":false,"is_disabled":false,"rental_uris":{"android":"levelo://app?vid=eb32aaec-9b7d-4b4c-b6ef-38963d776fd3","ios":"levelo://app?vid=eb32aaec-9b7d-4b4c-b6ef-38963d776fd3"},"vehicle_type_id":"4","last_reported":1717448881,"current_range_meters":0,"station_id":"ce4bgt12rcd13ifvqcd0","pricing_plan_id":"cebpf4jnsgd1na2vs0mg"},{"bike_id":"dad4ab21-3596-4e9d-91f9-d00f2f3a353c","system_id":"levelo_inurba_marseille","lat":43.314811,"lon":5.373103,"is_reserved":false,"is_disabled":false,"rental_uris":{"android":"levelo://app?vid=dad4ab21-3596-4e9d-91f9-d00f2f3a353c","ios":"levelo://app?vid=dad4ab21-3596-4e9d-91f9-d00f2f3a353c"},"vehicle_type_id":"4","last_reported":1717448881,"current_range_meters":6000,"station_id":"ce4bgt12rcd13ifvqcd0","pricing_plan_id":"cebpf4jnsgd1na2vs0mg"},{"bike_id":"226c9190-0be5-4ef2-9531-18497a7ff15c","system_id":"levelo_inurba_marseille","lat":43.314811,"lon":5.373103,"is_reserved":false,"is_disabled":false,"rental_uris":{"android":"levelo://app?vid=226c9190-0be5-4ef2-9531-18497a7ff15c","ios":"levelo://app?vid=226c9190-0be5-4ef2-9531-18497a7ff15c"},"vehicle_type_id":"4","last_reported":1717448881,"current_range_meters":10800,"station_id":"ce4bgt12rcd13ifvqcd0","pricing_plan_id":"cebpf4jnsgd1na2vs0mg"},{"bike_id":"d40394c1-be78-47b3-bbdd-1ea666304e99","system_id":"levelo_inurba_marseille","lat":43.314864,"lon":5.373079,"is_reserved":false,"is_disabled":false,"rental_uris":{"android":"levelo://app?vid=d40394c1-be78-47b3-bbdd-1ea666304e99","ios":"levelo://app?vid=d40394c1-be78-47b3-bbdd-1ea666304e99"},"vehicle_type_id":"4","last_reported":1717448881,"current_range_meters":4000,"station_id":"ce4bgt12rcd13ifvqcd0","pricing_plan_id":"cebpf4jnsgd1na2vs0mg"},{"bike_id":"7c73c3b2-b3a0-4938-b9a7-6abfc846f34c","system_id":"levelo_inurba_marseille","lat":43.314922,"lon":5.373086,"is_reserved":false,"is_disabled":false,"rental_uris":{"android":"levelo://app?vid=7c73c3b2-b3a0-4938-b9a7-6abfc846f34c","ios":"levelo://app?vid=7c73c3b2-b3a0-4938-b9a7-6abfc846f34c"},"vehicle_type_id":"4","last_reported":1717448881,"current_range_meters":0,"station_id":"ce4bgt12rcd13ifvqcd0","pricing_plan_id":"cebpf4jnsgd1na2vs0mg"},{"bike_id":"6d72db0a-1c18-4c75-be0a-95ed3567a120","system_id":"levelo_inurba_marseille","lat":43.309034,"lon":5.371783,"is_reserved":false,"is_disabled":false,"rental_uris":{"android":"levelo://app?vid=6d72db0a-1c18-4c75-be0a-95ed3567a120","ios":"levelo://app?vid=6d72db0a-1c18-4c75-be0a-95ed3567a120"},"vehicle_type_id":"4","last_reported":1717448881,"current_range_meters":4800,"station_id":"ce4bguh2rcd13ifvqckg","pricing_plan_id":"cebpf4jnsgd1na2vs0mg"},{"bike_id":"d8d6fb1a-a085-4e49-9a70-4af4e2a2e3ca","system_id":"levelo_inurba_marseille","lat":43.305714,"lon":5.365633,"is_reserved":false,"is_disabled":false,"rental_uris":{"android":"levelo://app?vid=d8d6fb1a-a085-4e49-9a70-4af4e2a2e3ca","ios":"levelo://app?vid=d8d6fb1a-a085-4e49-9a70-4af4e2a2e3ca"},"vehicle_type_id":"4","last_reported":1717448881,"current_range_meters":26800,"station_id":"ce4bgs12rcd13ifvqcag","pricing_plan_id":"cebpf4jnsgd1na2vs0mg"},{"bike_id":"facaa0bd-9497-4ecd-8fad-cefd093dcaeb","system_id":"levelo_inurba_marseille","lat":43.305989,"lon":5.37225,"is_reserved":false,"is_disabled":false,"rental_uris":{"android":"levelo://app?vid=facaa0bd-9497-4ecd-8fad-cefd093dcaeb","ios":"levelo://app?vid=facaa0bd-9497-4ecd-8fad-cefd093dcaeb"},"vehicle_type_id":"4","last_reported":1717448881,"current_range_meters":1200,"station_id":"ce4bgqh2rcd13ifvqc4g","pricing_plan_id":"cebpf4jnsgd1na2vs0mg"},{"bike_id":"76162bad-7f53-42db-8f03-96e365c672fa","system_id":"levelo_inurba_marseille","lat":43.305989,"lon":5.37225,"is_reserved":false,"is_disabled":false,"rental_uris":{"android":"levelo://app?vid=76162bad-7f53-42db-8f03-96e365c672fa","ios":"levelo://app?vid=76162bad-7f53-42db-8f03-96e365c672fa"},"vehicle_type_id":"4","last_reported":1717448881,"current_range_meters":25600,"station_id":"ce4bgqh2rcd13ifvqc4g","pricing_plan_id":"cebpf4jnsgd1na2vs0mg"},{"bike_id":"878e6d86-9750-4deb-aaac-fa95e09e0f92","system_id":"levelo_inurba_marseille","lat":43.305989,"lon":5.37225,"is_reserved":false,"is_disabled":false,"rental_uris":{"android":"levelo://app?vid=878e6d86-9750-4deb-aaac-fa95e09e0f92","ios":"levelo://app?vid=878e6d86-9750-4deb-aaac-fa95e09e0f92"},"vehicle_type_id":"4","last_reported":1717448881,"current_range_meters":23200,"station_id":"ce4bgqh2rcd13ifvqc4g","pricing_plan_id":"cebpf4jnsgd1na2vs0mg"},{"bike_id":"46c5160f-af13-4d3b-9c64-b6ad837575d8","system_id":"levelo_inurba_marseille","lat":43.311189,"lon":5.377653,"is_reserved":false,"is_disabled":false,"rental_uris":{"android":"levelo://app?vid=46c5160f-af13-4d3b-9c64-b6ad837575d8","ios":"levelo://app?vid=46c5160f-af13-4d3b-9c64-b6ad837575d8"},"vehicle_type_id":"4","last_reported":1717448881,"current_range_meters":1600,"station_id":"ce4bgt92rcd13ifvqcg0","pricing_plan_id":"cebpf4jnsgd1na2vs0mg"},{"bike_id":"3c46bb72-49d4-49ec-9d46-de941ae09c8b","system_id":"levelo_inurba_marseille","lat":43.307945,"lon":5.376487,"is_reserved":false,"is_disabled":false,"rental_uris":{"android":"levelo://app?vid=3c46bb72-49d4-49ec-9d46-de941ae09c8b","ios":"levelo://app?vid=3c46bb72-49d4-49ec-9d46-de941ae09c8b"},"vehicle_type_id":"4","last_reported":1717448881,"current_range_meters":21600,"station_id":"ce4bgv92rcd13ifvqcq0","pricing_plan_id":"cebpf4jnsgd1na2vs0mg"},{"bike_id":"bb1485d3-2922-4f0d-b31d-8fea6557eba5","system_id":"levelo_inurba_marseille","lat":43.305989,"lon":5.37225,"is_reserved":false,"is_disabled":false,"rental_uris":{"android":"levelo://app?vid=bb1485d3-2922-4f0d-b31d-8fea6557eba5","ios":"levelo://app?vid=bb1485d3-2922-4f0d-b31d-8fea6557eba5"},"vehicle_type_id":"4","last_reported":1717448881,"current_range_meters":12000,"station_id":"ce4bgqh2rcd13ifvqc4g","pricing_plan_id":"cebpf4jnsgd1na2vs0mg"},{"bike_id":"e1750d53-fb84-486f-91d3-3e9b7d29e653","system_id":"levelo_inurba_marseille","lat":43.305989,"lon":5.37225,"is_reserved":false,"is_disabled":false,"rental_uris":{"android":"levelo://app?vid=e1750d53-fb84-486f-91d3-3e9b7d29e653","ios":"levelo://app?vid=e1750d53-fb84-486f-91d3-3e9b7d29e653"},"vehicle_type_id":"4","last_reported":1717448881,"current_range_meters":12800,"station_id":"ce4bgqh2rcd13ifvqc4g","pricing_plan_id":"cebpf4jnsgd1na2vs0mg"},{"bike_id":"83a6fa4d-8dc1-4ee2-a8e6-841176b7ae88","system_id":"levelo_inurba_marseille","lat":43.307945,"lon":5.376487,"is_reserved":false,"is_disabled":false,"rental_uris":{"android":"levelo://app?vid=83a6fa4d-8dc1-4ee2-a8e6-841176b7ae88","ios":"levelo://app?vid=83a6fa4d-8dc1-4ee2-a8e6-841176b7ae88"},"vehicle_type_id":"4","last_reported":1717448881,"current_range_meters":10800,"station_id":"ce4bgv92rcd13ifvqcq0","pricing_plan_id":"cebpf4jnsgd1na2vs0mg"},{"bike_id":"283499ba-19c4-4768-a9a4-5d6f46c97267","system_id":"levelo_inurba_marseille","lat":43.317075,"lon":5.377367,"is_reserved":false,"is_disabled":false,"rental_uris":{"android":"levelo://app?vid=283499ba-19c4-4768-a9a4-5d6f46c97267","ios":"levelo://app?vid=283499ba-19c4-4768-a9a4-5d6f46c97267"},"vehicle_type_id":"4","last_reported":1717448881,"current_range_meters":22400,"station_id":"ce4bgth2rcd13ifvqch0","pricing_plan_id":"cebpf4jnsgd1na2vs0mg"},{"bike_id":"170be44d-ab07-4969-8531-ce5cfa032400","system_id":"levelo_inurba_marseille","lat":43.307945,"lon":5.376487,"is_reserved":false,"is_disabled":false,"rental_uris":{"android":"levelo://app?vid=170be44d-ab07-4969-8531-ce5cfa032400","ios":"levelo://app?vid=170be44d-ab07-4969-8531-ce5cfa032400"},"vehicle_type_id":"4","last_reported":1717448881,"current_range_meters":11600,"station_id":"ce4bgv92rcd13ifvqcq0","pricing_plan_id":"cebpf4jnsgd1na2vs0mg"},{"bike_id":"efe66673-da51-49f5-9e95-a1195911a8d3","system_id":"levelo_inurba_marseille","lat":43.307945,"lon":5.376487,"is_reserved":false,"is_disabled":false,"rental_uris":{"android":"levelo://app?vid=efe66673-da51-49f5-9e95-a1195911a8d3","ios":"levelo://app?vid=efe66673-da51-49f5-9e95-a1195911a8d3"},"vehicle_type_id":"4","last_reported":1717448881,"current_range_meters":17200,"station_id":"ce4bgv92rcd13ifvqcq0","pricing_plan_id":"cebpf4jnsgd1na2vs0mg"},{"bike_id":"e9392ab6-8756-432d-b9d2-22a55787c53c","system_id":"levelo_inurba_marseille","lat":43.307945,"lon":5.376487,"is_reserved":false,"is_disabled":false,"rental_uris":{"android":"levelo://app?vid=e9392ab6-8756-432d-b9d2-22a55787c53c","ios":"levelo://app?vid=e9392ab6-8756-432d-b9d2-22a55787c53c"},"vehicle_type_id":"4","last_reported":1717448881,"current_range_meters":13200,"station_id":"ce4bgv92rcd13ifvqcq0","pricing_plan_id":"cebpf4jnsgd1na2vs0mg"},{"bike_id":"521822af-f024-4092-a8e6-ea3cc84b7e28","system_id":"levelo_inurba_marseille","lat":43.317075,"lon":5.377367,"is_reserved":false,"is_disabled":false,"rental_uris":{"android":"levelo://app?vid=521822af-f024-4092-a8e6-ea3cc84b7e28","ios":"levelo://app?vid=521822af-f024-4092-a8e6-ea3cc84b7e28"},"vehicle_type_id":"4","last_reported":1717448881,"current_range_meters":9600,"station_id":"ce4bgth2rcd13ifvqch0","pricing_plan_id":"cebpf4jnsgd1na2vs0mg"},{"bike_id":"cc07071e-5dbc-4025-a28f-397269fa4497","system_id":"levelo_inurba_marseille","lat":43.307945,"lon":5.376487,"is_reserved":false,"is_disabled":false,"rental_uris":{"android":"levelo://app?vid=cc07071e-5dbc-4025-a28f-397269fa4497","ios":"levelo://app?vid=cc07071e-5dbc-4025-a28f-397269fa4497"},"vehicle_type_id":"4","last_reported":1717448881,"current_range_meters":27600,"station_id":"ce4bgv92rcd13ifvqcq0","pricing_plan_id":"cebpf4jnsgd1na2vs0mg"},{"bike_id":"b9c9bd62-b910-48b8-8cd3-cb38dfb4977b","system_id":"levelo_inurba_marseille","lat":43.307945,"lon":5.376487,"is_reserved":false,"is_disabled":false,"rental_uris":{"android":"levelo://app?vid=b9c9bd62-b910-48b8-8cd3-cb38dfb4977b","ios":"levelo://app?vid=b9c9bd62-b910-48b8-8cd3-cb38dfb4977b"},"vehicle_type_id":"4","last_reported":1717448881,"current_range_meters":7200,"station_id":"ce4bgv92rcd13ifvqcq0","pricing_plan_id":"cebpf4jnsgd1na2vs0mg"},{"bike_id":"b96ee3f6-792a-4a8c-8032-dc7b1fc701d9","system_id":"levelo_inurba_marseille","lat":43.307945,"lon":5.376487,"is_reserved":false,"is_disabled":false,"rental_uris":{"android":"levelo://app?vid=b96ee3f6-792a-4a8c-8032-dc7b1fc701d9","ios":"levelo://app?vid=b96ee3f6-792a-4a8c-8032-dc7b1fc701d9"},"vehicle_type_id":"4","last_reported":1717448881,"current_range_meters":24400,"station_id":"ce4bgv92rcd13ifvqcq0","pricing_plan_id":"cebpf4jnsgd1na2vs0mg"},{"bike_id":"84360108-89ae-4bef-aa1c-8591ba2c3691","system_id":"levelo_inurba_marseille","lat":43.317075,"lon":5.377367,"is_reserved":false,"is_disabled":false,"rental_uris":{"android":"levelo://app?vid=84360108-89ae-4bef-aa1c-8591ba2c3691","ios":"levelo://app?vid=84360108-89ae-4bef-aa1c-8591ba2c3691"},"vehicle_type_id":"4","last_reported":1717448881,"current_range_meters":12000,"station_id":"ce4bgth2rcd13ifvqch0","pricing_plan_id":"cebpf4jnsgd1na2vs0mg"},{"bike_id":"4ef34bdd-125a-41e6-8a6d-c1688d340d8d","system_id":"levelo_inurba_marseille","lat":43.317075,"lon":5.377367,"is_reserved":false,"is_disabled":false,"rental_uris":{"android":"levelo://app?vid=4ef34bdd-125a-41e6-8a6d-c1688d340d8d","ios":"levelo://app?vid=4ef34bdd-125a-41e6-8a6d-c1688d340d8d"},"vehicle_type_id":"4","last_reported":1717448881,"current_range_meters":14800,"station_id":"ce4bgth2rcd13ifvqch0","pricing_plan_id":"cebpf4jnsgd1na2vs0mg"},{"bike_id":"63b1a303-6db0-4c0e-a30f-ab2843d13f85","system_id":"levelo_inurba_marseille","lat":43.317051,"lon":5.377484,"is_reserved":false,"is_disabled":false,"rental_uris":{"android":"levelo://app?vid=63b1a303-6db0-4c0e-a30f-ab2843d13f85","ios":"levelo://app?vid=63b1a303-6db0-4c0e-a30f-ab2843d13f85"},"vehicle_type_id":"4","last_reported":1717448881,"current_range_meters":31200,"station_id":"ce4bgth2rcd13ifvqch0","pricing_plan_id":"cebpf4jnsgd1na2vs0mg"},{"bike_id":"27425302-dc9e-4ad9-b70c-e8cf18103468","system_id":"levelo_inurba_marseille","lat":43.31714,"lon":5.37757,"is_reserved":false,"is_disabled":false,"rental_uris":{"android":"levelo://app?vid=27425302-dc9e-4ad9-b70c-e8cf18103468","ios":"levelo://app?vid=27425302-dc9e-4ad9-b70c-e8cf18103468"},"vehicle_type_id":"4","last_reported":1717448881,"current_range_meters":11600,"station_id":"ce4bgth2rcd13ifvqch0","pricing_plan_id":"cebpf4jnsgd1na2vs0mg"},{"bike_id":"688305a3-3cc9-49b8-8df6-918bfa13635b","system_id":"levelo_inurba_marseille","lat":43.315289,"lon":5.380349,"is_reserved":false,"is_disabled":false,"rental_uris":{"android":"levelo://app?vid=688305a3-3cc9-49b8-8df6-918bfa13635b","ios":"levelo://app?vid=688305a3-3cc9-49b8-8df6-918bfa13635b"},"vehicle_type_id":"4","last_reported":1717448881,"current_range_meters":23200,"station_id":"ce4bhsp2rcd13ifvqi50","pricing_plan_id":"cebpf4jnsgd1na2vs0mg"},{"bike_id":"68ee4b03-52a7-4d2c-a65d-4815dc8f09bb","system_id":"levelo_inurba_marseille","lat":43.315293,"lon":5.380349,"is_reserved":false,"is_disabled":false,"rental_uris":{"android":"levelo://app?vid=68ee4b03-52a7-4d2c-a65d-4815dc8f09bb","ios":"levelo://app?vid=68ee4b03-52a7-4d2c-a65d-4815dc8f09bb"},"vehicle_type_id":"4","last_reported":1717448881,"current_range_meters":21200,"station_id":"ce4bhsp2rcd13ifvqi50","pricing_plan_id":"cebpf4jnsgd1na2vs0mg"},{"bike_id":"5401ff84-06c4-4c94-b76e-411da2f5ffe9","system_id":"levelo_inurba_marseille","lat":43.321982,"lon":5.371212,"is_reserved":false,"is_disabled":false,"rental_uris":{"android":"levelo://app?vid=5401ff84-06c4-4c94-b76e-411da2f5ffe9","ios":"levelo://app?vid=5401ff84-06c4-4c94-b76e-411da2f5ffe9"},"vehicle_type_id":"4","last_reported":1717448881,"current_range_meters":14800,"station_id":"","pricing_plan_id":"cebpf4jnsgd1na2vs0mg"},{"bike_id":"9aab337a-d2e4-4915-9673-8a19cae261bd","system_id":"levelo_inurba_marseille","lat":43.315289,"lon":5.380349,"is_reserved":false,"is_disabled":false,"rental_uris":{"android":"levelo://app?vid=9aab337a-d2e4-4915-9673-8a19cae261bd","ios":"levelo://app?vid=9aab337a-d2e4-4915-9673-8a19cae261bd"},"vehicle_type_id":"4","last_reported":1717448881,"current_range_meters":18400,"station_id":"ce4bhsp2rcd13ifvqi50","pricing_plan_id":"cebpf4jnsgd1na2vs0mg"},{"bike_id":"d2f5a31d-7570-4c66-a922-f6042c7ce9cb","system_id":"levelo_inurba_marseille","lat":43.315293,"lon":5.380349,"is_reserved":false,"is_disabled":false,"rental_uris":{"android":"levelo://app?vid=d2f5a31d-7570-4c66-a922-f6042c7ce9cb","ios":"levelo://app?vid=d2f5a31d-7570-4c66-a922-f6042c7ce9cb"},"vehicle_type_id":"4","last_reported":1717448881,"current_range_meters":31200,"station_id":"ce4bhsp2rcd13ifvqi50","pricing_plan_id":"cebpf4jnsgd1na2vs0mg"},{"bike_id":"b80fd59f-63bf-4816-871a-c9116cf6f032","system_id":"levelo_inurba_marseille","lat":43.301939,"lon":5.366286,"is_reserved":false,"is_disabled":false,"rental_uris":{"android":"levelo://app?vid=b80fd59f-63bf-4816-871a-c9116cf6f032","ios":"levelo://app?vid=b80fd59f-63bf-4816-871a-c9116cf6f032"},"vehicle_type_id":"4","last_reported":1717448881,"current_range_meters":16000,"station_id":"ce4bgrh2rcd13ifvqc8g","pricing_plan_id":"cebpf4jnsgd1na2vs0mg"},{"bike_id":"a89e6527-431e-4946-be38-87f428da68e6","system_id":"levelo_inurba_marseille","lat":43.301939,"lon":5.366286,"is_reserved":false,"is_disabled":false,"rental_uris":{"android":"levelo://app?vid=a89e6527-431e-4946-be38-87f428da68e6","ios":"levelo://app?vid=a89e6527-431e-4946-be38-87f428da68e6"},"vehicle_type_id":"4","last_reported":1717448881,"current_range_meters":19200,"station_id":"ce4bgrh2rcd13ifvqc8g","pricing_plan_id":"cebpf4jnsgd1na2vs0mg"},{"bike_id":"cdfe41b6-3312-4569-823e-e9eb1a9881c7","system_id":"levelo_inurba_marseille","lat":43.301939,"lon":5.366286,"is_reserved":false,"is_disabled":false,"rental_uris":{"android":"levelo://app?vid=cdfe41b6-3312-4569-823e-e9eb1a9881c7","ios":"levelo://app?vid=cdfe41b6-3312-4569-823e-e9eb1a9881c7"},"vehicle_type_id":"4","last_reported":1717448881,"current_range_meters":24000,"station_id":"ce4bgrh2rcd13ifvqc8g","pricing_plan_id":"cebpf4jnsgd1na2vs0mg"},{"bike_id":"674e1699-c672-4f90-b352-96f63d17df89","system_id":"levelo_inurba_marseille","lat":43.301939,"lon":5.366286,"is_reserved":false,"is_disabled":false,"rental_uris":{"android":"levelo://app?vid=674e1699-c672-4f90-b352-96f63d17df89","ios":"levelo://app?vid=674e1699-c672-4f90-b352-96f63d17df89"},"vehicle_type_id":"4","last_reported":1717448881,"current_range_meters":13200,"station_id":"ce4bgrh2rcd13ifvqc8g","pricing_plan_id":"cebpf4jnsgd1na2vs0mg"},{"bike_id":"d775cd53-82ce-4ea6-89d0-f905e08fca69","system_id":"levelo_inurba_marseille","lat":43.308012,"lon":5.381511,"is_reserved":false,"is_disabled":false,"rental_uris":{"android":"levelo://app?vid=d775cd53-82ce-4ea6-89d0-f905e08fca69","ios":"levelo://app?vid=d775cd53-82ce-4ea6-89d0-f905e08fca69"},"vehicle_type_id":"4","last_reported":1717448881,"current_range_meters":24400,"station_id":"ce4bgt12rcd13ifvqce0","pricing_plan_id":"cebpf4jnsgd1na2vs0mg"},{"bike_id":"2b181712-9899-4a65-8cf9-98d80f53ef6c","system_id":"levelo_inurba_marseille","lat":43.308012,"lon":5.381511,"is_reserved":false,"is_disabled":false,"rental_uris":{"android":"levelo://app?vid=2b181712-9899-4a65-8cf9-98d80f53ef6c","ios":"levelo://app?vid=2b181712-9899-4a65-8cf9-98d80f53ef6c"},"vehicle_type_id":"4","last_reported":1717448881,"current_range_meters":31200,"station_id":"ce4bgt12rcd13ifvqce0","pricing_plan_id":"cebpf4jnsgd1na2vs0mg"},{"bike_id":"b30c12d0-d769-498d-9413-7303f9ebba85","system_id":"levelo_inurba_marseille","lat":43.308012,"lon":5.381511,"is_reserved":false,"is_disabled":false,"rental_uris":{"android":"levelo://app?vid=b30c12d0-d769-498d-9413-7303f9ebba85","ios":"levelo://app?vid=b30c12d0-d769-498d-9413-7303f9ebba85"},"vehicle_type_id":"4","last_reported":1717448881,"current_range_meters":28000,"station_id":"ce4bgt12rcd13ifvqce0","pricing_plan_id":"cebpf4jnsgd1na2vs0mg"},{"bike_id":"a4b95a5d-b628-411c-ab6b-cad0604b7aa3","system_id":"levelo_inurba_marseille","lat":43.308012,"lon":5.381511,"is_reserved":false,"is_disabled":false,"rental_uris":{"android":"levelo://app?vid=a4b95a5d-b628-411c-ab6b-cad0604b7aa3","ios":"levelo://app?vid=a4b95a5d-b628-411c-ab6b-cad0604b7aa3"},"vehicle_type_id":"4","last_reported":1717448881,"current_range_meters":29200,"station_id":"ce4bgt12rcd13ifvqce0","pricing_plan_id":"cebpf4jnsgd1na2vs0mg"},{"bike_id":"e931979f-15a9-483a-acb1-932ff79dbfe8","system_id":"levelo_inurba_marseille","lat":43.308012,"lon":5.381511,"is_reserved":false,"is_disabled":false,"rental_uris":{"android":"levelo://app?vid=e931979f-15a9-483a-acb1-932ff79dbfe8","ios":"levelo://app?vid=e931979f-15a9-483a-acb1-932ff79dbfe8"},"vehicle_type_id":"4","last_reported":1717448881,"current_range_meters":26000,"station_id":"ce4bgt12rcd13ifvqce0","pricing_plan_id":"cebpf4jnsgd1na2vs0mg"},{"bike_id":"7ed9f8e2-c9f3-441a-861d-49c160f18845","system_id":"levelo_inurba_marseille","lat":43.308012,"lon":5.381511,"is_reserved":false,"is_disabled":false,"rental_uris":{"android":"levelo://app?vid=7ed9f8e2-c9f3-441a-861d-49c160f18845","ios":"levelo://app?vid=7ed9f8e2-c9f3-441a-861d-49c160f18845"},"vehicle_type_id":"4","last_reported":1717448881,"current_range_meters":26000,"station_id":"ce4bgt12rcd13ifvqce0","pricing_plan_id":"cebpf4jnsgd1na2vs0mg"},{"bike_id":"24f9eb4b-2076-4556-a713-cb75886be5a9","system_id":"levelo_inurba_marseille","lat":43.315293,"lon":5.380349,"is_reserved":false,"is_disabled":false,"rental_uris":{"android":"levelo://app?vid=24f9eb4b-2076-4556-a713-cb75886be5a9","ios":"levelo://app?vid=24f9eb4b-2076-4556-a713-cb75886be5a9"},"vehicle_type_id":"4","last_reported":1717448881,"current_range_meters":22800,"station_id":"ce4bhsp2rcd13ifvqi50","pricing_plan_id":"cebpf4jnsgd1na2vs0mg"},{"bike_id":"227a0678-8029-4836-b641-ef5768b0f466","system_id":"levelo_inurba_marseille","lat":43.324771,"lon":5.36557,"is_reserved":false,"is_disabled":false,"rental_uris":{"android":"levelo://app?vid=227a0678-8029-4836-b641-ef5768b0f466","ios":"levelo://app?vid=227a0678-8029-4836-b641-ef5768b0f466"},"vehicle_type_id":"4","last_reported":1717448881,"current_range_meters":10800,"station_id":"ce4bhs12rcd13ifvqhvg","pricing_plan_id":"cebpf4jnsgd1na2vs0mg"},{"bike_id":"a66f1ef8-e565-4629-a8c0-8f65e5cdb9c5","system_id":"levelo_inurba_marseille","lat":43.324771,"lon":5.36557,"is_reserved":false,"is_disabled":false,"rental_uris":{"android":"levelo://app?vid=a66f1ef8-e565-4629-a8c0-8f65e5cdb9c5","ios":"levelo://app?vid=a66f1ef8-e565-4629-a8c0-8f65e5cdb9c5"},"vehicle_type_id":"4","last_reported":1717448881,"current_range_meters":8800,"station_id":"ce4bhs12rcd13ifvqhvg","pricing_plan_id":"cebpf4jnsgd1na2vs0mg"},{"bike_id":"2e9688a8-0e88-40d3-ad32-e192b82410a1","system_id":"levelo_inurba_marseille","lat":43.324771,"lon":5.36557,"is_reserved":false,"is_disabled":false,"rental_uris":{"android":"levelo://app?vid=2e9688a8-0e88-40d3-ad32-e192b82410a1","ios":"levelo://app?vid=2e9688a8-0e88-40d3-ad32-e192b82410a1"},"vehicle_type_id":"4","last_reported":1717448881,"current_range_meters":0,"station_id":"ce4bhs12rcd13ifvqhvg","pricing_plan_id":"cebpf4jnsgd1na2vs0mg"},{"bike_id":"73ffa659-8425-43dd-b49b-95fdc9dcb4af","system_id":"levelo_inurba_marseille","lat":43.324771,"lon":5.36557,"is_reserved":false,"is_disabled":false,"rental_uris":{"android":"levelo://app?vid=73ffa659-8425-43dd-b49b-95fdc9dcb4af","ios":"levelo://app?vid=73ffa659-8425-43dd-b49b-95fdc9dcb4af"},"vehicle_type_id":"4","last_reported":1717448881,"current_range_meters":22800,"station_id":"ce4bhs12rcd13ifvqhvg","pricing_plan_id":"cebpf4jnsgd1na2vs0mg"},{"bike_id":"5a0e4850-f4ce-4132-bb56-09bfd627d2a3","system_id":"levelo_inurba_marseille","lat":43.324771,"lon":5.36557,"is_reserved":false,"is_disabled":false,"rental_uris":{"android":"levelo://app?vid=5a0e4850-f4ce-4132-bb56-09bfd627d2a3","ios":"levelo://app?vid=5a0e4850-f4ce-4132-bb56-09bfd627d2a3"},"vehicle_type_id":"4","last_reported":1717448881,"current_range_meters":2400,"station_id":"ce4bhs12rcd13ifvqhvg","pricing_plan_id":"cebpf4jnsgd1na2vs0mg"},{"bike_id":"c9167d46-b2de-4022-a2db-7257b8871b1f","system_id":"levelo_inurba_marseille","lat":43.324771,"lon":5.36557,"is_reserved":false,"is_disabled":false,"rental_uris":{"android":"levelo://app?vid=c9167d46-b2de-4022-a2db-7257b8871b1f","ios":"levelo://app?vid=c9167d46-b2de-4022-a2db-7257b8871b1f"},"vehicle_type_id":"4","last_reported":1717448881,"current_range_meters":9200,"station_id":"ce4bhs12rcd13ifvqhvg","pricing_plan_id":"cebpf4jnsgd1na2vs0mg"},{"bike_id":"24543918-fd1a-46d5-88c3-bceac4eddc3e","system_id":"levelo_inurba_marseille","lat":43.324771,"lon":5.36557,"is_reserved":false,"is_disabled":false,"rental_uris":{"android":"levelo://app?vid=24543918-fd1a-46d5-88c3-bceac4eddc3e","ios":"levelo://app?vid=24543918-fd1a-46d5-88c3-bceac4eddc3e"},"vehicle_type_id":"4","last_reported":1717448881,"current_range_meters":13600,"station_id":"ce4bhs12rcd13ifvqhvg","pricing_plan_id":"cebpf4jnsgd1na2vs0mg"},{"bike_id":"ee5ca0ed-f962-4d83-afe3-edf6c631cb25","system_id":"levelo_inurba_marseille","lat":43.32486,"lon":5.36572,"is_reserved":false,"is_disabled":false,"rental_uris":{"android":"levelo://app?vid=ee5ca0ed-f962-4d83-afe3-edf6c631cb25","ios":"levelo://app?vid=ee5ca0ed-f962-4d83-afe3-edf6c631cb25"},"vehicle_type_id":"4","last_reported":1717448881,"current_range_meters":7200,"station_id":"ce4bhs12rcd13ifvqhvg","pricing_plan_id":"cebpf4jnsgd1na2vs0mg"},{"bike_id":"171dd67e-d6c2-49b8-9e65-26d9ed7719c3","system_id":"levelo_inurba_marseille","lat":43.31077,"lon":5.38343,"is_reserved":false,"is_disabled":false,"rental_uris":{"android":"levelo://app?vid=171dd67e-d6c2-49b8-9e65-26d9ed7719c3","ios":"levelo://app?vid=171dd67e-d6c2-49b8-9e65-26d9ed7719c3"},"vehicle_type_id":"4","last_reported":1717448881,"current_range_meters":400,"station_id":"ce4bgv92rcd13ifvqcr0","pricing_plan_id":"cebpf4jnsgd1na2vs0mg"},{"bike_id":"cdc135e1-12ff-4337-8f4b-90aac0eb43da","system_id":"levelo_inurba_marseille","lat":43.310804,"lon":5.38359,"is_reserved":false,"is_disabled":false,"rental_uris":{"android":"levelo://app?vid=cdc135e1-12ff-4337-8f4b-90aac0eb43da","ios":"levelo://app?vid=cdc135e1-12ff-4337-8f4b-90aac0eb43da"},"vehicle_type_id":"4","last_reported":1717448881,"current_range_meters":29600,"station_id":"ce4bgv92rcd13ifvqcr0","pricing_plan_id":"cebpf4jnsgd1na2vs0mg"},{"bike_id":"0edc4a37-ef57-4cab-8b7d-3196e3445d23","system_id":"levelo_inurba_marseille","lat":43.310751,"lon":5.383518,"is_reserved":false,"is_disabled":false,"rental_uris":{"android":"levelo://app?vid=0edc4a37-ef57-4cab-8b7d-3196e3445d23","ios":"levelo://app?vid=0edc4a37-ef57-4cab-8b7d-3196e3445d23"},"vehicle_type_id":"4","last_reported":1717448881,"current_range_meters":0,"station_id":"ce4bgv92rcd13ifvqcr0","pricing_plan_id":"cebpf4jnsgd1na2vs0mg"},{"bike_id":"5d27c37e-1ec6-4750-86ec-40a8ba09bed3","system_id":"levelo_inurba_marseille","lat":43.310804,"lon":5.38359,"is_reserved":false,"is_disabled":false,"rental_uris":{"android":"levelo://app?vid=5d27c37e-1ec6-4750-86ec-40a8ba09bed3","ios":"levelo://app?vid=5d27c37e-1ec6-4750-86ec-40a8ba09bed3"},"vehicle_type_id":"4","last_reported":1717448881,"current_range_meters":400,"station_id":"ce4bgv92rcd13ifvqcr0","pricing_plan_id":"cebpf4jnsgd1na2vs0mg"},{"bike_id":"3eafb62c-faee-4b3f-8869-13234174d46e","system_id":"levelo_inurba_marseille","lat":43.310804,"lon":5.38359,"is_reserved":false,"is_disabled":false,"rental_uris":{"android":"levelo://app?vid=3eafb62c-faee-4b3f-8869-13234174d46e","ios":"levelo://app?vid=3eafb62c-faee-4b3f-8869-13234174d46e"},"vehicle_type_id":"4","last_reported":1717448881,"current_range_meters":8800,"station_id":"ce4bgv92rcd13ifvqcr0","pricing_plan_id":"cebpf4jnsgd1na2vs0mg"},{"bike_id":"11495bc1-3fd9-4df2-b980-25678644bd2c","system_id":"levelo_inurba_marseille","lat":43.31078,"lon":5.38359,"is_reserved":false,"is_disabled":false,"rental_uris":{"android":"levelo://app?vid=11495bc1-3fd9-4df2-b980-25678644bd2c","ios":"levelo://app?vid=11495bc1-3fd9-4df2-b980-25678644bd2c"},"vehicle_type_id":"4","last_reported":1717448881,"current_range_meters":6800,"station_id":"ce4bh4p2rcd13ifvqe0g","pricing_plan_id":"cebpf4jnsgd1na2vs0mg"},{"bike_id":"218f1f24-c2d4-4ce7-b050-57cf61a65ff4","system_id":"levelo_inurba_marseille","lat":43.302784,"lon":5.377158,"is_reserved":false,"is_disabled":false,"rental_uris":{"android":"levelo://app?vid=218f1f24-c2d4-4ce7-b050-57cf61a65ff4","ios":"levelo://app?vid=218f1f24-c2d4-4ce7-b050-57cf61a65ff4"},"vehicle_type_id":"4","last_reported":1717448881,"current_range_meters":24000,"station_id":"ce4bguh2rcd13ifvqcj0","pricing_plan_id":"cebpf4jnsgd1na2vs0mg"},{"bike_id":"1ab2cc97-844e-418d-a39a-f494a52d3b67","system_id":"levelo_inurba_marseille","lat":43.30146,"lon":5.374,"is_reserved":false,"is_disabled":false,"rental_uris":{"android":"levelo://app?vid=1ab2cc97-844e-418d-a39a-f494a52d3b67","ios":"levelo://app?vid=1ab2cc97-844e-418d-a39a-f494a52d3b67"},"vehicle_type_id":"4","last_reported":1717448881,"current_range_meters":7200,"station_id":"ce4bgs92rcd13ifvqcc0","pricing_plan_id":"cebpf4jnsgd1na2vs0mg"},{"bike_id":"55f9c939-cd6c-49cf-a17e-97ab6b918406","system_id":"levelo_inurba_marseille","lat":43.302784,"lon":5.377158,"is_reserved":false,"is_disabled":false,"rental_uris":{"android":"levelo://app?vid=55f9c939-cd6c-49cf-a17e-97ab6b918406","ios":"levelo://app?vid=55f9c939-cd6c-49cf-a17e-97ab6b918406"},"vehicle_type_id":"4","last_reported":1717448881,"current_range_meters":6400,"station_id":"ce4bguh2rcd13ifvqcj0","pricing_plan_id":"cebpf4jnsgd1na2vs0mg"},{"bike_id":"f8d32f77-07ef-4d22-8ca2-0dfbeaa6a844","system_id":"levelo_inurba_marseille","lat":43.320623,"lon":5.380315,"is_reserved":false,"is_disabled":false,"rental_uris":{"android":"levelo://app?vid=f8d32f77-07ef-4d22-8ca2-0dfbeaa6a844","ios":"levelo://app?vid=f8d32f77-07ef-4d22-8ca2-0dfbeaa6a844"},"vehicle_type_id":"4","last_reported":1717448881,"current_range_meters":8800,"station_id":"ce4bhr12rcd13ifvqhpg","pricing_plan_id":"cebpf4jnsgd1na2vs0mg"},{"bike_id":"2d59e3f4-648c-42a2-ad9f-e1ae3e8a19d7","system_id":"levelo_inurba_marseille","lat":43.302784,"lon":5.377158,"is_reserved":false,"is_disabled":false,"rental_uris":{"android":"levelo://app?vid=2d59e3f4-648c-42a2-ad9f-e1ae3e8a19d7","ios":"levelo://app?vid=2d59e3f4-648c-42a2-ad9f-e1ae3e8a19d7"},"vehicle_type_id":"4","last_reported":1717448881,"current_range_meters":21600,"station_id":"ce4bguh2rcd13ifvqcj0","pricing_plan_id":"cebpf4jnsgd1na2vs0mg"},{"bike_id":"cd53ab7c-f721-4797-a9f4-e306cc25bff0","system_id":"levelo_inurba_marseille","lat":43.32008,"lon":5.381246,"is_reserved":false,"is_disabled":false,"rental_uris":{"android":"levelo://app?vid=cd53ab7c-f721-4797-a9f4-e306cc25bff0","ios":"levelo://app?vid=cd53ab7c-f721-4797-a9f4-e306cc25bff0"},"vehicle_type_id":"4","last_reported":1717448881,"current_range_meters":400,"station_id":"ce4bhr12rcd13ifvqhpg","pricing_plan_id":"cebpf4jnsgd1na2vs0mg"},{"bike_id":"20350782-2ef8-4180-a14b-4dd4e6627c9a","system_id":"levelo_inurba_marseille","lat":43.31998,"lon":5.38142,"is_reserved":false,"is_disabled":false,"rental_uris":{"android":"levelo://app?vid=20350782-2ef8-4180-a14b-4dd4e6627c9a","ios":"levelo://app?vid=20350782-2ef8-4180-a14b-4dd4e6627c9a"},"vehicle_type_id":"4","last_reported":1717448881,"current_range_meters":0,"station_id":"ce4bhr12rcd13ifvqhpg","pricing_plan_id":"cebpf4jnsgd1na2vs0mg"},{"bike_id":"a8974613-c8ed-4a22-9501-ba0d3c91c9c8","system_id":"levelo_inurba_marseille","lat":43.313571,"lon":5.384829,"is_reserved":false,"is_disabled":false,"rental_uris":{"android":"levelo://app?vid=a8974613-c8ed-4a22-9501-ba0d3c91c9c8","ios":"levelo://app?vid=a8974613-c8ed-4a22-9501-ba0d3c91c9c8"},"vehicle_type_id":"4","last_reported":1717448881,"current_range_meters":17600,"station_id":"ce4bgt92rcd13ifvqcf0","pricing_plan_id":"cebpf4jnsgd1na2vs0mg"},{"bike_id":"83a9e9ee-e8e9-4b40-af65-95bf935afabc","system_id":"levelo_inurba_marseille","lat":43.31367,"lon":5.38496,"is_reserved":false,"is_disabled":false,"rental_uris":{"android":"levelo://app?vid=83a9e9ee-e8e9-4b40-af65-95bf935afabc","ios":"levelo://app?vid=83a9e9ee-e8e9-4b40-af65-95bf935afabc"},"vehicle_type_id":"4","last_reported":1717448881,"current_range_meters":4800,"station_id":"ce4bgt92rcd13ifvqcf0","pricing_plan_id":"cebpf4jnsgd1na2vs0mg"},{"bike_id":"960ecdd0-0e52-4d37-8d3b-1c4a86b5f1b2","system_id":"levelo_inurba_marseille","lat":43.2994,"lon":5.36541,"is_reserved":false,"is_disabled":false,"rental_uris":{"android":"levelo://app?vid=960ecdd0-0e52-4d37-8d3b-1c4a86b5f1b2","ios":"levelo://app?vid=960ecdd0-0e52-4d37-8d3b-1c4a86b5f1b2"},"vehicle_type_id":"4","last_reported":1717448881,"current_range_meters":28400,"station_id":"","pricing_plan_id":"cebpf4jnsgd1na2vs0mg"},{"bike_id":"74fe5585-fd20-415f-914e-56edca88d7e3","system_id":"levelo_inurba_marseille","lat":43.302784,"lon":5.377158,"is_reserved":false,"is_disabled":false,"rental_uris":{"android":"levelo://app?vid=74fe5585-fd20-415f-914e-56edca88d7e3","ios":"levelo://app?vid=74fe5585-fd20-415f-914e-56edca88d7e3"},"vehicle_type_id":"4","last_reported":1717448881,"current_range_meters":22400,"station_id":"ce4bguh2rcd13ifvqcj0","pricing_plan_id":"cebpf4jnsgd1na2vs0mg"},{"bike_id":"a4415eb8-97e2-4ce9-993c-6ab40ee57a38","system_id":"levelo_inurba_marseille","lat":43.298433,"lon":5.362774,"is_reserved":false,"is_disabled":false,"rental_uris":{"android":"levelo://app?vid=a4415eb8-97e2-4ce9-993c-6ab40ee57a38","ios":"levelo://app?vid=a4415eb8-97e2-4ce9-993c-6ab40ee57a38"},"vehicle_type_id":"4","last_reported":1717448881,"current_range_meters":11600,"station_id":"ce4bgpp2rcd13ifvqc3g","pricing_plan_id":"cebpf4jnsgd1na2vs0mg"},{"bike_id":"8f7f454f-e057-494e-8302-4a7b69d9f37b","system_id":"levelo_inurba_marseille","lat":43.305364,"lon":5.384119,"is_reserved":false,"is_disabled":false,"rental_uris":{"android":"levelo://app?vid=8f7f454f-e057-494e-8302-4a7b69d9f37b","ios":"levelo://app?vid=8f7f454f-e057-494e-8302-4a7b69d9f37b"},"vehicle_type_id":"4","last_reported":1717448881,"current_range_meters":27200,"station_id":"ce4bgg92rcd13ifvqb30","pricing_plan_id":"cebpf4jnsgd1na2vs0mg"},{"bike_id":"7c0279c4-785e-41cc-9875-11b1aa5697b0","system_id":"levelo_inurba_marseille","lat":43.29851,"lon":5.36281,"is_reserved":false,"is_disabled":false,"rental_uris":{"android":"levelo://app?vid=7c0279c4-785e-41cc-9875-11b1aa5697b0","ios":"levelo://app?vid=7c0279c4-785e-41cc-9875-11b1aa5697b0"},"vehicle_type_id":"4","last_reported":1717448881,"current_range_meters":27200,"station_id":"ce4bgpp2rcd13ifvqc3g","pricing_plan_id":"cebpf4jnsgd1na2vs0mg"},{"bike_id":"ab5fce92-67e1-42f1-9ba6-e4527fff21b0","system_id":"levelo_inurba_marseille","lat":43.305364,"lon":5.384119,"is_reserved":false,"is_disabled":false,"rental_uris":{"android":"levelo://app?vid=ab5fce92-67e1-42f1-9ba6-e4527fff21b0","ios":"levelo://app?vid=ab5fce92-67e1-42f1-9ba6-e4527fff21b0"},"vehicle_type_id":"4","last_reported":1717448881,"current_range_meters":25200,"station_id":"ce4bgg92rcd13ifvqb30","pricing_plan_id":"cebpf4jnsgd1na2vs0mg"},{"bike_id":"b58bacfd-9ec4-4ae7-9a83-97234ff34d99","system_id":"levelo_inurba_marseille","lat":43.298433,"lon":5.362774,"is_reserved":false,"is_disabled":false,"rental_uris":{"android":"levelo://app?vid=b58bacfd-9ec4-4ae7-9a83-97234ff34d99","ios":"levelo://app?vid=b58bacfd-9ec4-4ae7-9a83-97234ff34d99"},"vehicle_type_id":"4","last_reported":1717448881,"current_range_meters":18800,"station_id":"ce4bgpp2rcd13ifvqc3g","pricing_plan_id":"cebpf4jnsgd1na2vs0mg"},{"bike_id":"2c964564-0fad-40da-a5de-517d20029d28","system_id":"levelo_inurba_marseille","lat":43.305364,"lon":5.384119,"is_reserved":false,"is_disabled":false,"rental_uris":{"android":"levelo://app?vid=2c964564-0fad-40da-a5de-517d20029d28","ios":"levelo://app?vid=2c964564-0fad-40da-a5de-517d20029d28"},"vehicle_type_id":"4","last_reported":1717448881,"current_range_meters":31200,"station_id":"ce4bgg92rcd13ifvqb30","pricing_plan_id":"cebpf4jnsgd1na2vs0mg"},{"bike_id":"6fd1bc19-b439-4fd0-9851-9beceedadfe7","system_id":"levelo_inurba_marseille","lat":43.298433,"lon":5.362774,"is_reserved":false,"is_disabled":false,"rental_uris":{"android":"levelo://app?vid=6fd1bc19-b439-4fd0-9851-9beceedadfe7","ios":"levelo://app?vid=6fd1bc19-b439-4fd0-9851-9beceedadfe7"},"vehicle_type_id":"4","last_reported":1717448881,"current_range_meters":18000,"station_id":"ce4bgpp2rcd13ifvqc3g","pricing_plan_id":"cebpf4jnsgd1na2vs0mg"},{"bike_id":"944ceca1-4a69-41cb-896a-f249437dcf32","system_id":"levelo_inurba_marseille","lat":43.299249,"lon":5.374809,"is_reserved":false,"is_disabled":false,"rental_uris":{"android":"levelo://app?vid=944ceca1-4a69-41cb-896a-f249437dcf32","ios":"levelo://app?vid=944ceca1-4a69-41cb-896a-f249437dcf32"},"vehicle_type_id":"4","last_reported":1717448881,"current_range_meters":0,"station_id":"","pricing_plan_id":"cebpf4jnsgd1na2vs0mg"},{"bike_id":"9d9ec88a-7c1e-40a6-86e8-fbe7569a15d5","system_id":"levelo_inurba_marseille","lat":43.305364,"lon":5.384119,"is_reserved":false,"is_disabled":false,"rental_uris":{"android":"levelo://app?vid=9d9ec88a-7c1e-40a6-86e8-fbe7569a15d5","ios":"levelo://app?vid=9d9ec88a-7c1e-40a6-86e8-fbe7569a15d5"},"vehicle_type_id":"4","last_reported":1717448881,"current_range_meters":26000,"station_id":"ce4bgg92rcd13ifvqb30","pricing_plan_id":"cebpf4jnsgd1na2vs0mg"},{"bike_id":"747a5212-4a32-431d-a85e-891cde2f12b5","system_id":"levelo_inurba_marseille","lat":43.305364,"lon":5.384119,"is_reserved":false,"is_disabled":false,"rental_uris":{"android":"levelo://app?vid=747a5212-4a32-431d-a85e-891cde2f12b5","ios":"levelo://app?vid=747a5212-4a32-431d-a85e-891cde2f12b5"},"vehicle_type_id":"4","last_reported":1717448881,"current_range_meters":28000,"station_id":"ce4bgg92rcd13ifvqb30","pricing_plan_id":"cebpf4jnsgd1na2vs0mg"},{"bike_id":"e63f30df-41e9-4850-aa60-87cc2c57fcd0","system_id":"levelo_inurba_marseille","lat":43.311722,"lon":5.387247,"is_reserved":false,"is_disabled":false,"rental_uris":{"android":"levelo://app?vid=e63f30df-41e9-4850-aa60-87cc2c57fcd0","ios":"levelo://app?vid=e63f30df-41e9-4850-aa60-87cc2c57fcd0"},"vehicle_type_id":"4","last_reported":1717448881,"current_range_meters":10000,"station_id":"ce4bgv12rcd13ifvqcp0","pricing_plan_id":"cebpf4jnsgd1na2vs0mg"},{"bike_id":"287a38b3-8772-44cc-9602-d2f5cb10690f","system_id":"levelo_inurba_marseille","lat":43.29913,"lon":5.37457,"is_reserved":false,"is_disabled":false,"rental_uris":{"android":"levelo://app?vid=287a38b3-8772-44cc-9602-d2f5cb10690f","ios":"levelo://app?vid=287a38b3-8772-44cc-9602-d2f5cb10690f"},"vehicle_type_id":"4","last_reported":1717448881,"current_range_meters":19600,"station_id":"ce4bgjh2rcd13ifvqbg0","pricing_plan_id":"cebpf4jnsgd1na2vs0mg"},{"bike_id":"8b7ef21e-7407-4829-8d59-49872feae290","system_id":"levelo_inurba_marseille","lat":43.3026,"lon":5.38161,"is_reserved":false,"is_disabled":false,"rental_uris":{"android":"levelo://app?vid=8b7ef21e-7407-4829-8d59-49872feae290","ios":"levelo://app?vid=8b7ef21e-7407-4829-8d59-49872feae290"},"vehicle_type_id":"4","last_reported":1717448881,"current_range_meters":5200,"station_id":"","pricing_plan_id":"cebpf4jnsgd1na2vs0mg"},{"bike_id":"0bd0309e-daef-4cde-bfb5-25577dba628a","system_id":"levelo_inurba_marseille","lat":43.311722,"lon":5.387247,"is_reserved":false,"is_disabled":false,"rental_uris":{"android":"levelo://app?vid=0bd0309e-daef-4cde-bfb5-25577dba628a","ios":"levelo://app?vid=0bd0309e-daef-4cde-bfb5-25577dba628a"},"vehicle_type_id":"4","last_reported":1717448881,"current_range_meters":23600,"station_id":"ce4bgv12rcd13ifvqcp0","pricing_plan_id":"cebpf4jnsgd1na2vs0mg"},{"bike_id":"e3ac5f37-7ba8-4919-8b71-814a73b0e6ae","system_id":"levelo_inurba_marseille","lat":43.311722,"lon":5.387247,"is_reserved":false,"is_disabled":false,"rental_uris":{"android":"levelo://app?vid=e3ac5f37-7ba8-4919-8b71-814a73b0e6ae","ios":"levelo://app?vid=e3ac5f37-7ba8-4919-8b71-814a73b0e6ae"},"vehicle_type_id":"4","last_reported":1717448881,"current_range_meters":12800,"station_id":"ce4bgv12rcd13ifvqcp0","pricing_plan_id":"cebpf4jnsgd1na2vs0mg"},{"bike_id":"c95717f8-8062-45df-a854-0a0b88689ed4","system_id":"levelo_inurba_marseille","lat":43.311777,"lon":5.387168,"is_reserved":false,"is_disabled":false,"rental_uris":{"android":"levelo://app?vid=c95717f8-8062-45df-a854-0a0b88689ed4","ios":"levelo://app?vid=c95717f8-8062-45df-a854-0a0b88689ed4"},"vehicle_type_id":"4","last_reported":1717448881,"current_range_meters":26400,"station_id":"ce4bgv12rcd13ifvqcp0","pricing_plan_id":"cebpf4jnsgd1na2vs0mg"},{"bike_id":"fa1f7674-1582-4347-8038-94dc86993753","system_id":"levelo_inurba_marseille","lat":43.305989,"lon":5.37225,"is_reserved":false,"is_disabled":false,"rental_uris":{"android":"levelo://app?vid=fa1f7674-1582-4347-8038-94dc86993753","ios":"levelo://app?vid=fa1f7674-1582-4347-8038-94dc86993753"},"vehicle_type_id":"4","last_reported":1717448881,"current_range_meters":8000,"station_id":"ce4bgqh2rcd13ifvqc4g","pricing_plan_id":"cebpf4jnsgd1na2vs0mg"},{"bike_id":"f8d4aaed-2bb1-462b-aa40-c88223ee6481","system_id":"levelo_inurba_marseille","lat":43.311722,"lon":5.387247,"is_reserved":false,"is_disabled":false,"rental_uris":{"android":"levelo://app?vid=f8d4aaed-2bb1-462b-aa40-c88223ee6481","ios":"levelo://app?vid=f8d4aaed-2bb1-462b-aa40-c88223ee6481"},"vehicle_type_id":"4","last_reported":1717448881,"current_range_meters":23200,"station_id":"ce4bgv12rcd13ifvqcp0","pricing_plan_id":"cebpf4jnsgd1na2vs0mg"},{"bike_id":"10fb4334-c940-4455-979b-d3f1ca32e262","system_id":"levelo_inurba_marseille","lat":43.297794,"lon":5.370888,"is_reserved":false,"is_disabled":false,"rental_uris":{"android":"levelo://app?vid=10fb4334-c940-4455-979b-d3f1ca32e262","ios":"levelo://app?vid=10fb4334-c940-4455-979b-d3f1ca32e262"},"vehicle_type_id":"4","last_reported":1717448881,"current_range_meters":29200,"station_id":"ce4bgop2rcd13ifvqc1g","pricing_plan_id":"cebpf4jnsgd1na2vs0mg"},{"bike_id":"709afb1a-672e-4f16-859f-66e9f40bba11","system_id":"levelo_inurba_marseille","lat":43.29782,"lon":5.37107,"is_reserved":false,"is_disabled":false,"rental_uris":{"android":"levelo://app?vid=709afb1a-672e-4f16-859f-66e9f40bba11","ios":"levelo://app?vid=709afb1a-672e-4f16-859f-66e9f40bba11"},"vehicle_type_id":"4","last_reported":1717448881,"current_range_meters":7200,"station_id":"ce4bgop2rcd13ifvqc1g","pricing_plan_id":"cebpf4jnsgd1na2vs0mg"},{"bike_id":"f8cd45f0-ab25-470b-b04f-f7068c9bef76","system_id":"levelo_inurba_marseille","lat":43.322872,"lon":5.382756,"is_reserved":false,"is_disabled":false,"rental_uris":{"android":"levelo://app?vid=f8cd45f0-ab25-470b-b04f-f7068c9bef76","ios":"levelo://app?vid=f8cd45f0-ab25-470b-b04f-f7068c9bef76"},"vehicle_type_id":"4","last_reported":1717448881,"current_range_meters":11600,"station_id":"ce4bhr12rcd13ifvqhqg","pricing_plan_id":"cebpf4jnsgd1na2vs0mg"},{"bike_id":"a48d7fa8-b345-4332-b05c-7e838a057243","system_id":"levelo_inurba_marseille","lat":43.297163,"lon":5.365866,"is_reserved":false,"is_disabled":false,"rental_uris":{"android":"levelo://app?vid=a48d7fa8-b345-4332-b05c-7e838a057243","ios":"levelo://app?vid=a48d7fa8-b345-4332-b05c-7e838a057243"},"vehicle_type_id":"4","last_reported":1717448881,"current_range_meters":9600,"station_id":"ce4bgn12rcd13ifvqbt0","pricing_plan_id":"cebpf4jnsgd1na2vs0mg"},{"bike_id":"eac35cba-2c0d-4bdb-aa25-aa41c364d17a","system_id":"levelo_inurba_marseille","lat":43.305364,"lon":5.384119,"is_reserved":false,"is_disabled":false,"rental_uris":{"android":"levelo://app?vid=eac35cba-2c0d-4bdb-aa25-aa41c364d17a","ios":"levelo://app?vid=eac35cba-2c0d-4bdb-aa25-aa41c364d17a"},"vehicle_type_id":"4","last_reported":1717448881,"current_range_meters":0,"station_id":"ce4bgg92rcd13ifvqb30","pricing_plan_id":"cebpf4jnsgd1na2vs0mg"},{"bike_id":"2fbbc562-46d7-46b6-903f-01bad00c38fa","system_id":"levelo_inurba_marseille","lat":43.29573,"lon":5.367355,"is_reserved":false,"is_disabled":false,"rental_uris":{"android":"levelo://app?vid=2fbbc562-46d7-46b6-903f-01bad00c38fa","ios":"levelo://app?vid=2fbbc562-46d7-46b6-903f-01bad00c38fa"},"vehicle_type_id":"4","last_reported":1717448881,"current_range_meters":23200,"station_id":"ce4bgph2rcd13ifvqc2g","pricing_plan_id":"cebpf4jnsgd1na2vs0mg"},{"bike_id":"566c95b1-19e6-4e0b-bd10-4fc3db6c04b5","system_id":"levelo_inurba_marseille","lat":43.296131,"lon":5.370791,"is_reserved":false,"is_disabled":false,"rental_uris":{"android":"levelo://app?vid=566c95b1-19e6-4e0b-bd10-4fc3db6c04b5","ios":"levelo://app?vid=566c95b1-19e6-4e0b-bd10-4fc3db6c04b5"},"vehicle_type_id":"4","last_reported":1717448881,"current_range_meters":26400,"station_id":"ce4bgnh2rcd13ifvqc0g","pricing_plan_id":"cebpf4jnsgd1na2vs0mg"},{"bike_id":"7f124cdf-a152-4df6-906e-31ee3f4cb537","system_id":"levelo_inurba_marseille","lat":43.296263,"lon":5.40601,"is_reserved":false,"is_disabled":false,"rental_uris":{"android":"levelo://app?vid=7f124cdf-a152-4df6-906e-31ee3f4cb537","ios":"levelo://app?vid=7f124cdf-a152-4df6-906e-31ee3f4cb537"},"vehicle_type_id":"4","last_reported":1717448881,"current_range_meters":0,"station_id":"ce4bh0h2rcd13ifvqd60","pricing_plan_id":"cebpf4jnsgd1na2vs0mg"},{"bike_id":"bf2fe413-f63c-4a64-9e6f-3c4f96b11631","system_id":"levelo_inurba_marseille","lat":43.29573,"lon":5.367355,"is_reserved":false,"is_disabled":false,"rental_uris":{"android":"levelo://app?vid=bf2fe413-f63c-4a64-9e6f-3c4f96b11631","ios":"levelo://app?vid=bf2fe413-f63c-4a64-9e6f-3c4f96b11631"},"vehicle_type_id":"4","last_reported":1717448881,"current_range_meters":20800,"station_id":"ce4bgph2rcd13ifvqc2g","pricing_plan_id":"cebpf4jnsgd1na2vs0mg"},{"bike_id":"5a3f9f2f-b26e-4269-b367-16a1b814429c","system_id":"levelo_inurba_marseille","lat":43.2968,"lon":5.37291,"is_reserved":false,"is_disabled":false,"rental_uris":{"android":"levelo://app?vid=5a3f9f2f-b26e-4269-b367-16a1b814429c","ios":"levelo://app?vid=5a3f9f2f-b26e-4269-b367-16a1b814429c"},"vehicle_type_id":"4","last_reported":1717448881,"current_range_meters":11600,"station_id":"ce4bgk12rcd13ifvqbj0","pricing_plan_id":"cebpf4jnsgd1na2vs0mg"},{"bike_id":"6e9fd439-733d-458f-b52d-499e8c625b0d","system_id":"levelo_inurba_marseille","lat":43.296921,"lon":5.376579,"is_reserved":false,"is_disabled":false,"rental_uris":{"android":"levelo://app?vid=6e9fd439-733d-458f-b52d-499e8c625b0d","ios":"levelo://app?vid=6e9fd439-733d-458f-b52d-499e8c625b0d"},"vehicle_type_id":"4","last_reported":1717448881,"current_range_meters":800,"station_id":"ce4bgkh2rcd13ifvqbl0","pricing_plan_id":"cebpf4jnsgd1na2vs0mg"},{"bike_id":"53f47f07-d52f-4326-a491-3f853868beb8","system_id":"levelo_inurba_marseille","lat":43.299028,"lon":5.381509,"is_reserved":false,"is_disabled":false,"rental_uris":{"android":"levelo://app?vid=53f47f07-d52f-4326-a491-3f853868beb8","ios":"levelo://app?vid=53f47f07-d52f-4326-a491-3f853868beb8"},"vehicle_type_id":"4","last_reported":1717448881,"current_range_meters":25600,"station_id":"ce4bgj12rcd13ifvqbc0","pricing_plan_id":"cebpf4jnsgd1na2vs0mg"},{"bike_id":"4186e0d5-a49c-4b0d-b777-55de08ed26c8","system_id":"levelo_inurba_marseille","lat":43.299028,"lon":5.381509,"is_reserved":false,"is_disabled":false,"rental_uris":{"android":"levelo://app?vid=4186e0d5-a49c-4b0d-b777-55de08ed26c8","ios":"levelo://app?vid=4186e0d5-a49c-4b0d-b777-55de08ed26c8"},"vehicle_type_id":"4","last_reported":1717448881,"current_range_meters":12000,"station_id":"ce4bgj12rcd13ifvqbc0","pricing_plan_id":"cebpf4jnsgd1na2vs0mg"},{"bike_id":"c1c7ee25-3221-41a8-b162-967a9971b9c4","system_id":"levelo_inurba_marseille","lat":43.299146,"lon":5.381969,"is_reserved":false,"is_disabled":false,"rental_uris":{"android":"levelo://app?vid=c1c7ee25-3221-41a8-b162-967a9971b9c4","ios":"levelo://app?vid=c1c7ee25-3221-41a8-b162-967a9971b9c4"},"vehicle_type_id":"4","last_reported":1717448881,"current_range_meters":28800,"station_id":"ce4bgj12rcd13ifvqbc0","pricing_plan_id":"cebpf4jnsgd1na2vs0mg"},{"bike_id":"a435af6f-fcc8-4aa4-9cd9-8ab4585ec100","system_id":"levelo_inurba_marseille","lat":43.317557,"lon":5.390173,"is_reserved":false,"is_disabled":false,"rental_uris":{"android":"levelo://app?vid=a435af6f-fcc8-4aa4-9cd9-8ab4585ec100","ios":"levelo://app?vid=a435af6f-fcc8-4aa4-9cd9-8ab4585ec100"},"vehicle_type_id":"4","last_reported":1717448881,"current_range_meters":3600,"station_id":"ce4bhqp2rcd13ifvqhng","pricing_plan_id":"cebpf4jnsgd1na2vs0mg"},{"bike_id":"4220e567-e4b7-45d4-a02f-22e3db8c3610","system_id":"levelo_inurba_marseille","lat":43.31755,"lon":5.39008,"is_reserved":false,"is_disabled":false,"rental_uris":{"android":"levelo://app?vid=4220e567-e4b7-45d4-a02f-22e3db8c3610","ios":"levelo://app?vid=4220e567-e4b7-45d4-a02f-22e3db8c3610"},"vehicle_type_id":"4","last_reported":1717448881,"current_range_meters":0,"station_id":"ce4bhqp2rcd13ifvqhng","pricing_plan_id":"cebpf4jnsgd1na2vs0mg"},{"bike_id":"53f73770-7e22-453d-bfb6-0674642033fc","system_id":"levelo_inurba_marseille","lat":43.317606,"lon":5.390115,"is_reserved":false,"is_disabled":false,"rental_uris":{"android":"levelo://app?vid=53f73770-7e22-453d-bfb6-0674642033fc","ios":"levelo://app?vid=53f73770-7e22-453d-bfb6-0674642033fc"},"vehicle_type_id":"4","last_reported":1717448881,"current_range_meters":13600,"station_id":"ce4bhqp2rcd13ifvqhng","pricing_plan_id":"cebpf4jnsgd1na2vs0mg"},{"bike_id":"79b576e2-76f3-401d-abaa-2a9687754090","system_id":"levelo_inurba_marseille","lat":43.317557,"lon":5.390173,"is_reserved":false,"is_disabled":false,"rental_uris":{"android":"levelo://app?vid=79b576e2-76f3-401d-abaa-2a9687754090","ios":"levelo://app?vid=79b576e2-76f3-401d-abaa-2a9687754090"},"vehicle_type_id":"4","last_reported":1717448881,"current_range_meters":10000,"station_id":"ce4bhqp2rcd13ifvqhng","pricing_plan_id":"cebpf4jnsgd1na2vs0mg"},{"bike_id":"dc248556-4e96-4abe-8c65-14e32a20fc69","system_id":"levelo_inurba_marseille","lat":43.31758,"lon":5.39015,"is_reserved":false,"is_disabled":false,"rental_uris":{"android":"levelo://app?vid=dc248556-4e96-4abe-8c65-14e32a20fc69","ios":"levelo://app?vid=dc248556-4e96-4abe-8c65-14e32a20fc69"},"vehicle_type_id":"4","last_reported":1717448881,"current_range_meters":13600,"station_id":"ce4bhqp2rcd13ifvqhng","pricing_plan_id":"cebpf4jnsgd1na2vs0mg"},{"bike_id":"1b99b27f-85fa-4747-b190-ab8d712e5964","system_id":"levelo_inurba_marseille","lat":43.317557,"lon":5.390173,"is_reserved":false,"is_disabled":false,"rental_uris":{"android":"levelo://app?vid=1b99b27f-85fa-4747-b190-ab8d712e5964","ios":"levelo://app?vid=1b99b27f-85fa-4747-b190-ab8d712e5964"},"vehicle_type_id":"4","last_reported":1717448881,"current_range_meters":20800,"station_id":"ce4bhqp2rcd13ifvqhng","pricing_plan_id":"cebpf4jnsgd1na2vs0mg"},{"bike_id":"aa46cce9-f5d1-4626-93f9-b03368994470","system_id":"levelo_inurba_marseille","lat":43.29718,"lon":5.37879,"is_reserved":false,"is_disabled":false,"rental_uris":{"android":"levelo://app?vid=aa46cce9-f5d1-4626-93f9-b03368994470","ios":"levelo://app?vid=aa46cce9-f5d1-4626-93f9-b03368994470"},"vehicle_type_id":"4","last_reported":1717448881,"current_range_meters":0,"station_id":"","pricing_plan_id":"cebpf4jnsgd1na2vs0mg"},{"bike_id":"ac58c55f-1790-4bad-a059-d5da6c120278","system_id":"levelo_inurba_marseille","lat":43.309111,"lon":5.390921,"is_reserved":false,"is_disabled":false,"rental_uris":{"android":"levelo://app?vid=ac58c55f-1790-4bad-a059-d5da6c120278","ios":"levelo://app?vid=ac58c55f-1790-4bad-a059-d5da6c120278"},"vehicle_type_id":"4","last_reported":1717448881,"current_range_meters":11600,"station_id":"","pricing_plan_id":"cebpf4jnsgd1na2vs0mg"},{"bike_id":"8112fcea-7a07-4780-b293-84bc68f0fddc","system_id":"levelo_inurba_marseille","lat":43.304278,"lon":5.388868,"is_reserved":false,"is_disabled":false,"rental_uris":{"android":"levelo://app?vid=8112fcea-7a07-4780-b293-84bc68f0fddc","ios":"levelo://app?vid=8112fcea-7a07-4780-b293-84bc68f0fddc"},"vehicle_type_id":"4","last_reported":1717448881,"current_range_meters":20400,"station_id":"ce4bgk12rcd13ifvqbi0","pricing_plan_id":"cebpf4jnsgd1na2vs0mg"},{"bike_id":"327d08c0-b03e-4b42-9933-a5c991104af0","system_id":"levelo_inurba_marseille","lat":43.304278,"lon":5.388868,"is_reserved":false,"is_disabled":false,"rental_uris":{"android":"levelo://app?vid=327d08c0-b03e-4b42-9933-a5c991104af0","ios":"levelo://app?vid=327d08c0-b03e-4b42-9933-a5c991104af0"},"vehicle_type_id":"4","last_reported":1717448881,"current_range_meters":31200,"station_id":"ce4bgk12rcd13ifvqbi0","pricing_plan_id":"cebpf4jnsgd1na2vs0mg"},{"bike_id":"f33ce8d1-71e2-4acf-873b-e0700dfa84ba","system_id":"levelo_inurba_marseille","lat":43.304278,"lon":5.388868,"is_reserved":false,"is_disabled":false,"rental_uris":{"android":"levelo://app?vid=f33ce8d1-71e2-4acf-873b-e0700dfa84ba","ios":"levelo://app?vid=f33ce8d1-71e2-4acf-873b-e0700dfa84ba"},"vehicle_type_id":"4","last_reported":1717448881,"current_range_meters":30800,"station_id":"ce4bgk12rcd13ifvqbi0","pricing_plan_id":"cebpf4jnsgd1na2vs0mg"},{"bike_id":"806b1697-a8f8-4488-ac57-08a465451d59","system_id":"levelo_inurba_marseille","lat":43.304278,"lon":5.388868,"is_reserved":false,"is_disabled":false,"rental_uris":{"android":"levelo://app?vid=806b1697-a8f8-4488-ac57-08a465451d59","ios":"levelo://app?vid=806b1697-a8f8-4488-ac57-08a465451d59"},"vehicle_type_id":"4","last_reported":1717448881,"current_range_meters":22000,"station_id":"ce4bgk12rcd13ifvqbi0","pricing_plan_id":"cebpf4jnsgd1na2vs0mg"},{"bike_id":"d027c358-0a1c-477d-9b6c-b92e49dc5642","system_id":"levelo_inurba_marseille","lat":43.304274,"lon":5.388873,"is_reserved":false,"is_disabled":false,"rental_uris":{"android":"levelo://app?vid=d027c358-0a1c-477d-9b6c-b92e49dc5642","ios":"levelo://app?vid=d027c358-0a1c-477d-9b6c-b92e49dc5642"},"vehicle_type_id":"4","last_reported":1717448881,"current_range_meters":22800,"station_id":"ce4bgk12rcd13ifvqbi0","pricing_plan_id":"cebpf4jnsgd1na2vs0mg"},{"bike_id":"c6e7fa69-3a39-430d-b24b-27a785c33cf2","system_id":"levelo_inurba_marseille","lat":43.304278,"lon":5.388868,"is_reserved":false,"is_disabled":false,"rental_uris":{"android":"levelo://app?vid=c6e7fa69-3a39-430d-b24b-27a785c33cf2","ios":"levelo://app?vid=c6e7fa69-3a39-430d-b24b-27a785c33cf2"},"vehicle_type_id":"4","last_reported":1717448881,"current_range_meters":23600,"station_id":"ce4bgk12rcd13ifvqbi0","pricing_plan_id":"cebpf4jnsgd1na2vs0mg"},{"bike_id":"1b010fca-ab02-4c41-8c3d-0a64635a0147","system_id":"levelo_inurba_marseille","lat":43.304274,"lon":5.388873,"is_reserved":false,"is_disabled":false,"rental_uris":{"android":"levelo://app?vid=1b010fca-ab02-4c41-8c3d-0a64635a0147","ios":"levelo://app?vid=1b010fca-ab02-4c41-8c3d-0a64635a0147"},"vehicle_type_id":"4","last_reported":1717448881,"current_range_meters":16800,"station_id":"ce4bgk12rcd13ifvqbi0","pricing_plan_id":"cebpf4jnsgd1na2vs0mg"},{"bike_id":"3e0b3b51-8f2b-49c1-beac-aac7ff7c0b6e","system_id":"levelo_inurba_marseille","lat":43.304274,"lon":5.388873,"is_reserved":false,"is_disabled":false,"rental_uris":{"android":"levelo://app?vid=3e0b3b51-8f2b-49c1-beac-aac7ff7c0b6e","ios":"levelo://app?vid=3e0b3b51-8f2b-49c1-beac-aac7ff7c0b6e"},"vehicle_type_id":"4","last_reported":1717448881,"current_range_meters":26000,"station_id":"ce4bgk12rcd13ifvqbi0","pricing_plan_id":"cebpf4jnsgd1na2vs0mg"},{"bike_id":"26626997-5792-406d-97a0-6fa69948b242","system_id":"levelo_inurba_marseille","lat":43.297271,"lon":5.380024,"is_reserved":false,"is_disabled":false,"rental_uris":{"android":"levelo://app?vid=26626997-5792-406d-97a0-6fa69948b242","ios":"levelo://app?vid=26626997-5792-406d-97a0-6fa69948b242"},"vehicle_type_id":"4","last_reported":1717448881,"current_range_meters":17600,"station_id":"ce4bgvh2rcd13ifvqcs0","pricing_plan_id":"cebpf4jnsgd1na2vs0mg"},{"bike_id":"bba62ce6-e583-4244-9cc7-340fbee098b1","system_id":"levelo_inurba_marseille","lat":43.295299,"lon":5.374513,"is_reserved":false,"is_disabled":false,"rental_uris":{"android":"levelo://app?vid=bba62ce6-e583-4244-9cc7-340fbee098b1","ios":"levelo://app?vid=bba62ce6-e583-4244-9cc7-340fbee098b1"},"vehicle_type_id":"4","last_reported":1717448881,"current_range_meters":0,"station_id":"ce4bgkp2rcd13ifvqbmg","pricing_plan_id":"cebpf4jnsgd1na2vs0mg"},{"bike_id":"37c4cb9d-f72e-419b-850d-787055b10da1","system_id":"levelo_inurba_marseille","lat":43.299755,"lon":5.384698,"is_reserved":false,"is_disabled":false,"rental_uris":{"android":"levelo://app?vid=37c4cb9d-f72e-419b-850d-787055b10da1","ios":"levelo://app?vid=37c4cb9d-f72e-419b-850d-787055b10da1"},"vehicle_type_id":"4","last_reported":1717448881,"current_range_meters":18800,"station_id":"ce4bgj92rcd13ifvqbd0","pricing_plan_id":"cebpf4jnsgd1na2vs0mg"},{"bike_id":"ba9481f5-18f5-4ff3-9143-a54849bd9987","system_id":"levelo_inurba_marseille","lat":43.304278,"lon":5.388868,"is_reserved":false,"is_disabled":false,"rental_uris":{"android":"levelo://app?vid=ba9481f5-18f5-4ff3-9143-a54849bd9987","ios":"levelo://app?vid=ba9481f5-18f5-4ff3-9143-a54849bd9987"},"vehicle_type_id":"4","last_reported":1717448881,"current_range_meters":2000,"station_id":"ce4bgk12rcd13ifvqbi0","pricing_plan_id":"cebpf4jnsgd1na2vs0mg"},{"bike_id":"61ba7a19-d837-4641-940f-89a7802cb5b7","system_id":"levelo_inurba_marseille","lat":43.299724,"lon":5.384848,"is_reserved":false,"is_disabled":false,"rental_uris":{"android":"levelo://app?vid=61ba7a19-d837-4641-940f-89a7802cb5b7","ios":"levelo://app?vid=61ba7a19-d837-4641-940f-89a7802cb5b7"},"vehicle_type_id":"4","last_reported":1717448881,"current_range_meters":11200,"station_id":"ce4bgj92rcd13ifvqbd0","pricing_plan_id":"cebpf4jnsgd1na2vs0mg"},{"bike_id":"06a6853c-e4c2-4603-9ed1-4a9c3e8ef55b","system_id":"levelo_inurba_marseille","lat":43.310401,"lon":5.393054,"is_reserved":false,"is_disabled":false,"rental_uris":{"android":"levelo://app?vid=06a6853c-e4c2-4603-9ed1-4a9c3e8ef55b","ios":"levelo://app?vid=06a6853c-e4c2-4603-9ed1-4a9c3e8ef55b"},"vehicle_type_id":"4","last_reported":1717448881,"current_range_meters":4000,"station_id":"","pricing_plan_id":"cebpf4jnsgd1na2vs0mg"},{"bike_id":"71f65606-1657-4516-b539-d6e5254dceda","system_id":"levelo_inurba_marseille","lat":43.32367,"lon":5.388836,"is_reserved":false,"is_disabled":false,"rental_uris":{"android":"levelo://app?vid=71f65606-1657-4516-b539-d6e5254dceda","ios":"levelo://app?vid=71f65606-1657-4516-b539-d6e5254dceda"},"vehicle_type_id":"4","last_reported":1717448881,"current_range_meters":0,"station_id":"ce4bhqp2rcd13ifvqhog","pricing_plan_id":"cebpf4jnsgd1na2vs0mg"},{"bike_id":"de425594-1d7a-416a-b1f2-5a19978920f0","system_id":"levelo_inurba_marseille","lat":43.32367,"lon":5.38888,"is_reserved":false,"is_disabled":false,"rental_uris":{"android":"levelo://app?vid=de425594-1d7a-416a-b1f2-5a19978920f0","ios":"levelo://app?vid=de425594-1d7a-416a-b1f2-5a19978920f0"},"vehicle_type_id":"4","last_reported":1717448881,"current_range_meters":3600,"station_id":"ce4bhqp2rcd13ifvqhog","pricing_plan_id":"cebpf4jnsgd1na2vs0mg"},{"bike_id":"95310373-a3bc-4266-9cf1-a267850db416","system_id":"levelo_inurba_marseille","lat":43.312025,"lon":5.393684,"is_reserved":false,"is_disabled":false,"rental_uris":{"android":"levelo://app?vid=95310373-a3bc-4266-9cf1-a267850db416","ios":"levelo://app?vid=95310373-a3bc-4266-9cf1-a267850db416"},"vehicle_type_id":"4","last_reported":1717448881,"current_range_meters":6000,"station_id":"","pricing_plan_id":"cebpf4jnsgd1na2vs0mg"},{"bike_id":"06550258-9448-4ed0-a191-b2b99a496791","system_id":"levelo_inurba_marseille","lat":43.304278,"lon":5.388868,"is_reserved":false,"is_disabled":false,"rental_uris":{"android":"levelo://app?vid=06550258-9448-4ed0-a191-b2b99a496791","ios":"levelo://app?vid=06550258-9448-4ed0-a191-b2b99a496791"},"vehicle_type_id":"4","last_reported":1717448881,"current_range_meters":21600,"station_id":"ce4bgk12rcd13ifvqbi0","pricing_plan_id":"cebpf4jnsgd1na2vs0mg"},{"bike_id":"6d9750aa-4c40-4538-8098-d715fc162763","system_id":"levelo_inurba_marseille","lat":43.29602,"lon":5.381084,"is_reserved":false,"is_disabled":false,"rental_uris":{"android":"levelo://app?vid=6d9750aa-4c40-4538-8098-d715fc162763","ios":"levelo://app?vid=6d9750aa-4c40-4538-8098-d715fc162763"},"vehicle_type_id":"4","last_reported":1717448881,"current_range_meters":400,"station_id":"ce4bgl12rcd13ifvqbo0","pricing_plan_id":"cebpf4jnsgd1na2vs0mg"},{"bike_id":"e285a9a0-5db7-494e-b865-2c9afc723195","system_id":"levelo_inurba_marseille","lat":43.311722,"lon":5.387247,"is_reserved":false,"is_disabled":false,"rental_uris":{"android":"levelo://app?vid=e285a9a0-5db7-494e-b865-2c9afc723195","ios":"levelo://app?vid=e285a9a0-5db7-494e-b865-2c9afc723195"},"vehicle_type_id":"4","last_reported":1717448881,"current_range_meters":14800,"station_id":"ce4bgv12rcd13ifvqcp0","pricing_plan_id":"cebpf4jnsgd1na2vs0mg"},{"bike_id":"4fea9c79-552d-40ce-8175-f184a38bf98b","system_id":"levelo_inurba_marseille","lat":43.293259,"lon":5.371586,"is_reserved":false,"is_disabled":false,"rental_uris":{"android":"levelo://app?vid=4fea9c79-552d-40ce-8175-f184a38bf98b","ios":"levelo://app?vid=4fea9c79-552d-40ce-8175-f184a38bf98b"},"vehicle_type_id":"4","last_reported":1717448881,"current_range_meters":18400,"station_id":"ce4bgh92rcd13ifvqb40","pricing_plan_id":"cebpf4jnsgd1na2vs0mg"},{"bike_id":"bd8d4248-5c03-4b15-94e6-d5acb4ffc1b6","system_id":"levelo_inurba_marseille","lat":43.293259,"lon":5.371586,"is_reserved":false,"is_disabled":false,"rental_uris":{"android":"levelo://app?vid=bd8d4248-5c03-4b15-94e6-d5acb4ffc1b6","ios":"levelo://app?vid=bd8d4248-5c03-4b15-94e6-d5acb4ffc1b6"},"vehicle_type_id":"4","last_reported":1717448881,"current_range_meters":4800,"station_id":"ce4bgh92rcd13ifvqb40","pricing_plan_id":"cebpf4jnsgd1na2vs0mg"},{"bike_id":"c8ab17c3-5a43-4a0d-b559-9c547e2a215e","system_id":"levelo_inurba_marseille","lat":43.292749,"lon":5.368398,"is_reserved":false,"is_disabled":false,"rental_uris":{"android":"levelo://app?vid=c8ab17c3-5a43-4a0d-b559-9c547e2a215e","ios":"levelo://app?vid=c8ab17c3-5a43-4a0d-b559-9c547e2a215e"},"vehicle_type_id":"4","last_reported":1717448881,"current_range_meters":7600,"station_id":"ce4bhbp2rcd13ifvqesg","pricing_plan_id":"cebpf4jnsgd1na2vs0mg"},{"bike_id":"ee031974-4c54-4f15-8a94-325d65445f84","system_id":"levelo_inurba_marseille","lat":43.29276,"lon":5.36837,"is_reserved":false,"is_disabled":false,"rental_uris":{"android":"levelo://app?vid=ee031974-4c54-4f15-8a94-325d65445f84","ios":"levelo://app?vid=ee031974-4c54-4f15-8a94-325d65445f84"},"vehicle_type_id":"4","last_reported":1717448881,"current_range_meters":25600,"station_id":"ce4bhbp2rcd13ifvqesg","pricing_plan_id":"cebpf4jnsgd1na2vs0mg"},{"bike_id":"0b61ce06-65d5-477c-991d-4fa326937929","system_id":"levelo_inurba_marseille","lat":43.29274,"lon":5.36838,"is_reserved":false,"is_disabled":false,"rental_uris":{"android":"levelo://app?vid=0b61ce06-65d5-477c-991d-4fa326937929","ios":"levelo://app?vid=0b61ce06-65d5-477c-991d-4fa326937929"},"vehicle_type_id":"4","last_reported":1717448881,"current_range_meters":22800,"station_id":"ce4bhbp2rcd13ifvqesg","pricing_plan_id":"cebpf4jnsgd1na2vs0mg"},{"bike_id":"6c71bc0a-56e0-4714-a147-f9d534e5cbaf","system_id":"levelo_inurba_marseille","lat":43.29274,"lon":5.3684,"is_reserved":false,"is_disabled":false,"rental_uris":{"android":"levelo://app?vid=6c71bc0a-56e0-4714-a147-f9d534e5cbaf","ios":"levelo://app?vid=6c71bc0a-56e0-4714-a147-f9d534e5cbaf"},"vehicle_type_id":"4","last_reported":1717448881,"current_range_meters":31200,"station_id":"ce4bhbp2rcd13ifvqesg","pricing_plan_id":"cebpf4jnsgd1na2vs0mg"},{"bike_id":"cf27302c-3336-43f1-86e2-f1152dc0cd53","system_id":"levelo_inurba_marseille","lat":43.293259,"lon":5.371586,"is_reserved":false,"is_disabled":false,"rental_uris":{"android":"levelo://app?vid=cf27302c-3336-43f1-86e2-f1152dc0cd53","ios":"levelo://app?vid=cf27302c-3336-43f1-86e2-f1152dc0cd53"},"vehicle_type_id":"4","last_reported":1717448881,"current_range_meters":4000,"station_id":"ce4bgh92rcd13ifvqb40","pricing_plan_id":"cebpf4jnsgd1na2vs0mg"},{"bike_id":"9fbfb3dc-2d69-48d8-94f0-b0b56ebeb330","system_id":"levelo_inurba_marseille","lat":43.2927,"lon":5.36836,"is_reserved":false,"is_disabled":false,"rental_uris":{"android":"levelo://app?vid=9fbfb3dc-2d69-48d8-94f0-b0b56ebeb330","ios":"levelo://app?vid=9fbfb3dc-2d69-48d8-94f0-b0b56ebeb330"},"vehicle_type_id":"4","last_reported":1717448881,"current_range_meters":18400,"station_id":"ce4bhbp2rcd13ifvqesg","pricing_plan_id":"cebpf4jnsgd1na2vs0mg"},{"bike_id":"c6592d42-10ef-4c0e-b00d-7f6c569dde70","system_id":"levelo_inurba_marseille","lat":43.292698,"lon":5.368465,"is_reserved":false,"is_disabled":false,"rental_uris":{"android":"levelo://app?vid=c6592d42-10ef-4c0e-b00d-7f6c569dde70","ios":"levelo://app?vid=c6592d42-10ef-4c0e-b00d-7f6c569dde70"},"vehicle_type_id":"4","last_reported":1717448881,"current_range_meters":16000,"station_id":"ce4bhbp2rcd13ifvqesg","pricing_plan_id":"cebpf4jnsgd1na2vs0mg"},{"bike_id":"16b34bb6-c0b7-4a7f-b60b-275469af4922","system_id":"levelo_inurba_marseille","lat":43.29269,"lon":5.36849,"is_reserved":false,"is_disabled":false,"rental_uris":{"android":"levelo://app?vid=16b34bb6-c0b7-4a7f-b60b-275469af4922","ios":"levelo://app?vid=16b34bb6-c0b7-4a7f-b60b-275469af4922"},"vehicle_type_id":"4","last_reported":1717448881,"current_range_meters":31200,"station_id":"ce4bhbp2rcd13ifvqesg","pricing_plan_id":"cebpf4jnsgd1na2vs0mg"},{"bike_id":"f0847c73-529b-4ba4-9927-ec386d04e44e","system_id":"levelo_inurba_marseille","lat":43.29267,"lon":5.36843,"is_reserved":false,"is_disabled":false,"rental_uris":{"android":"levelo://app?vid=f0847c73-529b-4ba4-9927-ec386d04e44e","ios":"levelo://app?vid=f0847c73-529b-4ba4-9927-ec386d04e44e"},"vehicle_type_id":"4","last_reported":1717448881,"current_range_meters":12400,"station_id":"ce4bhbp2rcd13ifvqesg","pricing_plan_id":"cebpf4jnsgd1na2vs0mg"},{"bike_id":"8e8497c9-3957-4e26-919e-bd4b34ae9bd8","system_id":"levelo_inurba_marseille","lat":43.305994,"lon":5.393687,"is_reserved":false,"is_disabled":false,"rental_uris":{"android":"levelo://app?vid=8e8497c9-3957-4e26-919e-bd4b34ae9bd8","ios":"levelo://app?vid=8e8497c9-3957-4e26-919e-bd4b34ae9bd8"},"vehicle_type_id":"4","last_reported":1717448881,"current_range_meters":17600,"station_id":"ce4bh0p2rcd13ifvqd80","pricing_plan_id":"cebpf4jnsgd1na2vs0mg"},{"bike_id":"66a7563b-9b59-485b-8957-93a82aa8f39a","system_id":"levelo_inurba_marseille","lat":43.305994,"lon":5.393687,"is_reserved":false,"is_disabled":false,"rental_uris":{"android":"levelo://app?vid=66a7563b-9b59-485b-8957-93a82aa8f39a","ios":"levelo://app?vid=66a7563b-9b59-485b-8957-93a82aa8f39a"},"vehicle_type_id":"4","last_reported":1717448881,"current_range_meters":11200,"station_id":"ce4bh0p2rcd13ifvqd80","pricing_plan_id":"cebpf4jnsgd1na2vs0mg"},{"bike_id":"4bc0fcab-2612-4191-b20c-ae22679d9634","system_id":"levelo_inurba_marseille","lat":43.305994,"lon":5.393687,"is_reserved":false,"is_disabled":false,"rental_uris":{"android":"levelo://app?vid=4bc0fcab-2612-4191-b20c-ae22679d9634","ios":"levelo://app?vid=4bc0fcab-2612-4191-b20c-ae22679d9634"},"vehicle_type_id":"4","last_reported":1717448881,"current_range_meters":10000,"station_id":"ce4bh0p2rcd13ifvqd80","pricing_plan_id":"cebpf4jnsgd1na2vs0mg"},{"bike_id":"e786aefc-a2f0-41de-bee1-52dcf1dfa117","system_id":"levelo_inurba_marseille","lat":43.302992,"lon":5.392136,"is_reserved":false,"is_disabled":false,"rental_uris":{"android":"levelo://app?vid=e786aefc-a2f0-41de-bee1-52dcf1dfa117","ios":"levelo://app?vid=e786aefc-a2f0-41de-bee1-52dcf1dfa117"},"vehicle_type_id":"4","last_reported":1717448881,"current_range_meters":1200,"station_id":"ce4bgkh2rcd13ifvqbk0","pricing_plan_id":"cebpf4jnsgd1na2vs0mg"},{"bike_id":"46be3d50-efdb-4771-a209-e623214acee8","system_id":"levelo_inurba_marseille","lat":43.303002,"lon":5.392142,"is_reserved":false,"is_disabled":false,"rental_uris":{"android":"levelo://app?vid=46be3d50-efdb-4771-a209-e623214acee8","ios":"levelo://app?vid=46be3d50-efdb-4771-a209-e623214acee8"},"vehicle_type_id":"4","last_reported":1717448881,"current_range_meters":22800,"station_id":"ce4bgkh2rcd13ifvqbk0","pricing_plan_id":"cebpf4jnsgd1na2vs0mg"},{"bike_id":"bb1dae92-1034-4867-9810-1173ee9158f1","system_id":"levelo_inurba_marseille","lat":43.293714,"lon":5.378475,"is_reserved":false,"is_disabled":false,"rental_uris":{"android":"levelo://app?vid=bb1dae92-1034-4867-9810-1173ee9158f1","ios":"levelo://app?vid=bb1dae92-1034-4867-9810-1173ee9158f1"},"vehicle_type_id":"4","last_reported":1717448881,"current_range_meters":0,"station_id":"","pricing_plan_id":"cebpf4jnsgd1na2vs0mg"},{"bike_id":"2819e542-9192-422c-8b84-2e1e03b5ac55","system_id":"levelo_inurba_marseille","lat":43.300724,"lon":5.390334,"is_reserved":false,"is_disabled":false,"rental_uris":{"android":"levelo://app?vid=2819e542-9192-422c-8b84-2e1e03b5ac55","ios":"levelo://app?vid=2819e542-9192-422c-8b84-2e1e03b5ac55"},"vehicle_type_id":"4","last_reported":1717448881,"current_range_meters":22800,"station_id":"ce4bh192rcd13ifvqdb0","pricing_plan_id":"cebpf4jnsgd1na2vs0mg"},{"bike_id":"fd96fef2-3f3f-4aae-91e6-cb5e5c684ad4","system_id":"levelo_inurba_marseille","lat":43.30337,"lon":5.39252,"is_reserved":false,"is_disabled":false,"rental_uris":{"android":"levelo://app?vid=fd96fef2-3f3f-4aae-91e6-cb5e5c684ad4","ios":"levelo://app?vid=fd96fef2-3f3f-4aae-91e6-cb5e5c684ad4"},"vehicle_type_id":"4","last_reported":1717448881,"current_range_meters":8000,"station_id":"","pricing_plan_id":"cebpf4jnsgd1na2vs0mg"},{"bike_id":"cd1de856-4d88-4e90-b771-3c4d588f4b36","system_id":"levelo_inurba_marseille","lat":43.300891,"lon":5.390707,"is_reserved":false,"is_disabled":false,"rental_uris":{"android":"levelo://app?vid=cd1de856-4d88-4e90-b771-3c4d588f4b36","ios":"levelo://app?vid=cd1de856-4d88-4e90-b771-3c4d588f4b36"},"vehicle_type_id":"4","last_reported":1717448881,"current_range_meters":4000,"station_id":"ce4bh192rcd13ifvqdb0","pricing_plan_id":"cebpf4jnsgd1na2vs0mg"},{"bike_id":"cd540f56-c6d8-43db-82e6-8e924ed8a7bd","system_id":"levelo_inurba_marseille","lat":43.300934,"lon":5.390755,"is_reserved":false,"is_disabled":false,"rental_uris":{"android":"levelo://app?vid=cd540f56-c6d8-43db-82e6-8e924ed8a7bd","ios":"levelo://app?vid=cd540f56-c6d8-43db-82e6-8e924ed8a7bd"},"vehicle_type_id":"4","last_reported":1717448881,"current_range_meters":17600,"station_id":"ce4bh192rcd13ifvqdb0","pricing_plan_id":"cebpf4jnsgd1na2vs0mg"},{"bike_id":"fde8d6df-a904-4fb9-9eab-9ee873bb8819","system_id":"levelo_inurba_marseille","lat":43.30092,"lon":5.390746,"is_reserved":false,"is_disabled":false,"rental_uris":{"android":"levelo://app?vid=fde8d6df-a904-4fb9-9eab-9ee873bb8819","ios":"levelo://app?vid=fde8d6df-a904-4fb9-9eab-9ee873bb8819"},"vehicle_type_id":"4","last_reported":1717448881,"current_range_meters":6400,"station_id":"ce4bh192rcd13ifvqdb0","pricing_plan_id":"cebpf4jnsgd1na2vs0mg"},{"bike_id":"17d19355-f4e9-4b79-8510-17ead31d78d1","system_id":"levelo_inurba_marseille","lat":43.300886,"lon":5.390752,"is_reserved":false,"is_disabled":false,"rental_uris":{"android":"levelo://app?vid=17d19355-f4e9-4b79-8510-17ead31d78d1","ios":"levelo://app?vid=17d19355-f4e9-4b79-8510-17ead31d78d1"},"vehicle_type_id":"4","last_reported":1717448881,"current_range_meters":23200,"station_id":"ce4bh192rcd13ifvqdb0","pricing_plan_id":"cebpf4jnsgd1na2vs0mg"},{"bike_id":"a30d97d5-a174-429f-ac1a-a954326f069c","system_id":"levelo_inurba_marseille","lat":43.301085,"lon":5.391226,"is_reserved":false,"is_disabled":false,"rental_uris":{"android":"levelo://app?vid=a30d97d5-a174-429f-ac1a-a954326f069c","ios":"levelo://app?vid=a30d97d5-a174-429f-ac1a-a954326f069c"},"vehicle_type_id":"4","last_reported":1717448881,"current_range_meters":0,"station_id":"ce4bh192rcd13ifvqdb0","pricing_plan_id":"cebpf4jnsgd1na2vs0mg"},{"bike_id":"5d5cfbbc-b910-482d-b725-2aa568ba9cd8","system_id":"levelo_inurba_marseille","lat":43.301117,"lon":5.398795,"is_reserved":false,"is_disabled":false,"rental_uris":{"android":"levelo://app?vid=5d5cfbbc-b910-482d-b725-2aa568ba9cd8","ios":"levelo://app?vid=5d5cfbbc-b910-482d-b725-2aa568ba9cd8"},"vehicle_type_id":"4","last_reported":1717448881,"current_range_meters":8800,"station_id":"ce4bh0h2rcd13ifvqd40","pricing_plan_id":"cebpf4jnsgd1na2vs0mg"},{"bike_id":"c118501b-690c-412e-a083-04832a3f2e0b","system_id":"levelo_inurba_marseille","lat":43.291675,"lon":5.371583,"is_reserved":false,"is_disabled":false,"rental_uris":{"android":"levelo://app?vid=c118501b-690c-412e-a083-04832a3f2e0b","ios":"levelo://app?vid=c118501b-690c-412e-a083-04832a3f2e0b"},"vehicle_type_id":"4","last_reported":1717448881,"current_range_meters":15200,"station_id":"ce4bha92rcd13ifvqeh0","pricing_plan_id":"cebpf4jnsgd1na2vs0mg"},{"bike_id":"dc68e4d7-30ce-4d08-9aff-312acaa43c57","system_id":"levelo_inurba_marseille","lat":43.298764,"lon":5.388973,"is_reserved":false,"is_disabled":false,"rental_uris":{"android":"levelo://app?vid=dc68e4d7-30ce-4d08-9aff-312acaa43c57","ios":"levelo://app?vid=dc68e4d7-30ce-4d08-9aff-312acaa43c57"},"vehicle_type_id":"4","last_reported":1717448881,"current_range_meters":12000,"station_id":"ce4bh392rcd13ifvqdl0","pricing_plan_id":"cebpf4jnsgd1na2vs0mg"},{"bike_id":"7e7897af-c3ab-4e6a-8f87-72b3326341ab","system_id":"levelo_inurba_marseille","lat":43.298764,"lon":5.388973,"is_reserved":false,"is_disabled":false,"rental_uris":{"android":"levelo://app?vid=7e7897af-c3ab-4e6a-8f87-72b3326341ab","ios":"levelo://app?vid=7e7897af-c3ab-4e6a-8f87-72b3326341ab"},"vehicle_type_id":"4","last_reported":1717448881,"current_range_meters":28800,"station_id":"ce4bh392rcd13ifvqdl0","pricing_plan_id":"cebpf4jnsgd1na2vs0mg"},{"bike_id":"708bb6f1-2861-4e6f-b684-af38dba1ff99","system_id":"levelo_inurba_marseille","lat":43.291671,"lon":5.371575,"is_reserved":false,"is_disabled":false,"rental_uris":{"android":"levelo://app?vid=708bb6f1-2861-4e6f-b684-af38dba1ff99","ios":"levelo://app?vid=708bb6f1-2861-4e6f-b684-af38dba1ff99"},"vehicle_type_id":"4","last_reported":1717448881,"current_range_meters":15600,"station_id":"ce4bha92rcd13ifvqeh0","pricing_plan_id":"cebpf4jnsgd1na2vs0mg"},{"bike_id":"7d6f6b7f-ac2b-4865-91c0-d136be56d7cc","system_id":"levelo_inurba_marseille","lat":43.29869,"lon":5.38921,"is_reserved":false,"is_disabled":false,"rental_uris":{"android":"levelo://app?vid=7d6f6b7f-ac2b-4865-91c0-d136be56d7cc","ios":"levelo://app?vid=7d6f6b7f-ac2b-4865-91c0-d136be56d7cc"},"vehicle_type_id":"4","last_reported":1717448881,"current_range_meters":29600,"station_id":"ce4bh392rcd13ifvqdl0","pricing_plan_id":"cebpf4jnsgd1na2vs0mg"},{"bike_id":"c709f633-cb42-43fa-a71d-e7ce81c68d57","system_id":"levelo_inurba_marseille","lat":43.313291,"lon":5.396838,"is_reserved":false,"is_disabled":false,"rental_uris":{"android":"levelo://app?vid=c709f633-cb42-43fa-a71d-e7ce81c68d57","ios":"levelo://app?vid=c709f633-cb42-43fa-a71d-e7ce81c68d57"},"vehicle_type_id":"4","last_reported":1717448881,"current_range_meters":26800,"station_id":"ce4bgvp2rcd13ifvqcu0","pricing_plan_id":"cebpf4jnsgd1na2vs0mg"},{"bike_id":"eb6887a5-2f2a-429b-b1ba-af0867c28cf3","system_id":"levelo_inurba_marseille","lat":43.309047,"lon":5.396551,"is_reserved":false,"is_disabled":false,"rental_uris":{"android":"levelo://app?vid=eb6887a5-2f2a-429b-b1ba-af0867c28cf3","ios":"levelo://app?vid=eb6887a5-2f2a-429b-b1ba-af0867c28cf3"},"vehicle_type_id":"4","last_reported":1717448881,"current_range_meters":2400,"station_id":"ce4bh012rcd13ifvqcv0","pricing_plan_id":"cebpf4jnsgd1na2vs0mg"},{"bike_id":"9a05deb0-0d4a-4497-b588-e6f9b4198bda","system_id":"levelo_inurba_marseille","lat":43.291994,"lon":5.357886,"is_reserved":false,"is_disabled":false,"rental_uris":{"android":"levelo://app?vid=9a05deb0-0d4a-4497-b588-e6f9b4198bda","ios":"levelo://app?vid=9a05deb0-0d4a-4497-b588-e6f9b4198bda"},"vehicle_type_id":"4","last_reported":1717448881,"current_range_meters":31200,"station_id":"ce4bhb12rcd13ifvqel0","pricing_plan_id":"cebpf4jnsgd1na2vs0mg"},{"bike_id":"fd58661c-9b46-4691-a6b2-9fbed91972d8","system_id":"levelo_inurba_marseille","lat":43.309038,"lon":5.396546,"is_reserved":false,"is_disabled":false,"rental_uris":{"android":"levelo://app?vid=fd58661c-9b46-4691-a6b2-9fbed91972d8","ios":"levelo://app?vid=fd58661c-9b46-4691-a6b2-9fbed91972d8"},"vehicle_type_id":"4","last_reported":1717448881,"current_range_meters":11200,"station_id":"ce4bh012rcd13ifvqcv0","pricing_plan_id":"cebpf4jnsgd1na2vs0mg"},{"bike_id":"1c6e0d38-439a-4469-8929-169da8bfaeb8","system_id":"levelo_inurba_marseille","lat":43.309047,"lon":5.396551,"is_reserved":false,"is_disabled":false,"rental_uris":{"android":"levelo://app?vid=1c6e0d38-439a-4469-8929-169da8bfaeb8","ios":"levelo://app?vid=1c6e0d38-439a-4469-8929-169da8bfaeb8"},"vehicle_type_id":"4","last_reported":1717448881,"current_range_meters":0,"station_id":"ce4bh012rcd13ifvqcv0","pricing_plan_id":"cebpf4jnsgd1na2vs0mg"},{"bike_id":"01c3de49-38ae-4867-89b6-06ffde7a1adf","system_id":"levelo_inurba_marseille","lat":43.313291,"lon":5.396838,"is_reserved":false,"is_disabled":false,"rental_uris":{"android":"levelo://app?vid=01c3de49-38ae-4867-89b6-06ffde7a1adf","ios":"levelo://app?vid=01c3de49-38ae-4867-89b6-06ffde7a1adf"},"vehicle_type_id":"4","last_reported":1717448881,"current_range_meters":800,"station_id":"ce4bgvp2rcd13ifvqcu0","pricing_plan_id":"cebpf4jnsgd1na2vs0mg"},{"bike_id":"b811fbac-ad93-44e7-b6ce-80d6d8e10cf0","system_id":"levelo_inurba_marseille","lat":43.313291,"lon":5.396838,"is_reserved":false,"is_disabled":false,"rental_uris":{"android":"levelo://app?vid=b811fbac-ad93-44e7-b6ce-80d6d8e10cf0","ios":"levelo://app?vid=b811fbac-ad93-44e7-b6ce-80d6d8e10cf0"},"vehicle_type_id":"4","last_reported":1717448881,"current_range_meters":31600,"station_id":"ce4bgvp2rcd13ifvqcu0","pricing_plan_id":"cebpf4jnsgd1na2vs0mg"},{"bike_id":"04d390bb-df88-4050-b396-f9ba4a6ee525","system_id":"levelo_inurba_marseille","lat":43.309038,"lon":5.396546,"is_reserved":false,"is_disabled":false,"rental_uris":{"android":"levelo://app?vid=04d390bb-df88-4050-b396-f9ba4a6ee525","ios":"levelo://app?vid=04d390bb-df88-4050-b396-f9ba4a6ee525"},"vehicle_type_id":"4","last_reported":1717448881,"current_range_meters":17600,"station_id":"ce4bh012rcd13ifvqcv0","pricing_plan_id":"cebpf4jnsgd1na2vs0mg"},{"bike_id":"ac64f0d5-1305-4cf1-aadc-f260dd34d46a","system_id":"levelo_inurba_marseille","lat":43.31321,"lon":5.39686,"is_reserved":false,"is_disabled":false,"rental_uris":{"android":"levelo://app?vid=ac64f0d5-1305-4cf1-aadc-f260dd34d46a","ios":"levelo://app?vid=ac64f0d5-1305-4cf1-aadc-f260dd34d46a"},"vehicle_type_id":"4","last_reported":1717448881,"current_range_meters":15600,"station_id":"ce4bgvp2rcd13ifvqcu0","pricing_plan_id":"cebpf4jnsgd1na2vs0mg"},{"bike_id":"d1655a8a-4ec7-4159-87f1-93f0a9200b52","system_id":"levelo_inurba_marseille","lat":43.313291,"lon":5.396838,"is_reserved":false,"is_disabled":false,"rental_uris":{"android":"levelo://app?vid=d1655a8a-4ec7-4159-87f1-93f0a9200b52","ios":"levelo://app?vid=d1655a8a-4ec7-4159-87f1-93f0a9200b52"},"vehicle_type_id":"4","last_reported":1717448881,"current_range_meters":2400,"station_id":"ce4bgvp2rcd13ifvqcu0","pricing_plan_id":"cebpf4jnsgd1na2vs0mg"},{"bike_id":"118b3a26-7f1a-4843-9d54-9e4a30a6ab9a","system_id":"levelo_inurba_marseille","lat":43.31311,"lon":5.39687,"is_reserved":false,"is_disabled":false,"rental_uris":{"android":"levelo://app?vid=118b3a26-7f1a-4843-9d54-9e4a30a6ab9a","ios":"levelo://app?vid=118b3a26-7f1a-4843-9d54-9e4a30a6ab9a"},"vehicle_type_id":"4","last_reported":1717448881,"current_range_meters":400,"station_id":"ce4bgvp2rcd13ifvqcu0","pricing_plan_id":"cebpf4jnsgd1na2vs0mg"},{"bike_id":"f89cf5a0-b418-472d-bd8d-29861d624f4c","system_id":"levelo_inurba_marseille","lat":43.31325,"lon":5.39689,"is_reserved":false,"is_disabled":false,"rental_uris":{"android":"levelo://app?vid=f89cf5a0-b418-472d-bd8d-29861d624f4c","ios":"levelo://app?vid=f89cf5a0-b418-472d-bd8d-29861d624f4c"},"vehicle_type_id":"4","last_reported":1717448881,"current_range_meters":14400,"station_id":"ce4bgvp2rcd13ifvqcu0","pricing_plan_id":"cebpf4jnsgd1na2vs0mg"},{"bike_id":"73f82608-dfc8-44f3-830a-381798b4cdad","system_id":"levelo_inurba_marseille","lat":43.31328,"lon":5.3969,"is_reserved":false,"is_disabled":false,"rental_uris":{"android":"levelo://app?vid=73f82608-dfc8-44f3-830a-381798b4cdad","ios":"levelo://app?vid=73f82608-dfc8-44f3-830a-381798b4cdad"},"vehicle_type_id":"4","last_reported":1717448881,"current_range_meters":2400,"station_id":"ce4bgvp2rcd13ifvqcu0","pricing_plan_id":"cebpf4jnsgd1na2vs0mg"},{"bike_id":"1f649f26-1066-4a5f-ad2e-53a05de859b4","system_id":"levelo_inurba_marseille","lat":43.31335,"lon":5.3969,"is_reserved":false,"is_disabled":false,"rental_uris":{"android":"levelo://app?vid=1f649f26-1066-4a5f-ad2e-53a05de859b4","ios":"levelo://app?vid=1f649f26-1066-4a5f-ad2e-53a05de859b4"},"vehicle_type_id":"4","last_reported":1717448881,"current_range_meters":22800,"station_id":"ce4bgvp2rcd13ifvqcu0","pricing_plan_id":"cebpf4jnsgd1na2vs0mg"},{"bike_id":"d864516c-2941-4b0b-80a4-32b5646db76f","system_id":"levelo_inurba_marseille","lat":43.309047,"lon":5.396551,"is_reserved":false,"is_disabled":false,"rental_uris":{"android":"levelo://app?vid=d864516c-2941-4b0b-80a4-32b5646db76f","ios":"levelo://app?vid=d864516c-2941-4b0b-80a4-32b5646db76f"},"vehicle_type_id":"4","last_reported":1717448881,"current_range_meters":16400,"station_id":"ce4bh012rcd13ifvqcv0","pricing_plan_id":"cebpf4jnsgd1na2vs0mg"},{"bike_id":"5cb95b48-0a4d-4ff5-8f5d-2e4e9361d1c4","system_id":"levelo_inurba_marseille","lat":43.309047,"lon":5.396551,"is_reserved":false,"is_disabled":false,"rental_uris":{"android":"levelo://app?vid=5cb95b48-0a4d-4ff5-8f5d-2e4e9361d1c4","ios":"levelo://app?vid=5cb95b48-0a4d-4ff5-8f5d-2e4e9361d1c4"},"vehicle_type_id":"4","last_reported":1717448881,"current_range_meters":8800,"station_id":"ce4bh012rcd13ifvqcv0","pricing_plan_id":"cebpf4jnsgd1na2vs0mg"},{"bike_id":"bf838e39-c0b6-433f-8f23-379c6999f64c","system_id":"levelo_inurba_marseille","lat":43.31328,"lon":5.39694,"is_reserved":false,"is_disabled":false,"rental_uris":{"android":"levelo://app?vid=bf838e39-c0b6-433f-8f23-379c6999f64c","ios":"levelo://app?vid=bf838e39-c0b6-433f-8f23-379c6999f64c"},"vehicle_type_id":"4","last_reported":1717448881,"current_range_meters":2000,"station_id":"ce4bgvp2rcd13ifvqcu0","pricing_plan_id":"cebpf4jnsgd1na2vs0mg"},{"bike_id":"12f59f1f-766a-429e-98d9-e6640ff29335","system_id":"levelo_inurba_marseille","lat":43.313291,"lon":5.396838,"is_reserved":false,"is_disabled":false,"rental_uris":{"android":"levelo://app?vid=12f59f1f-766a-429e-98d9-e6640ff29335","ios":"levelo://app?vid=12f59f1f-766a-429e-98d9-e6640ff29335"},"vehicle_type_id":"4","last_reported":1717448881,"current_range_meters":20800,"station_id":"ce4bgvp2rcd13ifvqcu0","pricing_plan_id":"cebpf4jnsgd1na2vs0mg"},{"bike_id":"af2ab395-fe1f-4ef1-98af-c3e410cc9582","system_id":"levelo_inurba_marseille","lat":43.309047,"lon":5.396551,"is_reserved":false,"is_disabled":false,"rental_uris":{"android":"levelo://app?vid=af2ab395-fe1f-4ef1-98af-c3e410cc9582","ios":"levelo://app?vid=af2ab395-fe1f-4ef1-98af-c3e410cc9582"},"vehicle_type_id":"4","last_reported":1717448881,"current_range_meters":10400,"station_id":"ce4bh012rcd13ifvqcv0","pricing_plan_id":"cebpf4jnsgd1na2vs0mg"},{"bike_id":"8374be2a-8d76-4ad0-930c-e746e8710a99","system_id":"levelo_inurba_marseille","lat":43.30887,"lon":5.3965,"is_reserved":false,"is_disabled":false,"rental_uris":{"android":"levelo://app?vid=8374be2a-8d76-4ad0-930c-e746e8710a99","ios":"levelo://app?vid=8374be2a-8d76-4ad0-930c-e746e8710a99"},"vehicle_type_id":"4","last_reported":1717448881,"current_range_meters":7600,"station_id":"ce4bh012rcd13ifvqcv0","pricing_plan_id":"cebpf4jnsgd1na2vs0mg"},{"bike_id":"b0e62f19-cfd5-4a7f-a809-aa2f15fd2665","system_id":"levelo_inurba_marseille","lat":43.309047,"lon":5.396551,"is_reserved":false,"is_disabled":false,"rental_uris":{"android":"levelo://app?vid=b0e62f19-cfd5-4a7f-a809-aa2f15fd2665","ios":"levelo://app?vid=b0e62f19-cfd5-4a7f-a809-aa2f15fd2665"},"vehicle_type_id":"4","last_reported":1717448881,"current_range_meters":19200,"station_id":"ce4bh012rcd13ifvqcv0","pricing_plan_id":"cebpf4jnsgd1na2vs0mg"},{"bike_id":"9cfdac46-0bd4-435a-93b3-81a97fd9c45a","system_id":"levelo_inurba_marseille","lat":43.313291,"lon":5.396838,"is_reserved":false,"is_disabled":false,"rental_uris":{"android":"levelo://app?vid=9cfdac46-0bd4-435a-93b3-81a97fd9c45a","ios":"levelo://app?vid=9cfdac46-0bd4-435a-93b3-81a97fd9c45a"},"vehicle_type_id":"4","last_reported":1717448881,"current_range_meters":9600,"station_id":"ce4bgvp2rcd13ifvqcu0","pricing_plan_id":"cebpf4jnsgd1na2vs0mg"},{"bike_id":"3e58cec3-a0a2-4a13-97e6-4c773d54aeb4","system_id":"levelo_inurba_marseille","lat":43.309047,"lon":5.396551,"is_reserved":false,"is_disabled":false,"rental_uris":{"android":"levelo://app?vid=3e58cec3-a0a2-4a13-97e6-4c773d54aeb4","ios":"levelo://app?vid=3e58cec3-a0a2-4a13-97e6-4c773d54aeb4"},"vehicle_type_id":"4","last_reported":1717448881,"current_range_meters":12800,"station_id":"ce4bh012rcd13ifvqcv0","pricing_plan_id":"cebpf4jnsgd1na2vs0mg"},{"bike_id":"3f1488db-aea7-4a6c-a1d9-ca00806c9427","system_id":"levelo_inurba_marseille","lat":43.309047,"lon":5.396551,"is_reserved":false,"is_disabled":false,"rental_uris":{"android":"levelo://app?vid=3f1488db-aea7-4a6c-a1d9-ca00806c9427","ios":"levelo://app?vid=3f1488db-aea7-4a6c-a1d9-ca00806c9427"},"vehicle_type_id":"4","last_reported":1717448881,"current_range_meters":13200,"station_id":"ce4bh012rcd13ifvqcv0","pricing_plan_id":"cebpf4jnsgd1na2vs0mg"},{"bike_id":"4aead0e3-e6c0-496d-bbef-a51036caf977","system_id":"levelo_inurba_marseille","lat":43.31324,"lon":5.39699,"is_reserved":false,"is_disabled":false,"rental_uris":{"android":"levelo://app?vid=4aead0e3-e6c0-496d-bbef-a51036caf977","ios":"levelo://app?vid=4aead0e3-e6c0-496d-bbef-a51036caf977"},"vehicle_type_id":"4","last_reported":1717448881,"current_range_meters":3600,"station_id":"ce4bgvp2rcd13ifvqcu0","pricing_plan_id":"cebpf4jnsgd1na2vs0mg"},{"bike_id":"4d3c82a3-c6c6-4d5c-a61a-301f82f9bcdc","system_id":"levelo_inurba_marseille","lat":43.313291,"lon":5.396838,"is_reserved":false,"is_disabled":false,"rental_uris":{"android":"levelo://app?vid=4d3c82a3-c6c6-4d5c-a61a-301f82f9bcdc","ios":"levelo://app?vid=4d3c82a3-c6c6-4d5c-a61a-301f82f9bcdc"},"vehicle_type_id":"4","last_reported":1717448881,"current_range_meters":28000,"station_id":"ce4bgvp2rcd13ifvqcu0","pricing_plan_id":"cebpf4jnsgd1na2vs0mg"},{"bike_id":"a456f48f-aeca-403d-840a-560c5ab5617d","system_id":"levelo_inurba_marseille","lat":43.309038,"lon":5.396546,"is_reserved":false,"is_disabled":false,"rental_uris":{"android":"levelo://app?vid=a456f48f-aeca-403d-840a-560c5ab5617d","ios":"levelo://app?vid=a456f48f-aeca-403d-840a-560c5ab5617d"},"vehicle_type_id":"4","last_reported":1717448881,"current_range_meters":30000,"station_id":"ce4bh012rcd13ifvqcv0","pricing_plan_id":"cebpf4jnsgd1na2vs0mg"},{"bike_id":"c7921734-443a-442d-af35-a1cbe20325ed","system_id":"levelo_inurba_marseille","lat":43.313291,"lon":5.396838,"is_reserved":false,"is_disabled":false,"rental_uris":{"android":"levelo://app?vid=c7921734-443a-442d-af35-a1cbe20325ed","ios":"levelo://app?vid=c7921734-443a-442d-af35-a1cbe20325ed"},"vehicle_type_id":"4","last_reported":1717448881,"current_range_meters":11600,"station_id":"ce4bgvp2rcd13ifvqcu0","pricing_plan_id":"cebpf4jnsgd1na2vs0mg"},{"bike_id":"7f6d0815-4021-48e7-ab9e-a3713949869e","system_id":"levelo_inurba_marseille","lat":43.313125,"lon":5.39706,"is_reserved":false,"is_disabled":false,"rental_uris":{"android":"levelo://app?vid=7f6d0815-4021-48e7-ab9e-a3713949869e","ios":"levelo://app?vid=7f6d0815-4021-48e7-ab9e-a3713949869e"},"vehicle_type_id":"4","last_reported":1717448881,"current_range_meters":22400,"station_id":"ce4bgvp2rcd13ifvqcu0","pricing_plan_id":"cebpf4jnsgd1na2vs0mg"},{"bike_id":"8cb64a12-817f-40fc-a192-b20dff021021","system_id":"levelo_inurba_marseille","lat":43.29529,"lon":5.385581,"is_reserved":false,"is_disabled":false,"rental_uris":{"android":"levelo://app?vid=8cb64a12-817f-40fc-a192-b20dff021021","ios":"levelo://app?vid=8cb64a12-817f-40fc-a192-b20dff021021"},"vehicle_type_id":"4","last_reported":1717448881,"current_range_meters":0,"station_id":"ce4bgih2rcd13ifvqba0","pricing_plan_id":"cebpf4jnsgd1na2vs0mg"},{"bike_id":"f67eb1bc-31a8-4478-9bd8-6ec8c83fbf7e","system_id":"levelo_inurba_marseille","lat":43.29529,"lon":5.385581,"is_reserved":false,"is_disabled":false,"rental_uris":{"android":"levelo://app?vid=f67eb1bc-31a8-4478-9bd8-6ec8c83fbf7e","ios":"levelo://app?vid=f67eb1bc-31a8-4478-9bd8-6ec8c83fbf7e"},"vehicle_type_id":"4","last_reported":1717448881,"current_range_meters":26800,"station_id":"ce4bgih2rcd13ifvqba0","pricing_plan_id":"cebpf4jnsgd1na2vs0mg"},{"bike_id":"5808cbfe-93db-498b-ab2e-eca7c1c145d5","system_id":"levelo_inurba_marseille","lat":43.29529,"lon":5.385581,"is_reserved":false,"is_disabled":false,"rental_uris":{"android":"levelo://app?vid=5808cbfe-93db-498b-ab2e-eca7c1c145d5","ios":"levelo://app?vid=5808cbfe-93db-498b-ab2e-eca7c1c145d5"},"vehicle_type_id":"4","last_reported":1717448881,"current_range_meters":25600,"station_id":"ce4bgih2rcd13ifvqba0","pricing_plan_id":"cebpf4jnsgd1na2vs0mg"},{"bike_id":"1bf04f4c-9cd1-45b1-aca2-106242ec17ea","system_id":"levelo_inurba_marseille","lat":43.29529,"lon":5.385581,"is_reserved":false,"is_disabled":false,"rental_uris":{"android":"levelo://app?vid=1bf04f4c-9cd1-45b1-aca2-106242ec17ea","ios":"levelo://app?vid=1bf04f4c-9cd1-45b1-aca2-106242ec17ea"},"vehicle_type_id":"4","last_reported":1717448881,"current_range_meters":28400,"station_id":"ce4bgih2rcd13ifvqba0","pricing_plan_id":"cebpf4jnsgd1na2vs0mg"},{"bike_id":"456e8f1d-7bea-4ad0-bf3e-5dfc25b738b2","system_id":"levelo_inurba_marseille","lat":43.302008,"lon":5.394694,"is_reserved":false,"is_disabled":false,"rental_uris":{"android":"levelo://app?vid=456e8f1d-7bea-4ad0-bf3e-5dfc25b738b2","ios":"levelo://app?vid=456e8f1d-7bea-4ad0-bf3e-5dfc25b738b2"},"vehicle_type_id":"4","last_reported":1717448881,"current_range_meters":12400,"station_id":"ce4bh0p2rcd13ifvqd70","pricing_plan_id":"cebpf4jnsgd1na2vs0mg"},{"bike_id":"970e6d41-56f8-455b-8448-2619213be576","system_id":"levelo_inurba_marseille","lat":43.29095,"lon":5.37636,"is_reserved":false,"is_disabled":false,"rental_uris":{"android":"levelo://app?vid=970e6d41-56f8-455b-8448-2619213be576","ios":"levelo://app?vid=970e6d41-56f8-455b-8448-2619213be576"},"vehicle_type_id":"4","last_reported":1717448881,"current_range_meters":800,"station_id":"","pricing_plan_id":"cebpf4jnsgd1na2vs0mg"},{"bike_id":"dee258d3-19e1-48fe-8660-d985dcb6f0ff","system_id":"levelo_inurba_marseille","lat":43.3021,"lon":5.39471,"is_reserved":false,"is_disabled":false,"rental_uris":{"android":"levelo://app?vid=dee258d3-19e1-48fe-8660-d985dcb6f0ff","ios":"levelo://app?vid=dee258d3-19e1-48fe-8660-d985dcb6f0ff"},"vehicle_type_id":"4","last_reported":1717448881,"current_range_meters":27600,"station_id":"ce4bh0p2rcd13ifvqd70","pricing_plan_id":"cebpf4jnsgd1na2vs0mg"},{"bike_id":"40fd90cd-4233-4454-ac6b-7c44a0f47048","system_id":"levelo_inurba_marseille","lat":43.302008,"lon":5.394694,"is_reserved":false,"is_disabled":false,"rental_uris":{"android":"levelo://app?vid=40fd90cd-4233-4454-ac6b-7c44a0f47048","ios":"levelo://app?vid=40fd90cd-4233-4454-ac6b-7c44a0f47048"},"vehicle_type_id":"4","last_reported":1717448881,"current_range_meters":13600,"station_id":"ce4bh0p2rcd13ifvqd70","pricing_plan_id":"cebpf4jnsgd1na2vs0mg"},{"bike_id":"0e4c7fe0-9312-4e9d-ae48-7992e3e882e6","system_id":"levelo_inurba_marseille","lat":43.29355,"lon":5.38411,"is_reserved":false,"is_disabled":false,"rental_uris":{"android":"levelo://app?vid=0e4c7fe0-9312-4e9d-ae48-7992e3e882e6","ios":"levelo://app?vid=0e4c7fe0-9312-4e9d-ae48-7992e3e882e6"},"vehicle_type_id":"4","last_reported":1717448881,"current_range_meters":12000,"station_id":"","pricing_plan_id":"cebpf4jnsgd1na2vs0mg"},{"bike_id":"586159d4-aa74-48ed-82b1-08b09dc73eb8","system_id":"levelo_inurba_marseille","lat":43.29284,"lon":5.382702,"is_reserved":false,"is_disabled":false,"rental_uris":{"android":"levelo://app?vid=586159d4-aa74-48ed-82b1-08b09dc73eb8","ios":"levelo://app?vid=586159d4-aa74-48ed-82b1-08b09dc73eb8"},"vehicle_type_id":"4","last_reported":1717448881,"current_range_meters":0,"station_id":"ce4bh4p2rcd13ifvqe0g","pricing_plan_id":"cebpf4jnsgd1na2vs0mg"},{"bike_id":"f0d6fa5a-3de2-42e1-9939-e30770b16a3b","system_id":"levelo_inurba_marseille","lat":43.290319,"lon":5.375732,"is_reserved":false,"is_disabled":false,"rental_uris":{"android":"levelo://app?vid=f0d6fa5a-3de2-42e1-9939-e30770b16a3b","ios":"levelo://app?vid=f0d6fa5a-3de2-42e1-9939-e30770b16a3b"},"vehicle_type_id":"4","last_reported":1717448881,"current_range_meters":20000,"station_id":"ce4bh692rcd13ifvqe90","pricing_plan_id":"cebpf4jnsgd1na2vs0mg"},{"bike_id":"69a2712d-1ede-4bfd-bd70-229360b6eda7","system_id":"levelo_inurba_marseille","lat":43.294153,"lon":5.386305,"is_reserved":false,"is_disabled":false,"rental_uris":{"android":"levelo://app?vid=69a2712d-1ede-4bfd-bd70-229360b6eda7","ios":"levelo://app?vid=69a2712d-1ede-4bfd-bd70-229360b6eda7"},"vehicle_type_id":"4","last_reported":1717448881,"current_range_meters":10400,"station_id":"ce4bh2h2rcd13ifvqdh0","pricing_plan_id":"cebpf4jnsgd1na2vs0mg"},{"bike_id":"ef69b6cb-d904-4986-bfde-d91938cd58dc","system_id":"levelo_inurba_marseille","lat":43.294197,"lon":5.386218,"is_reserved":false,"is_disabled":false,"rental_uris":{"android":"levelo://app?vid=ef69b6cb-d904-4986-bfde-d91938cd58dc","ios":"levelo://app?vid=ef69b6cb-d904-4986-bfde-d91938cd58dc"},"vehicle_type_id":"4","last_reported":1717448881,"current_range_meters":31200,"station_id":"ce4bh2h2rcd13ifvqdh0","pricing_plan_id":"cebpf4jnsgd1na2vs0mg"},{"bike_id":"80754fea-46f4-48f2-b33f-45785011e111","system_id":"levelo_inurba_marseille","lat":43.294162,"lon":5.386292,"is_reserved":false,"is_disabled":false,"rental_uris":{"android":"levelo://app?vid=80754fea-46f4-48f2-b33f-45785011e111","ios":"levelo://app?vid=80754fea-46f4-48f2-b33f-45785011e111"},"vehicle_type_id":"4","last_reported":1717448881,"current_range_meters":17600,"station_id":"ce4bh2h2rcd13ifvqdh0","pricing_plan_id":"cebpf4jnsgd1na2vs0mg"},{"bike_id":"1405acd3-e6dd-4162-b60d-c8ae3d548a28","system_id":"levelo_inurba_marseille","lat":43.29421,"lon":5.38626,"is_reserved":false,"is_disabled":false,"rental_uris":{"android":"levelo://app?vid=1405acd3-e6dd-4162-b60d-c8ae3d548a28","ios":"levelo://app?vid=1405acd3-e6dd-4162-b60d-c8ae3d548a28"},"vehicle_type_id":"4","last_reported":1717448881,"current_range_meters":31200,"station_id":"ce4bh2h2rcd13ifvqdh0","pricing_plan_id":"cebpf4jnsgd1na2vs0mg"},{"bike_id":"d5e9dbd5-5002-4cda-bad1-170d098a5a20","system_id":"levelo_inurba_marseille","lat":43.294162,"lon":5.386292,"is_reserved":false,"is_disabled":false,"rental_uris":{"android":"levelo://app?vid=d5e9dbd5-5002-4cda-bad1-170d098a5a20","ios":"levelo://app?vid=d5e9dbd5-5002-4cda-bad1-170d098a5a20"},"vehicle_type_id":"4","last_reported":1717448881,"current_range_meters":31200,"station_id":"ce4bh2h2rcd13ifvqdh0","pricing_plan_id":"cebpf4jnsgd1na2vs0mg"},{"bike_id":"584748dc-5dce-4ce5-864e-655adafafa05","system_id":"levelo_inurba_marseille","lat":43.290327,"lon":5.375711,"is_reserved":false,"is_disabled":false,"rental_uris":{"android":"levelo://app?vid=584748dc-5dce-4ce5-864e-655adafafa05","ios":"levelo://app?vid=584748dc-5dce-4ce5-864e-655adafafa05"},"vehicle_type_id":"4","last_reported":1717448881,"current_range_meters":0,"station_id":"ce4bh692rcd13ifvqe90","pricing_plan_id":"cebpf4jnsgd1na2vs0mg"},{"bike_id":"5b8416c6-4b8e-43c0-ada6-046078753d8a","system_id":"levelo_inurba_marseille","lat":43.294175,"lon":5.386245,"is_reserved":false,"is_disabled":false,"rental_uris":{"android":"levelo://app?vid=5b8416c6-4b8e-43c0-ada6-046078753d8a","ios":"levelo://app?vid=5b8416c6-4b8e-43c0-ada6-046078753d8a"},"vehicle_type_id":"4","last_reported":1717448881,"current_range_meters":23600,"station_id":"ce4bh2h2rcd13ifvqdh0","pricing_plan_id":"cebpf4jnsgd1na2vs0mg"},{"bike_id":"3e412f70-2fd8-4916-8bcb-3d3035487cc8","system_id":"levelo_inurba_marseille","lat":43.294162,"lon":5.386292,"is_reserved":false,"is_disabled":false,"rental_uris":{"android":"levelo://app?vid=3e412f70-2fd8-4916-8bcb-3d3035487cc8","ios":"levelo://app?vid=3e412f70-2fd8-4916-8bcb-3d3035487cc8"},"vehicle_type_id":"4","last_reported":1717448881,"current_range_meters":29600,"station_id":"ce4bh2h2rcd13ifvqdh0","pricing_plan_id":"cebpf4jnsgd1na2vs0mg"},{"bike_id":"f26113f6-05d2-43b8-8361-226811d675da","system_id":"levelo_inurba_marseille","lat":43.29417,"lon":5.38625,"is_reserved":false,"is_disabled":false,"rental_uris":{"android":"levelo://app?vid=f26113f6-05d2-43b8-8361-226811d675da","ios":"levelo://app?vid=f26113f6-05d2-43b8-8361-226811d675da"},"vehicle_type_id":"4","last_reported":1717448881,"current_range_meters":1200,"station_id":"ce4bh2h2rcd13ifvqdh0","pricing_plan_id":"cebpf4jnsgd1na2vs0mg"},{"bike_id":"85061964-8135-4294-9fd1-55efda0598cc","system_id":"levelo_inurba_marseille","lat":43.29415,"lon":5.38624,"is_reserved":false,"is_disabled":false,"rental_uris":{"android":"levelo://app?vid=85061964-8135-4294-9fd1-55efda0598cc","ios":"levelo://app?vid=85061964-8135-4294-9fd1-55efda0598cc"},"vehicle_type_id":"4","last_reported":1717448881,"current_range_meters":25200,"station_id":"ce4bh2h2rcd13ifvqdh0","pricing_plan_id":"cebpf4jnsgd1na2vs0mg"},{"bike_id":"d92b60ef-6401-4aed-9649-83c810982887","system_id":"levelo_inurba_marseille","lat":43.279952,"lon":5.400085,"is_reserved":false,"is_disabled":false,"rental_uris":{"android":"levelo://app?vid=d92b60ef-6401-4aed-9649-83c810982887","ios":"levelo://app?vid=d92b60ef-6401-4aed-9649-83c810982887"},"vehicle_type_id":"4","last_reported":1717448881,"current_range_meters":19200,"station_id":"ce4bho92rcd13ifvqh4g","pricing_plan_id":"cebpf4jnsgd1na2vs0mg"},{"bike_id":"985af6a4-2600-430f-b568-1fead5cdeedb","system_id":"levelo_inurba_marseille","lat":43.286961,"lon":5.373785,"is_reserved":false,"is_disabled":false,"rental_uris":{"android":"levelo://app?vid=985af6a4-2600-430f-b568-1fead5cdeedb","ios":"levelo://app?vid=985af6a4-2600-430f-b568-1fead5cdeedb"},