{"last_updated":1748704131,"ttl":60,"version":"2.2","data":{"bikes":[{"bike_id":"55080048-1445-433c-8653-9f436d843131","system_id":"levelo_inurba_marseille","lat":43.284864,"lon":5.369092,"is_reserved":false,"is_disabled":false,"rental_uris":{"android":"levelo://app?vid=55080048-1445-433c-8653-9f436d843131","ios":"levelo://app?vid=55080048-1445-433c-8653-9f436d843131"},"vehicle_type_id":"4","last_reported":1748704131,"current_range_meters":2800,"station_id":"","pricing_plan_id":"cebpf4jnsgd1na2vs0mg"},{"bike_id":"c34e04eb-644a-4055-a87f-d87e3c101630","system_id":"levelo_inurba_marseille","lat":43.26554,"lon":5.37288,"is_reserved":false,"is_disabled":false,"rental_uris":{"android":"levelo://app?vid=c34e04eb-644a-4055-a87f-d87e3c101630","ios":"levelo://app?vid=c34e04eb-644a-4055-a87f-d87e3c101630"},"vehicle_type_id":"4","last_reported":1748704131,"current_range_meters":2800,"station_id":"ce4bhg12rcd13ifvqf70","pricing_plan_id":"cebpf4jnsgd1na2vs0mg"},{"bike_id":"4606a288-c4b4-467c-bdcc-a9515d68faf4","system_id":"levelo_inurba_marseille","lat":43.27182,"lon":5.38996,"is_reserved":false,"is_disabled":false,"rental_uris":{"android":"levelo://app?vid=4606a288-c4b4-467c-bdcc-a9515d68faf4","ios":"levelo://app?vid=4606a288-c4b4-467c-bdcc-a9515d68faf4"},"vehicle_type_id":"4","last_reported":1748704131,"current_range_meters":2800,"station_id":"","pricing_plan_id":"cebpf4jnsgd1na2vs0mg"},{"bike_id":"f24a8aa8-6985-4adb-8379-e7b2531c7106","system_id":"levelo_inurba_marseille","lat":43.27069,"lon":5.42277,"is_reserved":false,"is_disabled":false,"rental_uris":{"android":"levelo://app?vid=f24a8aa8-6985-4adb-8379-e7b2531c7106","ios":"levelo://app?vid=f24a8aa8-6985-4adb-8379-e7b2531c7106"},"vehicle_type_id":"4","last_reported":1748704131,"current_range_meters":3200,"station_id":"ce4bhk92rcd13ifvqgb0","pricing_plan_id":"cebpf4jnsgd1na2vs0mg"},{"bike_id":"29d166ab-8133-4457-8247-320bcce3ab18","system_id":"levelo_inurba_marseille","lat":43.282654,"lon":5.350557,"is_reserved":false,"is_disabled":false,"rental_uris":{"android":"levelo://app?vid=29d166ab-8133-4457-8247-320bcce3ab18","ios":"levelo://app?vid=29d166ab-8133-4457-8247-320bcce3ab18"},"vehicle_type_id":"4","last_reported":1748704131,"current_range_meters":3200,"station_id":"ce4bhbp2rcd13ifvqerg","pricing_plan_id":"cebpf4jnsgd1na2vs0mg"},{"bike_id":"ded716ab-113b-488f-b512-8ae26fb0e48d","system_id":"levelo_inurba_marseille","lat":43.2994,"lon":5.36526,"is_reserved":false,"is_disabled":false,"rental_uris":{"android":"levelo://app?vid=ded716ab-113b-488f-b512-8ae26fb0e48d","ios":"levelo://app?vid=ded716ab-113b-488f-b512-8ae26fb0e48d"},"vehicle_type_id":"4","last_reported":1748704131,"current_range_meters":3200,"station_id":"ce4bgm92rcd13ifvqbr0","pricing_plan_id":"cebpf4jnsgd1na2vs0mg"},{"bike_id":"4235c1cc-b502-420c-97c5-0b0942bedf8c","system_id":"levelo_inurba_marseille","lat":43.31488,"lon":5.37311,"is_reserved":false,"is_disabled":false,"rental_uris":{"android":"levelo://app?vid=4235c1cc-b502-420c-97c5-0b0942bedf8c","ios":"levelo://app?vid=4235c1cc-b502-420c-97c5-0b0942bedf8c"},"vehicle_type_id":"4","last_reported":1748704131,"current_range_meters":3200,"station_id":"ce4bgt12rcd13ifvqcd0","pricing_plan_id":"cebpf4jnsgd1na2vs0mg"},{"bike_id":"9d0213dc-c1b2-47ab-a78b-bd586c1e7f04","system_id":"levelo_inurba_marseille","lat":43.25499,"lon":5.37655,"is_reserved":false,"is_disabled":false,"rental_uris":{"android":"levelo://app?vid=9d0213dc-c1b2-47ab-a78b-bd586c1e7f04","ios":"levelo://app?vid=9d0213dc-c1b2-47ab-a78b-bd586c1e7f04"},"vehicle_type_id":"4","last_reported":1748704131,"current_range_meters":3600,"station_id":"ce4bhh12rcd13ifvqff0","pricing_plan_id":"cebpf4jnsgd1na2vs0mg"},{"bike_id":"89ffc610-8c1d-49ab-a16f-8e7b4f049e54","system_id":"levelo_inurba_marseille","lat":43.23196,"lon":5.39997,"is_reserved":false,"is_disabled":false,"rental_uris":{"android":"levelo://app?vid=89ffc610-8c1d-49ab-a16f-8e7b4f049e54","ios":"levelo://app?vid=89ffc610-8c1d-49ab-a16f-8e7b4f049e54"},"vehicle_type_id":"4","last_reported":1748704131,"current_range_meters":3600,"station_id":"ce4bhn12rcd13ifvqgqg","pricing_plan_id":"cebpf4jnsgd1na2vs0mg"},{"bike_id":"3f9c3322-0bd1-4a6c-a870-eed513057d2c","system_id":"levelo_inurba_marseille","lat":43.26214,"lon":5.37489,"is_reserved":false,"is_disabled":false,"rental_uris":{"android":"levelo://app?vid=3f9c3322-0bd1-4a6c-a870-eed513057d2c","ios":"levelo://app?vid=3f9c3322-0bd1-4a6c-a870-eed513057d2c"},"vehicle_type_id":"4","last_reported":1748704131,"current_range_meters":4000,"station_id":"","pricing_plan_id":"cebpf4jnsgd1na2vs0mg"},{"bike_id":"fef00de4-be31-4238-a59c-a323927a367c","system_id":"levelo_inurba_marseille","lat":43.26025,"lon":5.37555,"is_reserved":false,"is_disabled":false,"rental_uris":{"android":"levelo://app?vid=fef00de4-be31-4238-a59c-a323927a367c","ios":"levelo://app?vid=fef00de4-be31-4238-a59c-a323927a367c"},"vehicle_type_id":"4","last_reported":1748704131,"current_range_meters":4000,"station_id":"ce4bhgh2rcd13ifvqfa0","pricing_plan_id":"cebpf4jnsgd1na2vs0mg"},{"bike_id":"c3b8481b-cc1e-4384-924d-b84c70b6cc41","system_id":"levelo_inurba_marseille","lat":43.29565,"lon":5.37522,"is_reserved":false,"is_disabled":false,"rental_uris":{"android":"levelo://app?vid=c3b8481b-cc1e-4384-924d-b84c70b6cc41","ios":"levelo://app?vid=c3b8481b-cc1e-4384-924d-b84c70b6cc41"},"vehicle_type_id":"4","last_reported":1748704131,"current_range_meters":4000,"station_id":"ce4bgh92rcd13ifvqb50","pricing_plan_id":"cebpf4jnsgd1na2vs0mg"},{"bike_id":"da5921cd-e75b-4ce7-b109-06c28f720590","system_id":"levelo_inurba_marseille","lat":43.28733,"lon":5.36209,"is_reserved":false,"is_disabled":false,"rental_uris":{"android":"levelo://app?vid=da5921cd-e75b-4ce7-b109-06c28f720590","ios":"levelo://app?vid=da5921cd-e75b-4ce7-b109-06c28f720590"},"vehicle_type_id":"4","last_reported":1748704131,"current_range_meters":4400,"station_id":"","pricing_plan_id":"cebpf4jnsgd1na2vs0mg"},{"bike_id":"11b80693-c9e9-463a-9b8f-b18b7560d603","system_id":"levelo_inurba_marseille","lat":43.29624,"lon":5.37411,"is_reserved":false,"is_disabled":false,"rental_uris":{"android":"levelo://app?vid=11b80693-c9e9-463a-9b8f-b18b7560d603","ios":"levelo://app?vid=11b80693-c9e9-463a-9b8f-b18b7560d603"},"vehicle_type_id":"4","last_reported":1748704131,"current_range_meters":5600,"station_id":"","pricing_plan_id":"cebpf4jnsgd1na2vs0mg"},{"bike_id":"7e2836c0-ba8d-45a0-95fe-cc804da27d6d","system_id":"levelo_inurba_marseille","lat":43.2417,"lon":5.36417,"is_reserved":false,"is_disabled":false,"rental_uris":{"android":"levelo://app?vid=7e2836c0-ba8d-45a0-95fe-cc804da27d6d","ios":"levelo://app?vid=7e2836c0-ba8d-45a0-95fe-cc804da27d6d"},"vehicle_type_id":"4","last_reported":1748704131,"current_range_meters":4800,"station_id":"cpo36qri1sfpv3e86is0","pricing_plan_id":"cebpf4jnsgd1na2vs0mg"},{"bike_id":"8edd92c1-3bcd-4c8d-b81f-bb349aa33f2a","system_id":"levelo_inurba_marseille","lat":43.2621,"lon":5.37445,"is_reserved":false,"is_disabled":false,"rental_uris":{"android":"levelo://app?vid=8edd92c1-3bcd-4c8d-b81f-bb349aa33f2a","ios":"levelo://app?vid=8edd92c1-3bcd-4c8d-b81f-bb349aa33f2a"},"vehicle_type_id":"4","last_reported":1748704131,"current_range_meters":4800,"station_id":"ce4bhgp2rcd13ifvqfc0","pricing_plan_id":"cebpf4jnsgd1na2vs0mg"},{"bike_id":"0514caed-caa8-4442-8d6d-69f2f89d7ed9","system_id":"levelo_inurba_marseille","lat":43.27057,"lon":5.40312,"is_reserved":false,"is_disabled":false,"rental_uris":{"android":"levelo://app?vid=0514caed-caa8-4442-8d6d-69f2f89d7ed9","ios":"levelo://app?vid=0514caed-caa8-4442-8d6d-69f2f89d7ed9"},"vehicle_type_id":"4","last_reported":1748704131,"current_range_meters":4800,"station_id":"ce4bhk92rcd13ifvqgc0","pricing_plan_id":"cebpf4jnsgd1na2vs0mg"},{"bike_id":"4ea9999a-521a-421b-8382-43785c8666dd","system_id":"levelo_inurba_marseille","lat":43.26562,"lon":5.40332,"is_reserved":false,"is_disabled":false,"rental_uris":{"android":"levelo://app?vid=4ea9999a-521a-421b-8382-43785c8666dd","ios":"levelo://app?vid=4ea9999a-521a-421b-8382-43785c8666dd"},"vehicle_type_id":"4","last_reported":1748704131,"current_range_meters":4800,"station_id":"","pricing_plan_id":"cebpf4jnsgd1na2vs0mg"},{"bike_id":"1571c45b-e183-4a5e-a289-6f17a620942f","system_id":"levelo_inurba_marseille","lat":43.26936,"lon":5.40258,"is_reserved":false,"is_disabled":false,"rental_uris":{"android":"levelo://app?vid=1571c45b-e183-4a5e-a289-6f17a620942f","ios":"levelo://app?vid=1571c45b-e183-4a5e-a289-6f17a620942f"},"vehicle_type_id":"4","last_reported":1748704131,"current_range_meters":5600,"station_id":"cjm6bp8fraef2m0cb0m0","pricing_plan_id":"cebpf4jnsgd1na2vs0mg"},{"bike_id":"f80006c7-2f10-4ba5-bb7c-2b0507fde45f","system_id":"levelo_inurba_marseille","lat":43.23069,"lon":5.3554,"is_reserved":false,"is_disabled":false,"rental_uris":{"android":"levelo://app?vid=f80006c7-2f10-4ba5-bb7c-2b0507fde45f","ios":"levelo://app?vid=f80006c7-2f10-4ba5-bb7c-2b0507fde45f"},"vehicle_type_id":"4","last_reported":1748704131,"current_range_meters":5600,"station_id":"cpo3342slgdg3j2ifvpg","pricing_plan_id":"cebpf4jnsgd1na2vs0mg"},{"bike_id":"ae5eb279-14a7-40bf-9869-5d966d8979bb","system_id":"levelo_inurba_marseille","lat":43.29194,"lon":5.35795,"is_reserved":false,"is_disabled":false,"rental_uris":{"android":"levelo://app?vid=ae5eb279-14a7-40bf-9869-5d966d8979bb","ios":"levelo://app?vid=ae5eb279-14a7-40bf-9869-5d966d8979bb"},"vehicle_type_id":"4","last_reported":1748704131,"current_range_meters":5600,"station_id":"ce4bhb12rcd13ifvqel0","pricing_plan_id":"cebpf4jnsgd1na2vs0mg"},{"bike_id":"c4ccc8e1-6e8b-4ad4-b9b2-cf7406cbf6cd","system_id":"levelo_inurba_marseille","lat":43.27381,"lon":5.36254,"is_reserved":false,"is_disabled":false,"rental_uris":{"android":"levelo://app?vid=c4ccc8e1-6e8b-4ad4-b9b2-cf7406cbf6cd","ios":"levelo://app?vid=c4ccc8e1-6e8b-4ad4-b9b2-cf7406cbf6cd"},"vehicle_type_id":"4","last_reported":1748704131,"current_range_meters":5600,"station_id":"ce4bhbh2rcd13ifvqeo0","pricing_plan_id":"cebpf4jnsgd1na2vs0mg"},{"bike_id":"6d44a0cb-59ff-4573-94e1-84390e3533f8","system_id":"levelo_inurba_marseille","lat":43.26568,"lon":5.39005,"is_reserved":false,"is_disabled":false,"rental_uris":{"android":"levelo://app?vid=6d44a0cb-59ff-4573-94e1-84390e3533f8","ios":"levelo://app?vid=6d44a0cb-59ff-4573-94e1-84390e3533f8"},"vehicle_type_id":"4","last_reported":1748704131,"current_range_meters":5600,"station_id":"ce4bhe12rcd13ifvqf30","pricing_plan_id":"cebpf4jnsgd1na2vs0mg"},{"bike_id":"ef732176-f295-4f81-98f1-dee877c514c8","system_id":"levelo_inurba_marseille","lat":43.28945,"lon":5.364,"is_reserved":false,"is_disabled":false,"rental_uris":{"android":"levelo://app?vid=ef732176-f295-4f81-98f1-dee877c514c8","ios":"levelo://app?vid=ef732176-f295-4f81-98f1-dee877c514c8"},"vehicle_type_id":"4","last_reported":1748704131,"current_range_meters":5600,"station_id":"ce4bhc92rcd13ifvqetg","pricing_plan_id":"cebpf4jnsgd1na2vs0mg"},{"bike_id":"f6f130f9-5d58-4a4f-aceb-2c3816d18e94","system_id":"levelo_inurba_marseille","lat":43.29875,"lon":5.39722,"is_reserved":false,"is_disabled":false,"rental_uris":{"android":"levelo://app?vid=f6f130f9-5d58-4a4f-aceb-2c3816d18e94","ios":"levelo://app?vid=f6f130f9-5d58-4a4f-aceb-2c3816d18e94"},"vehicle_type_id":"4","last_reported":1748704131,"current_range_meters":5600,"station_id":"ce4bh0h2rcd13ifvqd50","pricing_plan_id":"cebpf4jnsgd1na2vs0mg"},{"bike_id":"2acbbe34-34fb-46d9-9d83-01ec1408275a","system_id":"levelo_inurba_marseille","lat":43.27203,"lon":5.39174,"is_reserved":false,"is_disabled":false,"rental_uris":{"android":"levelo://app?vid=2acbbe34-34fb-46d9-9d83-01ec1408275a","ios":"levelo://app?vid=2acbbe34-34fb-46d9-9d83-01ec1408275a"},"vehicle_type_id":"4","last_reported":1748704131,"current_range_meters":6000,"station_id":"ce4bhhp2rcd13ifvqfm0","pricing_plan_id":"cebpf4jnsgd1na2vs0mg"},{"bike_id":"8631da55-a432-47a9-a68b-71f2c08540b8","system_id":"levelo_inurba_marseille","lat":43.29022,"lon":5.38124,"is_reserved":false,"is_disabled":false,"rental_uris":{"android":"levelo://app?vid=8631da55-a432-47a9-a68b-71f2c08540b8","ios":"levelo://app?vid=8631da55-a432-47a9-a68b-71f2c08540b8"},"vehicle_type_id":"4","last_reported":1748704131,"current_range_meters":6000,"station_id":"","pricing_plan_id":"cebpf4jnsgd1na2vs0mg"},{"bike_id":"320e8323-c257-45fc-be7c-68a866588b09","system_id":"levelo_inurba_marseille","lat":43.28413,"lon":5.34975,"is_reserved":false,"is_disabled":false,"rental_uris":{"android":"levelo://app?vid=320e8323-c257-45fc-be7c-68a866588b09","ios":"levelo://app?vid=320e8323-c257-45fc-be7c-68a866588b09"},"vehicle_type_id":"4","last_reported":1748704131,"current_range_meters":6400,"station_id":"ce4bhbh2rcd13ifvqepg","pricing_plan_id":"cebpf4jnsgd1na2vs0mg"},{"bike_id":"c37446b6-3004-47dd-9a2c-590e9d87296e","system_id":"levelo_inurba_marseille","lat":43.25578,"lon":5.38239,"is_reserved":false,"is_disabled":false,"rental_uris":{"android":"levelo://app?vid=c37446b6-3004-47dd-9a2c-590e9d87296e","ios":"levelo://app?vid=c37446b6-3004-47dd-9a2c-590e9d87296e"},"vehicle_type_id":"4","last_reported":1748704131,"current_range_meters":6000,"station_id":"ce4bhih2rcd13ifvqfs0","pricing_plan_id":"cebpf4jnsgd1na2vs0mg"},{"bike_id":"8be79d99-c0d3-44d9-918e-108e6eb7fdb8","system_id":"levelo_inurba_marseille","lat":43.23092,"lon":5.35484,"is_reserved":false,"is_disabled":false,"rental_uris":{"android":"levelo://app?vid=8be79d99-c0d3-44d9-918e-108e6eb7fdb8","ios":"levelo://app?vid=8be79d99-c0d3-44d9-918e-108e6eb7fdb8"},"vehicle_type_id":"4","last_reported":1748704131,"current_range_meters":6400,"station_id":"","pricing_plan_id":"cebpf4jnsgd1na2vs0mg"},{"bike_id":"8ed909c0-fd2a-464a-a172-037d835523e5","system_id":"levelo_inurba_marseille","lat":43.30949,"lon":5.39029,"is_reserved":false,"is_disabled":false,"rental_uris":{"android":"levelo://app?vid=8ed909c0-fd2a-464a-a172-037d835523e5","ios":"levelo://app?vid=8ed909c0-fd2a-464a-a172-037d835523e5"},"vehicle_type_id":"4","last_reported":1748704131,"current_range_meters":6400,"station_id":"ce4bgup2rcd13ifvqco0","pricing_plan_id":"cebpf4jnsgd1na2vs0mg"},{"bike_id":"6c3de91b-aa62-4e37-b526-5a5d6d67acf1","system_id":"levelo_inurba_marseille","lat":43.2951,"lon":5.37495,"is_reserved":false,"is_disabled":false,"rental_uris":{"android":"levelo://app?vid=6c3de91b-aa62-4e37-b526-5a5d6d67acf1","ios":"levelo://app?vid=6c3de91b-aa62-4e37-b526-5a5d6d67acf1"},"vehicle_type_id":"4","last_reported":1748704131,"current_range_meters":6400,"station_id":"ce4bgkp2rcd13ifvqbmg","pricing_plan_id":"cebpf4jnsgd1na2vs0mg"},{"bike_id":"990df701-79a7-41ec-b963-3693dc590a87","system_id":"levelo_inurba_marseille","lat":43.30161,"lon":5.37901,"is_reserved":false,"is_disabled":false,"rental_uris":{"android":"levelo://app?vid=990df701-79a7-41ec-b963-3693dc590a87","ios":"levelo://app?vid=990df701-79a7-41ec-b963-3693dc590a87"},"vehicle_type_id":"4","last_reported":1748704131,"current_range_meters":6400,"station_id":"","pricing_plan_id":"cebpf4jnsgd1na2vs0mg"},{"bike_id":"89ec8cb2-b783-400b-81f3-1b63b75e7ca9","system_id":"levelo_inurba_marseille","lat":43.26208,"lon":5.37459,"is_reserved":false,"is_disabled":false,"rental_uris":{"android":"levelo://app?vid=89ec8cb2-b783-400b-81f3-1b63b75e7ca9","ios":"levelo://app?vid=89ec8cb2-b783-400b-81f3-1b63b75e7ca9"},"vehicle_type_id":"4","last_reported":1748704131,"current_range_meters":6800,"station_id":"ce4bhgp2rcd13ifvqfc0","pricing_plan_id":"cebpf4jnsgd1na2vs0mg"},{"bike_id":"45b56108-97b3-4866-acaf-953e76596f06","system_id":"levelo_inurba_marseille","lat":43.24163,"lon":5.36413,"is_reserved":false,"is_disabled":false,"rental_uris":{"android":"levelo://app?vid=45b56108-97b3-4866-acaf-953e76596f06","ios":"levelo://app?vid=45b56108-97b3-4866-acaf-953e76596f06"},"vehicle_type_id":"4","last_reported":1748704131,"current_range_meters":6800,"station_id":"cpo36qri1sfpv3e86is0","pricing_plan_id":"cebpf4jnsgd1na2vs0mg"},{"bike_id":"a882f5db-172f-4f11-bf66-7e2c36364bb7","system_id":"levelo_inurba_marseille","lat":43.29577,"lon":5.42277,"is_reserved":false,"is_disabled":false,"rental_uris":{"android":"levelo://app?vid=a882f5db-172f-4f11-bf66-7e2c36364bb7","ios":"levelo://app?vid=a882f5db-172f-4f11-bf66-7e2c36364bb7"},"vehicle_type_id":"4","last_reported":1748704131,"current_range_meters":6800,"station_id":"ce4bhph2rcd13ifvqhdg","pricing_plan_id":"cebpf4jnsgd1na2vs0mg"},{"bike_id":"10fba1da-dea6-4a42-87e0-fd9c84ea9c5c","system_id":"levelo_inurba_marseille","lat":43.24176,"lon":5.36425,"is_reserved":false,"is_disabled":false,"rental_uris":{"android":"levelo://app?vid=10fba1da-dea6-4a42-87e0-fd9c84ea9c5c","ios":"levelo://app?vid=10fba1da-dea6-4a42-87e0-fd9c84ea9c5c"},"vehicle_type_id":"4","last_reported":1748704131,"current_range_meters":6800,"station_id":"cpo36qri1sfpv3e86is0","pricing_plan_id":"cebpf4jnsgd1na2vs0mg"},{"bike_id":"4d0c6496-3437-4303-a6d4-99c44150f234","system_id":"levelo_inurba_marseille","lat":43.23063,"lon":5.35494,"is_reserved":false,"is_disabled":false,"rental_uris":{"android":"levelo://app?vid=4d0c6496-3437-4303-a6d4-99c44150f234","ios":"levelo://app?vid=4d0c6496-3437-4303-a6d4-99c44150f234"},"vehicle_type_id":"4","last_reported":1748704131,"current_range_meters":6800,"station_id":"cpo3342slgdg3j2ifvpg","pricing_plan_id":"cebpf4jnsgd1na2vs0mg"},{"bike_id":"f5f64fe6-e75b-4412-8ae5-4c6ffa965e31","system_id":"levelo_inurba_marseille","lat":43.279041,"lon":5.380111,"is_reserved":false,"is_disabled":false,"rental_uris":{"android":"levelo://app?vid=f5f64fe6-e75b-4412-8ae5-4c6ffa965e31","ios":"levelo://app?vid=f5f64fe6-e75b-4412-8ae5-4c6ffa965e31"},"vehicle_type_id":"4","last_reported":1748704131,"current_range_meters":6800,"station_id":"ce4bhf92rcd13ifvqf50","pricing_plan_id":"cebpf4jnsgd1na2vs0mg"},{"bike_id":"7243d7c8-02f5-4392-89cf-8c360e846d55","system_id":"levelo_inurba_marseille","lat":43.252791,"lon":5.378217,"is_reserved":false,"is_disabled":false,"rental_uris":{"android":"levelo://app?vid=7243d7c8-02f5-4392-89cf-8c360e846d55","ios":"levelo://app?vid=7243d7c8-02f5-4392-89cf-8c360e846d55"},"vehicle_type_id":"4","last_reported":1748704131,"current_range_meters":7200,"station_id":"","pricing_plan_id":"cebpf4jnsgd1na2vs0mg"},{"bike_id":"43d4e202-de2b-462c-8655-ce55b382fb4e","system_id":"levelo_inurba_marseille","lat":43.23146,"lon":5.43724,"is_reserved":false,"is_disabled":false,"rental_uris":{"android":"levelo://app?vid=43d4e202-de2b-462c-8655-ce55b382fb4e","ios":"levelo://app?vid=43d4e202-de2b-462c-8655-ce55b382fb4e"},"vehicle_type_id":"4","last_reported":1748704131,"current_range_meters":7200,"station_id":"ce4bhmp2rcd13ifvqgog","pricing_plan_id":"cebpf4jnsgd1na2vs0mg"},{"bike_id":"20f0a071-25bb-4b1d-97c9-c59092f83d5c","system_id":"levelo_inurba_marseille","lat":43.30925,"lon":5.40139,"is_reserved":false,"is_disabled":false,"rental_uris":{"android":"levelo://app?vid=20f0a071-25bb-4b1d-97c9-c59092f83d5c","ios":"levelo://app?vid=20f0a071-25bb-4b1d-97c9-c59092f83d5c"},"vehicle_type_id":"4","last_reported":1748704131,"current_range_meters":7200,"station_id":"ce4bgvp2rcd13ifvqct0","pricing_plan_id":"cebpf4jnsgd1na2vs0mg"},{"bike_id":"19cc5bf5-27bc-497b-920e-da83294ccadc","system_id":"levelo_inurba_marseille","lat":43.295651,"lon":5.384831,"is_reserved":false,"is_disabled":false,"rental_uris":{"android":"levelo://app?vid=19cc5bf5-27bc-497b-920e-da83294ccadc","ios":"levelo://app?vid=19cc5bf5-27bc-497b-920e-da83294ccadc"},"vehicle_type_id":"4","last_reported":1748704131,"current_range_meters":7200,"station_id":"","pricing_plan_id":"cebpf4jnsgd1na2vs0mg"},{"bike_id":"4805c951-6484-4059-a668-9e3bc978342f","system_id":"levelo_inurba_marseille","lat":43.26802,"lon":5.40246,"is_reserved":false,"is_disabled":false,"rental_uris":{"android":"levelo://app?vid=4805c951-6484-4059-a668-9e3bc978342f","ios":"levelo://app?vid=4805c951-6484-4059-a668-9e3bc978342f"},"vehicle_type_id":"4","last_reported":1748704131,"current_range_meters":7200,"station_id":"ce501612rcd8frsf0b60","pricing_plan_id":"cebpf4jnsgd1na2vs0mg"},{"bike_id":"a326951f-0eaf-4b67-9913-457e6cd35573","system_id":"levelo_inurba_marseille","lat":43.23201,"lon":5.35547,"is_reserved":false,"is_disabled":false,"rental_uris":{"android":"levelo://app?vid=a326951f-0eaf-4b67-9913-457e6cd35573","ios":"levelo://app?vid=a326951f-0eaf-4b67-9913-457e6cd35573"},"vehicle_type_id":"4","last_reported":1748704131,"current_range_meters":7200,"station_id":"ce4bhu92rcd13ifvqi70","pricing_plan_id":"cebpf4jnsgd1na2vs0mg"},{"bike_id":"3feffd94-b1f8-4904-a4cf-e5629abe4092","system_id":"levelo_inurba_marseille","lat":43.259296,"lon":5.409096,"is_reserved":false,"is_disabled":false,"rental_uris":{"android":"levelo://app?vid=3feffd94-b1f8-4904-a4cf-e5629abe4092","ios":"levelo://app?vid=3feffd94-b1f8-4904-a4cf-e5629abe4092"},"vehicle_type_id":"4","last_reported":1748704131,"current_range_meters":7200,"station_id":"ce4bhm92rcd13ifvqglg","pricing_plan_id":"cebpf4jnsgd1na2vs0mg"},{"bike_id":"17244023-e7ce-47db-98e8-21120bde4f61","system_id":"levelo_inurba_marseille","lat":43.23069,"lon":5.35478,"is_reserved":false,"is_disabled":false,"rental_uris":{"android":"levelo://app?vid=17244023-e7ce-47db-98e8-21120bde4f61","ios":"levelo://app?vid=17244023-e7ce-47db-98e8-21120bde4f61"},"vehicle_type_id":"4","last_reported":1748704131,"current_range_meters":7200,"station_id":"cpo3342slgdg3j2ifvpg","pricing_plan_id":"cebpf4jnsgd1na2vs0mg"},{"bike_id":"c9e39e98-013b-4ec5-b67c-56f3c97783f3","system_id":"levelo_inurba_marseille","lat":43.27376,"lon":5.36259,"is_reserved":false,"is_disabled":false,"rental_uris":{"android":"levelo://app?vid=c9e39e98-013b-4ec5-b67c-56f3c97783f3","ios":"levelo://app?vid=c9e39e98-013b-4ec5-b67c-56f3c97783f3"},"vehicle_type_id":"4","last_reported":1748704131,"current_range_meters":8000,"station_id":"ce4bhbh2rcd13ifvqeo0","pricing_plan_id":"cebpf4jnsgd1na2vs0mg"},{"bike_id":"ce325ea1-be5e-4c1b-a841-6ae8715dfbf4","system_id":"levelo_inurba_marseille","lat":43.305509,"lon":5.365554,"is_reserved":false,"is_disabled":true,"rental_uris":{"android":"levelo://app?vid=ce325ea1-be5e-4c1b-a841-6ae8715dfbf4","ios":"levelo://app?vid=ce325ea1-be5e-4c1b-a841-6ae8715dfbf4"},"vehicle_type_id":"4","last_reported":1748704131,"current_range_meters":8000,"station_id":"ce4bgs12rcd13ifvqcag","pricing_plan_id":"cebpf4jnsgd1na2vs0mg"},{"bike_id":"6178ec17-8b84-4593-bfe8-ac96dbc93b46","system_id":"levelo_inurba_marseille","lat":43.30926,"lon":5.40145,"is_reserved":false,"is_disabled":false,"rental_uris":{"android":"levelo://app?vid=6178ec17-8b84-4593-bfe8-ac96dbc93b46","ios":"levelo://app?vid=6178ec17-8b84-4593-bfe8-ac96dbc93b46"},"vehicle_type_id":"4","last_reported":1748704131,"current_range_meters":8000,"station_id":"","pricing_plan_id":"cebpf4jnsgd1na2vs0mg"},{"bike_id":"144beecd-5912-48a6-832d-93d92547be19","system_id":"levelo_inurba_marseille","lat":43.290312,"lon":5.355929,"is_reserved":false,"is_disabled":false,"rental_uris":{"android":"levelo://app?vid=144beecd-5912-48a6-832d-93d92547be19","ios":"levelo://app?vid=144beecd-5912-48a6-832d-93d92547be19"},"vehicle_type_id":"4","last_reported":1748704131,"current_range_meters":8000,"station_id":"ce4bhb92rcd13ifvqen0","pricing_plan_id":"cebpf4jnsgd1na2vs0mg"},{"bike_id":"205d87d3-b0f3-4673-af05-53c5d3948ffd","system_id":"levelo_inurba_marseille","lat":43.25501,"lon":5.37653,"is_reserved":false,"is_disabled":false,"rental_uris":{"android":"levelo://app?vid=205d87d3-b0f3-4673-af05-53c5d3948ffd","ios":"levelo://app?vid=205d87d3-b0f3-4673-af05-53c5d3948ffd"},"vehicle_type_id":"4","last_reported":1748704131,"current_range_meters":8000,"station_id":"ce4bhh12rcd13ifvqff0","pricing_plan_id":"cebpf4jnsgd1na2vs0mg"},{"bike_id":"92f35661-7654-4184-82e8-a4dc95888642","system_id":"levelo_inurba_marseille","lat":43.2721,"lon":5.39181,"is_reserved":false,"is_disabled":false,"rental_uris":{"android":"levelo://app?vid=92f35661-7654-4184-82e8-a4dc95888642","ios":"levelo://app?vid=92f35661-7654-4184-82e8-a4dc95888642"},"vehicle_type_id":"4","last_reported":1748704131,"current_range_meters":8000,"station_id":"ce4bhhp2rcd13ifvqfm0","pricing_plan_id":"cebpf4jnsgd1na2vs0mg"},{"bike_id":"7744b0bc-9255-402e-8dd0-6b3090927fb9","system_id":"levelo_inurba_marseille","lat":43.26938,"lon":5.40283,"is_reserved":false,"is_disabled":true,"rental_uris":{"android":"levelo://app?vid=7744b0bc-9255-402e-8dd0-6b3090927fb9","ios":"levelo://app?vid=7744b0bc-9255-402e-8dd0-6b3090927fb9"},"vehicle_type_id":"4","last_reported":1748704131,"current_range_meters":8400,"station_id":"cjm6bp8fraef2m0cb0m0","pricing_plan_id":"cebpf4jnsgd1na2vs0mg"},{"bike_id":"029444e3-a148-4469-b824-2d6ab43d58a5","system_id":"levelo_inurba_marseille","lat":43.28737,"lon":5.36068,"is_reserved":false,"is_disabled":false,"rental_uris":{"android":"levelo://app?vid=029444e3-a148-4469-b824-2d6ab43d58a5","ios":"levelo://app?vid=029444e3-a148-4469-b824-2d6ab43d58a5"},"vehicle_type_id":"4","last_reported":1748704131,"current_range_meters":8400,"station_id":"cki0cbj6b192h4jlfktg","pricing_plan_id":"cebpf4jnsgd1na2vs0mg"},{"bike_id":"df7e65e7-6eb9-4a40-8ab1-6ee6994780ee","system_id":"levelo_inurba_marseille","lat":43.23959,"lon":5.36625,"is_reserved":false,"is_disabled":false,"rental_uris":{"android":"levelo://app?vid=df7e65e7-6eb9-4a40-8ab1-6ee6994780ee","ios":"levelo://app?vid=df7e65e7-6eb9-4a40-8ab1-6ee6994780ee"},"vehicle_type_id":"4","last_reported":1748704131,"current_range_meters":8400,"station_id":"ce4bhi12rcd13ifvqfp0","pricing_plan_id":"cebpf4jnsgd1na2vs0mg"},{"bike_id":"471fccc4-e0a0-45c9-96ca-25361ad546a7","system_id":"levelo_inurba_marseille","lat":43.21774,"lon":5.3463,"is_reserved":false,"is_disabled":false,"rental_uris":{"android":"levelo://app?vid=471fccc4-e0a0-45c9-96ca-25361ad546a7","ios":"levelo://app?vid=471fccc4-e0a0-45c9-96ca-25361ad546a7"},"vehicle_type_id":"4","last_reported":1748704131,"current_range_meters":8400,"station_id":"st_cvj6r9ubvosntc0bgbag","pricing_plan_id":"cebpf4jnsgd1na2vs0mg"},{"bike_id":"662af0d9-b4f1-4513-bbd2-fd65be6229e5","system_id":"levelo_inurba_marseille","lat":43.25941,"lon":5.40917,"is_reserved":false,"is_disabled":false,"rental_uris":{"android":"levelo://app?vid=662af0d9-b4f1-4513-bbd2-fd65be6229e5","ios":"levelo://app?vid=662af0d9-b4f1-4513-bbd2-fd65be6229e5"},"vehicle_type_id":"4","last_reported":1748704131,"current_range_meters":8400,"station_id":"ce4bhm92rcd13ifvqglg","pricing_plan_id":"cebpf4jnsgd1na2vs0mg"},{"bike_id":"ece32dfa-a05d-41b9-ac94-f1fe0c50baa9","system_id":"levelo_inurba_marseille","lat":43.28455,"lon":5.35023,"is_reserved":false,"is_disabled":false,"rental_uris":{"android":"levelo://app?vid=ece32dfa-a05d-41b9-ac94-f1fe0c50baa9","ios":"levelo://app?vid=ece32dfa-a05d-41b9-ac94-f1fe0c50baa9"},"vehicle_type_id":"4","last_reported":1748704131,"current_range_meters":8400,"station_id":"","pricing_plan_id":"cebpf4jnsgd1na2vs0mg"},{"bike_id":"d0d932df-3d56-4c5e-9307-22e20d5aaef2","system_id":"levelo_inurba_marseille","lat":43.30322,"lon":5.40433,"is_reserved":false,"is_disabled":false,"rental_uris":{"android":"levelo://app?vid=d0d932df-3d56-4c5e-9307-22e20d5aaef2","ios":"levelo://app?vid=d0d932df-3d56-4c5e-9307-22e20d5aaef2"},"vehicle_type_id":"4","last_reported":1748704131,"current_range_meters":8400,"station_id":"ce4bh012rcd13ifvqd10","pricing_plan_id":"cebpf4jnsgd1na2vs0mg"},{"bike_id":"c54a9e2d-a6e6-4be1-af88-6240fc7bd79a","system_id":"levelo_inurba_marseille","lat":43.289303,"lon":5.384052,"is_reserved":false,"is_disabled":false,"rental_uris":{"android":"levelo://app?vid=c54a9e2d-a6e6-4be1-af88-6240fc7bd79a","ios":"levelo://app?vid=c54a9e2d-a6e6-4be1-af88-6240fc7bd79a"},"vehicle_type_id":"4","last_reported":1748704131,"current_range_meters":8400,"station_id":"ce4bh612rcd13ifvqe6g","pricing_plan_id":"cebpf4jnsgd1na2vs0mg"},{"bike_id":"d02ba7d2-914d-425a-8b2a-f1259e1c2fbf","system_id":"levelo_inurba_marseille","lat":43.26212,"lon":5.40425,"is_reserved":false,"is_disabled":false,"rental_uris":{"android":"levelo://app?vid=d02ba7d2-914d-425a-8b2a-f1259e1c2fbf","ios":"levelo://app?vid=d02ba7d2-914d-425a-8b2a-f1259e1c2fbf"},"vehicle_type_id":"4","last_reported":1748704131,"current_range_meters":8400,"station_id":"ce4bhmh2rcd13ifvqgmg","pricing_plan_id":"cebpf4jnsgd1na2vs0mg"},{"bike_id":"611ecb41-369a-4d13-8259-8e9e6a3da4b4","system_id":"levelo_inurba_marseille","lat":43.26819,"lon":5.40224,"is_reserved":false,"is_disabled":false,"rental_uris":{"android":"levelo://app?vid=611ecb41-369a-4d13-8259-8e9e6a3da4b4","ios":"levelo://app?vid=611ecb41-369a-4d13-8259-8e9e6a3da4b4"},"vehicle_type_id":"4","last_reported":1748704131,"current_range_meters":8800,"station_id":"ce501612rcd8frsf0b60","pricing_plan_id":"cebpf4jnsgd1na2vs0mg"},{"bike_id":"d16f5222-3d1e-4d65-a992-1bc93f719178","system_id":"levelo_inurba_marseille","lat":43.303282,"lon":5.365889,"is_reserved":false,"is_disabled":false,"rental_uris":{"android":"levelo://app?vid=d16f5222-3d1e-4d65-a992-1bc93f719178","ios":"levelo://app?vid=d16f5222-3d1e-4d65-a992-1bc93f719178"},"vehicle_type_id":"4","last_reported":1748704131,"current_range_meters":8800,"station_id":"","pricing_plan_id":"cebpf4jnsgd1na2vs0mg"},{"bike_id":"98021f1f-bab7-4f79-b070-d531f5a7a1f5","system_id":"levelo_inurba_marseille","lat":43.31162,"lon":5.38716,"is_reserved":false,"is_disabled":false,"rental_uris":{"android":"levelo://app?vid=98021f1f-bab7-4f79-b070-d531f5a7a1f5","ios":"levelo://app?vid=98021f1f-bab7-4f79-b070-d531f5a7a1f5"},"vehicle_type_id":"4","last_reported":1748704131,"current_range_meters":8800,"station_id":"ce4bgv12rcd13ifvqcp0","pricing_plan_id":"cebpf4jnsgd1na2vs0mg"},{"bike_id":"b0937aa4-7f5b-459c-805e-471533026189","system_id":"levelo_inurba_marseille","lat":43.27374,"lon":5.362523,"is_reserved":false,"is_disabled":false,"rental_uris":{"android":"levelo://app?vid=b0937aa4-7f5b-459c-805e-471533026189","ios":"levelo://app?vid=b0937aa4-7f5b-459c-805e-471533026189"},"vehicle_type_id":"4","last_reported":1748704131,"current_range_meters":8800,"station_id":"ce4bhbh2rcd13ifvqeo0","pricing_plan_id":"cebpf4jnsgd1na2vs0mg"},{"bike_id":"e8c5824f-b2bf-4803-ad59-537164032e73","system_id":"levelo_inurba_marseille","lat":43.29401,"lon":5.37798,"is_reserved":false,"is_disabled":false,"rental_uris":{"android":"levelo://app?vid=e8c5824f-b2bf-4803-ad59-537164032e73","ios":"levelo://app?vid=e8c5824f-b2bf-4803-ad59-537164032e73"},"vehicle_type_id":"4","last_reported":1748704131,"current_range_meters":8800,"station_id":"","pricing_plan_id":"cebpf4jnsgd1na2vs0mg"},{"bike_id":"ca27e01b-9829-4b3d-aba2-ae571050248b","system_id":"levelo_inurba_marseille","lat":43.2737,"lon":5.36258,"is_reserved":false,"is_disabled":false,"rental_uris":{"android":"levelo://app?vid=ca27e01b-9829-4b3d-aba2-ae571050248b","ios":"levelo://app?vid=ca27e01b-9829-4b3d-aba2-ae571050248b"},"vehicle_type_id":"4","last_reported":1748704131,"current_range_meters":9200,"station_id":"ce4bhbh2rcd13ifvqeo0","pricing_plan_id":"cebpf4jnsgd1na2vs0mg"},{"bike_id":"a672e2ce-ff65-491a-baf8-b5fcce4f4059","system_id":"levelo_inurba_marseille","lat":43.31727,"lon":5.3901,"is_reserved":false,"is_disabled":false,"rental_uris":{"android":"levelo://app?vid=a672e2ce-ff65-491a-baf8-b5fcce4f4059","ios":"levelo://app?vid=a672e2ce-ff65-491a-baf8-b5fcce4f4059"},"vehicle_type_id":"4","last_reported":1748704131,"current_range_meters":9200,"station_id":"ce4bhqp2rcd13ifvqhng","pricing_plan_id":"cebpf4jnsgd1na2vs0mg"},{"bike_id":"d26fb07d-9d7b-407d-ae07-e65303c9cec1","system_id":"levelo_inurba_marseille","lat":43.21195,"lon":5.35085,"is_reserved":false,"is_disabled":false,"rental_uris":{"android":"levelo://app?vid=d26fb07d-9d7b-407d-ae07-e65303c9cec1","ios":"levelo://app?vid=d26fb07d-9d7b-407d-ae07-e65303c9cec1"},"vehicle_type_id":"4","last_reported":1748704131,"current_range_meters":9200,"station_id":"st_cvj6sg6p6f1abm77japg","pricing_plan_id":"cebpf4jnsgd1na2vs0mg"},{"bike_id":"3da866bd-5047-4fc0-9d49-835a79b72e7a","system_id":"levelo_inurba_marseille","lat":43.22497,"lon":5.34779,"is_reserved":false,"is_disabled":false,"rental_uris":{"android":"levelo://app?vid=3da866bd-5047-4fc0-9d49-835a79b72e7a","ios":"levelo://app?vid=3da866bd-5047-4fc0-9d49-835a79b72e7a"},"vehicle_type_id":"4","last_reported":1748704131,"current_range_meters":9200,"station_id":"","pricing_plan_id":"cebpf4jnsgd1na2vs0mg"},{"bike_id":"7a9aa3ce-61d3-42ca-8daa-e3d734a41c89","system_id":"levelo_inurba_marseille","lat":43.23194,"lon":5.35555,"is_reserved":false,"is_disabled":false,"rental_uris":{"android":"levelo://app?vid=7a9aa3ce-61d3-42ca-8daa-e3d734a41c89","ios":"levelo://app?vid=7a9aa3ce-61d3-42ca-8daa-e3d734a41c89"},"vehicle_type_id":"4","last_reported":1748704131,"current_range_meters":9200,"station_id":"ce4bhu92rcd13ifvqi70","pricing_plan_id":"cebpf4jnsgd1na2vs0mg"},{"bike_id":"f0012670-04e8-44ad-ae17-5630e3d7eeb8","system_id":"levelo_inurba_marseille","lat":43.23188,"lon":5.39982,"is_reserved":false,"is_disabled":false,"rental_uris":{"android":"levelo://app?vid=f0012670-04e8-44ad-ae17-5630e3d7eeb8","ios":"levelo://app?vid=f0012670-04e8-44ad-ae17-5630e3d7eeb8"},"vehicle_type_id":"4","last_reported":1748704131,"current_range_meters":9200,"station_id":"ce4bhn12rcd13ifvqgqg","pricing_plan_id":"cebpf4jnsgd1na2vs0mg"},{"bike_id":"544606a5-37c0-4ece-833f-7fa3d66ecae8","system_id":"levelo_inurba_marseille","lat":43.31217,"lon":5.36867,"is_reserved":false,"is_disabled":false,"rental_uris":{"android":"levelo://app?vid=544606a5-37c0-4ece-833f-7fa3d66ecae8","ios":"levelo://app?vid=544606a5-37c0-4ece-833f-7fa3d66ecae8"},"vehicle_type_id":"4","last_reported":1748704131,"current_range_meters":9200,"station_id":"ce4bgl92rcd13ifvqbq0","pricing_plan_id":"cebpf4jnsgd1na2vs0mg"},{"bike_id":"95cd80fa-c2e5-401c-95da-632e1df7bbde","system_id":"levelo_inurba_marseille","lat":43.23162,"lon":5.43752,"is_reserved":false,"is_disabled":false,"rental_uris":{"android":"levelo://app?vid=95cd80fa-c2e5-401c-95da-632e1df7bbde","ios":"levelo://app?vid=95cd80fa-c2e5-401c-95da-632e1df7bbde"},"vehicle_type_id":"4","last_reported":1748704131,"current_range_meters":9600,"station_id":"ce4bhmp2rcd13ifvqgog","pricing_plan_id":"cebpf4jnsgd1na2vs0mg"},{"bike_id":"64cf353f-19e3-471a-967a-1db6c105965f","system_id":"levelo_inurba_marseille","lat":43.28628,"lon":5.3509,"is_reserved":false,"is_disabled":false,"rental_uris":{"android":"levelo://app?vid=64cf353f-19e3-471a-967a-1db6c105965f","ios":"levelo://app?vid=64cf353f-19e3-471a-967a-1db6c105965f"},"vehicle_type_id":"4","last_reported":1748704131,"current_range_meters":9600,"station_id":"ce4bhch2rcd13ifvqeug","pricing_plan_id":"cebpf4jnsgd1na2vs0mg"},{"bike_id":"e62a208c-23d3-4f22-bdab-aa660ac5353a","system_id":"levelo_inurba_marseille","lat":43.26202,"lon":5.37934,"is_reserved":false,"is_disabled":false,"rental_uris":{"android":"levelo://app?vid=e62a208c-23d3-4f22-bdab-aa660ac5353a","ios":"levelo://app?vid=e62a208c-23d3-4f22-bdab-aa660ac5353a"},"vehicle_type_id":"4","last_reported":1748704131,"current_range_meters":9600,"station_id":"ce4bhjp2rcd13ifvqg90","pricing_plan_id":"cebpf4jnsgd1na2vs0mg"},{"bike_id":"40d4f79e-dc8e-4432-97f7-947d74aa4d70","system_id":"levelo_inurba_marseille","lat":43.28409,"lon":5.34988,"is_reserved":false,"is_disabled":false,"rental_uris":{"android":"levelo://app?vid=40d4f79e-dc8e-4432-97f7-947d74aa4d70","ios":"levelo://app?vid=40d4f79e-dc8e-4432-97f7-947d74aa4d70"},"vehicle_type_id":"4","last_reported":1748704131,"current_range_meters":9600,"station_id":"ce4bhbh2rcd13ifvqepg","pricing_plan_id":"cebpf4jnsgd1na2vs0mg"},{"bike_id":"32c1cb8c-3a59-4a0d-ab7d-ed8d1a5e06c5","system_id":"levelo_inurba_marseille","lat":43.2849,"lon":5.38559,"is_reserved":false,"is_disabled":false,"rental_uris":{"android":"levelo://app?vid=32c1cb8c-3a59-4a0d-ab7d-ed8d1a5e06c5","ios":"levelo://app?vid=32c1cb8c-3a59-4a0d-ab7d-ed8d1a5e06c5"},"vehicle_type_id":"4","last_reported":1748704131,"current_range_meters":9600,"station_id":"ce4bh8p2rcd13ifvqeb0","pricing_plan_id":"cebpf4jnsgd1na2vs0mg"},{"bike_id":"a2d97188-2515-4775-81fb-ec10d455cc1b","system_id":"levelo_inurba_marseille","lat":43.24661,"lon":5.38164,"is_reserved":false,"is_disabled":false,"rental_uris":{"android":"levelo://app?vid=a2d97188-2515-4775-81fb-ec10d455cc1b","ios":"levelo://app?vid=a2d97188-2515-4775-81fb-ec10d455cc1b"},"vehicle_type_id":"4","last_reported":1748704131,"current_range_meters":9600,"station_id":"ce4bhih2rcd13ifvqfr0","pricing_plan_id":"cebpf4jnsgd1na2vs0mg"},{"bike_id":"392a68ac-fff4-45ac-8bf1-87ec938f1cf5","system_id":"levelo_inurba_marseille","lat":43.23201,"lon":5.355675,"is_reserved":false,"is_disabled":false,"rental_uris":{"android":"levelo://app?vid=392a68ac-fff4-45ac-8bf1-87ec938f1cf5","ios":"levelo://app?vid=392a68ac-fff4-45ac-8bf1-87ec938f1cf5"},"vehicle_type_id":"4","last_reported":1748704131,"current_range_meters":10000,"station_id":"ce4bhu92rcd13ifvqi70","pricing_plan_id":"cebpf4jnsgd1na2vs0mg"},{"bike_id":"9c35a4e5-0c2c-4fd2-91a9-0fbeab4c095f","system_id":"levelo_inurba_marseille","lat":43.273818,"lon":5.362598,"is_reserved":false,"is_disabled":false,"rental_uris":{"android":"levelo://app?vid=9c35a4e5-0c2c-4fd2-91a9-0fbeab4c095f","ios":"levelo://app?vid=9c35a4e5-0c2c-4fd2-91a9-0fbeab4c095f"},"vehicle_type_id":"4","last_reported":1748704131,"current_range_meters":10000,"station_id":"ce4bhbh2rcd13ifvqeo0","pricing_plan_id":"cebpf4jnsgd1na2vs0mg"},{"bike_id":"90661731-e0ab-494e-b197-0ad194ea14f4","system_id":"levelo_inurba_marseille","lat":43.26967,"lon":5.40304,"is_reserved":false,"is_disabled":false,"rental_uris":{"android":"levelo://app?vid=90661731-e0ab-494e-b197-0ad194ea14f4","ios":"levelo://app?vid=90661731-e0ab-494e-b197-0ad194ea14f4"},"vehicle_type_id":"4","last_reported":1748704131,"current_range_meters":10000,"station_id":"cjm6bp8fraef2m0cb0m0","pricing_plan_id":"cebpf4jnsgd1na2vs0mg"},{"bike_id":"697824fd-6112-4379-9058-50830962a0ec","system_id":"levelo_inurba_marseille","lat":43.2979,"lon":5.37105,"is_reserved":false,"is_disabled":false,"rental_uris":{"android":"levelo://app?vid=697824fd-6112-4379-9058-50830962a0ec","ios":"levelo://app?vid=697824fd-6112-4379-9058-50830962a0ec"},"vehicle_type_id":"4","last_reported":1748704131,"current_range_meters":10000,"station_id":"ce4bgop2rcd13ifvqc1g","pricing_plan_id":"cebpf4jnsgd1na2vs0mg"},{"bike_id":"48f8b78c-86d9-456f-8a83-91b8f55d5c9f","system_id":"levelo_inurba_marseille","lat":43.29612,"lon":5.37728,"is_reserved":false,"is_disabled":false,"rental_uris":{"android":"levelo://app?vid=48f8b78c-86d9-456f-8a83-91b8f55d5c9f","ios":"levelo://app?vid=48f8b78c-86d9-456f-8a83-91b8f55d5c9f"},"vehicle_type_id":"4","last_reported":1748704131,"current_range_meters":10000,"station_id":"ce4bgi92rcd13ifvqb90","pricing_plan_id":"cebpf4jnsgd1na2vs0mg"},{"bike_id":"8d48119e-760e-4c00-b401-59af0a322afa","system_id":"levelo_inurba_marseille","lat":43.25671,"lon":5.40868,"is_reserved":false,"is_disabled":false,"rental_uris":{"android":"levelo://app?vid=8d48119e-760e-4c00-b401-59af0a322afa","ios":"levelo://app?vid=8d48119e-760e-4c00-b401-59af0a322afa"},"vehicle_type_id":"4","last_reported":1748704131,"current_range_meters":10000,"station_id":"","pricing_plan_id":"cebpf4jnsgd1na2vs0mg"},{"bike_id":"e1498da1-60f1-412c-bc86-31407ba046e5","system_id":"levelo_inurba_marseille","lat":43.28402,"lon":5.34987,"is_reserved":false,"is_disabled":false,"rental_uris":{"android":"levelo://app?vid=e1498da1-60f1-412c-bc86-31407ba046e5","ios":"levelo://app?vid=e1498da1-60f1-412c-bc86-31407ba046e5"},"vehicle_type_id":"4","last_reported":1748704131,"current_range_meters":10000,"station_id":"ce4bhbh2rcd13ifvqepg","pricing_plan_id":"cebpf4jnsgd1na2vs0mg"},{"bike_id":"f4431ae7-57a2-44b7-b0f4-0bd0d29a42ab","system_id":"levelo_inurba_marseille","lat":43.269414,"lon":5.402548,"is_reserved":false,"is_disabled":false,"rental_uris":{"android":"levelo://app?vid=f4431ae7-57a2-44b7-b0f4-0bd0d29a42ab","ios":"levelo://app?vid=f4431ae7-57a2-44b7-b0f4-0bd0d29a42ab"},"vehicle_type_id":"4","last_reported":1748704131,"current_range_meters":10000,"station_id":"cjm6bp8fraef2m0cb0m0","pricing_plan_id":"cebpf4jnsgd1na2vs0mg"},{"bike_id":"26d757ab-5901-4d3b-b68e-1945cba49fe6","system_id":"levelo_inurba_marseille","lat":43.26958,"lon":5.40287,"is_reserved":false,"is_disabled":false,"rental_uris":{"android":"levelo://app?vid=26d757ab-5901-4d3b-b68e-1945cba49fe6","ios":"levelo://app?vid=26d757ab-5901-4d3b-b68e-1945cba49fe6"},"vehicle_type_id":"4","last_reported":1748704131,"current_range_meters":10000,"station_id":"cjm6bp8fraef2m0cb0m0","pricing_plan_id":"cebpf4jnsgd1na2vs0mg"},{"bike_id":"b18036e4-cdbb-441f-a4f1-99c9cdbece34","system_id":"levelo_inurba_marseille","lat":43.294933,"lon":5.390672,"is_reserved":false,"is_disabled":false,"rental_uris":{"android":"levelo://app?vid=b18036e4-cdbb-441f-a4f1-99c9cdbece34","ios":"levelo://app?vid=b18036e4-cdbb-441f-a4f1-99c9cdbece34"},"vehicle_type_id":"4","last_reported":1748704131,"current_range_meters":10000,"station_id":"ce4bh3p2rcd13ifvqdp0","pricing_plan_id":"cebpf4jnsgd1na2vs0mg"},{"bike_id":"5d858cec-ccdc-4bff-b468-30e7e6e43439","system_id":"levelo_inurba_marseille","lat":43.26786,"lon":5.39413,"is_reserved":false,"is_disabled":false,"rental_uris":{"android":"levelo://app?vid=5d858cec-ccdc-4bff-b468-30e7e6e43439","ios":"levelo://app?vid=5d858cec-ccdc-4bff-b468-30e7e6e43439"},"vehicle_type_id":"4","last_reported":1748704131,"current_range_meters":10000,"station_id":"ce4bhh12rcd13ifvqfg0","pricing_plan_id":"cebpf4jnsgd1na2vs0mg"},{"bike_id":"a3d9ed6d-1ae4-482e-bcf9-611ef1b5ce7d","system_id":"levelo_inurba_marseille","lat":43.24663,"lon":5.38164,"is_reserved":false,"is_disabled":false,"rental_uris":{"android":"levelo://app?vid=a3d9ed6d-1ae4-482e-bcf9-611ef1b5ce7d","ios":"levelo://app?vid=a3d9ed6d-1ae4-482e-bcf9-611ef1b5ce7d"},"vehicle_type_id":"4","last_reported":1748704131,"current_range_meters":10800,"station_id":"ce4bhih2rcd13ifvqfr0","pricing_plan_id":"cebpf4jnsgd1na2vs0mg"},{"bike_id":"6dbec55b-fee0-4a3a-9ed2-723f9ae1c783","system_id":"levelo_inurba_marseille","lat":43.29891,"lon":5.43667,"is_reserved":false,"is_disabled":true,"rental_uris":{"android":"levelo://app?vid=6dbec55b-fee0-4a3a-9ed2-723f9ae1c783","ios":"levelo://app?vid=6dbec55b-fee0-4a3a-9ed2-723f9ae1c783"},"vehicle_type_id":"4","last_reported":1748704131,"current_range_meters":10800,"station_id":"ce4bhpp2rcd13ifvqhfg","pricing_plan_id":"cebpf4jnsgd1na2vs0mg"},{"bike_id":"88156d05-def4-4b36-a01c-bf5f823d7052","system_id":"levelo_inurba_marseille","lat":43.26937,"lon":5.40254,"is_reserved":false,"is_disabled":false,"rental_uris":{"android":"levelo://app?vid=88156d05-def4-4b36-a01c-bf5f823d7052","ios":"levelo://app?vid=88156d05-def4-4b36-a01c-bf5f823d7052"},"vehicle_type_id":"4","last_reported":1748704131,"current_range_meters":10800,"station_id":"cjm6bp8fraef2m0cb0m0","pricing_plan_id":"cebpf4jnsgd1na2vs0mg"},{"bike_id":"b28abc00-7db7-4211-9853-5715e0eeb4ff","system_id":"levelo_inurba_marseille","lat":43.27067,"lon":5.40252,"is_reserved":false,"is_disabled":false,"rental_uris":{"android":"levelo://app?vid=b28abc00-7db7-4211-9853-5715e0eeb4ff","ios":"levelo://app?vid=b28abc00-7db7-4211-9853-5715e0eeb4ff"},"vehicle_type_id":"4","last_reported":1748704131,"current_range_meters":10800,"station_id":"ce4bhk92rcd13ifvqgc0","pricing_plan_id":"cebpf4jnsgd1na2vs0mg"},{"bike_id":"0d3bab2f-26cf-41f1-82dd-bb5db963b288","system_id":"levelo_inurba_marseille","lat":43.32542,"lon":5.36483,"is_reserved":false,"is_disabled":true,"rental_uris":{"android":"levelo://app?vid=0d3bab2f-26cf-41f1-82dd-bb5db963b288","ios":"levelo://app?vid=0d3bab2f-26cf-41f1-82dd-bb5db963b288"},"vehicle_type_id":"4","last_reported":1748704131,"current_range_meters":10800,"station_id":"","pricing_plan_id":"cebpf4jnsgd1na2vs0mg"},{"bike_id":"16956ecc-ed47-44a5-bf64-7ac7c0de85fa","system_id":"levelo_inurba_marseille","lat":43.31566,"lon":5.36911,"is_reserved":false,"is_disabled":false,"rental_uris":{"android":"levelo://app?vid=16956ecc-ed47-44a5-bf64-7ac7c0de85fa","ios":"levelo://app?vid=16956ecc-ed47-44a5-bf64-7ac7c0de85fa"},"vehicle_type_id":"4","last_reported":1748704131,"current_range_meters":10800,"station_id":"","pricing_plan_id":"cebpf4jnsgd1na2vs0mg"},{"bike_id":"827fa0d4-591e-445e-a866-6d99e4fec146","system_id":"levelo_inurba_marseille","lat":43.298438,"lon":5.362693,"is_reserved":false,"is_disabled":false,"rental_uris":{"android":"levelo://app?vid=827fa0d4-591e-445e-a866-6d99e4fec146","ios":"levelo://app?vid=827fa0d4-591e-445e-a866-6d99e4fec146"},"vehicle_type_id":"4","last_reported":1748704131,"current_range_meters":11200,"station_id":"ce4bgpp2rcd13ifvqc3g","pricing_plan_id":"cebpf4jnsgd1na2vs0mg"},{"bike_id":"f4e49996-ce0c-42e7-9a15-35b5f4497b3e","system_id":"levelo_inurba_marseille","lat":43.32285,"lon":5.38275,"is_reserved":false,"is_disabled":false,"rental_uris":{"android":"levelo://app?vid=f4e49996-ce0c-42e7-9a15-35b5f4497b3e","ios":"levelo://app?vid=f4e49996-ce0c-42e7-9a15-35b5f4497b3e"},"vehicle_type_id":"4","last_reported":1748704131,"current_range_meters":11200,"station_id":"ce4bhr12rcd13ifvqhqg","pricing_plan_id":"cebpf4jnsgd1na2vs0mg"},{"bike_id":"0eeb8d78-4e09-4917-a0f6-a855cf66389e","system_id":"levelo_inurba_marseille","lat":43.30733,"lon":5.42442,"is_reserved":false,"is_disabled":false,"rental_uris":{"android":"levelo://app?vid=0eeb8d78-4e09-4917-a0f6-a855cf66389e","ios":"levelo://app?vid=0eeb8d78-4e09-4917-a0f6-a855cf66389e"},"vehicle_type_id":"4","last_reported":1748704131,"current_range_meters":11200,"station_id":"st_cvj6ca6bvosntc0bfgr0","pricing_plan_id":"cebpf4jnsgd1na2vs0mg"},{"bike_id":"dfc6964a-7e15-4f5d-9faf-f56504505ccd","system_id":"levelo_inurba_marseille","lat":43.24182,"lon":5.36414,"is_reserved":false,"is_disabled":false,"rental_uris":{"android":"levelo://app?vid=dfc6964a-7e15-4f5d-9faf-f56504505ccd","ios":"levelo://app?vid=dfc6964a-7e15-4f5d-9faf-f56504505ccd"},"vehicle_type_id":"4","last_reported":1748704131,"current_range_meters":11200,"station_id":"cpo36qri1sfpv3e86is0","pricing_plan_id":"cebpf4jnsgd1na2vs0mg"},{"bike_id":"76a945ba-9ba8-414f-963a-73e1a106e0fc","system_id":"levelo_inurba_marseille","lat":43.26262,"lon":5.40405,"is_reserved":false,"is_disabled":false,"rental_uris":{"android":"levelo://app?vid=76a945ba-9ba8-414f-963a-73e1a106e0fc","ios":"levelo://app?vid=76a945ba-9ba8-414f-963a-73e1a106e0fc"},"vehicle_type_id":"4","last_reported":1748704131,"current_range_meters":11200,"station_id":"","pricing_plan_id":"cebpf4jnsgd1na2vs0mg"},{"bike_id":"a202821e-842c-4ad8-a402-9a94950adada","system_id":"levelo_inurba_marseille","lat":43.24803,"lon":5.37447,"is_reserved":false,"is_disabled":false,"rental_uris":{"android":"levelo://app?vid=a202821e-842c-4ad8-a402-9a94950adada","ios":"levelo://app?vid=a202821e-842c-4ad8-a402-9a94950adada"},"vehicle_type_id":"4","last_reported":1748704131,"current_range_meters":11200,"station_id":"ce4bhgh2rcd13ifvqfb0","pricing_plan_id":"cebpf4jnsgd1na2vs0mg"},{"bike_id":"d0cb1d53-efbf-4a9e-8bc7-ed612ec0846d","system_id":"levelo_inurba_marseille","lat":43.29576,"lon":5.36735,"is_reserved":false,"is_disabled":false,"rental_uris":{"android":"levelo://app?vid=d0cb1d53-efbf-4a9e-8bc7-ed612ec0846d","ios":"levelo://app?vid=d0cb1d53-efbf-4a9e-8bc7-ed612ec0846d"},"vehicle_type_id":"4","last_reported":1748704131,"current_range_meters":11200,"station_id":"ce4bgph2rcd13ifvqc2g","pricing_plan_id":"cebpf4jnsgd1na2vs0mg"},{"bike_id":"965f07d7-e957-45ef-953c-8871a1c8c78d","system_id":"levelo_inurba_marseille","lat":43.231879,"lon":5.355598,"is_reserved":false,"is_disabled":false,"rental_uris":{"android":"levelo://app?vid=965f07d7-e957-45ef-953c-8871a1c8c78d","ios":"levelo://app?vid=965f07d7-e957-45ef-953c-8871a1c8c78d"},"vehicle_type_id":"4","last_reported":1748704131,"current_range_meters":11200,"station_id":"ce4bhu92rcd13ifvqi70","pricing_plan_id":"cebpf4jnsgd1na2vs0mg"},{"bike_id":"a7bc0857-ba13-43fa-9be2-c26b232e5a26","system_id":"levelo_inurba_marseille","lat":43.25964,"lon":5.40926,"is_reserved":false,"is_disabled":false,"rental_uris":{"android":"levelo://app?vid=a7bc0857-ba13-43fa-9be2-c26b232e5a26","ios":"levelo://app?vid=a7bc0857-ba13-43fa-9be2-c26b232e5a26"},"vehicle_type_id":"4","last_reported":1748704131,"current_range_meters":11600,"station_id":"ce4bhm92rcd13ifvqglg","pricing_plan_id":"cebpf4jnsgd1na2vs0mg"},{"bike_id":"26912fd1-ccd3-4d3d-bd4f-968632c2e5ce","system_id":"levelo_inurba_marseille","lat":43.28101,"lon":5.35182,"is_reserved":false,"is_disabled":false,"rental_uris":{"android":"levelo://app?vid=26912fd1-ccd3-4d3d-bd4f-968632c2e5ce","ios":"levelo://app?vid=26912fd1-ccd3-4d3d-bd4f-968632c2e5ce"},"vehicle_type_id":"4","last_reported":1748704131,"current_range_meters":11600,"station_id":"","pricing_plan_id":"cebpf4jnsgd1na2vs0mg"},{"bike_id":"d2c655d4-e408-4f55-a6ed-747e95c58640","system_id":"levelo_inurba_marseille","lat":43.2603,"lon":5.37393,"is_reserved":false,"is_disabled":false,"rental_uris":{"android":"levelo://app?vid=d2c655d4-e408-4f55-a6ed-747e95c58640","ios":"levelo://app?vid=d2c655d4-e408-4f55-a6ed-747e95c58640"},"vehicle_type_id":"4","last_reported":1748704131,"current_range_meters":11600,"station_id":"ce4bhgh2rcd13ifvqfa0","pricing_plan_id":"cebpf4jnsgd1na2vs0mg"},{"bike_id":"ca45ae50-8fdf-43fd-8443-30c134198d86","system_id":"levelo_inurba_marseille","lat":43.265571,"lon":5.403174,"is_reserved":false,"is_disabled":false,"rental_uris":{"android":"levelo://app?vid=ca45ae50-8fdf-43fd-8443-30c134198d86","ios":"levelo://app?vid=ca45ae50-8fdf-43fd-8443-30c134198d86"},"vehicle_type_id":"4","last_reported":1748704131,"current_range_meters":11600,"station_id":"","pricing_plan_id":"cebpf4jnsgd1na2vs0mg"},{"bike_id":"b54e7538-cf3f-4cbe-be24-ff15fcabb9a0","system_id":"levelo_inurba_marseille","lat":43.24069,"lon":5.37765,"is_reserved":false,"is_disabled":false,"rental_uris":{"android":"levelo://app?vid=b54e7538-cf3f-4cbe-be24-ff15fcabb9a0","ios":"levelo://app?vid=b54e7538-cf3f-4cbe-be24-ff15fcabb9a0"},"vehicle_type_id":"4","last_reported":1748704131,"current_range_meters":11600,"station_id":"ce4bhnp2rcd13ifvqgvg","pricing_plan_id":"cebpf4jnsgd1na2vs0mg"},{"bike_id":"7a5acad9-97d8-4b73-9937-a52554403c4b","system_id":"levelo_inurba_marseille","lat":43.280509,"lon":5.368973,"is_reserved":false,"is_disabled":false,"rental_uris":{"android":"levelo://app?vid=7a5acad9-97d8-4b73-9937-a52554403c4b","ios":"levelo://app?vid=7a5acad9-97d8-4b73-9937-a52554403c4b"},"vehicle_type_id":"4","last_reported":1748704131,"current_range_meters":12000,"station_id":"ce4bha12rcd13ifvqef0","pricing_plan_id":"cebpf4jnsgd1na2vs0mg"},{"bike_id":"e6bf0c37-d2a0-4cf7-bda5-bdec7e2a1f23","system_id":"levelo_inurba_marseille","lat":43.32301,"lon":5.38291,"is_reserved":false,"is_disabled":false,"rental_uris":{"android":"levelo://app?vid=e6bf0c37-d2a0-4cf7-bda5-bdec7e2a1f23","ios":"levelo://app?vid=e6bf0c37-d2a0-4cf7-bda5-bdec7e2a1f23"},"vehicle_type_id":"4","last_reported":1748704131,"current_range_meters":12400,"station_id":"ce4bhr12rcd13ifvqhqg","pricing_plan_id":"cebpf4jnsgd1na2vs0mg"},{"bike_id":"b4a389d7-474d-4a9d-8dec-223a88612b5c","system_id":"levelo_inurba_marseille","lat":43.249936,"lon":5.379433,"is_reserved":false,"is_disabled":false,"rental_uris":{"android":"levelo://app?vid=b4a389d7-474d-4a9d-8dec-223a88612b5c","ios":"levelo://app?vid=b4a389d7-474d-4a9d-8dec-223a88612b5c"},"vehicle_type_id":"4","last_reported":1748704131,"current_range_meters":12800,"station_id":"","pricing_plan_id":"cebpf4jnsgd1na2vs0mg"},{"bike_id":"a6b85f87-ddb2-4a8f-bf63-06c82601ec76","system_id":"levelo_inurba_marseille","lat":43.29006,"lon":5.35611,"is_reserved":false,"is_disabled":false,"rental_uris":{"android":"levelo://app?vid=a6b85f87-ddb2-4a8f-bf63-06c82601ec76","ios":"levelo://app?vid=a6b85f87-ddb2-4a8f-bf63-06c82601ec76"},"vehicle_type_id":"4","last_reported":1748704131,"current_range_meters":12800,"station_id":"ce4bhb92rcd13ifvqen0","pricing_plan_id":"cebpf4jnsgd1na2vs0mg"},{"bike_id":"1cbc3454-ff5d-4ea4-b25c-b28e2bf616a9","system_id":"levelo_inurba_marseille","lat":43.2511,"lon":5.40356,"is_reserved":false,"is_disabled":false,"rental_uris":{"android":"levelo://app?vid=1cbc3454-ff5d-4ea4-b25c-b28e2bf616a9","ios":"levelo://app?vid=1cbc3454-ff5d-4ea4-b25c-b28e2bf616a9"},"vehicle_type_id":"4","last_reported":1748704131,"current_range_meters":12800,"station_id":"ce4bhlh2rcd13ifvqgig","pricing_plan_id":"cebpf4jnsgd1na2vs0mg"},{"bike_id":"16bed83e-c9af-4098-920f-9ff7c84242bf","system_id":"levelo_inurba_marseille","lat":43.26953,"lon":5.38632,"is_reserved":false,"is_disabled":false,"rental_uris":{"android":"levelo://app?vid=16bed83e-c9af-4098-920f-9ff7c84242bf","ios":"levelo://app?vid=16bed83e-c9af-4098-920f-9ff7c84242bf"},"vehicle_type_id":"4","last_reported":1748704131,"current_range_meters":13600,"station_id":"ce4bhh92rcd13ifvqfh0","pricing_plan_id":"cebpf4jnsgd1na2vs0mg"},{"bike_id":"50e26d67-33b3-4efb-bf7b-dee914c84cc2","system_id":"levelo_inurba_marseille","lat":43.30932,"lon":5.40138,"is_reserved":false,"is_disabled":false,"rental_uris":{"android":"levelo://app?vid=50e26d67-33b3-4efb-bf7b-dee914c84cc2","ios":"levelo://app?vid=50e26d67-33b3-4efb-bf7b-dee914c84cc2"},"vehicle_type_id":"4","last_reported":1748704131,"current_range_meters":13600,"station_id":"ce4bgvp2rcd13ifvqct0","pricing_plan_id":"cebpf4jnsgd1na2vs0mg"},{"bike_id":"b50609fe-871b-4904-824b-ee2be6c32b2d","system_id":"levelo_inurba_marseille","lat":43.21765,"lon":5.34611,"is_reserved":false,"is_disabled":false,"rental_uris":{"android":"levelo://app?vid=b50609fe-871b-4904-824b-ee2be6c32b2d","ios":"levelo://app?vid=b50609fe-871b-4904-824b-ee2be6c32b2d"},"vehicle_type_id":"4","last_reported":1748704131,"current_range_meters":13600,"station_id":"st_cvj6r9ubvosntc0bgbag","pricing_plan_id":"cebpf4jnsgd1na2vs0mg"},{"bike_id":"14036455-f919-44f7-8d5e-0b2e84f48674","system_id":"levelo_inurba_marseille","lat":43.309266,"lon":5.403949,"is_reserved":false,"is_disabled":false,"rental_uris":{"android":"levelo://app?vid=14036455-f919-44f7-8d5e-0b2e84f48674","ios":"levelo://app?vid=14036455-f919-44f7-8d5e-0b2e84f48674"},"vehicle_type_id":"4","last_reported":1748704131,"current_range_meters":13600,"station_id":"","pricing_plan_id":"cebpf4jnsgd1na2vs0mg"},{"bike_id":"98ddba23-8dcd-4ce7-8c4f-2c08b4562868","system_id":"levelo_inurba_marseille","lat":43.288391,"lon":5.393113,"is_reserved":false,"is_disabled":false,"rental_uris":{"android":"levelo://app?vid=98ddba23-8dcd-4ce7-8c4f-2c08b4562868","ios":"levelo://app?vid=98ddba23-8dcd-4ce7-8c4f-2c08b4562868"},"vehicle_type_id":"4","last_reported":1748704131,"current_range_meters":13600,"station_id":"ce4bh2p2rcd13ifvqdi0","pricing_plan_id":"cebpf4jnsgd1na2vs0mg"},{"bike_id":"34836b97-a782-4c44-bce0-7b149acf5214","system_id":"levelo_inurba_marseille","lat":43.27613,"lon":5.36102,"is_reserved":false,"is_disabled":false,"rental_uris":{"android":"levelo://app?vid=34836b97-a782-4c44-bce0-7b149acf5214","ios":"levelo://app?vid=34836b97-a782-4c44-bce0-7b149acf5214"},"vehicle_type_id":"4","last_reported":1748704131,"current_range_meters":13600,"station_id":"ce4bgj92rcd13ifvqbe0","pricing_plan_id":"cebpf4jnsgd1na2vs0mg"},{"bike_id":"4710bb98-56ec-4899-a743-9d4ec4240291","system_id":"levelo_inurba_marseille","lat":43.26801,"lon":5.40271,"is_reserved":false,"is_disabled":false,"rental_uris":{"android":"levelo://app?vid=4710bb98-56ec-4899-a743-9d4ec4240291","ios":"levelo://app?vid=4710bb98-56ec-4899-a743-9d4ec4240291"},"vehicle_type_id":"4","last_reported":1748704131,"current_range_meters":13600,"station_id":"ce501612rcd8frsf0b60","pricing_plan_id":"cebpf4jnsgd1na2vs0mg"},{"bike_id":"8f0300e4-899f-4e13-b8a7-90f137ab1640","system_id":"levelo_inurba_marseille","lat":43.27047,"lon":5.39332,"is_reserved":false,"is_disabled":false,"rental_uris":{"android":"levelo://app?vid=8f0300e4-899f-4e13-b8a7-90f137ab1640","ios":"levelo://app?vid=8f0300e4-899f-4e13-b8a7-90f137ab1640"},"vehicle_type_id":"4","last_reported":1748704131,"current_range_meters":14000,"station_id":"","pricing_plan_id":"cebpf4jnsgd1na2vs0mg"},{"bike_id":"3747e18f-5d13-4b46-9b50-2d941944f743","system_id":"levelo_inurba_marseille","lat":43.317002,"lon":5.404901,"is_reserved":false,"is_disabled":false,"rental_uris":{"android":"levelo://app?vid=3747e18f-5d13-4b46-9b50-2d941944f743","ios":"levelo://app?vid=3747e18f-5d13-4b46-9b50-2d941944f743"},"vehicle_type_id":"4","last_reported":1748704131,"current_range_meters":14000,"station_id":"ce4bh012rcd13ifvqd00","pricing_plan_id":"cebpf4jnsgd1na2vs0mg"},{"bike_id":"dcbd272a-79ae-4bdf-8266-0b6cb7477b2f","system_id":"levelo_inurba_marseille","lat":43.29005,"lon":5.35605,"is_reserved":false,"is_disabled":false,"rental_uris":{"android":"levelo://app?vid=dcbd272a-79ae-4bdf-8266-0b6cb7477b2f","ios":"levelo://app?vid=dcbd272a-79ae-4bdf-8266-0b6cb7477b2f"},"vehicle_type_id":"4","last_reported":1748704131,"current_range_meters":14000,"station_id":"ce4bhb92rcd13ifvqen0","pricing_plan_id":"cebpf4jnsgd1na2vs0mg"},{"bike_id":"47e991c2-6330-4ff1-a45f-40f958f3abfb","system_id":"levelo_inurba_marseille","lat":43.23054,"lon":5.35497,"is_reserved":false,"is_disabled":false,"rental_uris":{"android":"levelo://app?vid=47e991c2-6330-4ff1-a45f-40f958f3abfb","ios":"levelo://app?vid=47e991c2-6330-4ff1-a45f-40f958f3abfb"},"vehicle_type_id":"4","last_reported":1748704131,"current_range_meters":14000,"station_id":"cpo3342slgdg3j2ifvpg","pricing_plan_id":"cebpf4jnsgd1na2vs0mg"},{"bike_id":"740ed209-b5ad-426f-b900-542a97bce272","system_id":"levelo_inurba_marseille","lat":43.231525,"lon":5.43714,"is_reserved":false,"is_disabled":false,"rental_uris":{"android":"levelo://app?vid=740ed209-b5ad-426f-b900-542a97bce272","ios":"levelo://app?vid=740ed209-b5ad-426f-b900-542a97bce272"},"vehicle_type_id":"4","last_reported":1748704131,"current_range_meters":14400,"station_id":"ce4bhmp2rcd13ifvqgog","pricing_plan_id":"cebpf4jnsgd1na2vs0mg"},{"bike_id":"19f5b483-5b36-4c43-8206-d0f53f4ecf01","system_id":"levelo_inurba_marseille","lat":43.24168,"lon":5.36405,"is_reserved":false,"is_disabled":false,"rental_uris":{"android":"levelo://app?vid=19f5b483-5b36-4c43-8206-d0f53f4ecf01","ios":"levelo://app?vid=19f5b483-5b36-4c43-8206-d0f53f4ecf01"},"vehicle_type_id":"4","last_reported":1748704131,"current_range_meters":14400,"station_id":"cpo36qri1sfpv3e86is0","pricing_plan_id":"cebpf4jnsgd1na2vs0mg"},{"bike_id":"72b3ac97-5479-4f92-a3cc-63040205d956","system_id":"levelo_inurba_marseille","lat":43.2707,"lon":5.42276,"is_reserved":false,"is_disabled":false,"rental_uris":{"android":"levelo://app?vid=72b3ac97-5479-4f92-a3cc-63040205d956","ios":"levelo://app?vid=72b3ac97-5479-4f92-a3cc-63040205d956"},"vehicle_type_id":"4","last_reported":1748704131,"current_range_meters":14400,"station_id":"ce4bhk92rcd13ifvqgb0","pricing_plan_id":"cebpf4jnsgd1na2vs0mg"},{"bike_id":"32465c4d-56bb-4036-9a63-aa9afa6f4bea","system_id":"levelo_inurba_marseille","lat":43.2841,"lon":5.34986,"is_reserved":false,"is_disabled":false,"rental_uris":{"android":"levelo://app?vid=32465c4d-56bb-4036-9a63-aa9afa6f4bea","ios":"levelo://app?vid=32465c4d-56bb-4036-9a63-aa9afa6f4bea"},"vehicle_type_id":"4","last_reported":1748704131,"current_range_meters":14400,"station_id":"ce4bhbh2rcd13ifvqepg","pricing_plan_id":"cebpf4jnsgd1na2vs0mg"},{"bike_id":"d94ad4e9-ef56-400a-81a8-14ac56c6093e","system_id":"levelo_inurba_marseille","lat":43.217487,"lon":5.346031,"is_reserved":false,"is_disabled":false,"rental_uris":{"android":"levelo://app?vid=d94ad4e9-ef56-400a-81a8-14ac56c6093e","ios":"levelo://app?vid=d94ad4e9-ef56-400a-81a8-14ac56c6093e"},"vehicle_type_id":"4","last_reported":1748704131,"current_range_meters":14400,"station_id":"st_cvj6r9ubvosntc0bgbag","pricing_plan_id":"cebpf4jnsgd1na2vs0mg"},{"bike_id":"5d3a04bb-18f9-47b8-8e40-e1fd69f6c73a","system_id":"levelo_inurba_marseille","lat":43.31709,"lon":5.43715,"is_reserved":false,"is_disabled":false,"rental_uris":{"android":"levelo://app?vid=5d3a04bb-18f9-47b8-8e40-e1fd69f6c73a","ios":"levelo://app?vid=5d3a04bb-18f9-47b8-8e40-e1fd69f6c73a"},"vehicle_type_id":"4","last_reported":1748704131,"current_range_meters":14400,"station_id":"ce4bhp92rcd13ifvqhcg","pricing_plan_id":"cebpf4jnsgd1na2vs0mg"},{"bike_id":"f6d72ddb-15c6-4b6d-98f7-e75b38a29476","system_id":"levelo_inurba_marseille","lat":43.26937,"lon":5.38912,"is_reserved":false,"is_disabled":false,"rental_uris":{"android":"levelo://app?vid=f6d72ddb-15c6-4b6d-98f7-e75b38a29476","ios":"levelo://app?vid=f6d72ddb-15c6-4b6d-98f7-e75b38a29476"},"vehicle_type_id":"4","last_reported":1748704131,"current_range_meters":14000,"station_id":"ce4bhhh2rcd13ifvqfl0","pricing_plan_id":"cebpf4jnsgd1na2vs0mg"},{"bike_id":"8074624f-24d4-43d3-adbb-0569cd2205a0","system_id":"levelo_inurba_marseille","lat":43.21736,"lon":5.34606,"is_reserved":false,"is_disabled":false,"rental_uris":{"android":"levelo://app?vid=8074624f-24d4-43d3-adbb-0569cd2205a0","ios":"levelo://app?vid=8074624f-24d4-43d3-adbb-0569cd2205a0"},"vehicle_type_id":"4","last_reported":1748704131,"current_range_meters":14800,"station_id":"st_cvj6r9ubvosntc0bgbag","pricing_plan_id":"cebpf4jnsgd1na2vs0mg"},{"bike_id":"d1d54399-cb88-4aa8-b7b4-1bea75018d93","system_id":"levelo_inurba_marseille","lat":43.29973,"lon":5.37168,"is_reserved":false,"is_disabled":false,"rental_uris":{"android":"levelo://app?vid=d1d54399-cb88-4aa8-b7b4-1bea75018d93","ios":"levelo://app?vid=d1d54399-cb88-4aa8-b7b4-1bea75018d93"},"vehicle_type_id":"4","last_reported":1748704131,"current_range_meters":14800,"station_id":"ce4bgr92rcd13ifvqc7g","pricing_plan_id":"cebpf4jnsgd1na2vs0mg"},{"bike_id":"b332eee5-37e0-485f-8bb3-c6bf82324e53","system_id":"levelo_inurba_marseille","lat":43.28418,"lon":5.35014,"is_reserved":false,"is_disabled":false,"rental_uris":{"android":"levelo://app?vid=b332eee5-37e0-485f-8bb3-c6bf82324e53","ios":"levelo://app?vid=b332eee5-37e0-485f-8bb3-c6bf82324e53"},"vehicle_type_id":"4","last_reported":1748704131,"current_range_meters":15200,"station_id":"ce4bhbh2rcd13ifvqepg","pricing_plan_id":"cebpf4jnsgd1na2vs0mg"},{"bike_id":"57912d07-fc75-4b13-92e2-acc82d953603","system_id":"levelo_inurba_marseille","lat":43.2622,"lon":5.37936,"is_reserved":false,"is_disabled":false,"rental_uris":{"android":"levelo://app?vid=57912d07-fc75-4b13-92e2-acc82d953603","ios":"levelo://app?vid=57912d07-fc75-4b13-92e2-acc82d953603"},"vehicle_type_id":"4","last_reported":1748704131,"current_range_meters":15200,"station_id":"ce4bhjp2rcd13ifvqg90","pricing_plan_id":"cebpf4jnsgd1na2vs0mg"},{"bike_id":"d6705d53-8d5c-4980-9a08-0aa00130d2b0","system_id":"levelo_inurba_marseille","lat":43.28614,"lon":5.35114,"is_reserved":false,"is_disabled":false,"rental_uris":{"android":"levelo://app?vid=d6705d53-8d5c-4980-9a08-0aa00130d2b0","ios":"levelo://app?vid=d6705d53-8d5c-4980-9a08-0aa00130d2b0"},"vehicle_type_id":"4","last_reported":1748704131,"current_range_meters":15200,"station_id":"ce4bhch2rcd13ifvqeug","pricing_plan_id":"cebpf4jnsgd1na2vs0mg"},{"bike_id":"792b8862-e581-44be-8ddc-645d1733b829","system_id":"levelo_inurba_marseille","lat":43.2862,"lon":5.37097,"is_reserved":false,"is_disabled":false,"rental_uris":{"android":"levelo://app?vid=792b8862-e581-44be-8ddc-645d1733b829","ios":"levelo://app?vid=792b8862-e581-44be-8ddc-645d1733b829"},"vehicle_type_id":"4","last_reported":1748704131,"current_range_meters":15200,"station_id":"ce4bht12rcd13ifvqi60","pricing_plan_id":"cebpf4jnsgd1na2vs0mg"},{"bike_id":"0a9b504a-5f98-4ecf-a12f-1fcda659d650","system_id":"levelo_inurba_marseille","lat":43.26182,"lon":5.37461,"is_reserved":false,"is_disabled":false,"rental_uris":{"android":"levelo://app?vid=0a9b504a-5f98-4ecf-a12f-1fcda659d650","ios":"levelo://app?vid=0a9b504a-5f98-4ecf-a12f-1fcda659d650"},"vehicle_type_id":"4","last_reported":1748704131,"current_range_meters":15200,"station_id":"ce4bhgp2rcd13ifvqfc0","pricing_plan_id":"cebpf4jnsgd1na2vs0mg"},{"bike_id":"f2e02ca7-421f-46bd-83a2-49944f1ffea9","system_id":"levelo_inurba_marseille","lat":43.23965,"lon":5.36629,"is_reserved":false,"is_disabled":false,"rental_uris":{"android":"levelo://app?vid=f2e02ca7-421f-46bd-83a2-49944f1ffea9","ios":"levelo://app?vid=f2e02ca7-421f-46bd-83a2-49944f1ffea9"},"vehicle_type_id":"4","last_reported":1748704131,"current_range_meters":16000,"station_id":"ce4bhi12rcd13ifvqfp0","pricing_plan_id":"cebpf4jnsgd1na2vs0mg"},{"bike_id":"76fca690-1ceb-40a6-b2ab-3ae26d990ca9","system_id":"levelo_inurba_marseille","lat":43.28624,"lon":5.35114,"is_reserved":false,"is_disabled":false,"rental_uris":{"android":"levelo://app?vid=76fca690-1ceb-40a6-b2ab-3ae26d990ca9","ios":"levelo://app?vid=76fca690-1ceb-40a6-b2ab-3ae26d990ca9"},"vehicle_type_id":"4","last_reported":1748704131,"current_range_meters":16000,"station_id":"ce4bhch2rcd13ifvqeug","pricing_plan_id":"cebpf4jnsgd1na2vs0mg"},{"bike_id":"9a189ee8-27ed-444b-b171-f705371af28f","system_id":"levelo_inurba_marseille","lat":43.28249,"lon":5.34903,"is_reserved":false,"is_disabled":false,"rental_uris":{"android":"levelo://app?vid=9a189ee8-27ed-444b-b171-f705371af28f","ios":"levelo://app?vid=9a189ee8-27ed-444b-b171-f705371af28f"},"vehicle_type_id":"4","last_reported":1748704131,"current_range_meters":16000,"station_id":"","pricing_plan_id":"cebpf4jnsgd1na2vs0mg"},{"bike_id":"4634b1a0-27fb-4f28-89df-b2b50c9cbade","system_id":"levelo_inurba_marseille","lat":43.28632,"lon":5.37095,"is_reserved":false,"is_disabled":false,"rental_uris":{"android":"levelo://app?vid=4634b1a0-27fb-4f28-89df-b2b50c9cbade","ios":"levelo://app?vid=4634b1a0-27fb-4f28-89df-b2b50c9cbade"},"vehicle_type_id":"4","last_reported":1748704131,"current_range_meters":16000,"station_id":"ce4bht12rcd13ifvqi60","pricing_plan_id":"cebpf4jnsgd1na2vs0mg"},{"bike_id":"4e9c6896-f032-4347-b034-7c2b3b8b84a3","system_id":"levelo_inurba_marseille","lat":43.27402,"lon":5.36283,"is_reserved":false,"is_disabled":false,"rental_uris":{"android":"levelo://app?vid=4e9c6896-f032-4347-b034-7c2b3b8b84a3","ios":"levelo://app?vid=4e9c6896-f032-4347-b034-7c2b3b8b84a3"},"vehicle_type_id":"4","last_reported":1748704131,"current_range_meters":16000,"station_id":"ce4bhbh2rcd13ifvqeo0","pricing_plan_id":"cebpf4jnsgd1na2vs0mg"},{"bike_id":"5f224e55-2261-440e-bf2f-3cbcb28e1363","system_id":"levelo_inurba_marseille","lat":43.21758,"lon":5.34646,"is_reserved":false,"is_disabled":false,"rental_uris":{"android":"levelo://app?vid=5f224e55-2261-440e-bf2f-3cbcb28e1363","ios":"levelo://app?vid=5f224e55-2261-440e-bf2f-3cbcb28e1363"},"vehicle_type_id":"4","last_reported":1748704131,"current_range_meters":16000,"station_id":"st_cvj6r9ubvosntc0bgbag","pricing_plan_id":"cebpf4jnsgd1na2vs0mg"},{"bike_id":"d9ec35c4-388c-4ab8-ae02-d1cc8b808a2b","system_id":"levelo_inurba_marseille","lat":43.2176,"lon":5.34648,"is_reserved":false,"is_disabled":false,"rental_uris":{"android":"levelo://app?vid=d9ec35c4-388c-4ab8-ae02-d1cc8b808a2b","ios":"levelo://app?vid=d9ec35c4-388c-4ab8-ae02-d1cc8b808a2b"},"vehicle_type_id":"4","last_reported":1748704131,"current_range_meters":16000,"station_id":"st_cvj6r9ubvosntc0bgbag","pricing_plan_id":"cebpf4jnsgd1na2vs0mg"},{"bike_id":"1b5c7e43-1c74-4e71-9298-a23a53e6ec79","system_id":"levelo_inurba_marseille","lat":43.23964,"lon":5.36636,"is_reserved":false,"is_disabled":true,"rental_uris":{"android":"levelo://app?vid=1b5c7e43-1c74-4e71-9298-a23a53e6ec79","ios":"levelo://app?vid=1b5c7e43-1c74-4e71-9298-a23a53e6ec79"},"vehicle_type_id":"4","last_reported":1748704131,"current_range_meters":16000,"station_id":"ce4bhi12rcd13ifvqfp0","pricing_plan_id":"cebpf4jnsgd1na2vs0mg"},{"bike_id":"d95a8927-9413-4ee6-b8dd-9b96d5af8d5e","system_id":"levelo_inurba_marseille","lat":43.28349,"lon":5.35012,"is_reserved":false,"is_disabled":false,"rental_uris":{"android":"levelo://app?vid=d95a8927-9413-4ee6-b8dd-9b96d5af8d5e","ios":"levelo://app?vid=d95a8927-9413-4ee6-b8dd-9b96d5af8d5e"},"vehicle_type_id":"4","last_reported":1748704131,"current_range_meters":16000,"station_id":"","pricing_plan_id":"cebpf4jnsgd1na2vs0mg"},{"bike_id":"ab519125-8514-4746-bc9f-e958f09841d8","system_id":"levelo_inurba_marseille","lat":43.27385,"lon":5.36254,"is_reserved":false,"is_disabled":false,"rental_uris":{"android":"levelo://app?vid=ab519125-8514-4746-bc9f-e958f09841d8","ios":"levelo://app?vid=ab519125-8514-4746-bc9f-e958f09841d8"},"vehicle_type_id":"4","last_reported":1748704131,"current_range_meters":16000,"station_id":"ce4bhbh2rcd13ifvqeo0","pricing_plan_id":"cebpf4jnsgd1na2vs0mg"},{"bike_id":"e210be7e-07b8-44d3-ae09-6702f28e2ae8","system_id":"levelo_inurba_marseille","lat":43.2513,"lon":5.39359,"is_reserved":false,"is_disabled":false,"rental_uris":{"android":"levelo://app?vid=e210be7e-07b8-44d3-ae09-6702f28e2ae8","ios":"levelo://app?vid=e210be7e-07b8-44d3-ae09-6702f28e2ae8"},"vehicle_type_id":"4","last_reported":1748704131,"current_range_meters":16000,"station_id":"","pricing_plan_id":"cebpf4jnsgd1na2vs0mg"},{"bike_id":"b9b148d0-4c0b-41c4-b76e-a223fe1dd267","system_id":"levelo_inurba_marseille","lat":43.292694,"lon":5.374904,"is_reserved":false,"is_disabled":false,"rental_uris":{"android":"levelo://app?vid=b9b148d0-4c0b-41c4-b76e-a223fe1dd267","ios":"levelo://app?vid=b9b148d0-4c0b-41c4-b76e-a223fe1dd267"},"vehicle_type_id":"4","last_reported":1748704131,"current_range_meters":16000,"station_id":"ce4bgi12rcd13ifvqb70","pricing_plan_id":"cebpf4jnsgd1na2vs0mg"},{"bike_id":"410ef4e6-e6c8-4b6e-b701-f1ce0f4f2e9e","system_id":"levelo_inurba_marseille","lat":43.28421,"lon":5.34996,"is_reserved":false,"is_disabled":false,"rental_uris":{"android":"levelo://app?vid=410ef4e6-e6c8-4b6e-b701-f1ce0f4f2e9e","ios":"levelo://app?vid=410ef4e6-e6c8-4b6e-b701-f1ce0f4f2e9e"},"vehicle_type_id":"4","last_reported":1748704131,"current_range_meters":16400,"station_id":"ce4bhbh2rcd13ifvqepg","pricing_plan_id":"cebpf4jnsgd1na2vs0mg"},{"bike_id":"32503fa7-7208-4269-b40f-34ba3dae0f9e","system_id":"levelo_inurba_marseille","lat":43.308651,"lon":5.403664,"is_reserved":false,"is_disabled":false,"rental_uris":{"android":"levelo://app?vid=32503fa7-7208-4269-b40f-34ba3dae0f9e","ios":"levelo://app?vid=32503fa7-7208-4269-b40f-34ba3dae0f9e"},"vehicle_type_id":"4","last_reported":1748704131,"current_range_meters":16400,"station_id":"","pricing_plan_id":"cebpf4jnsgd1na2vs0mg"},{"bike_id":"23429b08-2b88-429e-88ec-a6c6eb18f7eb","system_id":"levelo_inurba_marseille","lat":43.28406,"lon":5.34984,"is_reserved":false,"is_disabled":false,"rental_uris":{"android":"levelo://app?vid=23429b08-2b88-429e-88ec-a6c6eb18f7eb","ios":"levelo://app?vid=23429b08-2b88-429e-88ec-a6c6eb18f7eb"},"vehicle_type_id":"4","last_reported":1748704131,"current_range_meters":16400,"station_id":"ce4bhbh2rcd13ifvqepg","pricing_plan_id":"cebpf4jnsgd1na2vs0mg"},{"bike_id":"43a23579-e807-4f75-ba6b-fb4dcd8da0df","system_id":"levelo_inurba_marseille","lat":43.262067,"lon":5.37446,"is_reserved":false,"is_disabled":false,"rental_uris":{"android":"levelo://app?vid=43a23579-e807-4f75-ba6b-fb4dcd8da0df","ios":"levelo://app?vid=43a23579-e807-4f75-ba6b-fb4dcd8da0df"},"vehicle_type_id":"4","last_reported":1748704131,"current_range_meters":16400,"station_id":"ce4bhgp2rcd13ifvqfc0","pricing_plan_id":"cebpf4jnsgd1na2vs0mg"},{"bike_id":"b7911b41-d164-45aa-8851-a26dc5030f16","system_id":"levelo_inurba_marseille","lat":43.26203,"lon":5.37448,"is_reserved":false,"is_disabled":false,"rental_uris":{"android":"levelo://app?vid=b7911b41-d164-45aa-8851-a26dc5030f16","ios":"levelo://app?vid=b7911b41-d164-45aa-8851-a26dc5030f16"},"vehicle_type_id":"4","last_reported":1748704131,"current_range_meters":16400,"station_id":"ce4bhgp2rcd13ifvqfc0","pricing_plan_id":"cebpf4jnsgd1na2vs0mg"},{"bike_id":"caec1075-c0e4-4c2b-ae32-e45dba64aa41","system_id":"levelo_inurba_marseille","lat":43.29001,"lon":5.35613,"is_reserved":false,"is_disabled":false,"rental_uris":{"android":"levelo://app?vid=caec1075-c0e4-4c2b-ae32-e45dba64aa41","ios":"levelo://app?vid=caec1075-c0e4-4c2b-ae32-e45dba64aa41"},"vehicle_type_id":"4","last_reported":1748704131,"current_range_meters":16400,"station_id":"ce4bhb92rcd13ifvqen0","pricing_plan_id":"cebpf4jnsgd1na2vs0mg"},{"bike_id":"a36383a4-d3bd-447f-ad3e-467ac1a5b918","system_id":"levelo_inurba_marseille","lat":43.25498,"lon":5.37648,"is_reserved":false,"is_disabled":false,"rental_uris":{"android":"levelo://app?vid=a36383a4-d3bd-447f-ad3e-467ac1a5b918","ios":"levelo://app?vid=a36383a4-d3bd-447f-ad3e-467ac1a5b918"},"vehicle_type_id":"4","last_reported":1748704131,"current_range_meters":16400,"station_id":"ce4bhh12rcd13ifvqff0","pricing_plan_id":"cebpf4jnsgd1na2vs0mg"},{"bike_id":"59cc9f64-369b-40a4-aef4-571b231df862","system_id":"levelo_inurba_marseille","lat":43.28135,"lon":5.35219,"is_reserved":false,"is_disabled":false,"rental_uris":{"android":"levelo://app?vid=59cc9f64-369b-40a4-aef4-571b231df862","ios":"levelo://app?vid=59cc9f64-369b-40a4-aef4-571b231df862"},"vehicle_type_id":"4","last_reported":1748704131,"current_range_meters":16400,"station_id":"","pricing_plan_id":"cebpf4jnsgd1na2vs0mg"},{"bike_id":"1d4c308a-3bd9-45f9-b273-125b02cf5593","system_id":"levelo_inurba_marseille","lat":43.27182,"lon":5.40988,"is_reserved":false,"is_disabled":false,"rental_uris":{"android":"levelo://app?vid=1d4c308a-3bd9-45f9-b273-125b02cf5593","ios":"levelo://app?vid=1d4c308a-3bd9-45f9-b273-125b02cf5593"},"vehicle_type_id":"4","last_reported":1748704131,"current_range_meters":16400,"station_id":"ce4bhl12rcd13ifvqgf0","pricing_plan_id":"cebpf4jnsgd1na2vs0mg"},{"bike_id":"fc3d5bb2-6e7a-4408-89ce-072df960ea21","system_id":"levelo_inurba_marseille","lat":43.26222,"lon":5.40447,"is_reserved":false,"is_disabled":false,"rental_uris":{"android":"levelo://app?vid=fc3d5bb2-6e7a-4408-89ce-072df960ea21","ios":"levelo://app?vid=fc3d5bb2-6e7a-4408-89ce-072df960ea21"},"vehicle_type_id":"4","last_reported":1748704131,"current_range_meters":16400,"station_id":"ce4bhmh2rcd13ifvqgmg","pricing_plan_id":"cebpf4jnsgd1na2vs0mg"},{"bike_id":"7f1b4ec6-72f4-42fa-8bf2-b04ed3fef245","system_id":"levelo_inurba_marseille","lat":43.28264,"lon":5.35059,"is_reserved":false,"is_disabled":false,"rental_uris":{"android":"levelo://app?vid=7f1b4ec6-72f4-42fa-8bf2-b04ed3fef245","ios":"levelo://app?vid=7f1b4ec6-72f4-42fa-8bf2-b04ed3fef245"},"vehicle_type_id":"4","last_reported":1748704131,"current_range_meters":16400,"station_id":"ce4bhbp2rcd13ifvqerg","pricing_plan_id":"cebpf4jnsgd1na2vs0mg"},{"bike_id":"a60c2200-48ff-4726-af47-1771145d9efd","system_id":"levelo_inurba_marseille","lat":43.274282,"lon":5.390377,"is_reserved":false,"is_disabled":false,"rental_uris":{"android":"levelo://app?vid=a60c2200-48ff-4726-af47-1771145d9efd","ios":"levelo://app?vid=a60c2200-48ff-4726-af47-1771145d9efd"},"vehicle_type_id":"4","last_reported":1748704131,"current_range_meters":16000,"station_id":"ce4bhjp2rcd13ifvqga0","pricing_plan_id":"cebpf4jnsgd1na2vs0mg"},{"bike_id":"0b248cd5-f7f1-4616-ab60-adc75f0b322e","system_id":"levelo_inurba_marseille","lat":43.22514,"lon":5.34844,"is_reserved":false,"is_disabled":false,"rental_uris":{"android":"levelo://app?vid=0b248cd5-f7f1-4616-ab60-adc75f0b322e","ios":"levelo://app?vid=0b248cd5-f7f1-4616-ab60-adc75f0b322e"},"vehicle_type_id":"4","last_reported":1748704131,"current_range_meters":16400,"station_id":"st_cvj5dfep6f1abm77gieg","pricing_plan_id":"cebpf4jnsgd1na2vs0mg"},{"bike_id":"e8856ff7-e6a6-4558-8148-910e74801acf","system_id":"levelo_inurba_marseille","lat":43.27929,"lon":5.38019,"is_reserved":false,"is_disabled":false,"rental_uris":{"android":"levelo://app?vid=e8856ff7-e6a6-4558-8148-910e74801acf","ios":"levelo://app?vid=e8856ff7-e6a6-4558-8148-910e74801acf"},"vehicle_type_id":"4","last_reported":1748704131,"current_range_meters":16800,"station_id":"ce4bhf92rcd13ifvqf50","pricing_plan_id":"cebpf4jnsgd1na2vs0mg"},{"bike_id":"f5a90625-b7e8-48a8-90c6-777efe255a32","system_id":"levelo_inurba_marseille","lat":43.251,"lon":5.40961,"is_reserved":false,"is_disabled":false,"rental_uris":{"android":"levelo://app?vid=f5a90625-b7e8-48a8-90c6-777efe255a32","ios":"levelo://app?vid=f5a90625-b7e8-48a8-90c6-777efe255a32"},"vehicle_type_id":"4","last_reported":1748704131,"current_range_meters":16800,"station_id":"","pricing_plan_id":"cebpf4jnsgd1na2vs0mg"},{"bike_id":"94d8a45d-aea0-42e6-ac6d-dedccc40ff8f","system_id":"levelo_inurba_marseille","lat":43.31999,"lon":5.38149,"is_reserved":false,"is_disabled":false,"rental_uris":{"android":"levelo://app?vid=94d8a45d-aea0-42e6-ac6d-dedccc40ff8f","ios":"levelo://app?vid=94d8a45d-aea0-42e6-ac6d-dedccc40ff8f"},"vehicle_type_id":"4","last_reported":1748704131,"current_range_meters":16800,"station_id":"ce4bhr12rcd13ifvqhpg","pricing_plan_id":"cebpf4jnsgd1na2vs0mg"},{"bike_id":"57200ecc-7bc4-420a-999c-e3081bb4694e","system_id":"levelo_inurba_marseille","lat":43.29048,"lon":5.35896,"is_reserved":false,"is_disabled":false,"rental_uris":{"android":"levelo://app?vid=57200ecc-7bc4-420a-999c-e3081bb4694e","ios":"levelo://app?vid=57200ecc-7bc4-420a-999c-e3081bb4694e"},"vehicle_type_id":"4","last_reported":1748704131,"current_range_meters":16800,"station_id":"ce4bha92rcd13ifvqeg0","pricing_plan_id":"cebpf4jnsgd1na2vs0mg"},{"bike_id":"04d9466d-772b-4411-a821-e01cfcd178ce","system_id":"levelo_inurba_marseille","lat":43.24185,"lon":5.36443,"is_reserved":false,"is_disabled":false,"rental_uris":{"android":"levelo://app?vid=04d9466d-772b-4411-a821-e01cfcd178ce","ios":"levelo://app?vid=04d9466d-772b-4411-a821-e01cfcd178ce"},"vehicle_type_id":"4","last_reported":1748704131,"current_range_meters":16800,"station_id":"cpo36qri1sfpv3e86is0","pricing_plan_id":"cebpf4jnsgd1na2vs0mg"},{"bike_id":"4d9035a1-4135-4911-9f5a-65e8a1a4939f","system_id":"levelo_inurba_marseille","lat":43.21776,"lon":5.34614,"is_reserved":false,"is_disabled":false,"rental_uris":{"android":"levelo://app?vid=4d9035a1-4135-4911-9f5a-65e8a1a4939f","ios":"levelo://app?vid=4d9035a1-4135-4911-9f5a-65e8a1a4939f"},"vehicle_type_id":"4","last_reported":1748704131,"current_range_meters":16800,"station_id":"st_cvj6r9ubvosntc0bgbag","pricing_plan_id":"cebpf4jnsgd1na2vs0mg"},{"bike_id":"de93a56e-3f35-4b4a-8535-09eb9fc2bdc0","system_id":"levelo_inurba_marseille","lat":43.27633,"lon":5.36119,"is_reserved":false,"is_disabled":false,"rental_uris":{"android":"levelo://app?vid=de93a56e-3f35-4b4a-8535-09eb9fc2bdc0","ios":"levelo://app?vid=de93a56e-3f35-4b4a-8535-09eb9fc2bdc0"},"vehicle_type_id":"4","last_reported":1748704131,"current_range_meters":16800,"station_id":"ce4bgj92rcd13ifvqbe0","pricing_plan_id":"cebpf4jnsgd1na2vs0mg"},{"bike_id":"5e6f3d61-a99f-43d9-b7d8-f42f5b762195","system_id":"levelo_inurba_marseille","lat":43.28401,"lon":5.34986,"is_reserved":false,"is_disabled":false,"rental_uris":{"android":"levelo://app?vid=5e6f3d61-a99f-43d9-b7d8-f42f5b762195","ios":"levelo://app?vid=5e6f3d61-a99f-43d9-b7d8-f42f5b762195"},"vehicle_type_id":"4","last_reported":1748704131,"current_range_meters":16800,"station_id":"ce4bhbh2rcd13ifvqepg","pricing_plan_id":"cebpf4jnsgd1na2vs0mg"},{"bike_id":"e6c4a856-d91c-4d19-bf9f-2e4436a7cab8","system_id":"levelo_inurba_marseille","lat":43.24387,"lon":5.37068,"is_reserved":false,"is_disabled":false,"rental_uris":{"android":"levelo://app?vid=e6c4a856-d91c-4d19-bf9f-2e4436a7cab8","ios":"levelo://app?vid=e6c4a856-d91c-4d19-bf9f-2e4436a7cab8"},"vehicle_type_id":"4","last_reported":1748704131,"current_range_meters":16800,"station_id":"ce4bhhh2rcd13ifvqfk0","pricing_plan_id":"cebpf4jnsgd1na2vs0mg"},{"bike_id":"a0db6823-45a3-4e57-a14b-5e3f85c23815","system_id":"levelo_inurba_marseille","lat":43.274933,"lon":5.42488,"is_reserved":false,"is_disabled":false,"rental_uris":{"android":"levelo://app?vid=a0db6823-45a3-4e57-a14b-5e3f85c23815","ios":"levelo://app?vid=a0db6823-45a3-4e57-a14b-5e3f85c23815"},"vehicle_type_id":"4","last_reported":1748704131,"current_range_meters":17200,"station_id":"ce4bhn92rcd13ifvqgrg","pricing_plan_id":"cebpf4jnsgd1na2vs0mg"},{"bike_id":"97b2bdc4-a610-4fbc-b2e0-ce13d06047e1","system_id":"levelo_inurba_marseille","lat":43.27386,"lon":5.36273,"is_reserved":false,"is_disabled":false,"rental_uris":{"android":"levelo://app?vid=97b2bdc4-a610-4fbc-b2e0-ce13d06047e1","ios":"levelo://app?vid=97b2bdc4-a610-4fbc-b2e0-ce13d06047e1"},"vehicle_type_id":"4","last_reported":1748704131,"current_range_meters":17200,"station_id":"ce4bhbh2rcd13ifvqeo0","pricing_plan_id":"cebpf4jnsgd1na2vs0mg"},{"bike_id":"f7da5b7d-6886-4508-8c6d-cd1da91cb8a9","system_id":"levelo_inurba_marseille","lat":43.26214,"lon":5.37445,"is_reserved":false,"is_disabled":false,"rental_uris":{"android":"levelo://app?vid=f7da5b7d-6886-4508-8c6d-cd1da91cb8a9","ios":"levelo://app?vid=f7da5b7d-6886-4508-8c6d-cd1da91cb8a9"},"vehicle_type_id":"4","last_reported":1748704131,"current_range_meters":17200,"station_id":"ce4bhgp2rcd13ifvqfc0","pricing_plan_id":"cebpf4jnsgd1na2vs0mg"},{"bike_id":"bae0d5d3-ae9c-4631-9731-d13c4b2e8a9f","system_id":"levelo_inurba_marseille","lat":43.29363,"lon":5.37856,"is_reserved":false,"is_disabled":false,"rental_uris":{"android":"levelo://app?vid=bae0d5d3-ae9c-4631-9731-d13c4b2e8a9f","ios":"levelo://app?vid=bae0d5d3-ae9c-4631-9731-d13c4b2e8a9f"},"vehicle_type_id":"4","last_reported":1748704131,"current_range_meters":17200,"station_id":"ce4bgjh2rcd13ifvqbf0","pricing_plan_id":"cebpf4jnsgd1na2vs0mg"},{"bike_id":"77c8d843-097d-4a21-9eaf-ceba89e1d972","system_id":"levelo_inurba_marseille","lat":43.24152,"lon":5.36419,"is_reserved":false,"is_disabled":false,"rental_uris":{"android":"levelo://app?vid=77c8d843-097d-4a21-9eaf-ceba89e1d972","ios":"levelo://app?vid=77c8d843-097d-4a21-9eaf-ceba89e1d972"},"vehicle_type_id":"4","last_reported":1748704131,"current_range_meters":17200,"station_id":"cpo36qri1sfpv3e86is0","pricing_plan_id":"cebpf4jnsgd1na2vs0mg"},{"bike_id":"77520d45-03bf-4b26-9f9b-8ac6c162ce6b","system_id":"levelo_inurba_marseille","lat":43.2436,"lon":5.41145,"is_reserved":false,"is_disabled":false,"rental_uris":{"android":"levelo://app?vid=77520d45-03bf-4b26-9f9b-8ac6c162ce6b","ios":"levelo://app?vid=77520d45-03bf-4b26-9f9b-8ac6c162ce6b"},"vehicle_type_id":"4","last_reported":1748704131,"current_range_meters":17200,"station_id":"","pricing_plan_id":"cebpf4jnsgd1na2vs0mg"},{"bike_id":"14e5a9c0-521d-43a5-8d7a-c3b14cac8acc","system_id":"levelo_inurba_marseille","lat":43.23064,"lon":5.35505,"is_reserved":false,"is_disabled":false,"rental_uris":{"android":"levelo://app?vid=14e5a9c0-521d-43a5-8d7a-c3b14cac8acc","ios":"levelo://app?vid=14e5a9c0-521d-43a5-8d7a-c3b14cac8acc"},"vehicle_type_id":"4","last_reported":1748704131,"current_range_meters":17200,"station_id":"cpo3342slgdg3j2ifvpg","pricing_plan_id":"cebpf4jnsgd1na2vs0mg"},{"bike_id":"8a63f44d-87ef-4928-9353-750452262748","system_id":"levelo_inurba_marseille","lat":43.27916,"lon":5.39578,"is_reserved":false,"is_disabled":false,"rental_uris":{"android":"levelo://app?vid=8a63f44d-87ef-4928-9353-750452262748","ios":"levelo://app?vid=8a63f44d-87ef-4928-9353-750452262748"},"vehicle_type_id":"4","last_reported":1748704131,"current_range_meters":17200,"station_id":"ce4bhf92rcd13ifvqf40","pricing_plan_id":"cebpf4jnsgd1na2vs0mg"},{"bike_id":"56ed4761-a43c-4469-9ea6-f227f320ed7f","system_id":"levelo_inurba_marseille","lat":43.23135,"lon":5.43739,"is_reserved":false,"is_disabled":false,"rental_uris":{"android":"levelo://app?vid=56ed4761-a43c-4469-9ea6-f227f320ed7f","ios":"levelo://app?vid=56ed4761-a43c-4469-9ea6-f227f320ed7f"},"vehicle_type_id":"4","last_reported":1748704131,"current_range_meters":17200,"station_id":"ce4bhmp2rcd13ifvqgog","pricing_plan_id":"cebpf4jnsgd1na2vs0mg"},{"bike_id":"62b02994-5210-426a-980f-6cb47507004d","system_id":"levelo_inurba_marseille","lat":43.292191,"lon":5.360474,"is_reserved":false,"is_disabled":false,"rental_uris":{"android":"levelo://app?vid=62b02994-5210-426a-980f-6cb47507004d","ios":"levelo://app?vid=62b02994-5210-426a-980f-6cb47507004d"},"vehicle_type_id":"4","last_reported":1748704131,"current_range_meters":17200,"station_id":"ce4bhbh2rcd13ifvqeqg","pricing_plan_id":"cebpf4jnsgd1na2vs0mg"},{"bike_id":"76f771a0-d27e-462d-a1fe-7bd311768559","system_id":"levelo_inurba_marseille","lat":43.28412,"lon":5.34979,"is_reserved":false,"is_disabled":true,"rental_uris":{"android":"levelo://app?vid=76f771a0-d27e-462d-a1fe-7bd311768559","ios":"levelo://app?vid=76f771a0-d27e-462d-a1fe-7bd311768559"},"vehicle_type_id":"4","last_reported":1748704131,"current_range_meters":17200,"station_id":"ce4bhbh2rcd13ifvqepg","pricing_plan_id":"cebpf4jnsgd1na2vs0mg"},{"bike_id":"5d6afee9-4d2e-43ba-b697-77394f1156a3","system_id":"levelo_inurba_marseille","lat":43.29043,"lon":5.359,"is_reserved":false,"is_disabled":false,"rental_uris":{"android":"levelo://app?vid=5d6afee9-4d2e-43ba-b697-77394f1156a3","ios":"levelo://app?vid=5d6afee9-4d2e-43ba-b697-77394f1156a3"},"vehicle_type_id":"4","last_reported":1748704131,"current_range_meters":17600,"station_id":"ce4bha92rcd13ifvqeg0","pricing_plan_id":"cebpf4jnsgd1na2vs0mg"},{"bike_id":"85fc8a44-52b7-4d92-b0dc-71fdd7885ff9","system_id":"levelo_inurba_marseille","lat":43.29263,"lon":5.38429,"is_reserved":false,"is_disabled":false,"rental_uris":{"android":"levelo://app?vid=85fc8a44-52b7-4d92-b0dc-71fdd7885ff9","ios":"levelo://app?vid=85fc8a44-52b7-4d92-b0dc-71fdd7885ff9"},"vehicle_type_id":"4","last_reported":1748704131,"current_range_meters":17600,"station_id":"ce4bh692rcd13ifvqea0","pricing_plan_id":"cebpf4jnsgd1na2vs0mg"},{"bike_id":"a14d8e40-c994-4f1c-b643-8a3b58a2eb79","system_id":"levelo_inurba_marseille","lat":43.28043,"lon":5.35104,"is_reserved":false,"is_disabled":false,"rental_uris":{"android":"levelo://app?vid=a14d8e40-c994-4f1c-b643-8a3b58a2eb79","ios":"levelo://app?vid=a14d8e40-c994-4f1c-b643-8a3b58a2eb79"},"vehicle_type_id":"4","last_reported":1748704131,"current_range_meters":17600,"station_id":"","pricing_plan_id":"cebpf4jnsgd1na2vs0mg"},{"bike_id":"52138315-f13b-4871-ab78-9e5155a1008c","system_id":"levelo_inurba_marseille","lat":43.322871,"lon":5.382665,"is_reserved":false,"is_disabled":false,"rental_uris":{"android":"levelo://app?vid=52138315-f13b-4871-ab78-9e5155a1008c","ios":"levelo://app?vid=52138315-f13b-4871-ab78-9e5155a1008c"},"vehicle_type_id":"4","last_reported":1748704131,"current_range_meters":17600,"station_id":"ce4bhr12rcd13ifvqhqg","pricing_plan_id":"cebpf4jnsgd1na2vs0mg"},{"bike_id":"56a82e03-2118-4920-8b59-3795928c0c5d","system_id":"levelo_inurba_marseille","lat":43.27818,"lon":5.40707,"is_reserved":false,"is_disabled":false,"rental_uris":{"android":"levelo://app?vid=56a82e03-2118-4920-8b59-3795928c0c5d","ios":"levelo://app?vid=56a82e03-2118-4920-8b59-3795928c0c5d"},"vehicle_type_id":"4","last_reported":1748704131,"current_range_meters":17600,"station_id":"ce4bhnh2rcd13ifvqgtg","pricing_plan_id":"cebpf4jnsgd1na2vs0mg"},{"bike_id":"9a24228a-3234-461f-a3a2-5828a390c2fa","system_id":"levelo_inurba_marseille","lat":43.273592,"lon":5.36245,"is_reserved":false,"is_disabled":false,"rental_uris":{"android":"levelo://app?vid=9a24228a-3234-461f-a3a2-5828a390c2fa","ios":"levelo://app?vid=9a24228a-3234-461f-a3a2-5828a390c2fa"},"vehicle_type_id":"4","last_reported":1748704131,"current_range_meters":17600,"station_id":"ce4bhbh2rcd13ifvqeo0","pricing_plan_id":"cebpf4jnsgd1na2vs0mg"},{"bike_id":"28b95f45-577f-44a8-916b-48646dadbf6a","system_id":"levelo_inurba_marseille","lat":43.27171,"lon":5.40997,"is_reserved":false,"is_disabled":false,"rental_uris":{"android":"levelo://app?vid=28b95f45-577f-44a8-916b-48646dadbf6a","ios":"levelo://app?vid=28b95f45-577f-44a8-916b-48646dadbf6a"},"vehicle_type_id":"4","last_reported":1748704131,"current_range_meters":18000,"station_id":"ce4bhl12rcd13ifvqgf0","pricing_plan_id":"cebpf4jnsgd1na2vs0mg"},{"bike_id":"6ce4c502-ac1d-4573-9ad9-b56eb1cdb64d","system_id":"levelo_inurba_marseille","lat":43.25086,"lon":5.39524,"is_reserved":false,"is_disabled":false,"rental_uris":{"android":"levelo://app?vid=6ce4c502-ac1d-4573-9ad9-b56eb1cdb64d","ios":"levelo://app?vid=6ce4c502-ac1d-4573-9ad9-b56eb1cdb64d"},"vehicle_type_id":"4","last_reported":1748704131,"current_range_meters":18000,"station_id":"ce4bhm12rcd13ifvqgkg","pricing_plan_id":"cebpf4jnsgd1na2vs0mg"},{"bike_id":"3d49a5c2-7134-46cf-bb35-a86663709de6","system_id":"levelo_inurba_marseille","lat":43.28953,"lon":5.36414,"is_reserved":false,"is_disabled":false,"rental_uris":{"android":"levelo://app?vid=3d49a5c2-7134-46cf-bb35-a86663709de6","ios":"levelo://app?vid=3d49a5c2-7134-46cf-bb35-a86663709de6"},"vehicle_type_id":"4","last_reported":1748704131,"current_range_meters":18000,"station_id":"ce4bhc92rcd13ifvqetg","pricing_plan_id":"cebpf4jnsgd1na2vs0mg"},{"bike_id":"d787cfdb-50c2-451d-8448-0eff07939f1e","system_id":"levelo_inurba_marseille","lat":43.23148,"lon":5.43712,"is_reserved":false,"is_disabled":true,"rental_uris":{"android":"levelo://app?vid=d787cfdb-50c2-451d-8448-0eff07939f1e","ios":"levelo://app?vid=d787cfdb-50c2-451d-8448-0eff07939f1e"},"vehicle_type_id":"4","last_reported":1748704131,"current_range_meters":18000,"station_id":"ce4bhmp2rcd13ifvqgog","pricing_plan_id":"cebpf4jnsgd1na2vs0mg"},{"bike_id":"a3f53c2c-7e70-4bd0-8014-67456e13d016","system_id":"levelo_inurba_marseille","lat":43.25495,"lon":5.37647,"is_reserved":false,"is_disabled":false,"rental_uris":{"android":"levelo://app?vid=a3f53c2c-7e70-4bd0-8014-67456e13d016","ios":"levelo://app?vid=a3f53c2c-7e70-4bd0-8014-67456e13d016"},"vehicle_type_id":"4","last_reported":1748704131,"current_range_meters":18000,"station_id":"ce4bhh12rcd13ifvqff0","pricing_plan_id":"cebpf4jnsgd1na2vs0mg"},{"bike_id":"4672ac60-bbf4-46ad-897b-db4337d019ab","system_id":"levelo_inurba_marseille","lat":43.272108,"lon":5.391848,"is_reserved":false,"is_disabled":false,"rental_uris":{"android":"levelo://app?vid=4672ac60-bbf4-46ad-897b-db4337d019ab","ios":"levelo://app?vid=4672ac60-bbf4-46ad-897b-db4337d019ab"},"vehicle_type_id":"4","last_reported":1748704131,"current_range_meters":18000,"station_id":"ce4bhhp2rcd13ifvqfm0","pricing_plan_id":"cebpf4jnsgd1na2vs0mg"},{"bike_id":"cff48fdc-f9a6-48cc-8428-e487a0331e1f","system_id":"levelo_inurba_marseille","lat":43.25112,"lon":5.4032,"is_reserved":false,"is_disabled":false,"rental_uris":{"android":"levelo://app?vid=cff48fdc-f9a6-48cc-8428-e487a0331e1f","ios":"levelo://app?vid=cff48fdc-f9a6-48cc-8428-e487a0331e1f"},"vehicle_type_id":"4","last_reported":1748704131,"current_range_meters":18000,"station_id":"ce4bhlh2rcd13ifvqgig","pricing_plan_id":"cebpf4jnsgd1na2vs0mg"},{"bike_id":"18fa9a24-85b2-4d2f-986e-4e414af349d9","system_id":"levelo_inurba_marseille","lat":43.217473,"lon":5.346005,"is_reserved":false,"is_disabled":false,"rental_uris":{"android":"levelo://app?vid=18fa9a24-85b2-4d2f-986e-4e414af349d9","ios":"levelo://app?vid=18fa9a24-85b2-4d2f-986e-4e414af349d9"},"vehicle_type_id":"4","last_reported":1748704131,"current_range_meters":18000,"station_id":"st_cvj6r9ubvosntc0bgbag","pricing_plan_id":"cebpf4jnsgd1na2vs0mg"},{"bike_id":"cf8458eb-ca4f-4fb8-8ba2-b392e5cd5c55","system_id":"levelo_inurba_marseille","lat":43.28409,"lon":5.34988,"is_reserved":false,"is_disabled":false,"rental_uris":{"android":"levelo://app?vid=cf8458eb-ca4f-4fb8-8ba2-b392e5cd5c55","ios":"levelo://app?vid=cf8458eb-ca4f-4fb8-8ba2-b392e5cd5c55"},"vehicle_type_id":"4","last_reported":1748704131,"current_range_meters":18000,"station_id":"ce4bhbh2rcd13ifvqepg","pricing_plan_id":"cebpf4jnsgd1na2vs0mg"},{"bike_id":"92bf34cb-321f-489c-b278-b49ef3204b97","system_id":"levelo_inurba_marseille","lat":43.23962,"lon":5.36648,"is_reserved":false,"is_disabled":false,"rental_uris":{"android":"levelo://app?vid=92bf34cb-321f-489c-b278-b49ef3204b97","ios":"levelo://app?vid=92bf34cb-321f-489c-b278-b49ef3204b97"},"vehicle_type_id":"4","last_reported":1748704131,"current_range_meters":18000,"station_id":"ce4bhi12rcd13ifvqfp0","pricing_plan_id":"cebpf4jnsgd1na2vs0mg"},{"bike_id":"2f650bb1-6027-4191-83d2-16315820a0a7","system_id":"levelo_inurba_marseille","lat":43.299785,"lon":5.373535,"is_reserved":false,"is_disabled":false,"rental_uris":{"android":"levelo://app?vid=2f650bb1-6027-4191-83d2-16315820a0a7","ios":"levelo://app?vid=2f650bb1-6027-4191-83d2-16315820a0a7"},"vehicle_type_id":"4","last_reported":1748704131,"current_range_meters":18000,"station_id":"","pricing_plan_id":"cebpf4jnsgd1na2vs0mg"},{"bike_id":"f68b7f2a-0d5c-4e70-8193-4d8afb672ba7","system_id":"levelo_inurba_marseille","lat":43.27841,"lon":5.39203,"is_reserved":false,"is_disabled":false,"rental_uris":{"android":"levelo://app?vid=f68b7f2a-0d5c-4e70-8193-4d8afb672ba7","ios":"levelo://app?vid=f68b7f2a-0d5c-4e70-8193-4d8afb672ba7"},"vehicle_type_id":"4","last_reported":1748704131,"current_range_meters":18000,"station_id":"ce4bhjp2rcd13ifvqga0","pricing_plan_id":"cebpf4jnsgd1na2vs0mg"},{"bike_id":"31299554-e199-460d-a5e0-aae0a8a4834b","system_id":"levelo_inurba_marseille","lat":43.25105,"lon":5.40325,"is_reserved":false,"is_disabled":false,"rental_uris":{"android":"levelo://app?vid=31299554-e199-460d-a5e0-aae0a8a4834b","ios":"levelo://app?vid=31299554-e199-460d-a5e0-aae0a8a4834b"},"vehicle_type_id":"4","last_reported":1748704131,"current_range_meters":18800,"station_id":"ce4bhlh2rcd13ifvqgig","pricing_plan_id":"cebpf4jnsgd1na2vs0mg"},{"bike_id":"19129a4b-4f22-4086-90be-0f0c2748de1f","system_id":"levelo_inurba_marseille","lat":43.28927,"lon":5.36397,"is_reserved":false,"is_disabled":false,"rental_uris":{"android":"levelo://app?vid=19129a4b-4f22-4086-90be-0f0c2748de1f","ios":"levelo://app?vid=19129a4b-4f22-4086-90be-0f0c2748de1f"},"vehicle_type_id":"4","last_reported":1748704131,"current_range_meters":18800,"station_id":"ce4bhc92rcd13ifvqetg","pricing_plan_id":"cebpf4jnsgd1na2vs0mg"},{"bike_id":"06d84860-65e0-4134-b6ad-1e0fe5ddc0d6","system_id":"levelo_inurba_marseille","lat":43.25706,"lon":5.37683,"is_reserved":false,"is_disabled":false,"rental_uris":{"android":"levelo://app?vid=06d84860-65e0-4134-b6ad-1e0fe5ddc0d6","ios":"levelo://app?vid=06d84860-65e0-4134-b6ad-1e0fe5ddc0d6"},"vehicle_type_id":"4","last_reported":1748704131,"current_range_meters":18800,"station_id":"","pricing_plan_id":"cebpf4jnsgd1na2vs0mg"},{"bike_id":"db17cc8d-4dd3-4eee-ae61-43f5d171de7b","system_id":"levelo_inurba_marseille","lat":43.23057,"lon":5.35488,"is_reserved":false,"is_disabled":false,"rental_uris":{"android":"levelo://app?vid=db17cc8d-4dd3-4eee-ae61-43f5d171de7b","ios":"levelo://app?vid=db17cc8d-4dd3-4eee-ae61-43f5d171de7b"},"vehicle_type_id":"4","last_reported":1748704131,"current_range_meters":19200,"station_id":"cpo3342slgdg3j2ifvpg","pricing_plan_id":"cebpf4jnsgd1na2vs0mg"},{"bike_id":"190aefaa-3d5e-49d5-821b-ae05a74feff8","system_id":"levelo_inurba_marseille","lat":43.29199,"lon":5.36094,"is_reserved":false,"is_disabled":false,"rental_uris":{"android":"levelo://app?vid=190aefaa-3d5e-49d5-821b-ae05a74feff8","ios":"levelo://app?vid=190aefaa-3d5e-49d5-821b-ae05a74feff8"},"vehicle_type_id":"4","last_reported":1748704131,"current_range_meters":19200,"station_id":"ce4bhbh2rcd13ifvqeqg","pricing_plan_id":"cebpf4jnsgd1na2vs0mg"},{"bike_id":"b8a13ef2-f75f-43cc-b6c5-56549b3ab028","system_id":"levelo_inurba_marseille","lat":43.23183,"lon":5.35549,"is_reserved":false,"is_disabled":false,"rental_uris":{"android":"levelo://app?vid=b8a13ef2-f75f-43cc-b6c5-56549b3ab028","ios":"levelo://app?vid=b8a13ef2-f75f-43cc-b6c5-56549b3ab028"},"vehicle_type_id":"4","last_reported":1748704131,"current_range_meters":19200,"station_id":"ce4bhu92rcd13ifvqi70","pricing_plan_id":"cebpf4jnsgd1na2vs0mg"},{"bike_id":"f3efc0fd-6ac7-476c-890d-c7196a305387","system_id":"levelo_inurba_marseille","lat":43.28408,"lon":5.34989,"is_reserved":false,"is_disabled":false,"rental_uris":{"android":"levelo://app?vid=f3efc0fd-6ac7-476c-890d-c7196a305387","ios":"levelo://app?vid=f3efc0fd-6ac7-476c-890d-c7196a305387"},"vehicle_type_id":"4","last_reported":1748704131,"current_range_meters":19200,"station_id":"ce4bhbh2rcd13ifvqepg","pricing_plan_id":"cebpf4jnsgd1na2vs0mg"},{"bike_id":"96bf4b0a-813f-47e5-b5ef-f98f0016b901","system_id":"levelo_inurba_marseille","lat":43.284698,"lon":5.384184,"is_reserved":false,"is_disabled":false,"rental_uris":{"android":"levelo://app?vid=96bf4b0a-813f-47e5-b5ef-f98f0016b901","ios":"levelo://app?vid=96bf4b0a-813f-47e5-b5ef-f98f0016b901"},"vehicle_type_id":"4","last_reported":1748704131,"current_range_meters":18800,"station_id":"ce4bh512rcd13ifvqe3g","pricing_plan_id":"cebpf4jnsgd1na2vs0mg"},{"bike_id":"ced74b83-4a7c-45b2-b51e-e41ae7c1e2cb","system_id":"levelo_inurba_marseille","lat":43.23151,"lon":5.43715,"is_reserved":false,"is_disabled":false,"rental_uris":{"android":"levelo://app?vid=ced74b83-4a7c-45b2-b51e-e41ae7c1e2cb","ios":"levelo://app?vid=ced74b83-4a7c-45b2-b51e-e41ae7c1e2cb"},"vehicle_type_id":"4","last_reported":1748704131,"current_range_meters":19200,"station_id":"ce4bhmp2rcd13ifvqgog","pricing_plan_id":"cebpf4jnsgd1na2vs0mg"},{"bike_id":"f08fe0d0-bfcb-415e-9485-0c1712705b3e","system_id":"levelo_inurba_marseille","lat":43.24801,"lon":5.37454,"is_reserved":false,"is_disabled":false,"rental_uris":{"android":"levelo://app?vid=f08fe0d0-bfcb-415e-9485-0c1712705b3e","ios":"levelo://app?vid=f08fe0d0-bfcb-415e-9485-0c1712705b3e"},"vehicle_type_id":"4","last_reported":1748704131,"current_range_meters":19200,"station_id":"ce4bhgh2rcd13ifvqfb0","pricing_plan_id":"cebpf4jnsgd1na2vs0mg"},{"bike_id":"a9318f46-e737-4682-846d-9eef8ecfbd38","system_id":"levelo_inurba_marseille","lat":43.267881,"lon":5.39416,"is_reserved":false,"is_disabled":false,"rental_uris":{"android":"levelo://app?vid=a9318f46-e737-4682-846d-9eef8ecfbd38","ios":"levelo://app?vid=a9318f46-e737-4682-846d-9eef8ecfbd38"},"vehicle_type_id":"4","last_reported":1748704131,"current_range_meters":19200,"station_id":"ce4bhh12rcd13ifvqfg0","pricing_plan_id":"cebpf4jnsgd1na2vs0mg"},{"bike_id":"e5f8aae1-3a49-4728-98fd-9db2542b0e0d","system_id":"levelo_inurba_marseille","lat":43.276215,"lon":5.361148,"is_reserved":false,"is_disabled":false,"rental_uris":{"android":"levelo://app?vid=e5f8aae1-3a49-4728-98fd-9db2542b0e0d","ios":"levelo://app?vid=e5f8aae1-3a49-4728-98fd-9db2542b0e0d"},"vehicle_type_id":"4","last_reported":1748704131,"current_range_meters":19200,"station_id":"ce4bgj92rcd13ifvqbe0","pricing_plan_id":"cebpf4jnsgd1na2vs0mg"},{"bike_id":"e00e2525-2282-47ef-b4ad-7fd41987df7c","system_id":"levelo_inurba_marseille","lat":43.29225,"lon":5.36061,"is_reserved":false,"is_disabled":true,"rental_uris":{"android":"levelo://app?vid=e00e2525-2282-47ef-b4ad-7fd41987df7c","ios":"levelo://app?vid=e00e2525-2282-47ef-b4ad-7fd41987df7c"},"vehicle_type_id":"4","last_reported":1748704131,"current_range_meters":19200,"station_id":"ce4bhbh2rcd13ifvqeqg","pricing_plan_id":"cebpf4jnsgd1na2vs0mg"},{"bike_id":"4ea79e18-7133-43ea-b3f6-1cd988fbfd9f","system_id":"levelo_inurba_marseille","lat":43.25584,"lon":5.38243,"is_reserved":false,"is_disabled":false,"rental_uris":{"android":"levelo://app?vid=4ea79e18-7133-43ea-b3f6-1cd988fbfd9f","ios":"levelo://app?vid=4ea79e18-7133-43ea-b3f6-1cd988fbfd9f"},"vehicle_type_id":"4","last_reported":1748704131,"current_range_meters":19600,"station_id":"ce4bhih2rcd13ifvqfs0","pricing_plan_id":"cebpf4jnsgd1na2vs0mg"},{"bike_id":"860496b7-d43e-4fc9-88f1-9ce58ec25793","system_id":"levelo_inurba_marseille","lat":43.29916,"lon":5.37482,"is_reserved":false,"is_disabled":false,"rental_uris":{"android":"levelo://app?vid=860496b7-d43e-4fc9-88f1-9ce58ec25793","ios":"levelo://app?vid=860496b7-d43e-4fc9-88f1-9ce58ec25793"},"vehicle_type_id":"4","last_reported":1748704131,"current_range_meters":19600,"station_id":"ce4bgjh2rcd13ifvqbg0","pricing_plan_id":"cebpf4jnsgd1na2vs0mg"},{"bike_id":"3925241f-015c-4fdf-852d-ce7708033682","system_id":"levelo_inurba_marseille","lat":43.30704,"lon":5.37367,"is_reserved":false,"is_disabled":false,"rental_uris":{"android":"levelo://app?vid=3925241f-015c-4fdf-852d-ce7708033682","ios":"levelo://app?vid=3925241f-015c-4fdf-852d-ce7708033682"},"vehicle_type_id":"4","last_reported":1748704131,"current_range_meters":19600,"station_id":"","pricing_plan_id":"cebpf4jnsgd1na2vs0mg"},{"bike_id":"01d51a3b-bd36-4bae-b70d-feca5edf1a87","system_id":"levelo_inurba_marseille","lat":43.281144,"lon":5.398636,"is_reserved":false,"is_disabled":false,"rental_uris":{"android":"levelo://app?vid=01d51a3b-bd36-4bae-b70d-feca5edf1a87","ios":"levelo://app?vid=01d51a3b-bd36-4bae-b70d-feca5edf1a87"},"vehicle_type_id":"4","last_reported":1748704131,"current_range_meters":19600,"station_id":"","pricing_plan_id":"cebpf4jnsgd1na2vs0mg"},