{"last_updated":1698350818,"ttl":30,"version":"2.2","data":{"bikes":[{"bike_id":"bad6fb66-4d2a-4206-8f07-1d73ae8b6c1a","system_id":"levelo_inurba_marseille","lat":43.31341,"lon":5.367098,"is_reserved":false,"is_disabled":false,"rental_uris":{"android":"levelo://app?vid=bad6fb66-4d2a-4206-8f07-1d73ae8b6c1a","ios":"levelo://app?vid=bad6fb66-4d2a-4206-8f07-1d73ae8b6c1a"},"vehicle_type_id":"4","last_reported":1698350818,"current_range_meters":0,"station_id":"ce4bgr92rcd13ifvqc6g","pricing_plan_id":"free"},{"bike_id":"a9c52240-c68b-4a00-a417-b2bcb6c368b1","system_id":"levelo_inurba_marseille","lat":43.312239,"lon":5.368562,"is_reserved":false,"is_disabled":false,"rental_uris":{"android":"levelo://app?vid=a9c52240-c68b-4a00-a417-b2bcb6c368b1","ios":"levelo://app?vid=a9c52240-c68b-4a00-a417-b2bcb6c368b1"},"vehicle_type_id":"4","last_reported":1698350818,"current_range_meters":19600,"station_id":"ce4bgl92rcd13ifvqbq0","pricing_plan_id":"free"},{"bike_id":"f5c58904-aeb7-4548-b4b5-9f5e83f269ce","system_id":"levelo_inurba_marseille","lat":43.309797,"lon":5.368093,"is_reserved":false,"is_disabled":false,"rental_uris":{"android":"levelo://app?vid=f5c58904-aeb7-4548-b4b5-9f5e83f269ce","ios":"levelo://app?vid=f5c58904-aeb7-4548-b4b5-9f5e83f269ce"},"vehicle_type_id":"4","last_reported":1698350818,"current_range_meters":0,"station_id":"ce4bgn92rcd13ifvqbvg","pricing_plan_id":"free"},{"bike_id":"aa562e0e-1fb6-46e7-b077-095f6dc10dfd","system_id":"levelo_inurba_marseille","lat":43.314811,"lon":5.373103,"is_reserved":false,"is_disabled":false,"rental_uris":{"android":"levelo://app?vid=aa562e0e-1fb6-46e7-b077-095f6dc10dfd","ios":"levelo://app?vid=aa562e0e-1fb6-46e7-b077-095f6dc10dfd"},"vehicle_type_id":"4","last_reported":1698350818,"current_range_meters":19600,"station_id":"ce4bgt12rcd13ifvqcd0","pricing_plan_id":"free"},{"bike_id":"cf04d626-4cf4-4f35-a4f3-10bebc31c564","system_id":"levelo_inurba_marseille","lat":43.315462,"lon":5.372751,"is_reserved":false,"is_disabled":false,"rental_uris":{"android":"levelo://app?vid=cf04d626-4cf4-4f35-a4f3-10bebc31c564","ios":"levelo://app?vid=cf04d626-4cf4-4f35-a4f3-10bebc31c564"},"vehicle_type_id":"4","last_reported":1698350818,"current_range_meters":3200,"station_id":"","pricing_plan_id":"free"},{"bike_id":"dbbdea51-7e3d-4271-bd96-c3aabecbd7e2","system_id":"levelo_inurba_marseille","lat":43.315783,"lon":5.372523,"is_reserved":false,"is_disabled":false,"rental_uris":{"android":"levelo://app?vid=dbbdea51-7e3d-4271-bd96-c3aabecbd7e2","ios":"levelo://app?vid=dbbdea51-7e3d-4271-bd96-c3aabecbd7e2"},"vehicle_type_id":"4","last_reported":1698350818,"current_range_meters":14800,"station_id":"","pricing_plan_id":"free"},{"bike_id":"8a08bab2-a214-4925-bbd4-c9f36af7398e","system_id":"levelo_inurba_marseille","lat":43.309034,"lon":5.371783,"is_reserved":false,"is_disabled":false,"rental_uris":{"android":"levelo://app?vid=8a08bab2-a214-4925-bbd4-c9f36af7398e","ios":"levelo://app?vid=8a08bab2-a214-4925-bbd4-c9f36af7398e"},"vehicle_type_id":"4","last_reported":1698350818,"current_range_meters":14000,"station_id":"ce4bguh2rcd13ifvqckg","pricing_plan_id":"free"},{"bike_id":"7b0c237a-bf5e-47df-86bc-6c937213308d","system_id":"levelo_inurba_marseille","lat":43.305399,"lon":5.367237,"is_reserved":false,"is_disabled":false,"rental_uris":{"android":"levelo://app?vid=7b0c237a-bf5e-47df-86bc-6c937213308d","ios":"levelo://app?vid=7b0c237a-bf5e-47df-86bc-6c937213308d"},"vehicle_type_id":"4","last_reported":1698350818,"current_range_meters":30400,"station_id":"ce4bgrp2rcd13ifvqc9g","pricing_plan_id":"free"},{"bike_id":"f252b071-dddd-4e5f-ad07-506846af6d1a","system_id":"levelo_inurba_marseille","lat":43.30543,"lon":5.36527,"is_reserved":false,"is_disabled":false,"rental_uris":{"android":"levelo://app?vid=f252b071-dddd-4e5f-ad07-506846af6d1a","ios":"levelo://app?vid=f252b071-dddd-4e5f-ad07-506846af6d1a"},"vehicle_type_id":"4","last_reported":1698350818,"current_range_meters":28000,"station_id":"ce4bgs12rcd13ifvqcag","pricing_plan_id":"free"},{"bike_id":"58ea78a3-d62d-480c-b7bc-cf227875ae61","system_id":"levelo_inurba_marseille","lat":43.30533,"lon":5.3672,"is_reserved":false,"is_disabled":false,"rental_uris":{"android":"levelo://app?vid=58ea78a3-d62d-480c-b7bc-cf227875ae61","ios":"levelo://app?vid=58ea78a3-d62d-480c-b7bc-cf227875ae61"},"vehicle_type_id":"4","last_reported":1698350818,"current_range_meters":0,"station_id":"ce4bgrp2rcd13ifvqc9g","pricing_plan_id":"free"},{"bike_id":"95059b9e-e397-490c-b461-0ad75a0bb4f6","system_id":"levelo_inurba_marseille","lat":43.3054,"lon":5.36525,"is_reserved":false,"is_disabled":false,"rental_uris":{"android":"levelo://app?vid=95059b9e-e397-490c-b461-0ad75a0bb4f6","ios":"levelo://app?vid=95059b9e-e397-490c-b461-0ad75a0bb4f6"},"vehicle_type_id":"4","last_reported":1698350818,"current_range_meters":0,"station_id":"ce4bgs12rcd13ifvqcag","pricing_plan_id":"free"},{"bike_id":"58c63d8c-7021-420c-b8b0-890644957483","system_id":"levelo_inurba_marseille","lat":43.30535,"lon":5.36559,"is_reserved":false,"is_disabled":false,"rental_uris":{"android":"levelo://app?vid=58c63d8c-7021-420c-b8b0-890644957483","ios":"levelo://app?vid=58c63d8c-7021-420c-b8b0-890644957483"},"vehicle_type_id":"4","last_reported":1698350818,"current_range_meters":17600,"station_id":"ce4bgs12rcd13ifvqcag","pricing_plan_id":"free"},{"bike_id":"3eca661c-ab12-4d7a-abb4-8cf7a96f7c95","system_id":"levelo_inurba_marseille","lat":43.305989,"lon":5.37225,"is_reserved":false,"is_disabled":false,"rental_uris":{"android":"levelo://app?vid=3eca661c-ab12-4d7a-abb4-8cf7a96f7c95","ios":"levelo://app?vid=3eca661c-ab12-4d7a-abb4-8cf7a96f7c95"},"vehicle_type_id":"4","last_reported":1698350818,"current_range_meters":2800,"station_id":"ce4bgqh2rcd13ifvqc4g","pricing_plan_id":"free"},{"bike_id":"2fe6addf-3f28-4e18-9be7-8e324eee151f","system_id":"levelo_inurba_marseille","lat":43.30501,"lon":5.37088,"is_reserved":false,"is_disabled":false,"rental_uris":{"android":"levelo://app?vid=2fe6addf-3f28-4e18-9be7-8e324eee151f","ios":"levelo://app?vid=2fe6addf-3f28-4e18-9be7-8e324eee151f"},"vehicle_type_id":"4","last_reported":1698350818,"current_range_meters":9200,"station_id":"","pricing_plan_id":"free"},{"bike_id":"df71b2f2-c86e-4959-a0c4-d3eb57b8f97d","system_id":"levelo_inurba_marseille","lat":43.307945,"lon":5.376487,"is_reserved":false,"is_disabled":false,"rental_uris":{"android":"levelo://app?vid=df71b2f2-c86e-4959-a0c4-d3eb57b8f97d","ios":"levelo://app?vid=df71b2f2-c86e-4959-a0c4-d3eb57b8f97d"},"vehicle_type_id":"4","last_reported":1698350818,"current_range_meters":18800,"station_id":"ce4bgv92rcd13ifvqcq0","pricing_plan_id":"free"},{"bike_id":"5157c626-93b9-48ce-ab32-14a2dfa229fa","system_id":"levelo_inurba_marseille","lat":43.317075,"lon":5.377367,"is_reserved":false,"is_disabled":false,"rental_uris":{"android":"levelo://app?vid=5157c626-93b9-48ce-ab32-14a2dfa229fa","ios":"levelo://app?vid=5157c626-93b9-48ce-ab32-14a2dfa229fa"},"vehicle_type_id":"4","last_reported":1698350818,"current_range_meters":27600,"station_id":"ce4bgth2rcd13ifvqch0","pricing_plan_id":"free"},{"bike_id":"0c6c8f27-60e7-4fd1-a2fc-0041cde815e9","system_id":"levelo_inurba_marseille","lat":43.30388,"lon":5.36822,"is_reserved":false,"is_disabled":false,"rental_uris":{"android":"levelo://app?vid=0c6c8f27-60e7-4fd1-a2fc-0041cde815e9","ios":"levelo://app?vid=0c6c8f27-60e7-4fd1-a2fc-0041cde815e9"},"vehicle_type_id":"4","last_reported":1698350818,"current_range_meters":0,"station_id":"","pricing_plan_id":"free"},{"bike_id":"5bbfc33a-be1c-437b-ab49-1e5459011e4d","system_id":"levelo_inurba_marseille","lat":43.30304,"lon":5.368987,"is_reserved":false,"is_disabled":false,"rental_uris":{"android":"levelo://app?vid=5bbfc33a-be1c-437b-ab49-1e5459011e4d","ios":"levelo://app?vid=5bbfc33a-be1c-437b-ab49-1e5459011e4d"},"vehicle_type_id":"4","last_reported":1698350818,"current_range_meters":15200,"station_id":"ce4bgqh2rcd13ifvqc5g","pricing_plan_id":"free"},{"bike_id":"fd69ec35-44e5-449e-8ed5-8876b203d2b0","system_id":"levelo_inurba_marseille","lat":43.303046,"lon":5.368981,"is_reserved":false,"is_disabled":false,"rental_uris":{"android":"levelo://app?vid=fd69ec35-44e5-449e-8ed5-8876b203d2b0","ios":"levelo://app?vid=fd69ec35-44e5-449e-8ed5-8876b203d2b0"},"vehicle_type_id":"4","last_reported":1698350818,"current_range_meters":0,"station_id":"ce4bgqh2rcd13ifvqc5g","pricing_plan_id":"free"},{"bike_id":"bfc302d3-f0e6-4c0c-b8b8-0ac691fe74c1","system_id":"levelo_inurba_marseille","lat":43.303046,"lon":5.368981,"is_reserved":false,"is_disabled":false,"rental_uris":{"android":"levelo://app?vid=bfc302d3-f0e6-4c0c-b8b8-0ac691fe74c1","ios":"levelo://app?vid=bfc302d3-f0e6-4c0c-b8b8-0ac691fe74c1"},"vehicle_type_id":"4","last_reported":1698350818,"current_range_meters":4000,"station_id":"ce4bgqh2rcd13ifvqc5g","pricing_plan_id":"free"},{"bike_id":"49be05fc-d426-4bcc-9c7a-9d6bfc674fdf","system_id":"levelo_inurba_marseille","lat":43.315333,"lon":5.380303,"is_reserved":false,"is_disabled":false,"rental_uris":{"android":"levelo://app?vid=49be05fc-d426-4bcc-9c7a-9d6bfc674fdf","ios":"levelo://app?vid=49be05fc-d426-4bcc-9c7a-9d6bfc674fdf"},"vehicle_type_id":"4","last_reported":1698350818,"current_range_meters":12800,"station_id":"ce4bhsp2rcd13ifvqi50","pricing_plan_id":"free"},{"bike_id":"c886c8f2-d669-441a-b08a-070060e871d5","system_id":"levelo_inurba_marseille","lat":43.301939,"lon":5.366286,"is_reserved":false,"is_disabled":false,"rental_uris":{"android":"levelo://app?vid=c886c8f2-d669-441a-b08a-070060e871d5","ios":"levelo://app?vid=c886c8f2-d669-441a-b08a-070060e871d5"},"vehicle_type_id":"4","last_reported":1698350818,"current_range_meters":20000,"station_id":"ce4bgrh2rcd13ifvqc8g","pricing_plan_id":"free"},{"bike_id":"f61df85a-7017-4d57-9499-c7f4f1c24d42","system_id":"levelo_inurba_marseille","lat":43.308012,"lon":5.381511,"is_reserved":false,"is_disabled":false,"rental_uris":{"android":"levelo://app?vid=f61df85a-7017-4d57-9499-c7f4f1c24d42","ios":"levelo://app?vid=f61df85a-7017-4d57-9499-c7f4f1c24d42"},"vehicle_type_id":"4","last_reported":1698350818,"current_range_meters":9600,"station_id":"ce4bgt12rcd13ifvqce0","pricing_plan_id":"free"},{"bike_id":"0789f6f9-bfbb-4935-9e93-af945abfa499","system_id":"levelo_inurba_marseille","lat":43.312239,"lon":5.368562,"is_reserved":false,"is_disabled":false,"rental_uris":{"android":"levelo://app?vid=0789f6f9-bfbb-4935-9e93-af945abfa499","ios":"levelo://app?vid=0789f6f9-bfbb-4935-9e93-af945abfa499"},"vehicle_type_id":"4","last_reported":1698350818,"current_range_meters":21600,"station_id":"ce4bgl92rcd13ifvqbq0","pricing_plan_id":"free"},{"bike_id":"7f866eb2-7906-4cbe-80c7-851bdb30b27e","system_id":"levelo_inurba_marseille","lat":43.304606,"lon":5.379026,"is_reserved":false,"is_disabled":false,"rental_uris":{"android":"levelo://app?vid=7f866eb2-7906-4cbe-80c7-851bdb30b27e","ios":"levelo://app?vid=7f866eb2-7906-4cbe-80c7-851bdb30b27e"},"vehicle_type_id":"4","last_reported":1698350818,"current_range_meters":3200,"station_id":"ce4bgup2rcd13ifvqcn0","pricing_plan_id":"free"},{"bike_id":"37f44e78-2df4-4a8e-a2bd-9b9af4cabe24","system_id":"levelo_inurba_marseille","lat":43.328371,"lon":5.366909,"is_reserved":false,"is_disabled":false,"rental_uris":{"android":"levelo://app?vid=37f44e78-2df4-4a8e-a2bd-9b9af4cabe24","ios":"levelo://app?vid=37f44e78-2df4-4a8e-a2bd-9b9af4cabe24"},"vehicle_type_id":"4","last_reported":1698350818,"current_range_meters":0,"station_id":"ce4bhs92rcd13ifvqi0g","pricing_plan_id":"free"},{"bike_id":"1047bcc5-10ff-460b-bd6f-eac1d4a67db4","system_id":"levelo_inurba_marseille","lat":43.31745,"lon":5.382537,"is_reserved":false,"is_disabled":false,"rental_uris":{"android":"levelo://app?vid=1047bcc5-10ff-460b-bd6f-eac1d4a67db4","ios":"levelo://app?vid=1047bcc5-10ff-460b-bd6f-eac1d4a67db4"},"vehicle_type_id":"4","last_reported":1698350818,"current_range_meters":0,"station_id":"","pricing_plan_id":"free"},{"bike_id":"46e59620-997e-486c-a36f-24a6f0541ad5","system_id":"levelo_inurba_marseille","lat":43.319937,"lon":5.381563,"is_reserved":false,"is_disabled":false,"rental_uris":{"android":"levelo://app?vid=46e59620-997e-486c-a36f-24a6f0541ad5","ios":"levelo://app?vid=46e59620-997e-486c-a36f-24a6f0541ad5"},"vehicle_type_id":"4","last_reported":1698350818,"current_range_meters":9200,"station_id":"","pricing_plan_id":"free"},{"bike_id":"58760f64-c88d-41e8-b0e5-a4aae3fdb6af","system_id":"levelo_inurba_marseille","lat":43.313571,"lon":5.384829,"is_reserved":false,"is_disabled":false,"rental_uris":{"android":"levelo://app?vid=58760f64-c88d-41e8-b0e5-a4aae3fdb6af","ios":"levelo://app?vid=58760f64-c88d-41e8-b0e5-a4aae3fdb6af"},"vehicle_type_id":"4","last_reported":1698350818,"current_range_meters":4400,"station_id":"ce4bgt92rcd13ifvqcf0","pricing_plan_id":"free"},{"bike_id":"e34e6484-87ec-4c57-9515-8cc0eab937e3","system_id":"levelo_inurba_marseille","lat":43.313571,"lon":5.384829,"is_reserved":false,"is_disabled":false,"rental_uris":{"android":"levelo://app?vid=e34e6484-87ec-4c57-9515-8cc0eab937e3","ios":"levelo://app?vid=e34e6484-87ec-4c57-9515-8cc0eab937e3"},"vehicle_type_id":"4","last_reported":1698350818,"current_range_meters":1200,"station_id":"ce4bgt92rcd13ifvqcf0","pricing_plan_id":"free"},{"bike_id":"0929cb81-d6d9-49aa-9382-26ceaaacfd93","system_id":"levelo_inurba_marseille","lat":43.299222,"lon":5.365554,"is_reserved":false,"is_disabled":false,"rental_uris":{"android":"levelo://app?vid=0929cb81-d6d9-49aa-9382-26ceaaacfd93","ios":"levelo://app?vid=0929cb81-d6d9-49aa-9382-26ceaaacfd93"},"vehicle_type_id":"4","last_reported":1698350818,"current_range_meters":5600,"station_id":"ce4bgm92rcd13ifvqbr0","pricing_plan_id":"free"},{"bike_id":"79a86e09-3ec9-4cbb-92bc-4a5ef4906fdb","system_id":"levelo_inurba_marseille","lat":43.299222,"lon":5.365554,"is_reserved":false,"is_disabled":false,"rental_uris":{"android":"levelo://app?vid=79a86e09-3ec9-4cbb-92bc-4a5ef4906fdb","ios":"levelo://app?vid=79a86e09-3ec9-4cbb-92bc-4a5ef4906fdb"},"vehicle_type_id":"4","last_reported":1698350818,"current_range_meters":24000,"station_id":"ce4bgm92rcd13ifvqbr0","pricing_plan_id":"free"},{"bike_id":"076a8105-8b31-430d-be4f-88c380827463","system_id":"levelo_inurba_marseille","lat":43.299724,"lon":5.371829,"is_reserved":false,"is_disabled":false,"rental_uris":{"android":"levelo://app?vid=076a8105-8b31-430d-be4f-88c380827463","ios":"levelo://app?vid=076a8105-8b31-430d-be4f-88c380827463"},"vehicle_type_id":"4","last_reported":1698350818,"current_range_meters":2000,"station_id":"ce4bgr92rcd13ifvqc7g","pricing_plan_id":"free"},{"bike_id":"cf60bc53-4a3a-4abf-946a-39763a6cac05","system_id":"levelo_inurba_marseille","lat":43.299199,"lon":5.365529,"is_reserved":false,"is_disabled":false,"rental_uris":{"android":"levelo://app?vid=cf60bc53-4a3a-4abf-946a-39763a6cac05","ios":"levelo://app?vid=cf60bc53-4a3a-4abf-946a-39763a6cac05"},"vehicle_type_id":"4","last_reported":1698350818,"current_range_meters":23200,"station_id":"ce4bgm92rcd13ifvqbr0","pricing_plan_id":"free"},{"bike_id":"97997ef7-b347-4148-ba57-9a15ecc4912d","system_id":"levelo_inurba_marseille","lat":43.320945,"lon":5.38306,"is_reserved":false,"is_disabled":false,"rental_uris":{"android":"levelo://app?vid=97997ef7-b347-4148-ba57-9a15ecc4912d","ios":"levelo://app?vid=97997ef7-b347-4148-ba57-9a15ecc4912d"},"vehicle_type_id":"4","last_reported":1698350818,"current_range_meters":0,"station_id":"","pricing_plan_id":"free"},{"bike_id":"833a0712-69e0-45b5-8917-189d768118d7","system_id":"levelo_inurba_marseille","lat":43.298433,"lon":5.362774,"is_reserved":false,"is_disabled":false,"rental_uris":{"android":"levelo://app?vid=833a0712-69e0-45b5-8917-189d768118d7","ios":"levelo://app?vid=833a0712-69e0-45b5-8917-189d768118d7"},"vehicle_type_id":"4","last_reported":1698350818,"current_range_meters":10000,"station_id":"ce4bgpp2rcd13ifvqc3g","pricing_plan_id":"free"},{"bike_id":"0fc5e744-393c-43f8-95a4-a3ce3fe41602","system_id":"levelo_inurba_marseille","lat":43.311722,"lon":5.387247,"is_reserved":false,"is_disabled":false,"rental_uris":{"android":"levelo://app?vid=0fc5e744-393c-43f8-95a4-a3ce3fe41602","ios":"levelo://app?vid=0fc5e744-393c-43f8-95a4-a3ce3fe41602"},"vehicle_type_id":"4","last_reported":1698350818,"current_range_meters":11200,"station_id":"ce4bgv12rcd13ifvqcp0","pricing_plan_id":"free"},{"bike_id":"7c5b20d2-f439-4147-8381-823021bb16e8","system_id":"levelo_inurba_marseille","lat":43.32827,"lon":5.36693,"is_reserved":false,"is_disabled":false,"rental_uris":{"android":"levelo://app?vid=7c5b20d2-f439-4147-8381-823021bb16e8","ios":"levelo://app?vid=7c5b20d2-f439-4147-8381-823021bb16e8"},"vehicle_type_id":"4","last_reported":1698350818,"current_range_meters":3600,"station_id":"ce4bhs92rcd13ifvqi0g","pricing_plan_id":"free"},{"bike_id":"2bf09692-7151-4aba-9fa7-8ce1d6106004","system_id":"levelo_inurba_marseille","lat":43.328303,"lon":5.366873,"is_reserved":false,"is_disabled":false,"rental_uris":{"android":"levelo://app?vid=2bf09692-7151-4aba-9fa7-8ce1d6106004","ios":"levelo://app?vid=2bf09692-7151-4aba-9fa7-8ce1d6106004"},"vehicle_type_id":"4","last_reported":1698350818,"current_range_meters":19600,"station_id":"","pricing_plan_id":"free"},{"bike_id":"b3e63496-ef57-4fe7-9649-3ee98b2a4e91","system_id":"levelo_inurba_marseille","lat":43.32831,"lon":5.36697,"is_reserved":false,"is_disabled":false,"rental_uris":{"android":"levelo://app?vid=b3e63496-ef57-4fe7-9649-3ee98b2a4e91","ios":"levelo://app?vid=b3e63496-ef57-4fe7-9649-3ee98b2a4e91"},"vehicle_type_id":"4","last_reported":1698350818,"current_range_meters":16000,"station_id":"ce4bhs92rcd13ifvqi0g","pricing_plan_id":"free"},{"bike_id":"d13e82b9-d2d1-45d1-8239-e244046476b0","system_id":"levelo_inurba_marseille","lat":43.297163,"lon":5.365866,"is_reserved":false,"is_disabled":false,"rental_uris":{"android":"levelo://app?vid=d13e82b9-d2d1-45d1-8239-e244046476b0","ios":"levelo://app?vid=d13e82b9-d2d1-45d1-8239-e244046476b0"},"vehicle_type_id":"4","last_reported":1698350818,"current_range_meters":27600,"station_id":"ce4bgn12rcd13ifvqbt0","pricing_plan_id":"free"},{"bike_id":"948a39b5-8524-410f-a83f-3dcb1085c511","system_id":"levelo_inurba_marseille","lat":43.297163,"lon":5.365866,"is_reserved":false,"is_disabled":false,"rental_uris":{"android":"levelo://app?vid=948a39b5-8524-410f-a83f-3dcb1085c511","ios":"levelo://app?vid=948a39b5-8524-410f-a83f-3dcb1085c511"},"vehicle_type_id":"4","last_reported":1698350818,"current_range_meters":14000,"station_id":"ce4bgn12rcd13ifvqbt0","pricing_plan_id":"free"},{"bike_id":"33fb89ab-eb0f-4cba-b8dd-69133e06855c","system_id":"levelo_inurba_marseille","lat":43.296131,"lon":5.370773,"is_reserved":false,"is_disabled":false,"rental_uris":{"android":"levelo://app?vid=33fb89ab-eb0f-4cba-b8dd-69133e06855c","ios":"levelo://app?vid=33fb89ab-eb0f-4cba-b8dd-69133e06855c"},"vehicle_type_id":"4","last_reported":1698350818,"current_range_meters":29200,"station_id":"ce4bgnh2rcd13ifvqc0g","pricing_plan_id":"free"},{"bike_id":"4dd924c4-00a7-4d39-9f08-e16dcab3889c","system_id":"levelo_inurba_marseille","lat":43.29573,"lon":5.367355,"is_reserved":false,"is_disabled":false,"rental_uris":{"android":"levelo://app?vid=4dd924c4-00a7-4d39-9f08-e16dcab3889c","ios":"levelo://app?vid=4dd924c4-00a7-4d39-9f08-e16dcab3889c"},"vehicle_type_id":"4","last_reported":1698350818,"current_range_meters":4000,"station_id":"ce4bgph2rcd13ifvqc2g","pricing_plan_id":"free"},{"bike_id":"d1804faa-bc29-4e51-82b0-33daf8a1461c","system_id":"levelo_inurba_marseille","lat":43.296131,"lon":5.370773,"is_reserved":false,"is_disabled":false,"rental_uris":{"android":"levelo://app?vid=d1804faa-bc29-4e51-82b0-33daf8a1461c","ios":"levelo://app?vid=d1804faa-bc29-4e51-82b0-33daf8a1461c"},"vehicle_type_id":"4","last_reported":1698350818,"current_range_meters":18000,"station_id":"ce4bgnh2rcd13ifvqc0g","pricing_plan_id":"free"},{"bike_id":"32d78779-2e49-473f-8aa8-5964da9f313e","system_id":"levelo_inurba_marseille","lat":43.29573,"lon":5.367355,"is_reserved":false,"is_disabled":false,"rental_uris":{"android":"levelo://app?vid=32d78779-2e49-473f-8aa8-5964da9f313e","ios":"levelo://app?vid=32d78779-2e49-473f-8aa8-5964da9f313e"},"vehicle_type_id":"4","last_reported":1698350818,"current_range_meters":26000,"station_id":"ce4bgph2rcd13ifvqc2g","pricing_plan_id":"free"},{"bike_id":"5310e69a-fd26-40c4-8a36-d819adb84f23","system_id":"levelo_inurba_marseille","lat":43.29573,"lon":5.367355,"is_reserved":false,"is_disabled":false,"rental_uris":{"android":"levelo://app?vid=5310e69a-fd26-40c4-8a36-d819adb84f23","ios":"levelo://app?vid=5310e69a-fd26-40c4-8a36-d819adb84f23"},"vehicle_type_id":"4","last_reported":1698350818,"current_range_meters":14000,"station_id":"ce4bgph2rcd13ifvqc2g","pricing_plan_id":"free"},{"bike_id":"cd91942e-a9d4-4a22-b01c-ea31c6d8a660","system_id":"levelo_inurba_marseille","lat":43.29573,"lon":5.367355,"is_reserved":false,"is_disabled":false,"rental_uris":{"android":"levelo://app?vid=cd91942e-a9d4-4a22-b01c-ea31c6d8a660","ios":"levelo://app?vid=cd91942e-a9d4-4a22-b01c-ea31c6d8a660"},"vehicle_type_id":"4","last_reported":1698350818,"current_range_meters":2800,"station_id":"ce4bgph2rcd13ifvqc2g","pricing_plan_id":"free"},{"bike_id":"f3d0381f-7a2d-409e-a12f-bd3d9095653d","system_id":"levelo_inurba_marseille","lat":43.329673,"lon":5.365468,"is_reserved":false,"is_disabled":false,"rental_uris":{"android":"levelo://app?vid=f3d0381f-7a2d-409e-a12f-bd3d9095653d","ios":"levelo://app?vid=f3d0381f-7a2d-409e-a12f-bd3d9095653d"},"vehicle_type_id":"4","last_reported":1698350818,"current_range_meters":11600,"station_id":"","pricing_plan_id":"free"},{"bike_id":"7b9fb5d7-7bdd-4cd9-b239-369489d37358","system_id":"levelo_inurba_marseille","lat":43.29573,"lon":5.367355,"is_reserved":false,"is_disabled":false,"rental_uris":{"android":"levelo://app?vid=7b9fb5d7-7bdd-4cd9-b239-369489d37358","ios":"levelo://app?vid=7b9fb5d7-7bdd-4cd9-b239-369489d37358"},"vehicle_type_id":"4","last_reported":1698350818,"current_range_meters":11600,"station_id":"ce4bgph2rcd13ifvqc2g","pricing_plan_id":"free"},{"bike_id":"582367ac-9e82-46fe-93d5-3368b88e22d8","system_id":"levelo_inurba_marseille","lat":43.29573,"lon":5.367355,"is_reserved":false,"is_disabled":false,"rental_uris":{"android":"levelo://app?vid=582367ac-9e82-46fe-93d5-3368b88e22d8","ios":"levelo://app?vid=582367ac-9e82-46fe-93d5-3368b88e22d8"},"vehicle_type_id":"4","last_reported":1698350818,"current_range_meters":1600,"station_id":"ce4bgph2rcd13ifvqc2g","pricing_plan_id":"free"},{"bike_id":"cfc661ad-803f-419e-aa2a-4277625e43d4","system_id":"levelo_inurba_marseille","lat":43.309589,"lon":5.390258,"is_reserved":false,"is_disabled":false,"rental_uris":{"android":"levelo://app?vid=cfc661ad-803f-419e-aa2a-4277625e43d4","ios":"levelo://app?vid=cfc661ad-803f-419e-aa2a-4277625e43d4"},"vehicle_type_id":"4","last_reported":1698350818,"current_range_meters":26000,"station_id":"ce4bgup2rcd13ifvqco0","pricing_plan_id":"free"},{"bike_id":"ece252df-cfe1-49e8-b035-e624626557a9","system_id":"levelo_inurba_marseille","lat":43.317557,"lon":5.390173,"is_reserved":false,"is_disabled":false,"rental_uris":{"android":"levelo://app?vid=ece252df-cfe1-49e8-b035-e624626557a9","ios":"levelo://app?vid=ece252df-cfe1-49e8-b035-e624626557a9"},"vehicle_type_id":"4","last_reported":1698350818,"current_range_meters":0,"station_id":"ce4bhqp2rcd13ifvqhng","pricing_plan_id":"free"},{"bike_id":"25e41252-343c-421c-8172-66ac68dce585","system_id":"levelo_inurba_marseille","lat":43.317557,"lon":5.390173,"is_reserved":false,"is_disabled":false,"rental_uris":{"android":"levelo://app?vid=25e41252-343c-421c-8172-66ac68dce585","ios":"levelo://app?vid=25e41252-343c-421c-8172-66ac68dce585"},"vehicle_type_id":"4","last_reported":1698350818,"current_range_meters":7200,"station_id":"ce4bhqp2rcd13ifvqhng","pricing_plan_id":"free"},{"bike_id":"ba58fa81-7488-47e3-b627-3bd2d796f66b","system_id":"levelo_inurba_marseille","lat":43.317557,"lon":5.390173,"is_reserved":false,"is_disabled":false,"rental_uris":{"android":"levelo://app?vid=ba58fa81-7488-47e3-b627-3bd2d796f66b","ios":"levelo://app?vid=ba58fa81-7488-47e3-b627-3bd2d796f66b"},"vehicle_type_id":"4","last_reported":1698350818,"current_range_meters":20000,"station_id":"ce4bhqp2rcd13ifvqhng","pricing_plan_id":"free"},{"bike_id":"490d717c-3c72-4ba4-97ea-0ebfb88b270e","system_id":"levelo_inurba_marseille","lat":43.296281,"lon":5.377037,"is_reserved":false,"is_disabled":false,"rental_uris":{"android":"levelo://app?vid=490d717c-3c72-4ba4-97ea-0ebfb88b270e","ios":"levelo://app?vid=490d717c-3c72-4ba4-97ea-0ebfb88b270e"},"vehicle_type_id":"4","last_reported":1698350818,"current_range_meters":16400,"station_id":"ce4bgi92rcd13ifvqb90","pricing_plan_id":"free"},{"bike_id":"a495b636-cac3-4188-ab09-e5339985d7d0","system_id":"levelo_inurba_marseille","lat":43.299717,"lon":5.384845,"is_reserved":false,"is_disabled":false,"rental_uris":{"android":"levelo://app?vid=a495b636-cac3-4188-ab09-e5339985d7d0","ios":"levelo://app?vid=a495b636-cac3-4188-ab09-e5339985d7d0"},"vehicle_type_id":"4","last_reported":1698350818,"current_range_meters":0,"station_id":"ce4bgj92rcd13ifvqbd0","pricing_plan_id":"free"},{"bike_id":"50ba0a4e-dc52-4b36-bbea-ef74378b458b","system_id":"levelo_inurba_marseille","lat":43.29698,"lon":5.3812,"is_reserved":false,"is_disabled":false,"rental_uris":{"android":"levelo://app?vid=50ba0a4e-dc52-4b36-bbea-ef74378b458b","ios":"levelo://app?vid=50ba0a4e-dc52-4b36-bbea-ef74378b458b"},"vehicle_type_id":"4","last_reported":1698350818,"current_range_meters":800,"station_id":"","pricing_plan_id":"free"},{"bike_id":"5e7629c7-7626-4cc0-9939-2688e2172afc","system_id":"levelo_inurba_marseille","lat":43.32366,"lon":5.38883,"is_reserved":false,"is_disabled":false,"rental_uris":{"android":"levelo://app?vid=5e7629c7-7626-4cc0-9939-2688e2172afc","ios":"levelo://app?vid=5e7629c7-7626-4cc0-9939-2688e2172afc"},"vehicle_type_id":"4","last_reported":1698350818,"current_range_meters":5200,"station_id":"ce4bhqp2rcd13ifvqhog","pricing_plan_id":"free"},{"bike_id":"cef65dd8-e2a9-4bc6-9bda-0dd66b80ef3f","system_id":"levelo_inurba_marseille","lat":43.323668,"lon":5.388841,"is_reserved":false,"is_disabled":false,"rental_uris":{"android":"levelo://app?vid=cef65dd8-e2a9-4bc6-9bda-0dd66b80ef3f","ios":"levelo://app?vid=cef65dd8-e2a9-4bc6-9bda-0dd66b80ef3f"},"vehicle_type_id":"4","last_reported":1698350818,"current_range_meters":20400,"station_id":"","pricing_plan_id":"free"},{"bike_id":"eb5bc363-d62b-4f46-aa7f-e66fa55022c2","system_id":"levelo_inurba_marseille","lat":43.32411,"lon":5.38893,"is_reserved":false,"is_disabled":false,"rental_uris":{"android":"levelo://app?vid=eb5bc363-d62b-4f46-aa7f-e66fa55022c2","ios":"levelo://app?vid=eb5bc363-d62b-4f46-aa7f-e66fa55022c2"},"vehicle_type_id":"4","last_reported":1698350818,"current_range_meters":21600,"station_id":"ce4bhqp2rcd13ifvqhog","pricing_plan_id":"free"},{"bike_id":"b11a2e6f-fd0a-4d15-9bb6-ea9d35d4b32f","system_id":"levelo_inurba_marseille","lat":43.323565,"lon":5.389681,"is_reserved":false,"is_disabled":false,"rental_uris":{"android":"levelo://app?vid=b11a2e6f-fd0a-4d15-9bb6-ea9d35d4b32f","ios":"levelo://app?vid=b11a2e6f-fd0a-4d15-9bb6-ea9d35d4b32f"},"vehicle_type_id":"4","last_reported":1698350818,"current_range_meters":27200,"station_id":"","pricing_plan_id":"free"},{"bike_id":"552810dd-2fed-485c-a9f5-1386c54b8e2b","system_id":"levelo_inurba_marseille","lat":43.293259,"lon":5.371586,"is_reserved":false,"is_disabled":false,"rental_uris":{"android":"levelo://app?vid=552810dd-2fed-485c-a9f5-1386c54b8e2b","ios":"levelo://app?vid=552810dd-2fed-485c-a9f5-1386c54b8e2b"},"vehicle_type_id":"4","last_reported":1698350818,"current_range_meters":4000,"station_id":"ce4bgh92rcd13ifvqb40","pricing_plan_id":"free"},{"bike_id":"bbab7e28-ee01-4080-b12e-dd8baccd43d0","system_id":"levelo_inurba_marseille","lat":43.32394,"lon":5.389747,"is_reserved":false,"is_disabled":false,"rental_uris":{"android":"levelo://app?vid=bbab7e28-ee01-4080-b12e-dd8baccd43d0","ios":"levelo://app?vid=bbab7e28-ee01-4080-b12e-dd8baccd43d0"},"vehicle_type_id":"4","last_reported":1698350818,"current_range_meters":15600,"station_id":"","pricing_plan_id":"free"},{"bike_id":"3c7c7fa4-5841-403c-b754-bd8137f75944","system_id":"levelo_inurba_marseille","lat":43.292749,"lon":5.368402,"is_reserved":false,"is_disabled":false,"rental_uris":{"android":"levelo://app?vid=3c7c7fa4-5841-403c-b754-bd8137f75944","ios":"levelo://app?vid=3c7c7fa4-5841-403c-b754-bd8137f75944"},"vehicle_type_id":"4","last_reported":1698350818,"current_range_meters":18400,"station_id":"ce4bhbp2rcd13ifvqesg","pricing_plan_id":"free"},{"bike_id":"a53d02a8-8cb2-4b23-ab8e-5aa421aeb52a","system_id":"levelo_inurba_marseille","lat":43.29298,"lon":5.37174,"is_reserved":false,"is_disabled":false,"rental_uris":{"android":"levelo://app?vid=a53d02a8-8cb2-4b23-ab8e-5aa421aeb52a","ios":"levelo://app?vid=a53d02a8-8cb2-4b23-ab8e-5aa421aeb52a"},"vehicle_type_id":"4","last_reported":1698350818,"current_range_meters":20800,"station_id":"ce4bgh92rcd13ifvqb40","pricing_plan_id":"free"},{"bike_id":"d358f1c6-a57b-42f1-afd2-ab460dcd72d2","system_id":"levelo_inurba_marseille","lat":43.293259,"lon":5.371586,"is_reserved":false,"is_disabled":false,"rental_uris":{"android":"levelo://app?vid=d358f1c6-a57b-42f1-afd2-ab460dcd72d2","ios":"levelo://app?vid=d358f1c6-a57b-42f1-afd2-ab460dcd72d2"},"vehicle_type_id":"4","last_reported":1698350818,"current_range_meters":4800,"station_id":"ce4bgh92rcd13ifvqb40","pricing_plan_id":"free"},{"bike_id":"dfacef70-8b7b-4446-92a4-92241579bc69","system_id":"levelo_inurba_marseille","lat":43.313291,"lon":5.396838,"is_reserved":false,"is_disabled":false,"rental_uris":{"android":"levelo://app?vid=dfacef70-8b7b-4446-92a4-92241579bc69","ios":"levelo://app?vid=dfacef70-8b7b-4446-92a4-92241579bc69"},"vehicle_type_id":"4","last_reported":1698350818,"current_range_meters":4400,"station_id":"ce4bgvp2rcd13ifvqcu0","pricing_plan_id":"free"},{"bike_id":"5d96723b-de33-402f-9b3f-e90d7737cd91","system_id":"levelo_inurba_marseille","lat":43.29304,"lon":5.37454,"is_reserved":false,"is_disabled":false,"rental_uris":{"android":"levelo://app?vid=5d96723b-de33-402f-9b3f-e90d7737cd91","ios":"levelo://app?vid=5d96723b-de33-402f-9b3f-e90d7737cd91"},"vehicle_type_id":"4","last_reported":1698350818,"current_range_meters":0,"station_id":"ce4bgi12rcd13ifvqb70","pricing_plan_id":"free"},{"bike_id":"afe82760-6105-49e2-bafa-0385ed7ea5db","system_id":"levelo_inurba_marseille","lat":43.293009,"lon":5.374584,"is_reserved":false,"is_disabled":false,"rental_uris":{"android":"levelo://app?vid=afe82760-6105-49e2-bafa-0385ed7ea5db","ios":"levelo://app?vid=afe82760-6105-49e2-bafa-0385ed7ea5db"},"vehicle_type_id":"4","last_reported":1698350818,"current_range_meters":16000,"station_id":"ce4bgi12rcd13ifvqb70","pricing_plan_id":"free"},{"bike_id":"34dc3cc0-1c2a-4eb8-8738-5f5e6e66fc26","system_id":"levelo_inurba_marseille","lat":43.305994,"lon":5.393687,"is_reserved":false,"is_disabled":false,"rental_uris":{"android":"levelo://app?vid=34dc3cc0-1c2a-4eb8-8738-5f5e6e66fc26","ios":"levelo://app?vid=34dc3cc0-1c2a-4eb8-8738-5f5e6e66fc26"},"vehicle_type_id":"4","last_reported":1698350818,"current_range_meters":12800,"station_id":"ce4bh0p2rcd13ifvqd80","pricing_plan_id":"free"},{"bike_id":"26052c3b-a77a-4753-9ed9-bf18485de411","system_id":"levelo_inurba_marseille","lat":43.305994,"lon":5.393687,"is_reserved":false,"is_disabled":false,"rental_uris":{"android":"levelo://app?vid=26052c3b-a77a-4753-9ed9-bf18485de411","ios":"levelo://app?vid=26052c3b-a77a-4753-9ed9-bf18485de411"},"vehicle_type_id":"4","last_reported":1698350818,"current_range_meters":26400,"station_id":"ce4bh0p2rcd13ifvqd80","pricing_plan_id":"free"},{"bike_id":"9a557918-315a-47ea-82be-ab23fadf65c4","system_id":"levelo_inurba_marseille","lat":43.293009,"lon":5.374584,"is_reserved":false,"is_disabled":false,"rental_uris":{"android":"levelo://app?vid=9a557918-315a-47ea-82be-ab23fadf65c4","ios":"levelo://app?vid=9a557918-315a-47ea-82be-ab23fadf65c4"},"vehicle_type_id":"4","last_reported":1698350818,"current_range_meters":12800,"station_id":"ce4bgi12rcd13ifvqb70","pricing_plan_id":"free"},{"bike_id":"13286ecf-744e-4f61-8404-252a9710a3f1","system_id":"levelo_inurba_marseille","lat":43.29292,"lon":5.37461,"is_reserved":false,"is_disabled":false,"rental_uris":{"android":"levelo://app?vid=13286ecf-744e-4f61-8404-252a9710a3f1","ios":"levelo://app?vid=13286ecf-744e-4f61-8404-252a9710a3f1"},"vehicle_type_id":"4","last_reported":1698350818,"current_range_meters":0,"station_id":"ce4bgi12rcd13ifvqb70","pricing_plan_id":"free"},{"bike_id":"7d50303d-bec5-49b7-8f57-d35cedbb20fd","system_id":"levelo_inurba_marseille","lat":43.302995,"lon":5.392063,"is_reserved":false,"is_disabled":false,"rental_uris":{"android":"levelo://app?vid=7d50303d-bec5-49b7-8f57-d35cedbb20fd","ios":"levelo://app?vid=7d50303d-bec5-49b7-8f57-d35cedbb20fd"},"vehicle_type_id":"4","last_reported":1698350818,"current_range_meters":0,"station_id":"ce4bgkh2rcd13ifvqbk0","pricing_plan_id":"free"},{"bike_id":"bf2d82bb-8450-4186-a371-425900dc7ee5","system_id":"levelo_inurba_marseille","lat":43.303002,"lon":5.392142,"is_reserved":false,"is_disabled":false,"rental_uris":{"android":"levelo://app?vid=bf2d82bb-8450-4186-a371-425900dc7ee5","ios":"levelo://app?vid=bf2d82bb-8450-4186-a371-425900dc7ee5"},"vehicle_type_id":"4","last_reported":1698350818,"current_range_meters":17200,"station_id":"ce4bgkh2rcd13ifvqbk0","pricing_plan_id":"free"},{"bike_id":"97113886-f174-459d-8d09-21a50f92ff60","system_id":"levelo_inurba_marseille","lat":43.302992,"lon":5.392136,"is_reserved":false,"is_disabled":false,"rental_uris":{"android":"levelo://app?vid=97113886-f174-459d-8d09-21a50f92ff60","ios":"levelo://app?vid=97113886-f174-459d-8d09-21a50f92ff60"},"vehicle_type_id":"4","last_reported":1698350818,"current_range_meters":21200,"station_id":"ce4bgkh2rcd13ifvqbk0","pricing_plan_id":"free"},{"bike_id":"9df8317f-1a7d-4eb2-ae27-b3f3b028300e","system_id":"levelo_inurba_marseille","lat":43.302992,"lon":5.392136,"is_reserved":false,"is_disabled":false,"rental_uris":{"android":"levelo://app?vid=9df8317f-1a7d-4eb2-ae27-b3f3b028300e","ios":"levelo://app?vid=9df8317f-1a7d-4eb2-ae27-b3f3b028300e"},"vehicle_type_id":"4","last_reported":1698350818,"current_range_meters":3200,"station_id":"ce4bgkh2rcd13ifvqbk0","pricing_plan_id":"free"},{"bike_id":"02cc231c-1442-4543-853e-6087aa91d7c7","system_id":"levelo_inurba_marseille","lat":43.292311,"lon":5.360731,"is_reserved":false,"is_disabled":false,"rental_uris":{"android":"levelo://app?vid=02cc231c-1442-4543-853e-6087aa91d7c7","ios":"levelo://app?vid=02cc231c-1442-4543-853e-6087aa91d7c7"},"vehicle_type_id":"4","last_reported":1698350818,"current_range_meters":14400,"station_id":"ce4bhbh2rcd13ifvqeqg","pricing_plan_id":"free"},{"bike_id":"eb36023b-e960-436d-8502-f308ce0f7251","system_id":"levelo_inurba_marseille","lat":43.29215,"lon":5.36052,"is_reserved":false,"is_disabled":false,"rental_uris":{"android":"levelo://app?vid=eb36023b-e960-436d-8502-f308ce0f7251","ios":"levelo://app?vid=eb36023b-e960-436d-8502-f308ce0f7251"},"vehicle_type_id":"4","last_reported":1698350818,"current_range_meters":26800,"station_id":"ce4bhbh2rcd13ifvqeqg","pricing_plan_id":"free"},{"bike_id":"a7ac1c78-8c5d-4639-ad20-878562172823","system_id":"levelo_inurba_marseille","lat":43.30085,"lon":5.390856,"is_reserved":false,"is_disabled":false,"rental_uris":{"android":"levelo://app?vid=a7ac1c78-8c5d-4639-ad20-878562172823","ios":"levelo://app?vid=a7ac1c78-8c5d-4639-ad20-878562172823"},"vehicle_type_id":"4","last_reported":1698350818,"current_range_meters":21600,"station_id":"ce4bh192rcd13ifvqdb0","pricing_plan_id":"free"},{"bike_id":"c016119e-5ad3-449a-aebf-9eb163414d6d","system_id":"levelo_inurba_marseille","lat":43.304278,"lon":5.388868,"is_reserved":false,"is_disabled":false,"rental_uris":{"android":"levelo://app?vid=c016119e-5ad3-449a-aebf-9eb163414d6d","ios":"levelo://app?vid=c016119e-5ad3-449a-aebf-9eb163414d6d"},"vehicle_type_id":"4","last_reported":1698350818,"current_range_meters":18400,"station_id":"ce4bgk12rcd13ifvqbi0","pricing_plan_id":"free"},{"bike_id":"f56bc868-410b-4916-98e9-5eb0843b3395","system_id":"levelo_inurba_marseille","lat":43.298764,"lon":5.388973,"is_reserved":false,"is_disabled":false,"rental_uris":{"android":"levelo://app?vid=f56bc868-410b-4916-98e9-5eb0843b3395","ios":"levelo://app?vid=f56bc868-410b-4916-98e9-5eb0843b3395"},"vehicle_type_id":"4","last_reported":1698350818,"current_range_meters":0,"station_id":"ce4bh392rcd13ifvqdl0","pricing_plan_id":"free"},{"bike_id":"43e199cd-c9eb-42ca-9904-2da5421aad97","system_id":"levelo_inurba_marseille","lat":43.309047,"lon":5.396551,"is_reserved":false,"is_disabled":false,"rental_uris":{"android":"levelo://app?vid=43e199cd-c9eb-42ca-9904-2da5421aad97","ios":"levelo://app?vid=43e199cd-c9eb-42ca-9904-2da5421aad97"},"vehicle_type_id":"4","last_reported":1698350818,"current_range_meters":6800,"station_id":"ce4bh012rcd13ifvqcv0","pricing_plan_id":"free"},{"bike_id":"1ea9ae23-769e-457f-9bf1-b109fdeb39f9","system_id":"levelo_inurba_marseille","lat":43.291979,"lon":5.357978,"is_reserved":false,"is_disabled":false,"rental_uris":{"android":"levelo://app?vid=1ea9ae23-769e-457f-9bf1-b109fdeb39f9","ios":"levelo://app?vid=1ea9ae23-769e-457f-9bf1-b109fdeb39f9"},"vehicle_type_id":"4","last_reported":1698350818,"current_range_meters":0,"station_id":"ce4bhb12rcd13ifvqel0","pricing_plan_id":"free"},{"bike_id":"2ce86162-9c3b-4bb6-b3ce-ca57c7b9ee8c","system_id":"levelo_inurba_marseille","lat":43.309038,"lon":5.396546,"is_reserved":false,"is_disabled":false,"rental_uris":{"android":"levelo://app?vid=2ce86162-9c3b-4bb6-b3ce-ca57c7b9ee8c","ios":"levelo://app?vid=2ce86162-9c3b-4bb6-b3ce-ca57c7b9ee8c"},"vehicle_type_id":"4","last_reported":1698350818,"current_range_meters":3200,"station_id":"ce4bh012rcd13ifvqcv0","pricing_plan_id":"free"},{"bike_id":"c865379a-68f7-4118-9ac2-66ef0f42ba73","system_id":"levelo_inurba_marseille","lat":43.309038,"lon":5.396546,"is_reserved":false,"is_disabled":false,"rental_uris":{"android":"levelo://app?vid=c865379a-68f7-4118-9ac2-66ef0f42ba73","ios":"levelo://app?vid=c865379a-68f7-4118-9ac2-66ef0f42ba73"},"vehicle_type_id":"4","last_reported":1698350818,"current_range_meters":2800,"station_id":"ce4bh012rcd13ifvqcv0","pricing_plan_id":"free"},{"bike_id":"3b771744-6c0f-438a-a147-43e6e8aaff54","system_id":"levelo_inurba_marseille","lat":43.29191,"lon":5.35804,"is_reserved":false,"is_disabled":false,"rental_uris":{"android":"levelo://app?vid=3b771744-6c0f-438a-a147-43e6e8aaff54","ios":"levelo://app?vid=3b771744-6c0f-438a-a147-43e6e8aaff54"},"vehicle_type_id":"4","last_reported":1698350818,"current_range_meters":28000,"station_id":"ce4bhb12rcd13ifvqel0","pricing_plan_id":"free"},{"bike_id":"0838bcbf-6eee-4f49-b9b2-d220f9970dce","system_id":"levelo_inurba_marseille","lat":43.309038,"lon":5.396546,"is_reserved":false,"is_disabled":false,"rental_uris":{"android":"levelo://app?vid=0838bcbf-6eee-4f49-b9b2-d220f9970dce","ios":"levelo://app?vid=0838bcbf-6eee-4f49-b9b2-d220f9970dce"},"vehicle_type_id":"4","last_reported":1698350818,"current_range_meters":0,"station_id":"ce4bh012rcd13ifvqcv0","pricing_plan_id":"free"},{"bike_id":"1da6cc5b-ee3e-414c-9c36-4ed4f030edcf","system_id":"levelo_inurba_marseille","lat":43.313279,"lon":5.39694,"is_reserved":false,"is_disabled":false,"rental_uris":{"android":"levelo://app?vid=1da6cc5b-ee3e-414c-9c36-4ed4f030edcf","ios":"levelo://app?vid=1da6cc5b-ee3e-414c-9c36-4ed4f030edcf"},"vehicle_type_id":"4","last_reported":1698350818,"current_range_meters":0,"station_id":"ce4bgvp2rcd13ifvqcu0","pricing_plan_id":"free"},{"bike_id":"e95f2fbb-6e6a-4d8b-84a7-7e85837354f6","system_id":"levelo_inurba_marseille","lat":43.309038,"lon":5.396546,"is_reserved":false,"is_disabled":false,"rental_uris":{"android":"levelo://app?vid=e95f2fbb-6e6a-4d8b-84a7-7e85837354f6","ios":"levelo://app?vid=e95f2fbb-6e6a-4d8b-84a7-7e85837354f6"},"vehicle_type_id":"4","last_reported":1698350818,"current_range_meters":4000,"station_id":"ce4bh012rcd13ifvqcv0","pricing_plan_id":"free"},{"bike_id":"06b83785-26d6-46d8-b1df-e0e63f3ece80","system_id":"levelo_inurba_marseille","lat":43.309038,"lon":5.396546,"is_reserved":false,"is_disabled":false,"rental_uris":{"android":"levelo://app?vid=06b83785-26d6-46d8-b1df-e0e63f3ece80","ios":"levelo://app?vid=06b83785-26d6-46d8-b1df-e0e63f3ece80"},"vehicle_type_id":"4","last_reported":1698350818,"current_range_meters":0,"station_id":"ce4bh012rcd13ifvqcv0","pricing_plan_id":"free"},{"bike_id":"bba39dd5-a81e-465a-84d3-5f42f65119db","system_id":"levelo_inurba_marseille","lat":43.309047,"lon":5.396551,"is_reserved":false,"is_disabled":false,"rental_uris":{"android":"levelo://app?vid=bba39dd5-a81e-465a-84d3-5f42f65119db","ios":"levelo://app?vid=bba39dd5-a81e-465a-84d3-5f42f65119db"},"vehicle_type_id":"4","last_reported":1698350818,"current_range_meters":8400,"station_id":"ce4bh012rcd13ifvqcv0","pricing_plan_id":"free"},{"bike_id":"ed97be2c-881f-440a-91fb-e326fd53f316","system_id":"levelo_inurba_marseille","lat":43.309038,"lon":5.396546,"is_reserved":false,"is_disabled":false,"rental_uris":{"android":"levelo://app?vid=ed97be2c-881f-440a-91fb-e326fd53f316","ios":"levelo://app?vid=ed97be2c-881f-440a-91fb-e326fd53f316"},"vehicle_type_id":"4","last_reported":1698350818,"current_range_meters":12400,"station_id":"ce4bh012rcd13ifvqcv0","pricing_plan_id":"free"},{"bike_id":"126d4670-e812-40c6-9f2a-535ee2ec9a6b","system_id":"levelo_inurba_marseille","lat":43.33219,"lon":5.38149,"is_reserved":false,"is_disabled":false,"rental_uris":{"android":"levelo://app?vid=126d4670-e812-40c6-9f2a-535ee2ec9a6b","ios":"levelo://app?vid=126d4670-e812-40c6-9f2a-535ee2ec9a6b"},"vehicle_type_id":"4","last_reported":1698350818,"current_range_meters":2400,"station_id":"","pricing_plan_id":"free"},{"bike_id":"a7f17507-076c-41e0-9e76-fecbcf8fefb3","system_id":"levelo_inurba_marseille","lat":43.308126,"lon":5.397334,"is_reserved":false,"is_disabled":false,"rental_uris":{"android":"levelo://app?vid=a7f17507-076c-41e0-9e76-fecbcf8fefb3","ios":"levelo://app?vid=a7f17507-076c-41e0-9e76-fecbcf8fefb3"},"vehicle_type_id":"4","last_reported":1698350818,"current_range_meters":29600,"station_id":"ce4bh0p2rcd13ifvqd70","pricing_plan_id":"free"},{"bike_id":"6a3ae142-0a9b-4b4b-8276-8ec5a63cf98f","system_id":"levelo_inurba_marseille","lat":43.29898,"lon":5.39175,"is_reserved":false,"is_disabled":false,"rental_uris":{"android":"levelo://app?vid=6a3ae142-0a9b-4b4b-8276-8ec5a63cf98f","ios":"levelo://app?vid=6a3ae142-0a9b-4b4b-8276-8ec5a63cf98f"},"vehicle_type_id":"4","last_reported":1698350818,"current_range_meters":0,"station_id":"","pricing_plan_id":"free"},{"bike_id":"6f0cd629-8a47-4738-a2af-522c0600372e","system_id":"levelo_inurba_marseille","lat":43.30216,"lon":5.3947,"is_reserved":false,"is_disabled":false,"rental_uris":{"android":"levelo://app?vid=6f0cd629-8a47-4738-a2af-522c0600372e","ios":"levelo://app?vid=6f0cd629-8a47-4738-a2af-522c0600372e"},"vehicle_type_id":"4","last_reported":1698350818,"current_range_meters":0,"station_id":"ce4bh0p2rcd13ifvqd70","pricing_plan_id":"free"},{"bike_id":"74c51f0a-7b75-4ed7-bbcd-82e1a2116413","system_id":"levelo_inurba_marseille","lat":43.302008,"lon":5.394694,"is_reserved":false,"is_disabled":false,"rental_uris":{"android":"levelo://app?vid=74c51f0a-7b75-4ed7-bbcd-82e1a2116413","ios":"levelo://app?vid=74c51f0a-7b75-4ed7-bbcd-82e1a2116413"},"vehicle_type_id":"4","last_reported":1698350818,"current_range_meters":5200,"station_id":"ce4bh0p2rcd13ifvqd70","pricing_plan_id":"free"},{"bike_id":"048f0db5-d4a0-4df1-b92f-fb357adb4b57","system_id":"levelo_inurba_marseille","lat":43.302008,"lon":5.394694,"is_reserved":false,"is_disabled":false,"rental_uris":{"android":"levelo://app?vid=048f0db5-d4a0-4df1-b92f-fb357adb4b57","ios":"levelo://app?vid=048f0db5-d4a0-4df1-b92f-fb357adb4b57"},"vehicle_type_id":"4","last_reported":1698350818,"current_range_meters":17600,"station_id":"ce4bh0p2rcd13ifvqd70","pricing_plan_id":"free"},{"bike_id":"d445e7dc-8f39-4198-8d15-1838ad42556e","system_id":"levelo_inurba_marseille","lat":43.30206,"lon":5.39469,"is_reserved":false,"is_disabled":false,"rental_uris":{"android":"levelo://app?vid=d445e7dc-8f39-4198-8d15-1838ad42556e","ios":"levelo://app?vid=d445e7dc-8f39-4198-8d15-1838ad42556e"},"vehicle_type_id":"4","last_reported":1698350818,"current_range_meters":11200,"station_id":"ce4bh0p2rcd13ifvqd70","pricing_plan_id":"free"},{"bike_id":"3ba9337c-3a4c-4b79-bb22-9c08f678ee27","system_id":"levelo_inurba_marseille","lat":43.3339,"lon":5.37907,"is_reserved":false,"is_disabled":false,"rental_uris":{"android":"levelo://app?vid=3ba9337c-3a4c-4b79-bb22-9c08f678ee27","ios":"levelo://app?vid=3ba9337c-3a4c-4b79-bb22-9c08f678ee27"},"vehicle_type_id":"4","last_reported":1698350818,"current_range_meters":21600,"station_id":"","pricing_plan_id":"free"},{"bike_id":"d17ad875-3cb6-412e-ace1-8930afe48429","system_id":"levelo_inurba_marseille","lat":43.290624,"lon":5.359245,"is_reserved":false,"is_disabled":false,"rental_uris":{"android":"levelo://app?vid=d17ad875-3cb6-412e-ace1-8930afe48429","ios":"levelo://app?vid=d17ad875-3cb6-412e-ace1-8930afe48429"},"vehicle_type_id":"4","last_reported":1698350818,"current_range_meters":23600,"station_id":"ce4bha92rcd13ifvqeg0","pricing_plan_id":"free"},{"bike_id":"92fe8cbe-fabc-4516-b289-1a9dcf8d1739","system_id":"levelo_inurba_marseille","lat":43.294162,"lon":5.386292,"is_reserved":false,"is_disabled":false,"rental_uris":{"android":"levelo://app?vid=92fe8cbe-fabc-4516-b289-1a9dcf8d1739","ios":"levelo://app?vid=92fe8cbe-fabc-4516-b289-1a9dcf8d1739"},"vehicle_type_id":"4","last_reported":1698350818,"current_range_meters":28800,"station_id":"ce4bh2h2rcd13ifvqdh0","pricing_plan_id":"free"},{"bike_id":"0949fd6f-87c3-4f41-8db6-c7528eff0a37","system_id":"levelo_inurba_marseille","lat":43.289184,"lon":5.366408,"is_reserved":false,"is_disabled":false,"rental_uris":{"android":"levelo://app?vid=0949fd6f-87c3-4f41-8db6-c7528eff0a37","ios":"levelo://app?vid=0949fd6f-87c3-4f41-8db6-c7528eff0a37"},"vehicle_type_id":"4","last_reported":1698350818,"current_range_meters":10400,"station_id":"ce4bhap2rcd13ifvqek0","pricing_plan_id":"free"},{"bike_id":"0fc356fa-cb1d-4a0f-bc7e-d9f134e3237f","system_id":"levelo_inurba_marseille","lat":43.294162,"lon":5.386292,"is_reserved":false,"is_disabled":false,"rental_uris":{"android":"levelo://app?vid=0fc356fa-cb1d-4a0f-bc7e-d9f134e3237f","ios":"levelo://app?vid=0fc356fa-cb1d-4a0f-bc7e-d9f134e3237f"},"vehicle_type_id":"4","last_reported":1698350818,"current_range_meters":14000,"station_id":"ce4bh2h2rcd13ifvqdh0","pricing_plan_id":"free"},{"bike_id":"5f188055-3f18-4efb-aeb7-294e6ecd6e97","system_id":"levelo_inurba_marseille","lat":43.294162,"lon":5.386292,"is_reserved":false,"is_disabled":false,"rental_uris":{"android":"levelo://app?vid=5f188055-3f18-4efb-aeb7-294e6ecd6e97","ios":"levelo://app?vid=5f188055-3f18-4efb-aeb7-294e6ecd6e97"},"vehicle_type_id":"4","last_reported":1698350818,"current_range_meters":2000,"station_id":"ce4bh2h2rcd13ifvqdh0","pricing_plan_id":"free"},{"bike_id":"0efb1902-04bf-484c-9914-cd2271be4245","system_id":"levelo_inurba_marseille","lat":43.294162,"lon":5.386292,"is_reserved":false,"is_disabled":false,"rental_uris":{"android":"levelo://app?vid=0efb1902-04bf-484c-9914-cd2271be4245","ios":"levelo://app?vid=0efb1902-04bf-484c-9914-cd2271be4245"},"vehicle_type_id":"4","last_reported":1698350818,"current_range_meters":11600,"station_id":"ce4bh2h2rcd13ifvqdh0","pricing_plan_id":"free"},{"bike_id":"773d6654-882b-4d79-b982-c653286c91c0","system_id":"levelo_inurba_marseille","lat":43.294162,"lon":5.386292,"is_reserved":false,"is_disabled":false,"rental_uris":{"android":"levelo://app?vid=773d6654-882b-4d79-b982-c653286c91c0","ios":"levelo://app?vid=773d6654-882b-4d79-b982-c653286c91c0"},"vehicle_type_id":"4","last_reported":1698350818,"current_range_meters":1200,"station_id":"ce4bh2h2rcd13ifvqdh0","pricing_plan_id":"free"},{"bike_id":"aa4a74f6-80a8-46b0-bc28-5ed84ce371d3","system_id":"levelo_inurba_marseille","lat":43.289184,"lon":5.366408,"is_reserved":false,"is_disabled":false,"rental_uris":{"android":"levelo://app?vid=aa4a74f6-80a8-46b0-bc28-5ed84ce371d3","ios":"levelo://app?vid=aa4a74f6-80a8-46b0-bc28-5ed84ce371d3"},"vehicle_type_id":"4","last_reported":1698350818,"current_range_meters":0,"station_id":"ce4bhap2rcd13ifvqek0","pricing_plan_id":"free"},{"bike_id":"235e6fd4-6942-4eba-965d-63359880fdca","system_id":"levelo_inurba_marseille","lat":43.289184,"lon":5.366408,"is_reserved":false,"is_disabled":false,"rental_uris":{"android":"levelo://app?vid=235e6fd4-6942-4eba-965d-63359880fdca","ios":"levelo://app?vid=235e6fd4-6942-4eba-965d-63359880fdca"},"vehicle_type_id":"4","last_reported":1698350818,"current_range_meters":14400,"station_id":"ce4bhap2rcd13ifvqek0","pricing_plan_id":"free"},{"bike_id":"4f45964e-5d1a-458a-8704-a6f298ed0b7b","system_id":"levelo_inurba_marseille","lat":43.294162,"lon":5.386292,"is_reserved":false,"is_disabled":false,"rental_uris":{"android":"levelo://app?vid=4f45964e-5d1a-458a-8704-a6f298ed0b7b","ios":"levelo://app?vid=4f45964e-5d1a-458a-8704-a6f298ed0b7b"},"vehicle_type_id":"4","last_reported":1698350818,"current_range_meters":5200,"station_id":"ce4bh2h2rcd13ifvqdh0","pricing_plan_id":"free"},{"bike_id":"547b81af-35de-4b44-98db-b531e659f5f6","system_id":"levelo_inurba_marseille","lat":43.294162,"lon":5.386292,"is_reserved":false,"is_disabled":false,"rental_uris":{"android":"levelo://app?vid=547b81af-35de-4b44-98db-b531e659f5f6","ios":"levelo://app?vid=547b81af-35de-4b44-98db-b531e659f5f6"},"vehicle_type_id":"4","last_reported":1698350818,"current_range_meters":9200,"station_id":"ce4bh2h2rcd13ifvqdh0","pricing_plan_id":"free"},{"bike_id":"6ccc7c11-f6e7-474d-86ca-af6709a8a212","system_id":"levelo_inurba_marseille","lat":43.289468,"lon":5.363719,"is_reserved":false,"is_disabled":false,"rental_uris":{"android":"levelo://app?vid=6ccc7c11-f6e7-474d-86ca-af6709a8a212","ios":"levelo://app?vid=6ccc7c11-f6e7-474d-86ca-af6709a8a212"},"vehicle_type_id":"4","last_reported":1698350818,"current_range_meters":4400,"station_id":"ce4bhc92rcd13ifvqetg","pricing_plan_id":"free"},{"bike_id":"5ee8d6a3-9187-468e-93ed-a83345b7b64d","system_id":"levelo_inurba_marseille","lat":43.289468,"lon":5.363719,"is_reserved":false,"is_disabled":false,"rental_uris":{"android":"levelo://app?vid=5ee8d6a3-9187-468e-93ed-a83345b7b64d","ios":"levelo://app?vid=5ee8d6a3-9187-468e-93ed-a83345b7b64d"},"vehicle_type_id":"4","last_reported":1698350818,"current_range_meters":8400,"station_id":"ce4bhc92rcd13ifvqetg","pricing_plan_id":"free"},{"bike_id":"87c171e2-d687-411b-b34b-a09c17d32779","system_id":"levelo_inurba_marseille","lat":43.289468,"lon":5.363719,"is_reserved":false,"is_disabled":false,"rental_uris":{"android":"levelo://app?vid=87c171e2-d687-411b-b34b-a09c17d32779","ios":"levelo://app?vid=87c171e2-d687-411b-b34b-a09c17d32779"},"vehicle_type_id":"4","last_reported":1698350818,"current_range_meters":4400,"station_id":"ce4bhc92rcd13ifvqetg","pricing_plan_id":"free"},{"bike_id":"a942f201-cad1-4975-9ed3-3e95ca45c0fb","system_id":"levelo_inurba_marseille","lat":43.289468,"lon":5.363719,"is_reserved":false,"is_disabled":false,"rental_uris":{"android":"levelo://app?vid=a942f201-cad1-4975-9ed3-3e95ca45c0fb","ios":"levelo://app?vid=a942f201-cad1-4975-9ed3-3e95ca45c0fb"},"vehicle_type_id":"4","last_reported":1698350818,"current_range_meters":31200,"station_id":"ce4bhc92rcd13ifvqetg","pricing_plan_id":"free"},{"bike_id":"cd8f996c-bca4-4936-846a-2157e64e8e4f","system_id":"levelo_inurba_marseille","lat":43.292723,"lon":5.38444,"is_reserved":false,"is_disabled":false,"rental_uris":{"android":"levelo://app?vid=cd8f996c-bca4-4936-846a-2157e64e8e4f","ios":"levelo://app?vid=cd8f996c-bca4-4936-846a-2157e64e8e4f"},"vehicle_type_id":"4","last_reported":1698350818,"current_range_meters":0,"station_id":"ce4bh692rcd13ifvqea0","pricing_plan_id":"free"},{"bike_id":"3c6f0be8-0340-44cd-8678-9f82a4e0e9f0","system_id":"levelo_inurba_marseille","lat":43.304274,"lon":5.397513,"is_reserved":false,"is_disabled":false,"rental_uris":{"android":"levelo://app?vid=3c6f0be8-0340-44cd-8678-9f82a4e0e9f0","ios":"levelo://app?vid=3c6f0be8-0340-44cd-8678-9f82a4e0e9f0"},"vehicle_type_id":"4","last_reported":1698350818,"current_range_meters":1600,"station_id":"ce4bh092rcd13ifvqd20","pricing_plan_id":"free"},{"bike_id":"124d011a-4f81-4975-8987-732334e29bb8","system_id":"levelo_inurba_marseille","lat":43.292642,"lon":5.384254,"is_reserved":false,"is_disabled":false,"rental_uris":{"android":"levelo://app?vid=124d011a-4f81-4975-8987-732334e29bb8","ios":"levelo://app?vid=124d011a-4f81-4975-8987-732334e29bb8"},"vehicle_type_id":"4","last_reported":1698350818,"current_range_meters":31200,"station_id":"ce4bh692rcd13ifvqea0","pricing_plan_id":"free"},{"bike_id":"fe3dce40-83ff-46bd-81fd-90906dc054bc","system_id":"levelo_inurba_marseille","lat":43.292711,"lon":5.38449,"is_reserved":false,"is_disabled":false,"rental_uris":{"android":"levelo://app?vid=fe3dce40-83ff-46bd-81fd-90906dc054bc","ios":"levelo://app?vid=fe3dce40-83ff-46bd-81fd-90906dc054bc"},"vehicle_type_id":"4","last_reported":1698350818,"current_range_meters":18400,"station_id":"ce4bh692rcd13ifvqea0","pricing_plan_id":"free"},{"bike_id":"36202136-7f16-4690-81da-1cdbd56c5dff","system_id":"levelo_inurba_marseille","lat":43.29269,"lon":5.38445,"is_reserved":false,"is_disabled":false,"rental_uris":{"android":"levelo://app?vid=36202136-7f16-4690-81da-1cdbd56c5dff","ios":"levelo://app?vid=36202136-7f16-4690-81da-1cdbd56c5dff"},"vehicle_type_id":"4","last_reported":1698350818,"current_range_meters":22000,"station_id":"ce4bh692rcd13ifvqea0","pricing_plan_id":"free"},{"bike_id":"82d54589-2b82-4cb7-947e-87fc2b202a33","system_id":"levelo_inurba_marseille","lat":43.292642,"lon":5.384254,"is_reserved":false,"is_disabled":false,"rental_uris":{"android":"levelo://app?vid=82d54589-2b82-4cb7-947e-87fc2b202a33","ios":"levelo://app?vid=82d54589-2b82-4cb7-947e-87fc2b202a33"},"vehicle_type_id":"4","last_reported":1698350818,"current_range_meters":22000,"station_id":"ce4bh692rcd13ifvqea0","pricing_plan_id":"free"},{"bike_id":"ed532d07-35b6-40d2-83dd-c36cf688784e","system_id":"levelo_inurba_marseille","lat":43.29266,"lon":5.38441,"is_reserved":false,"is_disabled":false,"rental_uris":{"android":"levelo://app?vid=ed532d07-35b6-40d2-83dd-c36cf688784e","ios":"levelo://app?vid=ed532d07-35b6-40d2-83dd-c36cf688784e"},"vehicle_type_id":"4","last_reported":1698350818,"current_range_meters":16000,"station_id":"ce4bh692rcd13ifvqea0","pricing_plan_id":"free"},{"bike_id":"d46c96b6-8340-440d-982b-5240994b0f0b","system_id":"levelo_inurba_marseille","lat":43.29267,"lon":5.38448,"is_reserved":false,"is_disabled":false,"rental_uris":{"android":"levelo://app?vid=d46c96b6-8340-440d-982b-5240994b0f0b","ios":"levelo://app?vid=d46c96b6-8340-440d-982b-5240994b0f0b"},"vehicle_type_id":"4","last_reported":1698350818,"current_range_meters":26000,"station_id":"ce4bh692rcd13ifvqea0","pricing_plan_id":"free"},{"bike_id":"2ef78571-a1d8-4a7f-9330-37a21a2ad245","system_id":"levelo_inurba_marseille","lat":43.29264,"lon":5.38447,"is_reserved":false,"is_disabled":false,"rental_uris":{"android":"levelo://app?vid=2ef78571-a1d8-4a7f-9330-37a21a2ad245","ios":"levelo://app?vid=2ef78571-a1d8-4a7f-9330-37a21a2ad245"},"vehicle_type_id":"4","last_reported":1698350818,"current_range_meters":0,"station_id":"ce4bh692rcd13ifvqea0","pricing_plan_id":"free"},{"bike_id":"9e300c20-d6d0-42a4-ad76-71b0cdfc4674","system_id":"levelo_inurba_marseille","lat":43.29261,"lon":5.38441,"is_reserved":false,"is_disabled":false,"rental_uris":{"android":"levelo://app?vid=9e300c20-d6d0-42a4-ad76-71b0cdfc4674","ios":"levelo://app?vid=9e300c20-d6d0-42a4-ad76-71b0cdfc4674"},"vehicle_type_id":"4","last_reported":1698350818,"current_range_meters":11600,"station_id":"ce4bh692rcd13ifvqea0","pricing_plan_id":"free"},{"bike_id":"2cadc597-8d05-4730-865c-ab6525d26a3b","system_id":"levelo_inurba_marseille","lat":43.292642,"lon":5.384254,"is_reserved":false,"is_disabled":false,"rental_uris":{"android":"levelo://app?vid=2cadc597-8d05-4730-865c-ab6525d26a3b","ios":"levelo://app?vid=2cadc597-8d05-4730-865c-ab6525d26a3b"},"vehicle_type_id":"4","last_reported":1698350818,"current_range_meters":10800,"station_id":"ce4bh692rcd13ifvqea0","pricing_plan_id":"free"},{"bike_id":"34cb5cf6-9473-4245-a533-a15c4ed5960c","system_id":"levelo_inurba_marseille","lat":43.292642,"lon":5.384254,"is_reserved":false,"is_disabled":false,"rental_uris":{"android":"levelo://app?vid=34cb5cf6-9473-4245-a533-a15c4ed5960c","ios":"levelo://app?vid=34cb5cf6-9473-4245-a533-a15c4ed5960c"},"vehicle_type_id":"4","last_reported":1698350818,"current_range_meters":3600,"station_id":"ce4bh692rcd13ifvqea0","pricing_plan_id":"free"},{"bike_id":"ad90d429-24e7-4741-993d-dcd8ee553284","system_id":"levelo_inurba_marseille","lat":43.29262,"lon":5.38447,"is_reserved":false,"is_disabled":false,"rental_uris":{"android":"levelo://app?vid=ad90d429-24e7-4741-993d-dcd8ee553284","ios":"levelo://app?vid=ad90d429-24e7-4741-993d-dcd8ee553284"},"vehicle_type_id":"4","last_reported":1698350818,"current_range_meters":28800,"station_id":"ce4bh692rcd13ifvqea0","pricing_plan_id":"free"},{"bike_id":"2ffcbf30-ab30-40f9-9fb5-50b23ab26daa","system_id":"levelo_inurba_marseille","lat":43.2926,"lon":5.38448,"is_reserved":false,"is_disabled":false,"rental_uris":{"android":"levelo://app?vid=2ffcbf30-ab30-40f9-9fb5-50b23ab26daa","ios":"levelo://app?vid=2ffcbf30-ab30-40f9-9fb5-50b23ab26daa"},"vehicle_type_id":"4","last_reported":1698350818,"current_range_meters":0,"station_id":"ce4bh692rcd13ifvqea0","pricing_plan_id":"free"},{"bike_id":"6f282ea3-333e-425b-84ef-b4f1ae8ac960","system_id":"levelo_inurba_marseille","lat":43.29258,"lon":5.384478,"is_reserved":false,"is_disabled":false,"rental_uris":{"android":"levelo://app?vid=6f282ea3-333e-425b-84ef-b4f1ae8ac960","ios":"levelo://app?vid=6f282ea3-333e-425b-84ef-b4f1ae8ac960"},"vehicle_type_id":"4","last_reported":1698350818,"current_range_meters":31200,"station_id":"ce4bh692rcd13ifvqea0","pricing_plan_id":"free"},{"bike_id":"53b12d0d-01a9-494b-87be-091528ad1f5f","system_id":"levelo_inurba_marseille","lat":43.292574,"lon":5.384465,"is_reserved":false,"is_disabled":false,"rental_uris":{"android":"levelo://app?vid=53b12d0d-01a9-494b-87be-091528ad1f5f","ios":"levelo://app?vid=53b12d0d-01a9-494b-87be-091528ad1f5f"},"vehicle_type_id":"4","last_reported":1698350818,"current_range_meters":31200,"station_id":"ce4bh692rcd13ifvqea0","pricing_plan_id":"free"},{"bike_id":"90f20a4b-2629-4ed4-a213-e2c89a3dd9d6","system_id":"levelo_inurba_marseille","lat":43.292642,"lon":5.384254,"is_reserved":false,"is_disabled":false,"rental_uris":{"android":"levelo://app?vid=90f20a4b-2629-4ed4-a213-e2c89a3dd9d6","ios":"levelo://app?vid=90f20a4b-2629-4ed4-a213-e2c89a3dd9d6"},"vehicle_type_id":"4","last_reported":1698350818,"current_range_meters":0,"station_id":"ce4bh692rcd13ifvqea0","pricing_plan_id":"free"},{"bike_id":"ba373360-0dcb-4923-a3b9-9dff6b0f9ac2","system_id":"levelo_inurba_marseille","lat":43.292537,"lon":5.384488,"is_reserved":false,"is_disabled":false,"rental_uris":{"android":"levelo://app?vid=ba373360-0dcb-4923-a3b9-9dff6b0f9ac2","ios":"levelo://app?vid=ba373360-0dcb-4923-a3b9-9dff6b0f9ac2"},"vehicle_type_id":"4","last_reported":1698350818,"current_range_meters":31200,"station_id":"ce4bh692rcd13ifvqea0","pricing_plan_id":"free"},{"bike_id":"10c9a5ea-3b5b-4d27-8191-60400c8f7d13","system_id":"levelo_inurba_marseille","lat":43.292557,"lon":5.384556,"is_reserved":false,"is_disabled":false,"rental_uris":{"android":"levelo://app?vid=10c9a5ea-3b5b-4d27-8191-60400c8f7d13","ios":"levelo://app?vid=10c9a5ea-3b5b-4d27-8191-60400c8f7d13"},"vehicle_type_id":"4","last_reported":1698350818,"current_range_meters":16400,"station_id":"ce4bh692rcd13ifvqea0","pricing_plan_id":"free"},{"bike_id":"5af2ebaa-86a8-4778-9954-ee7637259a00","system_id":"levelo_inurba_marseille","lat":43.290103,"lon":5.356114,"is_reserved":false,"is_disabled":false,"rental_uris":{"android":"levelo://app?vid=5af2ebaa-86a8-4778-9954-ee7637259a00","ios":"levelo://app?vid=5af2ebaa-86a8-4778-9954-ee7637259a00"},"vehicle_type_id":"4","last_reported":1698350818,"current_range_meters":7600,"station_id":"ce4bhb92rcd13ifvqen0","pricing_plan_id":"free"},{"bike_id":"bede9c78-acd8-4685-a2ad-fe2feed58c49","system_id":"levelo_inurba_marseille","lat":43.290995,"lon":5.381361,"is_reserved":false,"is_disabled":false,"rental_uris":{"android":"levelo://app?vid=bede9c78-acd8-4685-a2ad-fe2feed58c49","ios":"levelo://app?vid=bede9c78-acd8-4685-a2ad-fe2feed58c49"},"vehicle_type_id":"4","last_reported":1698350818,"current_range_meters":0,"station_id":"ce4bh512rcd13ifvqe2g","pricing_plan_id":"free"},{"bike_id":"9c45652b-c754-4cac-b6fa-1e9263298357","system_id":"levelo_inurba_marseille","lat":43.297826,"lon":5.393358,"is_reserved":false,"is_disabled":false,"rental_uris":{"android":"levelo://app?vid=9c45652b-c754-4cac-b6fa-1e9263298357","ios":"levelo://app?vid=9c45652b-c754-4cac-b6fa-1e9263298357"},"vehicle_type_id":"4","last_reported":1698350818,"current_range_meters":11200,"station_id":"chh1huq6cuj3fo74tm60","pricing_plan_id":"free"},{"bike_id":"ae9fe179-7300-4b2a-829a-45acdd82b830","system_id":"levelo_inurba_marseille","lat":43.297815,"lon":5.393548,"is_reserved":false,"is_disabled":false,"rental_uris":{"android":"levelo://app?vid=ae9fe179-7300-4b2a-829a-45acdd82b830","ios":"levelo://app?vid=ae9fe179-7300-4b2a-829a-45acdd82b830"},"vehicle_type_id":"4","last_reported":1698350818,"current_range_meters":29600,"station_id":"chh1huq6cuj3fo74tm60","pricing_plan_id":"free"},{"bike_id":"953cce47-25fa-49a6-b6c3-71028d9ad1e7","system_id":"levelo_inurba_marseille","lat":43.290995,"lon":5.381361,"is_reserved":false,"is_disabled":false,"rental_uris":{"android":"levelo://app?vid=953cce47-25fa-49a6-b6c3-71028d9ad1e7","ios":"levelo://app?vid=953cce47-25fa-49a6-b6c3-71028d9ad1e7"},"vehicle_type_id":"4","last_reported":1698350818,"current_range_meters":800,"station_id":"ce4bh512rcd13ifvqe2g","pricing_plan_id":"free"},{"bike_id":"fd449f75-42fe-4af8-a623-627460ef1162","system_id":"levelo_inurba_marseille","lat":43.297891,"lon":5.393578,"is_reserved":false,"is_disabled":false,"rental_uris":{"android":"levelo://app?vid=fd449f75-42fe-4af8-a623-627460ef1162","ios":"levelo://app?vid=fd449f75-42fe-4af8-a623-627460ef1162"},"vehicle_type_id":"4","last_reported":1698350818,"current_range_meters":0,"station_id":"chh1huq6cuj3fo74tm60","pricing_plan_id":"free"},{"bike_id":"2632b656-9bc8-44e3-b9bb-62262cd038d6","system_id":"levelo_inurba_marseille","lat":43.297838,"lon":5.393544,"is_reserved":false,"is_disabled":false,"rental_uris":{"android":"levelo://app?vid=2632b656-9bc8-44e3-b9bb-62262cd038d6","ios":"levelo://app?vid=2632b656-9bc8-44e3-b9bb-62262cd038d6"},"vehicle_type_id":"4","last_reported":1698350818,"current_range_meters":30800,"station_id":"chh1huq6cuj3fo74tm60","pricing_plan_id":"free"},{"bike_id":"67de2047-76bc-4d6d-8966-60e7b4e6ba88","system_id":"levelo_inurba_marseille","lat":43.29775,"lon":5.39346,"is_reserved":false,"is_disabled":false,"rental_uris":{"android":"levelo://app?vid=67de2047-76bc-4d6d-8966-60e7b4e6ba88","ios":"levelo://app?vid=67de2047-76bc-4d6d-8966-60e7b4e6ba88"},"vehicle_type_id":"4","last_reported":1698350818,"current_range_meters":8400,"station_id":"chh1huq6cuj3fo74tm60","pricing_plan_id":"free"},{"bike_id":"8f25f490-dda2-4df9-abce-2436a1996109","system_id":"levelo_inurba_marseille","lat":43.29776,"lon":5.39348,"is_reserved":false,"is_disabled":false,"rental_uris":{"android":"levelo://app?vid=8f25f490-dda2-4df9-abce-2436a1996109","ios":"levelo://app?vid=8f25f490-dda2-4df9-abce-2436a1996109"},"vehicle_type_id":"4","last_reported":1698350818,"current_range_meters":0,"station_id":"chh1huq6cuj3fo74tm60","pricing_plan_id":"free"},{"bike_id":"b38bb324-05e3-4a59-865f-ec471fe0c080","system_id":"levelo_inurba_marseille","lat":43.295169,"lon":5.390426,"is_reserved":false,"is_disabled":false,"rental_uris":{"android":"levelo://app?vid=b38bb324-05e3-4a59-865f-ec471fe0c080","ios":"levelo://app?vid=b38bb324-05e3-4a59-865f-ec471fe0c080"},"vehicle_type_id":"4","last_reported":1698350818,"current_range_meters":12400,"station_id":"ce4bh3p2rcd13ifvqdp0","pricing_plan_id":"free"},{"bike_id":"2806d0cc-4af1-448a-85c6-87e62fc29e3f","system_id":"levelo_inurba_marseille","lat":43.29787,"lon":5.39363,"is_reserved":false,"is_disabled":false,"rental_uris":{"android":"levelo://app?vid=2806d0cc-4af1-448a-85c6-87e62fc29e3f","ios":"levelo://app?vid=2806d0cc-4af1-448a-85c6-87e62fc29e3f"},"vehicle_type_id":"4","last_reported":1698350818,"current_range_meters":27200,"station_id":"chh1huq6cuj3fo74tm60","pricing_plan_id":"free"},{"bike_id":"bfdee478-73c2-45e2-89b0-c168fd5023c7","system_id":"levelo_inurba_marseille","lat":43.297837,"lon":5.393616,"is_reserved":false,"is_disabled":false,"rental_uris":{"android":"levelo://app?vid=bfdee478-73c2-45e2-89b0-c168fd5023c7","ios":"levelo://app?vid=bfdee478-73c2-45e2-89b0-c168fd5023c7"},"vehicle_type_id":"4","last_reported":1698350818,"current_range_meters":31200,"station_id":"chh1huq6cuj3fo74tm60","pricing_plan_id":"free"},{"bike_id":"08a3730f-d77d-4018-a3e7-d551056f77e5","system_id":"levelo_inurba_marseille","lat":43.295169,"lon":5.390426,"is_reserved":false,"is_disabled":false,"rental_uris":{"android":"levelo://app?vid=08a3730f-d77d-4018-a3e7-d551056f77e5","ios":"levelo://app?vid=08a3730f-d77d-4018-a3e7-d551056f77e5"},"vehicle_type_id":"4","last_reported":1698350818,"current_range_meters":30800,"station_id":"ce4bh3p2rcd13ifvqdp0","pricing_plan_id":"free"},{"bike_id":"9466c333-fdc0-41d0-816e-e467d1ddc525","system_id":"levelo_inurba_marseille","lat":43.2952,"lon":5.39052,"is_reserved":false,"is_disabled":false,"rental_uris":{"android":"levelo://app?vid=9466c333-fdc0-41d0-816e-e467d1ddc525","ios":"levelo://app?vid=9466c333-fdc0-41d0-816e-e467d1ddc525"},"vehicle_type_id":"4","last_reported":1698350818,"current_range_meters":7200,"station_id":"ce4bh3p2rcd13ifvqdp0","pricing_plan_id":"free"},{"bike_id":"5c40824c-a583-4026-8aca-81590cae620d","system_id":"levelo_inurba_marseille","lat":43.295169,"lon":5.390426,"is_reserved":false,"is_disabled":false,"rental_uris":{"android":"levelo://app?vid=5c40824c-a583-4026-8aca-81590cae620d","ios":"levelo://app?vid=5c40824c-a583-4026-8aca-81590cae620d"},"vehicle_type_id":"4","last_reported":1698350818,"current_range_meters":4000,"station_id":"ce4bh3p2rcd13ifvqdp0","pricing_plan_id":"free"},{"bike_id":"7b520fe5-a9b4-4dac-99e8-d409bf62594f","system_id":"levelo_inurba_marseille","lat":43.295169,"lon":5.390426,"is_reserved":false,"is_disabled":false,"rental_uris":{"android":"levelo://app?vid=7b520fe5-a9b4-4dac-99e8-d409bf62594f","ios":"levelo://app?vid=7b520fe5-a9b4-4dac-99e8-d409bf62594f"},"vehicle_type_id":"4","last_reported":1698350818,"current_range_meters":0,"station_id":"ce4bh3p2rcd13ifvqdp0","pricing_plan_id":"free"},{"bike_id":"1406dab6-958d-4ffb-abfd-7f87339865e3","system_id":"levelo_inurba_marseille","lat":43.2901,"lon":5.381269,"is_reserved":false,"is_disabled":false,"rental_uris":{"android":"levelo://app?vid=1406dab6-958d-4ffb-abfd-7f87339865e3","ios":"levelo://app?vid=1406dab6-958d-4ffb-abfd-7f87339865e3"},"vehicle_type_id":"4","last_reported":1698350818,"current_range_meters":7200,"station_id":"ce4bh4p2rcd13ifvqe1g","pricing_plan_id":"free"},{"bike_id":"74ffec3a-5c98-4b44-8d85-a8629470f767","system_id":"levelo_inurba_marseille","lat":43.28856,"lon":5.358371,"is_reserved":false,"is_disabled":false,"rental_uris":{"android":"levelo://app?vid=74ffec3a-5c98-4b44-8d85-a8629470f767","ios":"levelo://app?vid=74ffec3a-5c98-4b44-8d85-a8629470f767"},"vehicle_type_id":"4","last_reported":1698350818,"current_range_meters":29600,"station_id":"ce4bhb12rcd13ifvqem0","pricing_plan_id":"free"},{"bike_id":"273b4e50-354d-4fc5-bbb3-b6b9fa59133e","system_id":"levelo_inurba_marseille","lat":43.28856,"lon":5.358371,"is_reserved":false,"is_disabled":false,"rental_uris":{"android":"levelo://app?vid=273b4e50-354d-4fc5-bbb3-b6b9fa59133e","ios":"levelo://app?vid=273b4e50-354d-4fc5-bbb3-b6b9fa59133e"},"vehicle_type_id":"4","last_reported":1698350818,"current_range_meters":28400,"station_id":"ce4bhb12rcd13ifvqem0","pricing_plan_id":"free"},{"bike_id":"89590880-e4ad-406c-acd5-4d6ebcf6a1d3","system_id":"levelo_inurba_marseille","lat":43.312609,"lon":5.401662,"is_reserved":false,"is_disabled":false,"rental_uris":{"android":"levelo://app?vid=89590880-e4ad-406c-acd5-4d6ebcf6a1d3","ios":"levelo://app?vid=89590880-e4ad-406c-acd5-4d6ebcf6a1d3"},"vehicle_type_id":"4","last_reported":1698350818,"current_range_meters":0,"station_id":"ce4bh092rcd13ifvqd30","pricing_plan_id":"free"},{"bike_id":"09fa9d39-a5fc-45e0-8d77-a617872af8db","system_id":"levelo_inurba_marseille","lat":43.33756,"lon":5.37386,"is_reserved":false,"is_disabled":false,"rental_uris":{"android":"levelo://app?vid=09fa9d39-a5fc-45e0-8d77-a617872af8db","ios":"levelo://app?vid=09fa9d39-a5fc-45e0-8d77-a617872af8db"},"vehicle_type_id":"4","last_reported":1698350818,"current_range_meters":20800,"station_id":"","pricing_plan_id":"free"},{"bike_id":"2aa99cb9-8fb4-46bc-8a86-a251d4f1f23b","system_id":"levelo_inurba_marseille","lat":43.3377,"lon":5.37433,"is_reserved":false,"is_disabled":false,"rental_uris":{"android":"levelo://app?vid=2aa99cb9-8fb4-46bc-8a86-a251d4f1f23b","ios":"levelo://app?vid=2aa99cb9-8fb4-46bc-8a86-a251d4f1f23b"},"vehicle_type_id":"4","last_reported":1698350818,"current_range_meters":20000,"station_id":"","pricing_plan_id":"free"},{"bike_id":"471ec662-c9d3-4e43-878b-e25d3af38073","system_id":"levelo_inurba_marseille","lat":43.306412,"lon":5.401035,"is_reserved":false,"is_disabled":false,"rental_uris":{"android":"levelo://app?vid=471ec662-c9d3-4e43-878b-e25d3af38073","ios":"levelo://app?vid=471ec662-c9d3-4e43-878b-e25d3af38073"},"vehicle_type_id":"4","last_reported":1698350818,"current_range_meters":20800,"station_id":"ce4bh112rcd13ifvqda0","pricing_plan_id":"free"},{"bike_id":"db7736dc-a780-4cd0-a5c8-97a369b46640","system_id":"levelo_inurba_marseille","lat":43.301117,"lon":5.398795,"is_reserved":false,"is_disabled":false,"rental_uris":{"android":"levelo://app?vid=db7736dc-a780-4cd0-a5c8-97a369b46640","ios":"levelo://app?vid=db7736dc-a780-4cd0-a5c8-97a369b46640"},"vehicle_type_id":"4","last_reported":1698350818,"current_range_meters":31600,"station_id":"ce4bh0h2rcd13ifvqd40","pricing_plan_id":"free"},{"bike_id":"96522f10-c7bc-4594-9695-f20b3b23722b","system_id":"levelo_inurba_marseille","lat":43.306412,"lon":5.401035,"is_reserved":false,"is_disabled":false,"rental_uris":{"android":"levelo://app?vid=96522f10-c7bc-4594-9695-f20b3b23722b","ios":"levelo://app?vid=96522f10-c7bc-4594-9695-f20b3b23722b"},"vehicle_type_id":"4","last_reported":1698350818,"current_range_meters":13200,"station_id":"ce4bh112rcd13ifvqda0","pricing_plan_id":"free"},{"bike_id":"c99d68df-532a-4d28-8dfe-72c394e6ee01","system_id":"levelo_inurba_marseille","lat":43.301117,"lon":5.398795,"is_reserved":false,"is_disabled":false,"rental_uris":{"android":"levelo://app?vid=c99d68df-532a-4d28-8dfe-72c394e6ee01","ios":"levelo://app?vid=c99d68df-532a-4d28-8dfe-72c394e6ee01"},"vehicle_type_id":"4","last_reported":1698350818,"current_range_meters":28800,"station_id":"ce4bh0h2rcd13ifvqd40","pricing_plan_id":"free"},{"bike_id":"ca2bfc18-b59a-47bb-b51c-564e5987150d","system_id":"levelo_inurba_marseille","lat":43.30642,"lon":5.401031,"is_reserved":false,"is_disabled":false,"rental_uris":{"android":"levelo://app?vid=ca2bfc18-b59a-47bb-b51c-564e5987150d","ios":"levelo://app?vid=ca2bfc18-b59a-47bb-b51c-564e5987150d"},"vehicle_type_id":"4","last_reported":1698350818,"current_range_meters":3600,"station_id":"ce4bh112rcd13ifvqda0","pricing_plan_id":"free"},{"bike_id":"2f78e389-f055-4cd6-a1d2-2cba5ca08b85","system_id":"levelo_inurba_marseille","lat":43.301117,"lon":5.398795,"is_reserved":false,"is_disabled":false,"rental_uris":{"android":"levelo://app?vid=2f78e389-f055-4cd6-a1d2-2cba5ca08b85","ios":"levelo://app?vid=2f78e389-f055-4cd6-a1d2-2cba5ca08b85"},"vehicle_type_id":"4","last_reported":1698350818,"current_range_meters":31600,"station_id":"ce4bh0h2rcd13ifvqd40","pricing_plan_id":"free"},{"bike_id":"4adb3097-54f3-4ae0-9c4c-79211240a69a","system_id":"levelo_inurba_marseille","lat":43.301117,"lon":5.398795,"is_reserved":false,"is_disabled":false,"rental_uris":{"android":"levelo://app?vid=4adb3097-54f3-4ae0-9c4c-79211240a69a","ios":"levelo://app?vid=4adb3097-54f3-4ae0-9c4c-79211240a69a"},"vehicle_type_id":"4","last_reported":1698350818,"current_range_meters":9200,"station_id":"ce4bh0h2rcd13ifvqd40","pricing_plan_id":"free"},{"bike_id":"c91b4a7c-4760-4f43-9758-c12e67840d18","system_id":"levelo_inurba_marseille","lat":43.301117,"lon":5.398795,"is_reserved":false,"is_disabled":false,"rental_uris":{"android":"levelo://app?vid=c91b4a7c-4760-4f43-9758-c12e67840d18","ios":"levelo://app?vid=c91b4a7c-4760-4f43-9758-c12e67840d18"},"vehicle_type_id":"4","last_reported":1698350818,"current_range_meters":31200,"station_id":"ce4bh0h2rcd13ifvqd40","pricing_plan_id":"free"},{"bike_id":"600ead35-8e47-46c1-b4bb-aee2779d377c","system_id":"levelo_inurba_marseille","lat":43.301117,"lon":5.398795,"is_reserved":false,"is_disabled":false,"rental_uris":{"android":"levelo://app?vid=600ead35-8e47-46c1-b4bb-aee2779d377c","ios":"levelo://app?vid=600ead35-8e47-46c1-b4bb-aee2779d377c"},"vehicle_type_id":"4","last_reported":1698350818,"current_range_meters":24000,"station_id":"ce4bh0h2rcd13ifvqd40","pricing_plan_id":"free"},{"bike_id":"6525955a-30af-4ec2-ab96-435237b14afa","system_id":"levelo_inurba_marseille","lat":43.30111,"lon":5.39839,"is_reserved":false,"is_disabled":false,"rental_uris":{"android":"levelo://app?vid=6525955a-30af-4ec2-ab96-435237b14afa","ios":"levelo://app?vid=6525955a-30af-4ec2-ab96-435237b14afa"},"vehicle_type_id":"4","last_reported":1698350818,"current_range_meters":31200,"station_id":"ce4bh0h2rcd13ifvqd40","pricing_plan_id":"free"},{"bike_id":"b034f4eb-c4a5-42ca-9b3b-7983cb9ca9ff","system_id":"levelo_inurba_marseille","lat":43.301117,"lon":5.398795,"is_reserved":false,"is_disabled":false,"rental_uris":{"android":"levelo://app?vid=b034f4eb-c4a5-42ca-9b3b-7983cb9ca9ff","ios":"levelo://app?vid=b034f4eb-c4a5-42ca-9b3b-7983cb9ca9ff"},"vehicle_type_id":"4","last_reported":1698350818,"current_range_meters":31600,"station_id":"ce4bh0h2rcd13ifvqd40","pricing_plan_id":"free"},{"bike_id":"44a0281b-a5ac-4403-9dfe-7edbc356f81b","system_id":"levelo_inurba_marseille","lat":43.301117,"lon":5.398795,"is_reserved":false,"is_disabled":false,"rental_uris":{"android":"levelo://app?vid=44a0281b-a5ac-4403-9dfe-7edbc356f81b","ios":"levelo://app?vid=44a0281b-a5ac-4403-9dfe-7edbc356f81b"},"vehicle_type_id":"4","last_reported":1698350818,"current_range_meters":31200,"station_id":"ce4bh0h2rcd13ifvqd40","pricing_plan_id":"free"},{"bike_id":"660d6ed7-22a0-42ef-b25e-5d46b2b3481e","system_id":"levelo_inurba_marseille","lat":43.289184,"lon":5.366408,"is_reserved":false,"is_disabled":false,"rental_uris":{"android":"levelo://app?vid=660d6ed7-22a0-42ef-b25e-5d46b2b3481e","ios":"levelo://app?vid=660d6ed7-22a0-42ef-b25e-5d46b2b3481e"},"vehicle_type_id":"4","last_reported":1698350818,"current_range_meters":6000,"station_id":"ce4bhap2rcd13ifvqek0","pricing_plan_id":"free"},{"bike_id":"f5184829-d73f-4187-ad9f-c1a574747752","system_id":"levelo_inurba_marseille","lat":43.28727,"lon":5.36078,"is_reserved":false,"is_disabled":false,"rental_uris":{"android":"levelo://app?vid=f5184829-d73f-4187-ad9f-c1a574747752","ios":"levelo://app?vid=f5184829-d73f-4187-ad9f-c1a574747752"},"vehicle_type_id":"4","last_reported":1698350818,"current_range_meters":7600,"station_id":"cki0cbj6b192h4jlfktg","pricing_plan_id":"free"},{"bike_id":"c7db2c9d-b0b6-4e65-889e-67383628e35b","system_id":"levelo_inurba_marseille","lat":43.28727,"lon":5.36078,"is_reserved":false,"is_disabled":false,"rental_uris":{"android":"levelo://app?vid=c7db2c9d-b0b6-4e65-889e-67383628e35b","ios":"levelo://app?vid=c7db2c9d-b0b6-4e65-889e-67383628e35b"},"vehicle_type_id":"4","last_reported":1698350818,"current_range_meters":18800,"station_id":"cki0cbj6b192h4jlfktg","pricing_plan_id":"free"},{"bike_id":"7d4d1d8f-112e-441e-a309-71f225179ff4","system_id":"levelo_inurba_marseille","lat":43.286961,"lon":5.373785,"is_reserved":false,"is_disabled":false,"rental_uris":{"android":"levelo://app?vid=7d4d1d8f-112e-441e-a309-71f225179ff4","ios":"levelo://app?vid=7d4d1d8f-112e-441e-a309-71f225179ff4"},"vehicle_type_id":"4","last_reported":1698350818,"current_range_meters":0,"station_id":"ce4bh3p2rcd13ifvqdq0","pricing_plan_id":"free"},{"bike_id":"74effae8-f8ea-4422-9069-984f62c31d3d","system_id":"levelo_inurba_marseille","lat":43.286591,"lon":5.363346,"is_reserved":false,"is_disabled":false,"rental_uris":{"android":"levelo://app?vid=74effae8-f8ea-4422-9069-984f62c31d3d","ios":"levelo://app?vid=74effae8-f8ea-4422-9069-984f62c31d3d"},"vehicle_type_id":"4","last_reported":1698350818,"current_range_meters":12800,"station_id":"ce4bhah2rcd13ifvqej0","pricing_plan_id":"free"},{"bike_id":"55fdb233-c799-4146-8772-0e3b7e53a32c","system_id":"levelo_inurba_marseille","lat":43.286961,"lon":5.373785,"is_reserved":false,"is_disabled":false,"rental_uris":{"android":"levelo://app?vid=55fdb233-c799-4146-8772-0e3b7e53a32c","ios":"levelo://app?vid=55fdb233-c799-4146-8772-0e3b7e53a32c"},"vehicle_type_id":"4","last_reported":1698350818,"current_range_meters":2400,"station_id":"ce4bh3p2rcd13ifvqdq0","pricing_plan_id":"free"},{"bike_id":"e05c0673-a4d4-4a68-8c52-73f07470485a","system_id":"levelo_inurba_marseille","lat":43.298681,"lon":5.397225,"is_reserved":false,"is_disabled":false,"rental_uris":{"android":"levelo://app?vid=e05c0673-a4d4-4a68-8c52-73f07470485a","ios":"levelo://app?vid=e05c0673-a4d4-4a68-8c52-73f07470485a"},"vehicle_type_id":"4","last_reported":1698350818,"current_range_meters":31200,"station_id":"ce4bh0h2rcd13ifvqd50","pricing_plan_id":"free"},{"bike_id":"e83c9d5a-a844-4ac7-bb93-f5e0df980361","system_id":"levelo_inurba_marseille","lat":43.286593,"lon":5.363346,"is_reserved":false,"is_disabled":false,"rental_uris":{"android":"levelo://app?vid=e83c9d5a-a844-4ac7-bb93-f5e0df980361","ios":"levelo://app?vid=e83c9d5a-a844-4ac7-bb93-f5e0df980361"},"vehicle_type_id":"4","last_reported":1698350818,"current_range_meters":11600,"station_id":"ce4bhah2rcd13ifvqej0","pricing_plan_id":"free"},{"bike_id":"01e9ce53-26d0-47ca-a426-17a4fc4ba7c7","system_id":"levelo_inurba_marseille","lat":43.298681,"lon":5.397225,"is_reserved":false,"is_disabled":false,"rental_uris":{"android":"levelo://app?vid=01e9ce53-26d0-47ca-a426-17a4fc4ba7c7","ios":"levelo://app?vid=01e9ce53-26d0-47ca-a426-17a4fc4ba7c7"},"vehicle_type_id":"4","last_reported":1698350818,"current_range_meters":26000,"station_id":"ce4bh0h2rcd13ifvqd50","pricing_plan_id":"free"},{"bike_id":"c4a20e0a-1468-4e2f-8395-4470683632e5","system_id":"levelo_inurba_marseille","lat":43.295196,"lon":5.39397,"is_reserved":false,"is_disabled":false,"rental_uris":{"android":"levelo://app?vid=c4a20e0a-1468-4e2f-8395-4470683632e5","ios":"levelo://app?vid=c4a20e0a-1468-4e2f-8395-4470683632e5"},"vehicle_type_id":"4","last_reported":1698350818,"current_range_meters":20400,"station_id":"ce4bh292rcd13ifvqdf0","pricing_plan_id":"free"},{"bike_id":"30926d66-e3cc-4432-a2bd-0fdd6fb014df","system_id":"levelo_inurba_marseille","lat":43.295196,"lon":5.39397,"is_reserved":false,"is_disabled":false,"rental_uris":{"android":"levelo://app?vid=30926d66-e3cc-4432-a2bd-0fdd6fb014df","ios":"levelo://app?vid=30926d66-e3cc-4432-a2bd-0fdd6fb014df"},"vehicle_type_id":"4","last_reported":1698350818,"current_range_meters":31200,"station_id":"ce4bh292rcd13ifvqdf0","pricing_plan_id":"free"},{"bike_id":"c8dbee4f-eb6a-43e5-852a-800d4472d490","system_id":"levelo_inurba_marseille","lat":43.295196,"lon":5.39397,"is_reserved":false,"is_disabled":false,"rental_uris":{"android":"levelo://app?vid=c8dbee4f-eb6a-43e5-852a-800d4472d490","ios":"levelo://app?vid=c8dbee4f-eb6a-43e5-852a-800d4472d490"},"vehicle_type_id":"4","last_reported":1698350818,"current_range_meters":31200,"station_id":"ce4bh292rcd13ifvqdf0","pricing_plan_id":"free"},{"bike_id":"5c61f7f8-009b-4f2a-9378-7f1c51e438fc","system_id":"levelo_inurba_marseille","lat":43.2904,"lon":5.38633,"is_reserved":false,"is_disabled":false,"rental_uris":{"android":"levelo://app?vid=5c61f7f8-009b-4f2a-9378-7f1c51e438fc","ios":"levelo://app?vid=5c61f7f8-009b-4f2a-9378-7f1c51e438fc"},"vehicle_type_id":"4","last_reported":1698350818,"current_range_meters":16400,"station_id":"ce4bh4p2rcd13ifvqe0g","pricing_plan_id":"free"},{"bike_id":"b9ad45c5-350d-4590-9e2c-e5a1d423e13e","system_id":"levelo_inurba_marseille","lat":43.289289,"lon":5.383847,"is_reserved":false,"is_disabled":false,"rental_uris":{"android":"levelo://app?vid=b9ad45c5-350d-4590-9e2c-e5a1d423e13e","ios":"levelo://app?vid=b9ad45c5-350d-4590-9e2c-e5a1d423e13e"},"vehicle_type_id":"4","last_reported":1698350818,"current_range_meters":0,"station_id":"ce4bh612rcd13ifvqe6g","pricing_plan_id":"free"},{"bike_id":"d4ca79ea-8d62-4887-b5bf-fb982b62826b","system_id":"levelo_inurba_marseille","lat":43.302759,"lon":5.400793,"is_reserved":false,"is_disabled":false,"rental_uris":{"android":"levelo://app?vid=d4ca79ea-8d62-4887-b5bf-fb982b62826b","ios":"levelo://app?vid=d4ca79ea-8d62-4887-b5bf-fb982b62826b"},"vehicle_type_id":"4","last_reported":1698350818,"current_range_meters":28800,"station_id":"ce4bgvh2rcd13ifvqcs0","pricing_plan_id":"free"},{"bike_id":"9ba63e6f-c447-4c4a-88d9-de03b9ab06b8","system_id":"levelo_inurba_marseille","lat":43.290359,"lon":5.386468,"is_reserved":false,"is_disabled":false,"rental_uris":{"android":"levelo://app?vid=9ba63e6f-c447-4c4a-88d9-de03b9ab06b8","ios":"levelo://app?vid=9ba63e6f-c447-4c4a-88d9-de03b9ab06b8"},"vehicle_type_id":"4","last_reported":1698350818,"current_range_meters":11600,"station_id":"ce4bh4p2rcd13ifvqe0g","pricing_plan_id":"free"},{"bike_id":"cce2d2e7-5e21-42e7-8a61-89e2e228d327","system_id":"levelo_inurba_marseille","lat":43.28921,"lon":5.38389,"is_reserved":false,"is_disabled":false,"rental_uris":{"android":"levelo://app?vid=cce2d2e7-5e21-42e7-8a61-89e2e228d327","ios":"levelo://app?vid=cce2d2e7-5e21-42e7-8a61-89e2e228d327"},"vehicle_type_id":"4","last_reported":1698350818,"current_range_meters":24400,"station_id":"ce4bh612rcd13ifvqe6g","pricing_plan_id":"free"},{"bike_id":"1aabc4fe-2701-4ae1-818f-f758b347c3a2","system_id":"levelo_inurba_marseille","lat":43.302348,"lon":5.400593,"is_reserved":false,"is_disabled":false,"rental_uris":{"android":"levelo://app?vid=1aabc4fe-2701-4ae1-818f-f758b347c3a2","ios":"levelo://app?vid=1aabc4fe-2701-4ae1-818f-f758b347c3a2"},"vehicle_type_id":"4","last_reported":1698350818,"current_range_meters":23200,"station_id":"ce4bgvh2rcd13ifvqcs0","pricing_plan_id":"free"},{"bike_id":"237c2e2c-6cb2-4fb4-8f9a-8967233c2b49","system_id":"levelo_inurba_marseille","lat":43.286039,"lon":5.370681,"is_reserved":false,"is_disabled":false,"rental_uris":{"android":"levelo://app?vid=237c2e2c-6cb2-4fb4-8f9a-8967233c2b49","ios":"levelo://app?vid=237c2e2c-6cb2-4fb4-8f9a-8967233c2b49"},"vehicle_type_id":"4","last_reported":1698350818,"current_range_meters":14400,"station_id":"ce4bht12rcd13ifvqi60","pricing_plan_id":"free"},{"bike_id":"2b4f86e8-dd43-408d-b031-dad80b8d6651","system_id":"levelo_inurba_marseille","lat":43.286039,"lon":5.370681,"is_reserved":false,"is_disabled":false,"rental_uris":{"android":"levelo://app?vid=2b4f86e8-dd43-408d-b031-dad80b8d6651","ios":"levelo://app?vid=2b4f86e8-dd43-408d-b031-dad80b8d6651"},"vehicle_type_id":"4","last_reported":1698350818,"current_range_meters":14000,"station_id":"ce4bht12rcd13ifvqi60","pricing_plan_id":"free"},{"bike_id":"bc368e20-93c0-495a-bb4f-cd8ed7ee7f0d","system_id":"levelo_inurba_marseille","lat":43.335307,"lon":5.388143,"is_reserved":false,"is_disabled":false,"rental_uris":{"android":"levelo://app?vid=bc368e20-93c0-495a-bb4f-cd8ed7ee7f0d","ios":"levelo://app?vid=bc368e20-93c0-495a-bb4f-cd8ed7ee7f0d"},"vehicle_type_id":"4","last_reported":1698350818,"current_range_meters":0,"station_id":"","pricing_plan_id":"free"},{"bike_id":"542112d9-86cc-4168-a989-cad8a1e0ddea","system_id":"levelo_inurba_marseille","lat":43.31648,"lon":5.40434,"is_reserved":false,"is_disabled":false,"rental_uris":{"android":"levelo://app?vid=542112d9-86cc-4168-a989-cad8a1e0ddea","ios":"levelo://app?vid=542112d9-86cc-4168-a989-cad8a1e0ddea"},"vehicle_type_id":"4","last_reported":1698350818,"current_range_meters":10000,"station_id":"ce4bh012rcd13ifvqd00","pricing_plan_id":"free"},{"bike_id":"58ed3f1f-56b1-489e-b47c-82bb2d722e29","system_id":"levelo_inurba_marseille","lat":43.316517,"lon":5.404375,"is_reserved":false,"is_disabled":false,"rental_uris":{"android":"levelo://app?vid=58ed3f1f-56b1-489e-b47c-82bb2d722e29","ios":"levelo://app?vid=58ed3f1f-56b1-489e-b47c-82bb2d722e29"},"vehicle_type_id":"4","last_reported":1698350818,"current_range_meters":8400,"station_id":"ce4bh012rcd13ifvqd00","pricing_plan_id":"free"},{"bike_id":"6f492d1d-508b-4e2b-825a-d3fc62bbbad4","system_id":"levelo_inurba_marseille","lat":43.295643,"lon":5.397533,"is_reserved":false,"is_disabled":false,"rental_uris":{"android":"levelo://app?vid=6f492d1d-508b-4e2b-825a-d3fc62bbbad4","ios":"levelo://app?vid=6f492d1d-508b-4e2b-825a-d3fc62bbbad4"},"vehicle_type_id":"4","last_reported":1698350818,"current_range_meters":7200,"station_id":"","pricing_plan_id":"free"},{"bike_id":"088e7924-456e-4889-bce4-d0cfa9171d85","system_id":"levelo_inurba_marseille","lat":43.291994,"lon":5.392907,"is_reserved":false,"is_disabled":false,"rental_uris":{"android":"levelo://app?vid=088e7924-456e-4889-bce4-d0cfa9171d85","ios":"levelo://app?vid=088e7924-456e-4889-bce4-d0cfa9171d85"},"vehicle_type_id":"4","last_reported":1698350818,"current_range_meters":16400,"station_id":"ce4bh192rcd13ifvqdd0","pricing_plan_id":"free"},{"bike_id":"ef8f7954-73a7-4030-bb96-bda100d9fc49","system_id":"levelo_inurba_marseille","lat":43.291994,"lon":5.392907,"is_reserved":false,"is_disabled":false,"rental_uris":{"android":"levelo://app?vid=ef8f7954-73a7-4030-bb96-bda100d9fc49","ios":"levelo://app?vid=ef8f7954-73a7-4030-bb96-bda100d9fc49"},"vehicle_type_id":"4","last_reported":1698350818,"current_range_meters":19200,"station_id":"ce4bh192rcd13ifvqdd0","pricing_plan_id":"free"},{"bike_id":"f7a9341e-504a-4e88-b392-3acefeeb140e","system_id":"levelo_inurba_marseille","lat":43.284534,"lon":5.358662,"is_reserved":false,"is_disabled":false,"rental_uris":{"android":"levelo://app?vid=f7a9341e-504a-4e88-b392-3acefeeb140e","ios":"levelo://app?vid=f7a9341e-504a-4e88-b392-3acefeeb140e"},"vehicle_type_id":"4","last_reported":1698350818,"current_range_meters":12000,"station_id":"ce4bhah2rcd13ifvqei0","pricing_plan_id":"free"},{"bike_id":"d5c723da-2e09-4c65-aa8a-412b48c6f934","system_id":"levelo_inurba_marseille","lat":43.284598,"lon":5.358843,"is_reserved":false,"is_disabled":false,"rental_uris":{"android":"levelo://app?vid=d5c723da-2e09-4c65-aa8a-412b48c6f934","ios":"levelo://app?vid=d5c723da-2e09-4c65-aa8a-412b48c6f934"},"vehicle_type_id":"4","last_reported":1698350818,"current_range_meters":7200,"station_id":"ce4bhah2rcd13ifvqei0","pricing_plan_id":"free"},{"bike_id":"d6d0a06b-1905-4286-9edc-cc53c82d5c93","system_id":"levelo_inurba_marseille","lat":43.284534,"lon":5.358662,"is_reserved":false,"is_disabled":false,"rental_uris":{"android":"levelo://app?vid=d6d0a06b-1905-4286-9edc-cc53c82d5c93","ios":"levelo://app?vid=d6d0a06b-1905-4286-9edc-cc53c82d5c93"},"vehicle_type_id":"4","last_reported":1698350818,"current_range_meters":28000,"station_id":"ce4bhah2rcd13ifvqei0","pricing_plan_id":"free"},{"bike_id":"2a174eeb-d10e-49b0-bcf1-f23ea9cb7f65","system_id":"levelo_inurba_marseille","lat":43.289363,"lon":5.396322,"is_reserved":false,"is_disabled":false,"rental_uris":{"android":"levelo://app?vid=2a174eeb-d10e-49b0-bcf1-f23ea9cb7f65","ios":"levelo://app?vid=2a174eeb-d10e-49b0-bcf1-f23ea9cb7f65"},"vehicle_type_id":"4","last_reported":1698350818,"current_range_meters":0,"station_id":"ce4bh3h2rcd13ifvqdn0","pricing_plan_id":"free"},{"bike_id":"b05ea393-a8e6-4c65-8e33-3d3f350a6fa3","system_id":"levelo_inurba_marseille","lat":43.294314,"lon":5.397498,"is_reserved":false,"is_disabled":false,"rental_uris":{"android":"levelo://app?vid=b05ea393-a8e6-4c65-8e33-3d3f350a6fa3","ios":"levelo://app?vid=b05ea393-a8e6-4c65-8e33-3d3f350a6fa3"},"vehicle_type_id":"4","last_reported":1698350818,"current_range_meters":1600,"station_id":"ce4bh3h2rcd13ifvqdo0","pricing_plan_id":"free"},{"bike_id":"ccbcd672-1503-46cb-871f-6be9ef4245b1","system_id":"levelo_inurba_marseille","lat":43.284158,"lon":5.375113,"is_reserved":false,"is_disabled":false,"rental_uris":{"android":"levelo://app?vid=ccbcd672-1503-46cb-871f-6be9ef4245b1","ios":"levelo://app?vid=ccbcd672-1503-46cb-871f-6be9ef4245b1"},"vehicle_type_id":"4","last_reported":1698350818,"current_range_meters":800,"station_id":"ce4bh412rcd13ifvqds0","pricing_plan_id":"free"},{"bike_id":"6b573773-679f-4810-8b41-d3bbe22cd3ae","system_id":"levelo_inurba_marseille","lat":43.28416,"lon":5.37515,"is_reserved":false,"is_disabled":false,"rental_uris":{"android":"levelo://app?vid=6b573773-679f-4810-8b41-d3bbe22cd3ae","ios":"levelo://app?vid=6b573773-679f-4810-8b41-d3bbe22cd3ae"},"vehicle_type_id":"4","last_reported":1698350818,"current_range_meters":0,"station_id":"ce4bh412rcd13ifvqds0","pricing_plan_id":"free"},{"bike_id":"efde75c7-5e7b-4814-9125-cbfcad6a2ee8","system_id":"levelo_inurba_marseille","lat":43.284116,"lon":5.374965,"is_reserved":false,"is_disabled":false,"rental_uris":{"android":"levelo://app?vid=efde75c7-5e7b-4814-9125-cbfcad6a2ee8","ios":"levelo://app?vid=efde75c7-5e7b-4814-9125-cbfcad6a2ee8"},"vehicle_type_id":"4","last_reported":1698350818,"current_range_meters":18400,"station_id":"ce4bh412rcd13ifvqds0","pricing_plan_id":"free"},{"bike_id":"9487b707-9832-42e4-a771-ac3dce2690d3","system_id":"levelo_inurba_marseille","lat":43.28413,"lon":5.37521,"is_reserved":false,"is_disabled":false,"rental_uris":{"android":"levelo://app?vid=9487b707-9832-42e4-a771-ac3dce2690d3","ios":"levelo://app?vid=9487b707-9832-42e4-a771-ac3dce2690d3"},"vehicle_type_id":"4","last_reported":1698350818,"current_range_meters":3200,"station_id":"ce4bh412rcd13ifvqds0","pricing_plan_id":"free"},{"bike_id":"f8643d9c-35e1-48f8-9856-10ecafa91724","system_id":"levelo_inurba_marseille","lat":43.295713,"lon":5.399639,"is_reserved":false,"is_disabled":false,"rental_uris":{"android":"levelo://app?vid=f8643d9c-35e1-48f8-9856-10ecafa91724","ios":"levelo://app?vid=f8643d9c-35e1-48f8-9856-10ecafa91724"},"vehicle_type_id":"4","last_reported":1698350818,"current_range_meters":23600,"station_id":"ce4bh312rcd13ifvqdj0","pricing_plan_id":"free"},{"bike_id":"accafa23-11e8-4a16-8b72-693f7fa78692","system_id":"levelo_inurba_marseille","lat":43.295713,"lon":5.399639,"is_reserved":false,"is_disabled":false,"rental_uris":{"android":"levelo://app?vid=accafa23-11e8-4a16-8b72-693f7fa78692","ios":"levelo://app?vid=accafa23-11e8-4a16-8b72-693f7fa78692"},"vehicle_type_id":"4","last_reported":1698350818,"current_range_meters":6800,"station_id":"ce4bh312rcd13ifvqdj0","pricing_plan_id":"free"},{"bike_id":"be89398b-0cf3-4b93-980e-3e888caa9f8b","system_id":"levelo_inurba_marseille","lat":43.295713,"lon":5.399639,"is_reserved":false,"is_disabled":false,"rental_uris":{"android":"levelo://app?vid=be89398b-0cf3-4b93-980e-3e888caa9f8b","ios":"levelo://app?vid=be89398b-0cf3-4b93-980e-3e888caa9f8b"},"vehicle_type_id":"4","last_reported":1698350818,"current_range_meters":11600,"station_id":"ce4bh312rcd13ifvqdj0","pricing_plan_id":"free"},{"bike_id":"18ff1f34-2c4b-4968-a376-37ec91878cbc","system_id":"levelo_inurba_marseille","lat":43.319179,"lon":5.407725,"is_reserved":false,"is_disabled":false,"rental_uris":{"android":"levelo://app?vid=18ff1f34-2c4b-4968-a376-37ec91878cbc","ios":"levelo://app?vid=18ff1f34-2c4b-4968-a376-37ec91878cbc"},"vehicle_type_id":"4","last_reported":1698350818,"current_range_meters":2000,"station_id":"ce4bhq12rcd13ifvqhig","pricing_plan_id":"free"},{"bike_id":"0dab2b23-7c67-48b3-aa68-c29ed18a218f","system_id":"levelo_inurba_marseille","lat":43.319179,"lon":5.407725,"is_reserved":false,"is_disabled":false,"rental_uris":{"android":"levelo://app?vid=0dab2b23-7c67-48b3-aa68-c29ed18a218f","ios":"levelo://app?vid=0dab2b23-7c67-48b3-aa68-c29ed18a218f"},"vehicle_type_id":"4","last_reported":1698350818,"current_range_meters":18800,"station_id":"ce4bhq12rcd13ifvqhig","pricing_plan_id":"free"},{"bike_id":"a04dca67-8317-445e-90d6-5788929468fd","system_id":"levelo_inurba_marseille","lat":43.33674,"lon":5.39198,"is_reserved":false,"is_disabled":false,"rental_uris":{"android":"levelo://app?vid=a04dca67-8317-445e-90d6-5788929468fd","ios":"levelo://app?vid=a04dca67-8317-445e-90d6-5788929468fd"},"vehicle_type_id":"4","last_reported":1698350818,"current_range_meters":12400,"station_id":"","pricing_plan_id":"free"},{"bike_id":"58151d52-000e-4f58-9173-3c2ae081e146","system_id":"levelo_inurba_marseille","lat":43.337168,"lon":5.391825,"is_reserved":false,"is_disabled":false,"rental_uris":{"android":"levelo://app?vid=58151d52-000e-4f58-9173-3c2ae081e146","ios":"levelo://app?vid=58151d52-000e-4f58-9173-3c2ae081e146"},"vehicle_type_id":"4","last_reported":1698350818,"current_range_meters":14400,"station_id":"ce4bhr92rcd13ifvqhsg","pricing_plan_id":"free"},{"bike_id":"023aab67-f221-4b0c-a2f9-b9c8c5a8d582","system_id":"levelo_inurba_marseille","lat":43.33717,"lon":5.391857,"is_reserved":false,"is_disabled":false,"rental_uris":{"android":"levelo://app?vid=023aab67-f221-4b0c-a2f9-b9c8c5a8d582","ios":"levelo://app?vid=023aab67-f221-4b0c-a2f9-b9c8c5a8d582"},"vehicle_type_id":"4","last_reported":1698350818,"current_range_meters":2400,"station_id":"ce4bhr92rcd13ifvqhsg","pricing_plan_id":"free"},{"bike_id":"9b10fab2-818a-499d-8e47-aafcf4f2348d","system_id":"levelo_inurba_marseille","lat":43.284793,"lon":5.384113,"is_reserved":false,"is_disabled":false,"rental_uris":{"android":"levelo://app?vid=9b10fab2-818a-499d-8e47-aafcf4f2348d","ios":"levelo://app?vid=9b10fab2-818a-499d-8e47-aafcf4f2348d"},"vehicle_type_id":"4","last_reported":1698350818,"current_range_meters":6400,"station_id":"ce4bh512rcd13ifvqe3g","pricing_plan_id":"free"},{"bike_id":"58271ab3-fd53-4c5d-8d16-35aa79905097","system_id":"levelo_inurba_marseille","lat":43.284793,"lon":5.384119,"is_reserved":false,"is_disabled":false,"rental_uris":{"android":"levelo://app?vid=58271ab3-fd53-4c5d-8d16-35aa79905097","ios":"levelo://app?vid=58271ab3-fd53-4c5d-8d16-35aa79905097"},"vehicle_type_id":"4","last_reported":1698350818,"current_range_meters":0,"station_id":"ce4bh512rcd13ifvqe3g","pricing_plan_id":"free"},{"bike_id":"d6e0f25c-aaad-4436-9a20-7d785d7e759e","system_id":"levelo_inurba_marseille","lat":43.32521,"lon":5.40572,"is_reserved":false,"is_disabled":false,"rental_uris":{"android":"levelo://app?vid=d6e0f25c-aaad-4436-9a20-7d785d7e759e","ios":"levelo://app?vid=d6e0f25c-aaad-4436-9a20-7d785d7e759e"},"vehicle_type_id":"4","last_reported":1698350818,"current_range_meters":0,"station_id":"","pricing_plan_id":"free"},{"bike_id":"2f666bbb-190f-4291-ade2-95e2c0cfd815","system_id":"levelo_inurba_marseille","lat":43.325281,"lon":5.405683,"is_reserved":false,"is_disabled":false,"rental_uris":{"android":"levelo://app?vid=2f666bbb-190f-4291-ade2-95e2c0cfd815","ios":"levelo://app?vid=2f666bbb-190f-4291-ade2-95e2c0cfd815"},"vehicle_type_id":"4","last_reported":1698350818,"current_range_meters":24400,"station_id":"","pricing_plan_id":"free"},{"bike_id":"3e3ceea7-865a-41f8-a9d7-8a451cc82334","system_id":"levelo_inurba_marseille","lat":43.28846,"lon":5.39314,"is_reserved":false,"is_disabled":false,"rental_uris":{"android":"levelo://app?vid=3e3ceea7-865a-41f8-a9d7-8a451cc82334","ios":"levelo://app?vid=3e3ceea7-865a-41f8-a9d7-8a451cc82334"},"vehicle_type_id":"4","last_reported":1698350818,"current_range_meters":10400,"station_id":"ce4bh2p2rcd13ifvqdi0","pricing_plan_id":"free"},{"bike_id":"de118f03-af1f-4f61-9b8b-8f359aa9c40d","system_id":"levelo_inurba_marseille","lat":43.2842,"lon":5.34976,"is_reserved":false,"is_disabled":false,"rental_uris":{"android":"levelo://app?vid=de118f03-af1f-4f61-9b8b-8f359aa9c40d","ios":"levelo://app?vid=de118f03-af1f-4f61-9b8b-8f359aa9c40d"},"vehicle_type_id":"4","last_reported":1698350818,"current_range_meters":24000,"station_id":"ce4bhbh2rcd13ifvqepg","pricing_plan_id":"free"},{"bike_id":"bb0f1dc9-e799-42cd-aefa-2c0955c9335e","system_id":"levelo_inurba_marseille","lat":43.284217,"lon":5.349697,"is_reserved":false,"is_disabled":false,"rental_uris":{"android":"levelo://app?vid=bb0f1dc9-e799-42cd-aefa-2c0955c9335e","ios":"levelo://app?vid=bb0f1dc9-e799-42cd-aefa-2c0955c9335e"},"vehicle_type_id":"4","last_reported":1698350818,"current_range_meters":13600,"station_id":"ce4bhbh2rcd13ifvqepg","pricing_plan_id":"free"},{"bike_id":"49a6032d-7994-4ca0-bfb6-6724ffd67292","system_id":"levelo_inurba_marseille","lat":43.282744,"lon":5.350533,"is_reserved":false,"is_disabled":false,"rental_uris":{"android":"levelo://app?vid=49a6032d-7994-4ca0-bfb6-6724ffd67292","ios":"levelo://app?vid=49a6032d-7994-4ca0-bfb6-6724ffd67292"},"vehicle_type_id":"4","last_reported":1698350818,"current_range_meters":15200,"station_id":"ce4bhbp2rcd13ifvqerg","pricing_plan_id":"free"},{"bike_id":"c2cdb2f3-b28e-4f6d-b114-5e53618884e4","system_id":"levelo_inurba_marseille","lat":43.283656,"lon":5.386469,"is_reserved":false,"is_disabled":false,"rental_uris":{"android":"levelo://app?vid=c2cdb2f3-b28e-4f6d-b114-5e53618884e4","ios":"levelo://app?vid=c2cdb2f3-b28e-4f6d-b114-5e53618884e4"},"vehicle_type_id":"4","last_reported":1698350818,"current_range_meters":0,"station_id":"ce4bh492rcd13ifvqdvg","pricing_plan_id":"free"},{"bike_id":"7f717374-de65-458a-8eb8-0339129a9acc","system_id":"levelo_inurba_marseille","lat":43.282754,"lon":5.350519,"is_reserved":false,"is_disabled":false,"rental_uris":{"android":"levelo://app?vid=7f717374-de65-458a-8eb8-0339129a9acc","ios":"levelo://app?vid=7f717374-de65-458a-8eb8-0339129a9acc"},"vehicle_type_id":"4","last_reported":1698350818,"current_range_meters":10000,"station_id":"ce4bhbp2rcd13ifvqerg","pricing_plan_id":"free"},{"bike_id":"c0449154-414a-4a97-8c66-4ecd834e8e24","system_id":"levelo_inurba_marseille","lat":43.280382,"lon":5.369291,"is_reserved":false,"is_disabled":false,"rental_uris":{"android":"levelo://app?vid=c0449154-414a-4a97-8c66-4ecd834e8e24","ios":"levelo://app?vid=c0449154-414a-4a97-8c66-4ecd834e8e24"},"vehicle_type_id":"4","last_reported":1698350818,"current_range_meters":31200,"station_id":"ce4bha12rcd13ifvqef0","pricing_plan_id":"free"},{"bike_id":"17da7bdd-1b8a-427f-9c91-7d1db1328f4c","system_id":"levelo_inurba_marseille","lat":43.280382,"lon":5.369291,"is_reserved":false,"is_disabled":false,"rental_uris":{"android":"levelo://app?vid=17da7bdd-1b8a-427f-9c91-7d1db1328f4c","ios":"levelo://app?vid=17da7bdd-1b8a-427f-9c91-7d1db1328f4c"},"vehicle_type_id":"4","last_reported":1698350818,"current_range_meters":20000,"station_id":"ce4bha12rcd13ifvqef0","pricing_plan_id":"free"},{"bike_id":"eae608c4-d84e-4731-b7f0-fdf7ef265fdf","system_id":"levelo_inurba_marseille","lat":43.28039,"lon":5.369297,"is_reserved":false,"is_disabled":false,"rental_uris":{"android":"levelo://app?vid=eae608c4-d84e-4731-b7f0-fdf7ef265fdf","ios":"levelo://app?vid=eae608c4-d84e-4731-b7f0-fdf7ef265fdf"},"vehicle_type_id":"4","last_reported":1698350818,"current_range_meters":25200,"station_id":"ce4bha12rcd13ifvqef0","pricing_plan_id":"free"},{"bike_id":"3893999a-d9e6-459a-ac5c-dc96c8c855aa","system_id":"levelo_inurba_marseille","lat":43.28039,"lon":5.369297,"is_reserved":false,"is_disabled":false,"rental_uris":{"android":"levelo://app?vid=3893999a-d9e6-459a-ac5c-dc96c8c855aa","ios":"levelo://app?vid=3893999a-d9e6-459a-ac5c-dc96c8c855aa"},"vehicle_type_id":"4","last_reported":1698350818,"current_range_meters":28000,"station_id":"ce4bha12rcd13ifvqef0","pricing_plan_id":"free"},