{"last_updated":1746126445,"ttl":60,"version":"2.2","data":{"bikes":[{"bike_id":"4d01ed3c-b5ca-4468-9018-85c23d91a18d","system_id":"levelo_inurba_marseille","lat":43.300853,"lon":5.39072,"is_reserved":false,"is_disabled":false,"rental_uris":{"android":"levelo://app?vid=4d01ed3c-b5ca-4468-9018-85c23d91a18d","ios":"levelo://app?vid=4d01ed3c-b5ca-4468-9018-85c23d91a18d"},"vehicle_type_id":"4","last_reported":1746126445,"current_range_meters":2800,"station_id":"ce4bh192rcd13ifvqdb0","pricing_plan_id":"cebpf4jnsgd1na2vs0mg"},{"bike_id":"9df0ea7a-9782-40a6-bd52-fe882af05fcd","system_id":"levelo_inurba_marseille","lat":43.29617,"lon":5.37725,"is_reserved":false,"is_disabled":false,"rental_uris":{"android":"levelo://app?vid=9df0ea7a-9782-40a6-bd52-fe882af05fcd","ios":"levelo://app?vid=9df0ea7a-9782-40a6-bd52-fe882af05fcd"},"vehicle_type_id":"4","last_reported":1746126445,"current_range_meters":2800,"station_id":"ce4bgi92rcd13ifvqb90","pricing_plan_id":"cebpf4jnsgd1na2vs0mg"},{"bike_id":"33cd3df6-c292-4bb5-8406-7bcf65451520","system_id":"levelo_inurba_marseille","lat":43.29633,"lon":5.40589,"is_reserved":false,"is_disabled":false,"rental_uris":{"android":"levelo://app?vid=33cd3df6-c292-4bb5-8406-7bcf65451520","ios":"levelo://app?vid=33cd3df6-c292-4bb5-8406-7bcf65451520"},"vehicle_type_id":"4","last_reported":1746126445,"current_range_meters":3200,"station_id":"ce4bh0h2rcd13ifvqd60","pricing_plan_id":"cebpf4jnsgd1na2vs0mg"},{"bike_id":"0e93a132-a02d-4e17-9309-40bcce9e8343","system_id":"levelo_inurba_marseille","lat":43.31173,"lon":5.38737,"is_reserved":false,"is_disabled":false,"rental_uris":{"android":"levelo://app?vid=0e93a132-a02d-4e17-9309-40bcce9e8343","ios":"levelo://app?vid=0e93a132-a02d-4e17-9309-40bcce9e8343"},"vehicle_type_id":"4","last_reported":1746126445,"current_range_meters":3200,"station_id":"ce4bgv12rcd13ifvqcp0","pricing_plan_id":"cebpf4jnsgd1na2vs0mg"},{"bike_id":"9f1b9c6b-054b-48f5-bdcd-0b3ea8a0df0e","system_id":"levelo_inurba_marseille","lat":43.29859,"lon":5.36274,"is_reserved":false,"is_disabled":true,"rental_uris":{"android":"levelo://app?vid=9f1b9c6b-054b-48f5-bdcd-0b3ea8a0df0e","ios":"levelo://app?vid=9f1b9c6b-054b-48f5-bdcd-0b3ea8a0df0e"},"vehicle_type_id":"4","last_reported":1746126445,"current_range_meters":3200,"station_id":"ce4bgpp2rcd13ifvqc3g","pricing_plan_id":"cebpf4jnsgd1na2vs0mg"},{"bike_id":"485f3215-88a9-440f-a2cb-6864e841bd1c","system_id":"levelo_inurba_marseille","lat":43.29912,"lon":5.38154,"is_reserved":false,"is_disabled":false,"rental_uris":{"android":"levelo://app?vid=485f3215-88a9-440f-a2cb-6864e841bd1c","ios":"levelo://app?vid=485f3215-88a9-440f-a2cb-6864e841bd1c"},"vehicle_type_id":"4","last_reported":1746126445,"current_range_meters":3600,"station_id":"ce4bgj12rcd13ifvqbc0","pricing_plan_id":"cebpf4jnsgd1na2vs0mg"},{"bike_id":"19a4a569-d90d-4258-8f88-921a8141e678","system_id":"levelo_inurba_marseille","lat":43.29604,"lon":5.3809,"is_reserved":false,"is_disabled":false,"rental_uris":{"android":"levelo://app?vid=19a4a569-d90d-4258-8f88-921a8141e678","ios":"levelo://app?vid=19a4a569-d90d-4258-8f88-921a8141e678"},"vehicle_type_id":"4","last_reported":1746126445,"current_range_meters":3600,"station_id":"ce4bgl12rcd13ifvqbo0","pricing_plan_id":"cebpf4jnsgd1na2vs0mg"},{"bike_id":"a1af1ca7-0e9f-49c6-b43f-59fcf4f099e3","system_id":"levelo_inurba_marseille","lat":43.28484,"lon":5.38411,"is_reserved":false,"is_disabled":false,"rental_uris":{"android":"levelo://app?vid=a1af1ca7-0e9f-49c6-b43f-59fcf4f099e3","ios":"levelo://app?vid=a1af1ca7-0e9f-49c6-b43f-59fcf4f099e3"},"vehicle_type_id":"4","last_reported":1746126445,"current_range_meters":3200,"station_id":"ce4bh512rcd13ifvqe3g","pricing_plan_id":"cebpf4jnsgd1na2vs0mg"},{"bike_id":"9c7a9923-eee2-461d-b5f2-46a5340bbf60","system_id":"levelo_inurba_marseille","lat":43.29851,"lon":5.3629,"is_reserved":false,"is_disabled":true,"rental_uris":{"android":"levelo://app?vid=9c7a9923-eee2-461d-b5f2-46a5340bbf60","ios":"levelo://app?vid=9c7a9923-eee2-461d-b5f2-46a5340bbf60"},"vehicle_type_id":"4","last_reported":1746126445,"current_range_meters":3600,"station_id":"ce4bgpp2rcd13ifvqc3g","pricing_plan_id":"cebpf4jnsgd1na2vs0mg"},{"bike_id":"20f32b7d-6bde-4604-b650-1073a54be713","system_id":"levelo_inurba_marseille","lat":43.29564,"lon":5.3998,"is_reserved":false,"is_disabled":false,"rental_uris":{"android":"levelo://app?vid=20f32b7d-6bde-4604-b650-1073a54be713","ios":"levelo://app?vid=20f32b7d-6bde-4604-b650-1073a54be713"},"vehicle_type_id":"4","last_reported":1746126445,"current_range_meters":3600,"station_id":"ce4bh312rcd13ifvqdj0","pricing_plan_id":"cebpf4jnsgd1na2vs0mg"},{"bike_id":"c8ca7c2e-570c-44b6-bf38-231fe1a95712","system_id":"levelo_inurba_marseille","lat":43.29707,"lon":5.3662,"is_reserved":false,"is_disabled":false,"rental_uris":{"android":"levelo://app?vid=c8ca7c2e-570c-44b6-bf38-231fe1a95712","ios":"levelo://app?vid=c8ca7c2e-570c-44b6-bf38-231fe1a95712"},"vehicle_type_id":"4","last_reported":1746126445,"current_range_meters":4000,"station_id":"ce4bgn12rcd13ifvqbt0","pricing_plan_id":"cebpf4jnsgd1na2vs0mg"},{"bike_id":"d59cff9c-baf7-443c-94e0-2994f658ed00","system_id":"levelo_inurba_marseille","lat":43.26494,"lon":5.39545,"is_reserved":false,"is_disabled":false,"rental_uris":{"android":"levelo://app?vid=d59cff9c-baf7-443c-94e0-2994f658ed00","ios":"levelo://app?vid=d59cff9c-baf7-443c-94e0-2994f658ed00"},"vehicle_type_id":"4","last_reported":1746126445,"current_range_meters":4000,"station_id":"ce4bhi12rcd13ifvqfq0","pricing_plan_id":"cebpf4jnsgd1na2vs0mg"},{"bike_id":"ae5847ff-4182-40a5-b5cb-d739d71c9ac5","system_id":"levelo_inurba_marseille","lat":43.29626,"lon":5.40586,"is_reserved":false,"is_disabled":false,"rental_uris":{"android":"levelo://app?vid=ae5847ff-4182-40a5-b5cb-d739d71c9ac5","ios":"levelo://app?vid=ae5847ff-4182-40a5-b5cb-d739d71c9ac5"},"vehicle_type_id":"4","last_reported":1746126445,"current_range_meters":3600,"station_id":"ce4bh0h2rcd13ifvqd60","pricing_plan_id":"cebpf4jnsgd1na2vs0mg"},{"bike_id":"7b30e614-283a-49cc-9912-0ab7cd12305e","system_id":"levelo_inurba_marseille","lat":43.25864,"lon":5.39892,"is_reserved":false,"is_disabled":false,"rental_uris":{"android":"levelo://app?vid=7b30e614-283a-49cc-9912-0ab7cd12305e","ios":"levelo://app?vid=7b30e614-283a-49cc-9912-0ab7cd12305e"},"vehicle_type_id":"4","last_reported":1746126445,"current_range_meters":4000,"station_id":"ce4bhl92rcd13ifvqghg","pricing_plan_id":"cebpf4jnsgd1na2vs0mg"},{"bike_id":"0683d66b-a209-4c9a-8a6e-884c4cd4abfa","system_id":"levelo_inurba_marseille","lat":43.29872,"lon":5.39723,"is_reserved":false,"is_disabled":false,"rental_uris":{"android":"levelo://app?vid=0683d66b-a209-4c9a-8a6e-884c4cd4abfa","ios":"levelo://app?vid=0683d66b-a209-4c9a-8a6e-884c4cd4abfa"},"vehicle_type_id":"4","last_reported":1746126445,"current_range_meters":4400,"station_id":"ce4bh0h2rcd13ifvqd50","pricing_plan_id":"cebpf4jnsgd1na2vs0mg"},{"bike_id":"b2408cd1-73d0-486f-a473-20e547ed482e","system_id":"levelo_inurba_marseille","lat":43.29843,"lon":5.36276,"is_reserved":false,"is_disabled":false,"rental_uris":{"android":"levelo://app?vid=b2408cd1-73d0-486f-a473-20e547ed482e","ios":"levelo://app?vid=b2408cd1-73d0-486f-a473-20e547ed482e"},"vehicle_type_id":"4","last_reported":1746126445,"current_range_meters":4400,"station_id":"ce4bgpp2rcd13ifvqc3g","pricing_plan_id":"cebpf4jnsgd1na2vs0mg"},{"bike_id":"d1abdb2b-a528-4db6-aa78-3e0dee0aa399","system_id":"levelo_inurba_marseille","lat":43.23189,"lon":5.35555,"is_reserved":false,"is_disabled":false,"rental_uris":{"android":"levelo://app?vid=d1abdb2b-a528-4db6-aa78-3e0dee0aa399","ios":"levelo://app?vid=d1abdb2b-a528-4db6-aa78-3e0dee0aa399"},"vehicle_type_id":"4","last_reported":1746126445,"current_range_meters":4400,"station_id":"ce4bhu92rcd13ifvqi70","pricing_plan_id":"cebpf4jnsgd1na2vs0mg"},{"bike_id":"268d04d4-9cd3-4ee8-bd22-58c85548fb74","system_id":"levelo_inurba_marseille","lat":43.27441,"lon":5.394,"is_reserved":false,"is_disabled":false,"rental_uris":{"android":"levelo://app?vid=268d04d4-9cd3-4ee8-bd22-58c85548fb74","ios":"levelo://app?vid=268d04d4-9cd3-4ee8-bd22-58c85548fb74"},"vehicle_type_id":"4","last_reported":1746126445,"current_range_meters":4400,"station_id":"ce4bhdp2rcd13ifvqf20","pricing_plan_id":"cebpf4jnsgd1na2vs0mg"},{"bike_id":"567896ee-4f18-489d-953c-966cedf10cab","system_id":"levelo_inurba_marseille","lat":43.31727,"lon":5.42392,"is_reserved":false,"is_disabled":false,"rental_uris":{"android":"levelo://app?vid=567896ee-4f18-489d-953c-966cedf10cab","ios":"levelo://app?vid=567896ee-4f18-489d-953c-966cedf10cab"},"vehicle_type_id":"4","last_reported":1746126445,"current_range_meters":4800,"station_id":"ce4bhp92rcd13ifvqhbg","pricing_plan_id":"cebpf4jnsgd1na2vs0mg"},{"bike_id":"d0d69fb4-0fe8-4868-bd1d-1ec540230ade","system_id":"levelo_inurba_marseille","lat":43.30799,"lon":5.37669,"is_reserved":false,"is_disabled":false,"rental_uris":{"android":"levelo://app?vid=d0d69fb4-0fe8-4868-bd1d-1ec540230ade","ios":"levelo://app?vid=d0d69fb4-0fe8-4868-bd1d-1ec540230ade"},"vehicle_type_id":"4","last_reported":1746126445,"current_range_meters":4800,"station_id":"ce4bgv92rcd13ifvqcq0","pricing_plan_id":"cebpf4jnsgd1na2vs0mg"},{"bike_id":"0290aa84-d2b2-4aa4-ae35-3471fa9a11e1","system_id":"levelo_inurba_marseille","lat":43.30906,"lon":5.36848,"is_reserved":false,"is_disabled":false,"rental_uris":{"android":"levelo://app?vid=0290aa84-d2b2-4aa4-ae35-3471fa9a11e1","ios":"levelo://app?vid=0290aa84-d2b2-4aa4-ae35-3471fa9a11e1"},"vehicle_type_id":"4","last_reported":1746126445,"current_range_meters":4800,"station_id":"ce4bgn92rcd13ifvqbvg","pricing_plan_id":"cebpf4jnsgd1na2vs0mg"},{"bike_id":"6f752952-3f62-4932-9fe3-5e10c3f24bb8","system_id":"levelo_inurba_marseille","lat":43.3133,"lon":5.39692,"is_reserved":false,"is_disabled":false,"rental_uris":{"android":"levelo://app?vid=6f752952-3f62-4932-9fe3-5e10c3f24bb8","ios":"levelo://app?vid=6f752952-3f62-4932-9fe3-5e10c3f24bb8"},"vehicle_type_id":"4","last_reported":1746126445,"current_range_meters":4800,"station_id":"ce4bgvp2rcd13ifvqcu0","pricing_plan_id":"cebpf4jnsgd1na2vs0mg"},{"bike_id":"642403f5-06ad-4c3d-96df-9f7ee36d800c","system_id":"levelo_inurba_marseille","lat":43.27617,"lon":5.36105,"is_reserved":false,"is_disabled":false,"rental_uris":{"android":"levelo://app?vid=642403f5-06ad-4c3d-96df-9f7ee36d800c","ios":"levelo://app?vid=642403f5-06ad-4c3d-96df-9f7ee36d800c"},"vehicle_type_id":"4","last_reported":1746126445,"current_range_meters":4800,"station_id":"ce4bgj92rcd13ifvqbe0","pricing_plan_id":"cebpf4jnsgd1na2vs0mg"},{"bike_id":"f4ba8316-e490-4a42-9203-3e1ad388b8cb","system_id":"levelo_inurba_marseille","lat":43.3169,"lon":5.40476,"is_reserved":false,"is_disabled":false,"rental_uris":{"android":"levelo://app?vid=f4ba8316-e490-4a42-9203-3e1ad388b8cb","ios":"levelo://app?vid=f4ba8316-e490-4a42-9203-3e1ad388b8cb"},"vehicle_type_id":"4","last_reported":1746126445,"current_range_meters":4800,"station_id":"ce4bh012rcd13ifvqd00","pricing_plan_id":"cebpf4jnsgd1na2vs0mg"},{"bike_id":"fee7396b-8d6a-4ad5-8af7-947693171efd","system_id":"levelo_inurba_marseille","lat":43.2708,"lon":5.42278,"is_reserved":false,"is_disabled":false,"rental_uris":{"android":"levelo://app?vid=fee7396b-8d6a-4ad5-8af7-947693171efd","ios":"levelo://app?vid=fee7396b-8d6a-4ad5-8af7-947693171efd"},"vehicle_type_id":"4","last_reported":1746126445,"current_range_meters":5600,"station_id":"ce4bhk92rcd13ifvqgb0","pricing_plan_id":"cebpf4jnsgd1na2vs0mg"},{"bike_id":"21efdff1-b20f-4d09-b25d-6dc05f6aa4c7","system_id":"levelo_inurba_marseille","lat":43.29417,"lon":5.38634,"is_reserved":false,"is_disabled":false,"rental_uris":{"android":"levelo://app?vid=21efdff1-b20f-4d09-b25d-6dc05f6aa4c7","ios":"levelo://app?vid=21efdff1-b20f-4d09-b25d-6dc05f6aa4c7"},"vehicle_type_id":"4","last_reported":1746126445,"current_range_meters":5600,"station_id":"ce4bh2h2rcd13ifvqdh0","pricing_plan_id":"cebpf4jnsgd1na2vs0mg"},{"bike_id":"9e7ef3a9-1394-40c7-b439-f3c50ca04ec7","system_id":"levelo_inurba_marseille","lat":43.31531,"lon":5.38025,"is_reserved":false,"is_disabled":false,"rental_uris":{"android":"levelo://app?vid=9e7ef3a9-1394-40c7-b439-f3c50ca04ec7","ios":"levelo://app?vid=9e7ef3a9-1394-40c7-b439-f3c50ca04ec7"},"vehicle_type_id":"4","last_reported":1746126445,"current_range_meters":5600,"station_id":"ce4bhsp2rcd13ifvqi50","pricing_plan_id":"cebpf4jnsgd1na2vs0mg"},{"bike_id":"39ccc3a0-baae-41ad-bd60-2cf8edcfd4fa","system_id":"levelo_inurba_marseille","lat":43.26022,"lon":5.37547,"is_reserved":false,"is_disabled":true,"rental_uris":{"android":"levelo://app?vid=39ccc3a0-baae-41ad-bd60-2cf8edcfd4fa","ios":"levelo://app?vid=39ccc3a0-baae-41ad-bd60-2cf8edcfd4fa"},"vehicle_type_id":"4","last_reported":1746126445,"current_range_meters":6000,"station_id":"ce4bhgh2rcd13ifvqfa0","pricing_plan_id":"cebpf4jnsgd1na2vs0mg"},{"bike_id":"b20fb376-59ad-4923-beb1-bd3cc854d289","system_id":"levelo_inurba_marseille","lat":43.30897,"lon":5.39617,"is_reserved":false,"is_disabled":false,"rental_uris":{"android":"levelo://app?vid=b20fb376-59ad-4923-beb1-bd3cc854d289","ios":"levelo://app?vid=b20fb376-59ad-4923-beb1-bd3cc854d289"},"vehicle_type_id":"4","last_reported":1746126445,"current_range_meters":6000,"station_id":"ce4bh012rcd13ifvqcv0","pricing_plan_id":"cebpf4jnsgd1na2vs0mg"},{"bike_id":"5a46a972-f412-47bc-918e-2491313c9726","system_id":"levelo_inurba_marseille","lat":43.29056,"lon":5.3991,"is_reserved":false,"is_disabled":false,"rental_uris":{"android":"levelo://app?vid=5a46a972-f412-47bc-918e-2491313c9726","ios":"levelo://app?vid=5a46a972-f412-47bc-918e-2491313c9726"},"vehicle_type_id":"4","last_reported":1746126445,"current_range_meters":6000,"station_id":"ce4bh392rcd13ifvqdm0","pricing_plan_id":"cebpf4jnsgd1na2vs0mg"},{"bike_id":"9993632a-4b57-4af1-b3f7-ae52baf8c31d","system_id":"levelo_inurba_marseille","lat":43.29423,"lon":5.3861,"is_reserved":false,"is_disabled":true,"rental_uris":{"android":"levelo://app?vid=9993632a-4b57-4af1-b3f7-ae52baf8c31d","ios":"levelo://app?vid=9993632a-4b57-4af1-b3f7-ae52baf8c31d"},"vehicle_type_id":"4","last_reported":1746126445,"current_range_meters":6000,"station_id":"ce4bh2h2rcd13ifvqdh0","pricing_plan_id":"cebpf4jnsgd1na2vs0mg"},{"bike_id":"63bfe022-02b5-40c7-966e-677a0e6e7b8a","system_id":"levelo_inurba_marseille","lat":43.29264,"lon":5.38434,"is_reserved":false,"is_disabled":false,"rental_uris":{"android":"levelo://app?vid=63bfe022-02b5-40c7-966e-677a0e6e7b8a","ios":"levelo://app?vid=63bfe022-02b5-40c7-966e-677a0e6e7b8a"},"vehicle_type_id":"4","last_reported":1746126445,"current_range_meters":6000,"station_id":"ce4bh692rcd13ifvqea0","pricing_plan_id":"cebpf4jnsgd1na2vs0mg"},{"bike_id":"d6db0af8-ccc2-4546-bf53-29627ef33229","system_id":"levelo_inurba_marseille","lat":43.29281,"lon":5.40123,"is_reserved":false,"is_disabled":false,"rental_uris":{"android":"levelo://app?vid=d6db0af8-ccc2-4546-bf53-29627ef33229","ios":"levelo://app?vid=d6db0af8-ccc2-4546-bf53-29627ef33229"},"vehicle_type_id":"4","last_reported":1746126445,"current_range_meters":6400,"station_id":"ce4bh312rcd13ifvqdk0","pricing_plan_id":"cebpf4jnsgd1na2vs0mg"},{"bike_id":"bb929167-6f7f-412c-8a3d-c489665ecf70","system_id":"levelo_inurba_marseille","lat":43.29563,"lon":5.37474,"is_reserved":false,"is_disabled":false,"rental_uris":{"android":"levelo://app?vid=bb929167-6f7f-412c-8a3d-c489665ecf70","ios":"levelo://app?vid=bb929167-6f7f-412c-8a3d-c489665ecf70"},"vehicle_type_id":"4","last_reported":1746126445,"current_range_meters":6400,"station_id":"ce4bgh92rcd13ifvqb50","pricing_plan_id":"cebpf4jnsgd1na2vs0mg"},{"bike_id":"729477e4-b680-456e-b012-5fb5f555de4b","system_id":"levelo_inurba_marseille","lat":43.25725,"lon":5.41105,"is_reserved":false,"is_disabled":false,"rental_uris":{"android":"levelo://app?vid=729477e4-b680-456e-b012-5fb5f555de4b","ios":"levelo://app?vid=729477e4-b680-456e-b012-5fb5f555de4b"},"vehicle_type_id":"4","last_reported":1746126445,"current_range_meters":6400,"station_id":"ce4bhkp2rcd13ifvqgd0","pricing_plan_id":"cebpf4jnsgd1na2vs0mg"},{"bike_id":"fd9a4832-7310-4a2d-b55c-eb7e681369f4","system_id":"levelo_inurba_marseille","lat":43.27982,"lon":5.44247,"is_reserved":false,"is_disabled":false,"rental_uris":{"android":"levelo://app?vid=fd9a4832-7310-4a2d-b55c-eb7e681369f4","ios":"levelo://app?vid=fd9a4832-7310-4a2d-b55c-eb7e681369f4"},"vehicle_type_id":"4","last_reported":1746126445,"current_range_meters":6400,"station_id":"","pricing_plan_id":"cebpf4jnsgd1na2vs0mg"},{"bike_id":"0f9f3a16-e87b-4d1a-b0d5-a10b738c1671","system_id":"levelo_inurba_marseille","lat":43.28672,"lon":5.38671,"is_reserved":false,"is_disabled":false,"rental_uris":{"android":"levelo://app?vid=0f9f3a16-e87b-4d1a-b0d5-a10b738c1671","ios":"levelo://app?vid=0f9f3a16-e87b-4d1a-b0d5-a10b738c1671"},"vehicle_type_id":"4","last_reported":1746126445,"current_range_meters":6400,"station_id":"ce4bh492rcd13ifvqdug","pricing_plan_id":"cebpf4jnsgd1na2vs0mg"},{"bike_id":"fe8cf361-bf49-4662-9f36-e21be526ca9b","system_id":"levelo_inurba_marseille","lat":43.30904,"lon":5.36841,"is_reserved":false,"is_disabled":false,"rental_uris":{"android":"levelo://app?vid=fe8cf361-bf49-4662-9f36-e21be526ca9b","ios":"levelo://app?vid=fe8cf361-bf49-4662-9f36-e21be526ca9b"},"vehicle_type_id":"4","last_reported":1746126445,"current_range_meters":6400,"station_id":"ce4bgn92rcd13ifvqbvg","pricing_plan_id":"cebpf4jnsgd1na2vs0mg"},{"bike_id":"3412f949-073b-4a80-924d-b66822fe6ddb","system_id":"levelo_inurba_marseille","lat":43.30421,"lon":5.38888,"is_reserved":false,"is_disabled":false,"rental_uris":{"android":"levelo://app?vid=3412f949-073b-4a80-924d-b66822fe6ddb","ios":"levelo://app?vid=3412f949-073b-4a80-924d-b66822fe6ddb"},"vehicle_type_id":"4","last_reported":1746126445,"current_range_meters":6800,"station_id":"ce4bgk12rcd13ifvqbi0","pricing_plan_id":"cebpf4jnsgd1na2vs0mg"},{"bike_id":"7f770ba9-2e48-47c9-8bb4-942855273bad","system_id":"levelo_inurba_marseille","lat":43.253449,"lon":5.424168,"is_reserved":false,"is_disabled":false,"rental_uris":{"android":"levelo://app?vid=7f770ba9-2e48-47c9-8bb4-942855273bad","ios":"levelo://app?vid=7f770ba9-2e48-47c9-8bb4-942855273bad"},"vehicle_type_id":"4","last_reported":1746126445,"current_range_meters":6800,"station_id":"","pricing_plan_id":"cebpf4jnsgd1na2vs0mg"},{"bike_id":"b78c4732-2ca1-4682-8ab8-a24ecbbc065e","system_id":"levelo_inurba_marseille","lat":43.30433,"lon":5.39748,"is_reserved":false,"is_disabled":false,"rental_uris":{"android":"levelo://app?vid=b78c4732-2ca1-4682-8ab8-a24ecbbc065e","ios":"levelo://app?vid=b78c4732-2ca1-4682-8ab8-a24ecbbc065e"},"vehicle_type_id":"4","last_reported":1746126445,"current_range_meters":6800,"station_id":"ce4bh092rcd13ifvqd20","pricing_plan_id":"cebpf4jnsgd1na2vs0mg"},{"bike_id":"d49676e7-1047-419f-96f5-64534c399ee0","system_id":"levelo_inurba_marseille","lat":43.30206,"lon":5.39468,"is_reserved":false,"is_disabled":false,"rental_uris":{"android":"levelo://app?vid=d49676e7-1047-419f-96f5-64534c399ee0","ios":"levelo://app?vid=d49676e7-1047-419f-96f5-64534c399ee0"},"vehicle_type_id":"4","last_reported":1746126445,"current_range_meters":6800,"station_id":"ce4bh0p2rcd13ifvqd70","pricing_plan_id":"cebpf4jnsgd1na2vs0mg"},{"bike_id":"84ab9bdf-f062-4160-8d86-4eaa0b45b083","system_id":"levelo_inurba_marseille","lat":43.32556,"lon":5.39169,"is_reserved":false,"is_disabled":false,"rental_uris":{"android":"levelo://app?vid=84ab9bdf-f062-4160-8d86-4eaa0b45b083","ios":"levelo://app?vid=84ab9bdf-f062-4160-8d86-4eaa0b45b083"},"vehicle_type_id":"4","last_reported":1746126445,"current_range_meters":6800,"station_id":"","pricing_plan_id":"cebpf4jnsgd1na2vs0mg"},{"bike_id":"727a9e79-9eef-4d0d-8364-8cc93b121718","system_id":"levelo_inurba_marseille","lat":43.254952,"lon":5.376428,"is_reserved":false,"is_disabled":true,"rental_uris":{"android":"levelo://app?vid=727a9e79-9eef-4d0d-8364-8cc93b121718","ios":"levelo://app?vid=727a9e79-9eef-4d0d-8364-8cc93b121718"},"vehicle_type_id":"4","last_reported":1746126445,"current_range_meters":6800,"station_id":"ce4bhh12rcd13ifvqff0","pricing_plan_id":"cebpf4jnsgd1na2vs0mg"},{"bike_id":"d901647f-aef6-4e5f-b7ba-7cb0dfd0a264","system_id":"levelo_inurba_marseille","lat":43.30764,"lon":5.3766,"is_reserved":false,"is_disabled":true,"rental_uris":{"android":"levelo://app?vid=d901647f-aef6-4e5f-b7ba-7cb0dfd0a264","ios":"levelo://app?vid=d901647f-aef6-4e5f-b7ba-7cb0dfd0a264"},"vehicle_type_id":"4","last_reported":1746126445,"current_range_meters":7200,"station_id":"ce4bgv92rcd13ifvqcq0","pricing_plan_id":"cebpf4jnsgd1na2vs0mg"},{"bike_id":"b8d68794-504a-43a1-986e-6c4acd3085d6","system_id":"levelo_inurba_marseille","lat":43.2858,"lon":5.39498,"is_reserved":false,"is_disabled":false,"rental_uris":{"android":"levelo://app?vid=b8d68794-504a-43a1-986e-6c4acd3085d6","ios":"levelo://app?vid=b8d68794-504a-43a1-986e-6c4acd3085d6"},"vehicle_type_id":"4","last_reported":1746126445,"current_range_meters":6800,"station_id":"ce4bh292rcd13ifvqdg0","pricing_plan_id":"cebpf4jnsgd1na2vs0mg"},{"bike_id":"11ccbf64-0ced-47ed-91ba-a8ed33949507","system_id":"levelo_inurba_marseille","lat":43.29981,"lon":5.38497,"is_reserved":false,"is_disabled":false,"rental_uris":{"android":"levelo://app?vid=11ccbf64-0ced-47ed-91ba-a8ed33949507","ios":"levelo://app?vid=11ccbf64-0ced-47ed-91ba-a8ed33949507"},"vehicle_type_id":"4","last_reported":1746126445,"current_range_meters":7200,"station_id":"ce4bgj92rcd13ifvqbd0","pricing_plan_id":"cebpf4jnsgd1na2vs0mg"},{"bike_id":"d00e94ec-376f-4f68-80c9-531065506df1","system_id":"levelo_inurba_marseille","lat":43.29027,"lon":5.38135,"is_reserved":false,"is_disabled":false,"rental_uris":{"android":"levelo://app?vid=d00e94ec-376f-4f68-80c9-531065506df1","ios":"levelo://app?vid=d00e94ec-376f-4f68-80c9-531065506df1"},"vehicle_type_id":"4","last_reported":1746126445,"current_range_meters":6800,"station_id":"ce4bh4p2rcd13ifvqe1g","pricing_plan_id":"cebpf4jnsgd1na2vs0mg"},{"bike_id":"2ceba1a3-bb8a-48e8-8c70-3783b460d2de","system_id":"levelo_inurba_marseille","lat":43.2807,"lon":5.39655,"is_reserved":false,"is_disabled":false,"rental_uris":{"android":"levelo://app?vid=2ceba1a3-bb8a-48e8-8c70-3783b460d2de","ios":"levelo://app?vid=2ceba1a3-bb8a-48e8-8c70-3783b460d2de"},"vehicle_type_id":"4","last_reported":1746126445,"current_range_meters":6800,"station_id":"ce4bho12rcd13ifvqh2g","pricing_plan_id":"cebpf4jnsgd1na2vs0mg"},{"bike_id":"6d18f371-1e25-467f-8900-b85ec50b4498","system_id":"levelo_inurba_marseille","lat":43.31166,"lon":5.38684,"is_reserved":false,"is_disabled":false,"rental_uris":{"android":"levelo://app?vid=6d18f371-1e25-467f-8900-b85ec50b4498","ios":"levelo://app?vid=6d18f371-1e25-467f-8900-b85ec50b4498"},"vehicle_type_id":"4","last_reported":1746126445,"current_range_meters":7200,"station_id":"ce4bgv12rcd13ifvqcp0","pricing_plan_id":"cebpf4jnsgd1na2vs0mg"},{"bike_id":"6a25d5d9-4c63-4971-ae90-e7c5fae37c99","system_id":"levelo_inurba_marseille","lat":43.32485,"lon":5.36571,"is_reserved":false,"is_disabled":false,"rental_uris":{"android":"levelo://app?vid=6a25d5d9-4c63-4971-ae90-e7c5fae37c99","ios":"levelo://app?vid=6a25d5d9-4c63-4971-ae90-e7c5fae37c99"},"vehicle_type_id":"4","last_reported":1746126445,"current_range_meters":7200,"station_id":"ce4bhs12rcd13ifvqhvg","pricing_plan_id":"cebpf4jnsgd1na2vs0mg"},{"bike_id":"ca9c5b59-4137-4509-9134-94a9f71b6a1d","system_id":"levelo_inurba_marseille","lat":43.27941,"lon":5.41042,"is_reserved":false,"is_disabled":false,"rental_uris":{"android":"levelo://app?vid=ca9c5b59-4137-4509-9134-94a9f71b6a1d","ios":"levelo://app?vid=ca9c5b59-4137-4509-9134-94a9f71b6a1d"},"vehicle_type_id":"4","last_reported":1746126445,"current_range_meters":7200,"station_id":"ce4bhnp2rcd13ifvqh0g","pricing_plan_id":"cebpf4jnsgd1na2vs0mg"},{"bike_id":"346197a9-61a2-4fe1-83e2-702a3a33456b","system_id":"levelo_inurba_marseille","lat":43.29522,"lon":5.39406,"is_reserved":false,"is_disabled":false,"rental_uris":{"android":"levelo://app?vid=346197a9-61a2-4fe1-83e2-702a3a33456b","ios":"levelo://app?vid=346197a9-61a2-4fe1-83e2-702a3a33456b"},"vehicle_type_id":"4","last_reported":1746126445,"current_range_meters":6800,"station_id":"ce4bh292rcd13ifvqdf0","pricing_plan_id":"cebpf4jnsgd1na2vs0mg"},{"bike_id":"0840f843-3a67-4e05-a048-29d3d9d53dba","system_id":"levelo_inurba_marseille","lat":43.25709,"lon":5.41121,"is_reserved":false,"is_disabled":false,"rental_uris":{"android":"levelo://app?vid=0840f843-3a67-4e05-a048-29d3d9d53dba","ios":"levelo://app?vid=0840f843-3a67-4e05-a048-29d3d9d53dba"},"vehicle_type_id":"4","last_reported":1746126445,"current_range_meters":8000,"station_id":"ce4bhkp2rcd13ifvqgd0","pricing_plan_id":"cebpf4jnsgd1na2vs0mg"},{"bike_id":"2cd482fa-b0ec-44ea-974e-6510fe6e7394","system_id":"levelo_inurba_marseille","lat":43.30134,"lon":5.38781,"is_reserved":false,"is_disabled":false,"rental_uris":{"android":"levelo://app?vid=2cd482fa-b0ec-44ea-974e-6510fe6e7394","ios":"levelo://app?vid=2cd482fa-b0ec-44ea-974e-6510fe6e7394"},"vehicle_type_id":"4","last_reported":1746126445,"current_range_meters":8000,"station_id":"ce4bghh2rcd13ifvqb60","pricing_plan_id":"cebpf4jnsgd1na2vs0mg"},{"bike_id":"ab0f65a3-e717-46c3-9070-1119e1427703","system_id":"levelo_inurba_marseille","lat":43.31218,"lon":5.36844,"is_reserved":false,"is_disabled":false,"rental_uris":{"android":"levelo://app?vid=ab0f65a3-e717-46c3-9070-1119e1427703","ios":"levelo://app?vid=ab0f65a3-e717-46c3-9070-1119e1427703"},"vehicle_type_id":"4","last_reported":1746126445,"current_range_meters":8000,"station_id":"ce4bgl92rcd13ifvqbq0","pricing_plan_id":"cebpf4jnsgd1na2vs0mg"},{"bike_id":"9b2f4c4e-650a-4b92-af9e-ec61bfe93401","system_id":"levelo_inurba_marseille","lat":43.24656,"lon":5.38151,"is_reserved":false,"is_disabled":false,"rental_uris":{"android":"levelo://app?vid=9b2f4c4e-650a-4b92-af9e-ec61bfe93401","ios":"levelo://app?vid=9b2f4c4e-650a-4b92-af9e-ec61bfe93401"},"vehicle_type_id":"4","last_reported":1746126445,"current_range_meters":8000,"station_id":"ce4bhih2rcd13ifvqfr0","pricing_plan_id":"cebpf4jnsgd1na2vs0mg"},{"bike_id":"d201819f-6bb8-4d60-b057-760573cba02b","system_id":"levelo_inurba_marseille","lat":43.323397,"lon":5.406183,"is_reserved":false,"is_disabled":false,"rental_uris":{"android":"levelo://app?vid=d201819f-6bb8-4d60-b057-760573cba02b","ios":"levelo://app?vid=d201819f-6bb8-4d60-b057-760573cba02b"},"vehicle_type_id":"4","last_reported":1746126445,"current_range_meters":8000,"station_id":"ce4bhq92rcd13ifvqhjg","pricing_plan_id":"cebpf4jnsgd1na2vs0mg"},{"bike_id":"a6b89068-b8b1-4486-a9c4-969a753fe4cf","system_id":"levelo_inurba_marseille","lat":43.29026,"lon":5.38127,"is_reserved":false,"is_disabled":false,"rental_uris":{"android":"levelo://app?vid=a6b89068-b8b1-4486-a9c4-969a753fe4cf","ios":"levelo://app?vid=a6b89068-b8b1-4486-a9c4-969a753fe4cf"},"vehicle_type_id":"4","last_reported":1746126445,"current_range_meters":7200,"station_id":"ce4bh4p2rcd13ifvqe1g","pricing_plan_id":"cebpf4jnsgd1na2vs0mg"},{"bike_id":"d3e815bd-6c3e-4a48-a6fd-32c9d56c1c1f","system_id":"levelo_inurba_marseille","lat":43.29198,"lon":5.39318,"is_reserved":false,"is_disabled":false,"rental_uris":{"android":"levelo://app?vid=d3e815bd-6c3e-4a48-a6fd-32c9d56c1c1f","ios":"levelo://app?vid=d3e815bd-6c3e-4a48-a6fd-32c9d56c1c1f"},"vehicle_type_id":"4","last_reported":1746126445,"current_range_meters":8000,"station_id":"ce4bh192rcd13ifvqdd0","pricing_plan_id":"cebpf4jnsgd1na2vs0mg"},{"bike_id":"efa0badf-9c3c-4cfd-88cf-50dcd7f10896","system_id":"levelo_inurba_marseille","lat":43.3042,"lon":5.39741,"is_reserved":false,"is_disabled":false,"rental_uris":{"android":"levelo://app?vid=efa0badf-9c3c-4cfd-88cf-50dcd7f10896","ios":"levelo://app?vid=efa0badf-9c3c-4cfd-88cf-50dcd7f10896"},"vehicle_type_id":"4","last_reported":1746126445,"current_range_meters":7200,"station_id":"ce4bh092rcd13ifvqd20","pricing_plan_id":"cebpf4jnsgd1na2vs0mg"},{"bike_id":"47de6562-ba72-42e5-ace3-2d5a54c7c0d3","system_id":"levelo_inurba_marseille","lat":43.27952,"lon":5.41036,"is_reserved":false,"is_disabled":true,"rental_uris":{"android":"levelo://app?vid=47de6562-ba72-42e5-ace3-2d5a54c7c0d3","ios":"levelo://app?vid=47de6562-ba72-42e5-ace3-2d5a54c7c0d3"},"vehicle_type_id":"4","last_reported":1746126445,"current_range_meters":8400,"station_id":"ce4bhnp2rcd13ifvqh0g","pricing_plan_id":"cebpf4jnsgd1na2vs0mg"},{"bike_id":"93dad334-9f21-4a50-99cb-c86648baef08","system_id":"levelo_inurba_marseille","lat":43.31341,"lon":5.39667,"is_reserved":false,"is_disabled":false,"rental_uris":{"android":"levelo://app?vid=93dad334-9f21-4a50-99cb-c86648baef08","ios":"levelo://app?vid=93dad334-9f21-4a50-99cb-c86648baef08"},"vehicle_type_id":"4","last_reported":1746126445,"current_range_meters":8400,"station_id":"ce4bgvp2rcd13ifvqcu0","pricing_plan_id":"cebpf4jnsgd1na2vs0mg"},{"bike_id":"7af99a86-ddfc-471b-8a3f-8584a7350a01","system_id":"levelo_inurba_marseille","lat":43.28111,"lon":5.37846,"is_reserved":false,"is_disabled":false,"rental_uris":{"android":"levelo://app?vid=7af99a86-ddfc-471b-8a3f-8584a7350a01","ios":"levelo://app?vid=7af99a86-ddfc-471b-8a3f-8584a7350a01"},"vehicle_type_id":"4","last_reported":1746126445,"current_range_meters":8000,"station_id":"ce4bha12rcd13ifvqee0","pricing_plan_id":"cebpf4jnsgd1na2vs0mg"},{"bike_id":"1e9b3ee4-fd92-40ef-9cb9-d0673ab23fc5","system_id":"levelo_inurba_marseille","lat":43.28561,"lon":5.39476,"is_reserved":false,"is_disabled":false,"rental_uris":{"android":"levelo://app?vid=1e9b3ee4-fd92-40ef-9cb9-d0673ab23fc5","ios":"levelo://app?vid=1e9b3ee4-fd92-40ef-9cb9-d0673ab23fc5"},"vehicle_type_id":"4","last_reported":1746126445,"current_range_meters":8800,"station_id":"ce4bh292rcd13ifvqdg0","pricing_plan_id":"cebpf4jnsgd1na2vs0mg"},{"bike_id":"45a897a0-8804-4925-8a62-c0e8fec569a8","system_id":"levelo_inurba_marseille","lat":43.23963,"lon":5.36617,"is_reserved":false,"is_disabled":true,"rental_uris":{"android":"levelo://app?vid=45a897a0-8804-4925-8a62-c0e8fec569a8","ios":"levelo://app?vid=45a897a0-8804-4925-8a62-c0e8fec569a8"},"vehicle_type_id":"4","last_reported":1746126445,"current_range_meters":8400,"station_id":"ce4bhi12rcd13ifvqfp0","pricing_plan_id":"cebpf4jnsgd1na2vs0mg"},{"bike_id":"6ec79724-695f-4466-b4f4-7a3dea399050","system_id":"levelo_inurba_marseille","lat":43.27085,"lon":5.42259,"is_reserved":false,"is_disabled":false,"rental_uris":{"android":"levelo://app?vid=6ec79724-695f-4466-b4f4-7a3dea399050","ios":"levelo://app?vid=6ec79724-695f-4466-b4f4-7a3dea399050"},"vehicle_type_id":"4","last_reported":1746126445,"current_range_meters":8400,"station_id":"ce4bhk92rcd13ifvqgb0","pricing_plan_id":"cebpf4jnsgd1na2vs0mg"},{"bike_id":"50816da7-4001-46fc-9f48-6c1609cfc7fa","system_id":"levelo_inurba_marseille","lat":43.29879,"lon":5.3891,"is_reserved":false,"is_disabled":false,"rental_uris":{"android":"levelo://app?vid=50816da7-4001-46fc-9f48-6c1609cfc7fa","ios":"levelo://app?vid=50816da7-4001-46fc-9f48-6c1609cfc7fa"},"vehicle_type_id":"4","last_reported":1746126445,"current_range_meters":8400,"station_id":"ce4bh392rcd13ifvqdl0","pricing_plan_id":"cebpf4jnsgd1na2vs0mg"},{"bike_id":"aaf5d1e6-77f2-417d-a2a7-fa4048615c70","system_id":"levelo_inurba_marseille","lat":43.29903,"lon":5.38149,"is_reserved":false,"is_disabled":false,"rental_uris":{"android":"levelo://app?vid=aaf5d1e6-77f2-417d-a2a7-fa4048615c70","ios":"levelo://app?vid=aaf5d1e6-77f2-417d-a2a7-fa4048615c70"},"vehicle_type_id":"4","last_reported":1746126445,"current_range_meters":8800,"station_id":"ce4bgj12rcd13ifvqbc0","pricing_plan_id":"cebpf4jnsgd1na2vs0mg"},{"bike_id":"b9ee0279-c99f-488a-9c57-6a9052c3eb73","system_id":"levelo_inurba_marseille","lat":43.29099,"lon":5.3814,"is_reserved":false,"is_disabled":false,"rental_uris":{"android":"levelo://app?vid=b9ee0279-c99f-488a-9c57-6a9052c3eb73","ios":"levelo://app?vid=b9ee0279-c99f-488a-9c57-6a9052c3eb73"},"vehicle_type_id":"4","last_reported":1746126445,"current_range_meters":8800,"station_id":"ce4bh512rcd13ifvqe2g","pricing_plan_id":"cebpf4jnsgd1na2vs0mg"},{"bike_id":"1d43d85a-14e1-4b3d-b431-14dab9245e3b","system_id":"levelo_inurba_marseille","lat":43.30139,"lon":5.37367,"is_reserved":false,"is_disabled":false,"rental_uris":{"android":"levelo://app?vid=1d43d85a-14e1-4b3d-b431-14dab9245e3b","ios":"levelo://app?vid=1d43d85a-14e1-4b3d-b431-14dab9245e3b"},"vehicle_type_id":"4","last_reported":1746126445,"current_range_meters":3600,"station_id":"ce4bgs92rcd13ifvqcc0","pricing_plan_id":"cebpf4jnsgd1na2vs0mg"},{"bike_id":"dd7aedfd-e3d8-4f73-8265-cc39385aff60","system_id":"levelo_inurba_marseille","lat":43.27948,"lon":5.41023,"is_reserved":false,"is_disabled":false,"rental_uris":{"android":"levelo://app?vid=dd7aedfd-e3d8-4f73-8265-cc39385aff60","ios":"levelo://app?vid=dd7aedfd-e3d8-4f73-8265-cc39385aff60"},"vehicle_type_id":"4","last_reported":1746126445,"current_range_meters":8800,"station_id":"ce4bhnp2rcd13ifvqh0g","pricing_plan_id":"cebpf4jnsgd1na2vs0mg"},{"bike_id":"47f684c1-c604-4b44-b781-c4f356de31a9","system_id":"levelo_inurba_marseille","lat":43.27676,"lon":5.38868,"is_reserved":false,"is_disabled":false,"rental_uris":{"android":"levelo://app?vid=47f684c1-c604-4b44-b781-c4f356de31a9","ios":"levelo://app?vid=47f684c1-c604-4b44-b781-c4f356de31a9"},"vehicle_type_id":"4","last_reported":1746126445,"current_range_meters":8400,"station_id":"","pricing_plan_id":"cebpf4jnsgd1na2vs0mg"},{"bike_id":"bc0193d2-c9cd-42cd-a182-a2b8f037f335","system_id":"levelo_inurba_marseille","lat":43.29513,"lon":5.39414,"is_reserved":false,"is_disabled":false,"rental_uris":{"android":"levelo://app?vid=bc0193d2-c9cd-42cd-a182-a2b8f037f335","ios":"levelo://app?vid=bc0193d2-c9cd-42cd-a182-a2b8f037f335"},"vehicle_type_id":"4","last_reported":1746126445,"current_range_meters":9200,"station_id":"ce4bh292rcd13ifvqdf0","pricing_plan_id":"cebpf4jnsgd1na2vs0mg"},{"bike_id":"92c9c34a-2661-40c7-b42b-42a1687057dd","system_id":"levelo_inurba_marseille","lat":43.212,"lon":5.350766,"is_reserved":false,"is_disabled":true,"rental_uris":{"android":"levelo://app?vid=92c9c34a-2661-40c7-b42b-42a1687057dd","ios":"levelo://app?vid=92c9c34a-2661-40c7-b42b-42a1687057dd"},"vehicle_type_id":"4","last_reported":1746126445,"current_range_meters":9200,"station_id":"st_cvj6sg6p6f1abm77japg","pricing_plan_id":"cebpf4jnsgd1na2vs0mg"},{"bike_id":"f3d36354-fb65-4d90-83eb-303e5363ade6","system_id":"levelo_inurba_marseille","lat":43.31275,"lon":5.40175,"is_reserved":false,"is_disabled":false,"rental_uris":{"android":"levelo://app?vid=f3d36354-fb65-4d90-83eb-303e5363ade6","ios":"levelo://app?vid=f3d36354-fb65-4d90-83eb-303e5363ade6"},"vehicle_type_id":"4","last_reported":1746126445,"current_range_meters":9200,"station_id":"ce4bh092rcd13ifvqd30","pricing_plan_id":"cebpf4jnsgd1na2vs0mg"},{"bike_id":"51ef9827-05d4-4f72-abc3-c6fec8c5a095","system_id":"levelo_inurba_marseille","lat":43.23156,"lon":5.43708,"is_reserved":false,"is_disabled":false,"rental_uris":{"android":"levelo://app?vid=51ef9827-05d4-4f72-abc3-c6fec8c5a095","ios":"levelo://app?vid=51ef9827-05d4-4f72-abc3-c6fec8c5a095"},"vehicle_type_id":"4","last_reported":1746126445,"current_range_meters":9200,"station_id":"ce4bhmp2rcd13ifvqgog","pricing_plan_id":"cebpf4jnsgd1na2vs0mg"},{"bike_id":"e69686cb-3eac-4a7a-a5c8-46a25dd22132","system_id":"levelo_inurba_marseille","lat":43.32099,"lon":5.36767,"is_reserved":false,"is_disabled":false,"rental_uris":{"android":"levelo://app?vid=e69686cb-3eac-4a7a-a5c8-46a25dd22132","ios":"levelo://app?vid=e69686cb-3eac-4a7a-a5c8-46a25dd22132"},"vehicle_type_id":"4","last_reported":1746126445,"current_range_meters":9200,"station_id":"ce4bhrh2rcd13ifvqhug","pricing_plan_id":"cebpf4jnsgd1na2vs0mg"},{"bike_id":"f812fc33-f177-4d15-86fc-408c9457c984","system_id":"levelo_inurba_marseille","lat":43.29566,"lon":5.37522,"is_reserved":false,"is_disabled":false,"rental_uris":{"android":"levelo://app?vid=f812fc33-f177-4d15-86fc-408c9457c984","ios":"levelo://app?vid=f812fc33-f177-4d15-86fc-408c9457c984"},"vehicle_type_id":"4","last_reported":1746126445,"current_range_meters":9200,"station_id":"ce4bgh92rcd13ifvqb50","pricing_plan_id":"cebpf4jnsgd1na2vs0mg"},{"bike_id":"e5581542-c668-493e-ad4d-39d538f9369f","system_id":"levelo_inurba_marseille","lat":43.29029,"lon":5.3866,"is_reserved":false,"is_disabled":false,"rental_uris":{"android":"levelo://app?vid=e5581542-c668-493e-ad4d-39d538f9369f","ios":"levelo://app?vid=e5581542-c668-493e-ad4d-39d538f9369f"},"vehicle_type_id":"4","last_reported":1746126445,"current_range_meters":9200,"station_id":"ce4bh4p2rcd13ifvqe0g","pricing_plan_id":"cebpf4jnsgd1na2vs0mg"},{"bike_id":"08ae6229-5a47-4c4c-99ac-4ba6243e9cfe","system_id":"levelo_inurba_marseille","lat":43.23032,"lon":5.35488,"is_reserved":false,"is_disabled":true,"rental_uris":{"android":"levelo://app?vid=08ae6229-5a47-4c4c-99ac-4ba6243e9cfe","ios":"levelo://app?vid=08ae6229-5a47-4c4c-99ac-4ba6243e9cfe"},"vehicle_type_id":"4","last_reported":1746126445,"current_range_meters":9200,"station_id":"cpo3342slgdg3j2ifvpg","pricing_plan_id":"cebpf4jnsgd1na2vs0mg"},{"bike_id":"bd02cc14-ff9c-41da-a522-0a5520774274","system_id":"levelo_inurba_marseille","lat":43.30348,"lon":5.41873,"is_reserved":false,"is_disabled":false,"rental_uris":{"android":"levelo://app?vid=bd02cc14-ff9c-41da-a522-0a5520774274","ios":"levelo://app?vid=bd02cc14-ff9c-41da-a522-0a5520774274"},"vehicle_type_id":"4","last_reported":1746126445,"current_range_meters":9600,"station_id":"ce4bhop2rcd13ifvqh7g","pricing_plan_id":"cebpf4jnsgd1na2vs0mg"},{"bike_id":"2a70f651-31f9-4341-9601-b357fc207ecd","system_id":"levelo_inurba_marseille","lat":43.29631,"lon":5.40593,"is_reserved":false,"is_disabled":false,"rental_uris":{"android":"levelo://app?vid=2a70f651-31f9-4341-9601-b357fc207ecd","ios":"levelo://app?vid=2a70f651-31f9-4341-9601-b357fc207ecd"},"vehicle_type_id":"4","last_reported":1746126445,"current_range_meters":9200,"station_id":"ce4bh0h2rcd13ifvqd60","pricing_plan_id":"cebpf4jnsgd1na2vs0mg"},{"bike_id":"d90a9f6a-dcc7-4188-90fd-9982aa485cbb","system_id":"levelo_inurba_marseille","lat":43.24395,"lon":5.37062,"is_reserved":false,"is_disabled":true,"rental_uris":{"android":"levelo://app?vid=d90a9f6a-dcc7-4188-90fd-9982aa485cbb","ios":"levelo://app?vid=d90a9f6a-dcc7-4188-90fd-9982aa485cbb"},"vehicle_type_id":"4","last_reported":1746126445,"current_range_meters":9600,"station_id":"ce4bhhh2rcd13ifvqfk0","pricing_plan_id":"cebpf4jnsgd1na2vs0mg"},{"bike_id":"8c14a9dd-9596-4c54-9b10-cae5d57b4d1b","system_id":"levelo_inurba_marseille","lat":43.32406,"lon":5.39036,"is_reserved":false,"is_disabled":false,"rental_uris":{"android":"levelo://app?vid=8c14a9dd-9596-4c54-9b10-cae5d57b4d1b","ios":"levelo://app?vid=8c14a9dd-9596-4c54-9b10-cae5d57b4d1b"},"vehicle_type_id":"4","last_reported":1746126445,"current_range_meters":9600,"station_id":"","pricing_plan_id":"cebpf4jnsgd1na2vs0mg"},{"bike_id":"045b2767-67d3-41b7-8618-6d27646a5585","system_id":"levelo_inurba_marseille","lat":43.31327,"lon":5.39696,"is_reserved":false,"is_disabled":false,"rental_uris":{"android":"levelo://app?vid=045b2767-67d3-41b7-8618-6d27646a5585","ios":"levelo://app?vid=045b2767-67d3-41b7-8618-6d27646a5585"},"vehicle_type_id":"4","last_reported":1746126445,"current_range_meters":9600,"station_id":"ce4bgvp2rcd13ifvqcu0","pricing_plan_id":"cebpf4jnsgd1na2vs0mg"},{"bike_id":"d4398ce2-96f2-4113-9cb9-fb3ca2ff94fb","system_id":"levelo_inurba_marseille","lat":43.262044,"lon":5.379247,"is_reserved":false,"is_disabled":false,"rental_uris":{"android":"levelo://app?vid=d4398ce2-96f2-4113-9cb9-fb3ca2ff94fb","ios":"levelo://app?vid=d4398ce2-96f2-4113-9cb9-fb3ca2ff94fb"},"vehicle_type_id":"4","last_reported":1746126445,"current_range_meters":9200,"station_id":"ce4bhjp2rcd13ifvqg90","pricing_plan_id":"cebpf4jnsgd1na2vs0mg"},{"bike_id":"90b557f9-0c04-4d04-98d0-5e84d1fa2872","system_id":"levelo_inurba_marseille","lat":43.29976,"lon":5.38467,"is_reserved":false,"is_disabled":false,"rental_uris":{"android":"levelo://app?vid=90b557f9-0c04-4d04-98d0-5e84d1fa2872","ios":"levelo://app?vid=90b557f9-0c04-4d04-98d0-5e84d1fa2872"},"vehicle_type_id":"4","last_reported":1746126445,"current_range_meters":9600,"station_id":"ce4bgj92rcd13ifvqbd0","pricing_plan_id":"cebpf4jnsgd1na2vs0mg"},{"bike_id":"1a0e9be5-bd4f-4026-be47-4bf333aa540c","system_id":"levelo_inurba_marseille","lat":43.28452,"lon":5.39205,"is_reserved":false,"is_disabled":true,"rental_uris":{"android":"levelo://app?vid=1a0e9be5-bd4f-4026-be47-4bf333aa540c","ios":"levelo://app?vid=1a0e9be5-bd4f-4026-be47-4bf333aa540c"},"vehicle_type_id":"4","last_reported":1746126445,"current_range_meters":9600,"station_id":"ce4bhoh2rcd13ifvqh5g","pricing_plan_id":"cebpf4jnsgd1na2vs0mg"},{"bike_id":"ca0fd05a-4f4e-4e1c-a690-71865e6806ac","system_id":"levelo_inurba_marseille","lat":43.29259,"lon":5.38434,"is_reserved":false,"is_disabled":false,"rental_uris":{"android":"levelo://app?vid=ca0fd05a-4f4e-4e1c-a690-71865e6806ac","ios":"levelo://app?vid=ca0fd05a-4f4e-4e1c-a690-71865e6806ac"},"vehicle_type_id":"4","last_reported":1746126445,"current_range_meters":10000,"station_id":"ce4bh692rcd13ifvqea0","pricing_plan_id":"cebpf4jnsgd1na2vs0mg"},{"bike_id":"22da4027-4f6f-45d1-9334-006a58311cd1","system_id":"levelo_inurba_marseille","lat":43.24063,"lon":5.36792,"is_reserved":false,"is_disabled":false,"rental_uris":{"android":"levelo://app?vid=22da4027-4f6f-45d1-9334-006a58311cd1","ios":"levelo://app?vid=22da4027-4f6f-45d1-9334-006a58311cd1"},"vehicle_type_id":"4","last_reported":1746126445,"current_range_meters":10000,"station_id":"","pricing_plan_id":"cebpf4jnsgd1na2vs0mg"},{"bike_id":"2df3c7e7-6f24-4b35-8876-4ea421331109","system_id":"levelo_inurba_marseille","lat":43.25104,"lon":5.40326,"is_reserved":false,"is_disabled":true,"rental_uris":{"android":"levelo://app?vid=2df3c7e7-6f24-4b35-8876-4ea421331109","ios":"levelo://app?vid=2df3c7e7-6f24-4b35-8876-4ea421331109"},"vehicle_type_id":"4","last_reported":1746126445,"current_range_meters":10000,"station_id":"ce4bhlh2rcd13ifvqgig","pricing_plan_id":"cebpf4jnsgd1na2vs0mg"},{"bike_id":"0ed07da8-c415-4490-ba5d-20f922b918fb","system_id":"levelo_inurba_marseille","lat":43.31716,"lon":5.37765,"is_reserved":false,"is_disabled":false,"rental_uris":{"android":"levelo://app?vid=0ed07da8-c415-4490-ba5d-20f922b918fb","ios":"levelo://app?vid=0ed07da8-c415-4490-ba5d-20f922b918fb"},"vehicle_type_id":"4","last_reported":1746126445,"current_range_meters":10000,"station_id":"ce4bgth2rcd13ifvqch0","pricing_plan_id":"cebpf4jnsgd1na2vs0mg"},{"bike_id":"34dad5b5-c904-4404-b685-065145bae464","system_id":"levelo_inurba_marseille","lat":43.29593,"lon":5.38111,"is_reserved":false,"is_disabled":false,"rental_uris":{"android":"levelo://app?vid=34dad5b5-c904-4404-b685-065145bae464","ios":"levelo://app?vid=34dad5b5-c904-4404-b685-065145bae464"},"vehicle_type_id":"4","last_reported":1746126445,"current_range_meters":10000,"station_id":"ce4bgl12rcd13ifvqbo0","pricing_plan_id":"cebpf4jnsgd1na2vs0mg"},{"bike_id":"d5015772-23e8-48f5-b575-50d7f6f475df","system_id":"levelo_inurba_marseille","lat":43.27495,"lon":5.42451,"is_reserved":false,"is_disabled":false,"rental_uris":{"android":"levelo://app?vid=d5015772-23e8-48f5-b575-50d7f6f475df","ios":"levelo://app?vid=d5015772-23e8-48f5-b575-50d7f6f475df"},"vehicle_type_id":"4","last_reported":1746126445,"current_range_meters":9600,"station_id":"ce4bhn92rcd13ifvqgrg","pricing_plan_id":"cebpf4jnsgd1na2vs0mg"},{"bike_id":"842c760f-9f52-4233-a69b-28cc0ef51126","system_id":"levelo_inurba_marseille","lat":43.2953,"lon":5.39403,"is_reserved":false,"is_disabled":false,"rental_uris":{"android":"levelo://app?vid=842c760f-9f52-4233-a69b-28cc0ef51126","ios":"levelo://app?vid=842c760f-9f52-4233-a69b-28cc0ef51126"},"vehicle_type_id":"4","last_reported":1746126445,"current_range_meters":10000,"station_id":"ce4bh292rcd13ifvqdf0","pricing_plan_id":"cebpf4jnsgd1na2vs0mg"},{"bike_id":"6ba3c477-361c-4731-9e66-3c8bb2f04050","system_id":"levelo_inurba_marseille","lat":43.289398,"lon":5.366472,"is_reserved":false,"is_disabled":false,"rental_uris":{"android":"levelo://app?vid=6ba3c477-361c-4731-9e66-3c8bb2f04050","ios":"levelo://app?vid=6ba3c477-361c-4731-9e66-3c8bb2f04050"},"vehicle_type_id":"4","last_reported":1746126445,"current_range_meters":11200,"station_id":"ce4bhap2rcd13ifvqek0","pricing_plan_id":"cebpf4jnsgd1na2vs0mg"},{"bike_id":"3c2fc8b8-d4ec-4337-8e61-82b09740fb3b","system_id":"levelo_inurba_marseille","lat":43.26786,"lon":5.39411,"is_reserved":false,"is_disabled":false,"rental_uris":{"android":"levelo://app?vid=3c2fc8b8-d4ec-4337-8e61-82b09740fb3b","ios":"levelo://app?vid=3c2fc8b8-d4ec-4337-8e61-82b09740fb3b"},"vehicle_type_id":"4","last_reported":1746126445,"current_range_meters":10800,"station_id":"ce4bhh12rcd13ifvqfg0","pricing_plan_id":"cebpf4jnsgd1na2vs0mg"},{"bike_id":"a03f2280-c236-423b-a2da-7ecf82577576","system_id":"levelo_inurba_marseille","lat":43.28858,"lon":5.35838,"is_reserved":false,"is_disabled":false,"rental_uris":{"android":"levelo://app?vid=a03f2280-c236-423b-a2da-7ecf82577576","ios":"levelo://app?vid=a03f2280-c236-423b-a2da-7ecf82577576"},"vehicle_type_id":"4","last_reported":1746126445,"current_range_meters":11200,"station_id":"ce4bhb12rcd13ifvqem0","pricing_plan_id":"cebpf4jnsgd1na2vs0mg"},{"bike_id":"3c581064-a37a-46cd-b979-71c99eb5a9ad","system_id":"levelo_inurba_marseille","lat":43.29972,"lon":5.38489,"is_reserved":false,"is_disabled":false,"rental_uris":{"android":"levelo://app?vid=3c581064-a37a-46cd-b979-71c99eb5a9ad","ios":"levelo://app?vid=3c581064-a37a-46cd-b979-71c99eb5a9ad"},"vehicle_type_id":"4","last_reported":1746126445,"current_range_meters":11200,"station_id":"ce4bgj92rcd13ifvqbd0","pricing_plan_id":"cebpf4jnsgd1na2vs0mg"},{"bike_id":"b3a3a453-f043-4b57-8b05-4bbd823d5080","system_id":"levelo_inurba_marseille","lat":43.29759,"lon":5.3711,"is_reserved":false,"is_disabled":false,"rental_uris":{"android":"levelo://app?vid=b3a3a453-f043-4b57-8b05-4bbd823d5080","ios":"levelo://app?vid=b3a3a453-f043-4b57-8b05-4bbd823d5080"},"vehicle_type_id":"4","last_reported":1746126445,"current_range_meters":11200,"station_id":"ce4bgop2rcd13ifvqc1g","pricing_plan_id":"cebpf4jnsgd1na2vs0mg"},{"bike_id":"7fa0b7e3-5d58-472e-8ec8-3acf5489e3b0","system_id":"levelo_inurba_marseille","lat":43.25729,"lon":5.4111,"is_reserved":false,"is_disabled":false,"rental_uris":{"android":"levelo://app?vid=7fa0b7e3-5d58-472e-8ec8-3acf5489e3b0","ios":"levelo://app?vid=7fa0b7e3-5d58-472e-8ec8-3acf5489e3b0"},"vehicle_type_id":"4","last_reported":1746126445,"current_range_meters":11600,"station_id":"ce4bhkp2rcd13ifvqgd0","pricing_plan_id":"cebpf4jnsgd1na2vs0mg"},{"bike_id":"41b15ddf-1454-4d83-8188-53d37f91586a","system_id":"levelo_inurba_marseille","lat":43.30317,"lon":5.40442,"is_reserved":false,"is_disabled":false,"rental_uris":{"android":"levelo://app?vid=41b15ddf-1454-4d83-8188-53d37f91586a","ios":"levelo://app?vid=41b15ddf-1454-4d83-8188-53d37f91586a"},"vehicle_type_id":"4","last_reported":1746126445,"current_range_meters":11600,"station_id":"ce4bh012rcd13ifvqd10","pricing_plan_id":"cebpf4jnsgd1na2vs0mg"},{"bike_id":"6d89fae9-1e48-4488-9c9a-58b5250dc643","system_id":"levelo_inurba_marseille","lat":43.30882,"lon":5.39656,"is_reserved":false,"is_disabled":false,"rental_uris":{"android":"levelo://app?vid=6d89fae9-1e48-4488-9c9a-58b5250dc643","ios":"levelo://app?vid=6d89fae9-1e48-4488-9c9a-58b5250dc643"},"vehicle_type_id":"4","last_reported":1746126445,"current_range_meters":11200,"station_id":"ce4bh012rcd13ifvqcv0","pricing_plan_id":"cebpf4jnsgd1na2vs0mg"},{"bike_id":"4e28eeed-c5ce-48bb-bc88-30f87492abe7","system_id":"levelo_inurba_marseille","lat":43.3019,"lon":5.36629,"is_reserved":false,"is_disabled":false,"rental_uris":{"android":"levelo://app?vid=4e28eeed-c5ce-48bb-bc88-30f87492abe7","ios":"levelo://app?vid=4e28eeed-c5ce-48bb-bc88-30f87492abe7"},"vehicle_type_id":"4","last_reported":1746126445,"current_range_meters":11600,"station_id":"ce4bgrh2rcd13ifvqc8g","pricing_plan_id":"cebpf4jnsgd1na2vs0mg"},{"bike_id":"c0a5ee56-6f43-441c-97c4-100fe7548229","system_id":"levelo_inurba_marseille","lat":43.31357,"lon":5.385,"is_reserved":false,"is_disabled":true,"rental_uris":{"android":"levelo://app?vid=c0a5ee56-6f43-441c-97c4-100fe7548229","ios":"levelo://app?vid=c0a5ee56-6f43-441c-97c4-100fe7548229"},"vehicle_type_id":"4","last_reported":1746126445,"current_range_meters":11600,"station_id":"ce4bgt92rcd13ifvqcf0","pricing_plan_id":"cebpf4jnsgd1na2vs0mg"},{"bike_id":"73de5af1-bf79-433a-a20c-6899488a09e7","system_id":"levelo_inurba_marseille","lat":43.293123,"lon":5.37172,"is_reserved":false,"is_disabled":true,"rental_uris":{"android":"levelo://app?vid=73de5af1-bf79-433a-a20c-6899488a09e7","ios":"levelo://app?vid=73de5af1-bf79-433a-a20c-6899488a09e7"},"vehicle_type_id":"4","last_reported":1746126445,"current_range_meters":11600,"station_id":"ce4bgh92rcd13ifvqb40","pricing_plan_id":"cebpf4jnsgd1na2vs0mg"},{"bike_id":"5bcb892f-67f9-40b4-b5e1-fd68fd5eea3e","system_id":"levelo_inurba_marseille","lat":43.29896,"lon":5.43669,"is_reserved":false,"is_disabled":false,"rental_uris":{"android":"levelo://app?vid=5bcb892f-67f9-40b4-b5e1-fd68fd5eea3e","ios":"levelo://app?vid=5bcb892f-67f9-40b4-b5e1-fd68fd5eea3e"},"vehicle_type_id":"4","last_reported":1746126445,"current_range_meters":12000,"station_id":"ce4bhpp2rcd13ifvqhfg","pricing_plan_id":"cebpf4jnsgd1na2vs0mg"},{"bike_id":"56f543c3-cb38-4272-a4e5-cab053dcc3e0","system_id":"levelo_inurba_marseille","lat":43.291966,"lon":5.392961,"is_reserved":false,"is_disabled":true,"rental_uris":{"android":"levelo://app?vid=56f543c3-cb38-4272-a4e5-cab053dcc3e0","ios":"levelo://app?vid=56f543c3-cb38-4272-a4e5-cab053dcc3e0"},"vehicle_type_id":"4","last_reported":1746126445,"current_range_meters":12000,"station_id":"ce4bhbh2rcd13ifvqeo0","pricing_plan_id":"cebpf4jnsgd1na2vs0mg"},{"bike_id":"5e783dca-e9bd-4f97-a67f-f3c52ee23fb9","system_id":"levelo_inurba_marseille","lat":43.296214,"lon":5.377067,"is_reserved":false,"is_disabled":true,"rental_uris":{"android":"levelo://app?vid=5e783dca-e9bd-4f97-a67f-f3c52ee23fb9","ios":"levelo://app?vid=5e783dca-e9bd-4f97-a67f-f3c52ee23fb9"},"vehicle_type_id":"4","last_reported":1746126445,"current_range_meters":12400,"station_id":"","pricing_plan_id":"cebpf4jnsgd1na2vs0mg"},{"bike_id":"4f775d94-e84a-4992-b3d9-22d04e6ec58b","system_id":"levelo_inurba_marseille","lat":43.28845,"lon":5.39298,"is_reserved":false,"is_disabled":false,"rental_uris":{"android":"levelo://app?vid=4f775d94-e84a-4992-b3d9-22d04e6ec58b","ios":"levelo://app?vid=4f775d94-e84a-4992-b3d9-22d04e6ec58b"},"vehicle_type_id":"4","last_reported":1746126445,"current_range_meters":12400,"station_id":"ce4bh2p2rcd13ifvqdi0","pricing_plan_id":"cebpf4jnsgd1na2vs0mg"},{"bike_id":"dd2fd757-5ba9-4fde-ba3d-0254794bf170","system_id":"levelo_inurba_marseille","lat":43.32036,"lon":5.41543,"is_reserved":false,"is_disabled":false,"rental_uris":{"android":"levelo://app?vid=dd2fd757-5ba9-4fde-ba3d-0254794bf170","ios":"levelo://app?vid=dd2fd757-5ba9-4fde-ba3d-0254794bf170"},"vehicle_type_id":"4","last_reported":1746126445,"current_range_meters":12000,"station_id":"ce4bhq92rcd13ifvqhkg","pricing_plan_id":"cebpf4jnsgd1na2vs0mg"},{"bike_id":"a1919416-6ae2-4ded-9ea6-7af1beba0988","system_id":"levelo_inurba_marseille","lat":43.24661,"lon":5.38168,"is_reserved":false,"is_disabled":false,"rental_uris":{"android":"levelo://app?vid=a1919416-6ae2-4ded-9ea6-7af1beba0988","ios":"levelo://app?vid=a1919416-6ae2-4ded-9ea6-7af1beba0988"},"vehicle_type_id":"4","last_reported":1746126445,"current_range_meters":12000,"station_id":"ce4bhih2rcd13ifvqfr0","pricing_plan_id":"cebpf4jnsgd1na2vs0mg"},{"bike_id":"d2fd2180-e73e-4220-869a-026232ab3e8c","system_id":"levelo_inurba_marseille","lat":43.29286,"lon":5.40121,"is_reserved":false,"is_disabled":false,"rental_uris":{"android":"levelo://app?vid=d2fd2180-e73e-4220-869a-026232ab3e8c","ios":"levelo://app?vid=d2fd2180-e73e-4220-869a-026232ab3e8c"},"vehicle_type_id":"4","last_reported":1746126445,"current_range_meters":12400,"station_id":"ce4bh312rcd13ifvqdk0","pricing_plan_id":"cebpf4jnsgd1na2vs0mg"},{"bike_id":"71a6a6b3-3cda-4f86-8cfa-e4ce1f0c2815","system_id":"levelo_inurba_marseille","lat":43.26938,"lon":5.40256,"is_reserved":false,"is_disabled":false,"rental_uris":{"android":"levelo://app?vid=71a6a6b3-3cda-4f86-8cfa-e4ce1f0c2815","ios":"levelo://app?vid=71a6a6b3-3cda-4f86-8cfa-e4ce1f0c2815"},"vehicle_type_id":"4","last_reported":1746126445,"current_range_meters":12000,"station_id":"cjm6bp8fraef2m0cb0m0","pricing_plan_id":"cebpf4jnsgd1na2vs0mg"},{"bike_id":"f2fd36e9-85af-47cf-aef6-73ffbb835566","system_id":"levelo_inurba_marseille","lat":43.24035,"lon":5.37729,"is_reserved":false,"is_disabled":false,"rental_uris":{"android":"levelo://app?vid=f2fd36e9-85af-47cf-aef6-73ffbb835566","ios":"levelo://app?vid=f2fd36e9-85af-47cf-aef6-73ffbb835566"},"vehicle_type_id":"4","last_reported":1746126445,"current_range_meters":12400,"station_id":"ce4bhnp2rcd13ifvqgvg","pricing_plan_id":"cebpf4jnsgd1na2vs0mg"},{"bike_id":"866288a7-3f9d-4035-90db-bd172723c606","system_id":"levelo_inurba_marseille","lat":43.29561,"lon":5.42276,"is_reserved":false,"is_disabled":false,"rental_uris":{"android":"levelo://app?vid=866288a7-3f9d-4035-90db-bd172723c606","ios":"levelo://app?vid=866288a7-3f9d-4035-90db-bd172723c606"},"vehicle_type_id":"4","last_reported":1746126445,"current_range_meters":12400,"station_id":"ce4bhph2rcd13ifvqhdg","pricing_plan_id":"cebpf4jnsgd1na2vs0mg"},{"bike_id":"8a0058ae-d47a-4696-afcc-53a66a14ba3f","system_id":"levelo_inurba_marseille","lat":43.29897,"lon":5.43666,"is_reserved":false,"is_disabled":false,"rental_uris":{"android":"levelo://app?vid=8a0058ae-d47a-4696-afcc-53a66a14ba3f","ios":"levelo://app?vid=8a0058ae-d47a-4696-afcc-53a66a14ba3f"},"vehicle_type_id":"4","last_reported":1746126445,"current_range_meters":12800,"station_id":"ce4bhpp2rcd13ifvqhfg","pricing_plan_id":"cebpf4jnsgd1na2vs0mg"},{"bike_id":"57c369ce-525f-4699-ba38-a7fd08505f32","system_id":"levelo_inurba_marseille","lat":43.299,"lon":5.43668,"is_reserved":false,"is_disabled":false,"rental_uris":{"android":"levelo://app?vid=57c369ce-525f-4699-ba38-a7fd08505f32","ios":"levelo://app?vid=57c369ce-525f-4699-ba38-a7fd08505f32"},"vehicle_type_id":"4","last_reported":1746126445,"current_range_meters":12800,"station_id":"ce4bhpp2rcd13ifvqhfg","pricing_plan_id":"cebpf4jnsgd1na2vs0mg"},{"bike_id":"3f8bea75-f1b7-42a9-9ff5-4986c0552272","system_id":"levelo_inurba_marseille","lat":43.21745,"lon":5.34598,"is_reserved":false,"is_disabled":true,"rental_uris":{"android":"levelo://app?vid=3f8bea75-f1b7-42a9-9ff5-4986c0552272","ios":"levelo://app?vid=3f8bea75-f1b7-42a9-9ff5-4986c0552272"},"vehicle_type_id":"4","last_reported":1746126445,"current_range_meters":12800,"station_id":"st_cvj6r9ubvosntc0bgbag","pricing_plan_id":"cebpf4jnsgd1na2vs0mg"},{"bike_id":"569129b7-d1d1-4b0f-bb83-61f78652a2b4","system_id":"levelo_inurba_marseille","lat":43.30361,"lon":5.41888,"is_reserved":false,"is_disabled":false,"rental_uris":{"android":"levelo://app?vid=569129b7-d1d1-4b0f-bb83-61f78652a2b4","ios":"levelo://app?vid=569129b7-d1d1-4b0f-bb83-61f78652a2b4"},"vehicle_type_id":"4","last_reported":1746126445,"current_range_meters":13600,"station_id":"ce4bhop2rcd13ifvqh7g","pricing_plan_id":"cebpf4jnsgd1na2vs0mg"},{"bike_id":"8f341926-138a-4c35-b37d-eed605bd2491","system_id":"levelo_inurba_marseille","lat":43.2894,"lon":5.39631,"is_reserved":false,"is_disabled":false,"rental_uris":{"android":"levelo://app?vid=8f341926-138a-4c35-b37d-eed605bd2491","ios":"levelo://app?vid=8f341926-138a-4c35-b37d-eed605bd2491"},"vehicle_type_id":"4","last_reported":1746126445,"current_range_meters":12800,"station_id":"ce4bh3h2rcd13ifvqdn0","pricing_plan_id":"cebpf4jnsgd1na2vs0mg"},{"bike_id":"c7c7a92b-c148-41bb-b985-b3d124e5c071","system_id":"levelo_inurba_marseille","lat":43.248166,"lon":5.374583,"is_reserved":false,"is_disabled":true,"rental_uris":{"android":"levelo://app?vid=c7c7a92b-c148-41bb-b985-b3d124e5c071","ios":"levelo://app?vid=c7c7a92b-c148-41bb-b985-b3d124e5c071"},"vehicle_type_id":"4","last_reported":1746126445,"current_range_meters":13600,"station_id":"ce4bhgh2rcd13ifvqfb0","pricing_plan_id":"cebpf4jnsgd1na2vs0mg"},{"bike_id":"92b6a430-23ea-4eee-bf42-536c07b72a7c","system_id":"levelo_inurba_marseille","lat":43.31723,"lon":5.42415,"is_reserved":false,"is_disabled":false,"rental_uris":{"android":"levelo://app?vid=92b6a430-23ea-4eee-bf42-536c07b72a7c","ios":"levelo://app?vid=92b6a430-23ea-4eee-bf42-536c07b72a7c"},"vehicle_type_id":"4","last_reported":1746126445,"current_range_meters":12800,"station_id":"ce4bhp92rcd13ifvqhbg","pricing_plan_id":"cebpf4jnsgd1na2vs0mg"},{"bike_id":"502f7c50-4700-4541-af07-ffc1810e8449","system_id":"levelo_inurba_marseille","lat":43.279029,"lon":5.380151,"is_reserved":false,"is_disabled":false,"rental_uris":{"android":"levelo://app?vid=502f7c50-4700-4541-af07-ffc1810e8449","ios":"levelo://app?vid=502f7c50-4700-4541-af07-ffc1810e8449"},"vehicle_type_id":"4","last_reported":1746126445,"current_range_meters":12800,"station_id":"ce4bhf92rcd13ifvqf50","pricing_plan_id":"cebpf4jnsgd1na2vs0mg"},{"bike_id":"55e4bf3a-5942-41a0-8e34-fbf32f38d813","system_id":"levelo_inurba_marseille","lat":43.29202,"lon":5.39331,"is_reserved":false,"is_disabled":false,"rental_uris":{"android":"levelo://app?vid=55e4bf3a-5942-41a0-8e34-fbf32f38d813","ios":"levelo://app?vid=55e4bf3a-5942-41a0-8e34-fbf32f38d813"},"vehicle_type_id":"4","last_reported":1746126445,"current_range_meters":13600,"station_id":"ce4bh192rcd13ifvqdd0","pricing_plan_id":"cebpf4jnsgd1na2vs0mg"},{"bike_id":"8d366eaa-d322-4cc5-a57c-81faff286fbc","system_id":"levelo_inurba_marseille","lat":43.28845,"lon":5.39318,"is_reserved":false,"is_disabled":false,"rental_uris":{"android":"levelo://app?vid=8d366eaa-d322-4cc5-a57c-81faff286fbc","ios":"levelo://app?vid=8d366eaa-d322-4cc5-a57c-81faff286fbc"},"vehicle_type_id":"4","last_reported":1746126445,"current_range_meters":13600,"station_id":"ce4bh2p2rcd13ifvqdi0","pricing_plan_id":"cebpf4jnsgd1na2vs0mg"},{"bike_id":"369e756d-f812-4fd5-b198-4152a64db80b","system_id":"levelo_inurba_marseille","lat":43.33595,"lon":5.40987,"is_reserved":false,"is_disabled":false,"rental_uris":{"android":"levelo://app?vid=369e756d-f812-4fd5-b198-4152a64db80b","ios":"levelo://app?vid=369e756d-f812-4fd5-b198-4152a64db80b"},"vehicle_type_id":"4","last_reported":1746126445,"current_range_meters":14000,"station_id":"ce4bhqh2rcd13ifvqhmg","pricing_plan_id":"cebpf4jnsgd1na2vs0mg"},{"bike_id":"186207d8-37e3-4746-ad20-bb7b4d70e76f","system_id":"levelo_inurba_marseille","lat":43.26781,"lon":5.39416,"is_reserved":false,"is_disabled":false,"rental_uris":{"android":"levelo://app?vid=186207d8-37e3-4746-ad20-bb7b4d70e76f","ios":"levelo://app?vid=186207d8-37e3-4746-ad20-bb7b4d70e76f"},"vehicle_type_id":"4","last_reported":1746126445,"current_range_meters":14000,"station_id":"ce4bhh12rcd13ifvqfg0","pricing_plan_id":"cebpf4jnsgd1na2vs0mg"},{"bike_id":"4d7bb575-3f4c-4af7-ba03-e4233b947622","system_id":"levelo_inurba_marseille","lat":43.31525,"lon":5.38039,"is_reserved":false,"is_disabled":false,"rental_uris":{"android":"levelo://app?vid=4d7bb575-3f4c-4af7-ba03-e4233b947622","ios":"levelo://app?vid=4d7bb575-3f4c-4af7-ba03-e4233b947622"},"vehicle_type_id":"4","last_reported":1746126445,"current_range_meters":13600,"station_id":"ce4bhsp2rcd13ifvqi50","pricing_plan_id":"cebpf4jnsgd1na2vs0mg"},{"bike_id":"5fdb44dd-a8f5-49d8-9411-88f11d795dce","system_id":"levelo_inurba_marseille","lat":43.32483,"lon":5.36562,"is_reserved":false,"is_disabled":false,"rental_uris":{"android":"levelo://app?vid=5fdb44dd-a8f5-49d8-9411-88f11d795dce","ios":"levelo://app?vid=5fdb44dd-a8f5-49d8-9411-88f11d795dce"},"vehicle_type_id":"4","last_reported":1746126445,"current_range_meters":14000,"station_id":"ce4bhs12rcd13ifvqhvg","pricing_plan_id":"cebpf4jnsgd1na2vs0mg"},{"bike_id":"0b9ac188-19a7-4ad4-8279-34f1318ce56d","system_id":"levelo_inurba_marseille","lat":43.3128,"lon":5.37752,"is_reserved":false,"is_disabled":false,"rental_uris":{"android":"levelo://app?vid=0b9ac188-19a7-4ad4-8279-34f1318ce56d","ios":"levelo://app?vid=0b9ac188-19a7-4ad4-8279-34f1318ce56d"},"vehicle_type_id":"4","last_reported":1746126445,"current_range_meters":14000,"station_id":"","pricing_plan_id":"cebpf4jnsgd1na2vs0mg"},{"bike_id":"b1a7f355-fed4-4f85-807f-2c536ec90c3b","system_id":"levelo_inurba_marseille","lat":43.31608,"lon":5.38952,"is_reserved":false,"is_disabled":false,"rental_uris":{"android":"levelo://app?vid=b1a7f355-fed4-4f85-807f-2c536ec90c3b","ios":"levelo://app?vid=b1a7f355-fed4-4f85-807f-2c536ec90c3b"},"vehicle_type_id":"4","last_reported":1746126445,"current_range_meters":14000,"station_id":"","pricing_plan_id":"cebpf4jnsgd1na2vs0mg"},{"bike_id":"9213c3ad-a96e-49f8-9002-c944738d73f9","system_id":"levelo_inurba_marseille","lat":43.30416,"lon":5.4129,"is_reserved":false,"is_disabled":false,"rental_uris":{"android":"levelo://app?vid=9213c3ad-a96e-49f8-9002-c944738d73f9","ios":"levelo://app?vid=9213c3ad-a96e-49f8-9002-c944738d73f9"},"vehicle_type_id":"4","last_reported":1746126445,"current_range_meters":14000,"station_id":"ce4bhop2rcd13ifvqh8g","pricing_plan_id":"cebpf4jnsgd1na2vs0mg"},{"bike_id":"113a68cc-2596-45ca-addf-f034f5a6abb6","system_id":"levelo_inurba_marseille","lat":43.29524,"lon":5.3905,"is_reserved":false,"is_disabled":false,"rental_uris":{"android":"levelo://app?vid=113a68cc-2596-45ca-addf-f034f5a6abb6","ios":"levelo://app?vid=113a68cc-2596-45ca-addf-f034f5a6abb6"},"vehicle_type_id":"4","last_reported":1746126445,"current_range_meters":13600,"station_id":"ce4bh3p2rcd13ifvqdp0","pricing_plan_id":"cebpf4jnsgd1na2vs0mg"},{"bike_id":"887e4de4-5007-470e-aefd-5479d854b62f","system_id":"levelo_inurba_marseille","lat":43.30876,"lon":5.37208,"is_reserved":false,"is_disabled":false,"rental_uris":{"android":"levelo://app?vid=887e4de4-5007-470e-aefd-5479d854b62f","ios":"levelo://app?vid=887e4de4-5007-470e-aefd-5479d854b62f"},"vehicle_type_id":"4","last_reported":1746126445,"current_range_meters":14000,"station_id":"ce4bguh2rcd13ifvqckg","pricing_plan_id":"cebpf4jnsgd1na2vs0mg"},{"bike_id":"c317edda-9ff0-4489-8b86-11a914e588f8","system_id":"levelo_inurba_marseille","lat":43.30125,"lon":5.39861,"is_reserved":false,"is_disabled":false,"rental_uris":{"android":"levelo://app?vid=c317edda-9ff0-4489-8b86-11a914e588f8","ios":"levelo://app?vid=c317edda-9ff0-4489-8b86-11a914e588f8"},"vehicle_type_id":"4","last_reported":1746126445,"current_range_meters":14400,"station_id":"ce4bh0h2rcd13ifvqd40","pricing_plan_id":"cebpf4jnsgd1na2vs0mg"},{"bike_id":"8309ac68-703e-4bee-9a48-2dd271db2413","system_id":"levelo_inurba_marseille","lat":43.29535,"lon":5.39042,"is_reserved":false,"is_disabled":false,"rental_uris":{"android":"levelo://app?vid=8309ac68-703e-4bee-9a48-2dd271db2413","ios":"levelo://app?vid=8309ac68-703e-4bee-9a48-2dd271db2413"},"vehicle_type_id":"4","last_reported":1746126445,"current_range_meters":14400,"station_id":"ce4bh3p2rcd13ifvqdp0","pricing_plan_id":"cebpf4jnsgd1na2vs0mg"},{"bike_id":"84538d39-febd-410c-b8e6-43248c0570b7","system_id":"levelo_inurba_marseille","lat":43.29968,"lon":5.38505,"is_reserved":false,"is_disabled":false,"rental_uris":{"android":"levelo://app?vid=84538d39-febd-410c-b8e6-43248c0570b7","ios":"levelo://app?vid=84538d39-febd-410c-b8e6-43248c0570b7"},"vehicle_type_id":"4","last_reported":1746126445,"current_range_meters":14400,"station_id":"ce4bgj92rcd13ifvqbd0","pricing_plan_id":"cebpf4jnsgd1na2vs0mg"},{"bike_id":"88d4f6a4-887d-43a0-bf60-c793f4e29804","system_id":"levelo_inurba_marseille","lat":43.28447,"lon":5.39197,"is_reserved":false,"is_disabled":false,"rental_uris":{"android":"levelo://app?vid=88d4f6a4-887d-43a0-bf60-c793f4e29804","ios":"levelo://app?vid=88d4f6a4-887d-43a0-bf60-c793f4e29804"},"vehicle_type_id":"4","last_reported":1746126445,"current_range_meters":14800,"station_id":"ce4bhoh2rcd13ifvqh5g","pricing_plan_id":"cebpf4jnsgd1na2vs0mg"},{"bike_id":"cfccd54f-728d-4de3-9f0d-1702d3ffeca0","system_id":"levelo_inurba_marseille","lat":43.29891,"lon":5.43652,"is_reserved":false,"is_disabled":false,"rental_uris":{"android":"levelo://app?vid=cfccd54f-728d-4de3-9f0d-1702d3ffeca0","ios":"levelo://app?vid=cfccd54f-728d-4de3-9f0d-1702d3ffeca0"},"vehicle_type_id":"4","last_reported":1746126445,"current_range_meters":14800,"station_id":"ce4bhpp2rcd13ifvqhfg","pricing_plan_id":"cebpf4jnsgd1na2vs0mg"},{"bike_id":"ce95be70-9be6-4135-bbf9-03ec2dc887f0","system_id":"levelo_inurba_marseille","lat":43.32295,"lon":5.3827,"is_reserved":false,"is_disabled":false,"rental_uris":{"android":"levelo://app?vid=ce95be70-9be6-4135-bbf9-03ec2dc887f0","ios":"levelo://app?vid=ce95be70-9be6-4135-bbf9-03ec2dc887f0"},"vehicle_type_id":"4","last_reported":1746126445,"current_range_meters":14800,"station_id":"ce4bhr12rcd13ifvqhqg","pricing_plan_id":"cebpf4jnsgd1na2vs0mg"},{"bike_id":"a71dbd5b-b361-4751-a622-0d7a96fef20a","system_id":"levelo_inurba_marseille","lat":43.29254,"lon":5.37628,"is_reserved":false,"is_disabled":false,"rental_uris":{"android":"levelo://app?vid=a71dbd5b-b361-4751-a622-0d7a96fef20a","ios":"levelo://app?vid=a71dbd5b-b361-4751-a622-0d7a96fef20a"},"vehicle_type_id":"4","last_reported":1746126445,"current_range_meters":15200,"station_id":"ce4bgi12rcd13ifvqb80","pricing_plan_id":"cebpf4jnsgd1na2vs0mg"},{"bike_id":"0c9a8767-a71f-4ef0-b390-c3b7e9c632a8","system_id":"levelo_inurba_marseille","lat":43.21221,"lon":5.35078,"is_reserved":false,"is_disabled":true,"rental_uris":{"android":"levelo://app?vid=0c9a8767-a71f-4ef0-b390-c3b7e9c632a8","ios":"levelo://app?vid=0c9a8767-a71f-4ef0-b390-c3b7e9c632a8"},"vehicle_type_id":"4","last_reported":1746126445,"current_range_meters":15200,"station_id":"st_cvj6sg6p6f1abm77japg","pricing_plan_id":"cebpf4jnsgd1na2vs0mg"},{"bike_id":"96c77ee9-6bc8-4291-b9df-6f7023ca137d","system_id":"levelo_inurba_marseille","lat":43.31711,"lon":5.43709,"is_reserved":false,"is_disabled":false,"rental_uris":{"android":"levelo://app?vid=96c77ee9-6bc8-4291-b9df-6f7023ca137d","ios":"levelo://app?vid=96c77ee9-6bc8-4291-b9df-6f7023ca137d"},"vehicle_type_id":"4","last_reported":1746126445,"current_range_meters":15200,"station_id":"ce4bhp92rcd13ifvqhcg","pricing_plan_id":"cebpf4jnsgd1na2vs0mg"},{"bike_id":"0e6983ca-a94a-489d-9b3d-c4a74544dde7","system_id":"levelo_inurba_marseille","lat":43.26784,"lon":5.39416,"is_reserved":false,"is_disabled":false,"rental_uris":{"android":"levelo://app?vid=0e6983ca-a94a-489d-9b3d-c4a74544dde7","ios":"levelo://app?vid=0e6983ca-a94a-489d-9b3d-c4a74544dde7"},"vehicle_type_id":"4","last_reported":1746126445,"current_range_meters":15200,"station_id":"ce4bhh12rcd13ifvqfg0","pricing_plan_id":"cebpf4jnsgd1na2vs0mg"},{"bike_id":"2ae39ac1-aa30-4096-aaf7-7bc2d7533749","system_id":"levelo_inurba_marseille","lat":43.32365,"lon":5.36744,"is_reserved":false,"is_disabled":false,"rental_uris":{"android":"levelo://app?vid=2ae39ac1-aa30-4096-aaf7-7bc2d7533749","ios":"levelo://app?vid=2ae39ac1-aa30-4096-aaf7-7bc2d7533749"},"vehicle_type_id":"4","last_reported":1746126445,"current_range_meters":15200,"station_id":"ce4bhsh2rcd13ifvqi2g","pricing_plan_id":"cebpf4jnsgd1na2vs0mg"},{"bike_id":"8acf99d2-cc35-4a29-b21e-789f36b40834","system_id":"levelo_inurba_marseille","lat":43.30426,"lon":5.38885,"is_reserved":false,"is_disabled":false,"rental_uris":{"android":"levelo://app?vid=8acf99d2-cc35-4a29-b21e-789f36b40834","ios":"levelo://app?vid=8acf99d2-cc35-4a29-b21e-789f36b40834"},"vehicle_type_id":"4","last_reported":1746126445,"current_range_meters":15200,"station_id":"ce4bgk12rcd13ifvqbi0","pricing_plan_id":"cebpf4jnsgd1na2vs0mg"},{"bike_id":"dfa52545-99ae-4d46-b50a-eb7a51d33253","system_id":"levelo_inurba_marseille","lat":43.25577,"lon":5.38229,"is_reserved":false,"is_disabled":false,"rental_uris":{"android":"levelo://app?vid=dfa52545-99ae-4d46-b50a-eb7a51d33253","ios":"levelo://app?vid=dfa52545-99ae-4d46-b50a-eb7a51d33253"},"vehicle_type_id":"4","last_reported":1746126445,"current_range_meters":16000,"station_id":"ce4bhih2rcd13ifvqfs0","pricing_plan_id":"cebpf4jnsgd1na2vs0mg"},{"bike_id":"eb60ebeb-19e9-43bd-8d8a-276b6b709b53","system_id":"levelo_inurba_marseille","lat":43.318909,"lon":5.407338,"is_reserved":false,"is_disabled":false,"rental_uris":{"android":"levelo://app?vid=eb60ebeb-19e9-43bd-8d8a-276b6b709b53","ios":"levelo://app?vid=eb60ebeb-19e9-43bd-8d8a-276b6b709b53"},"vehicle_type_id":"4","last_reported":1746126445,"current_range_meters":16000,"station_id":"ce4bhq12rcd13ifvqhig","pricing_plan_id":"cebpf4jnsgd1na2vs0mg"},{"bike_id":"7778557a-1674-483d-a3e7-68a6bfe8b541","system_id":"levelo_inurba_marseille","lat":43.29094,"lon":5.38126,"is_reserved":false,"is_disabled":false,"rental_uris":{"android":"levelo://app?vid=7778557a-1674-483d-a3e7-68a6bfe8b541","ios":"levelo://app?vid=7778557a-1674-483d-a3e7-68a6bfe8b541"},"vehicle_type_id":"4","last_reported":1746126445,"current_range_meters":15200,"station_id":"ce4bh512rcd13ifvqe2g","pricing_plan_id":"cebpf4jnsgd1na2vs0mg"},{"bike_id":"8a53bf42-acb8-4be5-ad1b-38650f6ba791","system_id":"levelo_inurba_marseille","lat":43.29955,"lon":5.36553,"is_reserved":false,"is_disabled":true,"rental_uris":{"android":"levelo://app?vid=8a53bf42-acb8-4be5-ad1b-38650f6ba791","ios":"levelo://app?vid=8a53bf42-acb8-4be5-ad1b-38650f6ba791"},"vehicle_type_id":"4","last_reported":1746126445,"current_range_meters":16400,"station_id":"ce4bgm92rcd13ifvqbr0","pricing_plan_id":"cebpf4jnsgd1na2vs0mg"},{"bike_id":"724a6189-e096-4aed-b0d2-8d7447a91b1e","system_id":"levelo_inurba_marseille","lat":43.297,"lon":5.36606,"is_reserved":false,"is_disabled":false,"rental_uris":{"android":"levelo://app?vid=724a6189-e096-4aed-b0d2-8d7447a91b1e","ios":"levelo://app?vid=724a6189-e096-4aed-b0d2-8d7447a91b1e"},"vehicle_type_id":"4","last_reported":1746126445,"current_range_meters":16000,"station_id":"ce4bgn12rcd13ifvqbt0","pricing_plan_id":"cebpf4jnsgd1na2vs0mg"},{"bike_id":"4c355f31-bbab-40c6-a093-ac50f3e75f95","system_id":"levelo_inurba_marseille","lat":43.26228,"lon":5.40453,"is_reserved":false,"is_disabled":false,"rental_uris":{"android":"levelo://app?vid=4c355f31-bbab-40c6-a093-ac50f3e75f95","ios":"levelo://app?vid=4c355f31-bbab-40c6-a093-ac50f3e75f95"},"vehicle_type_id":"4","last_reported":1746126445,"current_range_meters":16400,"station_id":"ce4bhmh2rcd13ifvqgmg","pricing_plan_id":"cebpf4jnsgd1na2vs0mg"},{"bike_id":"d04b6002-1c3e-4716-b18f-8c884cecaa54","system_id":"levelo_inurba_marseille","lat":43.29569,"lon":5.37525,"is_reserved":false,"is_disabled":false,"rental_uris":{"android":"levelo://app?vid=d04b6002-1c3e-4716-b18f-8c884cecaa54","ios":"levelo://app?vid=d04b6002-1c3e-4716-b18f-8c884cecaa54"},"vehicle_type_id":"4","last_reported":1746126445,"current_range_meters":16400,"station_id":"ce4bgh92rcd13ifvqb50","pricing_plan_id":"cebpf4jnsgd1na2vs0mg"},{"bike_id":"015c51c2-7e45-4233-9e8f-b2f2d10e5e5d","system_id":"levelo_inurba_marseille","lat":43.31365,"lon":5.38498,"is_reserved":false,"is_disabled":false,"rental_uris":{"android":"levelo://app?vid=015c51c2-7e45-4233-9e8f-b2f2d10e5e5d","ios":"levelo://app?vid=015c51c2-7e45-4233-9e8f-b2f2d10e5e5d"},"vehicle_type_id":"4","last_reported":1746126445,"current_range_meters":16400,"station_id":"ce4bgt92rcd13ifvqcf0","pricing_plan_id":"cebpf4jnsgd1na2vs0mg"},{"bike_id":"57abb3f8-4844-4f25-8a18-72f7f1967c7d","system_id":"levelo_inurba_marseille","lat":43.31212,"lon":5.36836,"is_reserved":false,"is_disabled":false,"rental_uris":{"android":"levelo://app?vid=57abb3f8-4844-4f25-8a18-72f7f1967c7d","ios":"levelo://app?vid=57abb3f8-4844-4f25-8a18-72f7f1967c7d"},"vehicle_type_id":"4","last_reported":1746126445,"current_range_meters":16000,"station_id":"ce4bgl92rcd13ifvqbq0","pricing_plan_id":"cebpf4jnsgd1na2vs0mg"},{"bike_id":"4af33997-ffd3-4b8f-af45-80f6cc405ba7","system_id":"levelo_inurba_marseille","lat":43.326569,"lon":5.40992,"is_reserved":false,"is_disabled":false,"rental_uris":{"android":"levelo://app?vid=4af33997-ffd3-4b8f-af45-80f6cc405ba7","ios":"levelo://app?vid=4af33997-ffd3-4b8f-af45-80f6cc405ba7"},"vehicle_type_id":"4","last_reported":1746126445,"current_range_meters":16400,"station_id":"ce4bhpp2rcd13ifvqhgg","pricing_plan_id":"cebpf4jnsgd1na2vs0mg"},{"bike_id":"8a98d962-578d-444b-a5bb-91a62b69d98d","system_id":"levelo_inurba_marseille","lat":43.21188,"lon":5.35083,"is_reserved":false,"is_disabled":true,"rental_uris":{"android":"levelo://app?vid=8a98d962-578d-444b-a5bb-91a62b69d98d","ios":"levelo://app?vid=8a98d962-578d-444b-a5bb-91a62b69d98d"},"vehicle_type_id":"4","last_reported":1746126445,"current_range_meters":16800,"station_id":"st_cvj6sg6p6f1abm77japg","pricing_plan_id":"cebpf4jnsgd1na2vs0mg"},{"bike_id":"e70e6937-93f0-4736-a2bd-2815ca5c0c90","system_id":"levelo_inurba_marseille","lat":43.29311,"lon":5.37168,"is_reserved":false,"is_disabled":true,"rental_uris":{"android":"levelo://app?vid=e70e6937-93f0-4736-a2bd-2815ca5c0c90","ios":"levelo://app?vid=e70e6937-93f0-4736-a2bd-2815ca5c0c90"},"vehicle_type_id":"4","last_reported":1746126445,"current_range_meters":16800,"station_id":"ce4bgh92rcd13ifvqb40","pricing_plan_id":"cebpf4jnsgd1na2vs0mg"},{"bike_id":"924ebe6f-d3da-412d-b51d-9e4065478efe","system_id":"levelo_inurba_marseille","lat":43.32542,"lon":5.41444,"is_reserved":false,"is_disabled":false,"rental_uris":{"android":"levelo://app?vid=924ebe6f-d3da-412d-b51d-9e4065478efe","ios":"levelo://app?vid=924ebe6f-d3da-412d-b51d-9e4065478efe"},"vehicle_type_id":"4","last_reported":1746126445,"current_range_meters":16800,"station_id":"ce4bhq12rcd13ifvqhhg","pricing_plan_id":"cebpf4jnsgd1na2vs0mg"},{"bike_id":"5e970739-dbbb-46e9-a10e-7956ebf17f5f","system_id":"levelo_inurba_marseille","lat":43.27051,"lon":5.40262,"is_reserved":false,"is_disabled":false,"rental_uris":{"android":"levelo://app?vid=5e970739-dbbb-46e9-a10e-7956ebf17f5f","ios":"levelo://app?vid=5e970739-dbbb-46e9-a10e-7956ebf17f5f"},"vehicle_type_id":"4","last_reported":1746126445,"current_range_meters":16800,"station_id":"ce4bhk92rcd13ifvqgc0","pricing_plan_id":"cebpf4jnsgd1na2vs0mg"},{"bike_id":"e8eb176c-7c64-495a-8180-db65f86ce9c0","system_id":"levelo_inurba_marseille","lat":43.29037,"lon":5.35908,"is_reserved":false,"is_disabled":false,"rental_uris":{"android":"levelo://app?vid=e8eb176c-7c64-495a-8180-db65f86ce9c0","ios":"levelo://app?vid=e8eb176c-7c64-495a-8180-db65f86ce9c0"},"vehicle_type_id":"4","last_reported":1746126445,"current_range_meters":16800,"station_id":"ce4bha92rcd13ifvqeg0","pricing_plan_id":"cebpf4jnsgd1na2vs0mg"},{"bike_id":"cb40f172-e8b4-4bf3-b541-2375e4bd0a83","system_id":"levelo_inurba_marseille","lat":43.29721,"lon":5.36607,"is_reserved":false,"is_disabled":false,"rental_uris":{"android":"levelo://app?vid=cb40f172-e8b4-4bf3-b541-2375e4bd0a83","ios":"levelo://app?vid=cb40f172-e8b4-4bf3-b541-2375e4bd0a83"},"vehicle_type_id":"4","last_reported":1746126445,"current_range_meters":16800,"station_id":"ce4bgn12rcd13ifvqbt0","pricing_plan_id":"cebpf4jnsgd1na2vs0mg"},{"bike_id":"2b73389f-3aca-4d37-86f3-2ab625a154c9","system_id":"levelo_inurba_marseille","lat":43.29842,"lon":5.36306,"is_reserved":false,"is_disabled":false,"rental_uris":{"android":"levelo://app?vid=2b73389f-3aca-4d37-86f3-2ab625a154c9","ios":"levelo://app?vid=2b73389f-3aca-4d37-86f3-2ab625a154c9"},"vehicle_type_id":"4","last_reported":1746126445,"current_range_meters":16800,"station_id":"ce4bgpp2rcd13ifvqc3g","pricing_plan_id":"cebpf4jnsgd1na2vs0mg"},{"bike_id":"c619557c-65df-4739-b2ef-a282990edbe1","system_id":"levelo_inurba_marseille","lat":43.2955,"lon":5.42287,"is_reserved":false,"is_disabled":false,"rental_uris":{"android":"levelo://app?vid=c619557c-65df-4739-b2ef-a282990edbe1","ios":"levelo://app?vid=c619557c-65df-4739-b2ef-a282990edbe1"},"vehicle_type_id":"4","last_reported":1746126445,"current_range_meters":16800,"station_id":"ce4bhph2rcd13ifvqhdg","pricing_plan_id":"cebpf4jnsgd1na2vs0mg"},{"bike_id":"c89e1d20-76a1-4de4-800c-371ba2f61737","system_id":"levelo_inurba_marseille","lat":43.33717,"lon":5.39189,"is_reserved":false,"is_disabled":false,"rental_uris":{"android":"levelo://app?vid=c89e1d20-76a1-4de4-800c-371ba2f61737","ios":"levelo://app?vid=c89e1d20-76a1-4de4-800c-371ba2f61737"},"vehicle_type_id":"4","last_reported":1746126445,"current_range_meters":16800,"station_id":"ce4bhr92rcd13ifvqhsg","pricing_plan_id":"cebpf4jnsgd1na2vs0mg"},{"bike_id":"db23f17f-779e-4df5-a604-a1246457689f","system_id":"levelo_inurba_marseille","lat":43.29723,"lon":5.36604,"is_reserved":false,"is_disabled":false,"rental_uris":{"android":"levelo://app?vid=db23f17f-779e-4df5-a604-a1246457689f","ios":"levelo://app?vid=db23f17f-779e-4df5-a604-a1246457689f"},"vehicle_type_id":"4","last_reported":1746126445,"current_range_meters":17200,"station_id":"ce4bgn12rcd13ifvqbt0","pricing_plan_id":"cebpf4jnsgd1na2vs0mg"},{"bike_id":"b7027c80-0db8-4fc5-836c-64b82e3c960b","system_id":"levelo_inurba_marseille","lat":43.29564,"lon":5.37524,"is_reserved":false,"is_disabled":false,"rental_uris":{"android":"levelo://app?vid=b7027c80-0db8-4fc5-836c-64b82e3c960b","ios":"levelo://app?vid=b7027c80-0db8-4fc5-836c-64b82e3c960b"},"vehicle_type_id":"4","last_reported":1746126445,"current_range_meters":17200,"station_id":"ce4bgh92rcd13ifvqb50","pricing_plan_id":"cebpf4jnsgd1na2vs0mg"},{"bike_id":"f03c3174-549d-4b66-a5c1-94112cf4080c","system_id":"levelo_inurba_marseille","lat":43.29601,"lon":5.381,"is_reserved":false,"is_disabled":false,"rental_uris":{"android":"levelo://app?vid=f03c3174-549d-4b66-a5c1-94112cf4080c","ios":"levelo://app?vid=f03c3174-549d-4b66-a5c1-94112cf4080c"},"vehicle_type_id":"4","last_reported":1746126445,"current_range_meters":16800,"station_id":"ce4bgl12rcd13ifvqbo0","pricing_plan_id":"cebpf4jnsgd1na2vs0mg"},{"bike_id":"841d92f1-2286-4482-b5b8-de20f70cca33","system_id":"levelo_inurba_marseille","lat":43.30044,"lon":5.389495,"is_reserved":false,"is_disabled":false,"rental_uris":{"android":"levelo://app?vid=841d92f1-2286-4482-b5b8-de20f70cca33","ios":"levelo://app?vid=841d92f1-2286-4482-b5b8-de20f70cca33"},"vehicle_type_id":"4","last_reported":1746126445,"current_range_meters":17200,"station_id":"ce4bh0h2rcd13ifvqd40","pricing_plan_id":"cebpf4jnsgd1na2vs0mg"},{"bike_id":"c1326d17-6769-4720-8b08-7784f1c7a0cc","system_id":"levelo_inurba_marseille","lat":43.33609,"lon":5.41033,"is_reserved":false,"is_disabled":false,"rental_uris":{"android":"levelo://app?vid=c1326d17-6769-4720-8b08-7784f1c7a0cc","ios":"levelo://app?vid=c1326d17-6769-4720-8b08-7784f1c7a0cc"},"vehicle_type_id":"4","last_reported":1746126445,"current_range_meters":17200,"station_id":"ce4bhqh2rcd13ifvqhmg","pricing_plan_id":"cebpf4jnsgd1na2vs0mg"},{"bike_id":"b7387bb5-e08e-49dc-a446-dfc50a01b48f","system_id":"levelo_inurba_marseille","lat":43.29295,"lon":5.37447,"is_reserved":false,"is_disabled":false,"rental_uris":{"android":"levelo://app?vid=b7387bb5-e08e-49dc-a446-dfc50a01b48f","ios":"levelo://app?vid=b7387bb5-e08e-49dc-a446-dfc50a01b48f"},"vehicle_type_id":"4","last_reported":1746126445,"current_range_meters":17200,"station_id":"ce4bgi12rcd13ifvqb70","pricing_plan_id":"cebpf4jnsgd1na2vs0mg"},{"bike_id":"d693e15a-2b33-4067-b9f2-164a467146de","system_id":"levelo_inurba_marseille","lat":43.30873,"lon":5.39644,"is_reserved":false,"is_disabled":false,"rental_uris":{"android":"levelo://app?vid=d693e15a-2b33-4067-b9f2-164a467146de","ios":"levelo://app?vid=d693e15a-2b33-4067-b9f2-164a467146de"},"vehicle_type_id":"4","last_reported":1746126445,"current_range_meters":17200,"station_id":"ce4bh012rcd13ifvqcv0","pricing_plan_id":"cebpf4jnsgd1na2vs0mg"},{"bike_id":"ec596de7-6e54-41f7-9136-a2303a6f0233","system_id":"levelo_inurba_marseille","lat":43.33606,"lon":5.4103,"is_reserved":false,"is_disabled":false,"rental_uris":{"android":"levelo://app?vid=ec596de7-6e54-41f7-9136-a2303a6f0233","ios":"levelo://app?vid=ec596de7-6e54-41f7-9136-a2303a6f0233"},"vehicle_type_id":"4","last_reported":1746126445,"current_range_meters":17200,"station_id":"ce4bhqh2rcd13ifvqhmg","pricing_plan_id":"cebpf4jnsgd1na2vs0mg"},{"bike_id":"ac132c29-f819-4d62-974c-5c055342f4f0","system_id":"levelo_inurba_marseille","lat":43.2176,"lon":5.34603,"is_reserved":false,"is_disabled":true,"rental_uris":{"android":"levelo://app?vid=ac132c29-f819-4d62-974c-5c055342f4f0","ios":"levelo://app?vid=ac132c29-f819-4d62-974c-5c055342f4f0"},"vehicle_type_id":"4","last_reported":1746126445,"current_range_meters":17600,"station_id":"st_cvj6r9ubvosntc0bgbag","pricing_plan_id":"cebpf4jnsgd1na2vs0mg"},{"bike_id":"61ada823-7afc-4bae-8219-f47e25313745","system_id":"levelo_inurba_marseille","lat":43.25719,"lon":5.41793,"is_reserved":false,"is_disabled":false,"rental_uris":{"android":"levelo://app?vid=61ada823-7afc-4bae-8219-f47e25313745","ios":"levelo://app?vid=61ada823-7afc-4bae-8219-f47e25313745"},"vehicle_type_id":"4","last_reported":1746126445,"current_range_meters":17600,"station_id":"","pricing_plan_id":"cebpf4jnsgd1na2vs0mg"},{"bike_id":"e885e7f1-59ea-49d7-bb64-f9f55424ae99","system_id":"levelo_inurba_marseille","lat":43.30796,"lon":5.4352,"is_reserved":false,"is_disabled":false,"rental_uris":{"android":"levelo://app?vid=e885e7f1-59ea-49d7-bb64-f9f55424ae99","ios":"levelo://app?vid=e885e7f1-59ea-49d7-bb64-f9f55424ae99"},"vehicle_type_id":"4","last_reported":1746126445,"current_range_meters":17200,"station_id":"ce4bhph2rcd13ifvqheg","pricing_plan_id":"cebpf4jnsgd1na2vs0mg"},{"bike_id":"8b4990b6-2fcd-4fb4-9935-363245af0185","system_id":"levelo_inurba_marseille","lat":43.29523,"lon":5.39053,"is_reserved":false,"is_disabled":false,"rental_uris":{"android":"levelo://app?vid=8b4990b6-2fcd-4fb4-9935-363245af0185","ios":"levelo://app?vid=8b4990b6-2fcd-4fb4-9935-363245af0185"},"vehicle_type_id":"4","last_reported":1746126445,"current_range_meters":17200,"station_id":"ce4bh3p2rcd13ifvqdp0","pricing_plan_id":"cebpf4jnsgd1na2vs0mg"},{"bike_id":"fbdab49d-a8c3-4e62-96e1-eb17db7bc85f","system_id":"levelo_inurba_marseille","lat":43.2917,"lon":5.37163,"is_reserved":false,"is_disabled":false,"rental_uris":{"android":"levelo://app?vid=fbdab49d-a8c3-4e62-96e1-eb17db7bc85f","ios":"levelo://app?vid=fbdab49d-a8c3-4e62-96e1-eb17db7bc85f"},"vehicle_type_id":"4","last_reported":1746126445,"current_range_meters":17200,"station_id":"ce4bha92rcd13ifvqeh0","pricing_plan_id":"cebpf4jnsgd1na2vs0mg"},{"bike_id":"3b4dafce-0fec-4153-a969-e442c2a41967","system_id":"levelo_inurba_marseille","lat":43.2872,"lon":5.37936,"is_reserved":false,"is_disabled":false,"rental_uris":{"android":"levelo://app?vid=3b4dafce-0fec-4153-a969-e442c2a41967","ios":"levelo://app?vid=3b4dafce-0fec-4153-a969-e442c2a41967"},"vehicle_type_id":"4","last_reported":1746126445,"current_range_meters":17600,"station_id":"ce4bh9p2rcd13ifvqec0","pricing_plan_id":"cebpf4jnsgd1na2vs0mg"},{"bike_id":"51b4c66d-2f88-4920-9744-16949a907ccd","system_id":"levelo_inurba_marseille","lat":43.30425,"lon":5.38879,"is_reserved":false,"is_disabled":false,"rental_uris":{"android":"levelo://app?vid=51b4c66d-2f88-4920-9744-16949a907ccd","ios":"levelo://app?vid=51b4c66d-2f88-4920-9744-16949a907ccd"},"vehicle_type_id":"4","last_reported":1746126445,"current_range_meters":17600,"station_id":"ce4bgk12rcd13ifvqbi0","pricing_plan_id":"cebpf4jnsgd1na2vs0mg"},{"bike_id":"58274ec7-ae36-4d44-9c97-7d01e4f0aff0","system_id":"levelo_inurba_marseille","lat":43.31102,"lon":5.37781,"is_reserved":false,"is_disabled":false,"rental_uris":{"android":"levelo://app?vid=58274ec7-ae36-4d44-9c97-7d01e4f0aff0","ios":"levelo://app?vid=58274ec7-ae36-4d44-9c97-7d01e4f0aff0"},"vehicle_type_id":"4","last_reported":1746126445,"current_range_meters":17600,"station_id":"ce4bgt92rcd13ifvqcg0","pricing_plan_id":"cebpf4jnsgd1na2vs0mg"},{"bike_id":"fea90467-7b9b-451d-849d-003674ab8347","system_id":"levelo_inurba_marseille","lat":43.2721,"lon":5.39193,"is_reserved":false,"is_disabled":true,"rental_uris":{"android":"levelo://app?vid=fea90467-7b9b-451d-849d-003674ab8347","ios":"levelo://app?vid=fea90467-7b9b-451d-849d-003674ab8347"},"vehicle_type_id":"4","last_reported":1746126445,"current_range_meters":18000,"station_id":"ce4bhhp2rcd13ifvqfm0","pricing_plan_id":"cebpf4jnsgd1na2vs0mg"},{"bike_id":"26faa8ce-6b19-44a8-a194-0ef02472f81c","system_id":"levelo_inurba_marseille","lat":43.27492,"lon":5.42451,"is_reserved":false,"is_disabled":false,"rental_uris":{"android":"levelo://app?vid=26faa8ce-6b19-44a8-a194-0ef02472f81c","ios":"levelo://app?vid=26faa8ce-6b19-44a8-a194-0ef02472f81c"},"vehicle_type_id":"4","last_reported":1746126445,"current_range_meters":18000,"station_id":"ce4bhn92rcd13ifvqgrg","pricing_plan_id":"cebpf4jnsgd1na2vs0mg"},{"bike_id":"68d9c779-c9b0-47c1-bda9-6dba9a2971ac","system_id":"levelo_inurba_marseille","lat":43.33599,"lon":5.41005,"is_reserved":false,"is_disabled":false,"rental_uris":{"android":"levelo://app?vid=68d9c779-c9b0-47c1-bda9-6dba9a2971ac","ios":"levelo://app?vid=68d9c779-c9b0-47c1-bda9-6dba9a2971ac"},"vehicle_type_id":"4","last_reported":1746126445,"current_range_meters":18000,"station_id":"ce4bhqh2rcd13ifvqhmg","pricing_plan_id":"cebpf4jnsgd1na2vs0mg"},{"bike_id":"d10bd358-19ff-483d-8bf7-a292be9a1b4f","system_id":"levelo_inurba_marseille","lat":43.3033,"lon":5.40426,"is_reserved":false,"is_disabled":false,"rental_uris":{"android":"levelo://app?vid=d10bd358-19ff-483d-8bf7-a292be9a1b4f","ios":"levelo://app?vid=d10bd358-19ff-483d-8bf7-a292be9a1b4f"},"vehicle_type_id":"4","last_reported":1746126445,"current_range_meters":18000,"station_id":"ce4bh012rcd13ifvqd10","pricing_plan_id":"cebpf4jnsgd1na2vs0mg"},{"bike_id":"2442b788-63e7-4ed9-99aa-bbc600860931","system_id":"levelo_inurba_marseille","lat":43.30219,"lon":5.39467,"is_reserved":false,"is_disabled":false,"rental_uris":{"android":"levelo://app?vid=2442b788-63e7-4ed9-99aa-bbc600860931","ios":"levelo://app?vid=2442b788-63e7-4ed9-99aa-bbc600860931"},"vehicle_type_id":"4","last_reported":1746126445,"current_range_meters":18800,"station_id":"","pricing_plan_id":"cebpf4jnsgd1na2vs0mg"},{"bike_id":"0e76ad88-2579-4467-a103-d1e44aeb826c","system_id":"levelo_inurba_marseille","lat":43.31268,"lon":5.40178,"is_reserved":false,"is_disabled":false,"rental_uris":{"android":"levelo://app?vid=0e76ad88-2579-4467-a103-d1e44aeb826c","ios":"levelo://app?vid=0e76ad88-2579-4467-a103-d1e44aeb826c"},"vehicle_type_id":"4","last_reported":1746126445,"current_range_meters":18800,"station_id":"ce4bh092rcd13ifvqd30","pricing_plan_id":"cebpf4jnsgd1na2vs0mg"},{"bike_id":"0ca93d30-9e95-49c1-98c0-cdc9b5d9fdde","system_id":"levelo_inurba_marseille","lat":43.32366,"lon":5.38887,"is_reserved":false,"is_disabled":false,"rental_uris":{"android":"levelo://app?vid=0ca93d30-9e95-49c1-98c0-cdc9b5d9fdde","ios":"levelo://app?vid=0ca93d30-9e95-49c1-98c0-cdc9b5d9fdde"},"vehicle_type_id":"4","last_reported":1746126445,"current_range_meters":18800,"station_id":"ce4bhqp2rcd13ifvqhog","pricing_plan_id":"cebpf4jnsgd1na2vs0mg"},{"bike_id":"416d5df5-c367-4f40-a71f-9811b24e271b","system_id":"levelo_inurba_marseille","lat":43.28402,"lon":5.37508,"is_reserved":false,"is_disabled":false,"rental_uris":{"android":"levelo://app?vid=416d5df5-c367-4f40-a71f-9811b24e271b","ios":"levelo://app?vid=416d5df5-c367-4f40-a71f-9811b24e271b"},"vehicle_type_id":"4","last_reported":1746126445,"current_range_meters":18800,"station_id":"ce4bh412rcd13ifvqds0","pricing_plan_id":"cebpf4jnsgd1na2vs0mg"},{"bike_id":"bc5f2018-6802-4650-91d0-e91166c6460e","system_id":"levelo_inurba_marseille","lat":43.290943,"lon":5.385776,"is_reserved":false,"is_disabled":false,"rental_uris":{"android":"levelo://app?vid=bc5f2018-6802-4650-91d0-e91166c6460e","ios":"levelo://app?vid=bc5f2018-6802-4650-91d0-e91166c6460e"},"vehicle_type_id":"4","last_reported":1746126445,"current_range_meters":18800,"station_id":"ce4bh4p2rcd13ifvqe0g","pricing_plan_id":"cebpf4jnsgd1na2vs0mg"},{"bike_id":"62fc1478-ce03-4adc-b678-8c16d589c336","system_id":"levelo_inurba_marseille","lat":43.31117,"lon":5.37766,"is_reserved":false,"is_disabled":false,"rental_uris":{"android":"levelo://app?vid=62fc1478-ce03-4adc-b678-8c16d589c336","ios":"levelo://app?vid=62fc1478-ce03-4adc-b678-8c16d589c336"},"vehicle_type_id":"4","last_reported":1746126445,"current_range_meters":14800,"station_id":"ce4bgt92rcd13ifvqcg0","pricing_plan_id":"cebpf4jnsgd1na2vs0mg"},{"bike_id":"1547d270-151a-43fc-9300-8770c33329db","system_id":"levelo_inurba_marseille","lat":43.27325,"lon":5.39071,"is_reserved":false,"is_disabled":false,"rental_uris":{"android":"levelo://app?vid=1547d270-151a-43fc-9300-8770c33329db","ios":"levelo://app?vid=1547d270-151a-43fc-9300-8770c33329db"},"vehicle_type_id":"4","last_reported":1746126445,"current_range_meters":19200,"station_id":"ce4bhgp2rcd13ifvqfe0","pricing_plan_id":"cebpf4jnsgd1na2vs0mg"},{"bike_id":"90685622-282a-42e3-81eb-cbbf9c496ba4","system_id":"levelo_inurba_marseille","lat":43.28841,"lon":5.39316,"is_reserved":false,"is_disabled":false,"rental_uris":{"android":"levelo://app?vid=90685622-282a-42e3-81eb-cbbf9c496ba4","ios":"levelo://app?vid=90685622-282a-42e3-81eb-cbbf9c496ba4"},"vehicle_type_id":"4","last_reported":1746126445,"current_range_meters":19200,"station_id":"ce4bh2p2rcd13ifvqdi0","pricing_plan_id":"cebpf4jnsgd1na2vs0mg"},{"bike_id":"da178549-fec5-41e6-a279-aab50a87d02c","system_id":"levelo_inurba_marseille","lat":43.3058,"lon":5.37264,"is_reserved":false,"is_disabled":true,"rental_uris":{"android":"levelo://app?vid=da178549-fec5-41e6-a279-aab50a87d02c","ios":"levelo://app?vid=da178549-fec5-41e6-a279-aab50a87d02c"},"vehicle_type_id":"4","last_reported":1746126445,"current_range_meters":19200,"station_id":"ce4bgqh2rcd13ifvqc4g","pricing_plan_id":"cebpf4jnsgd1na2vs0mg"},{"bike_id":"f9accc98-5988-439d-9300-4fb23bf7a0e1","system_id":"levelo_inurba_marseille","lat":43.32495,"lon":5.36564,"is_reserved":false,"is_disabled":false,"rental_uris":{"android":"levelo://app?vid=f9accc98-5988-439d-9300-4fb23bf7a0e1","ios":"levelo://app?vid=f9accc98-5988-439d-9300-4fb23bf7a0e1"},"vehicle_type_id":"4","last_reported":1746126445,"current_range_meters":18800,"station_id":"ce4bhs12rcd13ifvqhvg","pricing_plan_id":"cebpf4jnsgd1na2vs0mg"},{"bike_id":"c0bc19f2-7e6b-4955-8a67-d0e522457a05","system_id":"levelo_inurba_marseille","lat":43.25721,"lon":5.4111,"is_reserved":false,"is_disabled":false,"rental_uris":{"android":"levelo://app?vid=c0bc19f2-7e6b-4955-8a67-d0e522457a05","ios":"levelo://app?vid=c0bc19f2-7e6b-4955-8a67-d0e522457a05"},"vehicle_type_id":"4","last_reported":1746126445,"current_range_meters":19200,"station_id":"ce4bhkp2rcd13ifvqgd0","pricing_plan_id":"cebpf4jnsgd1na2vs0mg"},{"bike_id":"b3b2da5e-37b4-4a05-83a3-b4657810cc50","system_id":"levelo_inurba_marseille","lat":43.29259,"lon":5.37636,"is_reserved":false,"is_disabled":false,"rental_uris":{"android":"levelo://app?vid=b3b2da5e-37b4-4a05-83a3-b4657810cc50","ios":"levelo://app?vid=b3b2da5e-37b4-4a05-83a3-b4657810cc50"},"vehicle_type_id":"4","last_reported":1746126445,"current_range_meters":19200,"station_id":"ce4bgi12rcd13ifvqb80","pricing_plan_id":"cebpf4jnsgd1na2vs0mg"},{"bike_id":"4af42c7d-75c4-4e8f-a91c-15eb4eaf180f","system_id":"levelo_inurba_marseille","lat":43.31366,"lon":5.38489,"is_reserved":false,"is_disabled":false,"rental_uris":{"android":"levelo://app?vid=4af42c7d-75c4-4e8f-a91c-15eb4eaf180f","ios":"levelo://app?vid=4af42c7d-75c4-4e8f-a91c-15eb4eaf180f"},"vehicle_type_id":"4","last_reported":1746126445,"current_range_meters":19200,"station_id":"ce4bgt92rcd13ifvqcf0","pricing_plan_id":"cebpf4jnsgd1na2vs0mg"},{"bike_id":"976f16dd-52bd-4357-aa61-a44a87815be8","system_id":"levelo_inurba_marseille","lat":43.30325,"lon":5.4043,"is_reserved":false,"is_disabled":false,"rental_uris":{"android":"levelo://app?vid=976f16dd-52bd-4357-aa61-a44a87815be8","ios":"levelo://app?vid=976f16dd-52bd-4357-aa61-a44a87815be8"},"vehicle_type_id":"4","last_reported":1746126445,"current_range_meters":19200,"station_id":"ce4bh012rcd13ifvqd10","pricing_plan_id":"cebpf4jnsgd1na2vs0mg"},{"bike_id":"b1988240-cf0c-4b94-acac-f30babe32d7d","system_id":"levelo_inurba_marseille","lat":43.30399,"lon":5.41272,"is_reserved":false,"is_disabled":true,"rental_uris":{"android":"levelo://app?vid=b1988240-cf0c-4b94-acac-f30babe32d7d","ios":"levelo://app?vid=b1988240-cf0c-4b94-acac-f30babe32d7d"},"vehicle_type_id":"4","last_reported":1746126445,"current_range_meters":19200,"station_id":"ce4bhop2rcd13ifvqh8g","pricing_plan_id":"cebpf4jnsgd1na2vs0mg"},{"bike_id":"7d26b70d-3366-4fdf-b00c-51a0e7f8b214","system_id":"levelo_inurba_marseille","lat":43.29038,"lon":5.39963,"is_reserved":false,"is_disabled":false,"rental_uris":{"android":"levelo://app?vid=7d26b70d-3366-4fdf-b00c-51a0e7f8b214","ios":"levelo://app?vid=7d26b70d-3366-4fdf-b00c-51a0e7f8b214"},"vehicle_type_id":"4","last_reported":1746126445,"current_range_meters":19600,"station_id":"ce4bh392rcd13ifvqdm0","pricing_plan_id":"cebpf4jnsgd1na2vs0mg"},{"bike_id":"e45bdc69-6f84-4790-9c48-983a8e11a29a","system_id":"levelo_inurba_marseille","lat":43.30302,"lon":5.3689,"is_reserved":false,"is_disabled":false,"rental_uris":{"android":"levelo://app?vid=e45bdc69-6f84-4790-9c48-983a8e11a29a","ios":"levelo://app?vid=e45bdc69-6f84-4790-9c48-983a8e11a29a"},"vehicle_type_id":"4","last_reported":1746126445,"current_range_meters":19200,"station_id":"ce4bgqh2rcd13ifvqc5g","pricing_plan_id":"cebpf4jnsgd1na2vs0mg"},{"bike_id":"318dd532-2c57-41da-bdc1-00b9fca2a999","system_id":"levelo_inurba_marseille","lat":43.26803,"lon":5.40269,"is_reserved":false,"is_disabled":false,"rental_uris":{"android":"levelo://app?vid=318dd532-2c57-41da-bdc1-00b9fca2a999","ios":"levelo://app?vid=318dd532-2c57-41da-bdc1-00b9fca2a999"},"vehicle_type_id":"4","last_reported":1746126445,"current_range_meters":20000,"station_id":"ce501612rcd8frsf0b60","pricing_plan_id":"cebpf4jnsgd1na2vs0mg"},{"bike_id":"a4e7a4f7-2a92-435c-9196-419086c93f37","system_id":"levelo_inurba_marseille","lat":43.231617,"lon":5.436953,"is_reserved":false,"is_disabled":false,"rental_uris":{"android":"levelo://app?vid=a4e7a4f7-2a92-435c-9196-419086c93f37","ios":"levelo://app?vid=a4e7a4f7-2a92-435c-9196-419086c93f37"},"vehicle_type_id":"4","last_reported":1746126445,"current_range_meters":20000,"station_id":"ce4bhmp2rcd13ifvqgog","pricing_plan_id":"cebpf4jnsgd1na2vs0mg"},{"bike_id":"f462b49b-7ce6-4799-a7bd-e32768f2b589","system_id":"levelo_inurba_marseille","lat":43.2931,"lon":5.37159,"is_reserved":false,"is_disabled":false,"rental_uris":{"android":"levelo://app?vid=f462b49b-7ce6-4799-a7bd-e32768f2b589","ios":"levelo://app?vid=f462b49b-7ce6-4799-a7bd-e32768f2b589"},"vehicle_type_id":"4","last_reported":1746126445,"current_range_meters":19600,"station_id":"ce4bgh92rcd13ifvqb40","pricing_plan_id":"cebpf4jnsgd1na2vs0mg"},{"bike_id":"b4f985f8-8997-4553-a297-8de91f016318","system_id":"levelo_inurba_marseille","lat":43.2988,"lon":5.3892,"is_reserved":false,"is_disabled":false,"rental_uris":{"android":"levelo://app?vid=b4f985f8-8997-4553-a297-8de91f016318","ios":"levelo://app?vid=b4f985f8-8997-4553-a297-8de91f016318"},"vehicle_type_id":"4","last_reported":1746126445,"current_range_meters":20000,"station_id":"ce4bh392rcd13ifvqdl0","pricing_plan_id":"cebpf4jnsgd1na2vs0mg"},{"bike_id":"f649bbcf-f1ec-41ae-9810-4157e3752ba7","system_id":"levelo_inurba_marseille","lat":43.30474,"lon":5.3728,"is_reserved":false,"is_disabled":false,"rental_uris":{"android":"levelo://app?vid=f649bbcf-f1ec-41ae-9810-4157e3752ba7","ios":"levelo://app?vid=f649bbcf-f1ec-41ae-9810-4157e3752ba7"},"vehicle_type_id":"4","last_reported":1746126445,"current_range_meters":20400,"station_id":"","pricing_plan_id":"cebpf4jnsgd1na2vs0mg"},{"bike_id":"53024ac5-1695-44ce-b3ae-c72317760414","system_id":"levelo_inurba_marseille","lat":43.28949,"lon":5.36631,"is_reserved":false,"is_disabled":false,"rental_uris":{"android":"levelo://app?vid=53024ac5-1695-44ce-b3ae-c72317760414","ios":"levelo://app?vid=53024ac5-1695-44ce-b3ae-c72317760414"},"vehicle_type_id":"4","last_reported":1746126445,"current_range_meters":20400,"station_id":"ce4bhap2rcd13ifvqek0","pricing_plan_id":"cebpf4jnsgd1na2vs0mg"},{"bike_id":"da895fe2-0d1f-4a29-a4b0-67ab2bc9af1d","system_id":"levelo_inurba_marseille","lat":43.31616,"lon":5.38993,"is_reserved":false,"is_disabled":false,"rental_uris":{"android":"levelo://app?vid=da895fe2-0d1f-4a29-a4b0-67ab2bc9af1d","ios":"levelo://app?vid=da895fe2-0d1f-4a29-a4b0-67ab2bc9af1d"},"vehicle_type_id":"4","last_reported":1746126445,"current_range_meters":20400,"station_id":"","pricing_plan_id":"cebpf4jnsgd1na2vs0mg"},{"bike_id":"ec853579-da32-4aa7-b370-d4c64fe3c1c9","system_id":"levelo_inurba_marseille","lat":43.29002,"lon":5.35621,"is_reserved":false,"is_disabled":true,"rental_uris":{"android":"levelo://app?vid=ec853579-da32-4aa7-b370-d4c64fe3c1c9","ios":"levelo://app?vid=ec853579-da32-4aa7-b370-d4c64fe3c1c9"},"vehicle_type_id":"4","last_reported":1746126445,"current_range_meters":20000,"station_id":"ce4bhb92rcd13ifvqen0","pricing_plan_id":"cebpf4jnsgd1na2vs0mg"},{"bike_id":"fb20a471-1d98-44dd-8128-9a5cd651ad59","system_id":"levelo_inurba_marseille","lat":43.31503,"lon":5.37295,"is_reserved":false,"is_disabled":false,"rental_uris":{"android":"levelo://app?vid=fb20a471-1d98-44dd-8128-9a5cd651ad59","ios":"levelo://app?vid=fb20a471-1d98-44dd-8128-9a5cd651ad59"},"vehicle_type_id":"4","last_reported":1746126445,"current_range_meters":20800,"station_id":"ce4bgt12rcd13ifvqcd0","pricing_plan_id":"cebpf4jnsgd1na2vs0mg"},{"bike_id":"5e8b73f1-97e1-4e3e-a18a-bf56356c622b","system_id":"levelo_inurba_marseille","lat":43.31272,"lon":5.40167,"is_reserved":false,"is_disabled":false,"rental_uris":{"android":"levelo://app?vid=5e8b73f1-97e1-4e3e-a18a-bf56356c622b","ios":"levelo://app?vid=5e8b73f1-97e1-4e3e-a18a-bf56356c622b"},"vehicle_type_id":"4","last_reported":1746126445,"current_range_meters":20800,"station_id":"ce4bh092rcd13ifvqd30","pricing_plan_id":"cebpf4jnsgd1na2vs0mg"},{"bike_id":"4e744ad6-66d7-4388-9303-e67c95539945","system_id":"levelo_inurba_marseille","lat":43.28881,"lon":5.38454,"is_reserved":false,"is_disabled":false,"rental_uris":{"android":"levelo://app?vid=4e744ad6-66d7-4388-9303-e67c95539945","ios":"levelo://app?vid=4e744ad6-66d7-4388-9303-e67c95539945"},"vehicle_type_id":"4","last_reported":1746126445,"current_range_meters":20800,"station_id":"ce4bh612rcd13ifvqe6g","pricing_plan_id":"cebpf4jnsgd1na2vs0mg"},{"bike_id":"04b7ae5e-f17e-42a9-89bc-fb267169d6b5","system_id":"levelo_inurba_marseille","lat":43.31709,"lon":5.37734,"is_reserved":false,"is_disabled":false,"rental_uris":{"android":"levelo://app?vid=04b7ae5e-f17e-42a9-89bc-fb267169d6b5","ios":"levelo://app?vid=04b7ae5e-f17e-42a9-89bc-fb267169d6b5"},"vehicle_type_id":"4","last_reported":1746126445,"current_range_meters":21600,"station_id":"ce4bgth2rcd13ifvqch0","pricing_plan_id":"cebpf4jnsgd1na2vs0mg"},{"bike_id":"b4730ace-546a-42b1-bcfe-71c622faeb05","system_id":"levelo_inurba_marseille","lat":43.28104,"lon":5.37841,"is_reserved":false,"is_disabled":false,"rental_uris":{"android":"levelo://app?vid=b4730ace-546a-42b1-bcfe-71c622faeb05","ios":"levelo://app?vid=b4730ace-546a-42b1-bcfe-71c622faeb05"},"vehicle_type_id":"4","last_reported":1746126445,"current_range_meters":20800,"station_id":"ce4bha12rcd13ifvqee0","pricing_plan_id":"cebpf4jnsgd1na2vs0mg"},{"bike_id":"6f7e5a0c-8dea-419e-a319-8ae61511cdba","system_id":"levelo_inurba_marseille","lat":43.28702,"lon":5.37383,"is_reserved":false,"is_disabled":false,"rental_uris":{"android":"levelo://app?vid=6f7e5a0c-8dea-419e-a319-8ae61511cdba","ios":"levelo://app?vid=6f7e5a0c-8dea-419e-a319-8ae61511cdba"},"vehicle_type_id":"4","last_reported":1746126445,"current_range_meters":20800,"station_id":"ce4bh3p2rcd13ifvqdq0","pricing_plan_id":"cebpf4jnsgd1na2vs0mg"},{"bike_id":"14e05d8c-f36c-41f5-93ba-c6bcfb3c4401","system_id":"levelo_inurba_marseille","lat":43.28845,"lon":5.39304,"is_reserved":false,"is_disabled":false,"rental_uris":{"android":"levelo://app?vid=14e05d8c-f36c-41f5-93ba-c6bcfb3c4401","ios":"levelo://app?vid=14e05d8c-f36c-41f5-93ba-c6bcfb3c4401"},"vehicle_type_id":"4","last_reported":1746126445,"current_range_meters":20800,"station_id":"ce4bh2p2rcd13ifvqdi0","pricing_plan_id":"cebpf4jnsgd1na2vs0mg"},