{"last_updated":1750781607,"ttl":60,"version":"2.2","data":{"bikes":[{"bike_id":"3da29fb8-fc97-44c6-b9ac-31dd456b2fd4","system_id":"levelo_inurba_marseille","lat":43.33771,"lon":5.37424,"is_reserved":false,"is_disabled":true,"rental_uris":{"android":"levelo://app?vid=3da29fb8-fc97-44c6-b9ac-31dd456b2fd4","ios":"levelo://app?vid=3da29fb8-fc97-44c6-b9ac-31dd456b2fd4"},"vehicle_type_id":"4","last_reported":1750781607,"current_range_meters":0,"station_id":"","pricing_plan_id":"cebpf4jnsgd1na2vs0mg"},{"bike_id":"01861ad8-a8d7-4be6-816e-651927c87584","system_id":"levelo_inurba_marseille","lat":43.33751,"lon":5.37456,"is_reserved":false,"is_disabled":true,"rental_uris":{"android":"levelo://app?vid=01861ad8-a8d7-4be6-816e-651927c87584","ios":"levelo://app?vid=01861ad8-a8d7-4be6-816e-651927c87584"},"vehicle_type_id":"4","last_reported":1750781607,"current_range_meters":0,"station_id":"","pricing_plan_id":"cebpf4jnsgd1na2vs0mg"},{"bike_id":"f0a1d594-9817-42ab-a8d6-aea4947e8858","system_id":"levelo_inurba_marseille","lat":43.288329,"lon":5.434368,"is_reserved":false,"is_disabled":true,"rental_uris":{"android":"levelo://app?vid=f0a1d594-9817-42ab-a8d6-aea4947e8858","ios":"levelo://app?vid=f0a1d594-9817-42ab-a8d6-aea4947e8858"},"vehicle_type_id":"4","last_reported":1750781607,"current_range_meters":0,"station_id":"","pricing_plan_id":"cebpf4jnsgd1na2vs0mg"},{"bike_id":"763475c0-a5de-4444-b5fb-a67ccd172449","system_id":"levelo_inurba_marseille","lat":43.26432,"lon":5.37377,"is_reserved":false,"is_disabled":true,"rental_uris":{"android":"levelo://app?vid=763475c0-a5de-4444-b5fb-a67ccd172449","ios":"levelo://app?vid=763475c0-a5de-4444-b5fb-a67ccd172449"},"vehicle_type_id":"4","last_reported":1750781607,"current_range_meters":0,"station_id":"","pricing_plan_id":"cebpf4jnsgd1na2vs0mg"},{"bike_id":"62a493c7-4534-4419-ad43-0582de34a72a","system_id":"levelo_inurba_marseille","lat":43.21366,"lon":5.355183,"is_reserved":false,"is_disabled":true,"rental_uris":{"android":"levelo://app?vid=62a493c7-4534-4419-ad43-0582de34a72a","ios":"levelo://app?vid=62a493c7-4534-4419-ad43-0582de34a72a"},"vehicle_type_id":"4","last_reported":1750781607,"current_range_meters":0,"station_id":"","pricing_plan_id":"cebpf4jnsgd1na2vs0mg"},{"bike_id":"139d47bd-ff87-42d8-a4c6-89da4be6f80c","system_id":"levelo_inurba_marseille","lat":43.27962,"lon":5.44252,"is_reserved":false,"is_disabled":true,"rental_uris":{"android":"levelo://app?vid=139d47bd-ff87-42d8-a4c6-89da4be6f80c","ios":"levelo://app?vid=139d47bd-ff87-42d8-a4c6-89da4be6f80c"},"vehicle_type_id":"4","last_reported":1750781607,"current_range_meters":0,"station_id":"","pricing_plan_id":"cebpf4jnsgd1na2vs0mg"},{"bike_id":"d07b07aa-5732-4368-b606-c642421b7603","system_id":"levelo_inurba_marseille","lat":43.33125,"lon":5.36033,"is_reserved":false,"is_disabled":true,"rental_uris":{"android":"levelo://app?vid=d07b07aa-5732-4368-b606-c642421b7603","ios":"levelo://app?vid=d07b07aa-5732-4368-b606-c642421b7603"},"vehicle_type_id":"4","last_reported":1750781607,"current_range_meters":0,"station_id":"","pricing_plan_id":"cebpf4jnsgd1na2vs0mg"},{"bike_id":"d6ce388f-ca76-4c7c-9e3f-e6b4d12862f1","system_id":"levelo_inurba_marseille","lat":43.24545,"lon":5.41466,"is_reserved":false,"is_disabled":true,"rental_uris":{"android":"levelo://app?vid=d6ce388f-ca76-4c7c-9e3f-e6b4d12862f1","ios":"levelo://app?vid=d6ce388f-ca76-4c7c-9e3f-e6b4d12862f1"},"vehicle_type_id":"4","last_reported":1750781607,"current_range_meters":0,"station_id":"","pricing_plan_id":"cebpf4jnsgd1na2vs0mg"},{"bike_id":"3a3a1818-f20a-442b-bfcf-0e0a18008f43","system_id":"levelo_inurba_marseille","lat":43.26612,"lon":5.37491,"is_reserved":false,"is_disabled":true,"rental_uris":{"android":"levelo://app?vid=3a3a1818-f20a-442b-bfcf-0e0a18008f43","ios":"levelo://app?vid=3a3a1818-f20a-442b-bfcf-0e0a18008f43"},"vehicle_type_id":"4","last_reported":1750781607,"current_range_meters":0,"station_id":"","pricing_plan_id":"cebpf4jnsgd1na2vs0mg"},{"bike_id":"11d160d1-34e0-4ce8-9789-9603b74a4446","system_id":"levelo_inurba_marseille","lat":43.32719,"lon":5.37507,"is_reserved":false,"is_disabled":true,"rental_uris":{"android":"levelo://app?vid=11d160d1-34e0-4ce8-9789-9603b74a4446","ios":"levelo://app?vid=11d160d1-34e0-4ce8-9789-9603b74a4446"},"vehicle_type_id":"4","last_reported":1750781607,"current_range_meters":0,"station_id":"","pricing_plan_id":"cebpf4jnsgd1na2vs0mg"},{"bike_id":"4a3b6871-8241-46bf-9ef4-8e46286432a8","system_id":"levelo_inurba_marseille","lat":43.30045,"lon":5.40175,"is_reserved":false,"is_disabled":true,"rental_uris":{"android":"levelo://app?vid=4a3b6871-8241-46bf-9ef4-8e46286432a8","ios":"levelo://app?vid=4a3b6871-8241-46bf-9ef4-8e46286432a8"},"vehicle_type_id":"4","last_reported":1750781607,"current_range_meters":0,"station_id":"","pricing_plan_id":"cebpf4jnsgd1na2vs0mg"},{"bike_id":"d6609b4f-333b-43c1-9ebe-8726f5e76e88","system_id":"levelo_inurba_marseille","lat":43.337444,"lon":5.374475,"is_reserved":false,"is_disabled":true,"rental_uris":{"android":"levelo://app?vid=d6609b4f-333b-43c1-9ebe-8726f5e76e88","ios":"levelo://app?vid=d6609b4f-333b-43c1-9ebe-8726f5e76e88"},"vehicle_type_id":"4","last_reported":1750781607,"current_range_meters":0,"station_id":"","pricing_plan_id":"cebpf4jnsgd1na2vs0mg"},{"bike_id":"9cb193d0-906b-4ac2-85c5-eea810b1d20f","system_id":"levelo_inurba_marseille","lat":43.29385,"lon":5.43191,"is_reserved":false,"is_disabled":true,"rental_uris":{"android":"levelo://app?vid=9cb193d0-906b-4ac2-85c5-eea810b1d20f","ios":"levelo://app?vid=9cb193d0-906b-4ac2-85c5-eea810b1d20f"},"vehicle_type_id":"4","last_reported":1750781607,"current_range_meters":0,"station_id":"","pricing_plan_id":"cebpf4jnsgd1na2vs0mg"},{"bike_id":"bd17737b-22d2-4e4f-88e8-4eb661d864c4","system_id":"levelo_inurba_marseille","lat":43.29172,"lon":5.4607,"is_reserved":false,"is_disabled":true,"rental_uris":{"android":"levelo://app?vid=bd17737b-22d2-4e4f-88e8-4eb661d864c4","ios":"levelo://app?vid=bd17737b-22d2-4e4f-88e8-4eb661d864c4"},"vehicle_type_id":"4","last_reported":1750781607,"current_range_meters":0,"station_id":"","pricing_plan_id":"cebpf4jnsgd1na2vs0mg"},{"bike_id":"0032b41f-e702-48e0-a561-160b8fb6cb78","system_id":"levelo_inurba_marseille","lat":43.28936,"lon":5.39097,"is_reserved":false,"is_disabled":true,"rental_uris":{"android":"levelo://app?vid=0032b41f-e702-48e0-a561-160b8fb6cb78","ios":"levelo://app?vid=0032b41f-e702-48e0-a561-160b8fb6cb78"},"vehicle_type_id":"4","last_reported":1750781607,"current_range_meters":0,"station_id":"","pricing_plan_id":"cebpf4jnsgd1na2vs0mg"},{"bike_id":"3d07ef76-af52-42e0-81f1-5f4963c9ee29","system_id":"levelo_inurba_marseille","lat":43.294701,"lon":5.438349,"is_reserved":false,"is_disabled":true,"rental_uris":{"android":"levelo://app?vid=3d07ef76-af52-42e0-81f1-5f4963c9ee29","ios":"levelo://app?vid=3d07ef76-af52-42e0-81f1-5f4963c9ee29"},"vehicle_type_id":"4","last_reported":1750781607,"current_range_meters":0,"station_id":"","pricing_plan_id":"cebpf4jnsgd1na2vs0mg"},{"bike_id":"0c86cdad-b64a-47bf-ba91-5b398064181c","system_id":"levelo_inurba_marseille","lat":43.384196,"lon":5.358629,"is_reserved":false,"is_disabled":true,"rental_uris":{"android":"levelo://app?vid=0c86cdad-b64a-47bf-ba91-5b398064181c","ios":"levelo://app?vid=0c86cdad-b64a-47bf-ba91-5b398064181c"},"vehicle_type_id":"4","last_reported":1750781607,"current_range_meters":0,"station_id":"","pricing_plan_id":"cebpf4jnsgd1na2vs0mg"},{"bike_id":"0e701dcf-2620-42ce-bfb6-3ffe713c339b","system_id":"levelo_inurba_marseille","lat":43.23966,"lon":5.36634,"is_reserved":false,"is_disabled":true,"rental_uris":{"android":"levelo://app?vid=0e701dcf-2620-42ce-bfb6-3ffe713c339b","ios":"levelo://app?vid=0e701dcf-2620-42ce-bfb6-3ffe713c339b"},"vehicle_type_id":"4","last_reported":1750781607,"current_range_meters":0,"station_id":"","pricing_plan_id":"cebpf4jnsgd1na2vs0mg"},{"bike_id":"0c38a783-eb1c-4453-8c16-1243ddd859b7","system_id":"levelo_inurba_marseille","lat":43.29619,"lon":5.37698,"is_reserved":false,"is_disabled":true,"rental_uris":{"android":"levelo://app?vid=0c38a783-eb1c-4453-8c16-1243ddd859b7","ios":"levelo://app?vid=0c38a783-eb1c-4453-8c16-1243ddd859b7"},"vehicle_type_id":"4","last_reported":1750781607,"current_range_meters":0,"station_id":"ce4bgi92rcd13ifvqb90","pricing_plan_id":"cebpf4jnsgd1na2vs0mg"},{"bike_id":"3aa69cbd-0ece-4303-b289-d39ba8caa432","system_id":"levelo_inurba_marseille","lat":43.29963,"lon":5.38515,"is_reserved":false,"is_disabled":true,"rental_uris":{"android":"levelo://app?vid=3aa69cbd-0ece-4303-b289-d39ba8caa432","ios":"levelo://app?vid=3aa69cbd-0ece-4303-b289-d39ba8caa432"},"vehicle_type_id":"4","last_reported":1750781607,"current_range_meters":0,"station_id":"ce4bgj92rcd13ifvqbd0","pricing_plan_id":"cebpf4jnsgd1na2vs0mg"},{"bike_id":"58f465ff-cd18-4cbe-a041-fab406f89463","system_id":"levelo_inurba_marseille","lat":43.2997,"lon":5.385,"is_reserved":false,"is_disabled":true,"rental_uris":{"android":"levelo://app?vid=58f465ff-cd18-4cbe-a041-fab406f89463","ios":"levelo://app?vid=58f465ff-cd18-4cbe-a041-fab406f89463"},"vehicle_type_id":"4","last_reported":1750781607,"current_range_meters":0,"station_id":"ce4bgj92rcd13ifvqbd0","pricing_plan_id":"cebpf4jnsgd1na2vs0mg"},{"bike_id":"53e193ef-f38a-42f1-b06c-cc9a6910e570","system_id":"levelo_inurba_marseille","lat":43.30538,"lon":5.36554,"is_reserved":false,"is_disabled":true,"rental_uris":{"android":"levelo://app?vid=53e193ef-f38a-42f1-b06c-cc9a6910e570","ios":"levelo://app?vid=53e193ef-f38a-42f1-b06c-cc9a6910e570"},"vehicle_type_id":"4","last_reported":1750781607,"current_range_meters":0,"station_id":"ce4bgs12rcd13ifvqcag","pricing_plan_id":"cebpf4jnsgd1na2vs0mg"},{"bike_id":"9b01bb9f-0ce2-4b9f-8b03-825e68d713f4","system_id":"levelo_inurba_marseille","lat":43.30941,"lon":5.40144,"is_reserved":false,"is_disabled":true,"rental_uris":{"android":"levelo://app?vid=9b01bb9f-0ce2-4b9f-8b03-825e68d713f4","ios":"levelo://app?vid=9b01bb9f-0ce2-4b9f-8b03-825e68d713f4"},"vehicle_type_id":"4","last_reported":1750781607,"current_range_meters":0,"station_id":"ce4bgvp2rcd13ifvqct0","pricing_plan_id":"cebpf4jnsgd1na2vs0mg"},{"bike_id":"70f9dd98-29e4-44f0-a8bf-7fe97dc19637","system_id":"levelo_inurba_marseille","lat":43.30121,"lon":5.39855,"is_reserved":false,"is_disabled":true,"rental_uris":{"android":"levelo://app?vid=70f9dd98-29e4-44f0-a8bf-7fe97dc19637","ios":"levelo://app?vid=70f9dd98-29e4-44f0-a8bf-7fe97dc19637"},"vehicle_type_id":"4","last_reported":1750781607,"current_range_meters":0,"station_id":"ce4bh0h2rcd13ifvqd40","pricing_plan_id":"cebpf4jnsgd1na2vs0mg"},{"bike_id":"50280a0b-0089-40b1-8ffd-5cff10b0b942","system_id":"levelo_inurba_marseille","lat":43.295719,"lon":5.399804,"is_reserved":false,"is_disabled":true,"rental_uris":{"android":"levelo://app?vid=50280a0b-0089-40b1-8ffd-5cff10b0b942","ios":"levelo://app?vid=50280a0b-0089-40b1-8ffd-5cff10b0b942"},"vehicle_type_id":"4","last_reported":1750781607,"current_range_meters":0,"station_id":"ce4bh312rcd13ifvqdj0","pricing_plan_id":"cebpf4jnsgd1na2vs0mg"},{"bike_id":"4a1316a1-49aa-4b6c-abd1-e426f6620745","system_id":"levelo_inurba_marseille","lat":43.29263,"lon":5.38438,"is_reserved":false,"is_disabled":true,"rental_uris":{"android":"levelo://app?vid=4a1316a1-49aa-4b6c-abd1-e426f6620745","ios":"levelo://app?vid=4a1316a1-49aa-4b6c-abd1-e426f6620745"},"vehicle_type_id":"4","last_reported":1750781607,"current_range_meters":0,"station_id":"ce4bh692rcd13ifvqea0","pricing_plan_id":"cebpf4jnsgd1na2vs0mg"},{"bike_id":"08e5b9be-ea07-40c7-8f55-0bd12188bea6","system_id":"levelo_inurba_marseille","lat":43.28721,"lon":5.37943,"is_reserved":false,"is_disabled":true,"rental_uris":{"android":"levelo://app?vid=08e5b9be-ea07-40c7-8f55-0bd12188bea6","ios":"levelo://app?vid=08e5b9be-ea07-40c7-8f55-0bd12188bea6"},"vehicle_type_id":"4","last_reported":1750781607,"current_range_meters":0,"station_id":"ce4bh9p2rcd13ifvqec0","pricing_plan_id":"cebpf4jnsgd1na2vs0mg"},{"bike_id":"3bd408b3-1c64-43a2-8b4d-f190b6e1ea7e","system_id":"levelo_inurba_marseille","lat":43.28611,"lon":5.35105,"is_reserved":false,"is_disabled":true,"rental_uris":{"android":"levelo://app?vid=3bd408b3-1c64-43a2-8b4d-f190b6e1ea7e","ios":"levelo://app?vid=3bd408b3-1c64-43a2-8b4d-f190b6e1ea7e"},"vehicle_type_id":"4","last_reported":1750781607,"current_range_meters":0,"station_id":"ce4bhch2rcd13ifvqeug","pricing_plan_id":"cebpf4jnsgd1na2vs0mg"},{"bike_id":"0609b8b1-f038-48f4-835b-97d2e7350482","system_id":"levelo_inurba_marseille","lat":43.28611,"lon":5.35103,"is_reserved":false,"is_disabled":true,"rental_uris":{"android":"levelo://app?vid=0609b8b1-f038-48f4-835b-97d2e7350482","ios":"levelo://app?vid=0609b8b1-f038-48f4-835b-97d2e7350482"},"vehicle_type_id":"4","last_reported":1750781607,"current_range_meters":0,"station_id":"ce4bhch2rcd13ifvqeug","pricing_plan_id":"cebpf4jnsgd1na2vs0mg"},{"bike_id":"8ff9486b-41b6-4bba-a4e8-09b59a087d7c","system_id":"levelo_inurba_marseille","lat":43.265715,"lon":5.390099,"is_reserved":false,"is_disabled":true,"rental_uris":{"android":"levelo://app?vid=8ff9486b-41b6-4bba-a4e8-09b59a087d7c","ios":"levelo://app?vid=8ff9486b-41b6-4bba-a4e8-09b59a087d7c"},"vehicle_type_id":"4","last_reported":1750781607,"current_range_meters":0,"station_id":"ce4bhe12rcd13ifvqf30","pricing_plan_id":"cebpf4jnsgd1na2vs0mg"},{"bike_id":"df44cdbb-93d2-452f-b45e-52559f4991c0","system_id":"levelo_inurba_marseille","lat":43.26547,"lon":5.3729,"is_reserved":false,"is_disabled":true,"rental_uris":{"android":"levelo://app?vid=df44cdbb-93d2-452f-b45e-52559f4991c0","ios":"levelo://app?vid=df44cdbb-93d2-452f-b45e-52559f4991c0"},"vehicle_type_id":"4","last_reported":1750781607,"current_range_meters":0,"station_id":"ce4bhg12rcd13ifvqf70","pricing_plan_id":"cebpf4jnsgd1na2vs0mg"},{"bike_id":"7c4417b7-e7d5-4a5f-ae47-54d8798ab905","system_id":"levelo_inurba_marseille","lat":43.26576,"lon":5.37289,"is_reserved":false,"is_disabled":true,"rental_uris":{"android":"levelo://app?vid=7c4417b7-e7d5-4a5f-ae47-54d8798ab905","ios":"levelo://app?vid=7c4417b7-e7d5-4a5f-ae47-54d8798ab905"},"vehicle_type_id":"4","last_reported":1750781607,"current_range_meters":0,"station_id":"ce4bhg12rcd13ifvqf70","pricing_plan_id":"cebpf4jnsgd1na2vs0mg"},{"bike_id":"ea50418f-40d9-4fc0-8b04-a3fe2da1f2ce","system_id":"levelo_inurba_marseille","lat":43.25498,"lon":5.37644,"is_reserved":false,"is_disabled":true,"rental_uris":{"android":"levelo://app?vid=ea50418f-40d9-4fc0-8b04-a3fe2da1f2ce","ios":"levelo://app?vid=ea50418f-40d9-4fc0-8b04-a3fe2da1f2ce"},"vehicle_type_id":"4","last_reported":1750781607,"current_range_meters":0,"station_id":"ce4bhh12rcd13ifvqff0","pricing_plan_id":"cebpf4jnsgd1na2vs0mg"},{"bike_id":"69b85ff0-525f-4e56-b244-402f8a03c06f","system_id":"levelo_inurba_marseille","lat":43.23179,"lon":5.39986,"is_reserved":false,"is_disabled":true,"rental_uris":{"android":"levelo://app?vid=69b85ff0-525f-4e56-b244-402f8a03c06f","ios":"levelo://app?vid=69b85ff0-525f-4e56-b244-402f8a03c06f"},"vehicle_type_id":"4","last_reported":1750781607,"current_range_meters":0,"station_id":"ce4bhn12rcd13ifvqgqg","pricing_plan_id":"cebpf4jnsgd1na2vs0mg"},{"bike_id":"23163df9-cc7e-45ba-9725-614e54508f59","system_id":"levelo_inurba_marseille","lat":43.30421,"lon":5.41288,"is_reserved":false,"is_disabled":true,"rental_uris":{"android":"levelo://app?vid=23163df9-cc7e-45ba-9725-614e54508f59","ios":"levelo://app?vid=23163df9-cc7e-45ba-9725-614e54508f59"},"vehicle_type_id":"4","last_reported":1750781607,"current_range_meters":0,"station_id":"ce4bhop2rcd13ifvqh8g","pricing_plan_id":"cebpf4jnsgd1na2vs0mg"},{"bike_id":"0b084df9-f02e-4fc0-99c7-a79815fdc5af","system_id":"levelo_inurba_marseille","lat":43.2926,"lon":5.40902,"is_reserved":false,"is_disabled":true,"rental_uris":{"android":"levelo://app?vid=0b084df9-f02e-4fc0-99c7-a79815fdc5af","ios":"levelo://app?vid=0b084df9-f02e-4fc0-99c7-a79815fdc5af"},"vehicle_type_id":"4","last_reported":1750781607,"current_range_meters":400,"station_id":"ce4bh192rcd13ifvqdc0","pricing_plan_id":"cebpf4jnsgd1na2vs0mg"},{"bike_id":"1eb33e44-db6a-481b-ac5e-543858ab8758","system_id":"levelo_inurba_marseille","lat":43.29524,"lon":5.3903,"is_reserved":false,"is_disabled":true,"rental_uris":{"android":"levelo://app?vid=1eb33e44-db6a-481b-ac5e-543858ab8758","ios":"levelo://app?vid=1eb33e44-db6a-481b-ac5e-543858ab8758"},"vehicle_type_id":"4","last_reported":1750781607,"current_range_meters":400,"station_id":"ce4bh3p2rcd13ifvqdp0","pricing_plan_id":"cebpf4jnsgd1na2vs0mg"},{"bike_id":"143069b7-6f8c-465b-818e-bbe28797b730","system_id":"levelo_inurba_marseille","lat":43.27172,"lon":5.40997,"is_reserved":false,"is_disabled":true,"rental_uris":{"android":"levelo://app?vid=143069b7-6f8c-465b-818e-bbe28797b730","ios":"levelo://app?vid=143069b7-6f8c-465b-818e-bbe28797b730"},"vehicle_type_id":"4","last_reported":1750781607,"current_range_meters":400,"station_id":"ce4bhl12rcd13ifvqgf0","pricing_plan_id":"cebpf4jnsgd1na2vs0mg"},{"bike_id":"558d14e5-f9fb-4afe-b869-0281ef868ea1","system_id":"levelo_inurba_marseille","lat":43.31689,"lon":5.40476,"is_reserved":false,"is_disabled":true,"rental_uris":{"android":"levelo://app?vid=558d14e5-f9fb-4afe-b869-0281ef868ea1","ios":"levelo://app?vid=558d14e5-f9fb-4afe-b869-0281ef868ea1"},"vehicle_type_id":"4","last_reported":1750781607,"current_range_meters":800,"station_id":"ce4bh012rcd13ifvqd00","pricing_plan_id":"cebpf4jnsgd1na2vs0mg"},{"bike_id":"190ddc66-a0f2-465b-b322-09a10f03601a","system_id":"levelo_inurba_marseille","lat":43.29516,"lon":5.39412,"is_reserved":false,"is_disabled":true,"rental_uris":{"android":"levelo://app?vid=190ddc66-a0f2-465b-b322-09a10f03601a","ios":"levelo://app?vid=190ddc66-a0f2-465b-b322-09a10f03601a"},"vehicle_type_id":"4","last_reported":1750781607,"current_range_meters":800,"station_id":"ce4bh292rcd13ifvqdf0","pricing_plan_id":"cebpf4jnsgd1na2vs0mg"},{"bike_id":"5763175a-6141-41d6-a5fe-5c04f9ad087e","system_id":"levelo_inurba_marseille","lat":43.2942,"lon":5.38618,"is_reserved":false,"is_disabled":true,"rental_uris":{"android":"levelo://app?vid=5763175a-6141-41d6-a5fe-5c04f9ad087e","ios":"levelo://app?vid=5763175a-6141-41d6-a5fe-5c04f9ad087e"},"vehicle_type_id":"4","last_reported":1750781607,"current_range_meters":800,"station_id":"ce4bh2h2rcd13ifvqdh0","pricing_plan_id":"cebpf4jnsgd1na2vs0mg"},{"bike_id":"4af57b83-de81-4229-9229-f8afaae45c87","system_id":"levelo_inurba_marseille","lat":43.284012,"lon":5.349841,"is_reserved":false,"is_disabled":true,"rental_uris":{"android":"levelo://app?vid=4af57b83-de81-4229-9229-f8afaae45c87","ios":"levelo://app?vid=4af57b83-de81-4229-9229-f8afaae45c87"},"vehicle_type_id":"4","last_reported":1750781607,"current_range_meters":800,"station_id":"ce4bhbh2rcd13ifvqepg","pricing_plan_id":"cebpf4jnsgd1na2vs0mg"},{"bike_id":"2a5f219e-5de8-4609-b452-801127f9b234","system_id":"levelo_inurba_marseille","lat":43.317556,"lon":5.390212,"is_reserved":false,"is_disabled":true,"rental_uris":{"android":"levelo://app?vid=2a5f219e-5de8-4609-b452-801127f9b234","ios":"levelo://app?vid=2a5f219e-5de8-4609-b452-801127f9b234"},"vehicle_type_id":"4","last_reported":1750781607,"current_range_meters":800,"station_id":"ce4bhqp2rcd13ifvqhng","pricing_plan_id":"cebpf4jnsgd1na2vs0mg"},{"bike_id":"85c58f10-925d-4344-b389-09267487a6fc","system_id":"levelo_inurba_marseille","lat":43.21116,"lon":5.41915,"is_reserved":false,"is_disabled":true,"rental_uris":{"android":"levelo://app?vid=85c58f10-925d-4344-b389-09267487a6fc","ios":"levelo://app?vid=85c58f10-925d-4344-b389-09267487a6fc"},"vehicle_type_id":"4","last_reported":1750781607,"current_range_meters":1200,"station_id":"","pricing_plan_id":"cebpf4jnsgd1na2vs0mg"},{"bike_id":"9dbaef63-22f3-43ec-9877-d714983aec9d","system_id":"levelo_inurba_marseille","lat":43.30793,"lon":5.38167,"is_reserved":false,"is_disabled":true,"rental_uris":{"android":"levelo://app?vid=9dbaef63-22f3-43ec-9877-d714983aec9d","ios":"levelo://app?vid=9dbaef63-22f3-43ec-9877-d714983aec9d"},"vehicle_type_id":"4","last_reported":1750781607,"current_range_meters":1200,"station_id":"ce4bgt12rcd13ifvqce0","pricing_plan_id":"cebpf4jnsgd1na2vs0mg"},{"bike_id":"949d6515-e5f1-4977-be32-54541117006b","system_id":"levelo_inurba_marseille","lat":43.282702,"lon":5.35057,"is_reserved":false,"is_disabled":true,"rental_uris":{"android":"levelo://app?vid=949d6515-e5f1-4977-be32-54541117006b","ios":"levelo://app?vid=949d6515-e5f1-4977-be32-54541117006b"},"vehicle_type_id":"4","last_reported":1750781607,"current_range_meters":1200,"station_id":"ce4bhbp2rcd13ifvqerg","pricing_plan_id":"cebpf4jnsgd1na2vs0mg"},{"bike_id":"92346327-c109-4410-9d40-7be7a0cf67c2","system_id":"levelo_inurba_marseille","lat":43.26213,"lon":5.37442,"is_reserved":false,"is_disabled":true,"rental_uris":{"android":"levelo://app?vid=92346327-c109-4410-9d40-7be7a0cf67c2","ios":"levelo://app?vid=92346327-c109-4410-9d40-7be7a0cf67c2"},"vehicle_type_id":"4","last_reported":1750781607,"current_range_meters":1200,"station_id":"ce4bhgp2rcd13ifvqfc0","pricing_plan_id":"cebpf4jnsgd1na2vs0mg"},{"bike_id":"2eb2a23e-ae8b-4426-b7a6-f0322f2229a7","system_id":"levelo_inurba_marseille","lat":43.275,"lon":5.42466,"is_reserved":false,"is_disabled":true,"rental_uris":{"android":"levelo://app?vid=2eb2a23e-ae8b-4426-b7a6-f0322f2229a7","ios":"levelo://app?vid=2eb2a23e-ae8b-4426-b7a6-f0322f2229a7"},"vehicle_type_id":"4","last_reported":1750781607,"current_range_meters":1200,"station_id":"ce4bhn92rcd13ifvqgrg","pricing_plan_id":"cebpf4jnsgd1na2vs0mg"},{"bike_id":"e7ce7abf-9bb3-44af-8f88-d9d497a99e1d","system_id":"levelo_inurba_marseille","lat":43.28742,"lon":5.3609,"is_reserved":false,"is_disabled":true,"rental_uris":{"android":"levelo://app?vid=e7ce7abf-9bb3-44af-8f88-d9d497a99e1d","ios":"levelo://app?vid=e7ce7abf-9bb3-44af-8f88-d9d497a99e1d"},"vehicle_type_id":"4","last_reported":1750781607,"current_range_meters":1200,"station_id":"cki0cbj6b192h4jlfktg","pricing_plan_id":"cebpf4jnsgd1na2vs0mg"},{"bike_id":"5bcffdbe-80c7-48b9-8b27-54e88a7fdd0d","system_id":"levelo_inurba_marseille","lat":43.2837,"lon":5.38092,"is_reserved":false,"is_disabled":true,"rental_uris":{"android":"levelo://app?vid=5bcffdbe-80c7-48b9-8b27-54e88a7fdd0d","ios":"levelo://app?vid=5bcffdbe-80c7-48b9-8b27-54e88a7fdd0d"},"vehicle_type_id":"4","last_reported":1750781607,"current_range_meters":1600,"station_id":"ce4bh412rcd13ifvqdr0","pricing_plan_id":"cebpf4jnsgd1na2vs0mg"},{"bike_id":"784e98ea-3cc1-423d-b629-4ba555e53c56","system_id":"levelo_inurba_marseille","lat":43.28854,"lon":5.39318,"is_reserved":false,"is_disabled":true,"rental_uris":{"android":"levelo://app?vid=784e98ea-3cc1-423d-b629-4ba555e53c56","ios":"levelo://app?vid=784e98ea-3cc1-423d-b629-4ba555e53c56"},"vehicle_type_id":"4","last_reported":1750781607,"current_range_meters":2000,"station_id":"ce4bh2p2rcd13ifvqdi0","pricing_plan_id":"cebpf4jnsgd1na2vs0mg"},{"bike_id":"f422f1cd-0fd3-469d-af2a-77f220dd4625","system_id":"levelo_inurba_marseille","lat":43.30306,"lon":5.3923,"is_reserved":false,"is_disabled":false,"rental_uris":{"android":"levelo://app?vid=f422f1cd-0fd3-469d-af2a-77f220dd4625","ios":"levelo://app?vid=f422f1cd-0fd3-469d-af2a-77f220dd4625"},"vehicle_type_id":"4","last_reported":1750781607,"current_range_meters":2800,"station_id":"ce4bgkh2rcd13ifvqbk0","pricing_plan_id":"cebpf4jnsgd1na2vs0mg"},{"bike_id":"8c6de0c1-9eaf-4c18-8155-d956789067ae","system_id":"levelo_inurba_marseille","lat":43.27949,"lon":5.44263,"is_reserved":false,"is_disabled":false,"rental_uris":{"android":"levelo://app?vid=8c6de0c1-9eaf-4c18-8155-d956789067ae","ios":"levelo://app?vid=8c6de0c1-9eaf-4c18-8155-d956789067ae"},"vehicle_type_id":"4","last_reported":1750781607,"current_range_meters":3200,"station_id":"","pricing_plan_id":"cebpf4jnsgd1na2vs0mg"},{"bike_id":"551c98b7-7add-4bfe-9802-640d806fed53","system_id":"levelo_inurba_marseille","lat":43.2706,"lon":5.39273,"is_reserved":false,"is_disabled":false,"rental_uris":{"android":"levelo://app?vid=551c98b7-7add-4bfe-9802-640d806fed53","ios":"levelo://app?vid=551c98b7-7add-4bfe-9802-640d806fed53"},"vehicle_type_id":"4","last_reported":1750781607,"current_range_meters":3200,"station_id":"","pricing_plan_id":"cebpf4jnsgd1na2vs0mg"},{"bike_id":"a9e5e555-fdaf-49c0-b286-f0f2659b17d0","system_id":"levelo_inurba_marseille","lat":43.28316,"lon":5.43254,"is_reserved":false,"is_disabled":false,"rental_uris":{"android":"levelo://app?vid=a9e5e555-fdaf-49c0-b286-f0f2659b17d0","ios":"levelo://app?vid=a9e5e555-fdaf-49c0-b286-f0f2659b17d0"},"vehicle_type_id":"4","last_reported":1750781607,"current_range_meters":3200,"station_id":"","pricing_plan_id":"cebpf4jnsgd1na2vs0mg"},{"bike_id":"4b51865d-7689-4312-90ec-3578d1f30155","system_id":"levelo_inurba_marseille","lat":43.31492,"lon":5.39132,"is_reserved":false,"is_disabled":false,"rental_uris":{"android":"levelo://app?vid=4b51865d-7689-4312-90ec-3578d1f30155","ios":"levelo://app?vid=4b51865d-7689-4312-90ec-3578d1f30155"},"vehicle_type_id":"4","last_reported":1750781607,"current_range_meters":3200,"station_id":"","pricing_plan_id":"cebpf4jnsgd1na2vs0mg"},{"bike_id":"6e0bed2e-50fc-4a41-a922-dd7bbec0b20b","system_id":"levelo_inurba_marseille","lat":43.28938,"lon":5.36635,"is_reserved":false,"is_disabled":false,"rental_uris":{"android":"levelo://app?vid=6e0bed2e-50fc-4a41-a922-dd7bbec0b20b","ios":"levelo://app?vid=6e0bed2e-50fc-4a41-a922-dd7bbec0b20b"},"vehicle_type_id":"4","last_reported":1750781607,"current_range_meters":3200,"station_id":"ce4bhap2rcd13ifvqek0","pricing_plan_id":"cebpf4jnsgd1na2vs0mg"},{"bike_id":"1d9a49ba-6854-4f73-a796-700af2173de4","system_id":"levelo_inurba_marseille","lat":43.28273,"lon":5.35049,"is_reserved":false,"is_disabled":false,"rental_uris":{"android":"levelo://app?vid=1d9a49ba-6854-4f73-a796-700af2173de4","ios":"levelo://app?vid=1d9a49ba-6854-4f73-a796-700af2173de4"},"vehicle_type_id":"4","last_reported":1750781607,"current_range_meters":3200,"station_id":"ce4bhbp2rcd13ifvqerg","pricing_plan_id":"cebpf4jnsgd1na2vs0mg"},{"bike_id":"2cadc8bb-66ab-4f60-9c29-fe446b0ec906","system_id":"levelo_inurba_marseille","lat":43.3042,"lon":5.41282,"is_reserved":false,"is_disabled":false,"rental_uris":{"android":"levelo://app?vid=2cadc8bb-66ab-4f60-9c29-fe446b0ec906","ios":"levelo://app?vid=2cadc8bb-66ab-4f60-9c29-fe446b0ec906"},"vehicle_type_id":"4","last_reported":1750781607,"current_range_meters":3600,"station_id":"ce4bhop2rcd13ifvqh8g","pricing_plan_id":"cebpf4jnsgd1na2vs0mg"},{"bike_id":"f2fca25f-e51e-4711-b7b3-1abcaa970adb","system_id":"levelo_inurba_marseille","lat":43.309625,"lon":5.390294,"is_reserved":false,"is_disabled":false,"rental_uris":{"android":"levelo://app?vid=f2fca25f-e51e-4711-b7b3-1abcaa970adb","ios":"levelo://app?vid=f2fca25f-e51e-4711-b7b3-1abcaa970adb"},"vehicle_type_id":"4","last_reported":1750781607,"current_range_meters":4000,"station_id":"ce4bgup2rcd13ifvqco0","pricing_plan_id":"cebpf4jnsgd1na2vs0mg"},{"bike_id":"27efcd01-3dee-437c-a2cf-fa15f6d170d5","system_id":"levelo_inurba_marseille","lat":43.307975,"lon":5.435286,"is_reserved":false,"is_disabled":false,"rental_uris":{"android":"levelo://app?vid=27efcd01-3dee-437c-a2cf-fa15f6d170d5","ios":"levelo://app?vid=27efcd01-3dee-437c-a2cf-fa15f6d170d5"},"vehicle_type_id":"4","last_reported":1750781607,"current_range_meters":4000,"station_id":"ce4bhph2rcd13ifvqheg","pricing_plan_id":"cebpf4jnsgd1na2vs0mg"},{"bike_id":"c427f874-5269-4b18-8185-7f3609f85fe2","system_id":"levelo_inurba_marseille","lat":43.31753,"lon":5.3902,"is_reserved":false,"is_disabled":false,"rental_uris":{"android":"levelo://app?vid=c427f874-5269-4b18-8185-7f3609f85fe2","ios":"levelo://app?vid=c427f874-5269-4b18-8185-7f3609f85fe2"},"vehicle_type_id":"4","last_reported":1750781607,"current_range_meters":4000,"station_id":"ce4bhqp2rcd13ifvqhng","pricing_plan_id":"cebpf4jnsgd1na2vs0mg"},{"bike_id":"c0ab2f9b-999d-4c2e-9485-8fe5797d384d","system_id":"levelo_inurba_marseille","lat":43.29631,"lon":5.40597,"is_reserved":false,"is_disabled":false,"rental_uris":{"android":"levelo://app?vid=c0ab2f9b-999d-4c2e-9485-8fe5797d384d","ios":"levelo://app?vid=c0ab2f9b-999d-4c2e-9485-8fe5797d384d"},"vehicle_type_id":"4","last_reported":1750781607,"current_range_meters":4400,"station_id":"ce4bh0h2rcd13ifvqd60","pricing_plan_id":"cebpf4jnsgd1na2vs0mg"},{"bike_id":"d86a7b07-3b84-400d-bc9f-f2c9412a5abf","system_id":"levelo_inurba_marseille","lat":43.24804,"lon":5.37461,"is_reserved":false,"is_disabled":false,"rental_uris":{"android":"levelo://app?vid=d86a7b07-3b84-400d-bc9f-f2c9412a5abf","ios":"levelo://app?vid=d86a7b07-3b84-400d-bc9f-f2c9412a5abf"},"vehicle_type_id":"4","last_reported":1750781607,"current_range_meters":4400,"station_id":"ce4bhgh2rcd13ifvqfb0","pricing_plan_id":"cebpf4jnsgd1na2vs0mg"},{"bike_id":"f2bbcf0f-41d9-4646-b640-b64bb40804a8","system_id":"levelo_inurba_marseille","lat":43.27469,"lon":5.42486,"is_reserved":false,"is_disabled":false,"rental_uris":{"android":"levelo://app?vid=f2bbcf0f-41d9-4646-b640-b64bb40804a8","ios":"levelo://app?vid=f2bbcf0f-41d9-4646-b640-b64bb40804a8"},"vehicle_type_id":"4","last_reported":1750781607,"current_range_meters":4400,"station_id":"ce4bhn92rcd13ifvqgrg","pricing_plan_id":"cebpf4jnsgd1na2vs0mg"},{"bike_id":"f267f07c-63a7-4980-b028-7ea1db7b85d4","system_id":"levelo_inurba_marseille","lat":43.24169,"lon":5.36393,"is_reserved":false,"is_disabled":false,"rental_uris":{"android":"levelo://app?vid=f267f07c-63a7-4980-b028-7ea1db7b85d4","ios":"levelo://app?vid=f267f07c-63a7-4980-b028-7ea1db7b85d4"},"vehicle_type_id":"4","last_reported":1750781607,"current_range_meters":4400,"station_id":"cpo36qri1sfpv3e86is0","pricing_plan_id":"cebpf4jnsgd1na2vs0mg"},{"bike_id":"17d0afaa-6951-4dde-a43d-60017e75021c","system_id":"levelo_inurba_marseille","lat":43.291681,"lon":5.421175,"is_reserved":false,"is_disabled":false,"rental_uris":{"android":"levelo://app?vid=17d0afaa-6951-4dde-a43d-60017e75021c","ios":"levelo://app?vid=17d0afaa-6951-4dde-a43d-60017e75021c"},"vehicle_type_id":"4","last_reported":1750781607,"current_range_meters":4800,"station_id":"","pricing_plan_id":"cebpf4jnsgd1na2vs0mg"},{"bike_id":"6629f345-22ae-4907-a156-6b31536397b0","system_id":"levelo_inurba_marseille","lat":43.2953,"lon":5.38541,"is_reserved":false,"is_disabled":false,"rental_uris":{"android":"levelo://app?vid=6629f345-22ae-4907-a156-6b31536397b0","ios":"levelo://app?vid=6629f345-22ae-4907-a156-6b31536397b0"},"vehicle_type_id":"4","last_reported":1750781607,"current_range_meters":4800,"station_id":"ce4bgih2rcd13ifvqba0","pricing_plan_id":"cebpf4jnsgd1na2vs0mg"},{"bike_id":"ad53e4a5-77a5-4df9-869b-10f441160301","system_id":"levelo_inurba_marseille","lat":43.26563,"lon":5.37289,"is_reserved":false,"is_disabled":false,"rental_uris":{"android":"levelo://app?vid=ad53e4a5-77a5-4df9-869b-10f441160301","ios":"levelo://app?vid=ad53e4a5-77a5-4df9-869b-10f441160301"},"vehicle_type_id":"4","last_reported":1750781607,"current_range_meters":4800,"station_id":"ce4bhg12rcd13ifvqf70","pricing_plan_id":"cebpf4jnsgd1na2vs0mg"},{"bike_id":"d647d82e-58fb-4efa-913b-7b5c87759cda","system_id":"levelo_inurba_marseille","lat":43.27019,"lon":5.39845,"is_reserved":false,"is_disabled":false,"rental_uris":{"android":"levelo://app?vid=d647d82e-58fb-4efa-913b-7b5c87759cda","ios":"levelo://app?vid=d647d82e-58fb-4efa-913b-7b5c87759cda"},"vehicle_type_id":"4","last_reported":1750781607,"current_range_meters":5600,"station_id":"","pricing_plan_id":"cebpf4jnsgd1na2vs0mg"},{"bike_id":"bc81ac91-98d0-49d9-adf0-16b649c79fb9","system_id":"levelo_inurba_marseille","lat":43.282668,"lon":5.350421,"is_reserved":false,"is_disabled":false,"rental_uris":{"android":"levelo://app?vid=bc81ac91-98d0-49d9-adf0-16b649c79fb9","ios":"levelo://app?vid=bc81ac91-98d0-49d9-adf0-16b649c79fb9"},"vehicle_type_id":"4","last_reported":1750781607,"current_range_meters":5600,"station_id":"ce4bhbp2rcd13ifvqerg","pricing_plan_id":"cebpf4jnsgd1na2vs0mg"},{"bike_id":"70764641-799a-4261-99bd-903918c1b74a","system_id":"levelo_inurba_marseille","lat":43.32914,"lon":5.38393,"is_reserved":false,"is_disabled":false,"rental_uris":{"android":"levelo://app?vid=70764641-799a-4261-99bd-903918c1b74a","ios":"levelo://app?vid=70764641-799a-4261-99bd-903918c1b74a"},"vehicle_type_id":"4","last_reported":1750781607,"current_range_meters":6400,"station_id":"","pricing_plan_id":"cebpf4jnsgd1na2vs0mg"},{"bike_id":"39556b21-077a-48cc-b8de-87c1fea7edf6","system_id":"levelo_inurba_marseille","lat":43.2738,"lon":5.3626,"is_reserved":false,"is_disabled":false,"rental_uris":{"android":"levelo://app?vid=39556b21-077a-48cc-b8de-87c1fea7edf6","ios":"levelo://app?vid=39556b21-077a-48cc-b8de-87c1fea7edf6"},"vehicle_type_id":"4","last_reported":1750781607,"current_range_meters":6400,"station_id":"ce4bhbh2rcd13ifvqeo0","pricing_plan_id":"cebpf4jnsgd1na2vs0mg"},{"bike_id":"00aae4c3-60f4-4566-b484-6d89ee2f222f","system_id":"levelo_inurba_marseille","lat":43.32103,"lon":5.36791,"is_reserved":false,"is_disabled":false,"rental_uris":{"android":"levelo://app?vid=00aae4c3-60f4-4566-b484-6d89ee2f222f","ios":"levelo://app?vid=00aae4c3-60f4-4566-b484-6d89ee2f222f"},"vehicle_type_id":"4","last_reported":1750781607,"current_range_meters":6400,"station_id":"ce4bhrh2rcd13ifvqhug","pricing_plan_id":"cebpf4jnsgd1na2vs0mg"},{"bike_id":"46cb6dc2-69b2-4ba3-beab-124acc7bb6ea","system_id":"levelo_inurba_marseille","lat":43.28692,"lon":5.37383,"is_reserved":false,"is_disabled":false,"rental_uris":{"android":"levelo://app?vid=46cb6dc2-69b2-4ba3-beab-124acc7bb6ea","ios":"levelo://app?vid=46cb6dc2-69b2-4ba3-beab-124acc7bb6ea"},"vehicle_type_id":"4","last_reported":1750781607,"current_range_meters":6800,"station_id":"ce4bh3p2rcd13ifvqdq0","pricing_plan_id":"cebpf4jnsgd1na2vs0mg"},{"bike_id":"d18a7e96-908e-4e38-b42f-cad28000d307","system_id":"levelo_inurba_marseille","lat":43.28408,"lon":5.34981,"is_reserved":false,"is_disabled":false,"rental_uris":{"android":"levelo://app?vid=d18a7e96-908e-4e38-b42f-cad28000d307","ios":"levelo://app?vid=d18a7e96-908e-4e38-b42f-cad28000d307"},"vehicle_type_id":"4","last_reported":1750781607,"current_range_meters":6800,"station_id":"ce4bhbh2rcd13ifvqepg","pricing_plan_id":"cebpf4jnsgd1na2vs0mg"},{"bike_id":"d6ead8b6-4929-48ef-9adf-e3a73589a955","system_id":"levelo_inurba_marseille","lat":43.28266,"lon":5.35059,"is_reserved":false,"is_disabled":false,"rental_uris":{"android":"levelo://app?vid=d6ead8b6-4929-48ef-9adf-e3a73589a955","ios":"levelo://app?vid=d6ead8b6-4929-48ef-9adf-e3a73589a955"},"vehicle_type_id":"4","last_reported":1750781607,"current_range_meters":6800,"station_id":"ce4bhbp2rcd13ifvqerg","pricing_plan_id":"cebpf4jnsgd1na2vs0mg"},{"bike_id":"825e08fa-44dc-4988-96df-7c84d7d073cd","system_id":"levelo_inurba_marseille","lat":43.26934,"lon":5.38939,"is_reserved":false,"is_disabled":false,"rental_uris":{"android":"levelo://app?vid=825e08fa-44dc-4988-96df-7c84d7d073cd","ios":"levelo://app?vid=825e08fa-44dc-4988-96df-7c84d7d073cd"},"vehicle_type_id":"4","last_reported":1750781607,"current_range_meters":6800,"station_id":"ce4bhhh2rcd13ifvqfl0","pricing_plan_id":"cebpf4jnsgd1na2vs0mg"},{"bike_id":"5dcac746-3037-4766-9aa2-58624a599488","system_id":"levelo_inurba_marseille","lat":43.27066,"lon":5.42284,"is_reserved":false,"is_disabled":false,"rental_uris":{"android":"levelo://app?vid=5dcac746-3037-4766-9aa2-58624a599488","ios":"levelo://app?vid=5dcac746-3037-4766-9aa2-58624a599488"},"vehicle_type_id":"4","last_reported":1750781607,"current_range_meters":6800,"station_id":"ce4bhk92rcd13ifvqgb0","pricing_plan_id":"cebpf4jnsgd1na2vs0mg"},{"bike_id":"7a6713e8-f385-48b4-b9c0-4bcdbfa3e195","system_id":"levelo_inurba_marseille","lat":43.3211,"lon":5.3677,"is_reserved":false,"is_disabled":false,"rental_uris":{"android":"levelo://app?vid=7a6713e8-f385-48b4-b9c0-4bcdbfa3e195","ios":"levelo://app?vid=7a6713e8-f385-48b4-b9c0-4bcdbfa3e195"},"vehicle_type_id":"4","last_reported":1750781607,"current_range_meters":6800,"station_id":"ce4bhrh2rcd13ifvqhug","pricing_plan_id":"cebpf4jnsgd1na2vs0mg"},{"bike_id":"0b6455cb-38cb-4edc-83aa-17ebe22a74f4","system_id":"levelo_inurba_marseille","lat":43.27379,"lon":5.36261,"is_reserved":false,"is_disabled":false,"rental_uris":{"android":"levelo://app?vid=0b6455cb-38cb-4edc-83aa-17ebe22a74f4","ios":"levelo://app?vid=0b6455cb-38cb-4edc-83aa-17ebe22a74f4"},"vehicle_type_id":"4","last_reported":1750781607,"current_range_meters":7200,"station_id":"ce4bhbh2rcd13ifvqeo0","pricing_plan_id":"cebpf4jnsgd1na2vs0mg"},{"bike_id":"6d57b83c-6879-4396-85e9-99e806e06fa5","system_id":"levelo_inurba_marseille","lat":43.284398,"lon":5.392078,"is_reserved":false,"is_disabled":false,"rental_uris":{"android":"levelo://app?vid=6d57b83c-6879-4396-85e9-99e806e06fa5","ios":"levelo://app?vid=6d57b83c-6879-4396-85e9-99e806e06fa5"},"vehicle_type_id":"4","last_reported":1750781607,"current_range_meters":7200,"station_id":"ce4bhoh2rcd13ifvqh5g","pricing_plan_id":"cebpf4jnsgd1na2vs0mg"},{"bike_id":"465d2323-f97d-48b0-a820-bc5fa54ae0fa","system_id":"levelo_inurba_marseille","lat":43.28385,"lon":5.45958,"is_reserved":false,"is_disabled":false,"rental_uris":{"android":"levelo://app?vid=465d2323-f97d-48b0-a820-bc5fa54ae0fa","ios":"levelo://app?vid=465d2323-f97d-48b0-a820-bc5fa54ae0fa"},"vehicle_type_id":"4","last_reported":1750781607,"current_range_meters":8000,"station_id":"","pricing_plan_id":"cebpf4jnsgd1na2vs0mg"},{"bike_id":"2091c533-1c5b-48ef-82ea-1e4ac125a16b","system_id":"levelo_inurba_marseille","lat":43.29603,"lon":5.38105,"is_reserved":false,"is_disabled":false,"rental_uris":{"android":"levelo://app?vid=2091c533-1c5b-48ef-82ea-1e4ac125a16b","ios":"levelo://app?vid=2091c533-1c5b-48ef-82ea-1e4ac125a16b"},"vehicle_type_id":"4","last_reported":1750781607,"current_range_meters":8000,"station_id":"ce4bgl12rcd13ifvqbo0","pricing_plan_id":"cebpf4jnsgd1na2vs0mg"},{"bike_id":"db213f9d-bb77-4064-a553-0071fbe669ff","system_id":"levelo_inurba_marseille","lat":43.26211,"lon":5.37434,"is_reserved":false,"is_disabled":false,"rental_uris":{"android":"levelo://app?vid=db213f9d-bb77-4064-a553-0071fbe669ff","ios":"levelo://app?vid=db213f9d-bb77-4064-a553-0071fbe669ff"},"vehicle_type_id":"4","last_reported":1750781607,"current_range_meters":8000,"station_id":"ce4bhgp2rcd13ifvqfc0","pricing_plan_id":"cebpf4jnsgd1na2vs0mg"},{"bike_id":"83575e54-4566-46ed-8324-1f3bfce69fcb","system_id":"levelo_inurba_marseille","lat":43.31769,"lon":5.38995,"is_reserved":false,"is_disabled":false,"rental_uris":{"android":"levelo://app?vid=83575e54-4566-46ed-8324-1f3bfce69fcb","ios":"levelo://app?vid=83575e54-4566-46ed-8324-1f3bfce69fcb"},"vehicle_type_id":"4","last_reported":1750781607,"current_range_meters":8000,"station_id":"ce4bhqp2rcd13ifvqhng","pricing_plan_id":"cebpf4jnsgd1na2vs0mg"},{"bike_id":"113b198a-6e1b-46eb-8e6f-7d0d14639408","system_id":"levelo_inurba_marseille","lat":43.287757,"lon":5.363706,"is_reserved":false,"is_disabled":false,"rental_uris":{"android":"levelo://app?vid=113b198a-6e1b-46eb-8e6f-7d0d14639408","ios":"levelo://app?vid=113b198a-6e1b-46eb-8e6f-7d0d14639408"},"vehicle_type_id":"4","last_reported":1750781607,"current_range_meters":8400,"station_id":"","pricing_plan_id":"cebpf4jnsgd1na2vs0mg"},{"bike_id":"39801bf9-8c62-4202-9633-d8744ccc34cd","system_id":"levelo_inurba_marseille","lat":43.28099,"lon":5.37841,"is_reserved":false,"is_disabled":false,"rental_uris":{"android":"levelo://app?vid=39801bf9-8c62-4202-9633-d8744ccc34cd","ios":"levelo://app?vid=39801bf9-8c62-4202-9633-d8744ccc34cd"},"vehicle_type_id":"4","last_reported":1750781607,"current_range_meters":8400,"station_id":"ce4bha12rcd13ifvqee0","pricing_plan_id":"cebpf4jnsgd1na2vs0mg"},{"bike_id":"588a5867-9970-4e05-8294-dd4e9469e6e5","system_id":"levelo_inurba_marseille","lat":43.26552,"lon":5.37276,"is_reserved":false,"is_disabled":false,"rental_uris":{"android":"levelo://app?vid=588a5867-9970-4e05-8294-dd4e9469e6e5","ios":"levelo://app?vid=588a5867-9970-4e05-8294-dd4e9469e6e5"},"vehicle_type_id":"4","last_reported":1750781607,"current_range_meters":8400,"station_id":"ce4bhg12rcd13ifvqf70","pricing_plan_id":"cebpf4jnsgd1na2vs0mg"},{"bike_id":"8b964ade-b36e-4afc-b646-3414d72ed7fb","system_id":"levelo_inurba_marseille","lat":43.31717,"lon":5.42397,"is_reserved":false,"is_disabled":false,"rental_uris":{"android":"levelo://app?vid=8b964ade-b36e-4afc-b646-3414d72ed7fb","ios":"levelo://app?vid=8b964ade-b36e-4afc-b646-3414d72ed7fb"},"vehicle_type_id":"4","last_reported":1750781607,"current_range_meters":8400,"station_id":"ce4bhp92rcd13ifvqhbg","pricing_plan_id":"cebpf4jnsgd1na2vs0mg"},{"bike_id":"a092c41c-0118-4d86-b43e-981a2615e33e","system_id":"levelo_inurba_marseille","lat":43.3469,"lon":5.34538,"is_reserved":false,"is_disabled":false,"rental_uris":{"android":"levelo://app?vid=a092c41c-0118-4d86-b43e-981a2615e33e","ios":"levelo://app?vid=a092c41c-0118-4d86-b43e-981a2615e33e"},"vehicle_type_id":"4","last_reported":1750781607,"current_range_meters":8800,"station_id":"","pricing_plan_id":"cebpf4jnsgd1na2vs0mg"},{"bike_id":"234e0a22-f939-4bc7-b32c-1a974afb99c3","system_id":"levelo_inurba_marseille","lat":43.281846,"lon":5.351118,"is_reserved":false,"is_disabled":false,"rental_uris":{"android":"levelo://app?vid=234e0a22-f939-4bc7-b32c-1a974afb99c3","ios":"levelo://app?vid=234e0a22-f939-4bc7-b32c-1a974afb99c3"},"vehicle_type_id":"4","last_reported":1750781607,"current_range_meters":8800,"station_id":"ce4bgih2rcd13ifvqba0","pricing_plan_id":"cebpf4jnsgd1na2vs0mg"},{"bike_id":"509d2ecd-8e99-42ce-9f66-1fb51d1a4957","system_id":"levelo_inurba_marseille","lat":43.297826,"lon":5.39336,"is_reserved":false,"is_disabled":false,"rental_uris":{"android":"levelo://app?vid=509d2ecd-8e99-42ce-9f66-1fb51d1a4957","ios":"levelo://app?vid=509d2ecd-8e99-42ce-9f66-1fb51d1a4957"},"vehicle_type_id":"4","last_reported":1750781607,"current_range_meters":8800,"station_id":"chh1huq6cuj3fo74tm60","pricing_plan_id":"cebpf4jnsgd1na2vs0mg"},{"bike_id":"06c97ece-9be7-4345-b72a-aea6486b7724","system_id":"levelo_inurba_marseille","lat":43.21751,"lon":5.34606,"is_reserved":false,"is_disabled":false,"rental_uris":{"android":"levelo://app?vid=06c97ece-9be7-4345-b72a-aea6486b7724","ios":"levelo://app?vid=06c97ece-9be7-4345-b72a-aea6486b7724"},"vehicle_type_id":"4","last_reported":1750781607,"current_range_meters":8800,"station_id":"st_cvj6r9ubvosntc0bgbag","pricing_plan_id":"cebpf4jnsgd1na2vs0mg"},{"bike_id":"f333bcb3-17e0-43f1-847f-eb3d745e3e41","system_id":"levelo_inurba_marseille","lat":43.29366,"lon":5.42811,"is_reserved":false,"is_disabled":false,"rental_uris":{"android":"levelo://app?vid=f333bcb3-17e0-43f1-847f-eb3d745e3e41","ios":"levelo://app?vid=f333bcb3-17e0-43f1-847f-eb3d745e3e41"},"vehicle_type_id":"4","last_reported":1750781607,"current_range_meters":9200,"station_id":"","pricing_plan_id":"cebpf4jnsgd1na2vs0mg"},{"bike_id":"e127ef7e-24d3-4248-81fa-66c5e7c3e582","system_id":"levelo_inurba_marseille","lat":43.29634,"lon":5.37924,"is_reserved":false,"is_disabled":false,"rental_uris":{"android":"levelo://app?vid=e127ef7e-24d3-4248-81fa-66c5e7c3e582","ios":"levelo://app?vid=e127ef7e-24d3-4248-81fa-66c5e7c3e582"},"vehicle_type_id":"4","last_reported":1750781607,"current_range_meters":9200,"station_id":"","pricing_plan_id":"cebpf4jnsgd1na2vs0mg"},{"bike_id":"81edcc8a-4842-4cb2-b13b-c038d2a96032","system_id":"levelo_inurba_marseille","lat":43.27374,"lon":5.36257,"is_reserved":false,"is_disabled":false,"rental_uris":{"android":"levelo://app?vid=81edcc8a-4842-4cb2-b13b-c038d2a96032","ios":"levelo://app?vid=81edcc8a-4842-4cb2-b13b-c038d2a96032"},"vehicle_type_id":"4","last_reported":1750781607,"current_range_meters":9200,"station_id":"ce4bhbh2rcd13ifvqeo0","pricing_plan_id":"cebpf4jnsgd1na2vs0mg"},{"bike_id":"7546351f-6883-464b-a6b6-e7ae6ac0ce99","system_id":"levelo_inurba_marseille","lat":43.28156,"lon":5.42649,"is_reserved":false,"is_disabled":false,"rental_uris":{"android":"levelo://app?vid=7546351f-6883-464b-a6b6-e7ae6ac0ce99","ios":"levelo://app?vid=7546351f-6883-464b-a6b6-e7ae6ac0ce99"},"vehicle_type_id":"4","last_reported":1750781607,"current_range_meters":9200,"station_id":"ce4bhnh2rcd13ifvqgug","pricing_plan_id":"cebpf4jnsgd1na2vs0mg"},{"bike_id":"3bf3fd8a-1cc2-402d-b7ad-7c87ae17ad03","system_id":"levelo_inurba_marseille","lat":43.22926,"lon":5.35377,"is_reserved":false,"is_disabled":false,"rental_uris":{"android":"levelo://app?vid=3bf3fd8a-1cc2-402d-b7ad-7c87ae17ad03","ios":"levelo://app?vid=3bf3fd8a-1cc2-402d-b7ad-7c87ae17ad03"},"vehicle_type_id":"4","last_reported":1750781607,"current_range_meters":9200,"station_id":"cpo3532slgdg3j2ikp40","pricing_plan_id":"cebpf4jnsgd1na2vs0mg"},{"bike_id":"1a5e6da0-f0b0-4546-a2bf-205777cb24be","system_id":"levelo_inurba_marseille","lat":43.26472,"lon":5.37368,"is_reserved":false,"is_disabled":false,"rental_uris":{"android":"levelo://app?vid=1a5e6da0-f0b0-4546-a2bf-205777cb24be","ios":"levelo://app?vid=1a5e6da0-f0b0-4546-a2bf-205777cb24be"},"vehicle_type_id":"4","last_reported":1750781607,"current_range_meters":9600,"station_id":"","pricing_plan_id":"cebpf4jnsgd1na2vs0mg"},{"bike_id":"cada33e7-7feb-4285-bb16-b2e63d63815b","system_id":"levelo_inurba_marseille","lat":43.23677,"lon":5.39157,"is_reserved":false,"is_disabled":false,"rental_uris":{"android":"levelo://app?vid=cada33e7-7feb-4285-bb16-b2e63d63815b","ios":"levelo://app?vid=cada33e7-7feb-4285-bb16-b2e63d63815b"},"vehicle_type_id":"4","last_reported":1750781607,"current_range_meters":9600,"station_id":"","pricing_plan_id":"cebpf4jnsgd1na2vs0mg"},{"bike_id":"670cee9c-d906-4341-8e8f-68f64cc5dda3","system_id":"levelo_inurba_marseille","lat":43.31118,"lon":5.37776,"is_reserved":false,"is_disabled":false,"rental_uris":{"android":"levelo://app?vid=670cee9c-d906-4341-8e8f-68f64cc5dda3","ios":"levelo://app?vid=670cee9c-d906-4341-8e8f-68f64cc5dda3"},"vehicle_type_id":"4","last_reported":1750781607,"current_range_meters":9600,"station_id":"ce4bgt92rcd13ifvqcg0","pricing_plan_id":"cebpf4jnsgd1na2vs0mg"},{"bike_id":"88dca514-59f2-4dd4-a486-148ada720e05","system_id":"levelo_inurba_marseille","lat":43.2468,"lon":5.38159,"is_reserved":false,"is_disabled":false,"rental_uris":{"android":"levelo://app?vid=88dca514-59f2-4dd4-a486-148ada720e05","ios":"levelo://app?vid=88dca514-59f2-4dd4-a486-148ada720e05"},"vehicle_type_id":"4","last_reported":1750781607,"current_range_meters":9600,"station_id":"ce4bhih2rcd13ifvqfr0","pricing_plan_id":"cebpf4jnsgd1na2vs0mg"},{"bike_id":"f771bec9-0ce9-44dc-9afb-7b7386d82b11","system_id":"levelo_inurba_marseille","lat":43.24167,"lon":5.36394,"is_reserved":false,"is_disabled":false,"rental_uris":{"android":"levelo://app?vid=f771bec9-0ce9-44dc-9afb-7b7386d82b11","ios":"levelo://app?vid=f771bec9-0ce9-44dc-9afb-7b7386d82b11"},"vehicle_type_id":"4","last_reported":1750781607,"current_range_meters":9600,"station_id":"cpo36qri1sfpv3e86is0","pricing_plan_id":"cebpf4jnsgd1na2vs0mg"},{"bike_id":"4b041765-7aec-4449-a719-20564da15ef1","system_id":"levelo_inurba_marseille","lat":43.26225,"lon":5.37441,"is_reserved":false,"is_disabled":false,"rental_uris":{"android":"levelo://app?vid=4b041765-7aec-4449-a719-20564da15ef1","ios":"levelo://app?vid=4b041765-7aec-4449-a719-20564da15ef1"},"vehicle_type_id":"4","last_reported":1750781607,"current_range_meters":10000,"station_id":"","pricing_plan_id":"cebpf4jnsgd1na2vs0mg"},{"bike_id":"82daa609-66e4-4b91-8a1c-a20f4b557675","system_id":"levelo_inurba_marseille","lat":43.30336,"lon":5.36691,"is_reserved":false,"is_disabled":false,"rental_uris":{"android":"levelo://app?vid=82daa609-66e4-4b91-8a1c-a20f4b557675","ios":"levelo://app?vid=82daa609-66e4-4b91-8a1c-a20f4b557675"},"vehicle_type_id":"4","last_reported":1750781607,"current_range_meters":10000,"station_id":"","pricing_plan_id":"cebpf4jnsgd1na2vs0mg"},{"bike_id":"872aaf1a-4388-48a3-abec-2e412a973175","system_id":"levelo_inurba_marseille","lat":43.309509,"lon":5.390254,"is_reserved":false,"is_disabled":false,"rental_uris":{"android":"levelo://app?vid=872aaf1a-4388-48a3-abec-2e412a973175","ios":"levelo://app?vid=872aaf1a-4388-48a3-abec-2e412a973175"},"vehicle_type_id":"4","last_reported":1750781607,"current_range_meters":10000,"station_id":"ce4bgup2rcd13ifvqco0","pricing_plan_id":"cebpf4jnsgd1na2vs0mg"},{"bike_id":"29210238-dfea-4a30-bf93-fb55d62ea08b","system_id":"levelo_inurba_marseille","lat":43.28171,"lon":5.42642,"is_reserved":false,"is_disabled":false,"rental_uris":{"android":"levelo://app?vid=29210238-dfea-4a30-bf93-fb55d62ea08b","ios":"levelo://app?vid=29210238-dfea-4a30-bf93-fb55d62ea08b"},"vehicle_type_id":"4","last_reported":1750781607,"current_range_meters":10000,"station_id":"ce4bhnh2rcd13ifvqgug","pricing_plan_id":"cebpf4jnsgd1na2vs0mg"},{"bike_id":"86815ee4-ce67-40f6-a6af-db62319defa2","system_id":"levelo_inurba_marseille","lat":43.27946,"lon":5.410443,"is_reserved":false,"is_disabled":false,"rental_uris":{"android":"levelo://app?vid=86815ee4-ce67-40f6-a6af-db62319defa2","ios":"levelo://app?vid=86815ee4-ce67-40f6-a6af-db62319defa2"},"vehicle_type_id":"4","last_reported":1750781607,"current_range_meters":10000,"station_id":"ce4bhnp2rcd13ifvqh0g","pricing_plan_id":"cebpf4jnsgd1na2vs0mg"},{"bike_id":"20ee7690-aced-4e48-9e5e-0d7fdfa26dae","system_id":"levelo_inurba_marseille","lat":43.33719,"lon":5.39203,"is_reserved":false,"is_disabled":false,"rental_uris":{"android":"levelo://app?vid=20ee7690-aced-4e48-9e5e-0d7fdfa26dae","ios":"levelo://app?vid=20ee7690-aced-4e48-9e5e-0d7fdfa26dae"},"vehicle_type_id":"4","last_reported":1750781607,"current_range_meters":10000,"station_id":"ce4bhr92rcd13ifvqhsg","pricing_plan_id":"cebpf4jnsgd1na2vs0mg"},{"bike_id":"51dcb3e1-2b07-4a2e-9a2b-e4ec75156f6c","system_id":"levelo_inurba_marseille","lat":43.22934,"lon":5.35378,"is_reserved":false,"is_disabled":false,"rental_uris":{"android":"levelo://app?vid=51dcb3e1-2b07-4a2e-9a2b-e4ec75156f6c","ios":"levelo://app?vid=51dcb3e1-2b07-4a2e-9a2b-e4ec75156f6c"},"vehicle_type_id":"4","last_reported":1750781607,"current_range_meters":10000,"station_id":"cpo3532slgdg3j2ikp40","pricing_plan_id":"cebpf4jnsgd1na2vs0mg"},{"bike_id":"0e3b387e-2a07-4e64-903a-2a5022929331","system_id":"levelo_inurba_marseille","lat":43.24811,"lon":5.3746,"is_reserved":false,"is_disabled":false,"rental_uris":{"android":"levelo://app?vid=0e3b387e-2a07-4e64-903a-2a5022929331","ios":"levelo://app?vid=0e3b387e-2a07-4e64-903a-2a5022929331"},"vehicle_type_id":"4","last_reported":1750781607,"current_range_meters":10800,"station_id":"ce4bhgh2rcd13ifvqfb0","pricing_plan_id":"cebpf4jnsgd1na2vs0mg"},{"bike_id":"c940cda6-f203-4a99-88c0-6637ff62e74b","system_id":"levelo_inurba_marseille","lat":43.2738,"lon":5.36255,"is_reserved":false,"is_disabled":false,"rental_uris":{"android":"levelo://app?vid=c940cda6-f203-4a99-88c0-6637ff62e74b","ios":"levelo://app?vid=c940cda6-f203-4a99-88c0-6637ff62e74b"},"vehicle_type_id":"4","last_reported":1750781607,"current_range_meters":11200,"station_id":"ce4bhbh2rcd13ifvqeo0","pricing_plan_id":"cebpf4jnsgd1na2vs0mg"},{"bike_id":"1ba1d0ff-df6c-4f08-b638-086ce9658873","system_id":"levelo_inurba_marseille","lat":43.28272,"lon":5.35055,"is_reserved":false,"is_disabled":false,"rental_uris":{"android":"levelo://app?vid=1ba1d0ff-df6c-4f08-b638-086ce9658873","ios":"levelo://app?vid=1ba1d0ff-df6c-4f08-b638-086ce9658873"},"vehicle_type_id":"4","last_reported":1750781607,"current_range_meters":11200,"station_id":"ce4bhbp2rcd13ifvqerg","pricing_plan_id":"cebpf4jnsgd1na2vs0mg"},{"bike_id":"303463e7-616a-47e4-a24a-7c62a17d4b2f","system_id":"levelo_inurba_marseille","lat":43.28615,"lon":5.35107,"is_reserved":false,"is_disabled":false,"rental_uris":{"android":"levelo://app?vid=303463e7-616a-47e4-a24a-7c62a17d4b2f","ios":"levelo://app?vid=303463e7-616a-47e4-a24a-7c62a17d4b2f"},"vehicle_type_id":"4","last_reported":1750781607,"current_range_meters":11200,"station_id":"ce4bhch2rcd13ifvqeug","pricing_plan_id":"cebpf4jnsgd1na2vs0mg"},{"bike_id":"d3b4acd1-475d-43e1-bb04-3b5b22c96457","system_id":"levelo_inurba_marseille","lat":43.29905,"lon":5.43671,"is_reserved":false,"is_disabled":false,"rental_uris":{"android":"levelo://app?vid=d3b4acd1-475d-43e1-bb04-3b5b22c96457","ios":"levelo://app?vid=d3b4acd1-475d-43e1-bb04-3b5b22c96457"},"vehicle_type_id":"4","last_reported":1750781607,"current_range_meters":11200,"station_id":"ce4bhpp2rcd13ifvqhfg","pricing_plan_id":"cebpf4jnsgd1na2vs0mg"},{"bike_id":"9b735d07-4646-46eb-bdad-812a45143dbe","system_id":"levelo_inurba_marseille","lat":43.28463,"lon":5.35892,"is_reserved":false,"is_disabled":false,"rental_uris":{"android":"levelo://app?vid=9b735d07-4646-46eb-bdad-812a45143dbe","ios":"levelo://app?vid=9b735d07-4646-46eb-bdad-812a45143dbe"},"vehicle_type_id":"4","last_reported":1750781607,"current_range_meters":11600,"station_id":"ce4bhah2rcd13ifvqei0","pricing_plan_id":"cebpf4jnsgd1na2vs0mg"},{"bike_id":"095eabd1-5dcf-4106-9219-bdac4470d970","system_id":"levelo_inurba_marseille","lat":43.32852,"lon":5.4338,"is_reserved":false,"is_disabled":false,"rental_uris":{"android":"levelo://app?vid=095eabd1-5dcf-4106-9219-bdac4470d970","ios":"levelo://app?vid=095eabd1-5dcf-4106-9219-bdac4470d970"},"vehicle_type_id":"4","last_reported":1750781607,"current_range_meters":12000,"station_id":"","pricing_plan_id":"cebpf4jnsgd1na2vs0mg"},{"bike_id":"e12d25ad-6a34-4f7d-a8b9-169850127fad","system_id":"levelo_inurba_marseille","lat":43.32697,"lon":5.40285,"is_reserved":false,"is_disabled":false,"rental_uris":{"android":"levelo://app?vid=e12d25ad-6a34-4f7d-a8b9-169850127fad","ios":"levelo://app?vid=e12d25ad-6a34-4f7d-a8b9-169850127fad"},"vehicle_type_id":"4","last_reported":1750781607,"current_range_meters":12000,"station_id":"","pricing_plan_id":"cebpf4jnsgd1na2vs0mg"},{"bike_id":"ea58c5af-7e24-472a-9042-4626112e91cb","system_id":"levelo_inurba_marseille","lat":43.291979,"lon":5.358054,"is_reserved":false,"is_disabled":false,"rental_uris":{"android":"levelo://app?vid=ea58c5af-7e24-472a-9042-4626112e91cb","ios":"levelo://app?vid=ea58c5af-7e24-472a-9042-4626112e91cb"},"vehicle_type_id":"4","last_reported":1750781607,"current_range_meters":12000,"station_id":"","pricing_plan_id":"cebpf4jnsgd1na2vs0mg"},{"bike_id":"69e46773-ffc1-4a6a-865d-714f57d7e26c","system_id":"levelo_inurba_marseille","lat":43.29598,"lon":5.38102,"is_reserved":false,"is_disabled":false,"rental_uris":{"android":"levelo://app?vid=69e46773-ffc1-4a6a-865d-714f57d7e26c","ios":"levelo://app?vid=69e46773-ffc1-4a6a-865d-714f57d7e26c"},"vehicle_type_id":"4","last_reported":1750781607,"current_range_meters":12000,"station_id":"ce4bgl12rcd13ifvqbo0","pricing_plan_id":"cebpf4jnsgd1na2vs0mg"},{"bike_id":"487010c5-476e-4cc4-b00e-a67aaf62af25","system_id":"levelo_inurba_marseille","lat":43.28853,"lon":5.35845,"is_reserved":false,"is_disabled":false,"rental_uris":{"android":"levelo://app?vid=487010c5-476e-4cc4-b00e-a67aaf62af25","ios":"levelo://app?vid=487010c5-476e-4cc4-b00e-a67aaf62af25"},"vehicle_type_id":"4","last_reported":1750781607,"current_range_meters":12000,"station_id":"ce4bhb12rcd13ifvqem0","pricing_plan_id":"cebpf4jnsgd1na2vs0mg"},{"bike_id":"089679ba-c6f1-4155-965d-2a1d031ea014","system_id":"levelo_inurba_marseille","lat":43.26559,"lon":5.39016,"is_reserved":false,"is_disabled":false,"rental_uris":{"android":"levelo://app?vid=089679ba-c6f1-4155-965d-2a1d031ea014","ios":"levelo://app?vid=089679ba-c6f1-4155-965d-2a1d031ea014"},"vehicle_type_id":"4","last_reported":1750781607,"current_range_meters":12000,"station_id":"ce4bhe12rcd13ifvqf30","pricing_plan_id":"cebpf4jnsgd1na2vs0mg"},{"bike_id":"a23f790a-1a5e-4e66-b1ab-8996a6723a62","system_id":"levelo_inurba_marseille","lat":43.24657,"lon":5.38922,"is_reserved":false,"is_disabled":false,"rental_uris":{"android":"levelo://app?vid=a23f790a-1a5e-4e66-b1ab-8996a6723a62","ios":"levelo://app?vid=a23f790a-1a5e-4e66-b1ab-8996a6723a62"},"vehicle_type_id":"4","last_reported":1750781607,"current_range_meters":12000,"station_id":"ce4bhg12rcd13ifvqf60","pricing_plan_id":"cebpf4jnsgd1na2vs0mg"},{"bike_id":"268ce4ce-10f6-4bb9-aee5-af2050583b6b","system_id":"levelo_inurba_marseille","lat":43.26198,"lon":5.37446,"is_reserved":false,"is_disabled":false,"rental_uris":{"android":"levelo://app?vid=268ce4ce-10f6-4bb9-aee5-af2050583b6b","ios":"levelo://app?vid=268ce4ce-10f6-4bb9-aee5-af2050583b6b"},"vehicle_type_id":"4","last_reported":1750781607,"current_range_meters":12000,"station_id":"ce4bhgp2rcd13ifvqfc0","pricing_plan_id":"cebpf4jnsgd1na2vs0mg"},{"bike_id":"54ca08c1-b405-40c2-88f1-cd9dfff4160c","system_id":"levelo_inurba_marseille","lat":43.23963,"lon":5.36632,"is_reserved":false,"is_disabled":false,"rental_uris":{"android":"levelo://app?vid=54ca08c1-b405-40c2-88f1-cd9dfff4160c","ios":"levelo://app?vid=54ca08c1-b405-40c2-88f1-cd9dfff4160c"},"vehicle_type_id":"4","last_reported":1750781607,"current_range_meters":12000,"station_id":"ce4bhi12rcd13ifvqfp0","pricing_plan_id":"cebpf4jnsgd1na2vs0mg"},{"bike_id":"8938d490-aa49-441c-b050-038f154e84f9","system_id":"levelo_inurba_marseille","lat":43.31767,"lon":5.39005,"is_reserved":false,"is_disabled":false,"rental_uris":{"android":"levelo://app?vid=8938d490-aa49-441c-b050-038f154e84f9","ios":"levelo://app?vid=8938d490-aa49-441c-b050-038f154e84f9"},"vehicle_type_id":"4","last_reported":1750781607,"current_range_meters":12000,"station_id":"ce4bhqp2rcd13ifvqhng","pricing_plan_id":"cebpf4jnsgd1na2vs0mg"},{"bike_id":"b6b861fa-fd27-43ad-89fb-4be1a264be92","system_id":"levelo_inurba_marseille","lat":43.25307,"lon":5.37497,"is_reserved":false,"is_disabled":false,"rental_uris":{"android":"levelo://app?vid=b6b861fa-fd27-43ad-89fb-4be1a264be92","ios":"levelo://app?vid=b6b861fa-fd27-43ad-89fb-4be1a264be92"},"vehicle_type_id":"4","last_reported":1750781607,"current_range_meters":12400,"station_id":"","pricing_plan_id":"cebpf4jnsgd1na2vs0mg"},{"bike_id":"3e0f5345-cfae-479a-9b41-9237c8726756","system_id":"levelo_inurba_marseille","lat":43.29682,"lon":5.36331,"is_reserved":false,"is_disabled":false,"rental_uris":{"android":"levelo://app?vid=3e0f5345-cfae-479a-9b41-9237c8726756","ios":"levelo://app?vid=3e0f5345-cfae-479a-9b41-9237c8726756"},"vehicle_type_id":"4","last_reported":1750781607,"current_range_meters":12400,"station_id":"","pricing_plan_id":"cebpf4jnsgd1na2vs0mg"},{"bike_id":"713709e7-7e48-4481-8b19-152a2ccba2e9","system_id":"levelo_inurba_marseille","lat":43.30799,"lon":5.43521,"is_reserved":false,"is_disabled":false,"rental_uris":{"android":"levelo://app?vid=713709e7-7e48-4481-8b19-152a2ccba2e9","ios":"levelo://app?vid=713709e7-7e48-4481-8b19-152a2ccba2e9"},"vehicle_type_id":"4","last_reported":1750781607,"current_range_meters":12400,"station_id":"ce4bhph2rcd13ifvqheg","pricing_plan_id":"cebpf4jnsgd1na2vs0mg"},{"bike_id":"7c3f6852-4f29-42a9-a8c1-e2b82bb43fcf","system_id":"levelo_inurba_marseille","lat":43.29264,"lon":5.42657,"is_reserved":false,"is_disabled":false,"rental_uris":{"android":"levelo://app?vid=7c3f6852-4f29-42a9-a8c1-e2b82bb43fcf","ios":"levelo://app?vid=7c3f6852-4f29-42a9-a8c1-e2b82bb43fcf"},"vehicle_type_id":"4","last_reported":1750781607,"current_range_meters":12800,"station_id":"","pricing_plan_id":"cebpf4jnsgd1na2vs0mg"},{"bike_id":"82c0051f-b10d-40e1-b983-476d0722413d","system_id":"levelo_inurba_marseille","lat":43.21765,"lon":5.34606,"is_reserved":false,"is_disabled":false,"rental_uris":{"android":"levelo://app?vid=82c0051f-b10d-40e1-b983-476d0722413d","ios":"levelo://app?vid=82c0051f-b10d-40e1-b983-476d0722413d"},"vehicle_type_id":"4","last_reported":1750781607,"current_range_meters":12800,"station_id":"st_cvj6r9ubvosntc0bgbag","pricing_plan_id":"cebpf4jnsgd1na2vs0mg"},{"bike_id":"46bda00e-ba7c-4f67-90b5-b48aacc45d38","system_id":"levelo_inurba_marseille","lat":43.30541,"lon":5.3841,"is_reserved":false,"is_disabled":false,"rental_uris":{"android":"levelo://app?vid=46bda00e-ba7c-4f67-90b5-b48aacc45d38","ios":"levelo://app?vid=46bda00e-ba7c-4f67-90b5-b48aacc45d38"},"vehicle_type_id":"4","last_reported":1750781607,"current_range_meters":13600,"station_id":"","pricing_plan_id":"cebpf4jnsgd1na2vs0mg"},{"bike_id":"11ebf4fb-e752-44af-81e3-7d28e8eee9cc","system_id":"levelo_inurba_marseille","lat":43.28107,"lon":5.43204,"is_reserved":false,"is_disabled":false,"rental_uris":{"android":"levelo://app?vid=11ebf4fb-e752-44af-81e3-7d28e8eee9cc","ios":"levelo://app?vid=11ebf4fb-e752-44af-81e3-7d28e8eee9cc"},"vehicle_type_id":"4","last_reported":1750781607,"current_range_meters":13600,"station_id":"","pricing_plan_id":"cebpf4jnsgd1na2vs0mg"},{"bike_id":"d73e9bbc-c090-470a-8032-f86234a90165","system_id":"levelo_inurba_marseille","lat":43.28906,"lon":5.36303,"is_reserved":false,"is_disabled":false,"rental_uris":{"android":"levelo://app?vid=d73e9bbc-c090-470a-8032-f86234a90165","ios":"levelo://app?vid=d73e9bbc-c090-470a-8032-f86234a90165"},"vehicle_type_id":"4","last_reported":1750781607,"current_range_meters":13600,"station_id":"","pricing_plan_id":"cebpf4jnsgd1na2vs0mg"},{"bike_id":"60b2f8ce-7b9b-440a-8317-eeab892dd82f","system_id":"levelo_inurba_marseille","lat":43.27606,"lon":5.36108,"is_reserved":false,"is_disabled":false,"rental_uris":{"android":"levelo://app?vid=60b2f8ce-7b9b-440a-8317-eeab892dd82f","ios":"levelo://app?vid=60b2f8ce-7b9b-440a-8317-eeab892dd82f"},"vehicle_type_id":"4","last_reported":1750781607,"current_range_meters":13600,"station_id":"ce4bgj92rcd13ifvqbe0","pricing_plan_id":"cebpf4jnsgd1na2vs0mg"},{"bike_id":"0497ca81-1d85-4069-ac79-24146d0dd5f0","system_id":"levelo_inurba_marseille","lat":43.28414,"lon":5.34989,"is_reserved":false,"is_disabled":false,"rental_uris":{"android":"levelo://app?vid=0497ca81-1d85-4069-ac79-24146d0dd5f0","ios":"levelo://app?vid=0497ca81-1d85-4069-ac79-24146d0dd5f0"},"vehicle_type_id":"4","last_reported":1750781607,"current_range_meters":13600,"station_id":"ce4bhbh2rcd13ifvqepg","pricing_plan_id":"cebpf4jnsgd1na2vs0mg"},{"bike_id":"a1f29b14-dc91-4a0d-8142-aa8ed1b7f8a4","system_id":"levelo_inurba_marseille","lat":43.28407,"lon":5.34985,"is_reserved":false,"is_disabled":false,"rental_uris":{"android":"levelo://app?vid=a1f29b14-dc91-4a0d-8142-aa8ed1b7f8a4","ios":"levelo://app?vid=a1f29b14-dc91-4a0d-8142-aa8ed1b7f8a4"},"vehicle_type_id":"4","last_reported":1750781607,"current_range_meters":13600,"station_id":"ce4bhbh2rcd13ifvqepg","pricing_plan_id":"cebpf4jnsgd1na2vs0mg"},{"bike_id":"220f1435-d543-4c2b-badd-6b1c871e0aa0","system_id":"levelo_inurba_marseille","lat":43.2607,"lon":5.39395,"is_reserved":false,"is_disabled":false,"rental_uris":{"android":"levelo://app?vid=220f1435-d543-4c2b-badd-6b1c871e0aa0","ios":"levelo://app?vid=220f1435-d543-4c2b-badd-6b1c871e0aa0"},"vehicle_type_id":"4","last_reported":1750781607,"current_range_meters":13600,"station_id":"ce4bhh92rcd13ifvqfj0","pricing_plan_id":"cebpf4jnsgd1na2vs0mg"},{"bike_id":"f30b7e2c-e6a8-47ac-9582-47bca9aac1bf","system_id":"levelo_inurba_marseille","lat":43.33163,"lon":5.38181,"is_reserved":false,"is_disabled":false,"rental_uris":{"android":"levelo://app?vid=f30b7e2c-e6a8-47ac-9582-47bca9aac1bf","ios":"levelo://app?vid=f30b7e2c-e6a8-47ac-9582-47bca9aac1bf"},"vehicle_type_id":"4","last_reported":1750781607,"current_range_meters":14000,"station_id":"","pricing_plan_id":"cebpf4jnsgd1na2vs0mg"},{"bike_id":"cef721fd-afe4-48d0-89b0-0777a634e87f","system_id":"levelo_inurba_marseille","lat":43.244,"lon":5.37109,"is_reserved":false,"is_disabled":false,"rental_uris":{"android":"levelo://app?vid=cef721fd-afe4-48d0-89b0-0777a634e87f","ios":"levelo://app?vid=cef721fd-afe4-48d0-89b0-0777a634e87f"},"vehicle_type_id":"4","last_reported":1750781607,"current_range_meters":14000,"station_id":"ce4bhhh2rcd13ifvqfk0","pricing_plan_id":"cebpf4jnsgd1na2vs0mg"},{"bike_id":"36b8d534-3492-401a-a3e5-861eb38cf118","system_id":"levelo_inurba_marseille","lat":43.26221,"lon":5.37457,"is_reserved":false,"is_disabled":false,"rental_uris":{"android":"levelo://app?vid=36b8d534-3492-401a-a3e5-861eb38cf118","ios":"levelo://app?vid=36b8d534-3492-401a-a3e5-861eb38cf118"},"vehicle_type_id":"4","last_reported":1750781607,"current_range_meters":14400,"station_id":"ce4bhgp2rcd13ifvqfc0","pricing_plan_id":"cebpf4jnsgd1na2vs0mg"},{"bike_id":"42c30b9e-1557-4809-911b-aa587146d14e","system_id":"levelo_inurba_marseille","lat":43.26223,"lon":5.37456,"is_reserved":false,"is_disabled":false,"rental_uris":{"android":"levelo://app?vid=42c30b9e-1557-4809-911b-aa587146d14e","ios":"levelo://app?vid=42c30b9e-1557-4809-911b-aa587146d14e"},"vehicle_type_id":"4","last_reported":1750781607,"current_range_meters":14400,"station_id":"ce4bhgp2rcd13ifvqfc0","pricing_plan_id":"cebpf4jnsgd1na2vs0mg"},{"bike_id":"2462b33e-64fc-4c01-98b0-4057f8864ca7","system_id":"levelo_inurba_marseille","lat":43.24074,"lon":5.37758,"is_reserved":false,"is_disabled":false,"rental_uris":{"android":"levelo://app?vid=2462b33e-64fc-4c01-98b0-4057f8864ca7","ios":"levelo://app?vid=2462b33e-64fc-4c01-98b0-4057f8864ca7"},"vehicle_type_id":"4","last_reported":1750781607,"current_range_meters":14400,"station_id":"ce4bhnp2rcd13ifvqgvg","pricing_plan_id":"cebpf4jnsgd1na2vs0mg"},{"bike_id":"35b14479-4a4d-4383-83de-c7fea66894b3","system_id":"levelo_inurba_marseille","lat":43.299,"lon":5.43672,"is_reserved":false,"is_disabled":false,"rental_uris":{"android":"levelo://app?vid=35b14479-4a4d-4383-83de-c7fea66894b3","ios":"levelo://app?vid=35b14479-4a4d-4383-83de-c7fea66894b3"},"vehicle_type_id":"4","last_reported":1750781607,"current_range_meters":14400,"station_id":"ce4bhpp2rcd13ifvqhfg","pricing_plan_id":"cebpf4jnsgd1na2vs0mg"},{"bike_id":"51b217be-9488-41c1-b083-6d728251b280","system_id":"levelo_inurba_marseille","lat":43.24325,"lon":5.36887,"is_reserved":false,"is_disabled":false,"rental_uris":{"android":"levelo://app?vid=51b217be-9488-41c1-b083-6d728251b280","ios":"levelo://app?vid=51b217be-9488-41c1-b083-6d728251b280"},"vehicle_type_id":"4","last_reported":1750781607,"current_range_meters":14800,"station_id":"","pricing_plan_id":"cebpf4jnsgd1na2vs0mg"},{"bike_id":"50e2cab7-4e37-4b88-b49e-a7a45720e1aa","system_id":"levelo_inurba_marseille","lat":43.27988,"lon":5.41659,"is_reserved":false,"is_disabled":false,"rental_uris":{"android":"levelo://app?vid=50e2cab7-4e37-4b88-b49e-a7a45720e1aa","ios":"levelo://app?vid=50e2cab7-4e37-4b88-b49e-a7a45720e1aa"},"vehicle_type_id":"4","last_reported":1750781607,"current_range_meters":14800,"station_id":"ce4bho12rcd13ifvqh1g","pricing_plan_id":"cebpf4jnsgd1na2vs0mg"},{"bike_id":"7ea3c9bd-f9bd-438e-b9e1-cdbe4f91c60d","system_id":"levelo_inurba_marseille","lat":43.22869,"lon":5.35279,"is_reserved":false,"is_disabled":false,"rental_uris":{"android":"levelo://app?vid=7ea3c9bd-f9bd-438e-b9e1-cdbe4f91c60d","ios":"levelo://app?vid=7ea3c9bd-f9bd-438e-b9e1-cdbe4f91c60d"},"vehicle_type_id":"4","last_reported":1750781607,"current_range_meters":15200,"station_id":"","pricing_plan_id":"cebpf4jnsgd1na2vs0mg"},{"bike_id":"44551429-c8e0-49e8-90e1-943852cf0088","system_id":"levelo_inurba_marseille","lat":43.28856,"lon":5.39348,"is_reserved":false,"is_disabled":false,"rental_uris":{"android":"levelo://app?vid=44551429-c8e0-49e8-90e1-943852cf0088","ios":"levelo://app?vid=44551429-c8e0-49e8-90e1-943852cf0088"},"vehicle_type_id":"4","last_reported":1750781607,"current_range_meters":15200,"station_id":"ce4bh2p2rcd13ifvqdi0","pricing_plan_id":"cebpf4jnsgd1na2vs0mg"},{"bike_id":"37639598-87cb-49f2-bb28-e8116a49605f","system_id":"levelo_inurba_marseille","lat":43.22496,"lon":5.3479,"is_reserved":false,"is_disabled":false,"rental_uris":{"android":"levelo://app?vid=37639598-87cb-49f2-bb28-e8116a49605f","ios":"levelo://app?vid=37639598-87cb-49f2-bb28-e8116a49605f"},"vehicle_type_id":"4","last_reported":1750781607,"current_range_meters":15200,"station_id":"st_cvj5dfep6f1abm77gieg","pricing_plan_id":"cebpf4jnsgd1na2vs0mg"},{"bike_id":"af112b62-19de-41d4-b8d7-e14d0172315d","system_id":"levelo_inurba_marseille","lat":43.32681,"lon":5.39189,"is_reserved":false,"is_disabled":false,"rental_uris":{"android":"levelo://app?vid=af112b62-19de-41d4-b8d7-e14d0172315d","ios":"levelo://app?vid=af112b62-19de-41d4-b8d7-e14d0172315d"},"vehicle_type_id":"4","last_reported":1750781607,"current_range_meters":16000,"station_id":"","pricing_plan_id":"cebpf4jnsgd1na2vs0mg"},{"bike_id":"9d17ba94-28b9-4307-96c9-7a19692d51f0","system_id":"levelo_inurba_marseille","lat":43.33113,"lon":5.39368,"is_reserved":false,"is_disabled":false,"rental_uris":{"android":"levelo://app?vid=9d17ba94-28b9-4307-96c9-7a19692d51f0","ios":"levelo://app?vid=9d17ba94-28b9-4307-96c9-7a19692d51f0"},"vehicle_type_id":"4","last_reported":1750781607,"current_range_meters":16000,"station_id":"","pricing_plan_id":"cebpf4jnsgd1na2vs0mg"},{"bike_id":"ff1500cc-ac8f-45c9-881c-9fd6595094a3","system_id":"levelo_inurba_marseille","lat":43.31828,"lon":5.40183,"is_reserved":false,"is_disabled":false,"rental_uris":{"android":"levelo://app?vid=ff1500cc-ac8f-45c9-881c-9fd6595094a3","ios":"levelo://app?vid=ff1500cc-ac8f-45c9-881c-9fd6595094a3"},"vehicle_type_id":"4","last_reported":1750781607,"current_range_meters":16000,"station_id":"","pricing_plan_id":"cebpf4jnsgd1na2vs0mg"},{"bike_id":"a2795f7d-7cbc-4e4c-a22f-2a7dcbd8eef6","system_id":"levelo_inurba_marseille","lat":43.2841,"lon":5.34995,"is_reserved":false,"is_disabled":false,"rental_uris":{"android":"levelo://app?vid=a2795f7d-7cbc-4e4c-a22f-2a7dcbd8eef6","ios":"levelo://app?vid=a2795f7d-7cbc-4e4c-a22f-2a7dcbd8eef6"},"vehicle_type_id":"4","last_reported":1750781607,"current_range_meters":16000,"station_id":"ce4bhbh2rcd13ifvqepg","pricing_plan_id":"cebpf4jnsgd1na2vs0mg"},{"bike_id":"24bec0ac-4c6c-4842-80e7-9983c2b33e58","system_id":"levelo_inurba_marseille","lat":43.21202,"lon":5.35081,"is_reserved":false,"is_disabled":false,"rental_uris":{"android":"levelo://app?vid=24bec0ac-4c6c-4842-80e7-9983c2b33e58","ios":"levelo://app?vid=24bec0ac-4c6c-4842-80e7-9983c2b33e58"},"vehicle_type_id":"4","last_reported":1750781607,"current_range_meters":16400,"station_id":"","pricing_plan_id":"cebpf4jnsgd1na2vs0mg"},{"bike_id":"2e9b3080-7442-4cd6-a4c6-0a6691f91b31","system_id":"levelo_inurba_marseille","lat":43.29534,"lon":5.38543,"is_reserved":false,"is_disabled":false,"rental_uris":{"android":"levelo://app?vid=2e9b3080-7442-4cd6-a4c6-0a6691f91b31","ios":"levelo://app?vid=2e9b3080-7442-4cd6-a4c6-0a6691f91b31"},"vehicle_type_id":"4","last_reported":1750781607,"current_range_meters":16400,"station_id":"ce4bgih2rcd13ifvqba0","pricing_plan_id":"cebpf4jnsgd1na2vs0mg"},{"bike_id":"e1d4861f-bd63-4f8c-9a21-dcf8cf72e199","system_id":"levelo_inurba_marseille","lat":43.28624,"lon":5.35082,"is_reserved":false,"is_disabled":false,"rental_uris":{"android":"levelo://app?vid=e1d4861f-bd63-4f8c-9a21-dcf8cf72e199","ios":"levelo://app?vid=e1d4861f-bd63-4f8c-9a21-dcf8cf72e199"},"vehicle_type_id":"4","last_reported":1750781607,"current_range_meters":16400,"station_id":"ce4bhch2rcd13ifvqeug","pricing_plan_id":"cebpf4jnsgd1na2vs0mg"},{"bike_id":"28a65cb3-8575-4765-9ac2-6c0db3cd9f26","system_id":"levelo_inurba_marseille","lat":43.24806,"lon":5.37454,"is_reserved":false,"is_disabled":false,"rental_uris":{"android":"levelo://app?vid=28a65cb3-8575-4765-9ac2-6c0db3cd9f26","ios":"levelo://app?vid=28a65cb3-8575-4765-9ac2-6c0db3cd9f26"},"vehicle_type_id":"4","last_reported":1750781607,"current_range_meters":16400,"station_id":"ce4bhgh2rcd13ifvqfb0","pricing_plan_id":"cebpf4jnsgd1na2vs0mg"},{"bike_id":"b5b58c9c-2be1-4514-8e88-bc7464266b4c","system_id":"levelo_inurba_marseille","lat":43.24806,"lon":5.37461,"is_reserved":false,"is_disabled":false,"rental_uris":{"android":"levelo://app?vid=b5b58c9c-2be1-4514-8e88-bc7464266b4c","ios":"levelo://app?vid=b5b58c9c-2be1-4514-8e88-bc7464266b4c"},"vehicle_type_id":"4","last_reported":1750781607,"current_range_meters":16400,"station_id":"ce4bhgh2rcd13ifvqfb0","pricing_plan_id":"cebpf4jnsgd1na2vs0mg"},{"bike_id":"b8ce578d-7cf5-4a38-bd36-6a6897c9f454","system_id":"levelo_inurba_marseille","lat":43.29912,"lon":5.43659,"is_reserved":false,"is_disabled":false,"rental_uris":{"android":"levelo://app?vid=b8ce578d-7cf5-4a38-bd36-6a6897c9f454","ios":"levelo://app?vid=b8ce578d-7cf5-4a38-bd36-6a6897c9f454"},"vehicle_type_id":"4","last_reported":1750781607,"current_range_meters":16400,"station_id":"ce4bhpp2rcd13ifvqhfg","pricing_plan_id":"cebpf4jnsgd1na2vs0mg"},{"bike_id":"26a14eba-87a9-47b8-9607-30bd0042d428","system_id":"levelo_inurba_marseille","lat":43.31468,"lon":5.39442,"is_reserved":false,"is_disabled":false,"rental_uris":{"android":"levelo://app?vid=26a14eba-87a9-47b8-9607-30bd0042d428","ios":"levelo://app?vid=26a14eba-87a9-47b8-9607-30bd0042d428"},"vehicle_type_id":"4","last_reported":1750781607,"current_range_meters":16800,"station_id":"","pricing_plan_id":"cebpf4jnsgd1na2vs0mg"},{"bike_id":"b661e39b-4538-41ad-8526-3c320e3612d3","system_id":"levelo_inurba_marseille","lat":43.28407,"lon":5.34993,"is_reserved":false,"is_disabled":false,"rental_uris":{"android":"levelo://app?vid=b661e39b-4538-41ad-8526-3c320e3612d3","ios":"levelo://app?vid=b661e39b-4538-41ad-8526-3c320e3612d3"},"vehicle_type_id":"4","last_reported":1750781607,"current_range_meters":16800,"station_id":"ce4bhbh2rcd13ifvqepg","pricing_plan_id":"cebpf4jnsgd1na2vs0mg"},{"bike_id":"06f5a8d7-7811-4844-b6f8-59cbf2d07cf3","system_id":"levelo_inurba_marseille","lat":43.26568,"lon":5.39012,"is_reserved":false,"is_disabled":false,"rental_uris":{"android":"levelo://app?vid=06f5a8d7-7811-4844-b6f8-59cbf2d07cf3","ios":"levelo://app?vid=06f5a8d7-7811-4844-b6f8-59cbf2d07cf3"},"vehicle_type_id":"4","last_reported":1750781607,"current_range_meters":16800,"station_id":"ce4bhe12rcd13ifvqf30","pricing_plan_id":"cebpf4jnsgd1na2vs0mg"},{"bike_id":"18a15a09-8c8a-47bd-861d-6270d82b45dd","system_id":"levelo_inurba_marseille","lat":43.243851,"lon":5.370666,"is_reserved":false,"is_disabled":false,"rental_uris":{"android":"levelo://app?vid=18a15a09-8c8a-47bd-861d-6270d82b45dd","ios":"levelo://app?vid=18a15a09-8c8a-47bd-861d-6270d82b45dd"},"vehicle_type_id":"4","last_reported":1750781607,"current_range_meters":17200,"station_id":"","pricing_plan_id":"cebpf4jnsgd1na2vs0mg"},{"bike_id":"d280bcf7-1b53-490a-aa05-99ae083479a1","system_id":"levelo_inurba_marseille","lat":43.24402,"lon":5.3712,"is_reserved":false,"is_disabled":false,"rental_uris":{"android":"levelo://app?vid=d280bcf7-1b53-490a-aa05-99ae083479a1","ios":"levelo://app?vid=d280bcf7-1b53-490a-aa05-99ae083479a1"},"vehicle_type_id":"4","last_reported":1750781607,"current_range_meters":17200,"station_id":"ce4bhhh2rcd13ifvqfk0","pricing_plan_id":"cebpf4jnsgd1na2vs0mg"},{"bike_id":"f1407852-c3ce-4f97-9cbc-f708d7e60dd6","system_id":"levelo_inurba_marseille","lat":43.30362,"lon":5.41872,"is_reserved":false,"is_disabled":false,"rental_uris":{"android":"levelo://app?vid=f1407852-c3ce-4f97-9cbc-f708d7e60dd6","ios":"levelo://app?vid=f1407852-c3ce-4f97-9cbc-f708d7e60dd6"},"vehicle_type_id":"4","last_reported":1750781607,"current_range_meters":17200,"station_id":"ce4bhop2rcd13ifvqh7g","pricing_plan_id":"cebpf4jnsgd1na2vs0mg"},{"bike_id":"6a6d9cb7-af1f-45db-b07a-fbe741345789","system_id":"levelo_inurba_marseille","lat":43.34139,"lon":5.40905,"is_reserved":false,"is_disabled":false,"rental_uris":{"android":"levelo://app?vid=6a6d9cb7-af1f-45db-b07a-fbe741345789","ios":"levelo://app?vid=6a6d9cb7-af1f-45db-b07a-fbe741345789"},"vehicle_type_id":"4","last_reported":1750781607,"current_range_meters":17200,"station_id":"ce4bhqh2rcd13ifvqhlg","pricing_plan_id":"cebpf4jnsgd1na2vs0mg"},{"bike_id":"07dead3e-fced-4a36-b1c0-dda7dd873caf","system_id":"levelo_inurba_marseille","lat":43.23216,"lon":5.35547,"is_reserved":false,"is_disabled":false,"rental_uris":{"android":"levelo://app?vid=07dead3e-fced-4a36-b1c0-dda7dd873caf","ios":"levelo://app?vid=07dead3e-fced-4a36-b1c0-dda7dd873caf"},"vehicle_type_id":"4","last_reported":1750781607,"current_range_meters":17200,"station_id":"ce4bhu92rcd13ifvqi70","pricing_plan_id":"cebpf4jnsgd1na2vs0mg"},{"bike_id":"e3cbe31d-3f2f-4c4c-a959-3bdba55d2dad","system_id":"levelo_inurba_marseille","lat":43.22924,"lon":5.35374,"is_reserved":false,"is_disabled":false,"rental_uris":{"android":"levelo://app?vid=e3cbe31d-3f2f-4c4c-a959-3bdba55d2dad","ios":"levelo://app?vid=e3cbe31d-3f2f-4c4c-a959-3bdba55d2dad"},"vehicle_type_id":"4","last_reported":1750781607,"current_range_meters":17200,"station_id":"cpo3532slgdg3j2ikp40","pricing_plan_id":"cebpf4jnsgd1na2vs0mg"},{"bike_id":"6d66f760-917a-49b1-b200-d585832e6166","system_id":"levelo_inurba_marseille","lat":43.22925,"lon":5.35398,"is_reserved":false,"is_disabled":false,"rental_uris":{"android":"levelo://app?vid=6d66f760-917a-49b1-b200-d585832e6166","ios":"levelo://app?vid=6d66f760-917a-49b1-b200-d585832e6166"},"vehicle_type_id":"4","last_reported":1750781607,"current_range_meters":17200,"station_id":"cpo3532slgdg3j2ikp40","pricing_plan_id":"cebpf4jnsgd1na2vs0mg"},{"bike_id":"c9378442-8a73-4d70-a55c-bf37f13dceb1","system_id":"levelo_inurba_marseille","lat":43.21193,"lon":5.35068,"is_reserved":false,"is_disabled":false,"rental_uris":{"android":"levelo://app?vid=c9378442-8a73-4d70-a55c-bf37f13dceb1","ios":"levelo://app?vid=c9378442-8a73-4d70-a55c-bf37f13dceb1"},"vehicle_type_id":"4","last_reported":1750781607,"current_range_meters":17200,"station_id":"st_cvj6sg6p6f1abm77japg","pricing_plan_id":"cebpf4jnsgd1na2vs0mg"},{"bike_id":"d58be3aa-9e33-4a85-862d-e1ba6fbf741a","system_id":"levelo_inurba_marseille","lat":43.26751,"lon":5.40228,"is_reserved":false,"is_disabled":false,"rental_uris":{"android":"levelo://app?vid=d58be3aa-9e33-4a85-862d-e1ba6fbf741a","ios":"levelo://app?vid=d58be3aa-9e33-4a85-862d-e1ba6fbf741a"},"vehicle_type_id":"4","last_reported":1750781607,"current_range_meters":17600,"station_id":"","pricing_plan_id":"cebpf4jnsgd1na2vs0mg"},{"bike_id":"5e087ca1-db5a-4b60-9464-eff6960f0203","system_id":"levelo_inurba_marseille","lat":43.29442,"lon":5.39744,"is_reserved":false,"is_disabled":false,"rental_uris":{"android":"levelo://app?vid=5e087ca1-db5a-4b60-9464-eff6960f0203","ios":"levelo://app?vid=5e087ca1-db5a-4b60-9464-eff6960f0203"},"vehicle_type_id":"4","last_reported":1750781607,"current_range_meters":17600,"station_id":"ce4bh3h2rcd13ifvqdo0","pricing_plan_id":"cebpf4jnsgd1na2vs0mg"},{"bike_id":"62c0ae9e-9e5d-4757-b598-f1bb6b049cd5","system_id":"levelo_inurba_marseille","lat":43.26203,"lon":5.37453,"is_reserved":false,"is_disabled":false,"rental_uris":{"android":"levelo://app?vid=62c0ae9e-9e5d-4757-b598-f1bb6b049cd5","ios":"levelo://app?vid=62c0ae9e-9e5d-4757-b598-f1bb6b049cd5"},"vehicle_type_id":"4","last_reported":1750781607,"current_range_meters":17600,"station_id":"ce4bhgp2rcd13ifvqfc0","pricing_plan_id":"cebpf4jnsgd1na2vs0mg"},{"bike_id":"3b951d47-daef-4f47-9b11-1cb55583c0cc","system_id":"levelo_inurba_marseille","lat":43.21212,"lon":5.35061,"is_reserved":false,"is_disabled":false,"rental_uris":{"android":"levelo://app?vid=3b951d47-daef-4f47-9b11-1cb55583c0cc","ios":"levelo://app?vid=3b951d47-daef-4f47-9b11-1cb55583c0cc"},"vehicle_type_id":"4","last_reported":1750781607,"current_range_meters":17600,"station_id":"st_cvj6sg6p6f1abm77japg","pricing_plan_id":"cebpf4jnsgd1na2vs0mg"},{"bike_id":"73003e5e-1157-4cf0-aafe-d13c75118280","system_id":"levelo_inurba_marseille","lat":43.28831,"lon":5.3927,"is_reserved":false,"is_disabled":false,"rental_uris":{"android":"levelo://app?vid=73003e5e-1157-4cf0-aafe-d13c75118280","ios":"levelo://app?vid=73003e5e-1157-4cf0-aafe-d13c75118280"},"vehicle_type_id":"4","last_reported":1750781607,"current_range_meters":18000,"station_id":"","pricing_plan_id":"cebpf4jnsgd1na2vs0mg"},{"bike_id":"1e9abf48-4eef-43e0-b44a-0f3caea8aecc","system_id":"levelo_inurba_marseille","lat":43.29263,"lon":5.38441,"is_reserved":false,"is_disabled":false,"rental_uris":{"android":"levelo://app?vid=1e9abf48-4eef-43e0-b44a-0f3caea8aecc","ios":"levelo://app?vid=1e9abf48-4eef-43e0-b44a-0f3caea8aecc"},"vehicle_type_id":"4","last_reported":1750781607,"current_range_meters":18000,"station_id":"ce4bh692rcd13ifvqea0","pricing_plan_id":"cebpf4jnsgd1na2vs0mg"},{"bike_id":"6da0d080-b7af-4ec5-9975-c8710b868cdc","system_id":"levelo_inurba_marseille","lat":43.24392,"lon":5.3706,"is_reserved":false,"is_disabled":false,"rental_uris":{"android":"levelo://app?vid=6da0d080-b7af-4ec5-9975-c8710b868cdc","ios":"levelo://app?vid=6da0d080-b7af-4ec5-9975-c8710b868cdc"},"vehicle_type_id":"4","last_reported":1750781607,"current_range_meters":18000,"station_id":"ce4bhhh2rcd13ifvqfk0","pricing_plan_id":"cebpf4jnsgd1na2vs0mg"},{"bike_id":"fc1021d2-7bd8-41cc-a566-5df5c9bc4ea6","system_id":"levelo_inurba_marseille","lat":43.21205,"lon":5.35078,"is_reserved":false,"is_disabled":false,"rental_uris":{"android":"levelo://app?vid=fc1021d2-7bd8-41cc-a566-5df5c9bc4ea6","ios":"levelo://app?vid=fc1021d2-7bd8-41cc-a566-5df5c9bc4ea6"},"vehicle_type_id":"4","last_reported":1750781607,"current_range_meters":18000,"station_id":"st_cvj6sg6p6f1abm77japg","pricing_plan_id":"cebpf4jnsgd1na2vs0mg"},{"bike_id":"8fc36912-d7a7-4c5e-bf3c-ae03694d6ba3","system_id":"levelo_inurba_marseille","lat":43.21193,"lon":5.35075,"is_reserved":false,"is_disabled":false,"rental_uris":{"android":"levelo://app?vid=8fc36912-d7a7-4c5e-bf3c-ae03694d6ba3","ios":"levelo://app?vid=8fc36912-d7a7-4c5e-bf3c-ae03694d6ba3"},"vehicle_type_id":"4","last_reported":1750781607,"current_range_meters":18000,"station_id":"st_cvj6sg6p6f1abm77japg","pricing_plan_id":"cebpf4jnsgd1na2vs0mg"},{"bike_id":"e2f5b300-4a63-4778-aada-c29a8a0ea1e8","system_id":"levelo_inurba_marseille","lat":43.3283,"lon":5.39165,"is_reserved":false,"is_disabled":false,"rental_uris":{"android":"levelo://app?vid=e2f5b300-4a63-4778-aada-c29a8a0ea1e8","ios":"levelo://app?vid=e2f5b300-4a63-4778-aada-c29a8a0ea1e8"},"vehicle_type_id":"4","last_reported":1750781607,"current_range_meters":18800,"station_id":"","pricing_plan_id":"cebpf4jnsgd1na2vs0mg"},{"bike_id":"5b0059f2-5a2a-41ce-b903-1f956adfdd24","system_id":"levelo_inurba_marseille","lat":43.29696,"lon":5.43538,"is_reserved":false,"is_disabled":false,"rental_uris":{"android":"levelo://app?vid=5b0059f2-5a2a-41ce-b903-1f956adfdd24","ios":"levelo://app?vid=5b0059f2-5a2a-41ce-b903-1f956adfdd24"},"vehicle_type_id":"4","last_reported":1750781607,"current_range_meters":18800,"station_id":"","pricing_plan_id":"cebpf4jnsgd1na2vs0mg"},{"bike_id":"51b9029c-a8b4-49be-88a9-639814edcae4","system_id":"levelo_inurba_marseille","lat":43.28414,"lon":5.34978,"is_reserved":false,"is_disabled":false,"rental_uris":{"android":"levelo://app?vid=51b9029c-a8b4-49be-88a9-639814edcae4","ios":"levelo://app?vid=51b9029c-a8b4-49be-88a9-639814edcae4"},"vehicle_type_id":"4","last_reported":1750781607,"current_range_meters":18800,"station_id":"ce4bhbh2rcd13ifvqepg","pricing_plan_id":"cebpf4jnsgd1na2vs0mg"},{"bike_id":"85cc4651-cb72-4774-a8c2-529200729370","system_id":"levelo_inurba_marseille","lat":43.301465,"lon":5.374224,"is_reserved":false,"is_disabled":false,"rental_uris":{"android":"levelo://app?vid=85cc4651-cb72-4774-a8c2-529200729370","ios":"levelo://app?vid=85cc4651-cb72-4774-a8c2-529200729370"},"vehicle_type_id":"4","last_reported":1750781607,"current_range_meters":19200,"station_id":"ce4bgi92rcd13ifvqb90","pricing_plan_id":"cebpf4jnsgd1na2vs0mg"},{"bike_id":"6a699f32-df69-40a6-bd65-a2c97cc6b334","system_id":"levelo_inurba_marseille","lat":43.285309,"lon":5.385227,"is_reserved":false,"is_disabled":false,"rental_uris":{"android":"levelo://app?vid=6a699f32-df69-40a6-bd65-a2c97cc6b334","ios":"levelo://app?vid=6a699f32-df69-40a6-bd65-a2c97cc6b334"},"vehicle_type_id":"4","last_reported":1750781607,"current_range_meters":19200,"station_id":"ce4bh8p2rcd13ifvqeb0","pricing_plan_id":"cebpf4jnsgd1na2vs0mg"},{"bike_id":"0afd4c2a-5a02-4d05-a3f9-ab3a2c3b10b5","system_id":"levelo_inurba_marseille","lat":43.28417,"lon":5.34979,"is_reserved":false,"is_disabled":false,"rental_uris":{"android":"levelo://app?vid=0afd4c2a-5a02-4d05-a3f9-ab3a2c3b10b5","ios":"levelo://app?vid=0afd4c2a-5a02-4d05-a3f9-ab3a2c3b10b5"},"vehicle_type_id":"4","last_reported":1750781607,"current_range_meters":19200,"station_id":"ce4bhbh2rcd13ifvqepg","pricing_plan_id":"cebpf4jnsgd1na2vs0mg"},{"bike_id":"804046bf-b3b5-48a4-a6e2-baca28adaf7f","system_id":"levelo_inurba_marseille","lat":43.26931,"lon":5.38918,"is_reserved":false,"is_disabled":false,"rental_uris":{"android":"levelo://app?vid=804046bf-b3b5-48a4-a6e2-baca28adaf7f","ios":"levelo://app?vid=804046bf-b3b5-48a4-a6e2-baca28adaf7f"},"vehicle_type_id":"4","last_reported":1750781607,"current_range_meters":19200,"station_id":"ce4bhhh2rcd13ifvqfl0","pricing_plan_id":"cebpf4jnsgd1na2vs0mg"},{"bike_id":"a3c92f75-9e9e-4097-b455-246ce7658f0d","system_id":"levelo_inurba_marseille","lat":43.30782,"lon":5.43528,"is_reserved":false,"is_disabled":false,"rental_uris":{"android":"levelo://app?vid=a3c92f75-9e9e-4097-b455-246ce7658f0d","ios":"levelo://app?vid=a3c92f75-9e9e-4097-b455-246ce7658f0d"},"vehicle_type_id":"4","last_reported":1750781607,"current_range_meters":19200,"station_id":"ce4bhph2rcd13ifvqheg","pricing_plan_id":"cebpf4jnsgd1na2vs0mg"},{"bike_id":"60f00cce-f4b6-4972-91a7-985bb687112f","system_id":"levelo_inurba_marseille","lat":43.32099,"lon":5.36804,"is_reserved":false,"is_disabled":false,"rental_uris":{"android":"levelo://app?vid=60f00cce-f4b6-4972-91a7-985bb687112f","ios":"levelo://app?vid=60f00cce-f4b6-4972-91a7-985bb687112f"},"vehicle_type_id":"4","last_reported":1750781607,"current_range_meters":19200,"station_id":"ce4bhrh2rcd13ifvqhug","pricing_plan_id":"cebpf4jnsgd1na2vs0mg"},{"bike_id":"18028507-ab03-4edb-86b7-ab7704d2c26f","system_id":"levelo_inurba_marseille","lat":43.211977,"lon":5.35071,"is_reserved":false,"is_disabled":false,"rental_uris":{"android":"levelo://app?vid=18028507-ab03-4edb-86b7-ab7704d2c26f","ios":"levelo://app?vid=18028507-ab03-4edb-86b7-ab7704d2c26f"},"vehicle_type_id":"4","last_reported":1750781607,"current_range_meters":19200,"station_id":"st_cvj6sg6p6f1abm77japg","pricing_plan_id":"cebpf4jnsgd1na2vs0mg"},{"bike_id":"83d64502-1fc6-4760-a2e0-8853a567ee49","system_id":"levelo_inurba_marseille","lat":43.33183,"lon":5.41039,"is_reserved":false,"is_disabled":false,"rental_uris":{"android":"levelo://app?vid=83d64502-1fc6-4760-a2e0-8853a567ee49","ios":"levelo://app?vid=83d64502-1fc6-4760-a2e0-8853a567ee49"},"vehicle_type_id":"4","last_reported":1750781607,"current_range_meters":19600,"station_id":"","pricing_plan_id":"cebpf4jnsgd1na2vs0mg"},{"bike_id":"4649b0f1-f46b-418a-ba91-cf14a6ba05aa","system_id":"levelo_inurba_marseille","lat":43.306411,"lon":5.365834,"is_reserved":false,"is_disabled":false,"rental_uris":{"android":"levelo://app?vid=4649b0f1-f46b-418a-ba91-cf14a6ba05aa","ios":"levelo://app?vid=4649b0f1-f46b-418a-ba91-cf14a6ba05aa"},"vehicle_type_id":"4","last_reported":1750781607,"current_range_meters":19600,"station_id":"","pricing_plan_id":"cebpf4jnsgd1na2vs0mg"},{"bike_id":"ae84ea09-0cf3-4795-8cf9-40b3008a6f17","system_id":"levelo_inurba_marseille","lat":43.28421,"lon":5.35044,"is_reserved":false,"is_disabled":false,"rental_uris":{"android":"levelo://app?vid=ae84ea09-0cf3-4795-8cf9-40b3008a6f17","ios":"levelo://app?vid=ae84ea09-0cf3-4795-8cf9-40b3008a6f17"},"vehicle_type_id":"4","last_reported":1750781607,"current_range_meters":19600,"station_id":"ce4bhbh2rcd13ifvqepg","pricing_plan_id":"cebpf4jnsgd1na2vs0mg"},{"bike_id":"c4d6b34e-36d4-4396-a6e7-958646ee56be","system_id":"levelo_inurba_marseille","lat":43.262,"lon":5.3745,"is_reserved":false,"is_disabled":false,"rental_uris":{"android":"levelo://app?vid=c4d6b34e-36d4-4396-a6e7-958646ee56be","ios":"levelo://app?vid=c4d6b34e-36d4-4396-a6e7-958646ee56be"},"vehicle_type_id":"4","last_reported":1750781607,"current_range_meters":19600,"station_id":"ce4bhgp2rcd13ifvqfc0","pricing_plan_id":"cebpf4jnsgd1na2vs0mg"},{"bike_id":"6fadd269-63fb-4f95-b993-0aab86cc4e90","system_id":"levelo_inurba_marseille","lat":43.25109,"lon":5.40339,"is_reserved":false,"is_disabled":false,"rental_uris":{"android":"levelo://app?vid=6fadd269-63fb-4f95-b993-0aab86cc4e90","ios":"levelo://app?vid=6fadd269-63fb-4f95-b993-0aab86cc4e90"},"vehicle_type_id":"4","last_reported":1750781607,"current_range_meters":19600,"station_id":"ce4bhlh2rcd13ifvqgig","pricing_plan_id":"cebpf4jnsgd1na2vs0mg"},{"bike_id":"9d52ae7c-3bfc-4879-b169-67c07cec03d9","system_id":"levelo_inurba_marseille","lat":43.28425,"lon":5.36817,"is_reserved":false,"is_disabled":false,"rental_uris":{"android":"levelo://app?vid=9d52ae7c-3bfc-4879-b169-67c07cec03d9","ios":"levelo://app?vid=9d52ae7c-3bfc-4879-b169-67c07cec03d9"},"vehicle_type_id":"4","last_reported":1750781607,"current_range_meters":20000,"station_id":"","pricing_plan_id":"cebpf4jnsgd1na2vs0mg"},{"bike_id":"64c4a215-35fd-4aaf-9bf6-b0b267ebe1bc","system_id":"levelo_inurba_marseille","lat":43.28433,"lon":5.34991,"is_reserved":false,"is_disabled":false,"rental_uris":{"android":"levelo://app?vid=64c4a215-35fd-4aaf-9bf6-b0b267ebe1bc","ios":"levelo://app?vid=64c4a215-35fd-4aaf-9bf6-b0b267ebe1bc"},"vehicle_type_id":"4","last_reported":1750781607,"current_range_meters":20000,"station_id":"ce4bhbh2rcd13ifvqepg","pricing_plan_id":"cebpf4jnsgd1na2vs0mg"},{"bike_id":"1d4cbdbc-5e50-4a85-b3c4-1df51a133233","system_id":"levelo_inurba_marseille","lat":43.26238,"lon":5.37434,"is_reserved":false,"is_disabled":false,"rental_uris":{"android":"levelo://app?vid=1d4cbdbc-5e50-4a85-b3c4-1df51a133233","ios":"levelo://app?vid=1d4cbdbc-5e50-4a85-b3c4-1df51a133233"},"vehicle_type_id":"4","last_reported":1750781607,"current_range_meters":20000,"station_id":"ce4bhgp2rcd13ifvqfc0","pricing_plan_id":"cebpf4jnsgd1na2vs0mg"},{"bike_id":"58bb4872-8d15-43be-919d-a81db2e8c654","system_id":"levelo_inurba_marseille","lat":43.31267,"lon":5.40164,"is_reserved":false,"is_disabled":false,"rental_uris":{"android":"levelo://app?vid=58bb4872-8d15-43be-919d-a81db2e8c654","ios":"levelo://app?vid=58bb4872-8d15-43be-919d-a81db2e8c654"},"vehicle_type_id":"4","last_reported":1750781607,"current_range_meters":20400,"station_id":"ce4bh092rcd13ifvqd30","pricing_plan_id":"cebpf4jnsgd1na2vs0mg"},{"bike_id":"9abe4c84-5f41-4f84-8a39-2feda2d1ea34","system_id":"levelo_inurba_marseille","lat":43.27367,"lon":5.3626,"is_reserved":false,"is_disabled":false,"rental_uris":{"android":"levelo://app?vid=9abe4c84-5f41-4f84-8a39-2feda2d1ea34","ios":"levelo://app?vid=9abe4c84-5f41-4f84-8a39-2feda2d1ea34"},"vehicle_type_id":"4","last_reported":1750781607,"current_range_meters":20400,"station_id":"ce4bhbh2rcd13ifvqeo0","pricing_plan_id":"cebpf4jnsgd1na2vs0mg"},{"bike_id":"e3bf2dfc-6449-4d32-95fd-6681d2a8ec4a","system_id":"levelo_inurba_marseille","lat":43.25823,"lon":5.39436,"is_reserved":false,"is_disabled":false,"rental_uris":{"android":"levelo://app?vid=e3bf2dfc-6449-4d32-95fd-6681d2a8ec4a","ios":"levelo://app?vid=e3bf2dfc-6449-4d32-95fd-6681d2a8ec4a"},"vehicle_type_id":"4","last_reported":1750781607,"current_range_meters":20800,"station_id":"ce4bhip2rcd13ifvqft0","pricing_plan_id":"cebpf4jnsgd1na2vs0mg"},{"bike_id":"9dcc1cc2-e4c7-40b6-a84d-f2a2f36df93c","system_id":"levelo_inurba_marseille","lat":43.29539,"lon":5.38544,"is_reserved":false,"is_disabled":false,"rental_uris":{"android":"levelo://app?vid=9dcc1cc2-e4c7-40b6-a84d-f2a2f36df93c","ios":"levelo://app?vid=9dcc1cc2-e4c7-40b6-a84d-f2a2f36df93c"},"vehicle_type_id":"4","last_reported":1750781607,"current_range_meters":21600,"station_id":"ce4bgih2rcd13ifvqba0","pricing_plan_id":"cebpf4jnsgd1na2vs0mg"},{"bike_id":"1a48f017-1cf6-4a42-83f8-cf9bbbf844a2","system_id":"levelo_inurba_marseille","lat":43.21194,"lon":5.35074,"is_reserved":false,"is_disabled":false,"rental_uris":{"android":"levelo://app?vid=1a48f017-1cf6-4a42-83f8-cf9bbbf844a2","ios":"levelo://app?vid=1a48f017-1cf6-4a42-83f8-cf9bbbf844a2"},"vehicle_type_id":"4","last_reported":1750781607,"current_range_meters":21600,"station_id":"st_cvj6sg6p6f1abm77japg","pricing_plan_id":"cebpf4jnsgd1na2vs0mg"},{"bike_id":"43a2f59d-0391-45a1-a8a7-bad698c95038","system_id":"levelo_inurba_marseille","lat":43.31862,"lon":5.3798,"is_reserved":false,"is_disabled":false,"rental_uris":{"android":"levelo://app?vid=43a2f59d-0391-45a1-a8a7-bad698c95038","ios":"levelo://app?vid=43a2f59d-0391-45a1-a8a7-bad698c95038"},"vehicle_type_id":"4","last_reported":1750781607,"current_range_meters":22000,"station_id":"","pricing_plan_id":"cebpf4jnsgd1na2vs0mg"},{"bike_id":"de0f7c2b-5974-4035-a240-8ed367c0e3f3","system_id":"levelo_inurba_marseille","lat":43.3196,"lon":5.37617,"is_reserved":false,"is_disabled":false,"rental_uris":{"android":"levelo://app?vid=de0f7c2b-5974-4035-a240-8ed367c0e3f3","ios":"levelo://app?vid=de0f7c2b-5974-4035-a240-8ed367c0e3f3"},"vehicle_type_id":"4","last_reported":1750781607,"current_range_meters":22000,"station_id":"","pricing_plan_id":"cebpf4jnsgd1na2vs0mg"},{"bike_id":"93364c95-cfe3-463d-b9b4-f8e9880a4b47","system_id":"levelo_inurba_marseille","lat":43.27619,"lon":5.36116,"is_reserved":false,"is_disabled":false,"rental_uris":{"android":"levelo://app?vid=93364c95-cfe3-463d-b9b4-f8e9880a4b47","ios":"levelo://app?vid=93364c95-cfe3-463d-b9b4-f8e9880a4b47"},"vehicle_type_id":"4","last_reported":1750781607,"current_range_meters":22000,"station_id":"ce4bgj92rcd13ifvqbe0","pricing_plan_id":"cebpf4jnsgd1na2vs0mg"},{"bike_id":"b0ef64bc-622f-483a-8d46-274d3bcac3b8","system_id":"levelo_inurba_marseille","lat":43.304259,"lon":5.388901,"is_reserved":false,"is_disabled":false,"rental_uris":{"android":"levelo://app?vid=b0ef64bc-622f-483a-8d46-274d3bcac3b8","ios":"levelo://app?vid=b0ef64bc-622f-483a-8d46-274d3bcac3b8"},"vehicle_type_id":"4","last_reported":1750781607,"current_range_meters":22000,"station_id":"ce4bgk12rcd13ifvqbi0","pricing_plan_id":"cebpf4jnsgd1na2vs0mg"},{"bike_id":"56775302-3e36-423e-a9f4-afea7da245c5","system_id":"levelo_inurba_marseille","lat":43.28266,"lon":5.35058,"is_reserved":false,"is_disabled":false,"rental_uris":{"android":"levelo://app?vid=56775302-3e36-423e-a9f4-afea7da245c5","ios":"levelo://app?vid=56775302-3e36-423e-a9f4-afea7da245c5"},"vehicle_type_id":"4","last_reported":1750781607,"current_range_meters":22000,"station_id":"ce4bhbp2rcd13ifvqerg","pricing_plan_id":"cebpf4jnsgd1na2vs0mg"},{"bike_id":"8a5a4d8d-dad6-4895-a21d-154aa7c22a62","system_id":"levelo_inurba_marseille","lat":43.28614,"lon":5.35107,"is_reserved":false,"is_disabled":false,"rental_uris":{"android":"levelo://app?vid=8a5a4d8d-dad6-4895-a21d-154aa7c22a62","ios":"levelo://app?vid=8a5a4d8d-dad6-4895-a21d-154aa7c22a62"},"vehicle_type_id":"4","last_reported":1750781607,"current_range_meters":22000,"station_id":"ce4bhch2rcd13ifvqeug","pricing_plan_id":"cebpf4jnsgd1na2vs0mg"},{"bike_id":"f12fe710-7b2d-4630-97be-c7ca79bc7305","system_id":"levelo_inurba_marseille","lat":43.23965,"lon":5.3663,"is_reserved":false,"is_disabled":false,"rental_uris":{"android":"levelo://app?vid=f12fe710-7b2d-4630-97be-c7ca79bc7305","ios":"levelo://app?vid=f12fe710-7b2d-4630-97be-c7ca79bc7305"},"vehicle_type_id":"4","last_reported":1750781607,"current_range_meters":22000,"station_id":"ce4bhi12rcd13ifvqfp0","pricing_plan_id":"cebpf4jnsgd1na2vs0mg"},{"bike_id":"123ae22d-6265-4425-846f-abe71c57673f","system_id":"levelo_inurba_marseille","lat":43.30351,"lon":5.41878,"is_reserved":false,"is_disabled":false,"rental_uris":{"android":"levelo://app?vid=123ae22d-6265-4425-846f-abe71c57673f","ios":"levelo://app?vid=123ae22d-6265-4425-846f-abe71c57673f"},"vehicle_type_id":"4","last_reported":1750781607,"current_range_meters":22000,"station_id":"ce4bhop2rcd13ifvqh7g","pricing_plan_id":"cebpf4jnsgd1na2vs0mg"},{"bike_id":"6bbbdabf-81b5-4c65-92bb-75c3f89e2ff9","system_id":"levelo_inurba_marseille","lat":43.22929,"lon":5.35386,"is_reserved":false,"is_disabled":false,"rental_uris":{"android":"levelo://app?vid=6bbbdabf-81b5-4c65-92bb-75c3f89e2ff9","ios":"levelo://app?vid=6bbbdabf-81b5-4c65-92bb-75c3f89e2ff9"},"vehicle_type_id":"4","last_reported":1750781607,"current_range_meters":22000,"station_id":"cpo3532slgdg3j2ikp40","pricing_plan_id":"cebpf4jnsgd1na2vs0mg"},{"bike_id":"9264d883-f271-4d21-85be-f11a0ee41edc","system_id":"levelo_inurba_marseille","lat":43.27609,"lon":5.36116,"is_reserved":false,"is_disabled":false,"rental_uris":{"android":"levelo://app?vid=9264d883-f271-4d21-85be-f11a0ee41edc","ios":"levelo://app?vid=9264d883-f271-4d21-85be-f11a0ee41edc"},"vehicle_type_id":"4","last_reported":1750781607,"current_range_meters":22400,"station_id":"ce4bgj92rcd13ifvqbe0","pricing_plan_id":"cebpf4jnsgd1na2vs0mg"},{"bike_id":"a20d9279-1e60-4fa5-ab24-2a08ceaa595d","system_id":"levelo_inurba_marseille","lat":43.3111,"lon":5.37772,"is_reserved":false,"is_disabled":false,"rental_uris":{"android":"levelo://app?vid=a20d9279-1e60-4fa5-ab24-2a08ceaa595d","ios":"levelo://app?vid=a20d9279-1e60-4fa5-ab24-2a08ceaa595d"},"vehicle_type_id":"4","last_reported":1750781607,"current_range_meters":22400,"station_id":"ce4bgt92rcd13ifvqcg0","pricing_plan_id":"cebpf4jnsgd1na2vs0mg"},{"bike_id":"3d8b737d-a196-4814-b578-7014f8980309","system_id":"levelo_inurba_marseille","lat":43.26199,"lon":5.37453,"is_reserved":false,"is_disabled":false,"rental_uris":{"android":"levelo://app?vid=3d8b737d-a196-4814-b578-7014f8980309","ios":"levelo://app?vid=3d8b737d-a196-4814-b578-7014f8980309"},"vehicle_type_id":"4","last_reported":1750781607,"current_range_meters":22400,"station_id":"ce4bhgp2rcd13ifvqfc0","pricing_plan_id":"cebpf4jnsgd1na2vs0mg"},{"bike_id":"c5c7c144-8792-42d1-b071-155789c415bc","system_id":"levelo_inurba_marseille","lat":43.27989,"lon":5.41668,"is_reserved":false,"is_disabled":false,"rental_uris":{"android":"levelo://app?vid=c5c7c144-8792-42d1-b071-155789c415bc","ios":"levelo://app?vid=c5c7c144-8792-42d1-b071-155789c415bc"},"vehicle_type_id":"4","last_reported":1750781607,"current_range_meters":22400,"station_id":"ce4bho12rcd13ifvqh1g","pricing_plan_id":"cebpf4jnsgd1na2vs0mg"},{"bike_id":"89cdfa1b-f563-49ce-85a7-e64b27dab9da","system_id":"levelo_inurba_marseille","lat":43.212,"lon":5.35086,"is_reserved":false,"is_disabled":false,"rental_uris":{"android":"levelo://app?vid=89cdfa1b-f563-49ce-85a7-e64b27dab9da","ios":"levelo://app?vid=89cdfa1b-f563-49ce-85a7-e64b27dab9da"},"vehicle_type_id":"4","last_reported":1750781607,"current_range_meters":22400,"station_id":"st_cvj6sg6p6f1abm77japg","pricing_plan_id":"cebpf4jnsgd1na2vs0mg"},{"bike_id":"b935579a-e9d3-4ccf-a111-a22b8dbf997d","system_id":"levelo_inurba_marseille","lat":43.21246,"lon":5.35028,"is_reserved":false,"is_disabled":false,"rental_uris":{"android":"levelo://app?vid=b935579a-e9d3-4ccf-a111-a22b8dbf997d","ios":"levelo://app?vid=b935579a-e9d3-4ccf-a111-a22b8dbf997d"},"vehicle_type_id":"4","last_reported":1750781607,"current_range_meters":22800,"station_id":"","pricing_plan_id":"cebpf4jnsgd1na2vs0mg"},{"bike_id":"a1b924d4-8154-4ed7-9b9d-b544594f0d17","system_id":"levelo_inurba_marseille","lat":43.3092,"lon":5.40144,"is_reserved":false,"is_disabled":false,"rental_uris":{"android":"levelo://app?vid=a1b924d4-8154-4ed7-9b9d-b544594f0d17","ios":"levelo://app?vid=a1b924d4-8154-4ed7-9b9d-b544594f0d17"},"vehicle_type_id":"4","last_reported":1750781607,"current_range_meters":22800,"station_id":"","pricing_plan_id":"cebpf4jnsgd1na2vs0mg"},{"bike_id":"3b797712-aae8-41cd-b5f5-ea34762ed636","system_id":"levelo_inurba_marseille","lat":43.25111,"lon":5.40322,"is_reserved":false,"is_disabled":false,"rental_uris":{"android":"levelo://app?vid=3b797712-aae8-41cd-b5f5-ea34762ed636","ios":"levelo://app?vid=3b797712-aae8-41cd-b5f5-ea34762ed636"},"vehicle_type_id":"4","last_reported":1750781607,"current_range_meters":22800,"station_id":"","pricing_plan_id":"cebpf4jnsgd1na2vs0mg"},{"bike_id":"7de9c3e1-c488-41fe-b4c7-8e754c25e9b0","system_id":"levelo_inurba_marseille","lat":43.295319,"lon":5.385443,"is_reserved":false,"is_disabled":false,"rental_uris":{"android":"levelo://app?vid=7de9c3e1-c488-41fe-b4c7-8e754c25e9b0","ios":"levelo://app?vid=7de9c3e1-c488-41fe-b4c7-8e754c25e9b0"},"vehicle_type_id":"4","last_reported":1750781607,"current_range_meters":22800,"station_id":"ce4bgih2rcd13ifvqba0","pricing_plan_id":"cebpf4jnsgd1na2vs0mg"},{"bike_id":"18897f93-1cdc-46fc-bc11-1f8117eb5bb6","system_id":"levelo_inurba_marseille","lat":43.29792,"lon":5.38098,"is_reserved":false,"is_disabled":false,"rental_uris":{"android":"levelo://app?vid=18897f93-1cdc-46fc-bc11-1f8117eb5bb6","ios":"levelo://app?vid=18897f93-1cdc-46fc-bc11-1f8117eb5bb6"},"vehicle_type_id":"4","last_reported":1750781607,"current_range_meters":22800,"station_id":"ce4bgip2rcd13ifvqbb0","pricing_plan_id":"cebpf4jnsgd1na2vs0mg"},