{"last_updated":1741090733,"ttl":60,"version":"2.2","data":{"bikes":[{"bike_id":"bfce2054-a862-409d-a83b-e6c8fa0ed741","system_id":"levelo_inurba_marseille","lat":43.33605,"lon":5.41023,"is_reserved":false,"is_disabled":false,"rental_uris":{"android":"levelo://app?vid=bfce2054-a862-409d-a83b-e6c8fa0ed741","ios":"levelo://app?vid=bfce2054-a862-409d-a83b-e6c8fa0ed741"},"vehicle_type_id":"4","last_reported":1741090734,"current_range_meters":2800,"station_id":"ce4bhqh2rcd13ifvqhmg","pricing_plan_id":"cebpf4jnsgd1na2vs0mg"},{"bike_id":"aee3493b-cb20-4560-a9e9-80a9da72687b","system_id":"levelo_inurba_marseille","lat":43.29043,"lon":5.39953,"is_reserved":false,"is_disabled":false,"rental_uris":{"android":"levelo://app?vid=aee3493b-cb20-4560-a9e9-80a9da72687b","ios":"levelo://app?vid=aee3493b-cb20-4560-a9e9-80a9da72687b"},"vehicle_type_id":"4","last_reported":1741090734,"current_range_meters":2800,"station_id":"ce4bh392rcd13ifvqdm0","pricing_plan_id":"cebpf4jnsgd1na2vs0mg"},{"bike_id":"91dd3ecc-e76b-43d1-9ac7-b35ce70d1acd","system_id":"levelo_inurba_marseille","lat":43.29903,"lon":5.38144,"is_reserved":false,"is_disabled":false,"rental_uris":{"android":"levelo://app?vid=91dd3ecc-e76b-43d1-9ac7-b35ce70d1acd","ios":"levelo://app?vid=91dd3ecc-e76b-43d1-9ac7-b35ce70d1acd"},"vehicle_type_id":"4","last_reported":1741090734,"current_range_meters":2800,"station_id":"ce4bgj12rcd13ifvqbc0","pricing_plan_id":"cebpf4jnsgd1na2vs0mg"},{"bike_id":"374334c0-7003-4b97-b93d-38fde15f1100","system_id":"levelo_inurba_marseille","lat":43.29265,"lon":5.40922,"is_reserved":false,"is_disabled":false,"rental_uris":{"android":"levelo://app?vid=374334c0-7003-4b97-b93d-38fde15f1100","ios":"levelo://app?vid=374334c0-7003-4b97-b93d-38fde15f1100"},"vehicle_type_id":"4","last_reported":1741090734,"current_range_meters":2800,"station_id":"ce4bh192rcd13ifvqdc0","pricing_plan_id":"cebpf4jnsgd1na2vs0mg"},{"bike_id":"e7bf9aa4-ebab-4733-bd2d-62b9efb9b294","system_id":"levelo_inurba_marseille","lat":43.27492,"lon":5.42455,"is_reserved":false,"is_disabled":true,"rental_uris":{"android":"levelo://app?vid=e7bf9aa4-ebab-4733-bd2d-62b9efb9b294","ios":"levelo://app?vid=e7bf9aa4-ebab-4733-bd2d-62b9efb9b294"},"vehicle_type_id":"4","last_reported":1741090734,"current_range_meters":2800,"station_id":"ce4bhn92rcd13ifvqgrg","pricing_plan_id":"cebpf4jnsgd1na2vs0mg"},{"bike_id":"ac7dff18-432f-45d2-8b5f-11f73d556f0b","system_id":"levelo_inurba_marseille","lat":43.28212,"lon":5.38673,"is_reserved":false,"is_disabled":false,"rental_uris":{"android":"levelo://app?vid=ac7dff18-432f-45d2-8b5f-11f73d556f0b","ios":"levelo://app?vid=ac7dff18-432f-45d2-8b5f-11f73d556f0b"},"vehicle_type_id":"4","last_reported":1741090734,"current_range_meters":2800,"station_id":"ce4bh412rcd13ifvqdr0","pricing_plan_id":"cebpf4jnsgd1na2vs0mg"},{"bike_id":"398e8d45-10ef-4087-8c0d-13d92611c497","system_id":"levelo_inurba_marseille","lat":43.28718,"lon":5.37948,"is_reserved":false,"is_disabled":false,"rental_uris":{"android":"levelo://app?vid=398e8d45-10ef-4087-8c0d-13d92611c497","ios":"levelo://app?vid=398e8d45-10ef-4087-8c0d-13d92611c497"},"vehicle_type_id":"4","last_reported":1741090734,"current_range_meters":3200,"station_id":"ce4bh9p2rcd13ifvqec0","pricing_plan_id":"cebpf4jnsgd1na2vs0mg"},{"bike_id":"286e7b12-6d18-4fe9-b32f-3e61afee6383","system_id":"levelo_inurba_marseille","lat":43.29333,"lon":5.38421,"is_reserved":false,"is_disabled":false,"rental_uris":{"android":"levelo://app?vid=286e7b12-6d18-4fe9-b32f-3e61afee6383","ios":"levelo://app?vid=286e7b12-6d18-4fe9-b32f-3e61afee6383"},"vehicle_type_id":"4","last_reported":1741090734,"current_range_meters":3200,"station_id":"ce4bhh92rcd13ifvqfi0","pricing_plan_id":"cebpf4jnsgd1na2vs0mg"},{"bike_id":"3ea7268b-a3b2-4f37-91d0-c5968969f327","system_id":"levelo_inurba_marseille","lat":43.29965,"lon":5.38496,"is_reserved":false,"is_disabled":false,"rental_uris":{"android":"levelo://app?vid=3ea7268b-a3b2-4f37-91d0-c5968969f327","ios":"levelo://app?vid=3ea7268b-a3b2-4f37-91d0-c5968969f327"},"vehicle_type_id":"4","last_reported":1741090734,"current_range_meters":2800,"station_id":"ce4bgj92rcd13ifvqbd0","pricing_plan_id":"cebpf4jnsgd1na2vs0mg"},{"bike_id":"6fe434a3-c92c-4295-9127-4aa4ce6c2286","system_id":"levelo_inurba_marseille","lat":43.29096,"lon":5.38132,"is_reserved":false,"is_disabled":false,"rental_uris":{"android":"levelo://app?vid=6fe434a3-c92c-4295-9127-4aa4ce6c2286","ios":"levelo://app?vid=6fe434a3-c92c-4295-9127-4aa4ce6c2286"},"vehicle_type_id":"4","last_reported":1741090734,"current_range_meters":3600,"station_id":"ce4bh512rcd13ifvqe2g","pricing_plan_id":"cebpf4jnsgd1na2vs0mg"},{"bike_id":"d80ecf34-d102-4b6e-91bb-ec13418740d4","system_id":"levelo_inurba_marseille","lat":43.2886,"lon":5.35854,"is_reserved":false,"is_disabled":false,"rental_uris":{"android":"levelo://app?vid=d80ecf34-d102-4b6e-91bb-ec13418740d4","ios":"levelo://app?vid=d80ecf34-d102-4b6e-91bb-ec13418740d4"},"vehicle_type_id":"4","last_reported":1741090734,"current_range_meters":4000,"station_id":"ce4bhb12rcd13ifvqem0","pricing_plan_id":"cebpf4jnsgd1na2vs0mg"},{"bike_id":"73681137-6538-4684-87ec-aa9b29720d1e","system_id":"levelo_inurba_marseille","lat":43.23201,"lon":5.3555,"is_reserved":false,"is_disabled":true,"rental_uris":{"android":"levelo://app?vid=73681137-6538-4684-87ec-aa9b29720d1e","ios":"levelo://app?vid=73681137-6538-4684-87ec-aa9b29720d1e"},"vehicle_type_id":"4","last_reported":1741090734,"current_range_meters":4000,"station_id":"ce4bhu92rcd13ifvqi70","pricing_plan_id":"cebpf4jnsgd1na2vs0mg"},{"bike_id":"870dc810-afba-4e2f-a227-82c40f2076b5","system_id":"levelo_inurba_marseille","lat":43.27947,"lon":5.41048,"is_reserved":false,"is_disabled":false,"rental_uris":{"android":"levelo://app?vid=870dc810-afba-4e2f-a227-82c40f2076b5","ios":"levelo://app?vid=870dc810-afba-4e2f-a227-82c40f2076b5"},"vehicle_type_id":"4","last_reported":1741090734,"current_range_meters":4000,"station_id":"ce4bhnp2rcd13ifvqh0g","pricing_plan_id":"cebpf4jnsgd1na2vs0mg"},{"bike_id":"6eca6fd7-404a-4f2c-9ed5-8ad3afb126ba","system_id":"levelo_inurba_marseille","lat":43.30134,"lon":5.39877,"is_reserved":false,"is_disabled":false,"rental_uris":{"android":"levelo://app?vid=6eca6fd7-404a-4f2c-9ed5-8ad3afb126ba","ios":"levelo://app?vid=6eca6fd7-404a-4f2c-9ed5-8ad3afb126ba"},"vehicle_type_id":"4","last_reported":1741090734,"current_range_meters":4000,"station_id":"ce4bh0h2rcd13ifvqd40","pricing_plan_id":"cebpf4jnsgd1na2vs0mg"},{"bike_id":"339ea272-f25a-456c-877c-feadbff46552","system_id":"levelo_inurba_marseille","lat":43.27415,"lon":5.39364,"is_reserved":false,"is_disabled":false,"rental_uris":{"android":"levelo://app?vid=339ea272-f25a-456c-877c-feadbff46552","ios":"levelo://app?vid=339ea272-f25a-456c-877c-feadbff46552"},"vehicle_type_id":"4","last_reported":1741090734,"current_range_meters":4800,"station_id":"ce4bhdp2rcd13ifvqf20","pricing_plan_id":"cebpf4jnsgd1na2vs0mg"},{"bike_id":"870b4654-6490-4b0c-9c93-e9d2698e688a","system_id":"levelo_inurba_marseille","lat":43.23146,"lon":5.43714,"is_reserved":false,"is_disabled":false,"rental_uris":{"android":"levelo://app?vid=870b4654-6490-4b0c-9c93-e9d2698e688a","ios":"levelo://app?vid=870b4654-6490-4b0c-9c93-e9d2698e688a"},"vehicle_type_id":"4","last_reported":1741090734,"current_range_meters":4800,"station_id":"ce4bhmp2rcd13ifvqgog","pricing_plan_id":"cebpf4jnsgd1na2vs0mg"},{"bike_id":"9db49163-1bcf-4cb4-975b-b1e9ddf4e6d9","system_id":"levelo_inurba_marseille","lat":43.27176,"lon":5.409951,"is_reserved":false,"is_disabled":false,"rental_uris":{"android":"levelo://app?vid=9db49163-1bcf-4cb4-975b-b1e9ddf4e6d9","ios":"levelo://app?vid=9db49163-1bcf-4cb4-975b-b1e9ddf4e6d9"},"vehicle_type_id":"4","last_reported":1741090734,"current_range_meters":4800,"station_id":"ce4bhl12rcd13ifvqgf0","pricing_plan_id":"cebpf4jnsgd1na2vs0mg"},{"bike_id":"f381c9bd-14fa-41ab-b589-3ecebd6dfe48","system_id":"levelo_inurba_marseille","lat":43.32367,"lon":5.36759,"is_reserved":false,"is_disabled":false,"rental_uris":{"android":"levelo://app?vid=f381c9bd-14fa-41ab-b589-3ecebd6dfe48","ios":"levelo://app?vid=f381c9bd-14fa-41ab-b589-3ecebd6dfe48"},"vehicle_type_id":"4","last_reported":1741090734,"current_range_meters":4800,"station_id":"ce4bhsh2rcd13ifvqi2g","pricing_plan_id":"cebpf4jnsgd1na2vs0mg"},{"bike_id":"aea04053-5b47-4674-8f26-eba7b971e2ed","system_id":"levelo_inurba_marseille","lat":43.28618,"lon":5.35102,"is_reserved":false,"is_disabled":false,"rental_uris":{"android":"levelo://app?vid=aea04053-5b47-4674-8f26-eba7b971e2ed","ios":"levelo://app?vid=aea04053-5b47-4674-8f26-eba7b971e2ed"},"vehicle_type_id":"4","last_reported":1741090734,"current_range_meters":5600,"station_id":"ce4bhch2rcd13ifvqeug","pricing_plan_id":"cebpf4jnsgd1na2vs0mg"},{"bike_id":"2d4e1c3e-7392-4616-b3cf-646345a17bd5","system_id":"levelo_inurba_marseille","lat":43.2955,"lon":5.42252,"is_reserved":false,"is_disabled":true,"rental_uris":{"android":"levelo://app?vid=2d4e1c3e-7392-4616-b3cf-646345a17bd5","ios":"levelo://app?vid=2d4e1c3e-7392-4616-b3cf-646345a17bd5"},"vehicle_type_id":"4","last_reported":1741090734,"current_range_meters":5600,"station_id":"ce4bhph2rcd13ifvqhdg","pricing_plan_id":"cebpf4jnsgd1na2vs0mg"},{"bike_id":"fb5d0992-289f-4e64-a684-84747b0ab4d4","system_id":"levelo_inurba_marseille","lat":43.29258,"lon":5.3762,"is_reserved":false,"is_disabled":false,"rental_uris":{"android":"levelo://app?vid=fb5d0992-289f-4e64-a684-84747b0ab4d4","ios":"levelo://app?vid=fb5d0992-289f-4e64-a684-84747b0ab4d4"},"vehicle_type_id":"4","last_reported":1741090734,"current_range_meters":5600,"station_id":"ce4bgi12rcd13ifvqb80","pricing_plan_id":"cebpf4jnsgd1na2vs0mg"},{"bike_id":"0b136fce-6ff8-4501-a466-b61bc717d2c1","system_id":"levelo_inurba_marseille","lat":43.3014,"lon":5.39883,"is_reserved":false,"is_disabled":false,"rental_uris":{"android":"levelo://app?vid=0b136fce-6ff8-4501-a466-b61bc717d2c1","ios":"levelo://app?vid=0b136fce-6ff8-4501-a466-b61bc717d2c1"},"vehicle_type_id":"4","last_reported":1741090734,"current_range_meters":5600,"station_id":"ce4bh0h2rcd13ifvqd40","pricing_plan_id":"cebpf4jnsgd1na2vs0mg"},{"bike_id":"40323d2b-7fa4-44fa-8afd-3105efa74518","system_id":"levelo_inurba_marseille","lat":43.24121,"lon":5.39709,"is_reserved":false,"is_disabled":false,"rental_uris":{"android":"levelo://app?vid=40323d2b-7fa4-44fa-8afd-3105efa74518","ios":"levelo://app?vid=40323d2b-7fa4-44fa-8afd-3105efa74518"},"vehicle_type_id":"4","last_reported":1741090734,"current_range_meters":6000,"station_id":"ce4bhn12rcd13ifvqgpg","pricing_plan_id":"cebpf4jnsgd1na2vs0mg"},{"bike_id":"351a78a5-52e0-4fcc-968c-d2f55f5b2d81","system_id":"levelo_inurba_marseille","lat":43.25935,"lon":5.4091,"is_reserved":false,"is_disabled":false,"rental_uris":{"android":"levelo://app?vid=351a78a5-52e0-4fcc-968c-d2f55f5b2d81","ios":"levelo://app?vid=351a78a5-52e0-4fcc-968c-d2f55f5b2d81"},"vehicle_type_id":"4","last_reported":1741090734,"current_range_meters":6000,"station_id":"ce4bhm92rcd13ifvqglg","pricing_plan_id":"cebpf4jnsgd1na2vs0mg"},{"bike_id":"a9d79ea4-1a9f-411e-ac34-ccf7e691d6af","system_id":"levelo_inurba_marseille","lat":43.30579,"lon":5.39343,"is_reserved":false,"is_disabled":false,"rental_uris":{"android":"levelo://app?vid=a9d79ea4-1a9f-411e-ac34-ccf7e691d6af","ios":"levelo://app?vid=a9d79ea4-1a9f-411e-ac34-ccf7e691d6af"},"vehicle_type_id":"4","last_reported":1741090734,"current_range_meters":6000,"station_id":"ce4bh0p2rcd13ifvqd80","pricing_plan_id":"cebpf4jnsgd1na2vs0mg"},{"bike_id":"b5c38ac2-d621-40c9-ad4f-db7bccc39e31","system_id":"levelo_inurba_marseille","lat":43.28261,"lon":5.35059,"is_reserved":false,"is_disabled":false,"rental_uris":{"android":"levelo://app?vid=b5c38ac2-d621-40c9-ad4f-db7bccc39e31","ios":"levelo://app?vid=b5c38ac2-d621-40c9-ad4f-db7bccc39e31"},"vehicle_type_id":"4","last_reported":1741090734,"current_range_meters":6000,"station_id":"ce4bghh2rcd13ifvqb60","pricing_plan_id":"cebpf4jnsgd1na2vs0mg"},{"bike_id":"f54f2d87-572c-4d1e-862d-79b3743259a6","system_id":"levelo_inurba_marseille","lat":43.27063,"lon":5.42266,"is_reserved":false,"is_disabled":false,"rental_uris":{"android":"levelo://app?vid=f54f2d87-572c-4d1e-862d-79b3743259a6","ios":"levelo://app?vid=f54f2d87-572c-4d1e-862d-79b3743259a6"},"vehicle_type_id":"4","last_reported":1741090734,"current_range_meters":6000,"station_id":"ce4bhk92rcd13ifvqgb0","pricing_plan_id":"cebpf4jnsgd1na2vs0mg"},{"bike_id":"ebc3fc1a-7030-4882-a262-77082338911c","system_id":"levelo_inurba_marseille","lat":43.23953,"lon":5.36629,"is_reserved":false,"is_disabled":false,"rental_uris":{"android":"levelo://app?vid=ebc3fc1a-7030-4882-a262-77082338911c","ios":"levelo://app?vid=ebc3fc1a-7030-4882-a262-77082338911c"},"vehicle_type_id":"4","last_reported":1741090734,"current_range_meters":6000,"station_id":"ce4bhi12rcd13ifvqfp0","pricing_plan_id":"cebpf4jnsgd1na2vs0mg"},{"bike_id":"bd1e54e4-1300-487c-bf99-4a8c72eef52f","system_id":"levelo_inurba_marseille","lat":43.28992,"lon":5.37832,"is_reserved":false,"is_disabled":false,"rental_uris":{"android":"levelo://app?vid=bd1e54e4-1300-487c-bf99-4a8c72eef52f","ios":"levelo://app?vid=bd1e54e4-1300-487c-bf99-4a8c72eef52f"},"vehicle_type_id":"4","last_reported":1741090734,"current_range_meters":6000,"station_id":"ce4bh9p2rcd13ifvqed0","pricing_plan_id":"cebpf4jnsgd1na2vs0mg"},{"bike_id":"59559806-c7d9-46c5-ad2f-cf2f1f90b22c","system_id":"levelo_inurba_marseille","lat":43.32656,"lon":5.40996,"is_reserved":false,"is_disabled":false,"rental_uris":{"android":"levelo://app?vid=59559806-c7d9-46c5-ad2f-cf2f1f90b22c","ios":"levelo://app?vid=59559806-c7d9-46c5-ad2f-cf2f1f90b22c"},"vehicle_type_id":"4","last_reported":1741090734,"current_range_meters":6400,"station_id":"ce4bhpp2rcd13ifvqhgg","pricing_plan_id":"cebpf4jnsgd1na2vs0mg"},{"bike_id":"e942be69-ad39-4639-a574-1ccae10f01bb","system_id":"levelo_inurba_marseille","lat":43.30589,"lon":5.39347,"is_reserved":false,"is_disabled":false,"rental_uris":{"android":"levelo://app?vid=e942be69-ad39-4639-a574-1ccae10f01bb","ios":"levelo://app?vid=e942be69-ad39-4639-a574-1ccae10f01bb"},"vehicle_type_id":"4","last_reported":1741090734,"current_range_meters":6400,"station_id":"ce4bh0p2rcd13ifvqd80","pricing_plan_id":"cebpf4jnsgd1na2vs0mg"},{"bike_id":"548390ec-c86f-4b44-84fd-baaa744faf48","system_id":"levelo_inurba_marseille","lat":43.29317,"lon":5.37002,"is_reserved":false,"is_disabled":false,"rental_uris":{"android":"levelo://app?vid=548390ec-c86f-4b44-84fd-baaa744faf48","ios":"levelo://app?vid=548390ec-c86f-4b44-84fd-baaa744faf48"},"vehicle_type_id":"4","last_reported":1741090734,"current_range_meters":6400,"station_id":"","pricing_plan_id":"cebpf4jnsgd1na2vs0mg"},{"bike_id":"1b59f1d9-4ef3-4a9d-8f51-24a7215244e4","system_id":"levelo_inurba_marseille","lat":43.276185,"lon":5.361168,"is_reserved":false,"is_disabled":false,"rental_uris":{"android":"levelo://app?vid=1b59f1d9-4ef3-4a9d-8f51-24a7215244e4","ios":"levelo://app?vid=1b59f1d9-4ef3-4a9d-8f51-24a7215244e4"},"vehicle_type_id":"4","last_reported":1741090734,"current_range_meters":6800,"station_id":"ce4bgj92rcd13ifvqbe0","pricing_plan_id":"cebpf4jnsgd1na2vs0mg"},{"bike_id":"68f2cf00-5830-4f85-b26c-e986e321ba3b","system_id":"levelo_inurba_marseille","lat":43.25082,"lon":5.39527,"is_reserved":false,"is_disabled":false,"rental_uris":{"android":"levelo://app?vid=68f2cf00-5830-4f85-b26c-e986e321ba3b","ios":"levelo://app?vid=68f2cf00-5830-4f85-b26c-e986e321ba3b"},"vehicle_type_id":"4","last_reported":1741090734,"current_range_meters":6800,"station_id":"ce4bhm12rcd13ifvqgkg","pricing_plan_id":"cebpf4jnsgd1na2vs0mg"},{"bike_id":"204b5da2-d983-455a-8487-8f7a909b95e3","system_id":"levelo_inurba_marseille","lat":43.301154,"lon":5.371616,"is_reserved":false,"is_disabled":false,"rental_uris":{"android":"levelo://app?vid=204b5da2-d983-455a-8487-8f7a909b95e3","ios":"levelo://app?vid=204b5da2-d983-455a-8487-8f7a909b95e3"},"vehicle_type_id":"4","last_reported":1741090734,"current_range_meters":6800,"station_id":"ce4bgh92rcd13ifvqb40","pricing_plan_id":"cebpf4jnsgd1na2vs0mg"},{"bike_id":"94bcb792-6f62-48b0-a232-3543910aed4c","system_id":"levelo_inurba_marseille","lat":43.23964,"lon":5.36633,"is_reserved":false,"is_disabled":false,"rental_uris":{"android":"levelo://app?vid=94bcb792-6f62-48b0-a232-3543910aed4c","ios":"levelo://app?vid=94bcb792-6f62-48b0-a232-3543910aed4c"},"vehicle_type_id":"4","last_reported":1741090734,"current_range_meters":6800,"station_id":"ce4bhi12rcd13ifvqfp0","pricing_plan_id":"cebpf4jnsgd1na2vs0mg"},{"bike_id":"7bea709c-85af-4216-a8e5-19de784dd721","system_id":"levelo_inurba_marseille","lat":43.2782,"lon":5.4072,"is_reserved":false,"is_disabled":false,"rental_uris":{"android":"levelo://app?vid=7bea709c-85af-4216-a8e5-19de784dd721","ios":"levelo://app?vid=7bea709c-85af-4216-a8e5-19de784dd721"},"vehicle_type_id":"4","last_reported":1741090734,"current_range_meters":6800,"station_id":"ce4bhnh2rcd13ifvqgtg","pricing_plan_id":"cebpf4jnsgd1na2vs0mg"},{"bike_id":"341e38f2-a025-4702-b610-2297e5330564","system_id":"levelo_inurba_marseille","lat":43.28617,"lon":5.35111,"is_reserved":false,"is_disabled":false,"rental_uris":{"android":"levelo://app?vid=341e38f2-a025-4702-b610-2297e5330564","ios":"levelo://app?vid=341e38f2-a025-4702-b610-2297e5330564"},"vehicle_type_id":"4","last_reported":1741090734,"current_range_meters":6800,"station_id":"ce4bhch2rcd13ifvqeug","pricing_plan_id":"cebpf4jnsgd1na2vs0mg"},{"bike_id":"0b78ac9b-8ad5-47e7-87c9-4dbf9ce80cb2","system_id":"levelo_inurba_marseille","lat":43.30595,"lon":5.39356,"is_reserved":false,"is_disabled":false,"rental_uris":{"android":"levelo://app?vid=0b78ac9b-8ad5-47e7-87c9-4dbf9ce80cb2","ios":"levelo://app?vid=0b78ac9b-8ad5-47e7-87c9-4dbf9ce80cb2"},"vehicle_type_id":"4","last_reported":1741090734,"current_range_meters":6800,"station_id":"ce4bh0p2rcd13ifvqd80","pricing_plan_id":"cebpf4jnsgd1na2vs0mg"},{"bike_id":"52da58d5-3546-47d6-bd9f-c2dbd7f1d46c","system_id":"levelo_inurba_marseille","lat":43.30555,"lon":5.36521,"is_reserved":false,"is_disabled":false,"rental_uris":{"android":"levelo://app?vid=52da58d5-3546-47d6-bd9f-c2dbd7f1d46c","ios":"levelo://app?vid=52da58d5-3546-47d6-bd9f-c2dbd7f1d46c"},"vehicle_type_id":"4","last_reported":1741090734,"current_range_meters":6800,"station_id":"ce4bgs12rcd13ifvqcag","pricing_plan_id":"cebpf4jnsgd1na2vs0mg"},{"bike_id":"69539ccb-ca63-4555-bd43-968ddad5c3c6","system_id":"levelo_inurba_marseille","lat":43.24999,"lon":5.38922,"is_reserved":false,"is_disabled":false,"rental_uris":{"android":"levelo://app?vid=69539ccb-ca63-4555-bd43-968ddad5c3c6","ios":"levelo://app?vid=69539ccb-ca63-4555-bd43-968ddad5c3c6"},"vehicle_type_id":"4","last_reported":1741090734,"current_range_meters":6800,"station_id":"ce4bhgp2rcd13ifvqfd0","pricing_plan_id":"cebpf4jnsgd1na2vs0mg"},{"bike_id":"f5824151-45a8-40ad-a0e6-e80ea5e5887d","system_id":"levelo_inurba_marseille","lat":43.305299,"lon":5.365348,"is_reserved":false,"is_disabled":false,"rental_uris":{"android":"levelo://app?vid=f5824151-45a8-40ad-a0e6-e80ea5e5887d","ios":"levelo://app?vid=f5824151-45a8-40ad-a0e6-e80ea5e5887d"},"vehicle_type_id":"4","last_reported":1741090734,"current_range_meters":6800,"station_id":"ce4bgs12rcd13ifvqcag","pricing_plan_id":"cebpf4jnsgd1na2vs0mg"},{"bike_id":"ce8ef3d2-07e3-4512-8813-bcde53a01429","system_id":"levelo_inurba_marseille","lat":43.24167,"lon":5.3639,"is_reserved":false,"is_disabled":false,"rental_uris":{"android":"levelo://app?vid=ce8ef3d2-07e3-4512-8813-bcde53a01429","ios":"levelo://app?vid=ce8ef3d2-07e3-4512-8813-bcde53a01429"},"vehicle_type_id":"4","last_reported":1741090734,"current_range_meters":7200,"station_id":"cpo36qri1sfpv3e86is0","pricing_plan_id":"cebpf4jnsgd1na2vs0mg"},{"bike_id":"2153cca3-a190-4982-9370-a46f24ffe4b0","system_id":"levelo_inurba_marseille","lat":43.27069,"lon":5.40264,"is_reserved":false,"is_disabled":false,"rental_uris":{"android":"levelo://app?vid=2153cca3-a190-4982-9370-a46f24ffe4b0","ios":"levelo://app?vid=2153cca3-a190-4982-9370-a46f24ffe4b0"},"vehicle_type_id":"4","last_reported":1741090734,"current_range_meters":7200,"station_id":"ce4bhk92rcd13ifvqgc0","pricing_plan_id":"cebpf4jnsgd1na2vs0mg"},{"bike_id":"785f65cf-1424-422b-aa1e-c33d7d9ad805","system_id":"levelo_inurba_marseille","lat":43.3361,"lon":5.41032,"is_reserved":false,"is_disabled":false,"rental_uris":{"android":"levelo://app?vid=785f65cf-1424-422b-aa1e-c33d7d9ad805","ios":"levelo://app?vid=785f65cf-1424-422b-aa1e-c33d7d9ad805"},"vehicle_type_id":"4","last_reported":1741090734,"current_range_meters":7200,"station_id":"ce4bhqh2rcd13ifvqhmg","pricing_plan_id":"cebpf4jnsgd1na2vs0mg"},{"bike_id":"8c900d9f-8f24-4e7f-a2de-12aea54b61eb","system_id":"levelo_inurba_marseille","lat":43.28265,"lon":5.35063,"is_reserved":false,"is_disabled":false,"rental_uris":{"android":"levelo://app?vid=8c900d9f-8f24-4e7f-a2de-12aea54b61eb","ios":"levelo://app?vid=8c900d9f-8f24-4e7f-a2de-12aea54b61eb"},"vehicle_type_id":"4","last_reported":1741090734,"current_range_meters":7200,"station_id":"ce4bhbp2rcd13ifvqerg","pricing_plan_id":"cebpf4jnsgd1na2vs0mg"},{"bike_id":"cda5697b-6054-45b8-a4ac-3fd1ca0b4b77","system_id":"levelo_inurba_marseille","lat":43.30255,"lon":5.40052,"is_reserved":false,"is_disabled":false,"rental_uris":{"android":"levelo://app?vid=cda5697b-6054-45b8-a4ac-3fd1ca0b4b77","ios":"levelo://app?vid=cda5697b-6054-45b8-a4ac-3fd1ca0b4b77"},"vehicle_type_id":"4","last_reported":1741090734,"current_range_meters":7200,"station_id":"ce4bgvh2rcd13ifvqcs0","pricing_plan_id":"cebpf4jnsgd1na2vs0mg"},{"bike_id":"55b5738c-3e1b-4afd-9022-197309a1a55e","system_id":"levelo_inurba_marseille","lat":43.32539,"lon":5.41425,"is_reserved":false,"is_disabled":false,"rental_uris":{"android":"levelo://app?vid=55b5738c-3e1b-4afd-9022-197309a1a55e","ios":"levelo://app?vid=55b5738c-3e1b-4afd-9022-197309a1a55e"},"vehicle_type_id":"4","last_reported":1741090734,"current_range_meters":7200,"station_id":"ce4bhq12rcd13ifvqhhg","pricing_plan_id":"cebpf4jnsgd1na2vs0mg"},{"bike_id":"9bd0dc77-995b-4bd0-acac-4c70060602f9","system_id":"levelo_inurba_marseille","lat":43.28398,"lon":5.37515,"is_reserved":false,"is_disabled":true,"rental_uris":{"android":"levelo://app?vid=9bd0dc77-995b-4bd0-acac-4c70060602f9","ios":"levelo://app?vid=9bd0dc77-995b-4bd0-acac-4c70060602f9"},"vehicle_type_id":"4","last_reported":1741090734,"current_range_meters":7200,"station_id":"ce4bh412rcd13ifvqds0","pricing_plan_id":"cebpf4jnsgd1na2vs0mg"},{"bike_id":"3799f67b-b835-4345-ab11-d21b8a6230f9","system_id":"levelo_inurba_marseille","lat":43.28488,"lon":5.38417,"is_reserved":false,"is_disabled":false,"rental_uris":{"android":"levelo://app?vid=3799f67b-b835-4345-ab11-d21b8a6230f9","ios":"levelo://app?vid=3799f67b-b835-4345-ab11-d21b8a6230f9"},"vehicle_type_id":"4","last_reported":1741090734,"current_range_meters":7200,"station_id":"ce4bh512rcd13ifvqe3g","pricing_plan_id":"cebpf4jnsgd1na2vs0mg"},{"bike_id":"d20d4ac0-3e72-4d7c-b740-440a0b15f885","system_id":"levelo_inurba_marseille","lat":43.24184,"lon":5.39732,"is_reserved":false,"is_disabled":false,"rental_uris":{"android":"levelo://app?vid=d20d4ac0-3e72-4d7c-b740-440a0b15f885","ios":"levelo://app?vid=d20d4ac0-3e72-4d7c-b740-440a0b15f885"},"vehicle_type_id":"4","last_reported":1741090734,"current_range_meters":7200,"station_id":"ce4bhn12rcd13ifvqgpg","pricing_plan_id":"cebpf4jnsgd1na2vs0mg"},{"bike_id":"90a47c55-7d0c-4b6b-94e5-81e21155469e","system_id":"levelo_inurba_marseille","lat":43.23149,"lon":5.43719,"is_reserved":false,"is_disabled":false,"rental_uris":{"android":"levelo://app?vid=90a47c55-7d0c-4b6b-94e5-81e21155469e","ios":"levelo://app?vid=90a47c55-7d0c-4b6b-94e5-81e21155469e"},"vehicle_type_id":"4","last_reported":1741090734,"current_range_meters":7200,"station_id":"ce4bhmp2rcd13ifvqgog","pricing_plan_id":"cebpf4jnsgd1na2vs0mg"},{"bike_id":"de061b4c-4129-41ae-ac8c-d4ce23e8e833","system_id":"levelo_inurba_marseille","lat":43.27202,"lon":5.39185,"is_reserved":false,"is_disabled":false,"rental_uris":{"android":"levelo://app?vid=de061b4c-4129-41ae-ac8c-d4ce23e8e833","ios":"levelo://app?vid=de061b4c-4129-41ae-ac8c-d4ce23e8e833"},"vehicle_type_id":"4","last_reported":1741090734,"current_range_meters":7200,"station_id":"ce4bhhp2rcd13ifvqfm0","pricing_plan_id":"cebpf4jnsgd1na2vs0mg"},{"bike_id":"10326af7-e54a-41ec-a30c-f479959beda5","system_id":"levelo_inurba_marseille","lat":43.23148,"lon":5.4371,"is_reserved":false,"is_disabled":false,"rental_uris":{"android":"levelo://app?vid=10326af7-e54a-41ec-a30c-f479959beda5","ios":"levelo://app?vid=10326af7-e54a-41ec-a30c-f479959beda5"},"vehicle_type_id":"4","last_reported":1741090734,"current_range_meters":8000,"station_id":"ce4bhmp2rcd13ifvqgog","pricing_plan_id":"cebpf4jnsgd1na2vs0mg"},{"bike_id":"8853f3b9-20a3-4480-9c1d-81721e27d9f9","system_id":"levelo_inurba_marseille","lat":43.26059,"lon":5.39388,"is_reserved":false,"is_disabled":false,"rental_uris":{"android":"levelo://app?vid=8853f3b9-20a3-4480-9c1d-81721e27d9f9","ios":"levelo://app?vid=8853f3b9-20a3-4480-9c1d-81721e27d9f9"},"vehicle_type_id":"4","last_reported":1741090734,"current_range_meters":8000,"station_id":"ce4bhh92rcd13ifvqfj0","pricing_plan_id":"cebpf4jnsgd1na2vs0mg"},{"bike_id":"2718e268-74ea-4dae-9670-4dd113fa12c9","system_id":"levelo_inurba_marseille","lat":43.27057,"lon":5.40255,"is_reserved":false,"is_disabled":false,"rental_uris":{"android":"levelo://app?vid=2718e268-74ea-4dae-9670-4dd113fa12c9","ios":"levelo://app?vid=2718e268-74ea-4dae-9670-4dd113fa12c9"},"vehicle_type_id":"4","last_reported":1741090734,"current_range_meters":8000,"station_id":"ce4bhk92rcd13ifvqgc0","pricing_plan_id":"cebpf4jnsgd1na2vs0mg"},{"bike_id":"e599aac0-c825-4643-aeb1-c2d8b1ae00e8","system_id":"levelo_inurba_marseille","lat":43.24159,"lon":5.39718,"is_reserved":false,"is_disabled":false,"rental_uris":{"android":"levelo://app?vid=e599aac0-c825-4643-aeb1-c2d8b1ae00e8","ios":"levelo://app?vid=e599aac0-c825-4643-aeb1-c2d8b1ae00e8"},"vehicle_type_id":"4","last_reported":1741090734,"current_range_meters":8000,"station_id":"ce4bhn12rcd13ifvqgpg","pricing_plan_id":"cebpf4jnsgd1na2vs0mg"},{"bike_id":"bf6f8f4e-70f0-4d35-866f-6aeb1098c9ea","system_id":"levelo_inurba_marseille","lat":43.27815,"lon":5.40713,"is_reserved":false,"is_disabled":false,"rental_uris":{"android":"levelo://app?vid=bf6f8f4e-70f0-4d35-866f-6aeb1098c9ea","ios":"levelo://app?vid=bf6f8f4e-70f0-4d35-866f-6aeb1098c9ea"},"vehicle_type_id":"4","last_reported":1741090734,"current_range_meters":8000,"station_id":"ce4bhnh2rcd13ifvqgtg","pricing_plan_id":"cebpf4jnsgd1na2vs0mg"},{"bike_id":"f77f6f36-a3e8-4eac-9705-d385924f98db","system_id":"levelo_inurba_marseille","lat":43.30483,"lon":5.3699,"is_reserved":false,"is_disabled":false,"rental_uris":{"android":"levelo://app?vid=f77f6f36-a3e8-4eac-9705-d385924f98db","ios":"levelo://app?vid=f77f6f36-a3e8-4eac-9705-d385924f98db"},"vehicle_type_id":"4","last_reported":1741090734,"current_range_meters":8000,"station_id":"","pricing_plan_id":"cebpf4jnsgd1na2vs0mg"},{"bike_id":"102f45e2-090d-4e40-b379-5e95185a6ef0","system_id":"levelo_inurba_marseille","lat":43.3011,"lon":5.39882,"is_reserved":false,"is_disabled":true,"rental_uris":{"android":"levelo://app?vid=102f45e2-090d-4e40-b379-5e95185a6ef0","ios":"levelo://app?vid=102f45e2-090d-4e40-b379-5e95185a6ef0"},"vehicle_type_id":"4","last_reported":1741090734,"current_range_meters":8000,"station_id":"ce4bh0h2rcd13ifvqd40","pricing_plan_id":"cebpf4jnsgd1na2vs0mg"},{"bike_id":"8a7f7dec-8ac4-4ac7-9f33-b53621825235","system_id":"levelo_inurba_marseille","lat":43.27822,"lon":5.40722,"is_reserved":false,"is_disabled":false,"rental_uris":{"android":"levelo://app?vid=8a7f7dec-8ac4-4ac7-9f33-b53621825235","ios":"levelo://app?vid=8a7f7dec-8ac4-4ac7-9f33-b53621825235"},"vehicle_type_id":"4","last_reported":1741090734,"current_range_meters":8000,"station_id":"ce4bhnh2rcd13ifvqgtg","pricing_plan_id":"cebpf4jnsgd1na2vs0mg"},{"bike_id":"604a2051-4916-4a21-97fc-d1f4532cfc04","system_id":"levelo_inurba_marseille","lat":43.23961,"lon":5.36654,"is_reserved":false,"is_disabled":false,"rental_uris":{"android":"levelo://app?vid=604a2051-4916-4a21-97fc-d1f4532cfc04","ios":"levelo://app?vid=604a2051-4916-4a21-97fc-d1f4532cfc04"},"vehicle_type_id":"4","last_reported":1741090734,"current_range_meters":8000,"station_id":"ce4bhi12rcd13ifvqfp0","pricing_plan_id":"cebpf4jnsgd1na2vs0mg"},{"bike_id":"5f6058f8-17d6-41f9-bf21-73aab62a2071","system_id":"levelo_inurba_marseille","lat":43.25835,"lon":5.39411,"is_reserved":false,"is_disabled":false,"rental_uris":{"android":"levelo://app?vid=5f6058f8-17d6-41f9-bf21-73aab62a2071","ios":"levelo://app?vid=5f6058f8-17d6-41f9-bf21-73aab62a2071"},"vehicle_type_id":"4","last_reported":1741090734,"current_range_meters":8400,"station_id":"ce4bhip2rcd13ifvqft0","pricing_plan_id":"cebpf4jnsgd1na2vs0mg"},{"bike_id":"9845a878-6164-47e8-b202-d1bb1d0f47bc","system_id":"levelo_inurba_marseille","lat":43.30954,"lon":5.39034,"is_reserved":false,"is_disabled":true,"rental_uris":{"android":"levelo://app?vid=9845a878-6164-47e8-b202-d1bb1d0f47bc","ios":"levelo://app?vid=9845a878-6164-47e8-b202-d1bb1d0f47bc"},"vehicle_type_id":"4","last_reported":1741090734,"current_range_meters":8400,"station_id":"ce4bgup2rcd13ifvqco0","pricing_plan_id":"cebpf4jnsgd1na2vs0mg"},{"bike_id":"853e9f93-6f18-4242-b269-d87025e7bb93","system_id":"levelo_inurba_marseille","lat":43.3075,"lon":5.37091,"is_reserved":false,"is_disabled":false,"rental_uris":{"android":"levelo://app?vid=853e9f93-6f18-4242-b269-d87025e7bb93","ios":"levelo://app?vid=853e9f93-6f18-4242-b269-d87025e7bb93"},"vehicle_type_id":"4","last_reported":1741090734,"current_range_meters":8400,"station_id":"","pricing_plan_id":"cebpf4jnsgd1na2vs0mg"},{"bike_id":"69cd3787-0277-4a5c-be2d-c41c86958702","system_id":"levelo_inurba_marseille","lat":43.24179,"lon":5.39731,"is_reserved":false,"is_disabled":false,"rental_uris":{"android":"levelo://app?vid=69cd3787-0277-4a5c-be2d-c41c86958702","ios":"levelo://app?vid=69cd3787-0277-4a5c-be2d-c41c86958702"},"vehicle_type_id":"4","last_reported":1741090734,"current_range_meters":8400,"station_id":"ce4bhn12rcd13ifvqgpg","pricing_plan_id":"cebpf4jnsgd1na2vs0mg"},{"bike_id":"5bfc0aab-ae9d-47f7-8c7d-7174d35e65d4","system_id":"levelo_inurba_marseille","lat":43.30146,"lon":5.37417,"is_reserved":false,"is_disabled":false,"rental_uris":{"android":"levelo://app?vid=5bfc0aab-ae9d-47f7-8c7d-7174d35e65d4","ios":"levelo://app?vid=5bfc0aab-ae9d-47f7-8c7d-7174d35e65d4"},"vehicle_type_id":"4","last_reported":1741090734,"current_range_meters":8400,"station_id":"ce4bgs92rcd13ifvqcc0","pricing_plan_id":"cebpf4jnsgd1na2vs0mg"},{"bike_id":"21b31cfb-c79e-4014-abe6-d6f4171298b2","system_id":"levelo_inurba_marseille","lat":43.23178,"lon":5.39989,"is_reserved":false,"is_disabled":false,"rental_uris":{"android":"levelo://app?vid=21b31cfb-c79e-4014-abe6-d6f4171298b2","ios":"levelo://app?vid=21b31cfb-c79e-4014-abe6-d6f4171298b2"},"vehicle_type_id":"4","last_reported":1741090734,"current_range_meters":8400,"station_id":"ce4bhn12rcd13ifvqgqg","pricing_plan_id":"cebpf4jnsgd1na2vs0mg"},{"bike_id":"346e7e1e-f5ad-4199-8951-d75428932c29","system_id":"levelo_inurba_marseille","lat":43.32482,"lon":5.36573,"is_reserved":false,"is_disabled":false,"rental_uris":{"android":"levelo://app?vid=346e7e1e-f5ad-4199-8951-d75428932c29","ios":"levelo://app?vid=346e7e1e-f5ad-4199-8951-d75428932c29"},"vehicle_type_id":"4","last_reported":1741090734,"current_range_meters":8400,"station_id":"ce4bhs12rcd13ifvqhvg","pricing_plan_id":"cebpf4jnsgd1na2vs0mg"},{"bike_id":"bb180e23-ad2a-454f-a482-5869f492724d","system_id":"levelo_inurba_marseille","lat":43.29779,"lon":5.37094,"is_reserved":false,"is_disabled":false,"rental_uris":{"android":"levelo://app?vid=bb180e23-ad2a-454f-a482-5869f492724d","ios":"levelo://app?vid=bb180e23-ad2a-454f-a482-5869f492724d"},"vehicle_type_id":"4","last_reported":1741090734,"current_range_meters":8400,"station_id":"ce4bgop2rcd13ifvqc1g","pricing_plan_id":"cebpf4jnsgd1na2vs0mg"},{"bike_id":"32039365-9da2-4297-ba07-b74f03c3001e","system_id":"levelo_inurba_marseille","lat":43.31361,"lon":5.36803,"is_reserved":false,"is_disabled":false,"rental_uris":{"android":"levelo://app?vid=32039365-9da2-4297-ba07-b74f03c3001e","ios":"levelo://app?vid=32039365-9da2-4297-ba07-b74f03c3001e"},"vehicle_type_id":"4","last_reported":1741090734,"current_range_meters":8400,"station_id":"","pricing_plan_id":"cebpf4jnsgd1na2vs0mg"},{"bike_id":"43b7465d-aad8-45cc-8b4f-e87808f76059","system_id":"levelo_inurba_marseille","lat":43.26198,"lon":5.37932,"is_reserved":false,"is_disabled":false,"rental_uris":{"android":"levelo://app?vid=43b7465d-aad8-45cc-8b4f-e87808f76059","ios":"levelo://app?vid=43b7465d-aad8-45cc-8b4f-e87808f76059"},"vehicle_type_id":"4","last_reported":1741090734,"current_range_meters":8400,"station_id":"ce4bhjp2rcd13ifvqg90","pricing_plan_id":"cebpf4jnsgd1na2vs0mg"},{"bike_id":"cb632583-26a5-4e81-9595-adb7d7e48f71","system_id":"levelo_inurba_marseille","lat":43.28356,"lon":5.38115,"is_reserved":false,"is_disabled":false,"rental_uris":{"android":"levelo://app?vid=cb632583-26a5-4e81-9595-adb7d7e48f71","ios":"levelo://app?vid=cb632583-26a5-4e81-9595-adb7d7e48f71"},"vehicle_type_id":"4","last_reported":1741090734,"current_range_meters":8800,"station_id":"ce4bh412rcd13ifvqdr0","pricing_plan_id":"cebpf4jnsgd1na2vs0mg"},{"bike_id":"0b818497-4d97-451b-b637-cef3d02b5c9d","system_id":"levelo_inurba_marseille","lat":43.31721,"lon":5.43695,"is_reserved":false,"is_disabled":true,"rental_uris":{"android":"levelo://app?vid=0b818497-4d97-451b-b637-cef3d02b5c9d","ios":"levelo://app?vid=0b818497-4d97-451b-b637-cef3d02b5c9d"},"vehicle_type_id":"4","last_reported":1741090734,"current_range_meters":8800,"station_id":"ce4bhp92rcd13ifvqhcg","pricing_plan_id":"cebpf4jnsgd1na2vs0mg"},{"bike_id":"caedf473-9313-4874-87c8-230b4a1efdb8","system_id":"levelo_inurba_marseille","lat":43.32485,"lon":5.36574,"is_reserved":false,"is_disabled":false,"rental_uris":{"android":"levelo://app?vid=caedf473-9313-4874-87c8-230b4a1efdb8","ios":"levelo://app?vid=caedf473-9313-4874-87c8-230b4a1efdb8"},"vehicle_type_id":"4","last_reported":1741090734,"current_range_meters":8800,"station_id":"ce4bhs12rcd13ifvqhvg","pricing_plan_id":"cebpf4jnsgd1na2vs0mg"},{"bike_id":"41ed89d3-77cd-4311-8513-748a0ca63c4f","system_id":"levelo_inurba_marseille","lat":43.21254,"lon":5.35345,"is_reserved":false,"is_disabled":false,"rental_uris":{"android":"levelo://app?vid=41ed89d3-77cd-4311-8513-748a0ca63c4f","ios":"levelo://app?vid=41ed89d3-77cd-4311-8513-748a0ca63c4f"},"vehicle_type_id":"4","last_reported":1741090734,"current_range_meters":8800,"station_id":"","pricing_plan_id":"cebpf4jnsgd1na2vs0mg"},{"bike_id":"b7c7fbe5-74d4-42ab-95bd-b1c1045fe811","system_id":"levelo_inurba_marseille","lat":43.23156,"lon":5.43708,"is_reserved":false,"is_disabled":false,"rental_uris":{"android":"levelo://app?vid=b7c7fbe5-74d4-42ab-95bd-b1c1045fe811","ios":"levelo://app?vid=b7c7fbe5-74d4-42ab-95bd-b1c1045fe811"},"vehicle_type_id":"4","last_reported":1741090734,"current_range_meters":8800,"station_id":"ce4bhmp2rcd13ifvqgog","pricing_plan_id":"cebpf4jnsgd1na2vs0mg"},{"bike_id":"742d11c6-15af-47f5-9dca-e7f3768fb201","system_id":"levelo_inurba_marseille","lat":43.31074,"lon":5.38363,"is_reserved":false,"is_disabled":false,"rental_uris":{"android":"levelo://app?vid=742d11c6-15af-47f5-9dca-e7f3768fb201","ios":"levelo://app?vid=742d11c6-15af-47f5-9dca-e7f3768fb201"},"vehicle_type_id":"4","last_reported":1741090734,"current_range_meters":8800,"station_id":"ce4bgv92rcd13ifvqcr0","pricing_plan_id":"cebpf4jnsgd1na2vs0mg"},{"bike_id":"ee3c9ec4-fd1e-41b3-9911-557f49971d62","system_id":"levelo_inurba_marseille","lat":43.27492,"lon":5.42453,"is_reserved":false,"is_disabled":false,"rental_uris":{"android":"levelo://app?vid=ee3c9ec4-fd1e-41b3-9911-557f49971d62","ios":"levelo://app?vid=ee3c9ec4-fd1e-41b3-9911-557f49971d62"},"vehicle_type_id":"4","last_reported":1741090734,"current_range_meters":8800,"station_id":"ce4bhn92rcd13ifvqgrg","pricing_plan_id":"cebpf4jnsgd1na2vs0mg"},{"bike_id":"64953142-7637-42b4-b0d1-c449e63f1db7","system_id":"levelo_inurba_marseille","lat":43.29638,"lon":5.36009,"is_reserved":false,"is_disabled":false,"rental_uris":{"android":"levelo://app?vid=64953142-7637-42b4-b0d1-c449e63f1db7","ios":"levelo://app?vid=64953142-7637-42b4-b0d1-c449e63f1db7"},"vehicle_type_id":"4","last_reported":1741090734,"current_range_meters":8800,"station_id":"","pricing_plan_id":"cebpf4jnsgd1na2vs0mg"},{"bike_id":"6717721c-5eb4-44e0-aad4-df31d77c8a69","system_id":"levelo_inurba_marseille","lat":43.24996,"lon":5.38915,"is_reserved":false,"is_disabled":false,"rental_uris":{"android":"levelo://app?vid=6717721c-5eb4-44e0-aad4-df31d77c8a69","ios":"levelo://app?vid=6717721c-5eb4-44e0-aad4-df31d77c8a69"},"vehicle_type_id":"4","last_reported":1741090734,"current_range_meters":8800,"station_id":"ce4bhgp2rcd13ifvqfd0","pricing_plan_id":"cebpf4jnsgd1na2vs0mg"},{"bike_id":"2ce061b9-e530-464d-b6bc-965d4a9c7be8","system_id":"levelo_inurba_marseille","lat":43.33451,"lon":5.40079,"is_reserved":false,"is_disabled":false,"rental_uris":{"android":"levelo://app?vid=2ce061b9-e530-464d-b6bc-965d4a9c7be8","ios":"levelo://app?vid=2ce061b9-e530-464d-b6bc-965d4a9c7be8"},"vehicle_type_id":"4","last_reported":1741090734,"current_range_meters":8800,"station_id":"","pricing_plan_id":"cebpf4jnsgd1na2vs0mg"},{"bike_id":"5d78ef79-11b9-4377-b67c-ca752cc8ff9b","system_id":"levelo_inurba_marseille","lat":43.2958,"lon":5.39974,"is_reserved":false,"is_disabled":false,"rental_uris":{"android":"levelo://app?vid=5d78ef79-11b9-4377-b67c-ca752cc8ff9b","ios":"levelo://app?vid=5d78ef79-11b9-4377-b67c-ca752cc8ff9b"},"vehicle_type_id":"4","last_reported":1741090734,"current_range_meters":9200,"station_id":"ce4bh312rcd13ifvqdj0","pricing_plan_id":"cebpf4jnsgd1na2vs0mg"},{"bike_id":"7d57eed4-7af7-4012-8c20-4723a24b8de6","system_id":"levelo_inurba_marseille","lat":43.230183,"lon":5.437272,"is_reserved":false,"is_disabled":false,"rental_uris":{"android":"levelo://app?vid=7d57eed4-7af7-4012-8c20-4723a24b8de6","ios":"levelo://app?vid=7d57eed4-7af7-4012-8c20-4723a24b8de6"},"vehicle_type_id":"4","last_reported":1741090734,"current_range_meters":9200,"station_id":"ce4bhmp2rcd13ifvqgog","pricing_plan_id":"cebpf4jnsgd1na2vs0mg"},{"bike_id":"3798605b-0ddd-4142-bece-a2d6243837a3","system_id":"levelo_inurba_marseille","lat":43.27055,"lon":5.40262,"is_reserved":false,"is_disabled":false,"rental_uris":{"android":"levelo://app?vid=3798605b-0ddd-4142-bece-a2d6243837a3","ios":"levelo://app?vid=3798605b-0ddd-4142-bece-a2d6243837a3"},"vehicle_type_id":"4","last_reported":1741090734,"current_range_meters":9200,"station_id":"ce4bhk92rcd13ifvqgc0","pricing_plan_id":"cebpf4jnsgd1na2vs0mg"},{"bike_id":"e7ff42eb-eb02-4e53-99d5-14386ce8f357","system_id":"levelo_inurba_marseille","lat":43.2894,"lon":5.3963,"is_reserved":false,"is_disabled":false,"rental_uris":{"android":"levelo://app?vid=e7ff42eb-eb02-4e53-99d5-14386ce8f357","ios":"levelo://app?vid=e7ff42eb-eb02-4e53-99d5-14386ce8f357"},"vehicle_type_id":"4","last_reported":1741090734,"current_range_meters":9200,"station_id":"ce4bh3h2rcd13ifvqdn0","pricing_plan_id":"cebpf4jnsgd1na2vs0mg"},{"bike_id":"821296c9-01ec-47b1-834d-6f815c0b7124","system_id":"levelo_inurba_marseille","lat":43.27051,"lon":5.4026,"is_reserved":false,"is_disabled":false,"rental_uris":{"android":"levelo://app?vid=821296c9-01ec-47b1-834d-6f815c0b7124","ios":"levelo://app?vid=821296c9-01ec-47b1-834d-6f815c0b7124"},"vehicle_type_id":"4","last_reported":1741090734,"current_range_meters":9200,"station_id":"ce4bhk92rcd13ifvqgc0","pricing_plan_id":"cebpf4jnsgd1na2vs0mg"},{"bike_id":"f1bd8b89-3d24-4898-abe9-7876137527b1","system_id":"levelo_inurba_marseille","lat":43.25819,"lon":5.39429,"is_reserved":false,"is_disabled":false,"rental_uris":{"android":"levelo://app?vid=f1bd8b89-3d24-4898-abe9-7876137527b1","ios":"levelo://app?vid=f1bd8b89-3d24-4898-abe9-7876137527b1"},"vehicle_type_id":"4","last_reported":1741090734,"current_range_meters":9200,"station_id":"ce4bhip2rcd13ifvqft0","pricing_plan_id":"cebpf4jnsgd1na2vs0mg"},{"bike_id":"0124053e-4260-4b6f-bb1d-d9ff69be9812","system_id":"levelo_inurba_marseille","lat":43.23165,"lon":5.43708,"is_reserved":false,"is_disabled":false,"rental_uris":{"android":"levelo://app?vid=0124053e-4260-4b6f-bb1d-d9ff69be9812","ios":"levelo://app?vid=0124053e-4260-4b6f-bb1d-d9ff69be9812"},"vehicle_type_id":"4","last_reported":1741090734,"current_range_meters":9200,"station_id":"ce4bhmp2rcd13ifvqgog","pricing_plan_id":"cebpf4jnsgd1na2vs0mg"},{"bike_id":"6daed174-81a5-4094-8a49-8888ff4cec09","system_id":"levelo_inurba_marseille","lat":43.32656,"lon":5.41001,"is_reserved":false,"is_disabled":false,"rental_uris":{"android":"levelo://app?vid=6daed174-81a5-4094-8a49-8888ff4cec09","ios":"levelo://app?vid=6daed174-81a5-4094-8a49-8888ff4cec09"},"vehicle_type_id":"4","last_reported":1741090734,"current_range_meters":9200,"station_id":"ce4bhpp2rcd13ifvqhgg","pricing_plan_id":"cebpf4jnsgd1na2vs0mg"},{"bike_id":"9de42f25-f760-4086-9a08-2934eee1b520","system_id":"levelo_inurba_marseille","lat":43.21261,"lon":5.3534,"is_reserved":false,"is_disabled":false,"rental_uris":{"android":"levelo://app?vid=9de42f25-f760-4086-9a08-2934eee1b520","ios":"levelo://app?vid=9de42f25-f760-4086-9a08-2934eee1b520"},"vehicle_type_id":"4","last_reported":1741090734,"current_range_meters":9600,"station_id":"","pricing_plan_id":"cebpf4jnsgd1na2vs0mg"},{"bike_id":"02984c24-f543-4d24-8c9e-3afa9d92984f","system_id":"levelo_inurba_marseille","lat":43.25591,"lon":5.38278,"is_reserved":false,"is_disabled":false,"rental_uris":{"android":"levelo://app?vid=02984c24-f543-4d24-8c9e-3afa9d92984f","ios":"levelo://app?vid=02984c24-f543-4d24-8c9e-3afa9d92984f"},"vehicle_type_id":"4","last_reported":1741090734,"current_range_meters":9600,"station_id":"ce4bhih2rcd13ifvqfs0","pricing_plan_id":"cebpf4jnsgd1na2vs0mg"},{"bike_id":"b1ac49be-b33f-4f69-b362-4775c4ca5949","system_id":"levelo_inurba_marseille","lat":43.23147,"lon":5.43705,"is_reserved":false,"is_disabled":false,"rental_uris":{"android":"levelo://app?vid=b1ac49be-b33f-4f69-b362-4775c4ca5949","ios":"levelo://app?vid=b1ac49be-b33f-4f69-b362-4775c4ca5949"},"vehicle_type_id":"4","last_reported":1741090734,"current_range_meters":9600,"station_id":"ce4bhmp2rcd13ifvqgog","pricing_plan_id":"cebpf4jnsgd1na2vs0mg"},{"bike_id":"1093c63c-75cd-4d7d-8540-78e4958851a9","system_id":"levelo_inurba_marseille","lat":43.30563,"lon":5.36561,"is_reserved":false,"is_disabled":false,"rental_uris":{"android":"levelo://app?vid=1093c63c-75cd-4d7d-8540-78e4958851a9","ios":"levelo://app?vid=1093c63c-75cd-4d7d-8540-78e4958851a9"},"vehicle_type_id":"4","last_reported":1741090734,"current_range_meters":9600,"station_id":"ce4bgs12rcd13ifvqcag","pricing_plan_id":"cebpf4jnsgd1na2vs0mg"},{"bike_id":"cdf2e3db-6d2c-426a-86a1-080cbc1fec6e","system_id":"levelo_inurba_marseille","lat":43.28614,"lon":5.35093,"is_reserved":false,"is_disabled":false,"rental_uris":{"android":"levelo://app?vid=cdf2e3db-6d2c-426a-86a1-080cbc1fec6e","ios":"levelo://app?vid=cdf2e3db-6d2c-426a-86a1-080cbc1fec6e"},"vehicle_type_id":"4","last_reported":1741090734,"current_range_meters":9600,"station_id":"ce4bhch2rcd13ifvqeug","pricing_plan_id":"cebpf4jnsgd1na2vs0mg"},{"bike_id":"0c411ceb-9512-479b-a33d-be7563444641","system_id":"levelo_inurba_marseille","lat":43.29005,"lon":5.3561,"is_reserved":false,"is_disabled":false,"rental_uris":{"android":"levelo://app?vid=0c411ceb-9512-479b-a33d-be7563444641","ios":"levelo://app?vid=0c411ceb-9512-479b-a33d-be7563444641"},"vehicle_type_id":"4","last_reported":1741090734,"current_range_meters":9600,"station_id":"ce4bhb92rcd13ifvqen0","pricing_plan_id":"cebpf4jnsgd1na2vs0mg"},{"bike_id":"96534ab7-4f6f-4c1c-9eeb-a2113adfd031","system_id":"levelo_inurba_marseille","lat":43.27174,"lon":5.40998,"is_reserved":false,"is_disabled":false,"rental_uris":{"android":"levelo://app?vid=96534ab7-4f6f-4c1c-9eeb-a2113adfd031","ios":"levelo://app?vid=96534ab7-4f6f-4c1c-9eeb-a2113adfd031"},"vehicle_type_id":"4","last_reported":1741090734,"current_range_meters":10000,"station_id":"ce4bhl12rcd13ifvqgf0","pricing_plan_id":"cebpf4jnsgd1na2vs0mg"},{"bike_id":"196137d8-fc90-4369-991e-9b70bd76082a","system_id":"levelo_inurba_marseille","lat":43.28623,"lon":5.35092,"is_reserved":false,"is_disabled":false,"rental_uris":{"android":"levelo://app?vid=196137d8-fc90-4369-991e-9b70bd76082a","ios":"levelo://app?vid=196137d8-fc90-4369-991e-9b70bd76082a"},"vehicle_type_id":"4","last_reported":1741090734,"current_range_meters":10000,"station_id":"ce4bhch2rcd13ifvqeug","pricing_plan_id":"cebpf4jnsgd1na2vs0mg"},{"bike_id":"dd08d469-0e07-4995-a332-b3086215ce48","system_id":"levelo_inurba_marseille","lat":43.30958,"lon":5.39045,"is_reserved":false,"is_disabled":true,"rental_uris":{"android":"levelo://app?vid=dd08d469-0e07-4995-a332-b3086215ce48","ios":"levelo://app?vid=dd08d469-0e07-4995-a332-b3086215ce48"},"vehicle_type_id":"4","last_reported":1741090734,"current_range_meters":10000,"station_id":"ce4bgup2rcd13ifvqco0","pricing_plan_id":"cebpf4jnsgd1na2vs0mg"},{"bike_id":"cb014a6b-6553-43cb-90ee-c6d22cf5883f","system_id":"levelo_inurba_marseille","lat":43.26066,"lon":5.39399,"is_reserved":false,"is_disabled":false,"rental_uris":{"android":"levelo://app?vid=cb014a6b-6553-43cb-90ee-c6d22cf5883f","ios":"levelo://app?vid=cb014a6b-6553-43cb-90ee-c6d22cf5883f"},"vehicle_type_id":"4","last_reported":1741090734,"current_range_meters":10000,"station_id":"ce4bhh92rcd13ifvqfj0","pricing_plan_id":"cebpf4jnsgd1na2vs0mg"},{"bike_id":"e7ec1ac1-2323-47bd-a2b5-7cd3afb282cf","system_id":"levelo_inurba_marseille","lat":43.26562,"lon":5.37295,"is_reserved":false,"is_disabled":false,"rental_uris":{"android":"levelo://app?vid=e7ec1ac1-2323-47bd-a2b5-7cd3afb282cf","ios":"levelo://app?vid=e7ec1ac1-2323-47bd-a2b5-7cd3afb282cf"},"vehicle_type_id":"4","last_reported":1741090734,"current_range_meters":10800,"station_id":"ce4bhg12rcd13ifvqf70","pricing_plan_id":"cebpf4jnsgd1na2vs0mg"},{"bike_id":"994d8181-beee-4a3a-850d-e26778d851d0","system_id":"levelo_inurba_marseille","lat":43.25002,"lon":5.38925,"is_reserved":false,"is_disabled":false,"rental_uris":{"android":"levelo://app?vid=994d8181-beee-4a3a-850d-e26778d851d0","ios":"levelo://app?vid=994d8181-beee-4a3a-850d-e26778d851d0"},"vehicle_type_id":"4","last_reported":1741090734,"current_range_meters":10800,"station_id":"ce4bhgp2rcd13ifvqfd0","pricing_plan_id":"cebpf4jnsgd1na2vs0mg"},{"bike_id":"9119e446-2b0d-4676-b5fc-65dc84f781e5","system_id":"levelo_inurba_marseille","lat":43.30959,"lon":5.39044,"is_reserved":false,"is_disabled":false,"rental_uris":{"android":"levelo://app?vid=9119e446-2b0d-4676-b5fc-65dc84f781e5","ios":"levelo://app?vid=9119e446-2b0d-4676-b5fc-65dc84f781e5"},"vehicle_type_id":"4","last_reported":1741090734,"current_range_meters":10800,"station_id":"ce4bgup2rcd13ifvqco0","pricing_plan_id":"cebpf4jnsgd1na2vs0mg"},{"bike_id":"d397688b-ab73-448f-92b9-a2a9588b40a4","system_id":"levelo_inurba_marseille","lat":43.23988,"lon":5.397,"is_reserved":false,"is_disabled":false,"rental_uris":{"android":"levelo://app?vid=d397688b-ab73-448f-92b9-a2a9588b40a4","ios":"levelo://app?vid=d397688b-ab73-448f-92b9-a2a9588b40a4"},"vehicle_type_id":"4","last_reported":1741090734,"current_range_meters":10800,"station_id":"","pricing_plan_id":"cebpf4jnsgd1na2vs0mg"},{"bike_id":"53370df7-9791-4141-8ab6-479eee9f8d86","system_id":"levelo_inurba_marseille","lat":43.293518,"lon":5.402614,"is_reserved":false,"is_disabled":false,"rental_uris":{"android":"levelo://app?vid=53370df7-9791-4141-8ab6-479eee9f8d86","ios":"levelo://app?vid=53370df7-9791-4141-8ab6-479eee9f8d86"},"vehicle_type_id":"4","last_reported":1741090734,"current_range_meters":10800,"station_id":"ce4bhpp2rcd13ifvqhfg","pricing_plan_id":"cebpf4jnsgd1na2vs0mg"},{"bike_id":"aa703fd2-242a-4fa6-8a60-5fd874e3fd43","system_id":"levelo_inurba_marseille","lat":43.24074,"lon":5.3776,"is_reserved":false,"is_disabled":false,"rental_uris":{"android":"levelo://app?vid=aa703fd2-242a-4fa6-8a60-5fd874e3fd43","ios":"levelo://app?vid=aa703fd2-242a-4fa6-8a60-5fd874e3fd43"},"vehicle_type_id":"4","last_reported":1741090734,"current_range_meters":11200,"station_id":"ce4bhnp2rcd13ifvqgvg","pricing_plan_id":"cebpf4jnsgd1na2vs0mg"},{"bike_id":"3be4c042-a29e-4d12-8ad8-fcafdab78484","system_id":"levelo_inurba_marseille","lat":43.30935,"lon":5.40141,"is_reserved":false,"is_disabled":false,"rental_uris":{"android":"levelo://app?vid=3be4c042-a29e-4d12-8ad8-fcafdab78484","ios":"levelo://app?vid=3be4c042-a29e-4d12-8ad8-fcafdab78484"},"vehicle_type_id":"4","last_reported":1741090734,"current_range_meters":11200,"station_id":"ce4bgvp2rcd13ifvqct0","pricing_plan_id":"cebpf4jnsgd1na2vs0mg"},{"bike_id":"ee1d2ad1-36ca-49dd-a328-f2a9a9994ecb","system_id":"levelo_inurba_marseille","lat":43.31084,"lon":5.38107,"is_reserved":false,"is_disabled":false,"rental_uris":{"android":"levelo://app?vid=ee1d2ad1-36ca-49dd-a328-f2a9a9994ecb","ios":"levelo://app?vid=ee1d2ad1-36ca-49dd-a328-f2a9a9994ecb"},"vehicle_type_id":"4","last_reported":1741090734,"current_range_meters":11200,"station_id":"","pricing_plan_id":"cebpf4jnsgd1na2vs0mg"},{"bike_id":"e36f30c3-3fdf-4624-8046-214faf335221","system_id":"levelo_inurba_marseille","lat":43.30536,"lon":5.36558,"is_reserved":false,"is_disabled":false,"rental_uris":{"android":"levelo://app?vid=e36f30c3-3fdf-4624-8046-214faf335221","ios":"levelo://app?vid=e36f30c3-3fdf-4624-8046-214faf335221"},"vehicle_type_id":"4","last_reported":1741090734,"current_range_meters":11200,"station_id":"ce4bgs12rcd13ifvqcag","pricing_plan_id":"cebpf4jnsgd1na2vs0mg"},{"bike_id":"44a7153b-0fd7-4509-836b-676bbf84fb06","system_id":"levelo_inurba_marseille","lat":43.23178,"lon":5.35573,"is_reserved":false,"is_disabled":false,"rental_uris":{"android":"levelo://app?vid=44a7153b-0fd7-4509-836b-676bbf84fb06","ios":"levelo://app?vid=44a7153b-0fd7-4509-836b-676bbf84fb06"},"vehicle_type_id":"4","last_reported":1741090734,"current_range_meters":11200,"station_id":"ce4bhu92rcd13ifvqi70","pricing_plan_id":"cebpf4jnsgd1na2vs0mg"},{"bike_id":"8d87db73-830b-4a1a-b357-2fa35f25b1f5","system_id":"levelo_inurba_marseille","lat":43.23163,"lon":5.43702,"is_reserved":false,"is_disabled":false,"rental_uris":{"android":"levelo://app?vid=8d87db73-830b-4a1a-b357-2fa35f25b1f5","ios":"levelo://app?vid=8d87db73-830b-4a1a-b357-2fa35f25b1f5"},"vehicle_type_id":"4","last_reported":1741090734,"current_range_meters":11600,"station_id":"ce4bhmp2rcd13ifvqgog","pricing_plan_id":"cebpf4jnsgd1na2vs0mg"},{"bike_id":"58c02793-5864-4fde-9959-a73acf93fdfc","system_id":"levelo_inurba_marseille","lat":43.2978,"lon":5.37106,"is_reserved":false,"is_disabled":false,"rental_uris":{"android":"levelo://app?vid=58c02793-5864-4fde-9959-a73acf93fdfc","ios":"levelo://app?vid=58c02793-5864-4fde-9959-a73acf93fdfc"},"vehicle_type_id":"4","last_reported":1741090734,"current_range_meters":11600,"station_id":"ce4bgop2rcd13ifvqc1g","pricing_plan_id":"cebpf4jnsgd1na2vs0mg"},{"bike_id":"4c93f7b2-c957-4c5d-b5c7-514e062eaa3c","system_id":"levelo_inurba_marseille","lat":43.28664,"lon":5.38668,"is_reserved":false,"is_disabled":false,"rental_uris":{"android":"levelo://app?vid=4c93f7b2-c957-4c5d-b5c7-514e062eaa3c","ios":"levelo://app?vid=4c93f7b2-c957-4c5d-b5c7-514e062eaa3c"},"vehicle_type_id":"4","last_reported":1741090734,"current_range_meters":11600,"station_id":"ce4bh492rcd13ifvqdug","pricing_plan_id":"cebpf4jnsgd1na2vs0mg"},{"bike_id":"495ee3de-b09b-4b41-a9e7-c29dbd353055","system_id":"levelo_inurba_marseille","lat":43.23959,"lon":5.36625,"is_reserved":false,"is_disabled":false,"rental_uris":{"android":"levelo://app?vid=495ee3de-b09b-4b41-a9e7-c29dbd353055","ios":"levelo://app?vid=495ee3de-b09b-4b41-a9e7-c29dbd353055"},"vehicle_type_id":"4","last_reported":1741090734,"current_range_meters":11600,"station_id":"ce4bhi12rcd13ifvqfp0","pricing_plan_id":"cebpf4jnsgd1na2vs0mg"},{"bike_id":"58b56926-57b2-42a1-a7fd-7d4226423a48","system_id":"levelo_inurba_marseille","lat":43.29908,"lon":5.37468,"is_reserved":false,"is_disabled":false,"rental_uris":{"android":"levelo://app?vid=58b56926-57b2-42a1-a7fd-7d4226423a48","ios":"levelo://app?vid=58b56926-57b2-42a1-a7fd-7d4226423a48"},"vehicle_type_id":"4","last_reported":1741090734,"current_range_meters":11600,"station_id":"ce4bgjh2rcd13ifvqbg0","pricing_plan_id":"cebpf4jnsgd1na2vs0mg"},{"bike_id":"76ab3229-39f2-46c7-aff4-34a2c8df6f6d","system_id":"levelo_inurba_marseille","lat":43.29424,"lon":5.3974,"is_reserved":false,"is_disabled":false,"rental_uris":{"android":"levelo://app?vid=76ab3229-39f2-46c7-aff4-34a2c8df6f6d","ios":"levelo://app?vid=76ab3229-39f2-46c7-aff4-34a2c8df6f6d"},"vehicle_type_id":"4","last_reported":1741090734,"current_range_meters":11600,"station_id":"ce4bh3h2rcd13ifvqdo0","pricing_plan_id":"cebpf4jnsgd1na2vs0mg"},{"bike_id":"35482dac-1312-4f0e-90ed-4aea1d786cf7","system_id":"levelo_inurba_marseille","lat":43.23144,"lon":5.43712,"is_reserved":false,"is_disabled":false,"rental_uris":{"android":"levelo://app?vid=35482dac-1312-4f0e-90ed-4aea1d786cf7","ios":"levelo://app?vid=35482dac-1312-4f0e-90ed-4aea1d786cf7"},"vehicle_type_id":"4","last_reported":1741090734,"current_range_meters":11600,"station_id":"ce4bhmp2rcd13ifvqgog","pricing_plan_id":"cebpf4jnsgd1na2vs0mg"},{"bike_id":"8f8a7232-07d1-426f-a5c5-06d9052a5a89","system_id":"levelo_inurba_marseille","lat":43.30945,"lon":5.39021,"is_reserved":false,"is_disabled":true,"rental_uris":{"android":"levelo://app?vid=8f8a7232-07d1-426f-a5c5-06d9052a5a89","ios":"levelo://app?vid=8f8a7232-07d1-426f-a5c5-06d9052a5a89"},"vehicle_type_id":"4","last_reported":1741090734,"current_range_meters":12000,"station_id":"ce4bgup2rcd13ifvqco0","pricing_plan_id":"cebpf4jnsgd1na2vs0mg"},{"bike_id":"fc890f05-5811-465b-af51-46eb46e95a90","system_id":"levelo_inurba_marseille","lat":43.25016,"lon":5.38919,"is_reserved":false,"is_disabled":false,"rental_uris":{"android":"levelo://app?vid=fc890f05-5811-465b-af51-46eb46e95a90","ios":"levelo://app?vid=fc890f05-5811-465b-af51-46eb46e95a90"},"vehicle_type_id":"4","last_reported":1741090734,"current_range_meters":12000,"station_id":"ce4bhgp2rcd13ifvqfd0","pricing_plan_id":"cebpf4jnsgd1na2vs0mg"},{"bike_id":"a2e9312b-d692-42a0-9823-fe0aab56075b","system_id":"levelo_inurba_marseille","lat":43.2315,"lon":5.43732,"is_reserved":false,"is_disabled":true,"rental_uris":{"android":"levelo://app?vid=a2e9312b-d692-42a0-9823-fe0aab56075b","ios":"levelo://app?vid=a2e9312b-d692-42a0-9823-fe0aab56075b"},"vehicle_type_id":"4","last_reported":1741090734,"current_range_meters":12000,"station_id":"ce4bhmp2rcd13ifvqgog","pricing_plan_id":"cebpf4jnsgd1na2vs0mg"},{"bike_id":"20b17d5e-78b7-4810-bd6f-21c2d02ad96b","system_id":"levelo_inurba_marseille","lat":43.29356,"lon":5.37836,"is_reserved":false,"is_disabled":false,"rental_uris":{"android":"levelo://app?vid=20b17d5e-78b7-4810-bd6f-21c2d02ad96b","ios":"levelo://app?vid=20b17d5e-78b7-4810-bd6f-21c2d02ad96b"},"vehicle_type_id":"4","last_reported":1741090734,"current_range_meters":12000,"station_id":"ce4bgjh2rcd13ifvqbf0","pricing_plan_id":"cebpf4jnsgd1na2vs0mg"},{"bike_id":"d904b14a-d0b8-452c-bf82-4b6370eb200f","system_id":"levelo_inurba_marseille","lat":43.29036,"lon":5.39989,"is_reserved":false,"is_disabled":false,"rental_uris":{"android":"levelo://app?vid=d904b14a-d0b8-452c-bf82-4b6370eb200f","ios":"levelo://app?vid=d904b14a-d0b8-452c-bf82-4b6370eb200f"},"vehicle_type_id":"4","last_reported":1741090734,"current_range_meters":12000,"station_id":"ce4bh392rcd13ifvqdm0","pricing_plan_id":"cebpf4jnsgd1na2vs0mg"},{"bike_id":"50c9420f-2db6-487d-b69d-d6057601285f","system_id":"levelo_inurba_marseille","lat":43.297613,"lon":5.381386,"is_reserved":false,"is_disabled":false,"rental_uris":{"android":"levelo://app?vid=50c9420f-2db6-487d-b69d-d6057601285f","ios":"levelo://app?vid=50c9420f-2db6-487d-b69d-d6057601285f"},"vehicle_type_id":"4","last_reported":1741090734,"current_range_meters":12400,"station_id":"ce4bgop2rcd13ifvqc1g","pricing_plan_id":"cebpf4jnsgd1na2vs0mg"},{"bike_id":"912d1ade-7c44-418b-a9a3-e06dcc228e0b","system_id":"levelo_inurba_marseille","lat":43.29264,"lon":5.40909,"is_reserved":false,"is_disabled":false,"rental_uris":{"android":"levelo://app?vid=912d1ade-7c44-418b-a9a3-e06dcc228e0b","ios":"levelo://app?vid=912d1ade-7c44-418b-a9a3-e06dcc228e0b"},"vehicle_type_id":"4","last_reported":1741090734,"current_range_meters":12400,"station_id":"ce4bh192rcd13ifvqdc0","pricing_plan_id":"cebpf4jnsgd1na2vs0mg"},{"bike_id":"3337f8d3-294f-4174-abe7-8175587d9446","system_id":"levelo_inurba_marseille","lat":43.27073,"lon":5.40258,"is_reserved":false,"is_disabled":false,"rental_uris":{"android":"levelo://app?vid=3337f8d3-294f-4174-abe7-8175587d9446","ios":"levelo://app?vid=3337f8d3-294f-4174-abe7-8175587d9446"},"vehicle_type_id":"4","last_reported":1741090734,"current_range_meters":12400,"station_id":"ce4bhk92rcd13ifvqgc0","pricing_plan_id":"cebpf4jnsgd1na2vs0mg"},{"bike_id":"212be3cc-09ae-4063-9d09-83b8b6c708f5","system_id":"levelo_inurba_marseille","lat":43.27065,"lon":5.40252,"is_reserved":false,"is_disabled":false,"rental_uris":{"android":"levelo://app?vid=212be3cc-09ae-4063-9d09-83b8b6c708f5","ios":"levelo://app?vid=212be3cc-09ae-4063-9d09-83b8b6c708f5"},"vehicle_type_id":"4","last_reported":1741090734,"current_range_meters":12400,"station_id":"ce4bhk92rcd13ifvqgc0","pricing_plan_id":"cebpf4jnsgd1na2vs0mg"},{"bike_id":"c68ff3d4-d75b-4f90-8a75-7218228ed30f","system_id":"levelo_inurba_marseille","lat":43.25817,"lon":5.39424,"is_reserved":false,"is_disabled":false,"rental_uris":{"android":"levelo://app?vid=c68ff3d4-d75b-4f90-8a75-7218228ed30f","ios":"levelo://app?vid=c68ff3d4-d75b-4f90-8a75-7218228ed30f"},"vehicle_type_id":"4","last_reported":1741090734,"current_range_meters":12400,"station_id":"ce4bhip2rcd13ifvqft0","pricing_plan_id":"cebpf4jnsgd1na2vs0mg"},{"bike_id":"9158c83d-aae6-4f40-adf3-15d2d242233b","system_id":"levelo_inurba_marseille","lat":43.27059,"lon":5.40266,"is_reserved":false,"is_disabled":false,"rental_uris":{"android":"levelo://app?vid=9158c83d-aae6-4f40-adf3-15d2d242233b","ios":"levelo://app?vid=9158c83d-aae6-4f40-adf3-15d2d242233b"},"vehicle_type_id":"4","last_reported":1741090734,"current_range_meters":12400,"station_id":"ce4bhk92rcd13ifvqgc0","pricing_plan_id":"cebpf4jnsgd1na2vs0mg"},{"bike_id":"cfcf0369-3555-4b0d-825e-21cad4ac954d","system_id":"levelo_inurba_marseille","lat":43.29044,"lon":5.39948,"is_reserved":false,"is_disabled":false,"rental_uris":{"android":"levelo://app?vid=cfcf0369-3555-4b0d-825e-21cad4ac954d","ios":"levelo://app?vid=cfcf0369-3555-4b0d-825e-21cad4ac954d"},"vehicle_type_id":"4","last_reported":1741090734,"current_range_meters":12800,"station_id":"ce4bh392rcd13ifvqdm0","pricing_plan_id":"cebpf4jnsgd1na2vs0mg"},{"bike_id":"d687c60b-64bc-46f9-a76f-aa361a478df9","system_id":"levelo_inurba_marseille","lat":43.27358,"lon":5.3908,"is_reserved":false,"is_disabled":false,"rental_uris":{"android":"levelo://app?vid=d687c60b-64bc-46f9-a76f-aa361a478df9","ios":"levelo://app?vid=d687c60b-64bc-46f9-a76f-aa361a478df9"},"vehicle_type_id":"4","last_reported":1741090734,"current_range_meters":12800,"station_id":"","pricing_plan_id":"cebpf4jnsgd1na2vs0mg"},{"bike_id":"bce19c0a-0b69-4a3e-8c4b-280a630c6800","system_id":"levelo_inurba_marseille","lat":43.26784,"lon":5.39418,"is_reserved":false,"is_disabled":false,"rental_uris":{"android":"levelo://app?vid=bce19c0a-0b69-4a3e-8c4b-280a630c6800","ios":"levelo://app?vid=bce19c0a-0b69-4a3e-8c4b-280a630c6800"},"vehicle_type_id":"4","last_reported":1741090734,"current_range_meters":12400,"station_id":"ce4bhh12rcd13ifvqfg0","pricing_plan_id":"cebpf4jnsgd1na2vs0mg"},{"bike_id":"4c85df50-c025-438a-a144-e05aa8bf92c7","system_id":"levelo_inurba_marseille","lat":43.29697,"lon":5.36607,"is_reserved":false,"is_disabled":false,"rental_uris":{"android":"levelo://app?vid=4c85df50-c025-438a-a144-e05aa8bf92c7","ios":"levelo://app?vid=4c85df50-c025-438a-a144-e05aa8bf92c7"},"vehicle_type_id":"4","last_reported":1741090734,"current_range_meters":12800,"station_id":"ce4bgn12rcd13ifvqbt0","pricing_plan_id":"cebpf4jnsgd1na2vs0mg"},{"bike_id":"18ffc8ee-572f-4f9f-aea0-f99d011c795b","system_id":"levelo_inurba_marseille","lat":43.27063,"lon":5.40255,"is_reserved":false,"is_disabled":false,"rental_uris":{"android":"levelo://app?vid=18ffc8ee-572f-4f9f-aea0-f99d011c795b","ios":"levelo://app?vid=18ffc8ee-572f-4f9f-aea0-f99d011c795b"},"vehicle_type_id":"4","last_reported":1741090734,"current_range_meters":12800,"station_id":"ce4bhk92rcd13ifvqgc0","pricing_plan_id":"cebpf4jnsgd1na2vs0mg"},{"bike_id":"c88862eb-2812-48f9-be50-efb7c70c21d4","system_id":"levelo_inurba_marseille","lat":43.27985,"lon":5.41661,"is_reserved":false,"is_disabled":false,"rental_uris":{"android":"levelo://app?vid=c88862eb-2812-48f9-be50-efb7c70c21d4","ios":"levelo://app?vid=c88862eb-2812-48f9-be50-efb7c70c21d4"},"vehicle_type_id":"4","last_reported":1741090734,"current_range_meters":12800,"station_id":"ce4bho12rcd13ifvqh1g","pricing_plan_id":"cebpf4jnsgd1na2vs0mg"},{"bike_id":"9ab0baf9-c2c7-4fa7-9b33-6ab5adc722c3","system_id":"levelo_inurba_marseille","lat":43.24807,"lon":5.37448,"is_reserved":false,"is_disabled":false,"rental_uris":{"android":"levelo://app?vid=9ab0baf9-c2c7-4fa7-9b33-6ab5adc722c3","ios":"levelo://app?vid=9ab0baf9-c2c7-4fa7-9b33-6ab5adc722c3"},"vehicle_type_id":"4","last_reported":1741090734,"current_range_meters":13600,"station_id":"ce4bhgh2rcd13ifvqfb0","pricing_plan_id":"cebpf4jnsgd1na2vs0mg"},{"bike_id":"80320e1f-3387-4e13-ae01-fb03cb29e82f","system_id":"levelo_inurba_marseille","lat":43.30427,"lon":5.38888,"is_reserved":false,"is_disabled":false,"rental_uris":{"android":"levelo://app?vid=80320e1f-3387-4e13-ae01-fb03cb29e82f","ios":"levelo://app?vid=80320e1f-3387-4e13-ae01-fb03cb29e82f"},"vehicle_type_id":"4","last_reported":1741090734,"current_range_meters":13600,"station_id":"ce4bgk12rcd13ifvqbi0","pricing_plan_id":"cebpf4jnsgd1na2vs0mg"},{"bike_id":"2d820158-cdc9-4926-8289-9dabc8812ca3","system_id":"levelo_inurba_marseille","lat":43.2315,"lon":5.43724,"is_reserved":false,"is_disabled":false,"rental_uris":{"android":"levelo://app?vid=2d820158-cdc9-4926-8289-9dabc8812ca3","ios":"levelo://app?vid=2d820158-cdc9-4926-8289-9dabc8812ca3"},"vehicle_type_id":"4","last_reported":1741090734,"current_range_meters":13600,"station_id":"ce4bhmp2rcd13ifvqgog","pricing_plan_id":"cebpf4jnsgd1na2vs0mg"},{"bike_id":"3e7808f3-0c04-4991-9bad-c2eb66a1ffd3","system_id":"levelo_inurba_marseille","lat":43.23151,"lon":5.43722,"is_reserved":false,"is_disabled":false,"rental_uris":{"android":"levelo://app?vid=3e7808f3-0c04-4991-9bad-c2eb66a1ffd3","ios":"levelo://app?vid=3e7808f3-0c04-4991-9bad-c2eb66a1ffd3"},"vehicle_type_id":"4","last_reported":1741090734,"current_range_meters":13600,"station_id":"ce4bhmp2rcd13ifvqgog","pricing_plan_id":"cebpf4jnsgd1na2vs0mg"},{"bike_id":"2c5a92f4-a231-41f0-933a-ac5f26be730a","system_id":"levelo_inurba_marseille","lat":43.301401,"lon":5.374132,"is_reserved":false,"is_disabled":false,"rental_uris":{"android":"levelo://app?vid=2c5a92f4-a231-41f0-933a-ac5f26be730a","ios":"levelo://app?vid=2c5a92f4-a231-41f0-933a-ac5f26be730a"},"vehicle_type_id":"4","last_reported":1741090734,"current_range_meters":14000,"station_id":"ce4bgs92rcd13ifvqcc0","pricing_plan_id":"cebpf4jnsgd1na2vs0mg"},{"bike_id":"f971ccb4-1d1f-44c9-9cb0-61e2631d8f6b","system_id":"levelo_inurba_marseille","lat":43.290565,"lon":5.3998,"is_reserved":false,"is_disabled":false,"rental_uris":{"android":"levelo://app?vid=f971ccb4-1d1f-44c9-9cb0-61e2631d8f6b","ios":"levelo://app?vid=f971ccb4-1d1f-44c9-9cb0-61e2631d8f6b"},"vehicle_type_id":"4","last_reported":1741090734,"current_range_meters":14000,"station_id":"ce501612rcd8frsf0b60","pricing_plan_id":"cebpf4jnsgd1na2vs0mg"},{"bike_id":"a2b9d686-216a-4f50-ae4b-e7710a444cd6","system_id":"levelo_inurba_marseille","lat":43.24999,"lon":5.38916,"is_reserved":false,"is_disabled":false,"rental_uris":{"android":"levelo://app?vid=a2b9d686-216a-4f50-ae4b-e7710a444cd6","ios":"levelo://app?vid=a2b9d686-216a-4f50-ae4b-e7710a444cd6"},"vehicle_type_id":"4","last_reported":1741090734,"current_range_meters":14000,"station_id":"ce4bhgp2rcd13ifvqfd0","pricing_plan_id":"cebpf4jnsgd1na2vs0mg"},{"bike_id":"51f6f578-8898-487a-9da7-ff3d6d379d1b","system_id":"levelo_inurba_marseille","lat":43.32112,"lon":5.3676,"is_reserved":false,"is_disabled":false,"rental_uris":{"android":"levelo://app?vid=51f6f578-8898-487a-9da7-ff3d6d379d1b","ios":"levelo://app?vid=51f6f578-8898-487a-9da7-ff3d6d379d1b"},"vehicle_type_id":"4","last_reported":1741090734,"current_range_meters":14000,"station_id":"ce4bhrh2rcd13ifvqhug","pricing_plan_id":"cebpf4jnsgd1na2vs0mg"},{"bike_id":"69f1d854-fe58-43e1-96c7-9bfe722dfe7e","system_id":"levelo_inurba_marseille","lat":43.32541,"lon":5.41436,"is_reserved":false,"is_disabled":false,"rental_uris":{"android":"levelo://app?vid=69f1d854-fe58-43e1-96c7-9bfe722dfe7e","ios":"levelo://app?vid=69f1d854-fe58-43e1-96c7-9bfe722dfe7e"},"vehicle_type_id":"4","last_reported":1741090734,"current_range_meters":14000,"station_id":"ce4bhq12rcd13ifvqhhg","pricing_plan_id":"cebpf4jnsgd1na2vs0mg"},{"bike_id":"81b5e9a6-4d3a-41bc-a414-3c89288fd7d6","system_id":"levelo_inurba_marseille","lat":43.29532,"lon":5.38557,"is_reserved":false,"is_disabled":true,"rental_uris":{"android":"levelo://app?vid=81b5e9a6-4d3a-41bc-a414-3c89288fd7d6","ios":"levelo://app?vid=81b5e9a6-4d3a-41bc-a414-3c89288fd7d6"},"vehicle_type_id":"4","last_reported":1741090734,"current_range_meters":14400,"station_id":"ce4bgih2rcd13ifvqba0","pricing_plan_id":"cebpf4jnsgd1na2vs0mg"},{"bike_id":"4e338248-bf1e-4749-9be7-322135cb3e5a","system_id":"levelo_inurba_marseille","lat":43.28347,"lon":5.38096,"is_reserved":false,"is_disabled":false,"rental_uris":{"android":"levelo://app?vid=4e338248-bf1e-4749-9be7-322135cb3e5a","ios":"levelo://app?vid=4e338248-bf1e-4749-9be7-322135cb3e5a"},"vehicle_type_id":"4","last_reported":1741090734,"current_range_meters":14400,"station_id":"ce4bh412rcd13ifvqdr0","pricing_plan_id":"cebpf4jnsgd1na2vs0mg"},{"bike_id":"4ec8c81d-c6d5-44d5-afc1-85c66438cf45","system_id":"levelo_inurba_marseille","lat":43.28844,"lon":5.35866,"is_reserved":false,"is_disabled":false,"rental_uris":{"android":"levelo://app?vid=4ec8c81d-c6d5-44d5-afc1-85c66438cf45","ios":"levelo://app?vid=4ec8c81d-c6d5-44d5-afc1-85c66438cf45"},"vehicle_type_id":"4","last_reported":1741090734,"current_range_meters":14400,"station_id":"ce4bhb12rcd13ifvqem0","pricing_plan_id":"cebpf4jnsgd1na2vs0mg"},{"bike_id":"0eb9fef3-83c8-47c8-ad9e-cfe2998c47d1","system_id":"levelo_inurba_marseille","lat":43.31007,"lon":5.37537,"is_reserved":false,"is_disabled":false,"rental_uris":{"android":"levelo://app?vid=0eb9fef3-83c8-47c8-ad9e-cfe2998c47d1","ios":"levelo://app?vid=0eb9fef3-83c8-47c8-ad9e-cfe2998c47d1"},"vehicle_type_id":"4","last_reported":1741090734,"current_range_meters":14800,"station_id":"","pricing_plan_id":"cebpf4jnsgd1na2vs0mg"},{"bike_id":"985d2fa7-01f5-44f0-8aae-9e1fc7712f86","system_id":"levelo_inurba_marseille","lat":43.29254,"lon":5.37616,"is_reserved":false,"is_disabled":false,"rental_uris":{"android":"levelo://app?vid=985d2fa7-01f5-44f0-8aae-9e1fc7712f86","ios":"levelo://app?vid=985d2fa7-01f5-44f0-8aae-9e1fc7712f86"},"vehicle_type_id":"4","last_reported":1741090734,"current_range_meters":14800,"station_id":"ce4bgi12rcd13ifvqb80","pricing_plan_id":"cebpf4jnsgd1na2vs0mg"},{"bike_id":"15d1809a-97c8-428d-a2c6-9d8c5a972121","system_id":"levelo_inurba_marseille","lat":43.23163,"lon":5.43692,"is_reserved":false,"is_disabled":false,"rental_uris":{"android":"levelo://app?vid=15d1809a-97c8-428d-a2c6-9d8c5a972121","ios":"levelo://app?vid=15d1809a-97c8-428d-a2c6-9d8c5a972121"},"vehicle_type_id":"4","last_reported":1741090734,"current_range_meters":14800,"station_id":"ce4bhmp2rcd13ifvqgog","pricing_plan_id":"cebpf4jnsgd1na2vs0mg"},{"bike_id":"95e78016-f0c4-493e-a34d-250e6be396b3","system_id":"levelo_inurba_marseille","lat":43.23192,"lon":5.35551,"is_reserved":false,"is_disabled":false,"rental_uris":{"android":"levelo://app?vid=95e78016-f0c4-493e-a34d-250e6be396b3","ios":"levelo://app?vid=95e78016-f0c4-493e-a34d-250e6be396b3"},"vehicle_type_id":"4","last_reported":1741090734,"current_range_meters":14800,"station_id":"ce4bhu92rcd13ifvqi70","pricing_plan_id":"cebpf4jnsgd1na2vs0mg"},{"bike_id":"e165cb9c-7ce4-4697-a9a2-7f0cac595e9c","system_id":"levelo_inurba_marseille","lat":43.305397,"lon":5.366957,"is_reserved":false,"is_disabled":false,"rental_uris":{"android":"levelo://app?vid=e165cb9c-7ce4-4697-a9a2-7f0cac595e9c","ios":"levelo://app?vid=e165cb9c-7ce4-4697-a9a2-7f0cac595e9c"},"vehicle_type_id":"4","last_reported":1741090734,"current_range_meters":14800,"station_id":"ce4bgrp2rcd13ifvqc9g","pricing_plan_id":"cebpf4jnsgd1na2vs0mg"},{"bike_id":"6a680abd-5cde-4954-a6c1-01a9a6b77fc6","system_id":"levelo_inurba_marseille","lat":43.28406,"lon":5.34975,"is_reserved":false,"is_disabled":false,"rental_uris":{"android":"levelo://app?vid=6a680abd-5cde-4954-a6c1-01a9a6b77fc6","ios":"levelo://app?vid=6a680abd-5cde-4954-a6c1-01a9a6b77fc6"},"vehicle_type_id":"4","last_reported":1741090734,"current_range_meters":15200,"station_id":"ce4bhbh2rcd13ifvqepg","pricing_plan_id":"cebpf4jnsgd1na2vs0mg"},{"bike_id":"47ca7176-dcba-4b9e-8dbb-e2bb239319ab","system_id":"levelo_inurba_marseille","lat":43.31434,"lon":5.38611,"is_reserved":false,"is_disabled":false,"rental_uris":{"android":"levelo://app?vid=47ca7176-dcba-4b9e-8dbb-e2bb239319ab","ios":"levelo://app?vid=47ca7176-dcba-4b9e-8dbb-e2bb239319ab"},"vehicle_type_id":"4","last_reported":1741090734,"current_range_meters":15200,"station_id":"","pricing_plan_id":"cebpf4jnsgd1na2vs0mg"},{"bike_id":"8ef12c96-4a02-4ab6-af53-ca8fd7864c6a","system_id":"levelo_inurba_marseille","lat":43.30952,"lon":5.38997,"is_reserved":false,"is_disabled":false,"rental_uris":{"android":"levelo://app?vid=8ef12c96-4a02-4ab6-af53-ca8fd7864c6a","ios":"levelo://app?vid=8ef12c96-4a02-4ab6-af53-ca8fd7864c6a"},"vehicle_type_id":"4","last_reported":1741090734,"current_range_meters":15200,"station_id":"ce4bgup2rcd13ifvqco0","pricing_plan_id":"cebpf4jnsgd1na2vs0mg"},{"bike_id":"c840bf67-8766-42fa-a793-52a0ccbd5077","system_id":"levelo_inurba_marseille","lat":43.31343,"lon":5.36722,"is_reserved":false,"is_disabled":false,"rental_uris":{"android":"levelo://app?vid=c840bf67-8766-42fa-a793-52a0ccbd5077","ios":"levelo://app?vid=c840bf67-8766-42fa-a793-52a0ccbd5077"},"vehicle_type_id":"4","last_reported":1741090734,"current_range_meters":15200,"station_id":"ce4bgr92rcd13ifvqc6g","pricing_plan_id":"cebpf4jnsgd1na2vs0mg"},{"bike_id":"f8b34b05-3ce8-4023-b46a-493d367bd4f6","system_id":"levelo_inurba_marseille","lat":43.27167,"lon":5.40993,"is_reserved":false,"is_disabled":false,"rental_uris":{"android":"levelo://app?vid=f8b34b05-3ce8-4023-b46a-493d367bd4f6","ios":"levelo://app?vid=f8b34b05-3ce8-4023-b46a-493d367bd4f6"},"vehicle_type_id":"4","last_reported":1741090734,"current_range_meters":15200,"station_id":"ce4bhl12rcd13ifvqgf0","pricing_plan_id":"cebpf4jnsgd1na2vs0mg"},{"bike_id":"b42c55e8-57fb-426b-a2ca-1f9259f21514","system_id":"levelo_inurba_marseille","lat":43.24065,"lon":5.37727,"is_reserved":false,"is_disabled":false,"rental_uris":{"android":"levelo://app?vid=b42c55e8-57fb-426b-a2ca-1f9259f21514","ios":"levelo://app?vid=b42c55e8-57fb-426b-a2ca-1f9259f21514"},"vehicle_type_id":"4","last_reported":1741090734,"current_range_meters":16000,"station_id":"ce4bhnp2rcd13ifvqgvg","pricing_plan_id":"cebpf4jnsgd1na2vs0mg"},{"bike_id":"b1faada7-f5b3-4d24-8bbf-7cd8808d50e8","system_id":"levelo_inurba_marseille","lat":43.26781,"lon":5.3942,"is_reserved":false,"is_disabled":true,"rental_uris":{"android":"levelo://app?vid=b1faada7-f5b3-4d24-8bbf-7cd8808d50e8","ios":"levelo://app?vid=b1faada7-f5b3-4d24-8bbf-7cd8808d50e8"},"vehicle_type_id":"4","last_reported":1741090734,"current_range_meters":16000,"station_id":"ce4bhh12rcd13ifvqfg0","pricing_plan_id":"cebpf4jnsgd1na2vs0mg"},{"bike_id":"a38f8617-6fdd-424e-a2f6-31acad258be1","system_id":"levelo_inurba_marseille","lat":43.311197,"lon":5.377677,"is_reserved":false,"is_disabled":false,"rental_uris":{"android":"levelo://app?vid=a38f8617-6fdd-424e-a2f6-31acad258be1","ios":"levelo://app?vid=a38f8617-6fdd-424e-a2f6-31acad258be1"},"vehicle_type_id":"4","last_reported":1741090734,"current_range_meters":16000,"station_id":"","pricing_plan_id":"cebpf4jnsgd1na2vs0mg"},{"bike_id":"48a285ca-186e-4702-b73d-eff66aa5f54d","system_id":"levelo_inurba_marseille","lat":43.27061,"lon":5.40256,"is_reserved":false,"is_disabled":false,"rental_uris":{"android":"levelo://app?vid=48a285ca-186e-4702-b73d-eff66aa5f54d","ios":"levelo://app?vid=48a285ca-186e-4702-b73d-eff66aa5f54d"},"vehicle_type_id":"4","last_reported":1741090734,"current_range_meters":16000,"station_id":"ce4bhk92rcd13ifvqgc0","pricing_plan_id":"cebpf4jnsgd1na2vs0mg"},{"bike_id":"9d24db1e-c9ec-4865-80f3-632b4cdd91e2","system_id":"levelo_inurba_marseille","lat":43.30467,"lon":5.37901,"is_reserved":false,"is_disabled":false,"rental_uris":{"android":"levelo://app?vid=9d24db1e-c9ec-4865-80f3-632b4cdd91e2","ios":"levelo://app?vid=9d24db1e-c9ec-4865-80f3-632b4cdd91e2"},"vehicle_type_id":"4","last_reported":1741090734,"current_range_meters":16000,"station_id":"ce4bgup2rcd13ifvqcn0","pricing_plan_id":"cebpf4jnsgd1na2vs0mg"},{"bike_id":"5e8b46a3-f56e-4c74-99c6-8907371b416a","system_id":"levelo_inurba_marseille","lat":43.231942,"lon":5.40007,"is_reserved":false,"is_disabled":false,"rental_uris":{"android":"levelo://app?vid=5e8b46a3-f56e-4c74-99c6-8907371b416a","ios":"levelo://app?vid=5e8b46a3-f56e-4c74-99c6-8907371b416a"},"vehicle_type_id":"4","last_reported":1741090734,"current_range_meters":16000,"station_id":"ce4bhn12rcd13ifvqgqg","pricing_plan_id":"cebpf4jnsgd1na2vs0mg"},{"bike_id":"7cd5e07c-ad2a-4af8-99d9-77c41335ce79","system_id":"levelo_inurba_marseille","lat":43.24167,"lon":5.36385,"is_reserved":false,"is_disabled":false,"rental_uris":{"android":"levelo://app?vid=7cd5e07c-ad2a-4af8-99d9-77c41335ce79","ios":"levelo://app?vid=7cd5e07c-ad2a-4af8-99d9-77c41335ce79"},"vehicle_type_id":"4","last_reported":1741090734,"current_range_meters":16000,"station_id":"cpo36qri1sfpv3e86is0","pricing_plan_id":"cebpf4jnsgd1na2vs0mg"},{"bike_id":"d4781131-97f9-4c2b-9f21-cc40dcda1d9e","system_id":"levelo_inurba_marseille","lat":43.24085,"lon":5.37759,"is_reserved":false,"is_disabled":false,"rental_uris":{"android":"levelo://app?vid=d4781131-97f9-4c2b-9f21-cc40dcda1d9e","ios":"levelo://app?vid=d4781131-97f9-4c2b-9f21-cc40dcda1d9e"},"vehicle_type_id":"4","last_reported":1741090734,"current_range_meters":16000,"station_id":"ce4bhnp2rcd13ifvqgvg","pricing_plan_id":"cebpf4jnsgd1na2vs0mg"},{"bike_id":"e2561f86-c403-4b29-a057-bfc8bac05a51","system_id":"levelo_inurba_marseille","lat":43.30142,"lon":5.37442,"is_reserved":false,"is_disabled":false,"rental_uris":{"android":"levelo://app?vid=e2561f86-c403-4b29-a057-bfc8bac05a51","ios":"levelo://app?vid=e2561f86-c403-4b29-a057-bfc8bac05a51"},"vehicle_type_id":"4","last_reported":1741090734,"current_range_meters":16000,"station_id":"ce4bgs92rcd13ifvqcc0","pricing_plan_id":"cebpf4jnsgd1na2vs0mg"},{"bike_id":"d571166c-77a4-4a91-b051-9cc34ad31336","system_id":"levelo_inurba_marseille","lat":43.30182,"lon":5.3932,"is_reserved":false,"is_disabled":false,"rental_uris":{"android":"levelo://app?vid=d571166c-77a4-4a91-b051-9cc34ad31336","ios":"levelo://app?vid=d571166c-77a4-4a91-b051-9cc34ad31336"},"vehicle_type_id":"4","last_reported":1741090734,"current_range_meters":16000,"station_id":"","pricing_plan_id":"cebpf4jnsgd1na2vs0mg"},{"bike_id":"1a30acd6-e223-49a1-8261-11d646f7493a","system_id":"levelo_inurba_marseille","lat":43.29254,"lon":5.37607,"is_reserved":false,"is_disabled":false,"rental_uris":{"android":"levelo://app?vid=1a30acd6-e223-49a1-8261-11d646f7493a","ios":"levelo://app?vid=1a30acd6-e223-49a1-8261-11d646f7493a"},"vehicle_type_id":"4","last_reported":1741090734,"current_range_meters":16000,"station_id":"ce4bgi12rcd13ifvqb80","pricing_plan_id":"cebpf4jnsgd1na2vs0mg"},{"bike_id":"d1dfb0b4-7760-400b-b437-85c24c17b5f7","system_id":"levelo_inurba_marseille","lat":43.2395,"lon":5.36627,"is_reserved":false,"is_disabled":false,"rental_uris":{"android":"levelo://app?vid=d1dfb0b4-7760-400b-b437-85c24c17b5f7","ios":"levelo://app?vid=d1dfb0b4-7760-400b-b437-85c24c17b5f7"},"vehicle_type_id":"4","last_reported":1741090734,"current_range_meters":16000,"station_id":"ce4bhi12rcd13ifvqfp0","pricing_plan_id":"cebpf4jnsgd1na2vs0mg"},{"bike_id":"77dd4ede-c364-414d-a66a-eeeb43550a61","system_id":"levelo_inurba_marseille","lat":43.27211,"lon":5.39183,"is_reserved":false,"is_disabled":false,"rental_uris":{"android":"levelo://app?vid=77dd4ede-c364-414d-a66a-eeeb43550a61","ios":"levelo://app?vid=77dd4ede-c364-414d-a66a-eeeb43550a61"},"vehicle_type_id":"4","last_reported":1741090734,"current_range_meters":16400,"station_id":"ce4bhhp2rcd13ifvqfm0","pricing_plan_id":"cebpf4jnsgd1na2vs0mg"},{"bike_id":"4ead3cf7-030a-48ef-8e3f-f442056c69b3","system_id":"levelo_inurba_marseille","lat":43.30472,"lon":5.37895,"is_reserved":false,"is_disabled":false,"rental_uris":{"android":"levelo://app?vid=4ead3cf7-030a-48ef-8e3f-f442056c69b3","ios":"levelo://app?vid=4ead3cf7-030a-48ef-8e3f-f442056c69b3"},"vehicle_type_id":"4","last_reported":1741090734,"current_range_meters":16400,"station_id":"ce4bgup2rcd13ifvqcn0","pricing_plan_id":"cebpf4jnsgd1na2vs0mg"},{"bike_id":"4534e8b7-7eae-439c-a24f-1a5501ae5da7","system_id":"levelo_inurba_marseille","lat":43.23148,"lon":5.43714,"is_reserved":false,"is_disabled":false,"rental_uris":{"android":"levelo://app?vid=4534e8b7-7eae-439c-a24f-1a5501ae5da7","ios":"levelo://app?vid=4534e8b7-7eae-439c-a24f-1a5501ae5da7"},"vehicle_type_id":"4","last_reported":1741090734,"current_range_meters":16400,"station_id":"ce4bhmp2rcd13ifvqgog","pricing_plan_id":"cebpf4jnsgd1na2vs0mg"},{"bike_id":"56f807c6-3a2a-48f0-b6b7-8d1081332169","system_id":"levelo_inurba_marseille","lat":43.31354,"lon":5.36693,"is_reserved":false,"is_disabled":false,"rental_uris":{"android":"levelo://app?vid=56f807c6-3a2a-48f0-b6b7-8d1081332169","ios":"levelo://app?vid=56f807c6-3a2a-48f0-b6b7-8d1081332169"},"vehicle_type_id":"4","last_reported":1741090734,"current_range_meters":16400,"station_id":"ce4bgr92rcd13ifvqc6g","pricing_plan_id":"cebpf4jnsgd1na2vs0mg"},{"bike_id":"3c2abc48-2fe7-4d1b-9631-e50941d6c52d","system_id":"levelo_inurba_marseille","lat":43.28069,"lon":5.39658,"is_reserved":false,"is_disabled":false,"rental_uris":{"android":"levelo://app?vid=3c2abc48-2fe7-4d1b-9631-e50941d6c52d","ios":"levelo://app?vid=3c2abc48-2fe7-4d1b-9631-e50941d6c52d"},"vehicle_type_id":"4","last_reported":1741090734,"current_range_meters":16400,"station_id":"ce4bho12rcd13ifvqh2g","pricing_plan_id":"cebpf4jnsgd1na2vs0mg"},{"bike_id":"698426ac-3fe7-41dd-a88b-a5bb98aebc76","system_id":"levelo_inurba_marseille","lat":43.27816,"lon":5.40712,"is_reserved":false,"is_disabled":false,"rental_uris":{"android":"levelo://app?vid=698426ac-3fe7-41dd-a88b-a5bb98aebc76","ios":"levelo://app?vid=698426ac-3fe7-41dd-a88b-a5bb98aebc76"},"vehicle_type_id":"4","last_reported":1741090734,"current_range_meters":16400,"station_id":"ce4bhnh2rcd13ifvqgtg","pricing_plan_id":"cebpf4jnsgd1na2vs0mg"},{"bike_id":"f5d1f096-b501-47e4-bfc8-ec75ab927ef3","system_id":"levelo_inurba_marseille","lat":43.30584,"lon":5.39356,"is_reserved":false,"is_disabled":false,"rental_uris":{"android":"levelo://app?vid=f5d1f096-b501-47e4-bfc8-ec75ab927ef3","ios":"levelo://app?vid=f5d1f096-b501-47e4-bfc8-ec75ab927ef3"},"vehicle_type_id":"4","last_reported":1741090734,"current_range_meters":16400,"station_id":"ce4bh0p2rcd13ifvqd80","pricing_plan_id":"cebpf4jnsgd1na2vs0mg"},{"bike_id":"0486ce8c-9fb0-46de-ac92-e1a936ade9fb","system_id":"levelo_inurba_marseille","lat":43.30429,"lon":5.39747,"is_reserved":false,"is_disabled":false,"rental_uris":{"android":"levelo://app?vid=0486ce8c-9fb0-46de-ac92-e1a936ade9fb","ios":"levelo://app?vid=0486ce8c-9fb0-46de-ac92-e1a936ade9fb"},"vehicle_type_id":"4","last_reported":1741090734,"current_range_meters":16400,"station_id":"ce4bh092rcd13ifvqd20","pricing_plan_id":"cebpf4jnsgd1na2vs0mg"},{"bike_id":"9a6b1dcb-3594-4bb4-ab0b-6b30c24a905b","system_id":"levelo_inurba_marseille","lat":43.23158,"lon":5.4372,"is_reserved":false,"is_disabled":false,"rental_uris":{"android":"levelo://app?vid=9a6b1dcb-3594-4bb4-ab0b-6b30c24a905b","ios":"levelo://app?vid=9a6b1dcb-3594-4bb4-ab0b-6b30c24a905b"},"vehicle_type_id":"4","last_reported":1741090734,"current_range_meters":16400,"station_id":"ce4bhmp2rcd13ifvqgog","pricing_plan_id":"cebpf4jnsgd1na2vs0mg"},{"bike_id":"03d5bd23-db2c-4a3d-9573-a1403447f741","system_id":"levelo_inurba_marseille","lat":43.27815,"lon":5.40721,"is_reserved":false,"is_disabled":false,"rental_uris":{"android":"levelo://app?vid=03d5bd23-db2c-4a3d-9573-a1403447f741","ios":"levelo://app?vid=03d5bd23-db2c-4a3d-9573-a1403447f741"},"vehicle_type_id":"4","last_reported":1741090734,"current_range_meters":16400,"station_id":"ce4bhnh2rcd13ifvqgtg","pricing_plan_id":"cebpf4jnsgd1na2vs0mg"},{"bike_id":"e96e0c5f-d0e5-478b-b4aa-43a39d7ff26e","system_id":"levelo_inurba_marseille","lat":43.32419,"lon":5.36775,"is_reserved":false,"is_disabled":false,"rental_uris":{"android":"levelo://app?vid=e96e0c5f-d0e5-478b-b4aa-43a39d7ff26e","ios":"levelo://app?vid=e96e0c5f-d0e5-478b-b4aa-43a39d7ff26e"},"vehicle_type_id":"4","last_reported":1741090734,"current_range_meters":16400,"station_id":"","pricing_plan_id":"cebpf4jnsgd1na2vs0mg"},{"bike_id":"e9b78baf-3e36-4966-8125-e0603ceb6a87","system_id":"levelo_inurba_marseille","lat":43.27171,"lon":5.40993,"is_reserved":false,"is_disabled":false,"rental_uris":{"android":"levelo://app?vid=e9b78baf-3e36-4966-8125-e0603ceb6a87","ios":"levelo://app?vid=e9b78baf-3e36-4966-8125-e0603ceb6a87"},"vehicle_type_id":"4","last_reported":1741090734,"current_range_meters":16400,"station_id":"ce4bhl12rcd13ifvqgf0","pricing_plan_id":"cebpf4jnsgd1na2vs0mg"},{"bike_id":"628f8358-db3c-45cd-81d1-44f86a63e568","system_id":"levelo_inurba_marseille","lat":43.23193,"lon":5.35553,"is_reserved":false,"is_disabled":false,"rental_uris":{"android":"levelo://app?vid=628f8358-db3c-45cd-81d1-44f86a63e568","ios":"levelo://app?vid=628f8358-db3c-45cd-81d1-44f86a63e568"},"vehicle_type_id":"4","last_reported":1741090734,"current_range_meters":16800,"station_id":"ce4bhu92rcd13ifvqi70","pricing_plan_id":"cebpf4jnsgd1na2vs0mg"},{"bike_id":"31ddd0ff-b6c2-49a0-8090-b1d7b7915373","system_id":"levelo_inurba_marseille","lat":43.29582,"lon":5.37522,"is_reserved":false,"is_disabled":false,"rental_uris":{"android":"levelo://app?vid=31ddd0ff-b6c2-49a0-8090-b1d7b7915373","ios":"levelo://app?vid=31ddd0ff-b6c2-49a0-8090-b1d7b7915373"},"vehicle_type_id":"4","last_reported":1741090734,"current_range_meters":16400,"station_id":"ce4bgh92rcd13ifvqb50","pricing_plan_id":"cebpf4jnsgd1na2vs0mg"},{"bike_id":"ceafbcb3-5253-467f-8d5b-15203ddf6911","system_id":"levelo_inurba_marseille","lat":43.26685,"lon":5.38249,"is_reserved":false,"is_disabled":false,"rental_uris":{"android":"levelo://app?vid=ceafbcb3-5253-467f-8d5b-15203ddf6911","ios":"levelo://app?vid=ceafbcb3-5253-467f-8d5b-15203ddf6911"},"vehicle_type_id":"4","last_reported":1741090734,"current_range_meters":16800,"station_id":"ce4bhg92rcd13ifvqf90","pricing_plan_id":"cebpf4jnsgd1na2vs0mg"},{"bike_id":"28096b7f-96ae-4ea2-8ceb-2396385a6306","system_id":"levelo_inurba_marseille","lat":43.24634,"lon":5.38899,"is_reserved":false,"is_disabled":true,"rental_uris":{"android":"levelo://app?vid=28096b7f-96ae-4ea2-8ceb-2396385a6306","ios":"levelo://app?vid=28096b7f-96ae-4ea2-8ceb-2396385a6306"},"vehicle_type_id":"4","last_reported":1741090734,"current_range_meters":16800,"station_id":"ce4bhg12rcd13ifvqf60","pricing_plan_id":"cebpf4jnsgd1na2vs0mg"},{"bike_id":"8b7b3e92-fc3d-4aa6-9b62-d67a99ca8207","system_id":"levelo_inurba_marseille","lat":43.275,"lon":5.42449,"is_reserved":false,"is_disabled":false,"rental_uris":{"android":"levelo://app?vid=8b7b3e92-fc3d-4aa6-9b62-d67a99ca8207","ios":"levelo://app?vid=8b7b3e92-fc3d-4aa6-9b62-d67a99ca8207"},"vehicle_type_id":"4","last_reported":1741090734,"current_range_meters":16800,"station_id":"ce4bhn92rcd13ifvqgrg","pricing_plan_id":"cebpf4jnsgd1na2vs0mg"},{"bike_id":"7ad449bc-99c2-472f-b781-ad26766d1190","system_id":"levelo_inurba_marseille","lat":43.26067,"lon":5.39393,"is_reserved":false,"is_disabled":false,"rental_uris":{"android":"levelo://app?vid=7ad449bc-99c2-472f-b781-ad26766d1190","ios":"levelo://app?vid=7ad449bc-99c2-472f-b781-ad26766d1190"},"vehicle_type_id":"4","last_reported":1741090734,"current_range_meters":16800,"station_id":"ce4bhh92rcd13ifvqfj0","pricing_plan_id":"cebpf4jnsgd1na2vs0mg"},{"bike_id":"473831e8-158d-4493-b4a5-460bb983c029","system_id":"levelo_inurba_marseille","lat":43.29253,"lon":5.40903,"is_reserved":false,"is_disabled":false,"rental_uris":{"android":"levelo://app?vid=473831e8-158d-4493-b4a5-460bb983c029","ios":"levelo://app?vid=473831e8-158d-4493-b4a5-460bb983c029"},"vehicle_type_id":"4","last_reported":1741090734,"current_range_meters":16800,"station_id":"ce4bh192rcd13ifvqdc0","pricing_plan_id":"cebpf4jnsgd1na2vs0mg"},{"bike_id":"47c864c0-d281-4491-94bc-a766b53224b7","system_id":"levelo_inurba_marseille","lat":43.27058,"lon":5.40254,"is_reserved":false,"is_disabled":false,"rental_uris":{"android":"levelo://app?vid=47c864c0-d281-4491-94bc-a766b53224b7","ios":"levelo://app?vid=47c864c0-d281-4491-94bc-a766b53224b7"},"vehicle_type_id":"4","last_reported":1741090734,"current_range_meters":16800,"station_id":"ce4bhk92rcd13ifvqgc0","pricing_plan_id":"cebpf4jnsgd1na2vs0mg"},{"bike_id":"f6d289af-88b5-4ea5-84c4-5f4d0f6ab357","system_id":"levelo_inurba_marseille","lat":43.2508,"lon":5.39508,"is_reserved":false,"is_disabled":false,"rental_uris":{"android":"levelo://app?vid=f6d289af-88b5-4ea5-84c4-5f4d0f6ab357","ios":"levelo://app?vid=f6d289af-88b5-4ea5-84c4-5f4d0f6ab357"},"vehicle_type_id":"4","last_reported":1741090734,"current_range_meters":16800,"station_id":"ce4bhm12rcd13ifvqgkg","pricing_plan_id":"cebpf4jnsgd1na2vs0mg"},{"bike_id":"d8d66190-8c1a-44b6-942b-12759db9a659","system_id":"levelo_inurba_marseille","lat":43.30927,"lon":5.40148,"is_reserved":false,"is_disabled":false,"rental_uris":{"android":"levelo://app?vid=d8d66190-8c1a-44b6-942b-12759db9a659","ios":"levelo://app?vid=d8d66190-8c1a-44b6-942b-12759db9a659"},"vehicle_type_id":"4","last_reported":1741090734,"current_range_meters":17200,"station_id":"ce4bgvp2rcd13ifvqct0","pricing_plan_id":"cebpf4jnsgd1na2vs0mg"},{"bike_id":"4d4e5c64-3576-46f5-a6ab-213eaa69e385","system_id":"levelo_inurba_marseille","lat":43.25817,"lon":5.39429,"is_reserved":false,"is_disabled":false,"rental_uris":{"android":"levelo://app?vid=4d4e5c64-3576-46f5-a6ab-213eaa69e385","ios":"levelo://app?vid=4d4e5c64-3576-46f5-a6ab-213eaa69e385"},"vehicle_type_id":"4","last_reported":1741090734,"current_range_meters":17200,"station_id":"ce4bhip2rcd13ifvqft0","pricing_plan_id":"cebpf4jnsgd1na2vs0mg"},{"bike_id":"ba8b5a67-dd24-4521-be6a-d19af809928c","system_id":"levelo_inurba_marseille","lat":43.28987,"lon":5.37836,"is_reserved":false,"is_disabled":false,"rental_uris":{"android":"levelo://app?vid=ba8b5a67-dd24-4521-be6a-d19af809928c","ios":"levelo://app?vid=ba8b5a67-dd24-4521-be6a-d19af809928c"},"vehicle_type_id":"4","last_reported":1741090734,"current_range_meters":17200,"station_id":"ce4bh9p2rcd13ifvqed0","pricing_plan_id":"cebpf4jnsgd1na2vs0mg"},{"bike_id":"bb53765b-55cd-43b6-85fd-347f3b6fa24c","system_id":"levelo_inurba_marseille","lat":43.337444,"lon":5.374475,"is_reserved":false,"is_disabled":true,"rental_uris":{"android":"levelo://app?vid=bb53765b-55cd-43b6-85fd-347f3b6fa24c","ios":"levelo://app?vid=bb53765b-55cd-43b6-85fd-347f3b6fa24c"},"vehicle_type_id":"4","last_reported":1741090734,"current_range_meters":17200,"station_id":"","pricing_plan_id":"cebpf4jnsgd1na2vs0mg"},{"bike_id":"22b507dc-75c6-49d7-b84b-513dedaad7cf","system_id":"levelo_inurba_marseille","lat":43.23147,"lon":5.43723,"is_reserved":false,"is_disabled":false,"rental_uris":{"android":"levelo://app?vid=22b507dc-75c6-49d7-b84b-513dedaad7cf","ios":"levelo://app?vid=22b507dc-75c6-49d7-b84b-513dedaad7cf"},"vehicle_type_id":"4","last_reported":1741090734,"current_range_meters":17200,"station_id":"ce4bhmp2rcd13ifvqgog","pricing_plan_id":"cebpf4jnsgd1na2vs0mg"},{"bike_id":"330426bc-0af9-4c3e-8e4c-6ec10833df11","system_id":"levelo_inurba_marseille","lat":43.29906,"lon":5.43666,"is_reserved":false,"is_disabled":false,"rental_uris":{"android":"levelo://app?vid=330426bc-0af9-4c3e-8e4c-6ec10833df11","ios":"levelo://app?vid=330426bc-0af9-4c3e-8e4c-6ec10833df11"},"vehicle_type_id":"4","last_reported":1741090734,"current_range_meters":17200,"station_id":"ce4bhpp2rcd13ifvqhfg","pricing_plan_id":"cebpf4jnsgd1na2vs0mg"},{"bike_id":"3cc0ecc7-b3c2-4367-af14-629b89eac3e2","system_id":"levelo_inurba_marseille","lat":43.32659,"lon":5.4099,"is_reserved":false,"is_disabled":true,"rental_uris":{"android":"levelo://app?vid=3cc0ecc7-b3c2-4367-af14-629b89eac3e2","ios":"levelo://app?vid=3cc0ecc7-b3c2-4367-af14-629b89eac3e2"},"vehicle_type_id":"4","last_reported":1741090734,"current_range_meters":17200,"station_id":"ce4bhpp2rcd13ifvqhgg","pricing_plan_id":"cebpf4jnsgd1na2vs0mg"},{"bike_id":"1fad3569-5461-4700-ba1b-7cd0342fc6bc","system_id":"levelo_inurba_marseille","lat":43.29631,"lon":5.40595,"is_reserved":false,"is_disabled":false,"rental_uris":{"android":"levelo://app?vid=1fad3569-5461-4700-ba1b-7cd0342fc6bc","ios":"levelo://app?vid=1fad3569-5461-4700-ba1b-7cd0342fc6bc"},"vehicle_type_id":"4","last_reported":1741090734,"current_range_meters":16800,"station_id":"ce4bh0h2rcd13ifvqd60","pricing_plan_id":"cebpf4jnsgd1na2vs0mg"},{"bike_id":"0887995a-7163-48cf-a17f-e3237da9ea00","system_id":"levelo_inurba_marseille","lat":43.23186,"lon":5.40001,"is_reserved":false,"is_disabled":false,"rental_uris":{"android":"levelo://app?vid=0887995a-7163-48cf-a17f-e3237da9ea00","ios":"levelo://app?vid=0887995a-7163-48cf-a17f-e3237da9ea00"},"vehicle_type_id":"4","last_reported":1741090734,"current_range_meters":17200,"station_id":"ce4bhn12rcd13ifvqgqg","pricing_plan_id":"cebpf4jnsgd1na2vs0mg"},{"bike_id":"0d351053-81b9-4955-9b61-57e5e1ba59dd","system_id":"levelo_inurba_marseille","lat":43.26956,"lon":5.38637,"is_reserved":false,"is_disabled":false,"rental_uris":{"android":"levelo://app?vid=0d351053-81b9-4955-9b61-57e5e1ba59dd","ios":"levelo://app?vid=0d351053-81b9-4955-9b61-57e5e1ba59dd"},"vehicle_type_id":"4","last_reported":1741090734,"current_range_meters":17200,"station_id":"ce4bhh92rcd13ifvqfh0","pricing_plan_id":"cebpf4jnsgd1na2vs0mg"},{"bike_id":"f6b8e3ef-8327-4bfe-82d9-17fd528df4d1","system_id":"levelo_inurba_marseille","lat":43.28731,"lon":5.37938,"is_reserved":false,"is_disabled":false,"rental_uris":{"android":"levelo://app?vid=f6b8e3ef-8327-4bfe-82d9-17fd528df4d1","ios":"levelo://app?vid=f6b8e3ef-8327-4bfe-82d9-17fd528df4d1"},"vehicle_type_id":"4","last_reported":1741090734,"current_range_meters":17600,"station_id":"ce4bh9p2rcd13ifvqec0","pricing_plan_id":"cebpf4jnsgd1na2vs0mg"},{"bike_id":"fe23bb57-f0ae-47d2-b76f-ea8e0ec1920a","system_id":"levelo_inurba_marseille","lat":43.31268,"lon":5.38867,"is_reserved":false,"is_disabled":false,"rental_uris":{"android":"levelo://app?vid=fe23bb57-f0ae-47d2-b76f-ea8e0ec1920a","ios":"levelo://app?vid=fe23bb57-f0ae-47d2-b76f-ea8e0ec1920a"},"vehicle_type_id":"4","last_reported":1741090734,"current_range_meters":17600,"station_id":"","pricing_plan_id":"cebpf4jnsgd1na2vs0mg"},{"bike_id":"3b88b122-18ff-46be-8c39-72a33842542f","system_id":"levelo_inurba_marseille","lat":43.31324,"lon":5.39697,"is_reserved":false,"is_disabled":true,"rental_uris":{"android":"levelo://app?vid=3b88b122-18ff-46be-8c39-72a33842542f","ios":"levelo://app?vid=3b88b122-18ff-46be-8c39-72a33842542f"},"vehicle_type_id":"4","last_reported":1741090734,"current_range_meters":17600,"station_id":"ce4bgvp2rcd13ifvqcu0","pricing_plan_id":"cebpf4jnsgd1na2vs0mg"},{"bike_id":"cb043aa5-b12e-4484-aef6-71f3828425d0","system_id":"levelo_inurba_marseille","lat":43.27943,"lon":5.41051,"is_reserved":false,"is_disabled":false,"rental_uris":{"android":"levelo://app?vid=cb043aa5-b12e-4484-aef6-71f3828425d0","ios":"levelo://app?vid=cb043aa5-b12e-4484-aef6-71f3828425d0"},"vehicle_type_id":"4","last_reported":1741090734,"current_range_meters":17600,"station_id":"ce4bhnp2rcd13ifvqh0g","pricing_plan_id":"cebpf4jnsgd1na2vs0mg"},{"bike_id":"59913f31-a035-4f89-97de-5554ff6a5b2e","system_id":"levelo_inurba_marseille","lat":43.26685,"lon":5.3827,"is_reserved":false,"is_disabled":false,"rental_uris":{"android":"levelo://app?vid=59913f31-a035-4f89-97de-5554ff6a5b2e","ios":"levelo://app?vid=59913f31-a035-4f89-97de-5554ff6a5b2e"},"vehicle_type_id":"4","last_reported":1741090734,"current_range_meters":17600,"station_id":"ce4bhg92rcd13ifvqf90","pricing_plan_id":"cebpf4jnsgd1na2vs0mg"},{"bike_id":"b172a1af-b71c-4a2c-8d00-490eb5f19552","system_id":"levelo_inurba_marseille","lat":43.2722,"lon":5.39184,"is_reserved":false,"is_disabled":false,"rental_uris":{"android":"levelo://app?vid=b172a1af-b71c-4a2c-8d00-490eb5f19552","ios":"levelo://app?vid=b172a1af-b71c-4a2c-8d00-490eb5f19552"},"vehicle_type_id":"4","last_reported":1741090734,"current_range_meters":17600,"station_id":"ce4bhhp2rcd13ifvqfm0","pricing_plan_id":"cebpf4jnsgd1na2vs0mg"},{"bike_id":"d4ca5fb6-f310-4bac-898a-e5f702fbd50b","system_id":"levelo_inurba_marseille","lat":43.27188,"lon":5.40977,"is_reserved":false,"is_disabled":false,"rental_uris":{"android":"levelo://app?vid=d4ca5fb6-f310-4bac-898a-e5f702fbd50b","ios":"levelo://app?vid=d4ca5fb6-f310-4bac-898a-e5f702fbd50b"},"vehicle_type_id":"4","last_reported":1741090734,"current_range_meters":17600,"station_id":"ce4bhl12rcd13ifvqgf0","pricing_plan_id":"cebpf4jnsgd1na2vs0mg"},{"bike_id":"7658fc85-1f07-4cf3-9bb3-fd674f0cd0eb","system_id":"levelo_inurba_marseille","lat":43.30134,"lon":5.38778,"is_reserved":false,"is_disabled":false,"rental_uris":{"android":"levelo://app?vid=7658fc85-1f07-4cf3-9bb3-fd674f0cd0eb","ios":"levelo://app?vid=7658fc85-1f07-4cf3-9bb3-fd674f0cd0eb"},"vehicle_type_id":"4","last_reported":1741090734,"current_range_meters":17600,"station_id":"ce4bghh2rcd13ifvqb60","pricing_plan_id":"cebpf4jnsgd1na2vs0mg"},{"bike_id":"30ff9208-332b-4b25-9f8b-6bd472d1ae9a","system_id":"levelo_inurba_marseille","lat":43.29253,"lon":5.409047,"is_reserved":false,"is_disabled":false,"rental_uris":{"android":"levelo://app?vid=30ff9208-332b-4b25-9f8b-6bd472d1ae9a","ios":"levelo://app?vid=30ff9208-332b-4b25-9f8b-6bd472d1ae9a"},"vehicle_type_id":"4","last_reported":1741090734,"current_range_meters":17600,"station_id":"ce4bh192rcd13ifvqdc0","pricing_plan_id":"cebpf4jnsgd1na2vs0mg"},{"bike_id":"c6762606-6123-4176-98c0-430a38ac0378","system_id":"levelo_inurba_marseille","lat":43.24774,"lon":5.41186,"is_reserved":false,"is_disabled":false,"rental_uris":{"android":"levelo://app?vid=c6762606-6123-4176-98c0-430a38ac0378","ios":"levelo://app?vid=c6762606-6123-4176-98c0-430a38ac0378"},"vehicle_type_id":"4","last_reported":1741090734,"current_range_meters":17600,"station_id":"","pricing_plan_id":"cebpf4jnsgd1na2vs0mg"},{"bike_id":"15366d76-e56c-4c96-af60-89c337fffc8e","system_id":"levelo_inurba_marseille","lat":43.29043,"lon":5.39982,"is_reserved":false,"is_disabled":false,"rental_uris":{"android":"levelo://app?vid=15366d76-e56c-4c96-af60-89c337fffc8e","ios":"levelo://app?vid=15366d76-e56c-4c96-af60-89c337fffc8e"},"vehicle_type_id":"4","last_reported":1741090734,"current_range_meters":18000,"station_id":"ce4bh392rcd13ifvqdm0","pricing_plan_id":"cebpf4jnsgd1na2vs0mg"},{"bike_id":"faba34a5-5170-484c-a414-f6b11608f3d5","system_id":"levelo_inurba_marseille","lat":43.27811,"lon":5.40716,"is_reserved":false,"is_disabled":false,"rental_uris":{"android":"levelo://app?vid=faba34a5-5170-484c-a414-f6b11608f3d5","ios":"levelo://app?vid=faba34a5-5170-484c-a414-f6b11608f3d5"},"vehicle_type_id":"4","last_reported":1741090734,"current_range_meters":18000,"station_id":"ce4bhnh2rcd13ifvqgtg","pricing_plan_id":"cebpf4jnsgd1na2vs0mg"},{"bike_id":"688be7dc-5be1-4ee5-89fd-2b6b021aea5a","system_id":"levelo_inurba_marseille","lat":43.29305,"lon":5.37177,"is_reserved":false,"is_disabled":false,"rental_uris":{"android":"levelo://app?vid=688be7dc-5be1-4ee5-89fd-2b6b021aea5a","ios":"levelo://app?vid=688be7dc-5be1-4ee5-89fd-2b6b021aea5a"},"vehicle_type_id":"4","last_reported":1741090734,"current_range_meters":18000,"station_id":"ce4bgh92rcd13ifvqb40","pricing_plan_id":"cebpf4jnsgd1na2vs0mg"},{"bike_id":"3ad1b0a2-89ca-4e39-961a-7714ec6436f9","system_id":"levelo_inurba_marseille","lat":43.28075,"lon":5.39664,"is_reserved":false,"is_disabled":false,"rental_uris":{"android":"levelo://app?vid=3ad1b0a2-89ca-4e39-961a-7714ec6436f9","ios":"levelo://app?vid=3ad1b0a2-89ca-4e39-961a-7714ec6436f9"},"vehicle_type_id":"4","last_reported":1741090734,"current_range_meters":18000,"station_id":"ce4bho12rcd13ifvqh2g","pricing_plan_id":"cebpf4jnsgd1na2vs0mg"},{"bike_id":"601b7edc-c6de-4e63-9f89-10abc8a31bb3","system_id":"levelo_inurba_marseille","lat":43.289958,"lon":5.356381,"is_reserved":false,"is_disabled":false,"rental_uris":{"android":"levelo://app?vid=601b7edc-c6de-4e63-9f89-10abc8a31bb3","ios":"levelo://app?vid=601b7edc-c6de-4e63-9f89-10abc8a31bb3"},"vehicle_type_id":"4","last_reported":1741090734,"current_range_meters":18000,"station_id":"ce4bhap2rcd13ifvqek0","pricing_plan_id":"cebpf4jnsgd1na2vs0mg"},{"bike_id":"73a81379-019b-42a2-a2e4-7c0ddced0295","system_id":"levelo_inurba_marseille","lat":43.30865,"lon":5.37801,"is_reserved":false,"is_disabled":false,"rental_uris":{"android":"levelo://app?vid=73a81379-019b-42a2-a2e4-7c0ddced0295","ios":"levelo://app?vid=73a81379-019b-42a2-a2e4-7c0ddced0295"},"vehicle_type_id":"4","last_reported":1741090734,"current_range_meters":18800,"station_id":"","pricing_plan_id":"cebpf4jnsgd1na2vs0mg"},{"bike_id":"c90977ce-d08d-4d7f-92cb-dbdf4c9290ae","system_id":"levelo_inurba_marseille","lat":43.32656,"lon":5.40987,"is_reserved":false,"is_disabled":false,"rental_uris":{"android":"levelo://app?vid=c90977ce-d08d-4d7f-92cb-dbdf4c9290ae","ios":"levelo://app?vid=c90977ce-d08d-4d7f-92cb-dbdf4c9290ae"},"vehicle_type_id":"4","last_reported":1741090734,"current_range_meters":18800,"station_id":"ce4bhpp2rcd13ifvqhgg","pricing_plan_id":"cebpf4jnsgd1na2vs0mg"},{"bike_id":"ee59b3a3-0f87-489f-91b5-15c91569f1b2","system_id":"levelo_inurba_marseille","lat":43.24169,"lon":5.36385,"is_reserved":false,"is_disabled":false,"rental_uris":{"android":"levelo://app?vid=ee59b3a3-0f87-489f-91b5-15c91569f1b2","ios":"levelo://app?vid=ee59b3a3-0f87-489f-91b5-15c91569f1b2"},"vehicle_type_id":"4","last_reported":1741090734,"current_range_meters":18800,"station_id":"cpo36qri1sfpv3e86is0","pricing_plan_id":"cebpf4jnsgd1na2vs0mg"},{"bike_id":"57cc304b-570e-47e0-b58a-584691de5475","system_id":"levelo_inurba_marseille","lat":43.27989,"lon":5.40023,"is_reserved":false,"is_disabled":false,"rental_uris":{"android":"levelo://app?vid=57cc304b-570e-47e0-b58a-584691de5475","ios":"levelo://app?vid=57cc304b-570e-47e0-b58a-584691de5475"},"vehicle_type_id":"4","last_reported":1741090734,"current_range_meters":18800,"station_id":"ce4bho92rcd13ifvqh4g","pricing_plan_id":"cebpf4jnsgd1na2vs0mg"},{"bike_id":"b50e4e6d-0a97-4b56-9586-c198cb96e436","system_id":"levelo_inurba_marseille","lat":43.28618,"lon":5.35101,"is_reserved":false,"is_disabled":false,"rental_uris":{"android":"levelo://app?vid=b50e4e6d-0a97-4b56-9586-c198cb96e436","ios":"levelo://app?vid=b50e4e6d-0a97-4b56-9586-c198cb96e436"},"vehicle_type_id":"4","last_reported":1741090734,"current_range_meters":18800,"station_id":"ce4bhch2rcd13ifvqeug","pricing_plan_id":"cebpf4jnsgd1na2vs0mg"},{"bike_id":"261743e5-3017-47cc-a628-6885706bfa8f","system_id":"levelo_inurba_marseille","lat":43.29192,"lon":5.39327,"is_reserved":false,"is_disabled":false,"rental_uris":{"android":"levelo://app?vid=261743e5-3017-47cc-a628-6885706bfa8f","ios":"levelo://app?vid=261743e5-3017-47cc-a628-6885706bfa8f"},