{"last_updated":1749503389,"ttl":60,"version":"2.2","data":{"bikes":[{"bike_id":"0ee30f66-69de-4642-91c3-7ec48a5f7a7a","system_id":"levelo_inurba_marseille","lat":43.30889,"lon":5.39644,"is_reserved":false,"is_disabled":false,"rental_uris":{"android":"levelo://app?vid=0ee30f66-69de-4642-91c3-7ec48a5f7a7a","ios":"levelo://app?vid=0ee30f66-69de-4642-91c3-7ec48a5f7a7a"},"vehicle_type_id":"4","last_reported":1749503390,"current_range_meters":2800,"station_id":"ce4bh012rcd13ifvqcv0","pricing_plan_id":"cebpf4jnsgd1na2vs0mg"},{"bike_id":"1ea4d901-280f-4050-a043-0b37afe86b03","system_id":"levelo_inurba_marseille","lat":43.211893,"lon":5.350695,"is_reserved":false,"is_disabled":false,"rental_uris":{"android":"levelo://app?vid=1ea4d901-280f-4050-a043-0b37afe86b03","ios":"levelo://app?vid=1ea4d901-280f-4050-a043-0b37afe86b03"},"vehicle_type_id":"4","last_reported":1749503390,"current_range_meters":3200,"station_id":"st_cvj6sg6p6f1abm77japg","pricing_plan_id":"cebpf4jnsgd1na2vs0mg"},{"bike_id":"91b5925d-2d0a-4921-81ac-1150c1974987","system_id":"levelo_inurba_marseille","lat":43.28222,"lon":5.34883,"is_reserved":false,"is_disabled":false,"rental_uris":{"android":"levelo://app?vid=91b5925d-2d0a-4921-81ac-1150c1974987","ios":"levelo://app?vid=91b5925d-2d0a-4921-81ac-1150c1974987"},"vehicle_type_id":"4","last_reported":1749503390,"current_range_meters":3200,"station_id":"","pricing_plan_id":"cebpf4jnsgd1na2vs0mg"},{"bike_id":"67d4735d-a812-4e55-90bc-5641f4e35931","system_id":"levelo_inurba_marseille","lat":43.21187,"lon":5.35067,"is_reserved":false,"is_disabled":false,"rental_uris":{"android":"levelo://app?vid=67d4735d-a812-4e55-90bc-5641f4e35931","ios":"levelo://app?vid=67d4735d-a812-4e55-90bc-5641f4e35931"},"vehicle_type_id":"4","last_reported":1749503390,"current_range_meters":3600,"station_id":"st_cvj6sg6p6f1abm77japg","pricing_plan_id":"cebpf4jnsgd1na2vs0mg"},{"bike_id":"3d9d3976-b6da-415d-b0e7-53db0b5a7bcb","system_id":"levelo_inurba_marseille","lat":43.28103,"lon":5.37846,"is_reserved":false,"is_disabled":true,"rental_uris":{"android":"levelo://app?vid=3d9d3976-b6da-415d-b0e7-53db0b5a7bcb","ios":"levelo://app?vid=3d9d3976-b6da-415d-b0e7-53db0b5a7bcb"},"vehicle_type_id":"4","last_reported":1749503390,"current_range_meters":3600,"station_id":"ce4bha12rcd13ifvqee0","pricing_plan_id":"cebpf4jnsgd1na2vs0mg"},{"bike_id":"8265c198-1e38-44ee-b70e-8082c6c86a0a","system_id":"levelo_inurba_marseille","lat":43.2925,"lon":5.409,"is_reserved":false,"is_disabled":false,"rental_uris":{"android":"levelo://app?vid=8265c198-1e38-44ee-b70e-8082c6c86a0a","ios":"levelo://app?vid=8265c198-1e38-44ee-b70e-8082c6c86a0a"},"vehicle_type_id":"4","last_reported":1749503390,"current_range_meters":3600,"station_id":"ce4bh192rcd13ifvqdc0","pricing_plan_id":"cebpf4jnsgd1na2vs0mg"},{"bike_id":"76dff3f0-834f-4367-9c95-a64d3e371b8d","system_id":"levelo_inurba_marseille","lat":43.26227,"lon":5.40436,"is_reserved":false,"is_disabled":false,"rental_uris":{"android":"levelo://app?vid=76dff3f0-834f-4367-9c95-a64d3e371b8d","ios":"levelo://app?vid=76dff3f0-834f-4367-9c95-a64d3e371b8d"},"vehicle_type_id":"4","last_reported":1749503390,"current_range_meters":3600,"station_id":"ce4bhmh2rcd13ifvqgmg","pricing_plan_id":"cebpf4jnsgd1na2vs0mg"},{"bike_id":"11c5186d-7e4f-49c8-970f-7c197f83cfc9","system_id":"levelo_inurba_marseille","lat":43.30939,"lon":5.40157,"is_reserved":false,"is_disabled":false,"rental_uris":{"android":"levelo://app?vid=11c5186d-7e4f-49c8-970f-7c197f83cfc9","ios":"levelo://app?vid=11c5186d-7e4f-49c8-970f-7c197f83cfc9"},"vehicle_type_id":"4","last_reported":1749503390,"current_range_meters":3600,"station_id":"ce4bgvp2rcd13ifvqct0","pricing_plan_id":"cebpf4jnsgd1na2vs0mg"},{"bike_id":"a2d73be7-868a-4600-9834-af16b43b12ad","system_id":"levelo_inurba_marseille","lat":43.24494,"lon":5.42503,"is_reserved":false,"is_disabled":false,"rental_uris":{"android":"levelo://app?vid=a2d73be7-868a-4600-9834-af16b43b12ad","ios":"levelo://app?vid=a2d73be7-868a-4600-9834-af16b43b12ad"},"vehicle_type_id":"4","last_reported":1749503390,"current_range_meters":4000,"station_id":"","pricing_plan_id":"cebpf4jnsgd1na2vs0mg"},{"bike_id":"a7b6f345-c573-436e-85b2-3dab9793ee94","system_id":"levelo_inurba_marseille","lat":43.27833,"lon":5.39202,"is_reserved":false,"is_disabled":false,"rental_uris":{"android":"levelo://app?vid=a7b6f345-c573-436e-85b2-3dab9793ee94","ios":"levelo://app?vid=a7b6f345-c573-436e-85b2-3dab9793ee94"},"vehicle_type_id":"4","last_reported":1749503390,"current_range_meters":4000,"station_id":"ce4bhjp2rcd13ifvqga0","pricing_plan_id":"cebpf4jnsgd1na2vs0mg"},{"bike_id":"37131763-d567-471b-9511-f463050a0ad1","system_id":"levelo_inurba_marseille","lat":43.29582,"lon":5.37505,"is_reserved":false,"is_disabled":true,"rental_uris":{"android":"levelo://app?vid=37131763-d567-471b-9511-f463050a0ad1","ios":"levelo://app?vid=37131763-d567-471b-9511-f463050a0ad1"},"vehicle_type_id":"4","last_reported":1749503390,"current_range_meters":4000,"station_id":"ce4bgh92rcd13ifvqb50","pricing_plan_id":"cebpf4jnsgd1na2vs0mg"},{"bike_id":"4a74c582-1084-4991-85c1-26c6cedf9e1a","system_id":"levelo_inurba_marseille","lat":43.27906,"lon":5.38008,"is_reserved":false,"is_disabled":false,"rental_uris":{"android":"levelo://app?vid=4a74c582-1084-4991-85c1-26c6cedf9e1a","ios":"levelo://app?vid=4a74c582-1084-4991-85c1-26c6cedf9e1a"},"vehicle_type_id":"4","last_reported":1749503390,"current_range_meters":3600,"station_id":"ce4bhf92rcd13ifvqf50","pricing_plan_id":"cebpf4jnsgd1na2vs0mg"},{"bike_id":"70b5c0d4-495d-4ed1-8f07-90694bd29b90","system_id":"levelo_inurba_marseille","lat":43.30923,"lon":5.40147,"is_reserved":false,"is_disabled":false,"rental_uris":{"android":"levelo://app?vid=70b5c0d4-495d-4ed1-8f07-90694bd29b90","ios":"levelo://app?vid=70b5c0d4-495d-4ed1-8f07-90694bd29b90"},"vehicle_type_id":"4","last_reported":1749503390,"current_range_meters":4000,"station_id":"ce4bgvp2rcd13ifvqct0","pricing_plan_id":"cebpf4jnsgd1na2vs0mg"},{"bike_id":"b564ca85-cbb2-44da-8a92-247f6365e561","system_id":"levelo_inurba_marseille","lat":43.25108,"lon":5.40326,"is_reserved":false,"is_disabled":false,"rental_uris":{"android":"levelo://app?vid=b564ca85-cbb2-44da-8a92-247f6365e561","ios":"levelo://app?vid=b564ca85-cbb2-44da-8a92-247f6365e561"},"vehicle_type_id":"4","last_reported":1749503390,"current_range_meters":4400,"station_id":"ce4bhlh2rcd13ifvqgig","pricing_plan_id":"cebpf4jnsgd1na2vs0mg"},{"bike_id":"04983142-7950-4df8-ad98-d43a378ca8b2","system_id":"levelo_inurba_marseille","lat":43.28935,"lon":5.37093,"is_reserved":false,"is_disabled":false,"rental_uris":{"android":"levelo://app?vid=04983142-7950-4df8-ad98-d43a378ca8b2","ios":"levelo://app?vid=04983142-7950-4df8-ad98-d43a378ca8b2"},"vehicle_type_id":"4","last_reported":1749503390,"current_range_meters":4400,"station_id":"","pricing_plan_id":"cebpf4jnsgd1na2vs0mg"},{"bike_id":"2ee95ae0-83a2-4f87-92e7-182763430c39","system_id":"levelo_inurba_marseille","lat":43.28667,"lon":5.36351,"is_reserved":false,"is_disabled":true,"rental_uris":{"android":"levelo://app?vid=2ee95ae0-83a2-4f87-92e7-182763430c39","ios":"levelo://app?vid=2ee95ae0-83a2-4f87-92e7-182763430c39"},"vehicle_type_id":"4","last_reported":1749503390,"current_range_meters":4400,"station_id":"ce4bhah2rcd13ifvqej0","pricing_plan_id":"cebpf4jnsgd1na2vs0mg"},{"bike_id":"1556cf50-9233-44d8-b126-e6f9550463a3","system_id":"levelo_inurba_marseille","lat":43.24488,"lon":5.42805,"is_reserved":false,"is_disabled":false,"rental_uris":{"android":"levelo://app?vid=1556cf50-9233-44d8-b126-e6f9550463a3","ios":"levelo://app?vid=1556cf50-9233-44d8-b126-e6f9550463a3"},"vehicle_type_id":"4","last_reported":1749503390,"current_range_meters":4400,"station_id":"","pricing_plan_id":"cebpf4jnsgd1na2vs0mg"},{"bike_id":"c94192a2-124d-4a00-a51a-6765e8678025","system_id":"levelo_inurba_marseille","lat":43.30302,"lon":5.392,"is_reserved":false,"is_disabled":true,"rental_uris":{"android":"levelo://app?vid=c94192a2-124d-4a00-a51a-6765e8678025","ios":"levelo://app?vid=c94192a2-124d-4a00-a51a-6765e8678025"},"vehicle_type_id":"4","last_reported":1749503390,"current_range_meters":4400,"station_id":"ce4bgkh2rcd13ifvqbk0","pricing_plan_id":"cebpf4jnsgd1na2vs0mg"},{"bike_id":"b90432b2-1010-41cd-9902-40d9c5adf178","system_id":"levelo_inurba_marseille","lat":43.28362,"lon":5.38622,"is_reserved":false,"is_disabled":false,"rental_uris":{"android":"levelo://app?vid=b90432b2-1010-41cd-9902-40d9c5adf178","ios":"levelo://app?vid=b90432b2-1010-41cd-9902-40d9c5adf178"},"vehicle_type_id":"4","last_reported":1749503390,"current_range_meters":4400,"station_id":"ce4bh492rcd13ifvqdvg","pricing_plan_id":"cebpf4jnsgd1na2vs0mg"},{"bike_id":"37b1c8d4-008b-4862-ac0b-3a59f613a518","system_id":"levelo_inurba_marseille","lat":43.32918,"lon":5.4112,"is_reserved":false,"is_disabled":false,"rental_uris":{"android":"levelo://app?vid=37b1c8d4-008b-4862-ac0b-3a59f613a518","ios":"levelo://app?vid=37b1c8d4-008b-4862-ac0b-3a59f613a518"},"vehicle_type_id":"4","last_reported":1749503390,"current_range_meters":4400,"station_id":"ce4bhqh2rcd13ifvqhmg","pricing_plan_id":"cebpf4jnsgd1na2vs0mg"},{"bike_id":"a61242dd-8369-4520-9963-a504224e1a30","system_id":"levelo_inurba_marseille","lat":43.23147,"lon":5.40808,"is_reserved":false,"is_disabled":false,"rental_uris":{"android":"levelo://app?vid=a61242dd-8369-4520-9963-a504224e1a30","ios":"levelo://app?vid=a61242dd-8369-4520-9963-a504224e1a30"},"vehicle_type_id":"4","last_reported":1749503390,"current_range_meters":5600,"station_id":"","pricing_plan_id":"cebpf4jnsgd1na2vs0mg"},{"bike_id":"f5fc0eb6-2a14-4d2d-84d7-c39e1815ec1f","system_id":"levelo_inurba_marseille","lat":43.30325,"lon":5.36888,"is_reserved":false,"is_disabled":false,"rental_uris":{"android":"levelo://app?vid=f5fc0eb6-2a14-4d2d-84d7-c39e1815ec1f","ios":"levelo://app?vid=f5fc0eb6-2a14-4d2d-84d7-c39e1815ec1f"},"vehicle_type_id":"4","last_reported":1749503390,"current_range_meters":4800,"station_id":"ce4bgqh2rcd13ifvqc5g","pricing_plan_id":"cebpf4jnsgd1na2vs0mg"},{"bike_id":"4b45cede-8623-4cc0-9e71-d0e70fa93826","system_id":"levelo_inurba_marseille","lat":43.28699,"lon":5.39985,"is_reserved":false,"is_disabled":false,"rental_uris":{"android":"levelo://app?vid=4b45cede-8623-4cc0-9e71-d0e70fa93826","ios":"levelo://app?vid=4b45cede-8623-4cc0-9e71-d0e70fa93826"},"vehicle_type_id":"4","last_reported":1749503390,"current_range_meters":4400,"station_id":"ce4bho92rcd13ifvqh3g","pricing_plan_id":"cebpf4jnsgd1na2vs0mg"},{"bike_id":"994fbbd1-7b7a-4973-8b72-780a5cbeda75","system_id":"levelo_inurba_marseille","lat":43.289742,"lon":5.378333,"is_reserved":false,"is_disabled":true,"rental_uris":{"android":"levelo://app?vid=994fbbd1-7b7a-4973-8b72-780a5cbeda75","ios":"levelo://app?vid=994fbbd1-7b7a-4973-8b72-780a5cbeda75"},"vehicle_type_id":"4","last_reported":1749503390,"current_range_meters":5600,"station_id":"ce4bh9p2rcd13ifvqed0","pricing_plan_id":"cebpf4jnsgd1na2vs0mg"},{"bike_id":"a6ff6641-f8f2-44c5-a286-a7cd27a5a6ac","system_id":"levelo_inurba_marseille","lat":43.25494,"lon":5.37648,"is_reserved":false,"is_disabled":false,"rental_uris":{"android":"levelo://app?vid=a6ff6641-f8f2-44c5-a286-a7cd27a5a6ac","ios":"levelo://app?vid=a6ff6641-f8f2-44c5-a286-a7cd27a5a6ac"},"vehicle_type_id":"4","last_reported":1749503390,"current_range_meters":4800,"station_id":"ce4bhh12rcd13ifvqff0","pricing_plan_id":"cebpf4jnsgd1na2vs0mg"},{"bike_id":"cc50ae35-a363-428e-81e2-c305bef74b35","system_id":"levelo_inurba_marseille","lat":43.29274,"lon":5.38436,"is_reserved":false,"is_disabled":false,"rental_uris":{"android":"levelo://app?vid=cc50ae35-a363-428e-81e2-c305bef74b35","ios":"levelo://app?vid=cc50ae35-a363-428e-81e2-c305bef74b35"},"vehicle_type_id":"4","last_reported":1749503390,"current_range_meters":5600,"station_id":"ce4bh692rcd13ifvqea0","pricing_plan_id":"cebpf4jnsgd1na2vs0mg"},{"bike_id":"1d044b14-2d9c-499e-b30d-42d810d1b8ff","system_id":"levelo_inurba_marseille","lat":43.2794,"lon":5.41043,"is_reserved":false,"is_disabled":false,"rental_uris":{"android":"levelo://app?vid=1d044b14-2d9c-499e-b30d-42d810d1b8ff","ios":"levelo://app?vid=1d044b14-2d9c-499e-b30d-42d810d1b8ff"},"vehicle_type_id":"4","last_reported":1749503390,"current_range_meters":6000,"station_id":"ce4bhnp2rcd13ifvqh0g","pricing_plan_id":"cebpf4jnsgd1na2vs0mg"},{"bike_id":"8c03ec80-dc19-4c9d-b151-e0210828c13a","system_id":"levelo_inurba_marseille","lat":43.29681,"lon":5.39407,"is_reserved":false,"is_disabled":false,"rental_uris":{"android":"levelo://app?vid=8c03ec80-dc19-4c9d-b151-e0210828c13a","ios":"levelo://app?vid=8c03ec80-dc19-4c9d-b151-e0210828c13a"},"vehicle_type_id":"4","last_reported":1749503390,"current_range_meters":6400,"station_id":"","pricing_plan_id":"cebpf4jnsgd1na2vs0mg"},{"bike_id":"46ad0958-a2d7-473e-8aeb-a02bfd147679","system_id":"levelo_inurba_marseille","lat":43.23962,"lon":5.36624,"is_reserved":false,"is_disabled":true,"rental_uris":{"android":"levelo://app?vid=46ad0958-a2d7-473e-8aeb-a02bfd147679","ios":"levelo://app?vid=46ad0958-a2d7-473e-8aeb-a02bfd147679"},"vehicle_type_id":"4","last_reported":1749503390,"current_range_meters":6400,"station_id":"ce4bhi12rcd13ifvqfp0","pricing_plan_id":"cebpf4jnsgd1na2vs0mg"},{"bike_id":"d93e8986-7db6-4d8f-976d-59520d4f5731","system_id":"levelo_inurba_marseille","lat":43.28704,"lon":5.39973,"is_reserved":false,"is_disabled":false,"rental_uris":{"android":"levelo://app?vid=d93e8986-7db6-4d8f-976d-59520d4f5731","ios":"levelo://app?vid=d93e8986-7db6-4d8f-976d-59520d4f5731"},"vehicle_type_id":"4","last_reported":1749503390,"current_range_meters":6800,"station_id":"ce4bho92rcd13ifvqh3g","pricing_plan_id":"cebpf4jnsgd1na2vs0mg"},{"bike_id":"c651c88a-1a0c-4936-8f70-9f4da7023582","system_id":"levelo_inurba_marseille","lat":43.265767,"lon":5.390094,"is_reserved":false,"is_disabled":false,"rental_uris":{"android":"levelo://app?vid=c651c88a-1a0c-4936-8f70-9f4da7023582","ios":"levelo://app?vid=c651c88a-1a0c-4936-8f70-9f4da7023582"},"vehicle_type_id":"4","last_reported":1749503390,"current_range_meters":6800,"station_id":"ce4bhe12rcd13ifvqf30","pricing_plan_id":"cebpf4jnsgd1na2vs0mg"},{"bike_id":"d3860c84-0e7a-473f-a04e-1ba052379ffe","system_id":"levelo_inurba_marseille","lat":43.29594,"lon":5.3935,"is_reserved":false,"is_disabled":false,"rental_uris":{"android":"levelo://app?vid=d3860c84-0e7a-473f-a04e-1ba052379ffe","ios":"levelo://app?vid=d3860c84-0e7a-473f-a04e-1ba052379ffe"},"vehicle_type_id":"4","last_reported":1749503390,"current_range_meters":7200,"station_id":"","pricing_plan_id":"cebpf4jnsgd1na2vs0mg"},{"bike_id":"42da0349-32d3-444e-9ddd-f0f7a1261ede","system_id":"levelo_inurba_marseille","lat":43.26687,"lon":5.3827,"is_reserved":false,"is_disabled":false,"rental_uris":{"android":"levelo://app?vid=42da0349-32d3-444e-9ddd-f0f7a1261ede","ios":"levelo://app?vid=42da0349-32d3-444e-9ddd-f0f7a1261ede"},"vehicle_type_id":"4","last_reported":1749503390,"current_range_meters":6800,"station_id":"ce4bhg92rcd13ifvqf90","pricing_plan_id":"cebpf4jnsgd1na2vs0mg"},{"bike_id":"a34aa760-19cf-4750-9133-b676aeeef362","system_id":"levelo_inurba_marseille","lat":43.29527,"lon":5.37486,"is_reserved":false,"is_disabled":true,"rental_uris":{"android":"levelo://app?vid=a34aa760-19cf-4750-9133-b676aeeef362","ios":"levelo://app?vid=a34aa760-19cf-4750-9133-b676aeeef362"},"vehicle_type_id":"4","last_reported":1749503390,"current_range_meters":7200,"station_id":"ce4bgkp2rcd13ifvqbmg","pricing_plan_id":"cebpf4jnsgd1na2vs0mg"},{"bike_id":"f28a508c-dec3-427b-8938-4ba37c7d69dd","system_id":"levelo_inurba_marseille","lat":43.2679,"lon":5.39416,"is_reserved":false,"is_disabled":false,"rental_uris":{"android":"levelo://app?vid=f28a508c-dec3-427b-8938-4ba37c7d69dd","ios":"levelo://app?vid=f28a508c-dec3-427b-8938-4ba37c7d69dd"},"vehicle_type_id":"4","last_reported":1749503390,"current_range_meters":7200,"station_id":"","pricing_plan_id":"cebpf4jnsgd1na2vs0mg"},{"bike_id":"781bcf50-52ca-4350-bf0f-8071b3b2b128","system_id":"levelo_inurba_marseille","lat":43.29904,"lon":5.43671,"is_reserved":false,"is_disabled":false,"rental_uris":{"android":"levelo://app?vid=781bcf50-52ca-4350-bf0f-8071b3b2b128","ios":"levelo://app?vid=781bcf50-52ca-4350-bf0f-8071b3b2b128"},"vehicle_type_id":"4","last_reported":1749503390,"current_range_meters":7200,"station_id":"ce4bhpp2rcd13ifvqhfg","pricing_plan_id":"cebpf4jnsgd1na2vs0mg"},{"bike_id":"5ff7c847-94f1-4642-94ea-e9dc6811d073","system_id":"levelo_inurba_marseille","lat":43.26011,"lon":5.37407,"is_reserved":false,"is_disabled":false,"rental_uris":{"android":"levelo://app?vid=5ff7c847-94f1-4642-94ea-e9dc6811d073","ios":"levelo://app?vid=5ff7c847-94f1-4642-94ea-e9dc6811d073"},"vehicle_type_id":"4","last_reported":1749503390,"current_range_meters":7200,"station_id":"","pricing_plan_id":"cebpf4jnsgd1na2vs0mg"},{"bike_id":"7118ec9f-96ec-46c3-90b6-1f449fa491fa","system_id":"levelo_inurba_marseille","lat":43.27915,"lon":5.39572,"is_reserved":false,"is_disabled":false,"rental_uris":{"android":"levelo://app?vid=7118ec9f-96ec-46c3-90b6-1f449fa491fa","ios":"levelo://app?vid=7118ec9f-96ec-46c3-90b6-1f449fa491fa"},"vehicle_type_id":"4","last_reported":1749503390,"current_range_meters":8000,"station_id":"ce4bhf92rcd13ifvqf40","pricing_plan_id":"cebpf4jnsgd1na2vs0mg"},{"bike_id":"66dd5145-5962-44c2-a797-75bf39d91cca","system_id":"levelo_inurba_marseille","lat":43.29269,"lon":5.4014,"is_reserved":false,"is_disabled":false,"rental_uris":{"android":"levelo://app?vid=66dd5145-5962-44c2-a797-75bf39d91cca","ios":"levelo://app?vid=66dd5145-5962-44c2-a797-75bf39d91cca"},"vehicle_type_id":"4","last_reported":1749503390,"current_range_meters":8000,"station_id":"ce4bh312rcd13ifvqdk0","pricing_plan_id":"cebpf4jnsgd1na2vs0mg"},{"bike_id":"11d99533-1239-4522-b0b5-f8a3bff696e7","system_id":"levelo_inurba_marseille","lat":43.301558,"lon":5.4243,"is_reserved":false,"is_disabled":false,"rental_uris":{"android":"levelo://app?vid=11d99533-1239-4522-b0b5-f8a3bff696e7","ios":"levelo://app?vid=11d99533-1239-4522-b0b5-f8a3bff696e7"},"vehicle_type_id":"4","last_reported":1749503390,"current_range_meters":8000,"station_id":"","pricing_plan_id":"cebpf4jnsgd1na2vs0mg"},{"bike_id":"d8c731fc-5e12-4b36-9e43-5deeecccf4e5","system_id":"levelo_inurba_marseille","lat":43.26497,"lon":5.39541,"is_reserved":false,"is_disabled":false,"rental_uris":{"android":"levelo://app?vid=d8c731fc-5e12-4b36-9e43-5deeecccf4e5","ios":"levelo://app?vid=d8c731fc-5e12-4b36-9e43-5deeecccf4e5"},"vehicle_type_id":"4","last_reported":1749503390,"current_range_meters":8000,"station_id":"ce4bhi12rcd13ifvqfq0","pricing_plan_id":"cebpf4jnsgd1na2vs0mg"},{"bike_id":"8b4caff4-6ee7-47a5-a64f-5ccaa83c132f","system_id":"levelo_inurba_marseille","lat":43.29514,"lon":5.42513,"is_reserved":false,"is_disabled":false,"rental_uris":{"android":"levelo://app?vid=8b4caff4-6ee7-47a5-a64f-5ccaa83c132f","ios":"levelo://app?vid=8b4caff4-6ee7-47a5-a64f-5ccaa83c132f"},"vehicle_type_id":"4","last_reported":1749503390,"current_range_meters":8000,"station_id":"","pricing_plan_id":"cebpf4jnsgd1na2vs0mg"},{"bike_id":"25cf780b-911f-4bf5-ad48-e953d792d94e","system_id":"levelo_inurba_marseille","lat":43.27965,"lon":5.38746,"is_reserved":false,"is_disabled":false,"rental_uris":{"android":"levelo://app?vid=25cf780b-911f-4bf5-ad48-e953d792d94e","ios":"levelo://app?vid=25cf780b-911f-4bf5-ad48-e953d792d94e"},"vehicle_type_id":"4","last_reported":1749503390,"current_range_meters":7200,"station_id":"ce4bhg12rcd13ifvqf80","pricing_plan_id":"cebpf4jnsgd1na2vs0mg"},{"bike_id":"54a063fa-aec6-4348-8a7c-0dcce94bee2e","system_id":"levelo_inurba_marseille","lat":43.29025,"lon":5.3813,"is_reserved":false,"is_disabled":false,"rental_uris":{"android":"levelo://app?vid=54a063fa-aec6-4348-8a7c-0dcce94bee2e","ios":"levelo://app?vid=54a063fa-aec6-4348-8a7c-0dcce94bee2e"},"vehicle_type_id":"4","last_reported":1749503390,"current_range_meters":8000,"station_id":"ce4bh4p2rcd13ifvqe1g","pricing_plan_id":"cebpf4jnsgd1na2vs0mg"},{"bike_id":"9cd7e3b6-3a6c-4599-87c4-09cad6e5304c","system_id":"levelo_inurba_marseille","lat":43.32367,"lon":5.38882,"is_reserved":false,"is_disabled":false,"rental_uris":{"android":"levelo://app?vid=9cd7e3b6-3a6c-4599-87c4-09cad6e5304c","ios":"levelo://app?vid=9cd7e3b6-3a6c-4599-87c4-09cad6e5304c"},"vehicle_type_id":"4","last_reported":1749503390,"current_range_meters":8000,"station_id":"ce4bhqp2rcd13ifvqhog","pricing_plan_id":"cebpf4jnsgd1na2vs0mg"},{"bike_id":"89e61be4-479c-4cec-a748-e4051ae578a2","system_id":"levelo_inurba_marseille","lat":43.32364,"lon":5.38878,"is_reserved":false,"is_disabled":false,"rental_uris":{"android":"levelo://app?vid=89e61be4-479c-4cec-a748-e4051ae578a2","ios":"levelo://app?vid=89e61be4-479c-4cec-a748-e4051ae578a2"},"vehicle_type_id":"4","last_reported":1749503390,"current_range_meters":8000,"station_id":"ce4bhqp2rcd13ifvqhog","pricing_plan_id":"cebpf4jnsgd1na2vs0mg"},{"bike_id":"3bb87db6-8022-418f-a4aa-7c455834f81e","system_id":"levelo_inurba_marseille","lat":43.23572,"lon":5.37892,"is_reserved":false,"is_disabled":true,"rental_uris":{"android":"levelo://app?vid=3bb87db6-8022-418f-a4aa-7c455834f81e","ios":"levelo://app?vid=3bb87db6-8022-418f-a4aa-7c455834f81e"},"vehicle_type_id":"4","last_reported":1749503390,"current_range_meters":8400,"station_id":"","pricing_plan_id":"cebpf4jnsgd1na2vs0mg"},{"bike_id":"5478c1b4-4c7d-476f-b8e4-102490ff70cd","system_id":"levelo_inurba_marseille","lat":43.31911,"lon":5.37337,"is_reserved":false,"is_disabled":false,"rental_uris":{"android":"levelo://app?vid=5478c1b4-4c7d-476f-b8e4-102490ff70cd","ios":"levelo://app?vid=5478c1b4-4c7d-476f-b8e4-102490ff70cd"},"vehicle_type_id":"4","last_reported":1749503390,"current_range_meters":8400,"station_id":"","pricing_plan_id":"cebpf4jnsgd1na2vs0mg"},{"bike_id":"9ab5dcb2-22af-49e2-b2c1-32117ad578dc","system_id":"levelo_inurba_marseille","lat":43.29511,"lon":5.42564,"is_reserved":false,"is_disabled":false,"rental_uris":{"android":"levelo://app?vid=9ab5dcb2-22af-49e2-b2c1-32117ad578dc","ios":"levelo://app?vid=9ab5dcb2-22af-49e2-b2c1-32117ad578dc"},"vehicle_type_id":"4","last_reported":1749503390,"current_range_meters":8400,"station_id":"","pricing_plan_id":"cebpf4jnsgd1na2vs0mg"},{"bike_id":"dbc48496-8147-4795-b3c8-9b776eec9630","system_id":"levelo_inurba_marseille","lat":43.25728,"lon":5.4111,"is_reserved":false,"is_disabled":false,"rental_uris":{"android":"levelo://app?vid=dbc48496-8147-4795-b3c8-9b776eec9630","ios":"levelo://app?vid=dbc48496-8147-4795-b3c8-9b776eec9630"},"vehicle_type_id":"4","last_reported":1749503390,"current_range_meters":8400,"station_id":"ce4bhkp2rcd13ifvqgd0","pricing_plan_id":"cebpf4jnsgd1na2vs0mg"},{"bike_id":"dd67f108-95bf-4a1e-b619-4bb77e009c5b","system_id":"levelo_inurba_marseille","lat":43.29036,"lon":5.42766,"is_reserved":false,"is_disabled":false,"rental_uris":{"android":"levelo://app?vid=dd67f108-95bf-4a1e-b619-4bb77e009c5b","ios":"levelo://app?vid=dd67f108-95bf-4a1e-b619-4bb77e009c5b"},"vehicle_type_id":"4","last_reported":1749503390,"current_range_meters":8400,"station_id":"","pricing_plan_id":"cebpf4jnsgd1na2vs0mg"},{"bike_id":"5cab8021-47c8-4131-a2c2-7572304f54a4","system_id":"levelo_inurba_marseille","lat":43.28286,"lon":5.3508,"is_reserved":false,"is_disabled":true,"rental_uris":{"android":"levelo://app?vid=5cab8021-47c8-4131-a2c2-7572304f54a4","ios":"levelo://app?vid=5cab8021-47c8-4131-a2c2-7572304f54a4"},"vehicle_type_id":"4","last_reported":1749503390,"current_range_meters":8400,"station_id":"ce4bhbp2rcd13ifvqerg","pricing_plan_id":"cebpf4jnsgd1na2vs0mg"},{"bike_id":"da424ee0-913f-44dd-8451-24217ed66a3a","system_id":"levelo_inurba_marseille","lat":43.29353,"lon":5.38735,"is_reserved":false,"is_disabled":false,"rental_uris":{"android":"levelo://app?vid=da424ee0-913f-44dd-8451-24217ed66a3a","ios":"levelo://app?vid=da424ee0-913f-44dd-8451-24217ed66a3a"},"vehicle_type_id":"4","last_reported":1749503390,"current_range_meters":8400,"station_id":"","pricing_plan_id":"cebpf4jnsgd1na2vs0mg"},{"bike_id":"269c3ad1-219f-4f66-afed-c62bc34ad4b1","system_id":"levelo_inurba_marseille","lat":43.29436,"lon":5.39747,"is_reserved":false,"is_disabled":false,"rental_uris":{"android":"levelo://app?vid=269c3ad1-219f-4f66-afed-c62bc34ad4b1","ios":"levelo://app?vid=269c3ad1-219f-4f66-afed-c62bc34ad4b1"},"vehicle_type_id":"4","last_reported":1749503390,"current_range_meters":8400,"station_id":"ce4bh3h2rcd13ifvqdo0","pricing_plan_id":"cebpf4jnsgd1na2vs0mg"},{"bike_id":"b627a4bc-ec3d-4a3d-b098-2cb9e5bfa8f1","system_id":"levelo_inurba_marseille","lat":43.28969,"lon":5.479053,"is_reserved":false,"is_disabled":false,"rental_uris":{"android":"levelo://app?vid=b627a4bc-ec3d-4a3d-b098-2cb9e5bfa8f1","ios":"levelo://app?vid=b627a4bc-ec3d-4a3d-b098-2cb9e5bfa8f1"},"vehicle_type_id":"4","last_reported":1749503390,"current_range_meters":8400,"station_id":"","pricing_plan_id":"cebpf4jnsgd1na2vs0mg"},{"bike_id":"ee7a2e6a-3e65-41f6-b8b3-501fb42682dc","system_id":"levelo_inurba_marseille","lat":43.27566,"lon":5.384073,"is_reserved":false,"is_disabled":true,"rental_uris":{"android":"levelo://app?vid=ee7a2e6a-3e65-41f6-b8b3-501fb42682dc","ios":"levelo://app?vid=ee7a2e6a-3e65-41f6-b8b3-501fb42682dc"},"vehicle_type_id":"4","last_reported":1749503390,"current_range_meters":8400,"station_id":"ce4bhh92rcd13ifvqfi0","pricing_plan_id":"cebpf4jnsgd1na2vs0mg"},{"bike_id":"39cdf7ed-89dc-4de2-aafe-6c9905ce3698","system_id":"levelo_inurba_marseille","lat":43.29793,"lon":5.36768,"is_reserved":false,"is_disabled":false,"rental_uris":{"android":"levelo://app?vid=39cdf7ed-89dc-4de2-aafe-6c9905ce3698","ios":"levelo://app?vid=39cdf7ed-89dc-4de2-aafe-6c9905ce3698"},"vehicle_type_id":"4","last_reported":1749503390,"current_range_meters":8800,"station_id":"","pricing_plan_id":"cebpf4jnsgd1na2vs0mg"},{"bike_id":"2b74abfb-1262-40a3-bda3-f22e67504377","system_id":"levelo_inurba_marseille","lat":43.30438,"lon":5.36871,"is_reserved":false,"is_disabled":false,"rental_uris":{"android":"levelo://app?vid=2b74abfb-1262-40a3-bda3-f22e67504377","ios":"levelo://app?vid=2b74abfb-1262-40a3-bda3-f22e67504377"},"vehicle_type_id":"4","last_reported":1749503390,"current_range_meters":8800,"station_id":"","pricing_plan_id":"cebpf4jnsgd1na2vs0mg"},{"bike_id":"b1b282ef-4c6f-484d-97a4-95662618e99b","system_id":"levelo_inurba_marseille","lat":43.30933,"lon":5.40151,"is_reserved":false,"is_disabled":false,"rental_uris":{"android":"levelo://app?vid=b1b282ef-4c6f-484d-97a4-95662618e99b","ios":"levelo://app?vid=b1b282ef-4c6f-484d-97a4-95662618e99b"},"vehicle_type_id":"4","last_reported":1749503390,"current_range_meters":8800,"station_id":"ce4bgvp2rcd13ifvqct0","pricing_plan_id":"cebpf4jnsgd1na2vs0mg"},{"bike_id":"7101e620-cc76-4028-b91a-a52aa997ec1d","system_id":"levelo_inurba_marseille","lat":43.30642,"lon":5.37342,"is_reserved":false,"is_disabled":false,"rental_uris":{"android":"levelo://app?vid=7101e620-cc76-4028-b91a-a52aa997ec1d","ios":"levelo://app?vid=7101e620-cc76-4028-b91a-a52aa997ec1d"},"vehicle_type_id":"4","last_reported":1749503390,"current_range_meters":8800,"station_id":"","pricing_plan_id":"cebpf4jnsgd1na2vs0mg"},{"bike_id":"91f74b88-688e-4ffd-bc12-8cba4b4fcaf6","system_id":"levelo_inurba_marseille","lat":43.29631,"lon":5.40596,"is_reserved":false,"is_disabled":false,"rental_uris":{"android":"levelo://app?vid=91f74b88-688e-4ffd-bc12-8cba4b4fcaf6","ios":"levelo://app?vid=91f74b88-688e-4ffd-bc12-8cba4b4fcaf6"},"vehicle_type_id":"4","last_reported":1749503390,"current_range_meters":9200,"station_id":"ce4bh0h2rcd13ifvqd60","pricing_plan_id":"cebpf4jnsgd1na2vs0mg"},{"bike_id":"2e5b7a2e-ae80-4b63-807c-0d74d0713d36","system_id":"levelo_inurba_marseille","lat":43.28414,"lon":5.34976,"is_reserved":false,"is_disabled":true,"rental_uris":{"android":"levelo://app?vid=2e5b7a2e-ae80-4b63-807c-0d74d0713d36","ios":"levelo://app?vid=2e5b7a2e-ae80-4b63-807c-0d74d0713d36"},"vehicle_type_id":"4","last_reported":1749503390,"current_range_meters":9200,"station_id":"ce4bhbh2rcd13ifvqepg","pricing_plan_id":"cebpf4jnsgd1na2vs0mg"},{"bike_id":"523f2d40-4972-4555-ab17-75f321104893","system_id":"levelo_inurba_marseille","lat":43.30223,"lon":5.3947,"is_reserved":false,"is_disabled":false,"rental_uris":{"android":"levelo://app?vid=523f2d40-4972-4555-ab17-75f321104893","ios":"levelo://app?vid=523f2d40-4972-4555-ab17-75f321104893"},"vehicle_type_id":"4","last_reported":1749503390,"current_range_meters":9200,"station_id":"ce4bh0p2rcd13ifvqd70","pricing_plan_id":"cebpf4jnsgd1na2vs0mg"},{"bike_id":"7a286b17-17df-491a-a381-1330c2f7a715","system_id":"levelo_inurba_marseille","lat":43.29893,"lon":5.4366,"is_reserved":false,"is_disabled":false,"rental_uris":{"android":"levelo://app?vid=7a286b17-17df-491a-a381-1330c2f7a715","ios":"levelo://app?vid=7a286b17-17df-491a-a381-1330c2f7a715"},"vehicle_type_id":"4","last_reported":1749503390,"current_range_meters":9600,"station_id":"ce4bhpp2rcd13ifvqhfg","pricing_plan_id":"cebpf4jnsgd1na2vs0mg"},{"bike_id":"6ec3047c-5030-4518-b445-38ca3527de8a","system_id":"levelo_inurba_marseille","lat":43.31372,"lon":5.38506,"is_reserved":false,"is_disabled":false,"rental_uris":{"android":"levelo://app?vid=6ec3047c-5030-4518-b445-38ca3527de8a","ios":"levelo://app?vid=6ec3047c-5030-4518-b445-38ca3527de8a"},"vehicle_type_id":"4","last_reported":1749503390,"current_range_meters":9200,"station_id":"ce4bgt92rcd13ifvqcf0","pricing_plan_id":"cebpf4jnsgd1na2vs0mg"},{"bike_id":"cd08ae66-4929-41a2-afbb-d2a85ed6b592","system_id":"levelo_inurba_marseille","lat":43.25108,"lon":5.4032,"is_reserved":false,"is_disabled":false,"rental_uris":{"android":"levelo://app?vid=cd08ae66-4929-41a2-afbb-d2a85ed6b592","ios":"levelo://app?vid=cd08ae66-4929-41a2-afbb-d2a85ed6b592"},"vehicle_type_id":"4","last_reported":1749503390,"current_range_meters":9200,"station_id":"ce4bhlh2rcd13ifvqgig","pricing_plan_id":"cebpf4jnsgd1na2vs0mg"},{"bike_id":"1e81a32b-a654-4850-aaa5-a9d684742657","system_id":"levelo_inurba_marseille","lat":43.31626,"lon":5.38368,"is_reserved":false,"is_disabled":false,"rental_uris":{"android":"levelo://app?vid=1e81a32b-a654-4850-aaa5-a9d684742657","ios":"levelo://app?vid=1e81a32b-a654-4850-aaa5-a9d684742657"},"vehicle_type_id":"4","last_reported":1749503390,"current_range_meters":9600,"station_id":"","pricing_plan_id":"cebpf4jnsgd1na2vs0mg"},{"bike_id":"8b87982d-d0dc-4ea8-8277-aae61e42e311","system_id":"levelo_inurba_marseille","lat":43.2717,"lon":5.40989,"is_reserved":false,"is_disabled":false,"rental_uris":{"android":"levelo://app?vid=8b87982d-d0dc-4ea8-8277-aae61e42e311","ios":"levelo://app?vid=8b87982d-d0dc-4ea8-8277-aae61e42e311"},"vehicle_type_id":"4","last_reported":1749503390,"current_range_meters":9200,"station_id":"ce4bhl12rcd13ifvqgf0","pricing_plan_id":"cebpf4jnsgd1na2vs0mg"},{"bike_id":"8754d789-f47b-4e0d-80fb-defb7f889879","system_id":"levelo_inurba_marseille","lat":43.26224,"lon":5.40449,"is_reserved":false,"is_disabled":false,"rental_uris":{"android":"levelo://app?vid=8754d789-f47b-4e0d-80fb-defb7f889879","ios":"levelo://app?vid=8754d789-f47b-4e0d-80fb-defb7f889879"},"vehicle_type_id":"4","last_reported":1749503390,"current_range_meters":9600,"station_id":"ce4bhmh2rcd13ifvqgmg","pricing_plan_id":"cebpf4jnsgd1na2vs0mg"},{"bike_id":"da14da1f-7442-42b5-98f6-365f4fbd4c56","system_id":"levelo_inurba_marseille","lat":43.32833,"lon":5.39849,"is_reserved":false,"is_disabled":false,"rental_uris":{"android":"levelo://app?vid=da14da1f-7442-42b5-98f6-365f4fbd4c56","ios":"levelo://app?vid=da14da1f-7442-42b5-98f6-365f4fbd4c56"},"vehicle_type_id":"4","last_reported":1749503390,"current_range_meters":9600,"station_id":"","pricing_plan_id":"cebpf4jnsgd1na2vs0mg"},{"bike_id":"a8fcb642-c8d4-48b7-bc7d-d92da8830f3d","system_id":"levelo_inurba_marseille","lat":43.29974,"lon":5.3717,"is_reserved":false,"is_disabled":true,"rental_uris":{"android":"levelo://app?vid=a8fcb642-c8d4-48b7-bc7d-d92da8830f3d","ios":"levelo://app?vid=a8fcb642-c8d4-48b7-bc7d-d92da8830f3d"},"vehicle_type_id":"4","last_reported":1749503390,"current_range_meters":10000,"station_id":"ce4bgr92rcd13ifvqc7g","pricing_plan_id":"cebpf4jnsgd1na2vs0mg"},{"bike_id":"40bdb297-a460-431c-bc86-70ed669a68a4","system_id":"levelo_inurba_marseille","lat":43.28699,"lon":5.37376,"is_reserved":false,"is_disabled":false,"rental_uris":{"android":"levelo://app?vid=40bdb297-a460-431c-bc86-70ed669a68a4","ios":"levelo://app?vid=40bdb297-a460-431c-bc86-70ed669a68a4"},"vehicle_type_id":"4","last_reported":1749503390,"current_range_meters":10000,"station_id":"ce4bh3p2rcd13ifvqdq0","pricing_plan_id":"cebpf4jnsgd1na2vs0mg"},{"bike_id":"deb41731-8e4e-4ed3-908e-3a3d100ba266","system_id":"levelo_inurba_marseille","lat":43.30439,"lon":5.38884,"is_reserved":false,"is_disabled":false,"rental_uris":{"android":"levelo://app?vid=deb41731-8e4e-4ed3-908e-3a3d100ba266","ios":"levelo://app?vid=deb41731-8e4e-4ed3-908e-3a3d100ba266"},"vehicle_type_id":"4","last_reported":1749503390,"current_range_meters":9600,"station_id":"ce4bgk12rcd13ifvqbi0","pricing_plan_id":"cebpf4jnsgd1na2vs0mg"},{"bike_id":"35055393-59aa-400c-82f3-1df464532a80","system_id":"levelo_inurba_marseille","lat":43.31366,"lon":5.38494,"is_reserved":false,"is_disabled":false,"rental_uris":{"android":"levelo://app?vid=35055393-59aa-400c-82f3-1df464532a80","ios":"levelo://app?vid=35055393-59aa-400c-82f3-1df464532a80"},"vehicle_type_id":"4","last_reported":1749503390,"current_range_meters":10000,"station_id":"ce4bgt92rcd13ifvqcf0","pricing_plan_id":"cebpf4jnsgd1na2vs0mg"},{"bike_id":"867f85f2-fb13-4d0d-8fa5-6ff6ac22e7a3","system_id":"levelo_inurba_marseille","lat":43.28941,"lon":5.36644,"is_reserved":false,"is_disabled":false,"rental_uris":{"android":"levelo://app?vid=867f85f2-fb13-4d0d-8fa5-6ff6ac22e7a3","ios":"levelo://app?vid=867f85f2-fb13-4d0d-8fa5-6ff6ac22e7a3"},"vehicle_type_id":"4","last_reported":1749503390,"current_range_meters":10000,"station_id":"ce4bhap2rcd13ifvqek0","pricing_plan_id":"cebpf4jnsgd1na2vs0mg"},{"bike_id":"33a8761f-b7c8-4e6e-aac0-abaf9fa750d7","system_id":"levelo_inurba_marseille","lat":43.28865,"lon":5.35849,"is_reserved":false,"is_disabled":false,"rental_uris":{"android":"levelo://app?vid=33a8761f-b7c8-4e6e-aac0-abaf9fa750d7","ios":"levelo://app?vid=33a8761f-b7c8-4e6e-aac0-abaf9fa750d7"},"vehicle_type_id":"4","last_reported":1749503390,"current_range_meters":10000,"station_id":"ce4bhb12rcd13ifvqem0","pricing_plan_id":"cebpf4jnsgd1na2vs0mg"},{"bike_id":"2af4af64-0065-45b8-93fc-e286f53a888e","system_id":"levelo_inurba_marseille","lat":43.23378,"lon":5.36506,"is_reserved":false,"is_disabled":false,"rental_uris":{"android":"levelo://app?vid=2af4af64-0065-45b8-93fc-e286f53a888e","ios":"levelo://app?vid=2af4af64-0065-45b8-93fc-e286f53a888e"},"vehicle_type_id":"4","last_reported":1749503390,"current_range_meters":10000,"station_id":"","pricing_plan_id":"cebpf4jnsgd1na2vs0mg"},{"bike_id":"62bea32f-b147-4070-b162-523f879a2a9c","system_id":"levelo_inurba_marseille","lat":43.25319,"lon":5.39356,"is_reserved":false,"is_disabled":true,"rental_uris":{"android":"levelo://app?vid=62bea32f-b147-4070-b162-523f879a2a9c","ios":"levelo://app?vid=62bea32f-b147-4070-b162-523f879a2a9c"},"vehicle_type_id":"4","last_reported":1749503390,"current_range_meters":10000,"station_id":"","pricing_plan_id":"cebpf4jnsgd1na2vs0mg"},{"bike_id":"ec70517b-d6d2-4063-91ba-d395b8e7320f","system_id":"levelo_inurba_marseille","lat":43.322736,"lon":5.406603,"is_reserved":false,"is_disabled":false,"rental_uris":{"android":"levelo://app?vid=ec70517b-d6d2-4063-91ba-d395b8e7320f","ios":"levelo://app?vid=ec70517b-d6d2-4063-91ba-d395b8e7320f"},"vehicle_type_id":"4","last_reported":1749503390,"current_range_meters":10800,"station_id":"","pricing_plan_id":"cebpf4jnsgd1na2vs0mg"},{"bike_id":"898adc08-6852-494f-92e0-a15241901b70","system_id":"levelo_inurba_marseille","lat":43.262039,"lon":5.375604,"is_reserved":false,"is_disabled":false,"rental_uris":{"android":"levelo://app?vid=898adc08-6852-494f-92e0-a15241901b70","ios":"levelo://app?vid=898adc08-6852-494f-92e0-a15241901b70"},"vehicle_type_id":"4","last_reported":1749503390,"current_range_meters":10800,"station_id":"","pricing_plan_id":"cebpf4jnsgd1na2vs0mg"},{"bike_id":"fbb9b34c-7031-4d75-9691-342c610b2101","system_id":"levelo_inurba_marseille","lat":43.2835,"lon":5.36498,"is_reserved":false,"is_disabled":false,"rental_uris":{"android":"levelo://app?vid=fbb9b34c-7031-4d75-9691-342c610b2101","ios":"levelo://app?vid=fbb9b34c-7031-4d75-9691-342c610b2101"},"vehicle_type_id":"4","last_reported":1749503390,"current_range_meters":10800,"station_id":"","pricing_plan_id":"cebpf4jnsgd1na2vs0mg"},{"bike_id":"0a127e16-3cb1-419e-8447-76510bd0b1ca","system_id":"levelo_inurba_marseille","lat":43.26058,"lon":5.39393,"is_reserved":false,"is_disabled":false,"rental_uris":{"android":"levelo://app?vid=0a127e16-3cb1-419e-8447-76510bd0b1ca","ios":"levelo://app?vid=0a127e16-3cb1-419e-8447-76510bd0b1ca"},"vehicle_type_id":"4","last_reported":1749503390,"current_range_meters":10800,"station_id":"ce4bhh92rcd13ifvqfj0","pricing_plan_id":"cebpf4jnsgd1na2vs0mg"},{"bike_id":"2f32b755-3ca4-4102-8e33-37fff5e1ff8d","system_id":"levelo_inurba_marseille","lat":43.27114,"lon":5.40112,"is_reserved":false,"is_disabled":false,"rental_uris":{"android":"levelo://app?vid=2f32b755-3ca4-4102-8e33-37fff5e1ff8d","ios":"levelo://app?vid=2f32b755-3ca4-4102-8e33-37fff5e1ff8d"},"vehicle_type_id":"4","last_reported":1749503390,"current_range_meters":10800,"station_id":"","pricing_plan_id":"cebpf4jnsgd1na2vs0mg"},{"bike_id":"5aee6e98-5d72-4a58-8068-559ee9f9703d","system_id":"levelo_inurba_marseille","lat":43.211901,"lon":5.350694,"is_reserved":false,"is_disabled":false,"rental_uris":{"android":"levelo://app?vid=5aee6e98-5d72-4a58-8068-559ee9f9703d","ios":"levelo://app?vid=5aee6e98-5d72-4a58-8068-559ee9f9703d"},"vehicle_type_id":"4","last_reported":1749503390,"current_range_meters":10800,"station_id":"st_cvj6sg6p6f1abm77japg","pricing_plan_id":"cebpf4jnsgd1na2vs0mg"},{"bike_id":"67923187-7988-4e66-b98a-4629c4fb3285","system_id":"levelo_inurba_marseille","lat":43.28935,"lon":5.3663,"is_reserved":false,"is_disabled":false,"rental_uris":{"android":"levelo://app?vid=67923187-7988-4e66-b98a-4629c4fb3285","ios":"levelo://app?vid=67923187-7988-4e66-b98a-4629c4fb3285"},"vehicle_type_id":"4","last_reported":1749503390,"current_range_meters":10800,"station_id":"ce4bhap2rcd13ifvqek0","pricing_plan_id":"cebpf4jnsgd1na2vs0mg"},{"bike_id":"36c4c3b4-e3f5-4188-acbc-a0ca1b108ee0","system_id":"levelo_inurba_marseille","lat":43.32285,"lon":5.38262,"is_reserved":false,"is_disabled":false,"rental_uris":{"android":"levelo://app?vid=36c4c3b4-e3f5-4188-acbc-a0ca1b108ee0","ios":"levelo://app?vid=36c4c3b4-e3f5-4188-acbc-a0ca1b108ee0"},"vehicle_type_id":"4","last_reported":1749503390,"current_range_meters":10800,"station_id":"ce4bhr12rcd13ifvqhqg","pricing_plan_id":"cebpf4jnsgd1na2vs0mg"},{"bike_id":"6de719d4-c4b4-4a1d-b741-b988ca73c825","system_id":"levelo_inurba_marseille","lat":43.27948,"lon":5.41033,"is_reserved":false,"is_disabled":false,"rental_uris":{"android":"levelo://app?vid=6de719d4-c4b4-4a1d-b741-b988ca73c825","ios":"levelo://app?vid=6de719d4-c4b4-4a1d-b741-b988ca73c825"},"vehicle_type_id":"4","last_reported":1749503390,"current_range_meters":10800,"station_id":"ce4bhnp2rcd13ifvqh0g","pricing_plan_id":"cebpf4jnsgd1na2vs0mg"},{"bike_id":"c09b1c1e-6d5b-4a72-8f97-eccd430a9e54","system_id":"levelo_inurba_marseille","lat":43.26677,"lon":5.38264,"is_reserved":false,"is_disabled":true,"rental_uris":{"android":"levelo://app?vid=c09b1c1e-6d5b-4a72-8f97-eccd430a9e54","ios":"levelo://app?vid=c09b1c1e-6d5b-4a72-8f97-eccd430a9e54"},"vehicle_type_id":"4","last_reported":1749503390,"current_range_meters":10800,"station_id":"ce4bhgp2rcd13ifvqfc0","pricing_plan_id":"cebpf4jnsgd1na2vs0mg"},{"bike_id":"0d5e3acd-2ba7-492b-aa82-e5ed5a802459","system_id":"levelo_inurba_marseille","lat":43.29018,"lon":5.38629,"is_reserved":false,"is_disabled":false,"rental_uris":{"android":"levelo://app?vid=0d5e3acd-2ba7-492b-aa82-e5ed5a802459","ios":"levelo://app?vid=0d5e3acd-2ba7-492b-aa82-e5ed5a802459"},"vehicle_type_id":"4","last_reported":1749503390,"current_range_meters":11200,"station_id":"ce4bh4p2rcd13ifvqe0g","pricing_plan_id":"cebpf4jnsgd1na2vs0mg"},{"bike_id":"ccb5bf22-ad94-4d1f-ae27-4053400a5df2","system_id":"levelo_inurba_marseille","lat":43.25108,"lon":5.4033,"is_reserved":false,"is_disabled":false,"rental_uris":{"android":"levelo://app?vid=ccb5bf22-ad94-4d1f-ae27-4053400a5df2","ios":"levelo://app?vid=ccb5bf22-ad94-4d1f-ae27-4053400a5df2"},"vehicle_type_id":"4","last_reported":1749503390,"current_range_meters":11200,"station_id":"ce4bhlh2rcd13ifvqgig","pricing_plan_id":"cebpf4jnsgd1na2vs0mg"},{"bike_id":"462a4fe4-7c2b-425e-bf3f-83ef7b1ba959","system_id":"levelo_inurba_marseille","lat":43.28403,"lon":5.3752,"is_reserved":false,"is_disabled":false,"rental_uris":{"android":"levelo://app?vid=462a4fe4-7c2b-425e-bf3f-83ef7b1ba959","ios":"levelo://app?vid=462a4fe4-7c2b-425e-bf3f-83ef7b1ba959"},"vehicle_type_id":"4","last_reported":1749503390,"current_range_meters":11200,"station_id":"ce4bh412rcd13ifvqds0","pricing_plan_id":"cebpf4jnsgd1na2vs0mg"},{"bike_id":"2649ef45-0b6a-4349-a65a-a2f74f74f74f","system_id":"levelo_inurba_marseille","lat":43.26485,"lon":5.39235,"is_reserved":false,"is_disabled":false,"rental_uris":{"android":"levelo://app?vid=2649ef45-0b6a-4349-a65a-a2f74f74f74f","ios":"levelo://app?vid=2649ef45-0b6a-4349-a65a-a2f74f74f74f"},"vehicle_type_id":"4","last_reported":1749503390,"current_range_meters":11200,"station_id":"","pricing_plan_id":"cebpf4jnsgd1na2vs0mg"},{"bike_id":"4b29d212-5894-4ede-9882-d3bb36086cc8","system_id":"levelo_inurba_marseille","lat":43.25862,"lon":5.39894,"is_reserved":false,"is_disabled":false,"rental_uris":{"android":"levelo://app?vid=4b29d212-5894-4ede-9882-d3bb36086cc8","ios":"levelo://app?vid=4b29d212-5894-4ede-9882-d3bb36086cc8"},"vehicle_type_id":"4","last_reported":1749503390,"current_range_meters":11200,"station_id":"ce4bhl92rcd13ifvqghg","pricing_plan_id":"cebpf4jnsgd1na2vs0mg"},{"bike_id":"1f6744d9-353c-4f3b-a838-d714b51c6683","system_id":"levelo_inurba_marseille","lat":43.28155,"lon":5.42641,"is_reserved":false,"is_disabled":false,"rental_uris":{"android":"levelo://app?vid=1f6744d9-353c-4f3b-a838-d714b51c6683","ios":"levelo://app?vid=1f6744d9-353c-4f3b-a838-d714b51c6683"},"vehicle_type_id":"4","last_reported":1749503390,"current_range_meters":11200,"station_id":"ce4bhnh2rcd13ifvqgug","pricing_plan_id":"cebpf4jnsgd1na2vs0mg"},{"bike_id":"c8c4af1d-070c-484a-a3f7-babd17d99646","system_id":"levelo_inurba_marseille","lat":43.33685,"lon":5.39196,"is_reserved":false,"is_disabled":false,"rental_uris":{"android":"levelo://app?vid=c8c4af1d-070c-484a-a3f7-babd17d99646","ios":"levelo://app?vid=c8c4af1d-070c-484a-a3f7-babd17d99646"},"vehicle_type_id":"4","last_reported":1749503390,"current_range_meters":11200,"station_id":"ce4bhr92rcd13ifvqhsg","pricing_plan_id":"cebpf4jnsgd1na2vs0mg"},{"bike_id":"b1a6b98a-85ac-4360-a113-3c6d56d46170","system_id":"levelo_inurba_marseille","lat":43.29556,"lon":5.42294,"is_reserved":false,"is_disabled":false,"rental_uris":{"android":"levelo://app?vid=b1a6b98a-85ac-4360-a113-3c6d56d46170","ios":"levelo://app?vid=b1a6b98a-85ac-4360-a113-3c6d56d46170"},"vehicle_type_id":"4","last_reported":1749503390,"current_range_meters":11600,"station_id":"ce4bhph2rcd13ifvqhdg","pricing_plan_id":"cebpf4jnsgd1na2vs0mg"},{"bike_id":"2b45bb05-2ae8-4fb4-8990-706c08c7ea41","system_id":"levelo_inurba_marseille","lat":43.26214,"lon":5.37445,"is_reserved":false,"is_disabled":false,"rental_uris":{"android":"levelo://app?vid=2b45bb05-2ae8-4fb4-8990-706c08c7ea41","ios":"levelo://app?vid=2b45bb05-2ae8-4fb4-8990-706c08c7ea41"},"vehicle_type_id":"4","last_reported":1749503390,"current_range_meters":11600,"station_id":"ce4bhgp2rcd13ifvqfc0","pricing_plan_id":"cebpf4jnsgd1na2vs0mg"},{"bike_id":"dedeea7e-9ff1-41e2-a1ca-3ecca467e74d","system_id":"levelo_inurba_marseille","lat":43.26502,"lon":5.39532,"is_reserved":false,"is_disabled":false,"rental_uris":{"android":"levelo://app?vid=dedeea7e-9ff1-41e2-a1ca-3ecca467e74d","ios":"levelo://app?vid=dedeea7e-9ff1-41e2-a1ca-3ecca467e74d"},"vehicle_type_id":"4","last_reported":1749503390,"current_range_meters":11600,"station_id":"ce4bhi12rcd13ifvqfq0","pricing_plan_id":"cebpf4jnsgd1na2vs0mg"},{"bike_id":"f1113836-6d85-4ef6-8638-070663b0f2df","system_id":"levelo_inurba_marseille","lat":43.32663,"lon":5.40982,"is_reserved":false,"is_disabled":false,"rental_uris":{"android":"levelo://app?vid=f1113836-6d85-4ef6-8638-070663b0f2df","ios":"levelo://app?vid=f1113836-6d85-4ef6-8638-070663b0f2df"},"vehicle_type_id":"4","last_reported":1749503390,"current_range_meters":11200,"station_id":"ce4bhpp2rcd13ifvqhgg","pricing_plan_id":"cebpf4jnsgd1na2vs0mg"},{"bike_id":"8f0c6b5d-ac9c-41e4-ba7f-7d5d11791c0c","system_id":"levelo_inurba_marseille","lat":43.29863,"lon":5.38908,"is_reserved":false,"is_disabled":false,"rental_uris":{"android":"levelo://app?vid=8f0c6b5d-ac9c-41e4-ba7f-7d5d11791c0c","ios":"levelo://app?vid=8f0c6b5d-ac9c-41e4-ba7f-7d5d11791c0c"},"vehicle_type_id":"4","last_reported":1749503390,"current_range_meters":11600,"station_id":"ce4bh392rcd13ifvqdl0","pricing_plan_id":"cebpf4jnsgd1na2vs0mg"},{"bike_id":"9c321b1f-5d95-44be-92f0-5a6d215c91ff","system_id":"levelo_inurba_marseille","lat":43.31078,"lon":5.38347,"is_reserved":false,"is_disabled":false,"rental_uris":{"android":"levelo://app?vid=9c321b1f-5d95-44be-92f0-5a6d215c91ff","ios":"levelo://app?vid=9c321b1f-5d95-44be-92f0-5a6d215c91ff"},"vehicle_type_id":"4","last_reported":1749503390,"current_range_meters":11600,"station_id":"ce4bgv92rcd13ifvqcr0","pricing_plan_id":"cebpf4jnsgd1na2vs0mg"},{"bike_id":"92218517-9fd0-4e10-9292-ad447af18a93","system_id":"levelo_inurba_marseille","lat":43.28263,"lon":5.35056,"is_reserved":false,"is_disabled":false,"rental_uris":{"android":"levelo://app?vid=92218517-9fd0-4e10-9292-ad447af18a93","ios":"levelo://app?vid=92218517-9fd0-4e10-9292-ad447af18a93"},"vehicle_type_id":"4","last_reported":1749503390,"current_range_meters":12000,"station_id":"ce4bhbp2rcd13ifvqerg","pricing_plan_id":"cebpf4jnsgd1na2vs0mg"},{"bike_id":"024943c5-334c-4e30-9fa1-4e01ad9ec84d","system_id":"levelo_inurba_marseille","lat":43.25824,"lon":5.3942,"is_reserved":false,"is_disabled":true,"rental_uris":{"android":"levelo://app?vid=024943c5-334c-4e30-9fa1-4e01ad9ec84d","ios":"levelo://app?vid=024943c5-334c-4e30-9fa1-4e01ad9ec84d"},"vehicle_type_id":"4","last_reported":1749503390,"current_range_meters":12000,"station_id":"ce4bhip2rcd13ifvqft0","pricing_plan_id":"cebpf4jnsgd1na2vs0mg"},{"bike_id":"7f4388c5-8ee6-4aa2-a444-166849d8968e","system_id":"levelo_inurba_marseille","lat":43.2903,"lon":5.38653,"is_reserved":false,"is_disabled":false,"rental_uris":{"android":"levelo://app?vid=7f4388c5-8ee6-4aa2-a444-166849d8968e","ios":"levelo://app?vid=7f4388c5-8ee6-4aa2-a444-166849d8968e"},"vehicle_type_id":"4","last_reported":1749503390,"current_range_meters":12000,"station_id":"ce4bh4p2rcd13ifvqe0g","pricing_plan_id":"cebpf4jnsgd1na2vs0mg"},{"bike_id":"2460316c-4b44-446b-b28a-992f3e84f445","system_id":"levelo_inurba_marseille","lat":43.28851,"lon":5.39302,"is_reserved":false,"is_disabled":false,"rental_uris":{"android":"levelo://app?vid=2460316c-4b44-446b-b28a-992f3e84f445","ios":"levelo://app?vid=2460316c-4b44-446b-b28a-992f3e84f445"},"vehicle_type_id":"4","last_reported":1749503390,"current_range_meters":12000,"station_id":"ce4bh2p2rcd13ifvqdi0","pricing_plan_id":"cebpf4jnsgd1na2vs0mg"},{"bike_id":"d81d6cd4-a21b-457e-a050-8a102fbd0355","system_id":"levelo_inurba_marseille","lat":43.29528,"lon":5.394,"is_reserved":false,"is_disabled":false,"rental_uris":{"android":"levelo://app?vid=d81d6cd4-a21b-457e-a050-8a102fbd0355","ios":"levelo://app?vid=d81d6cd4-a21b-457e-a050-8a102fbd0355"},"vehicle_type_id":"4","last_reported":1749503390,"current_range_meters":12000,"station_id":"ce4bh292rcd13ifvqdf0","pricing_plan_id":"cebpf4jnsgd1na2vs0mg"},{"bike_id":"f156dd16-bfc6-4d9c-8774-e71864afe86d","system_id":"levelo_inurba_marseille","lat":43.27987,"lon":5.41673,"is_reserved":false,"is_disabled":true,"rental_uris":{"android":"levelo://app?vid=f156dd16-bfc6-4d9c-8774-e71864afe86d","ios":"levelo://app?vid=f156dd16-bfc6-4d9c-8774-e71864afe86d"},"vehicle_type_id":"4","last_reported":1749503390,"current_range_meters":12000,"station_id":"ce4bho12rcd13ifvqh1g","pricing_plan_id":"cebpf4jnsgd1na2vs0mg"},{"bike_id":"40d277a1-8cc5-4f77-807e-87b9f07c6ca5","system_id":"levelo_inurba_marseille","lat":43.28614,"lon":5.35097,"is_reserved":false,"is_disabled":true,"rental_uris":{"android":"levelo://app?vid=40d277a1-8cc5-4f77-807e-87b9f07c6ca5","ios":"levelo://app?vid=40d277a1-8cc5-4f77-807e-87b9f07c6ca5"},"vehicle_type_id":"4","last_reported":1749503390,"current_range_meters":12000,"station_id":"ce4bhch2rcd13ifvqeug","pricing_plan_id":"cebpf4jnsgd1na2vs0mg"},{"bike_id":"6063cd56-24ec-4e86-99ed-9acfc77c1ecd","system_id":"levelo_inurba_marseille","lat":43.28704,"lon":5.39983,"is_reserved":false,"is_disabled":false,"rental_uris":{"android":"levelo://app?vid=6063cd56-24ec-4e86-99ed-9acfc77c1ecd","ios":"levelo://app?vid=6063cd56-24ec-4e86-99ed-9acfc77c1ecd"},"vehicle_type_id":"4","last_reported":1749503390,"current_range_meters":12000,"station_id":"ce4bho92rcd13ifvqh3g","pricing_plan_id":"cebpf4jnsgd1na2vs0mg"},{"bike_id":"6fd4cd93-a409-4da9-ad4b-b6025023458d","system_id":"levelo_inurba_marseille","lat":43.30114,"lon":5.3709,"is_reserved":false,"is_disabled":false,"rental_uris":{"android":"levelo://app?vid=6fd4cd93-a409-4da9-ad4b-b6025023458d","ios":"levelo://app?vid=6fd4cd93-a409-4da9-ad4b-b6025023458d"},"vehicle_type_id":"4","last_reported":1749503390,"current_range_meters":12400,"station_id":"","pricing_plan_id":"cebpf4jnsgd1na2vs0mg"},{"bike_id":"38732871-8503-466e-a980-ace2b8f5936b","system_id":"levelo_inurba_marseille","lat":43.270753,"lon":5.422672,"is_reserved":false,"is_disabled":false,"rental_uris":{"android":"levelo://app?vid=38732871-8503-466e-a980-ace2b8f5936b","ios":"levelo://app?vid=38732871-8503-466e-a980-ace2b8f5936b"},"vehicle_type_id":"4","last_reported":1749503390,"current_range_meters":12400,"station_id":"ce4bhk92rcd13ifvqgb0","pricing_plan_id":"cebpf4jnsgd1na2vs0mg"},{"bike_id":"63f3d5f7-5d0f-49b8-a77f-5cff9b0070b7","system_id":"levelo_inurba_marseille","lat":43.30596,"lon":5.39355,"is_reserved":false,"is_disabled":false,"rental_uris":{"android":"levelo://app?vid=63f3d5f7-5d0f-49b8-a77f-5cff9b0070b7","ios":"levelo://app?vid=63f3d5f7-5d0f-49b8-a77f-5cff9b0070b7"},"vehicle_type_id":"4","last_reported":1749503390,"current_range_meters":12800,"station_id":"ce4bh0p2rcd13ifvqd80","pricing_plan_id":"cebpf4jnsgd1na2vs0mg"},{"bike_id":"3a642daa-c509-4966-b3ed-a2aad9246ee2","system_id":"levelo_inurba_marseille","lat":43.30784,"lon":5.3765,"is_reserved":false,"is_disabled":false,"rental_uris":{"android":"levelo://app?vid=3a642daa-c509-4966-b3ed-a2aad9246ee2","ios":"levelo://app?vid=3a642daa-c509-4966-b3ed-a2aad9246ee2"},"vehicle_type_id":"4","last_reported":1749503390,"current_range_meters":12400,"station_id":"ce4bgv92rcd13ifvqcq0","pricing_plan_id":"cebpf4jnsgd1na2vs0mg"},{"bike_id":"acf56c95-903d-4e41-b227-6ed213a46e8f","system_id":"levelo_inurba_marseille","lat":43.31366,"lon":5.38501,"is_reserved":false,"is_disabled":false,"rental_uris":{"android":"levelo://app?vid=acf56c95-903d-4e41-b227-6ed213a46e8f","ios":"levelo://app?vid=acf56c95-903d-4e41-b227-6ed213a46e8f"},"vehicle_type_id":"4","last_reported":1749503390,"current_range_meters":12400,"station_id":"ce4bgt92rcd13ifvqcf0","pricing_plan_id":"cebpf4jnsgd1na2vs0mg"},{"bike_id":"6d402e73-50f6-4414-a3a1-7eed6533e16c","system_id":"levelo_inurba_marseille","lat":43.28718,"lon":5.36081,"is_reserved":false,"is_disabled":false,"rental_uris":{"android":"levelo://app?vid=6d402e73-50f6-4414-a3a1-7eed6533e16c","ios":"levelo://app?vid=6d402e73-50f6-4414-a3a1-7eed6533e16c"},"vehicle_type_id":"4","last_reported":1749503390,"current_range_meters":12400,"station_id":"cki0cbj6b192h4jlfktg","pricing_plan_id":"cebpf4jnsgd1na2vs0mg"},{"bike_id":"7facd0d3-e088-4a5a-a896-d77e8e818ab6","system_id":"levelo_inurba_marseille","lat":43.29211,"lon":5.36051,"is_reserved":false,"is_disabled":true,"rental_uris":{"android":"levelo://app?vid=7facd0d3-e088-4a5a-a896-d77e8e818ab6","ios":"levelo://app?vid=7facd0d3-e088-4a5a-a896-d77e8e818ab6"},"vehicle_type_id":"4","last_reported":1749503390,"current_range_meters":12400,"station_id":"ce4bhbh2rcd13ifvqeqg","pricing_plan_id":"cebpf4jnsgd1na2vs0mg"},{"bike_id":"fea03510-d732-494e-a818-113e6eebaa67","system_id":"levelo_inurba_marseille","lat":43.22924,"lon":5.35385,"is_reserved":false,"is_disabled":true,"rental_uris":{"android":"levelo://app?vid=fea03510-d732-494e-a818-113e6eebaa67","ios":"levelo://app?vid=fea03510-d732-494e-a818-113e6eebaa67"},"vehicle_type_id":"4","last_reported":1749503390,"current_range_meters":12400,"station_id":"cpo3532slgdg3j2ikp40","pricing_plan_id":"cebpf4jnsgd1na2vs0mg"},{"bike_id":"cb65fb53-3658-49d1-b341-ad9874975b27","system_id":"levelo_inurba_marseille","lat":43.307901,"lon":5.376441,"is_reserved":false,"is_disabled":false,"rental_uris":{"android":"levelo://app?vid=cb65fb53-3658-49d1-b341-ad9874975b27","ios":"levelo://app?vid=cb65fb53-3658-49d1-b341-ad9874975b27"},"vehicle_type_id":"4","last_reported":1749503390,"current_range_meters":12000,"station_id":"ce4bgv92rcd13ifvqcq0","pricing_plan_id":"cebpf4jnsgd1na2vs0mg"},{"bike_id":"b6285f6b-e9e7-470d-9b6d-1afe99ab71bf","system_id":"levelo_inurba_marseille","lat":43.261874,"lon":5.42071,"is_reserved":false,"is_disabled":false,"rental_uris":{"android":"levelo://app?vid=b6285f6b-e9e7-470d-9b6d-1afe99ab71bf","ios":"levelo://app?vid=b6285f6b-e9e7-470d-9b6d-1afe99ab71bf"},"vehicle_type_id":"4","last_reported":1749503390,"current_range_meters":12800,"station_id":"","pricing_plan_id":"cebpf4jnsgd1na2vs0mg"},{"bike_id":"6cde2846-1143-4a8a-ab04-6c8612ebe209","system_id":"levelo_inurba_marseille","lat":43.30245,"lon":5.40041,"is_reserved":false,"is_disabled":false,"rental_uris":{"android":"levelo://app?vid=6cde2846-1143-4a8a-ab04-6c8612ebe209","ios":"levelo://app?vid=6cde2846-1143-4a8a-ab04-6c8612ebe209"},"vehicle_type_id":"4","last_reported":1749503390,"current_range_meters":12800,"station_id":"ce4bgvh2rcd13ifvqcs0","pricing_plan_id":"cebpf4jnsgd1na2vs0mg"},{"bike_id":"660219bc-9f09-49e5-8bb8-0a89276755ae","system_id":"levelo_inurba_marseille","lat":43.29981,"lon":5.37165,"is_reserved":false,"is_disabled":true,"rental_uris":{"android":"levelo://app?vid=660219bc-9f09-49e5-8bb8-0a89276755ae","ios":"levelo://app?vid=660219bc-9f09-49e5-8bb8-0a89276755ae"},"vehicle_type_id":"4","last_reported":1749503390,"current_range_meters":12800,"station_id":"ce4bgr92rcd13ifvqc7g","pricing_plan_id":"cebpf4jnsgd1na2vs0mg"},{"bike_id":"88113087-f0bb-4133-ab2a-bbfce1f3d99a","system_id":"levelo_inurba_marseille","lat":43.317212,"lon":5.404533,"is_reserved":false,"is_disabled":true,"rental_uris":{"android":"levelo://app?vid=88113087-f0bb-4133-ab2a-bbfce1f3d99a","ios":"levelo://app?vid=88113087-f0bb-4133-ab2a-bbfce1f3d99a"},"vehicle_type_id":"4","last_reported":1749503390,"current_range_meters":12800,"station_id":"ce4bh012rcd13ifvqd00","pricing_plan_id":"cebpf4jnsgd1na2vs0mg"},{"bike_id":"140ab034-222f-4ace-867a-9da3b2af3d45","system_id":"levelo_inurba_marseille","lat":43.30132,"lon":5.3987,"is_reserved":false,"is_disabled":false,"rental_uris":{"android":"levelo://app?vid=140ab034-222f-4ace-867a-9da3b2af3d45","ios":"levelo://app?vid=140ab034-222f-4ace-867a-9da3b2af3d45"},"vehicle_type_id":"4","last_reported":1749503390,"current_range_meters":12800,"station_id":"ce4bh0h2rcd13ifvqd40","pricing_plan_id":"cebpf4jnsgd1na2vs0mg"},{"bike_id":"3b33593f-98f0-4b12-b11c-8ecbf0798666","system_id":"levelo_inurba_marseille","lat":43.26823,"lon":5.3939,"is_reserved":false,"is_disabled":false,"rental_uris":{"android":"levelo://app?vid=3b33593f-98f0-4b12-b11c-8ecbf0798666","ios":"levelo://app?vid=3b33593f-98f0-4b12-b11c-8ecbf0798666"},"vehicle_type_id":"4","last_reported":1749503390,"current_range_meters":12800,"station_id":"ce4bhh12rcd13ifvqfg0","pricing_plan_id":"cebpf4jnsgd1na2vs0mg"},{"bike_id":"521100f3-0159-4ecb-b59f-2d107bf6a91b","system_id":"levelo_inurba_marseille","lat":43.30948,"lon":5.39031,"is_reserved":false,"is_disabled":false,"rental_uris":{"android":"levelo://app?vid=521100f3-0159-4ecb-b59f-2d107bf6a91b","ios":"levelo://app?vid=521100f3-0159-4ecb-b59f-2d107bf6a91b"},"vehicle_type_id":"4","last_reported":1749503390,"current_range_meters":12800,"station_id":"ce4bgup2rcd13ifvqco0","pricing_plan_id":"cebpf4jnsgd1na2vs0mg"},{"bike_id":"310f4620-baef-4322-b5c7-e55b20ff4a44","system_id":"levelo_inurba_marseille","lat":43.26802,"lon":5.40267,"is_reserved":false,"is_disabled":false,"rental_uris":{"android":"levelo://app?vid=310f4620-baef-4322-b5c7-e55b20ff4a44","ios":"levelo://app?vid=310f4620-baef-4322-b5c7-e55b20ff4a44"},"vehicle_type_id":"4","last_reported":1749503390,"current_range_meters":12800,"station_id":"ce501612rcd8frsf0b60","pricing_plan_id":"cebpf4jnsgd1na2vs0mg"},{"bike_id":"f558f095-e39e-4ee3-8942-a97f7d82e654","system_id":"levelo_inurba_marseille","lat":43.30882,"lon":5.39632,"is_reserved":false,"is_disabled":false,"rental_uris":{"android":"levelo://app?vid=f558f095-e39e-4ee3-8942-a97f7d82e654","ios":"levelo://app?vid=f558f095-e39e-4ee3-8942-a97f7d82e654"},"vehicle_type_id":"4","last_reported":1749503390,"current_range_meters":12800,"station_id":"ce4bh012rcd13ifvqcv0","pricing_plan_id":"cebpf4jnsgd1na2vs0mg"},{"bike_id":"9455d38b-6f8c-4442-87c1-499e849fe884","system_id":"levelo_inurba_marseille","lat":43.28413,"lon":5.34989,"is_reserved":false,"is_disabled":true,"rental_uris":{"android":"levelo://app?vid=9455d38b-6f8c-4442-87c1-499e849fe884","ios":"levelo://app?vid=9455d38b-6f8c-4442-87c1-499e849fe884"},"vehicle_type_id":"4","last_reported":1749503390,"current_range_meters":12800,"station_id":"ce4bhbh2rcd13ifvqepg","pricing_plan_id":"cebpf4jnsgd1na2vs0mg"},{"bike_id":"ad2a946e-aa01-412e-9a03-416b3bc54a53","system_id":"levelo_inurba_marseille","lat":43.28937,"lon":5.3962,"is_reserved":false,"is_disabled":false,"rental_uris":{"android":"levelo://app?vid=ad2a946e-aa01-412e-9a03-416b3bc54a53","ios":"levelo://app?vid=ad2a946e-aa01-412e-9a03-416b3bc54a53"},"vehicle_type_id":"4","last_reported":1749503390,"current_range_meters":13600,"station_id":"ce4bh3h2rcd13ifvqdn0","pricing_plan_id":"cebpf4jnsgd1na2vs0mg"},{"bike_id":"4eada35f-a65e-4d4e-b60d-b88e9a624416","system_id":"levelo_inurba_marseille","lat":43.24398,"lon":5.37061,"is_reserved":false,"is_disabled":true,"rental_uris":{"android":"levelo://app?vid=4eada35f-a65e-4d4e-b60d-b88e9a624416","ios":"levelo://app?vid=4eada35f-a65e-4d4e-b60d-b88e9a624416"},"vehicle_type_id":"4","last_reported":1749503390,"current_range_meters":13600,"station_id":"ce4bhhh2rcd13ifvqfk0","pricing_plan_id":"cebpf4jnsgd1na2vs0mg"},{"bike_id":"0ca5c1a0-e310-4625-a32d-0a021a84cc09","system_id":"levelo_inurba_marseille","lat":43.30596,"lon":5.3757,"is_reserved":false,"is_disabled":false,"rental_uris":{"android":"levelo://app?vid=0ca5c1a0-e310-4625-a32d-0a021a84cc09","ios":"levelo://app?vid=0ca5c1a0-e310-4625-a32d-0a021a84cc09"},"vehicle_type_id":"4","last_reported":1749503390,"current_range_meters":13600,"station_id":"","pricing_plan_id":"cebpf4jnsgd1na2vs0mg"},{"bike_id":"5e415b8a-98a7-4d69-97b3-b00a94b59ca3","system_id":"levelo_inurba_marseille","lat":43.2926,"lon":5.37612,"is_reserved":false,"is_disabled":false,"rental_uris":{"android":"levelo://app?vid=5e415b8a-98a7-4d69-97b3-b00a94b59ca3","ios":"levelo://app?vid=5e415b8a-98a7-4d69-97b3-b00a94b59ca3"},"vehicle_type_id":"4","last_reported":1749503390,"current_range_meters":13600,"station_id":"ce4bgi12rcd13ifvqb80","pricing_plan_id":"cebpf4jnsgd1na2vs0mg"},{"bike_id":"8e317286-d121-41fb-88b8-5b957116b9fe","system_id":"levelo_inurba_marseille","lat":43.21228,"lon":5.35065,"is_reserved":false,"is_disabled":false,"rental_uris":{"android":"levelo://app?vid=8e317286-d121-41fb-88b8-5b957116b9fe","ios":"levelo://app?vid=8e317286-d121-41fb-88b8-5b957116b9fe"},"vehicle_type_id":"4","last_reported":1749503390,"current_range_meters":13600,"station_id":"","pricing_plan_id":"cebpf4jnsgd1na2vs0mg"},{"bike_id":"12a16a15-78c8-4ee4-92fd-26dda98aa3f7","system_id":"levelo_inurba_marseille","lat":43.31068,"lon":5.38353,"is_reserved":false,"is_disabled":false,"rental_uris":{"android":"levelo://app?vid=12a16a15-78c8-4ee4-92fd-26dda98aa3f7","ios":"levelo://app?vid=12a16a15-78c8-4ee4-92fd-26dda98aa3f7"},"vehicle_type_id":"4","last_reported":1749503390,"current_range_meters":13600,"station_id":"ce4bgv92rcd13ifvqcr0","pricing_plan_id":"cebpf4jnsgd1na2vs0mg"},{"bike_id":"ad6c329c-2135-419b-93d2-3080b8444257","system_id":"levelo_inurba_marseille","lat":43.28335,"lon":5.38103,"is_reserved":false,"is_disabled":true,"rental_uris":{"android":"levelo://app?vid=ad6c329c-2135-419b-93d2-3080b8444257","ios":"levelo://app?vid=ad6c329c-2135-419b-93d2-3080b8444257"},"vehicle_type_id":"4","last_reported":1749503390,"current_range_meters":13600,"station_id":"ce4bh412rcd13ifvqdr0","pricing_plan_id":"cebpf4jnsgd1na2vs0mg"},{"bike_id":"0b602b86-9c91-4b76-89a4-a3531e2c7f0e","system_id":"levelo_inurba_marseille","lat":43.32361,"lon":5.38886,"is_reserved":false,"is_disabled":false,"rental_uris":{"android":"levelo://app?vid=0b602b86-9c91-4b76-89a4-a3531e2c7f0e","ios":"levelo://app?vid=0b602b86-9c91-4b76-89a4-a3531e2c7f0e"},"vehicle_type_id":"4","last_reported":1749503390,"current_range_meters":13600,"station_id":"ce4bhqp2rcd13ifvqhog","pricing_plan_id":"cebpf4jnsgd1na2vs0mg"},{"bike_id":"2ffb5d6d-efc6-4007-9177-680a2afd86cf","system_id":"levelo_inurba_marseille","lat":43.31118,"lon":5.37758,"is_reserved":false,"is_disabled":false,"rental_uris":{"android":"levelo://app?vid=2ffb5d6d-efc6-4007-9177-680a2afd86cf","ios":"levelo://app?vid=2ffb5d6d-efc6-4007-9177-680a2afd86cf"},"vehicle_type_id":"4","last_reported":1749503390,"current_range_meters":14000,"station_id":"ce4bgt92rcd13ifvqcg0","pricing_plan_id":"cebpf4jnsgd1na2vs0mg"},{"bike_id":"0053f0bd-3481-4f8f-a19e-7dd7a6624507","system_id":"levelo_inurba_marseille","lat":43.29896,"lon":5.4368,"is_reserved":false,"is_disabled":false,"rental_uris":{"android":"levelo://app?vid=0053f0bd-3481-4f8f-a19e-7dd7a6624507","ios":"levelo://app?vid=0053f0bd-3481-4f8f-a19e-7dd7a6624507"},"vehicle_type_id":"4","last_reported":1749503390,"current_range_meters":14000,"station_id":"ce4bhpp2rcd13ifvqhfg","pricing_plan_id":"cebpf4jnsgd1na2vs0mg"},{"bike_id":"ec02e175-aaa4-4066-abe1-304d2d5f3fc5","system_id":"levelo_inurba_marseille","lat":43.24176,"lon":5.39719,"is_reserved":false,"is_disabled":false,"rental_uris":{"android":"levelo://app?vid=ec02e175-aaa4-4066-abe1-304d2d5f3fc5","ios":"levelo://app?vid=ec02e175-aaa4-4066-abe1-304d2d5f3fc5"},"vehicle_type_id":"4","last_reported":1749503390,"current_range_meters":14800,"station_id":"ce4bhn12rcd13ifvqgpg","pricing_plan_id":"cebpf4jnsgd1na2vs0mg"},{"bike_id":"5077581b-cebb-46fc-ba69-4fa8272d4810","system_id":"levelo_inurba_marseille","lat":43.2136,"lon":5.3553,"is_reserved":false,"is_disabled":false,"rental_uris":{"android":"levelo://app?vid=5077581b-cebb-46fc-ba69-4fa8272d4810","ios":"levelo://app?vid=5077581b-cebb-46fc-ba69-4fa8272d4810"},"vehicle_type_id":"4","last_reported":1749503390,"current_range_meters":14400,"station_id":"","pricing_plan_id":"cebpf4jnsgd1na2vs0mg"},{"bike_id":"c7432800-1b14-4854-84d5-dd3690953cae","system_id":"levelo_inurba_marseille","lat":43.26234,"lon":5.37471,"is_reserved":false,"is_disabled":true,"rental_uris":{"android":"levelo://app?vid=c7432800-1b14-4854-84d5-dd3690953cae","ios":"levelo://app?vid=c7432800-1b14-4854-84d5-dd3690953cae"},"vehicle_type_id":"4","last_reported":1749503390,"current_range_meters":14400,"station_id":"","pricing_plan_id":"cebpf4jnsgd1na2vs0mg"},{"bike_id":"9de6f61a-3f9c-4834-b560-220fe4e6a506","system_id":"levelo_inurba_marseille","lat":43.27424,"lon":5.39413,"is_reserved":false,"is_disabled":false,"rental_uris":{"android":"levelo://app?vid=9de6f61a-3f9c-4834-b560-220fe4e6a506","ios":"levelo://app?vid=9de6f61a-3f9c-4834-b560-220fe4e6a506"},"vehicle_type_id":"4","last_reported":1749503390,"current_range_meters":14000,"station_id":"ce4bhdp2rcd13ifvqf20","pricing_plan_id":"cebpf4jnsgd1na2vs0mg"},{"bike_id":"9508da7d-5dc8-430b-abbe-98007997b41c","system_id":"levelo_inurba_marseille","lat":43.28412,"lon":5.37537,"is_reserved":false,"is_disabled":false,"rental_uris":{"android":"levelo://app?vid=9508da7d-5dc8-430b-abbe-98007997b41c","ios":"levelo://app?vid=9508da7d-5dc8-430b-abbe-98007997b41c"},"vehicle_type_id":"4","last_reported":1749503390,"current_range_meters":14400,"station_id":"ce4bh412rcd13ifvqds0","pricing_plan_id":"cebpf4jnsgd1na2vs0mg"},{"bike_id":"e06bfad7-efb8-4d61-96a0-f78dbe6f8ad2","system_id":"levelo_inurba_marseille","lat":43.25107,"lon":5.40333,"is_reserved":false,"is_disabled":false,"rental_uris":{"android":"levelo://app?vid=e06bfad7-efb8-4d61-96a0-f78dbe6f8ad2","ios":"levelo://app?vid=e06bfad7-efb8-4d61-96a0-f78dbe6f8ad2"},"vehicle_type_id":"4","last_reported":1749503390,"current_range_meters":14400,"station_id":"ce4bhlh2rcd13ifvqgig","pricing_plan_id":"cebpf4jnsgd1na2vs0mg"},{"bike_id":"60a8540b-0b97-4e6a-b532-b4cdb1bca662","system_id":"levelo_inurba_marseille","lat":43.2595,"lon":5.38805,"is_reserved":false,"is_disabled":false,"rental_uris":{"android":"levelo://app?vid=60a8540b-0b97-4e6a-b532-b4cdb1bca662","ios":"levelo://app?vid=60a8540b-0b97-4e6a-b532-b4cdb1bca662"},"vehicle_type_id":"4","last_reported":1749503390,"current_range_meters":14400,"station_id":"","pricing_plan_id":"cebpf4jnsgd1na2vs0mg"},{"bike_id":"6d064464-dec5-46b8-98bd-56bde5fb4740","system_id":"levelo_inurba_marseille","lat":43.28969,"lon":5.3557,"is_reserved":false,"is_disabled":true,"rental_uris":{"android":"levelo://app?vid=6d064464-dec5-46b8-98bd-56bde5fb4740","ios":"levelo://app?vid=6d064464-dec5-46b8-98bd-56bde5fb4740"},"vehicle_type_id":"4","last_reported":1749503390,"current_range_meters":14400,"station_id":"","pricing_plan_id":"cebpf4jnsgd1na2vs0mg"},{"bike_id":"ce0f0bc6-7026-45aa-b10b-2dda47f8fac3","system_id":"levelo_inurba_marseille","lat":43.28674,"lon":5.38665,"is_reserved":false,"is_disabled":false,"rental_uris":{"android":"levelo://app?vid=ce0f0bc6-7026-45aa-b10b-2dda47f8fac3","ios":"levelo://app?vid=ce0f0bc6-7026-45aa-b10b-2dda47f8fac3"},"vehicle_type_id":"4","last_reported":1749503390,"current_range_meters":14400,"station_id":"ce4bh492rcd13ifvqdug","pricing_plan_id":"cebpf4jnsgd1na2vs0mg"},{"bike_id":"93a8514d-9e08-4750-b1ec-dac5f103b87e","system_id":"levelo_inurba_marseille","lat":43.28459,"lon":5.35889,"is_reserved":false,"is_disabled":false,"rental_uris":{"android":"levelo://app?vid=93a8514d-9e08-4750-b1ec-dac5f103b87e","ios":"levelo://app?vid=93a8514d-9e08-4750-b1ec-dac5f103b87e"},"vehicle_type_id":"4","last_reported":1749503390,"current_range_meters":14800,"station_id":"ce4bhah2rcd13ifvqei0","pricing_plan_id":"cebpf4jnsgd1na2vs0mg"},{"bike_id":"a31cee5b-b73a-437a-9b27-6ebf83aa71df","system_id":"levelo_inurba_marseille","lat":43.23198,"lon":5.35554,"is_reserved":false,"is_disabled":false,"rental_uris":{"android":"levelo://app?vid=a31cee5b-b73a-437a-9b27-6ebf83aa71df","ios":"levelo://app?vid=a31cee5b-b73a-437a-9b27-6ebf83aa71df"},"vehicle_type_id":"4","last_reported":1749503390,"current_range_meters":14400,"station_id":"ce4bhu92rcd13ifvqi70","pricing_plan_id":"cebpf4jnsgd1na2vs0mg"},{"bike_id":"92cc4c7f-cf54-483e-b99a-bb5f2f103f22","system_id":"levelo_inurba_marseille","lat":43.30804,"lon":5.43521,"is_reserved":false,"is_disabled":false,"rental_uris":{"android":"levelo://app?vid=92cc4c7f-cf54-483e-b99a-bb5f2f103f22","ios":"levelo://app?vid=92cc4c7f-cf54-483e-b99a-bb5f2f103f22"},"vehicle_type_id":"4","last_reported":1749503390,"current_range_meters":14400,"station_id":"ce4bhph2rcd13ifvqheg","pricing_plan_id":"cebpf4jnsgd1na2vs0mg"},{"bike_id":"ef555bdb-3115-4b1f-9398-9c76776e1204","system_id":"levelo_inurba_marseille","lat":43.26017,"lon":5.3739,"is_reserved":false,"is_disabled":false,"rental_uris":{"android":"levelo://app?vid=ef555bdb-3115-4b1f-9398-9c76776e1204","ios":"levelo://app?vid=ef555bdb-3115-4b1f-9398-9c76776e1204"},"vehicle_type_id":"4","last_reported":1749503390,"current_range_meters":14800,"station_id":"","pricing_plan_id":"cebpf4jnsgd1na2vs0mg"},{"bike_id":"5958541c-d2e7-4fc0-b6e8-efde527d71c5","system_id":"levelo_inurba_marseille","lat":43.308872,"lon":5.39639,"is_reserved":false,"is_disabled":false,"rental_uris":{"android":"levelo://app?vid=5958541c-d2e7-4fc0-b6e8-efde527d71c5","ios":"levelo://app?vid=5958541c-d2e7-4fc0-b6e8-efde527d71c5"},"vehicle_type_id":"4","last_reported":1749503390,"current_range_meters":14800,"station_id":"ce4bh012rcd13ifvqcv0","pricing_plan_id":"cebpf4jnsgd1na2vs0mg"},{"bike_id":"da0a6125-66b3-4b82-87c8-00a0bd560a14","system_id":"levelo_inurba_marseille","lat":43.29878,"lon":5.38937,"is_reserved":false,"is_disabled":false,"rental_uris":{"android":"levelo://app?vid=da0a6125-66b3-4b82-87c8-00a0bd560a14","ios":"levelo://app?vid=da0a6125-66b3-4b82-87c8-00a0bd560a14"},"vehicle_type_id":"4","last_reported":1749503390,"current_range_meters":14800,"station_id":"ce4bh392rcd13ifvqdl0","pricing_plan_id":"cebpf4jnsgd1na2vs0mg"},{"bike_id":"402b268f-51d8-4319-85da-3f411d4d5d91","system_id":"levelo_inurba_marseille","lat":43.21185,"lon":5.35081,"is_reserved":false,"is_disabled":false,"rental_uris":{"android":"levelo://app?vid=402b268f-51d8-4319-85da-3f411d4d5d91","ios":"levelo://app?vid=402b268f-51d8-4319-85da-3f411d4d5d91"},"vehicle_type_id":"4","last_reported":1749503390,"current_range_meters":14800,"station_id":"st_cvj6sg6p6f1abm77japg","pricing_plan_id":"cebpf4jnsgd1na2vs0mg"},{"bike_id":"4d26fb08-98cd-4156-8858-cdf0c4e8c3e8","system_id":"levelo_inurba_marseille","lat":43.2511,"lon":5.40316,"is_reserved":false,"is_disabled":false,"rental_uris":{"android":"levelo://app?vid=4d26fb08-98cd-4156-8858-cdf0c4e8c3e8","ios":"levelo://app?vid=4d26fb08-98cd-4156-8858-cdf0c4e8c3e8"},"vehicle_type_id":"4","last_reported":1749503390,"current_range_meters":14800,"station_id":"ce4bhlh2rcd13ifvqgig","pricing_plan_id":"cebpf4jnsgd1na2vs0mg"},{"bike_id":"f430a2ad-bf74-44d2-bfff-a2e8bc5d75eb","system_id":"levelo_inurba_marseille","lat":43.32288,"lon":5.38266,"is_reserved":false,"is_disabled":false,"rental_uris":{"android":"levelo://app?vid=f430a2ad-bf74-44d2-bfff-a2e8bc5d75eb","ios":"levelo://app?vid=f430a2ad-bf74-44d2-bfff-a2e8bc5d75eb"},"vehicle_type_id":"4","last_reported":1749503390,"current_range_meters":14800,"station_id":"ce4bhr12rcd13ifvqhqg","pricing_plan_id":"cebpf4jnsgd1na2vs0mg"},{"bike_id":"b7d92940-3413-4a33-a3b9-3e24a76f5a6d","system_id":"levelo_inurba_marseille","lat":43.31117,"lon":5.37765,"is_reserved":false,"is_disabled":false,"rental_uris":{"android":"levelo://app?vid=b7d92940-3413-4a33-a3b9-3e24a76f5a6d","ios":"levelo://app?vid=b7d92940-3413-4a33-a3b9-3e24a76f5a6d"},"vehicle_type_id":"4","last_reported":1749503390,"current_range_meters":15200,"station_id":"ce4bgt92rcd13ifvqcg0","pricing_plan_id":"cebpf4jnsgd1na2vs0mg"},{"bike_id":"26cd99c3-f34a-4309-aa68-f51e29cfc102","system_id":"levelo_inurba_marseille","lat":43.30535,"lon":5.36543,"is_reserved":false,"is_disabled":false,"rental_uris":{"android":"levelo://app?vid=26cd99c3-f34a-4309-aa68-f51e29cfc102","ios":"levelo://app?vid=26cd99c3-f34a-4309-aa68-f51e29cfc102"},"vehicle_type_id":"4","last_reported":1749503390,"current_range_meters":14800,"station_id":"ce4bgs12rcd13ifvqcag","pricing_plan_id":"cebpf4jnsgd1na2vs0mg"},{"bike_id":"cf8d20de-b6a1-4e91-a4bd-708a3c4e04f9","system_id":"levelo_inurba_marseille","lat":43.27918,"lon":5.39575,"is_reserved":false,"is_disabled":false,"rental_uris":{"android":"levelo://app?vid=cf8d20de-b6a1-4e91-a4bd-708a3c4e04f9","ios":"levelo://app?vid=cf8d20de-b6a1-4e91-a4bd-708a3c4e04f9"},"vehicle_type_id":"4","last_reported":1749503390,"current_range_meters":15200,"station_id":"ce4bhf92rcd13ifvqf40","pricing_plan_id":"cebpf4jnsgd1na2vs0mg"},{"bike_id":"ed6e76e6-e14c-4a72-9cbb-03b68012c725","system_id":"levelo_inurba_marseille","lat":43.27902,"lon":5.38018,"is_reserved":false,"is_disabled":false,"rental_uris":{"android":"levelo://app?vid=ed6e76e6-e14c-4a72-9cbb-03b68012c725","ios":"levelo://app?vid=ed6e76e6-e14c-4a72-9cbb-03b68012c725"},"vehicle_type_id":"4","last_reported":1749503390,"current_range_meters":15200,"station_id":"ce4bhf92rcd13ifvqf50","pricing_plan_id":"cebpf4jnsgd1na2vs0mg"},{"bike_id":"f7ef306b-4c76-458f-93ce-33564aa5948f","system_id":"levelo_inurba_marseille","lat":43.30421,"lon":5.41278,"is_reserved":false,"is_disabled":false,"rental_uris":{"android":"levelo://app?vid=f7ef306b-4c76-458f-93ce-33564aa5948f","ios":"levelo://app?vid=f7ef306b-4c76-458f-93ce-33564aa5948f"},"vehicle_type_id":"4","last_reported":1749503390,"current_range_meters":15200,"station_id":"ce4bhop2rcd13ifvqh8g","pricing_plan_id":"cebpf4jnsgd1na2vs0mg"},{"bike_id":"eb5303e9-0e2e-4a1d-881f-204f829b538c","system_id":"levelo_inurba_marseille","lat":43.29283,"lon":5.40111,"is_reserved":false,"is_disabled":false,"rental_uris":{"android":"levelo://app?vid=eb5303e9-0e2e-4a1d-881f-204f829b538c","ios":"levelo://app?vid=eb5303e9-0e2e-4a1d-881f-204f829b538c"},"vehicle_type_id":"4","last_reported":1749503390,"current_range_meters":16000,"station_id":"ce4bh312rcd13ifvqdk0","pricing_plan_id":"cebpf4jnsgd1na2vs0mg"},{"bike_id":"60c3091a-e97f-439c-9063-e83d420d9271","system_id":"levelo_inurba_marseille","lat":43.297877,"lon":5.3814,"is_reserved":false,"is_disabled":false,"rental_uris":{"android":"levelo://app?vid=60c3091a-e97f-439c-9063-e83d420d9271","ios":"levelo://app?vid=60c3091a-e97f-439c-9063-e83d420d9271"},"vehicle_type_id":"4","last_reported":1749503390,"current_range_meters":16000,"station_id":"ce4bgip2rcd13ifvqbb0","pricing_plan_id":"cebpf4jnsgd1na2vs0mg"},{"bike_id":"a06a5e76-7a40-4637-ae47-ceef6131d43b","system_id":"levelo_inurba_marseille","lat":43.30277,"lon":5.36988,"is_reserved":false,"is_disabled":false,"rental_uris":{"android":"levelo://app?vid=a06a5e76-7a40-4637-ae47-ceef6131d43b","ios":"levelo://app?vid=a06a5e76-7a40-4637-ae47-ceef6131d43b"},"vehicle_type_id":"4","last_reported":1749503390,"current_range_meters":16000,"station_id":"","pricing_plan_id":"cebpf4jnsgd1na2vs0mg"},{"bike_id":"bd06dd4e-1f76-4de7-9139-48a349a0c265","system_id":"levelo_inurba_marseille","lat":43.31695,"lon":5.40472,"is_reserved":false,"is_disabled":false,"rental_uris":{"android":"levelo://app?vid=bd06dd4e-1f76-4de7-9139-48a349a0c265","ios":"levelo://app?vid=bd06dd4e-1f76-4de7-9139-48a349a0c265"},"vehicle_type_id":"4","last_reported":1749503390,"current_range_meters":16000,"station_id":"ce4bh012rcd13ifvqd00","pricing_plan_id":"cebpf4jnsgd1na2vs0mg"},{"bike_id":"c46183ac-8cca-4cdf-a8a9-22b7c63cf27e","system_id":"levelo_inurba_marseille","lat":43.28867,"lon":5.35836,"is_reserved":false,"is_disabled":true,"rental_uris":{"android":"levelo://app?vid=c46183ac-8cca-4cdf-a8a9-22b7c63cf27e","ios":"levelo://app?vid=c46183ac-8cca-4cdf-a8a9-22b7c63cf27e"},"vehicle_type_id":"4","last_reported":1749503390,"current_range_meters":16000,"station_id":"ce4bhb12rcd13ifvqem0","pricing_plan_id":"cebpf4jnsgd1na2vs0mg"},{"bike_id":"3bda16d8-90d9-4118-9969-3498193106e5","system_id":"levelo_inurba_marseille","lat":43.2841,"lon":5.37502,"is_reserved":false,"is_disabled":true,"rental_uris":{"android":"levelo://app?vid=3bda16d8-90d9-4118-9969-3498193106e5","ios":"levelo://app?vid=3bda16d8-90d9-4118-9969-3498193106e5"},"vehicle_type_id":"4","last_reported":1749503390,"current_range_meters":16000,"station_id":"ce4bh412rcd13ifvqds0","pricing_plan_id":"cebpf4jnsgd1na2vs0mg"},{"bike_id":"a26f8764-c0b8-4df6-9002-5ba3978882a6","system_id":"levelo_inurba_marseille","lat":43.29004,"lon":5.35621,"is_reserved":false,"is_disabled":true,"rental_uris":{"android":"levelo://app?vid=a26f8764-c0b8-4df6-9002-5ba3978882a6","ios":"levelo://app?vid=a26f8764-c0b8-4df6-9002-5ba3978882a6"},"vehicle_type_id":"4","last_reported":1749503390,"current_range_meters":16000,"station_id":"ce4bhb92rcd13ifvqen0","pricing_plan_id":"cebpf4jnsgd1na2vs0mg"},{"bike_id":"a6ce0315-77da-42ee-a4e8-a05a4075d41e","system_id":"levelo_inurba_marseille","lat":43.28716,"lon":5.37932,"is_reserved":false,"is_disabled":false,"rental_uris":{"android":"levelo://app?vid=a6ce0315-77da-42ee-a4e8-a05a4075d41e","ios":"levelo://app?vid=a6ce0315-77da-42ee-a4e8-a05a4075d41e"},"vehicle_type_id":"4","last_reported":1749503390,"current_range_meters":16000,"station_id":"ce4bh9p2rcd13ifvqec0","pricing_plan_id":"cebpf4jnsgd1na2vs0mg"},{"bike_id":"279a92c5-29f9-4406-8ca1-e740c792dbaf","system_id":"levelo_inurba_marseille","lat":43.28554,"lon":5.39495,"is_reserved":false,"is_disabled":false,"rental_uris":{"android":"levelo://app?vid=279a92c5-29f9-4406-8ca1-e740c792dbaf","ios":"levelo://app?vid=279a92c5-29f9-4406-8ca1-e740c792dbaf"},"vehicle_type_id":"4","last_reported":1749503390,"current_range_meters":16000,"station_id":"ce4bh292rcd13ifvqdg0","pricing_plan_id":"cebpf4jnsgd1na2vs0mg"},{"bike_id":"23e89bac-e2bf-4e89-8e08-1f432b7a4188","system_id":"levelo_inurba_marseille","lat":43.21207,"lon":5.35058,"is_reserved":false,"is_disabled":true,"rental_uris":{"android":"levelo://app?vid=23e89bac-e2bf-4e89-8e08-1f432b7a4188","ios":"levelo://app?vid=23e89bac-e2bf-4e89-8e08-1f432b7a4188"},"vehicle_type_id":"4","last_reported":1749503390,"current_range_meters":16400,"station_id":"st_cvj6sg6p6f1abm77japg","pricing_plan_id":"cebpf4jnsgd1na2vs0mg"},{"bike_id":"aedbefc8-3517-4ce0-bd3a-42446fe18275","system_id":"levelo_inurba_marseille","lat":43.26581,"lon":5.38986,"is_reserved":false,"is_disabled":false,"rental_uris":{"android":"levelo://app?vid=aedbefc8-3517-4ce0-bd3a-42446fe18275","ios":"levelo://app?vid=aedbefc8-3517-4ce0-bd3a-42446fe18275"},"vehicle_type_id":"4","last_reported":1749503390,"current_range_meters":16400,"station_id":"ce4bhe12rcd13ifvqf30","pricing_plan_id":"cebpf4jnsgd1na2vs0mg"},{"bike_id":"456fd0fb-6b00-49e3-944b-55516afdf508","system_id":"levelo_inurba_marseille","lat":43.28277,"lon":5.35065,"is_reserved":false,"is_disabled":true,"rental_uris":{"android":"levelo://app?vid=456fd0fb-6b00-49e3-944b-55516afdf508","ios":"levelo://app?vid=456fd0fb-6b00-49e3-944b-55516afdf508"},"vehicle_type_id":"4","last_reported":1749503390,"current_range_meters":16400,"station_id":"ce4bhbp2rcd13ifvqerg","pricing_plan_id":"cebpf4jnsgd1na2vs0mg"},{"bike_id":"b7651752-8eb3-4b67-91fc-0a6e006c8d1f","system_id":"levelo_inurba_marseille","lat":43.21189,"lon":5.35073,"is_reserved":false,"is_disabled":false,"rental_uris":{"android":"levelo://app?vid=b7651752-8eb3-4b67-91fc-0a6e006c8d1f","ios":"levelo://app?vid=b7651752-8eb3-4b67-91fc-0a6e006c8d1f"},"vehicle_type_id":"4","last_reported":1749503390,"current_range_meters":16400,"station_id":"st_cvj6sg6p6f1abm77japg","pricing_plan_id":"cebpf4jnsgd1na2vs0mg"},{"bike_id":"d36d720a-e597-4a82-99d1-7c49658eada0","system_id":"levelo_inurba_marseille","lat":43.31899,"lon":5.40729,"is_reserved":false,"is_disabled":false,"rental_uris":{"android":"levelo://app?vid=d36d720a-e597-4a82-99d1-7c49658eada0","ios":"levelo://app?vid=d36d720a-e597-4a82-99d1-7c49658eada0"},"vehicle_type_id":"4","last_reported":1749503390,"current_range_meters":16400,"station_id":"ce4bhq12rcd13ifvqhig","pricing_plan_id":"cebpf4jnsgd1na2vs0mg"},{"bike_id":"6d7846b8-8c63-4a95-abfe-b504a0e7f6a5","system_id":"levelo_inurba_marseille","lat":43.30596,"lon":5.39355,"is_reserved":false,"is_disabled":false,"rental_uris":{"android":"levelo://app?vid=6d7846b8-8c63-4a95-abfe-b504a0e7f6a5","ios":"levelo://app?vid=6d7846b8-8c63-4a95-abfe-b504a0e7f6a5"},"vehicle_type_id":"4","last_reported":1749503390,"current_range_meters":16400,"station_id":"ce4bh0p2rcd13ifvqd80","pricing_plan_id":"cebpf4jnsgd1na2vs0mg"},{"bike_id":"eca942b4-34e9-4d21-b68a-0dfee2c9821f","system_id":"levelo_inurba_marseille","lat":43.3012,"lon":5.38793,"is_reserved":false,"is_disabled":true,"rental_uris":{"android":"levelo://app?vid=eca942b4-34e9-4d21-b68a-0dfee2c9821f","ios":"levelo://app?vid=eca942b4-34e9-4d21-b68a-0dfee2c9821f"},"vehicle_type_id":"4","last_reported":1749503390,"current_range_meters":16400,"station_id":"ce4bghh2rcd13ifvqb60","pricing_plan_id":"cebpf4jnsgd1na2vs0mg"},{"bike_id":"c41e1ec3-35fd-44af-8ba0-43706f79a862","system_id":"levelo_inurba_marseille","lat":43.31891,"lon":5.40736,"is_reserved":false,"is_disabled":false,"rental_uris":{"android":"levelo://app?vid=c41e1ec3-35fd-44af-8ba0-43706f79a862","ios":"levelo://app?vid=c41e1ec3-35fd-44af-8ba0-43706f79a862"},"vehicle_type_id":"4","last_reported":1749503390,"current_range_meters":16400,"station_id":"ce4bhq12rcd13ifvqhig","pricing_plan_id":"cebpf4jnsgd1na2vs0mg"},{"bike_id":"212659d0-f9ca-4700-a136-e392bf2e6443","system_id":"levelo_inurba_marseille","lat":43.29195,"lon":5.393163,"is_reserved":false,"is_disabled":false,"rental_uris":{"android":"levelo://app?vid=212659d0-f9ca-4700-a136-e392bf2e6443","ios":"levelo://app?vid=212659d0-f9ca-4700-a136-e392bf2e6443"},"vehicle_type_id":"4","last_reported":1749503390,"current_range_meters":16400,"station_id":"ce4bh192rcd13ifvqdd0","pricing_plan_id":"cebpf4jnsgd1na2vs0mg"},{"bike_id":"ca27e12a-1f2d-4cf2-be29-12a2b9ff1547","system_id":"levelo_inurba_marseille","lat":43.31729,"lon":5.4241,"is_reserved":false,"is_disabled":false,"rental_uris":{"android":"levelo://app?vid=ca27e12a-1f2d-4cf2-be29-12a2b9ff1547","ios":"levelo://app?vid=ca27e12a-1f2d-4cf2-be29-12a2b9ff1547"},"vehicle_type_id":"4","last_reported":1749503390,"current_range_meters":16400,"station_id":"ce4bhp92rcd13ifvqhbg","pricing_plan_id":"cebpf4jnsgd1na2vs0mg"},{"bike_id":"b2a55171-9e11-4eba-beeb-f2e7c5d27df2","system_id":"levelo_inurba_marseille","lat":43.21188,"lon":5.35054,"is_reserved":false,"is_disabled":false,"rental_uris":{"android":"levelo://app?vid=b2a55171-9e11-4eba-beeb-f2e7c5d27df2","ios":"levelo://app?vid=b2a55171-9e11-4eba-beeb-f2e7c5d27df2"},"vehicle_type_id":"4","last_reported":1749503390,"current_range_meters":16400,"station_id":"st_cvj6sg6p6f1abm77japg","pricing_plan_id":"cebpf4jnsgd1na2vs0mg"},{"bike_id":"e925ed2b-babc-4cf9-b75b-bac898fd5635","system_id":"levelo_inurba_marseille","lat":43.21197,"lon":5.35081,"is_reserved":false,"is_disabled":false,"rental_uris":{"android":"levelo://app?vid=e925ed2b-babc-4cf9-b75b-bac898fd5635","ios":"levelo://app?vid=e925ed2b-babc-4cf9-b75b-bac898fd5635"},"vehicle_type_id":"4","last_reported":1749503390,"current_range_meters":16400,"station_id":"st_cvj6sg6p6f1abm77japg","pricing_plan_id":"cebpf4jnsgd1na2vs0mg"},{"bike_id":"fe0db92e-7a38-482b-b4ac-6db77f96a685","system_id":"levelo_inurba_marseille","lat":43.28106,"lon":5.37834,"is_reserved":false,"is_disabled":false,"rental_uris":{"android":"levelo://app?vid=fe0db92e-7a38-482b-b4ac-6db77f96a685","ios":"levelo://app?vid=fe0db92e-7a38-482b-b4ac-6db77f96a685"},"vehicle_type_id":"4","last_reported":1749503390,"current_range_meters":16400,"station_id":"ce4bha12rcd13ifvqee0","pricing_plan_id":"cebpf4jnsgd1na2vs0mg"},{"bike_id":"09e70eef-6915-44a5-9df8-7120a5b6a583","system_id":"levelo_inurba_marseille","lat":43.30182,"lon":5.36564,"is_reserved":false,"is_disabled":false,"rental_uris":{"android":"levelo://app?vid=09e70eef-6915-44a5-9df8-7120a5b6a583","ios":"levelo://app?vid=09e70eef-6915-44a5-9df8-7120a5b6a583"},"vehicle_type_id":"4","last_reported":1749503390,"current_range_meters":16800,"station_id":"ce4bgrh2rcd13ifvqc8g","pricing_plan_id":"cebpf4jnsgd1na2vs0mg"},{"bike_id":"0600eee7-e55a-4a0d-872d-05e4f09f881a","system_id":"levelo_inurba_marseille","lat":43.2945,"lon":5.39742,"is_reserved":false,"is_disabled":false,"rental_uris":{"android":"levelo://app?vid=0600eee7-e55a-4a0d-872d-05e4f09f881a","ios":"levelo://app?vid=0600eee7-e55a-4a0d-872d-05e4f09f881a"},"vehicle_type_id":"4","last_reported":1749503390,"current_range_meters":16400,"station_id":"ce4bh3h2rcd13ifvqdo0","pricing_plan_id":"cebpf4jnsgd1na2vs0mg"},{"bike_id":"3740405a-2647-4804-bac9-7004c70779a2","system_id":"levelo_inurba_marseille","lat":43.28111,"lon":5.37848,"is_reserved":false,"is_disabled":false,"rental_uris":{"android":"levelo://app?vid=3740405a-2647-4804-bac9-7004c70779a2","ios":"levelo://app?vid=3740405a-2647-4804-bac9-7004c70779a2"},"vehicle_type_id":"4","last_reported":1749503390,"current_range_meters":16400,"station_id":"ce4bha12rcd13ifvqee0","pricing_plan_id":"cebpf4jnsgd1na2vs0mg"},{"bike_id":"eaad546a-6122-4a0a-b224-f7072e64148d","system_id":"levelo_inurba_marseille","lat":43.28698,"lon":5.39982,"is_reserved":false,"is_disabled":false,"rental_uris":{"android":"levelo://app?vid=eaad546a-6122-4a0a-b224-f7072e64148d","ios":"levelo://app?vid=eaad546a-6122-4a0a-b224-f7072e64148d"},"vehicle_type_id":"4","last_reported":1749503390,"current_range_meters":16800,"station_id":"ce4bho92rcd13ifvqh3g","pricing_plan_id":"cebpf4jnsgd1na2vs0mg"},{"bike_id":"7b062205-f63c-4110-ac5f-72b12e89745e","system_id":"levelo_inurba_marseille","lat":43.30934,"lon":5.40142,"is_reserved":false,"is_disabled":false,"rental_uris":{"android":"levelo://app?vid=7b062205-f63c-4110-ac5f-72b12e89745e","ios":"levelo://app?vid=7b062205-f63c-4110-ac5f-72b12e89745e"},"vehicle_type_id":"4","last_reported":1749503390,"current_range_meters":16800,"station_id":"ce4bgvp2rcd13ifvqct0","pricing_plan_id":"cebpf4jnsgd1na2vs0mg"},{"bike_id":"7fbb8cf5-f563-4c4a-90cf-1a5ac10b01c4","system_id":"levelo_inurba_marseille","lat":43.21204,"lon":5.35072,"is_reserved":false,"is_disabled":false,"rental_uris":{"android":"levelo://app?vid=7fbb8cf5-f563-4c4a-90cf-1a5ac10b01c4","ios":"levelo://app?vid=7fbb8cf5-f563-4c4a-90cf-1a5ac10b01c4"},"vehicle_type_id":"4","last_reported":1749503390,"current_range_meters":16800,"station_id":"st_cvj6sg6p6f1abm77japg","pricing_plan_id":"cebpf4jnsgd1na2vs0mg"},{"bike_id":"f89a7979-e084-4a27-bfa4-e60ace169f45","system_id":"levelo_inurba_marseille","lat":43.28933,"lon":5.36634,"is_reserved":false,"is_disabled":false,"rental_uris":{"android":"levelo://app?vid=f89a7979-e084-4a27-bfa4-e60ace169f45","ios":"levelo://app?vid=f89a7979-e084-4a27-bfa4-e60ace169f45"},"vehicle_type_id":"4","last_reported":1749503390,"current_range_meters":16800,"station_id":"ce4bhap2rcd13ifvqek0","pricing_plan_id":"cebpf4jnsgd1na2vs0mg"},{"bike_id":"39ddcdda-6f05-4e0a-af3a-d5c016ffc082","system_id":"levelo_inurba_marseille","lat":43.286719,"lon":5.386757,"is_reserved":false,"is_disabled":false,"rental_uris":{"android":"levelo://app?vid=39ddcdda-6f05-4e0a-af3a-d5c016ffc082","ios":"levelo://app?vid=39ddcdda-6f05-4e0a-af3a-d5c016ffc082"},"vehicle_type_id":"4","last_reported":1749503390,"current_range_meters":16800,"station_id":"ce4bh492rcd13ifvqdug","pricing_plan_id":"cebpf4jnsgd1na2vs0mg"},{"bike_id":"03505c4f-b2ee-4db7-baab-5417f41de499","system_id":"levelo_inurba_marseille","lat":43.28411,"lon":5.37517,"is_reserved":false,"is_disabled":false,"rental_uris":{"android":"levelo://app?vid=03505c4f-b2ee-4db7-baab-5417f41de499","ios":"levelo://app?vid=03505c4f-b2ee-4db7-baab-5417f41de499"},"vehicle_type_id":"4","last_reported":1749503390,"current_range_meters":16800,"station_id":"ce4bh412rcd13ifvqds0","pricing_plan_id":"cebpf4jnsgd1na2vs0mg"},{"bike_id":"29a207e6-b15a-414d-8198-522627b7f792","system_id":"levelo_inurba_marseille","lat":43.3136,"lon":5.38486,"is_reserved":false,"is_disabled":false,"rental_uris":{"android":"levelo://app?vid=29a207e6-b15a-414d-8198-522627b7f792","ios":"levelo://app?vid=29a207e6-b15a-414d-8198-522627b7f792"},"vehicle_type_id":"4","last_reported":1749503390,"current_range_meters":16800,"station_id":"ce4bgt92rcd13ifvqcf0","pricing_plan_id":"cebpf4jnsgd1na2vs0mg"},{"bike_id":"84351d3d-7144-4da1-a310-4760967578db","system_id":"levelo_inurba_marseille","lat":43.29246,"lon":5.40896,"is_reserved":false,"is_disabled":false,"rental_uris":{"android":"levelo://app?vid=84351d3d-7144-4da1-a310-4760967578db","ios":"levelo://app?vid=84351d3d-7144-4da1-a310-4760967578db"},"vehicle_type_id":"4","last_reported":1749503390,"current_range_meters":16800,"station_id":"ce4bh192rcd13ifvqdc0","pricing_plan_id":"cebpf4jnsgd1na2vs0mg"},{"bike_id":"b517a375-3cba-4f61-83db-598bdc7e35c2","system_id":"levelo_inurba_marseille","lat":43.28073,"lon":5.39639,"is_reserved":false,"is_disabled":false,"rental_uris":{"android":"levelo://app?vid=b517a375-3cba-4f61-83db-598bdc7e35c2","ios":"levelo://app?vid=b517a375-3cba-4f61-83db-598bdc7e35c2"},"vehicle_type_id":"4","last_reported":1749503390,"current_range_meters":16800,"station_id":"ce4bho12rcd13ifvqh2g","pricing_plan_id":"cebpf4jnsgd1na2vs0mg"},{"bike_id":"c6830c0d-e468-46fa-b9c2-96c1aec56a2d","system_id":"levelo_inurba_marseille","lat":43.272847,"lon":5.431,"is_reserved":false,"is_disabled":false,"rental_uris":{"android":"levelo://app?vid=c6830c0d-e468-46fa-b9c2-96c1aec56a2d","ios":"levelo://app?vid=c6830c0d-e468-46fa-b9c2-96c1aec56a2d"},"vehicle_type_id":"4","last_reported":1749503390,"current_range_meters":16800,"station_id":"","pricing_plan_id":"cebpf4jnsgd1na2vs0mg"},{"bike_id":"c8ada7f1-d789-4185-9ede-83633897d820","system_id":"levelo_inurba_marseille","lat":43.29428,"lon":5.39744,"is_reserved":false,"is_disabled":false,"rental_uris":{"android":"levelo://app?vid=c8ada7f1-d789-4185-9ede-83633897d820","ios":"levelo://app?vid=c8ada7f1-d789-4185-9ede-83633897d820"},"vehicle_type_id":"4","last_reported":1749503390,"current_range_meters":17200,"station_id":"ce4bh3h2rcd13ifvqdo0","pricing_plan_id":"cebpf4jnsgd1na2vs0mg"},{"bike_id":"5097e71c-7103-43fa-9c20-896e8c62c928","system_id":"levelo_inurba_marseille","lat":43.30636,"lon":5.401,"is_reserved":false,"is_disabled":false,"rental_uris":{"android":"levelo://app?vid=5097e71c-7103-43fa-9c20-896e8c62c928","ios":"levelo://app?vid=5097e71c-7103-43fa-9c20-896e8c62c928"},"vehicle_type_id":"4","last_reported":1749503390,"current_range_meters":17200,"station_id":"ce4bh112rcd13ifvqda0","pricing_plan_id":"cebpf4jnsgd1na2vs0mg"},{"bike_id":"f8bb3209-477e-4466-8e0b-273481e44df2","system_id":"levelo_inurba_marseille","lat":43.311147,"lon":5.396223,"is_reserved":false,"is_disabled":false,"rental_uris":{"android":"levelo://app?vid=f8bb3209-477e-4466-8e0b-273481e44df2","ios":"levelo://app?vid=f8bb3209-477e-4466-8e0b-273481e44df2"},"vehicle_type_id":"4","last_reported":1749503390,"current_range_meters":17200,"station_id":"ce4bgvp2rcd13ifvqcu0","pricing_plan_id":"cebpf4jnsgd1na2vs0mg"},{"bike_id":"f79292e4-f3c3-4e7a-bd5f-6ad7145387ef","system_id":"levelo_inurba_marseille","lat":43.274388,"lon":5.394118,"is_reserved":false,"is_disabled":true,"rental_uris":{"android":"levelo://app?vid=f79292e4-f3c3-4e7a-bd5f-6ad7145387ef","ios":"levelo://app?vid=f79292e4-f3c3-4e7a-bd5f-6ad7145387ef"},"vehicle_type_id":"4","last_reported":1749503390,"current_range_meters":17200,"station_id":"ce4bhdp2rcd13ifvqf20","pricing_plan_id":"cebpf4jnsgd1na2vs0mg"},{"bike_id":"7ea8f4fe-fa5c-47fa-b153-c84850ce8492","system_id":"levelo_inurba_marseille","lat":43.30144,"lon":5.37426,"is_reserved":false,"is_disabled":false,"rental_uris":{"android":"levelo://app?vid=7ea8f4fe-fa5c-47fa-b153-c84850ce8492","ios":"levelo://app?vid=7ea8f4fe-fa5c-47fa-b153-c84850ce8492"},"vehicle_type_id":"4","last_reported":1749503390,"current_range_meters":17200,"station_id":"ce4bgs92rcd13ifvqcc0","pricing_plan_id":"cebpf4jnsgd1na2vs0mg"},{"bike_id":"5b0bb135-cdce-47bf-97a3-e4f84ad8e420","system_id":"levelo_inurba_marseille","lat":43.2809,"lon":5.37827,"is_reserved":false,"is_disabled":false,"rental_uris":{"android":"levelo://app?vid=5b0bb135-cdce-47bf-97a3-e4f84ad8e420","ios":"levelo://app?vid=5b0bb135-cdce-47bf-97a3-e4f84ad8e420"},"vehicle_type_id":"4","last_reported":1749503390,"current_range_meters":17200,"station_id":"ce4bha12rcd13ifvqee0","pricing_plan_id":"cebpf4jnsgd1na2vs0mg"},{"bike_id":"b1e8eb07-82b7-4bcc-af1f-8461c1c89166","system_id":"levelo_inurba_marseille","lat":43.31365,"lon":5.3849,"is_reserved":false,"is_disabled":false,"rental_uris":{"android":"levelo://app?vid=b1e8eb07-82b7-4bcc-af1f-8461c1c89166","ios":"levelo://app?vid=b1e8eb07-82b7-4bcc-af1f-8461c1c89166"},"vehicle_type_id":"4","last_reported":1749503390,"current_range_meters":17200,"station_id":"ce4bgt92rcd13ifvqcf0","pricing_plan_id":"cebpf4jnsgd1na2vs0mg"},{"bike_id":"187b0a7b-e256-4c19-9794-bb250a6c5653","system_id":"levelo_inurba_marseille","lat":43.31117,"lon":5.38447,"is_reserved":false,"is_disabled":false,"rental_uris":{"android":"levelo://app?vid=187b0a7b-e256-4c19-9794-bb250a6c5653","ios":"levelo://app?vid=187b0a7b-e256-4c19-9794-bb250a6c5653"},"vehicle_type_id":"4","last_reported":1749503390,"current_range_meters":17200,"station_id":"","pricing_plan_id":"cebpf4jnsgd1na2vs0mg"},{"bike_id":"25909464-de48-4519-b5c4-e0f831c11d42","system_id":"levelo_inurba_marseille","lat":43.28714,"lon":5.37946,"is_reserved":false,"is_disabled":false,"rental_uris":{"android":"levelo://app?vid=25909464-de48-4519-b5c4-e0f831c11d42","ios":"levelo://app?vid=25909464-de48-4519-b5c4-e0f831c11d42"},"vehicle_type_id":"4","last_reported":1749503390,"current_range_meters":17600,"station_id":"ce4bh9p2rcd13ifvqec0","pricing_plan_id":"cebpf4jnsgd1na2vs0mg"},{"bike_id":"43449477-5d4e-4908-a1f4-19ff2876f22d","system_id":"levelo_inurba_marseille","lat":43.27971,"lon":5.38731,"is_reserved":false,"is_disabled":false,"rental_uris":{"android":"levelo://app?vid=43449477-5d4e-4908-a1f4-19ff2876f22d","ios":"levelo://app?vid=43449477-5d4e-4908-a1f4-19ff2876f22d"},"vehicle_type_id":"4","last_reported":1749503390,"current_range_meters":17600,"station_id":"ce4bhg12rcd13ifvqf80","pricing_plan_id":"cebpf4jnsgd1na2vs0mg"},{"bike_id":"1b722957-b311-4185-9de4-968644795596","system_id":"levelo_inurba_marseille","lat":43.30642,"lon":5.40077,"is_reserved":false,"is_disabled":false,"rental_uris":{"android":"levelo://app?vid=1b722957-b311-4185-9de4-968644795596","ios":"levelo://app?vid=1b722957-b311-4185-9de4-968644795596"},"vehicle_type_id":"4","last_reported":1749503390,"current_range_meters":17600,"station_id":"ce4bh112rcd13ifvqda0","pricing_plan_id":"cebpf4jnsgd1na2vs0mg"},{"bike_id":"55ee954e-4c7a-4c25-9cd6-7e179d2c3d9b","system_id":"levelo_inurba_marseille","lat":43.29018,"lon":5.38597,"is_reserved":false,"is_disabled":false,"rental_uris":{"android":"levelo://app?vid=55ee954e-4c7a-4c25-9cd6-7e179d2c3d9b","ios":"levelo://app?vid=55ee954e-4c7a-4c25-9cd6-7e179d2c3d9b"},"vehicle_type_id":"4","last_reported":1749503390,"current_range_meters":17600,"station_id":"ce4bh4p2rcd13ifvqe0g","pricing_plan_id":"cebpf4jnsgd1na2vs0mg"},{"bike_id":"07569b3f-c31c-4cfe-b4e4-44554ef2a881","system_id":"levelo_inurba_marseille","lat":43.2926,"lon":5.40141,"is_reserved":false,"is_disabled":false,"rental_uris":{"android":"levelo://app?vid=07569b3f-c31c-4cfe-b4e4-44554ef2a881","ios":"levelo://app?vid=07569b3f-c31c-4cfe-b4e4-44554ef2a881"},"vehicle_type_id":"4","last_reported":1749503390,"current_range_meters":17600,"station_id":"ce4bh312rcd13ifvqdk0","pricing_plan_id":"cebpf4jnsgd1na2vs0mg"},{"bike_id":"a39f2bea-0f71-4718-b801-b2aba9057162","system_id":"levelo_inurba_marseille","lat":43.30929,"lon":5.40146,"is_reserved":false,"is_disabled":false,"rental_uris":{"android":"levelo://app?vid=a39f2bea-0f71-4718-b801-b2aba9057162","ios":"levelo://app?vid=a39f2bea-0f71-4718-b801-b2aba9057162"},"vehicle_type_id":"4","last_reported":1749503390,"current_range_meters":17600,"station_id":"ce4bgvp2rcd13ifvqct0","pricing_plan_id":"cebpf4jnsgd1na2vs0mg"},{"bike_id":"0484a325-b68d-4cd1-99f8-3026690724c3","system_id":"levelo_inurba_marseille","lat":43.31882,"lon":5.40734,"is_reserved":false,"is_disabled":false,"rental_uris":{"android":"levelo://app?vid=0484a325-b68d-4cd1-99f8-3026690724c3","ios":"levelo://app?vid=0484a325-b68d-4cd1-99f8-3026690724c3"},"vehicle_type_id":"4","last_reported":1749503390,"current_range_meters":17200,"station_id":"ce4bhq12rcd13ifvqhig","pricing_plan_id":"cebpf4jnsgd1na2vs0mg"},{"bike_id":"44dcf47b-d32a-4f38-af44-353bbe17ffe6","system_id":"levelo_inurba_marseille","lat":43.29535,"lon":5.39032,"is_reserved":false,"is_disabled":false,"rental_uris":{"android":"levelo://app?vid=44dcf47b-d32a-4f38-af44-353bbe17ffe6","ios":"levelo://app?vid=44dcf47b-d32a-4f38-af44-353bbe17ffe6"},"vehicle_type_id":"4","last_reported":1749503390,"current_range_meters":17600,"station_id":"ce4bh3p2rcd13ifvqdp0","pricing_plan_id":"cebpf4jnsgd1na2vs0mg"},{"bike_id":"a5da21bd-71eb-4d26-82be-85824b99a760","system_id":"levelo_inurba_marseille","lat":43.24058,"lon":5.37745,"is_reserved":false,"is_disabled":false,"rental_uris":{"android":"levelo://app?vid=a5da21bd-71eb-4d26-82be-85824b99a760","ios":"levelo://app?vid=a5da21bd-71eb-4d26-82be-85824b99a760"},"vehicle_type_id":"4","last_reported":1749503390,"current_range_meters":17600,"station_id":"ce4bhnp2rcd13ifvqgvg","pricing_plan_id":"cebpf4jnsgd1na2vs0mg"},{"bike_id":"c30dbedc-c866-492b-a092-32c1ee0c1f22","system_id":"levelo_inurba_marseille","lat":43.29525,"lon":5.38549,"is_reserved":false,"is_disabled":true,"rental_uris":{"android":"levelo://app?vid=c30dbedc-c866-492b-a092-32c1ee0c1f22","ios":"levelo://app?vid=c30dbedc-c866-492b-a092-32c1ee0c1f22"},"vehicle_type_id":"4","last_reported":1749503390,"current_range_meters":18000,"station_id":"ce4bgih2rcd13ifvqba0","pricing_plan_id":"cebpf4jnsgd1na2vs0mg"},{"bike_id":"407a03d3-9a1b-41f7-922a-36dbbbdf4c88","system_id":"levelo_inurba_marseille","lat":43.31993,"lon":5.38164,"is_reserved":false,"is_disabled":false,"rental_uris":{"android":"levelo://app?vid=407a03d3-9a1b-41f7-922a-36dbbbdf4c88","ios":"levelo://app?vid=407a03d3-9a1b-41f7-922a-36dbbbdf4c88"},"vehicle_type_id":"4","last_reported":1749503390,"current_range_meters":18000,"station_id":"ce4bhr12rcd13ifvqhpg","pricing_plan_id":"cebpf4jnsgd1na2vs0mg"},{"bike_id":"fad9b98f-1bfd-41b0-be76-c725e485d072","system_id":"levelo_inurba_marseille","lat":43.21194,"lon":5.35069,"is_reserved":false,"is_disabled":false,"rental_uris":{"android":"levelo://app?vid=fad9b98f-1bfd-41b0-be76-c725e485d072","ios":"levelo://app?vid=fad9b98f-1bfd-41b0-be76-c725e485d072"},"vehicle_type_id":"4","last_reported":1749503390,"current_range_meters":18000,"station_id":"st_cvj6sg6p6f1abm77japg","pricing_plan_id":"cebpf4jnsgd1na2vs0mg"},{"bike_id":"78c46292-67b2-4525-8e61-233920ce9ba5","system_id":"levelo_inurba_marseille","lat":43.29555,"lon":5.42289,"is_reserved":false,"is_disabled":false,"rental_uris":{"android":"levelo://app?vid=78c46292-67b2-4525-8e61-233920ce9ba5","ios":"levelo://app?vid=78c46292-67b2-4525-8e61-233920ce9ba5"},"vehicle_type_id":"4","last_reported":1749503390,"current_range_meters":17600,"station_id":"ce4bhph2rcd13ifvqhdg","pricing_plan_id":"cebpf4jnsgd1na2vs0mg"},{"bike_id":"84f5a926-1dd6-4535-b647-2764ce0ca103","system_id":"levelo_inurba_marseille","lat":43.32111,"lon":5.36786,"is_reserved":false,"is_disabled":false,"rental_uris":{"android":"levelo://app?vid=84f5a926-1dd6-4535-b647-2764ce0ca103","ios":"levelo://app?vid=84f5a926-1dd6-4535-b647-2764ce0ca103"},"vehicle_type_id":"4","last_reported":1749503390,"current_range_meters":18000,"station_id":"ce4bhrh2rcd13ifvqhug","pricing_plan_id":"cebpf4jnsgd1na2vs0mg"},{"bike_id":"971c6c53-2afd-49ef-9b59-d41a102e23e7","system_id":"levelo_inurba_marseille","lat":43.243281,"lon":5.43822,"is_reserved":false,"is_disabled":false,"rental_uris":{"android":"levelo://app?vid=971c6c53-2afd-49ef-9b59-d41a102e23e7","ios":"levelo://app?vid=971c6c53-2afd-49ef-9b59-d41a102e23e7"},"vehicle_type_id":"4","last_reported":1749503390,"current_range_meters":18000,"station_id":"","pricing_plan_id":"cebpf4jnsgd1na2vs0mg"},{"bike_id":"90b127b9-70de-44b9-831d-86f5f3179ba0","system_id":"levelo_inurba_marseille","lat":43.28858,"lon":5.39311,"is_reserved":false,"is_disabled":false,"rental_uris":{"android":"levelo://app?vid=90b127b9-70de-44b9-831d-86f5f3179ba0","ios":"levelo://app?vid=90b127b9-70de-44b9-831d-86f5f3179ba0"},"vehicle_type_id":"4","last_reported":1749503390,"current_range_meters":18000,"station_id":"ce4bh2p2rcd13ifvqdi0","pricing_plan_id":"cebpf4jnsgd1na2vs0mg"},{"bike_id":"1e20f032-0f6a-40b2-ad29-e4d2225496fa","system_id":"levelo_inurba_marseille","lat":43.302921,"lon":5.370655,"is_reserved":false,"is_disabled":false,"rental_uris":{"android":"levelo://app?vid=1e20f032-0f6a-40b2-ad29-e4d2225496fa","ios":"levelo://app?vid=1e20f032-0f6a-40b2-ad29-e4d2225496fa"},