{"last_updated":1769163276,"ttl":60,"version":"2.2","data":{"bikes":[{"bike_id":"a6110c34-a25c-43e2-b2cf-d90d5bd9d5eb","system_id":"levelo_inurba_marseille","lat":43.27994,"lon":5.41664,"is_reserved":false,"is_disabled":false,"rental_uris":{"android":"levelo://app?vid=a6110c34-a25c-43e2-b2cf-d90d5bd9d5eb","ios":"levelo://app?vid=a6110c34-a25c-43e2-b2cf-d90d5bd9d5eb"},"vehicle_type_id":"4","last_reported":1769163276,"current_range_meters":2800,"station_id":"ce4bho12rcd13ifvqh1g","pricing_plan_id":"cebpf4jnsgd1na2vs0mg"},{"bike_id":"4c4ab50c-d6b5-4663-8cfd-881147133cad","system_id":"levelo_inurba_marseille","lat":43.24086,"lon":5.37779,"is_reserved":false,"is_disabled":false,"rental_uris":{"android":"levelo://app?vid=4c4ab50c-d6b5-4663-8cfd-881147133cad","ios":"levelo://app?vid=4c4ab50c-d6b5-4663-8cfd-881147133cad"},"vehicle_type_id":"4","last_reported":1769163276,"current_range_meters":2800,"station_id":"ce4bhnp2rcd13ifvqgvg","pricing_plan_id":"cebpf4jnsgd1na2vs0mg"},{"bike_id":"640f9c22-00e2-4e51-b824-3c15347a5f1f","system_id":"levelo_inurba_marseille","lat":43.243943,"lon":5.370687,"is_reserved":false,"is_disabled":false,"rental_uris":{"android":"levelo://app?vid=640f9c22-00e2-4e51-b824-3c15347a5f1f","ios":"levelo://app?vid=640f9c22-00e2-4e51-b824-3c15347a5f1f"},"vehicle_type_id":"4","last_reported":1769163276,"current_range_meters":2800,"station_id":"ce4bhhh2rcd13ifvqfk0","pricing_plan_id":"cebpf4jnsgd1na2vs0mg"},{"bike_id":"992bbdc1-e51f-4a26-9c9d-5e8155ad3433","system_id":"levelo_inurba_marseille","lat":43.27221,"lon":5.39216,"is_reserved":false,"is_disabled":false,"rental_uris":{"android":"levelo://app?vid=992bbdc1-e51f-4a26-9c9d-5e8155ad3433","ios":"levelo://app?vid=992bbdc1-e51f-4a26-9c9d-5e8155ad3433"},"vehicle_type_id":"4","last_reported":1769163276,"current_range_meters":2800,"station_id":"ce4bhhp2rcd13ifvqfm0","pricing_plan_id":"cebpf4jnsgd1na2vs0mg"},{"bike_id":"55cd91a1-989b-41da-b0e9-2c2c1b6533d7","system_id":"levelo_inurba_marseille","lat":43.28484,"lon":5.38413,"is_reserved":false,"is_disabled":false,"rental_uris":{"android":"levelo://app?vid=55cd91a1-989b-41da-b0e9-2c2c1b6533d7","ios":"levelo://app?vid=55cd91a1-989b-41da-b0e9-2c2c1b6533d7"},"vehicle_type_id":"4","last_reported":1769163276,"current_range_meters":3200,"station_id":"ce4bh512rcd13ifvqe3g","pricing_plan_id":"cebpf4jnsgd1na2vs0mg"},{"bike_id":"c6df5a11-88ac-4c2d-966f-46bd5174cf60","system_id":"levelo_inurba_marseille","lat":43.2813,"lon":5.42657,"is_reserved":false,"is_disabled":false,"rental_uris":{"android":"levelo://app?vid=c6df5a11-88ac-4c2d-966f-46bd5174cf60","ios":"levelo://app?vid=c6df5a11-88ac-4c2d-966f-46bd5174cf60"},"vehicle_type_id":"4","last_reported":1769163276,"current_range_meters":3200,"station_id":"ce4bhnh2rcd13ifvqgug","pricing_plan_id":"cebpf4jnsgd1na2vs0mg"},{"bike_id":"5a0b5ced-2864-4e44-a912-b5c12eabb027","system_id":"levelo_inurba_marseille","lat":43.257227,"lon":5.411147,"is_reserved":false,"is_disabled":true,"rental_uris":{"android":"levelo://app?vid=5a0b5ced-2864-4e44-a912-b5c12eabb027","ios":"levelo://app?vid=5a0b5ced-2864-4e44-a912-b5c12eabb027"},"vehicle_type_id":"4","last_reported":1769163276,"current_range_meters":3200,"station_id":"ce4bhkp2rcd13ifvqgd0","pricing_plan_id":"cebpf4jnsgd1na2vs0mg"},{"bike_id":"020cfd6a-f32a-46f1-8621-8c0d452c270c","system_id":"levelo_inurba_marseille","lat":43.29014,"lon":5.37585,"is_reserved":false,"is_disabled":false,"rental_uris":{"android":"levelo://app?vid=020cfd6a-f32a-46f1-8621-8c0d452c270c","ios":"levelo://app?vid=020cfd6a-f32a-46f1-8621-8c0d452c270c"},"vehicle_type_id":"4","last_reported":1769163276,"current_range_meters":3200,"station_id":"ce4bh692rcd13ifvqe90","pricing_plan_id":"cebpf4jnsgd1na2vs0mg"},{"bike_id":"db52c014-7507-43f9-8010-c9eb4d059d84","system_id":"levelo_inurba_marseille","lat":43.25101,"lon":5.39508,"is_reserved":false,"is_disabled":false,"rental_uris":{"android":"levelo://app?vid=db52c014-7507-43f9-8010-c9eb4d059d84","ios":"levelo://app?vid=db52c014-7507-43f9-8010-c9eb4d059d84"},"vehicle_type_id":"4","last_reported":1769163276,"current_range_meters":3200,"station_id":"ce4bhm12rcd13ifvqgkg","pricing_plan_id":"cebpf4jnsgd1na2vs0mg"},{"bike_id":"3b12d6b4-840f-44cf-b4a9-56ca22a7154f","system_id":"levelo_inurba_marseille","lat":43.27337,"lon":5.39101,"is_reserved":false,"is_disabled":false,"rental_uris":{"android":"levelo://app?vid=3b12d6b4-840f-44cf-b4a9-56ca22a7154f","ios":"levelo://app?vid=3b12d6b4-840f-44cf-b4a9-56ca22a7154f"},"vehicle_type_id":"4","last_reported":1769163276,"current_range_meters":3200,"station_id":"ce4bhgp2rcd13ifvqfe0","pricing_plan_id":"cebpf4jnsgd1na2vs0mg"},{"bike_id":"a05c6f28-02f6-4353-a002-bd5a3de27cce","system_id":"levelo_inurba_marseille","lat":43.28347,"lon":5.3812,"is_reserved":false,"is_disabled":false,"rental_uris":{"android":"levelo://app?vid=a05c6f28-02f6-4353-a002-bd5a3de27cce","ios":"levelo://app?vid=a05c6f28-02f6-4353-a002-bd5a3de27cce"},"vehicle_type_id":"4","last_reported":1769163276,"current_range_meters":3200,"station_id":"ce4bh412rcd13ifvqdr0","pricing_plan_id":"cebpf4jnsgd1na2vs0mg"},{"bike_id":"f39628e7-f451-4af8-80af-ee31b074b0b2","system_id":"levelo_inurba_marseille","lat":43.28529,"lon":5.44107,"is_reserved":false,"is_disabled":false,"rental_uris":{"android":"levelo://app?vid=f39628e7-f451-4af8-80af-ee31b074b0b2","ios":"levelo://app?vid=f39628e7-f451-4af8-80af-ee31b074b0b2"},"vehicle_type_id":"4","last_reported":1769163276,"current_range_meters":3200,"station_id":"st_d3j3df2ikq2c7380ej80","pricing_plan_id":"cebpf4jnsgd1na2vs0mg"},{"bike_id":"f9143ecb-aade-4bb9-990c-9859476787e9","system_id":"levelo_inurba_marseille","lat":43.23795,"lon":5.36645,"is_reserved":false,"is_disabled":false,"rental_uris":{"android":"levelo://app?vid=f9143ecb-aade-4bb9-990c-9859476787e9","ios":"levelo://app?vid=f9143ecb-aade-4bb9-990c-9859476787e9"},"vehicle_type_id":"4","last_reported":1769163276,"current_range_meters":3200,"station_id":"st_d3nk18o9ro0c73en2l3g","pricing_plan_id":"cebpf4jnsgd1na2vs0mg"},{"bike_id":"cf9d1ef5-1b27-4844-8227-de6f097a8958","system_id":"levelo_inurba_marseille","lat":43.26944,"lon":5.38645,"is_reserved":false,"is_disabled":false,"rental_uris":{"android":"levelo://app?vid=cf9d1ef5-1b27-4844-8227-de6f097a8958","ios":"levelo://app?vid=cf9d1ef5-1b27-4844-8227-de6f097a8958"},"vehicle_type_id":"4","last_reported":1769163276,"current_range_meters":3200,"station_id":"ce4bhh92rcd13ifvqfh0","pricing_plan_id":"cebpf4jnsgd1na2vs0mg"},{"bike_id":"59beb0f2-8561-45f7-9c2a-ea155586b32a","system_id":"levelo_inurba_marseille","lat":43.27212,"lon":5.39208,"is_reserved":false,"is_disabled":false,"rental_uris":{"android":"levelo://app?vid=59beb0f2-8561-45f7-9c2a-ea155586b32a","ios":"levelo://app?vid=59beb0f2-8561-45f7-9c2a-ea155586b32a"},"vehicle_type_id":"4","last_reported":1769163276,"current_range_meters":3200,"station_id":"ce4bhhp2rcd13ifvqfm0","pricing_plan_id":"cebpf4jnsgd1na2vs0mg"},{"bike_id":"c72b2f76-e7a7-4fa1-9303-5311af0d11c6","system_id":"levelo_inurba_marseille","lat":43.29074,"lon":5.37169,"is_reserved":false,"is_disabled":false,"rental_uris":{"android":"levelo://app?vid=c72b2f76-e7a7-4fa1-9303-5311af0d11c6","ios":"levelo://app?vid=c72b2f76-e7a7-4fa1-9303-5311af0d11c6"},"vehicle_type_id":"4","last_reported":1769163276,"current_range_meters":3200,"station_id":"ce4bh5p2rcd13ifvqe4g","pricing_plan_id":"cebpf4jnsgd1na2vs0mg"},{"bike_id":"ccbae388-92fe-44e9-a046-f507e677cba9","system_id":"levelo_inurba_marseille","lat":43.30454,"lon":5.37924,"is_reserved":false,"is_disabled":false,"rental_uris":{"android":"levelo://app?vid=ccbae388-92fe-44e9-a046-f507e677cba9","ios":"levelo://app?vid=ccbae388-92fe-44e9-a046-f507e677cba9"},"vehicle_type_id":"4","last_reported":1769163276,"current_range_meters":3200,"station_id":"ce4bgup2rcd13ifvqcn0","pricing_plan_id":"cebpf4jnsgd1na2vs0mg"},{"bike_id":"65c28cdb-30b5-4369-aca8-0fed60a51212","system_id":"levelo_inurba_marseille","lat":43.25721,"lon":5.41116,"is_reserved":false,"is_disabled":false,"rental_uris":{"android":"levelo://app?vid=65c28cdb-30b5-4369-aca8-0fed60a51212","ios":"levelo://app?vid=65c28cdb-30b5-4369-aca8-0fed60a51212"},"vehicle_type_id":"4","last_reported":1769163276,"current_range_meters":3600,"station_id":"ce4bhkp2rcd13ifvqgd0","pricing_plan_id":"cebpf4jnsgd1na2vs0mg"},{"bike_id":"c04a5f67-8f5d-4135-86b4-b72fa6fb5eb3","system_id":"levelo_inurba_marseille","lat":43.27207,"lon":5.39207,"is_reserved":false,"is_disabled":false,"rental_uris":{"android":"levelo://app?vid=c04a5f67-8f5d-4135-86b4-b72fa6fb5eb3","ios":"levelo://app?vid=c04a5f67-8f5d-4135-86b4-b72fa6fb5eb3"},"vehicle_type_id":"4","last_reported":1769163276,"current_range_meters":3600,"station_id":"ce4bhhp2rcd13ifvqfm0","pricing_plan_id":"cebpf4jnsgd1na2vs0mg"},{"bike_id":"12d65139-8fbd-418b-8523-1b0952363e37","system_id":"levelo_inurba_marseille","lat":43.24644,"lon":5.38896,"is_reserved":false,"is_disabled":false,"rental_uris":{"android":"levelo://app?vid=12d65139-8fbd-418b-8523-1b0952363e37","ios":"levelo://app?vid=12d65139-8fbd-418b-8523-1b0952363e37"},"vehicle_type_id":"4","last_reported":1769163276,"current_range_meters":3600,"station_id":"ce4bhg12rcd13ifvqf60","pricing_plan_id":"cebpf4jnsgd1na2vs0mg"},{"bike_id":"e45e439a-8bbb-4c8b-be27-d95955fac1ae","system_id":"levelo_inurba_marseille","lat":43.30464,"lon":5.37917,"is_reserved":false,"is_disabled":true,"rental_uris":{"android":"levelo://app?vid=e45e439a-8bbb-4c8b-be27-d95955fac1ae","ios":"levelo://app?vid=e45e439a-8bbb-4c8b-be27-d95955fac1ae"},"vehicle_type_id":"4","last_reported":1769163276,"current_range_meters":3600,"station_id":"ce4bgup2rcd13ifvqcn0","pricing_plan_id":"cebpf4jnsgd1na2vs0mg"},{"bike_id":"ad002944-6bbf-4e20-82e4-e8c968e01a7b","system_id":"levelo_inurba_marseille","lat":43.3097,"lon":5.39083,"is_reserved":false,"is_disabled":false,"rental_uris":{"android":"levelo://app?vid=ad002944-6bbf-4e20-82e4-e8c968e01a7b","ios":"levelo://app?vid=ad002944-6bbf-4e20-82e4-e8c968e01a7b"},"vehicle_type_id":"4","last_reported":1769163276,"current_range_meters":3600,"station_id":"ce4bgup2rcd13ifvqco0","pricing_plan_id":"cebpf4jnsgd1na2vs0mg"},{"bike_id":"3b364841-63d1-4d4f-bb34-83c89b251a49","system_id":"levelo_inurba_marseille","lat":43.308905,"lon":5.372013,"is_reserved":false,"is_disabled":false,"rental_uris":{"android":"levelo://app?vid=3b364841-63d1-4d4f-bb34-83c89b251a49","ios":"levelo://app?vid=3b364841-63d1-4d4f-bb34-83c89b251a49"},"vehicle_type_id":"4","last_reported":1769163276,"current_range_meters":3600,"station_id":"ce4bguh2rcd13ifvqckg","pricing_plan_id":"cebpf4jnsgd1na2vs0mg"},{"bike_id":"6fb623f9-2096-4f17-9ade-ac0d4c495178","system_id":"levelo_inurba_marseille","lat":43.237854,"lon":5.366361,"is_reserved":false,"is_disabled":false,"rental_uris":{"android":"levelo://app?vid=6fb623f9-2096-4f17-9ade-ac0d4c495178","ios":"levelo://app?vid=6fb623f9-2096-4f17-9ade-ac0d4c495178"},"vehicle_type_id":"4","last_reported":1769163276,"current_range_meters":3600,"station_id":"st_d3nk18o9ro0c73en2l3g","pricing_plan_id":"cebpf4jnsgd1na2vs0mg"},{"bike_id":"00501435-8bd5-42ca-818c-f4f4367ebce1","system_id":"levelo_inurba_marseille","lat":43.23143,"lon":5.4373,"is_reserved":false,"is_disabled":false,"rental_uris":{"android":"levelo://app?vid=00501435-8bd5-42ca-818c-f4f4367ebce1","ios":"levelo://app?vid=00501435-8bd5-42ca-818c-f4f4367ebce1"},"vehicle_type_id":"4","last_reported":1769163276,"current_range_meters":3600,"station_id":"ce4bhmp2rcd13ifvqgog","pricing_plan_id":"cebpf4jnsgd1na2vs0mg"},{"bike_id":"e726a595-d783-4aca-abf1-2027c976f3e0","system_id":"levelo_inurba_marseille","lat":43.3055,"lon":5.3657,"is_reserved":false,"is_disabled":false,"rental_uris":{"android":"levelo://app?vid=e726a595-d783-4aca-abf1-2027c976f3e0","ios":"levelo://app?vid=e726a595-d783-4aca-abf1-2027c976f3e0"},"vehicle_type_id":"4","last_reported":1769163276,"current_range_meters":3600,"station_id":"ce4bgs12rcd13ifvqcag","pricing_plan_id":"cebpf4jnsgd1na2vs0mg"},{"bike_id":"1334fc94-1b07-4854-8e71-929fb3680a22","system_id":"levelo_inurba_marseille","lat":43.30881,"lon":5.37204,"is_reserved":false,"is_disabled":false,"rental_uris":{"android":"levelo://app?vid=1334fc94-1b07-4854-8e71-929fb3680a22","ios":"levelo://app?vid=1334fc94-1b07-4854-8e71-929fb3680a22"},"vehicle_type_id":"4","last_reported":1769163276,"current_range_meters":4000,"station_id":"ce4bguh2rcd13ifvqckg","pricing_plan_id":"cebpf4jnsgd1na2vs0mg"},{"bike_id":"ddcb7194-82dc-49b9-9531-85c1db3d6fc4","system_id":"levelo_inurba_marseille","lat":43.246388,"lon":5.389159,"is_reserved":false,"is_disabled":false,"rental_uris":{"android":"levelo://app?vid=ddcb7194-82dc-49b9-9531-85c1db3d6fc4","ios":"levelo://app?vid=ddcb7194-82dc-49b9-9531-85c1db3d6fc4"},"vehicle_type_id":"4","last_reported":1769163276,"current_range_meters":4000,"station_id":"ce4bhg12rcd13ifvqf60","pricing_plan_id":"cebpf4jnsgd1na2vs0mg"},{"bike_id":"983dfa04-9e71-401d-b498-feaefa1c2d24","system_id":"levelo_inurba_marseille","lat":43.270032,"lon":5.392143,"is_reserved":false,"is_disabled":false,"rental_uris":{"android":"levelo://app?vid=983dfa04-9e71-401d-b498-feaefa1c2d24","ios":"levelo://app?vid=983dfa04-9e71-401d-b498-feaefa1c2d24"},"vehicle_type_id":"4","last_reported":1769163276,"current_range_meters":4000,"station_id":"","pricing_plan_id":"cebpf4jnsgd1na2vs0mg"},{"bike_id":"0d039f66-11a1-4daa-9c3e-527b4b511ff8","system_id":"levelo_inurba_marseille","lat":43.26053,"lon":5.39406,"is_reserved":false,"is_disabled":false,"rental_uris":{"android":"levelo://app?vid=0d039f66-11a1-4daa-9c3e-527b4b511ff8","ios":"levelo://app?vid=0d039f66-11a1-4daa-9c3e-527b4b511ff8"},"vehicle_type_id":"4","last_reported":1769163276,"current_range_meters":4000,"station_id":"ce4bhh92rcd13ifvqfj0","pricing_plan_id":"cebpf4jnsgd1na2vs0mg"},{"bike_id":"3d1881c1-9744-4183-b317-8e21bd24e52c","system_id":"levelo_inurba_marseille","lat":43.30962,"lon":5.39061,"is_reserved":false,"is_disabled":false,"rental_uris":{"android":"levelo://app?vid=3d1881c1-9744-4183-b317-8e21bd24e52c","ios":"levelo://app?vid=3d1881c1-9744-4183-b317-8e21bd24e52c"},"vehicle_type_id":"4","last_reported":1769163276,"current_range_meters":4000,"station_id":"ce4bgup2rcd13ifvqco0","pricing_plan_id":"cebpf4jnsgd1na2vs0mg"},{"bike_id":"0bf07db8-c48c-432b-b250-ec7680bacaa6","system_id":"levelo_inurba_marseille","lat":43.29219,"lon":5.36059,"is_reserved":false,"is_disabled":false,"rental_uris":{"android":"levelo://app?vid=0bf07db8-c48c-432b-b250-ec7680bacaa6","ios":"levelo://app?vid=0bf07db8-c48c-432b-b250-ec7680bacaa6"},"vehicle_type_id":"4","last_reported":1769163276,"current_range_meters":4000,"station_id":"ce4bhbh2rcd13ifvqeqg","pricing_plan_id":"cebpf4jnsgd1na2vs0mg"},{"bike_id":"52d180c0-5053-4665-a9be-c53985e60be1","system_id":"levelo_inurba_marseille","lat":43.24063,"lon":5.37766,"is_reserved":false,"is_disabled":false,"rental_uris":{"android":"levelo://app?vid=52d180c0-5053-4665-a9be-c53985e60be1","ios":"levelo://app?vid=52d180c0-5053-4665-a9be-c53985e60be1"},"vehicle_type_id":"4","last_reported":1769163276,"current_range_meters":4000,"station_id":"ce4bhnp2rcd13ifvqgvg","pricing_plan_id":"cebpf4jnsgd1na2vs0mg"},{"bike_id":"b89f9676-1a61-4bde-bfa5-0cdbfcc02c5d","system_id":"levelo_inurba_marseille","lat":43.30788,"lon":5.37651,"is_reserved":false,"is_disabled":false,"rental_uris":{"android":"levelo://app?vid=b89f9676-1a61-4bde-bfa5-0cdbfcc02c5d","ios":"levelo://app?vid=b89f9676-1a61-4bde-bfa5-0cdbfcc02c5d"},"vehicle_type_id":"4","last_reported":1769163276,"current_range_meters":4000,"station_id":"ce4bgv92rcd13ifvqcq0","pricing_plan_id":"cebpf4jnsgd1na2vs0mg"},{"bike_id":"ea48d3c5-9f3a-48bc-998d-c00f8dba2c5c","system_id":"levelo_inurba_marseille","lat":43.27213,"lon":5.39195,"is_reserved":false,"is_disabled":false,"rental_uris":{"android":"levelo://app?vid=ea48d3c5-9f3a-48bc-998d-c00f8dba2c5c","ios":"levelo://app?vid=ea48d3c5-9f3a-48bc-998d-c00f8dba2c5c"},"vehicle_type_id":"4","last_reported":1769163276,"current_range_meters":4000,"station_id":"ce4bhhp2rcd13ifvqfm0","pricing_plan_id":"cebpf4jnsgd1na2vs0mg"},{"bike_id":"6cde08db-2d60-4fc0-a7d5-505f4f93c6d4","system_id":"levelo_inurba_marseille","lat":43.33511,"lon":5.37573,"is_reserved":false,"is_disabled":false,"rental_uris":{"android":"levelo://app?vid=6cde08db-2d60-4fc0-a7d5-505f4f93c6d4","ios":"levelo://app?vid=6cde08db-2d60-4fc0-a7d5-505f4f93c6d4"},"vehicle_type_id":"4","last_reported":1769163276,"current_range_meters":4000,"station_id":"","pricing_plan_id":"cebpf4jnsgd1na2vs0mg"},{"bike_id":"e7d1d2d2-0497-443e-8fbf-626f2faca361","system_id":"levelo_inurba_marseille","lat":43.302921,"lon":5.368955,"is_reserved":false,"is_disabled":false,"rental_uris":{"android":"levelo://app?vid=e7d1d2d2-0497-443e-8fbf-626f2faca361","ios":"levelo://app?vid=e7d1d2d2-0497-443e-8fbf-626f2faca361"},"vehicle_type_id":"4","last_reported":1769163276,"current_range_meters":4000,"station_id":"ce4bgqh2rcd13ifvqc5g","pricing_plan_id":"cebpf4jnsgd1na2vs0mg"},{"bike_id":"72fafb96-f297-4dfe-9661-167cd14b85bc","system_id":"levelo_inurba_marseille","lat":43.30524,"lon":5.36554,"is_reserved":false,"is_disabled":false,"rental_uris":{"android":"levelo://app?vid=72fafb96-f297-4dfe-9661-167cd14b85bc","ios":"levelo://app?vid=72fafb96-f297-4dfe-9661-167cd14b85bc"},"vehicle_type_id":"4","last_reported":1769163276,"current_range_meters":4000,"station_id":"ce4bgs12rcd13ifvqcag","pricing_plan_id":"cebpf4jnsgd1na2vs0mg"},{"bike_id":"2bd7b052-198e-4662-8aa6-61b0cac79738","system_id":"levelo_inurba_marseille","lat":43.27291,"lon":5.39122,"is_reserved":false,"is_disabled":false,"rental_uris":{"android":"levelo://app?vid=2bd7b052-198e-4662-8aa6-61b0cac79738","ios":"levelo://app?vid=2bd7b052-198e-4662-8aa6-61b0cac79738"},"vehicle_type_id":"4","last_reported":1769163276,"current_range_meters":4000,"station_id":"ce4bhgp2rcd13ifvqfe0","pricing_plan_id":"cebpf4jnsgd1na2vs0mg"},{"bike_id":"dfb6b791-badd-4621-9306-ea3c833e2455","system_id":"levelo_inurba_marseille","lat":43.32704,"lon":5.40894,"is_reserved":false,"is_disabled":false,"rental_uris":{"android":"levelo://app?vid=dfb6b791-badd-4621-9306-ea3c833e2455","ios":"levelo://app?vid=dfb6b791-badd-4621-9306-ea3c833e2455"},"vehicle_type_id":"4","last_reported":1769163276,"current_range_meters":4000,"station_id":"","pricing_plan_id":"cebpf4jnsgd1na2vs0mg"},{"bike_id":"fb842022-45b9-4c4c-bfeb-5beaac36a9dc","system_id":"levelo_inurba_marseille","lat":43.31048,"lon":5.37175,"is_reserved":false,"is_disabled":false,"rental_uris":{"android":"levelo://app?vid=fb842022-45b9-4c4c-bfeb-5beaac36a9dc","ios":"levelo://app?vid=fb842022-45b9-4c4c-bfeb-5beaac36a9dc"},"vehicle_type_id":"4","last_reported":1769163276,"current_range_meters":4400,"station_id":"st_d4kl2rp97mjs73e7tdfg","pricing_plan_id":"cebpf4jnsgd1na2vs0mg"},{"bike_id":"ad484a54-940a-489c-8e2a-04f9ab4f73d1","system_id":"levelo_inurba_marseille","lat":43.27915,"lon":5.39588,"is_reserved":false,"is_disabled":false,"rental_uris":{"android":"levelo://app?vid=ad484a54-940a-489c-8e2a-04f9ab4f73d1","ios":"levelo://app?vid=ad484a54-940a-489c-8e2a-04f9ab4f73d1"},"vehicle_type_id":"4","last_reported":1769163276,"current_range_meters":4400,"station_id":"ce4bhf92rcd13ifvqf40","pricing_plan_id":"cebpf4jnsgd1na2vs0mg"},{"bike_id":"3e2deb9e-e71a-4d11-940d-76cd444019bd","system_id":"levelo_inurba_marseille","lat":43.30107,"lon":5.43109,"is_reserved":false,"is_disabled":false,"rental_uris":{"android":"levelo://app?vid=3e2deb9e-e71a-4d11-940d-76cd444019bd","ios":"levelo://app?vid=3e2deb9e-e71a-4d11-940d-76cd444019bd"},"vehicle_type_id":"4","last_reported":1769163276,"current_range_meters":4400,"station_id":"st_d3js3co5814s73ftftug","pricing_plan_id":"cebpf4jnsgd1na2vs0mg"},{"bike_id":"6055bb6e-3d5f-4359-bcc3-e96115ee8c1f","system_id":"levelo_inurba_marseille","lat":43.25572,"lon":5.38219,"is_reserved":false,"is_disabled":false,"rental_uris":{"android":"levelo://app?vid=6055bb6e-3d5f-4359-bcc3-e96115ee8c1f","ios":"levelo://app?vid=6055bb6e-3d5f-4359-bcc3-e96115ee8c1f"},"vehicle_type_id":"4","last_reported":1769163276,"current_range_meters":4400,"station_id":"ce4bhih2rcd13ifvqfs0","pricing_plan_id":"cebpf4jnsgd1na2vs0mg"},{"bike_id":"a1cf0267-a9c6-4cb7-b49a-598a4cc67209","system_id":"levelo_inurba_marseille","lat":43.23197,"lon":5.35571,"is_reserved":false,"is_disabled":false,"rental_uris":{"android":"levelo://app?vid=a1cf0267-a9c6-4cb7-b49a-598a4cc67209","ios":"levelo://app?vid=a1cf0267-a9c6-4cb7-b49a-598a4cc67209"},"vehicle_type_id":"4","last_reported":1769163276,"current_range_meters":4400,"station_id":"ce4bhu92rcd13ifvqi70","pricing_plan_id":"cebpf4jnsgd1na2vs0mg"},{"bike_id":"090da4bf-e1ff-427c-b741-8d3293006606","system_id":"levelo_inurba_marseille","lat":43.23195,"lon":5.35547,"is_reserved":false,"is_disabled":false,"rental_uris":{"android":"levelo://app?vid=090da4bf-e1ff-427c-b741-8d3293006606","ios":"levelo://app?vid=090da4bf-e1ff-427c-b741-8d3293006606"},"vehicle_type_id":"4","last_reported":1769163276,"current_range_meters":4400,"station_id":"ce4bhu92rcd13ifvqi70","pricing_plan_id":"cebpf4jnsgd1na2vs0mg"},{"bike_id":"2db372e0-2885-418f-a8c1-4f892624262b","system_id":"levelo_inurba_marseille","lat":43.27207,"lon":5.39196,"is_reserved":false,"is_disabled":false,"rental_uris":{"android":"levelo://app?vid=2db372e0-2885-418f-a8c1-4f892624262b","ios":"levelo://app?vid=2db372e0-2885-418f-a8c1-4f892624262b"},"vehicle_type_id":"4","last_reported":1769163276,"current_range_meters":4400,"station_id":"ce4bhhp2rcd13ifvqfm0","pricing_plan_id":"cebpf4jnsgd1na2vs0mg"},{"bike_id":"95fcb32a-d899-4c43-aca7-c0b0b736ec9f","system_id":"levelo_inurba_marseille","lat":43.29265,"lon":5.40169,"is_reserved":false,"is_disabled":false,"rental_uris":{"android":"levelo://app?vid=95fcb32a-d899-4c43-aca7-c0b0b736ec9f","ios":"levelo://app?vid=95fcb32a-d899-4c43-aca7-c0b0b736ec9f"},"vehicle_type_id":"4","last_reported":1769163276,"current_range_meters":4400,"station_id":"ce4bh312rcd13ifvqdk0","pricing_plan_id":"cebpf4jnsgd1na2vs0mg"},{"bike_id":"0aabe37f-1399-470b-9992-151b41718e39","system_id":"levelo_inurba_marseille","lat":43.29887,"lon":5.37478,"is_reserved":false,"is_disabled":false,"rental_uris":{"android":"levelo://app?vid=0aabe37f-1399-470b-9992-151b41718e39","ios":"levelo://app?vid=0aabe37f-1399-470b-9992-151b41718e39"},"vehicle_type_id":"4","last_reported":1769163276,"current_range_meters":4400,"station_id":"ce4bgjh2rcd13ifvqbg0","pricing_plan_id":"cebpf4jnsgd1na2vs0mg"},{"bike_id":"1850841b-646c-41b2-acb1-5ed7f28164ea","system_id":"levelo_inurba_marseille","lat":43.2592,"lon":5.40913,"is_reserved":false,"is_disabled":false,"rental_uris":{"android":"levelo://app?vid=1850841b-646c-41b2-acb1-5ed7f28164ea","ios":"levelo://app?vid=1850841b-646c-41b2-acb1-5ed7f28164ea"},"vehicle_type_id":"4","last_reported":1769163276,"current_range_meters":4400,"station_id":"ce4bhm92rcd13ifvqglg","pricing_plan_id":"cebpf4jnsgd1na2vs0mg"},{"bike_id":"c9c91417-1c93-40bd-ac7d-c76d147f675b","system_id":"levelo_inurba_marseille","lat":43.249942,"lon":5.389334,"is_reserved":false,"is_disabled":false,"rental_uris":{"android":"levelo://app?vid=c9c91417-1c93-40bd-ac7d-c76d147f675b","ios":"levelo://app?vid=c9c91417-1c93-40bd-ac7d-c76d147f675b"},"vehicle_type_id":"4","last_reported":1769163276,"current_range_meters":4400,"station_id":"ce4bhgp2rcd13ifvqfd0","pricing_plan_id":"cebpf4jnsgd1na2vs0mg"},{"bike_id":"f86bd105-9e03-4ff7-bfb9-09e5f8507dc8","system_id":"levelo_inurba_marseille","lat":43.289958,"lon":5.398756,"is_reserved":false,"is_disabled":false,"rental_uris":{"android":"levelo://app?vid=f86bd105-9e03-4ff7-bfb9-09e5f8507dc8","ios":"levelo://app?vid=f86bd105-9e03-4ff7-bfb9-09e5f8507dc8"},"vehicle_type_id":"4","last_reported":1769163276,"current_range_meters":4400,"station_id":"ce4bh392rcd13ifvqdm0","pricing_plan_id":"cebpf4jnsgd1na2vs0mg"},{"bike_id":"90986cae-dfb6-4673-bf77-446d46274004","system_id":"levelo_inurba_marseille","lat":43.28542,"lon":5.4412,"is_reserved":false,"is_disabled":false,"rental_uris":{"android":"levelo://app?vid=90986cae-dfb6-4673-bf77-446d46274004","ios":"levelo://app?vid=90986cae-dfb6-4673-bf77-446d46274004"},"vehicle_type_id":"4","last_reported":1769163276,"current_range_meters":4800,"station_id":"st_d3j3df2ikq2c7380ej80","pricing_plan_id":"cebpf4jnsgd1na2vs0mg"},{"bike_id":"f3575230-e372-44e1-a1c3-3fb9c98f3fe2","system_id":"levelo_inurba_marseille","lat":43.2639,"lon":5.41107,"is_reserved":false,"is_disabled":false,"rental_uris":{"android":"levelo://app?vid=f3575230-e372-44e1-a1c3-3fb9c98f3fe2","ios":"levelo://app?vid=f3575230-e372-44e1-a1c3-3fb9c98f3fe2"},"vehicle_type_id":"4","last_reported":1769163276,"current_range_meters":4800,"station_id":"st_d4e5ca6na9uc73bfl5fg","pricing_plan_id":"cebpf4jnsgd1na2vs0mg"},{"bike_id":"9bcc74ff-bb21-459b-8c89-b1049e46743c","system_id":"levelo_inurba_marseille","lat":43.24622,"lon":5.43153,"is_reserved":false,"is_disabled":false,"rental_uris":{"android":"levelo://app?vid=9bcc74ff-bb21-459b-8c89-b1049e46743c","ios":"levelo://app?vid=9bcc74ff-bb21-459b-8c89-b1049e46743c"},"vehicle_type_id":"4","last_reported":1769163276,"current_range_meters":4800,"station_id":"st_d2m6c4gdas8pm72e190g","pricing_plan_id":"cebpf4jnsgd1na2vs0mg"},{"bike_id":"07eceb74-6a95-40d2-bb91-34d09033e737","system_id":"levelo_inurba_marseille","lat":43.27373,"lon":5.36256,"is_reserved":false,"is_disabled":false,"rental_uris":{"android":"levelo://app?vid=07eceb74-6a95-40d2-bb91-34d09033e737","ios":"levelo://app?vid=07eceb74-6a95-40d2-bb91-34d09033e737"},"vehicle_type_id":"4","last_reported":1769163276,"current_range_meters":4800,"station_id":"ce4bhbh2rcd13ifvqeo0","pricing_plan_id":"cebpf4jnsgd1na2vs0mg"},{"bike_id":"2fa28398-73c6-40b0-abd2-13b571db7bc0","system_id":"levelo_inurba_marseille","lat":43.262118,"lon":5.379251,"is_reserved":false,"is_disabled":false,"rental_uris":{"android":"levelo://app?vid=2fa28398-73c6-40b0-abd2-13b571db7bc0","ios":"levelo://app?vid=2fa28398-73c6-40b0-abd2-13b571db7bc0"},"vehicle_type_id":"4","last_reported":1769163276,"current_range_meters":4800,"station_id":"ce4bhjp2rcd13ifvqg90","pricing_plan_id":"cebpf4jnsgd1na2vs0mg"},{"bike_id":"28d637da-5177-419f-93d1-f5195fcbd0dd","system_id":"levelo_inurba_marseille","lat":43.31335,"lon":5.39694,"is_reserved":false,"is_disabled":false,"rental_uris":{"android":"levelo://app?vid=28d637da-5177-419f-93d1-f5195fcbd0dd","ios":"levelo://app?vid=28d637da-5177-419f-93d1-f5195fcbd0dd"},"vehicle_type_id":"4","last_reported":1769163276,"current_range_meters":4800,"station_id":"ce4bgvp2rcd13ifvqcu0","pricing_plan_id":"cebpf4jnsgd1na2vs0mg"},{"bike_id":"accf3f81-0250-412b-b538-7a6a19b0ed96","system_id":"levelo_inurba_marseille","lat":43.30279,"lon":5.37703,"is_reserved":false,"is_disabled":false,"rental_uris":{"android":"levelo://app?vid=accf3f81-0250-412b-b538-7a6a19b0ed96","ios":"levelo://app?vid=accf3f81-0250-412b-b538-7a6a19b0ed96"},"vehicle_type_id":"4","last_reported":1769163276,"current_range_meters":5600,"station_id":"ce4bguh2rcd13ifvqcj0","pricing_plan_id":"cebpf4jnsgd1na2vs0mg"},{"bike_id":"9864eb71-e1a9-41e3-a300-f80070833647","system_id":"levelo_inurba_marseille","lat":43.26555,"lon":5.4032,"is_reserved":false,"is_disabled":false,"rental_uris":{"android":"levelo://app?vid=9864eb71-e1a9-41e3-a300-f80070833647","ios":"levelo://app?vid=9864eb71-e1a9-41e3-a300-f80070833647"},"vehicle_type_id":"4","last_reported":1769163276,"current_range_meters":5600,"station_id":"ce4bhmp2rcd13ifvqgng","pricing_plan_id":"cebpf4jnsgd1na2vs0mg"},{"bike_id":"4de26ba9-5d23-481e-8471-b5172dd55178","system_id":"levelo_inurba_marseille","lat":43.26372,"lon":5.41066,"is_reserved":false,"is_disabled":false,"rental_uris":{"android":"levelo://app?vid=4de26ba9-5d23-481e-8471-b5172dd55178","ios":"levelo://app?vid=4de26ba9-5d23-481e-8471-b5172dd55178"},"vehicle_type_id":"4","last_reported":1769163276,"current_range_meters":5600,"station_id":"st_d4e5ca6na9uc73bfl5fg","pricing_plan_id":"cebpf4jnsgd1na2vs0mg"},{"bike_id":"1cd16e19-c2c6-42be-a9ab-0a35f15f0209","system_id":"levelo_inurba_marseille","lat":43.30134,"lon":5.37428,"is_reserved":false,"is_disabled":false,"rental_uris":{"android":"levelo://app?vid=1cd16e19-c2c6-42be-a9ab-0a35f15f0209","ios":"levelo://app?vid=1cd16e19-c2c6-42be-a9ab-0a35f15f0209"},"vehicle_type_id":"4","last_reported":1769163276,"current_range_meters":5600,"station_id":"ce4bgs92rcd13ifvqcc0","pricing_plan_id":"cebpf4jnsgd1na2vs0mg"},{"bike_id":"ae72a7f7-0a78-43a1-a80c-a2893de3e9bb","system_id":"levelo_inurba_marseille","lat":43.24804,"lon":5.37477,"is_reserved":false,"is_disabled":false,"rental_uris":{"android":"levelo://app?vid=ae72a7f7-0a78-43a1-a80c-a2893de3e9bb","ios":"levelo://app?vid=ae72a7f7-0a78-43a1-a80c-a2893de3e9bb"},"vehicle_type_id":"4","last_reported":1769163276,"current_range_meters":5600,"station_id":"ce4bhgh2rcd13ifvqfb0","pricing_plan_id":"cebpf4jnsgd1na2vs0mg"},{"bike_id":"c462c4a3-3f5e-4fd1-8a2f-56615210c468","system_id":"levelo_inurba_marseille","lat":43.25811,"lon":5.38589,"is_reserved":false,"is_disabled":false,"rental_uris":{"android":"levelo://app?vid=c462c4a3-3f5e-4fd1-8a2f-56615210c468","ios":"levelo://app?vid=c462c4a3-3f5e-4fd1-8a2f-56615210c468"},"vehicle_type_id":"4","last_reported":1769163276,"current_range_meters":5600,"station_id":"","pricing_plan_id":"cebpf4jnsgd1na2vs0mg"},{"bike_id":"65a6842e-5fed-466b-9131-4e1d873c7f6a","system_id":"levelo_inurba_marseille","lat":43.30097,"lon":5.39108,"is_reserved":false,"is_disabled":false,"rental_uris":{"android":"levelo://app?vid=65a6842e-5fed-466b-9131-4e1d873c7f6a","ios":"levelo://app?vid=65a6842e-5fed-466b-9131-4e1d873c7f6a"},"vehicle_type_id":"4","last_reported":1769163276,"current_range_meters":5600,"station_id":"ce4bh192rcd13ifvqdb0","pricing_plan_id":"cebpf4jnsgd1na2vs0mg"},{"bike_id":"40e5e2c7-0e64-4220-a47b-eba55999faf7","system_id":"levelo_inurba_marseille","lat":43.22585,"lon":5.41629,"is_reserved":false,"is_disabled":false,"rental_uris":{"android":"levelo://app?vid=40e5e2c7-0e64-4220-a47b-eba55999faf7","ios":"levelo://app?vid=40e5e2c7-0e64-4220-a47b-eba55999faf7"},"vehicle_type_id":"4","last_reported":1769163276,"current_range_meters":5600,"station_id":"st_d2o4gvlbi1j2169b742g","pricing_plan_id":"cebpf4jnsgd1na2vs0mg"},{"bike_id":"28b0ee13-bea5-4907-a1a4-3c3f9ad9d835","system_id":"levelo_inurba_marseille","lat":43.265552,"lon":5.373048,"is_reserved":false,"is_disabled":false,"rental_uris":{"android":"levelo://app?vid=28b0ee13-bea5-4907-a1a4-3c3f9ad9d835","ios":"levelo://app?vid=28b0ee13-bea5-4907-a1a4-3c3f9ad9d835"},"vehicle_type_id":"4","last_reported":1769163276,"current_range_meters":5600,"station_id":"ce4bhg12rcd13ifvqf70","pricing_plan_id":"cebpf4jnsgd1na2vs0mg"},{"bike_id":"fe3350b5-ccbd-45e4-b52d-f2070401a0a4","system_id":"levelo_inurba_marseille","lat":43.29874,"lon":5.38901,"is_reserved":false,"is_disabled":true,"rental_uris":{"android":"levelo://app?vid=fe3350b5-ccbd-45e4-b52d-f2070401a0a4","ios":"levelo://app?vid=fe3350b5-ccbd-45e4-b52d-f2070401a0a4"},"vehicle_type_id":"4","last_reported":1769163276,"current_range_meters":5600,"station_id":"ce4bh392rcd13ifvqdl0","pricing_plan_id":"cebpf4jnsgd1na2vs0mg"},{"bike_id":"744ac657-e9eb-4c64-8b32-ed33f9bb71b5","system_id":"levelo_inurba_marseille","lat":43.31347,"lon":5.36718,"is_reserved":false,"is_disabled":false,"rental_uris":{"android":"levelo://app?vid=744ac657-e9eb-4c64-8b32-ed33f9bb71b5","ios":"levelo://app?vid=744ac657-e9eb-4c64-8b32-ed33f9bb71b5"},"vehicle_type_id":"4","last_reported":1769163276,"current_range_meters":5600,"station_id":"ce4bgr92rcd13ifvqc6g","pricing_plan_id":"cebpf4jnsgd1na2vs0mg"},{"bike_id":"93ccd092-a7f1-4592-950d-bdb838c6f004","system_id":"levelo_inurba_marseille","lat":43.24996,"lon":5.38958,"is_reserved":false,"is_disabled":false,"rental_uris":{"android":"levelo://app?vid=93ccd092-a7f1-4592-950d-bdb838c6f004","ios":"levelo://app?vid=93ccd092-a7f1-4592-950d-bdb838c6f004"},"vehicle_type_id":"4","last_reported":1769163276,"current_range_meters":5600,"station_id":"ce4bhgp2rcd13ifvqfd0","pricing_plan_id":"cebpf4jnsgd1na2vs0mg"},{"bike_id":"ef636289-76a0-4cf9-9346-8f934411db9f","system_id":"levelo_inurba_marseille","lat":43.295532,"lon":5.385614,"is_reserved":false,"is_disabled":false,"rental_uris":{"android":"levelo://app?vid=ef636289-76a0-4cf9-9346-8f934411db9f","ios":"levelo://app?vid=ef636289-76a0-4cf9-9346-8f934411db9f"},"vehicle_type_id":"4","last_reported":1769163276,"current_range_meters":5600,"station_id":"ce4bgih2rcd13ifvqba0","pricing_plan_id":"cebpf4jnsgd1na2vs0mg"},{"bike_id":"7a44288c-76ef-42bd-aa63-09fedbfa4f09","system_id":"levelo_inurba_marseille","lat":43.244675,"lon":5.425328,"is_reserved":false,"is_disabled":false,"rental_uris":{"android":"levelo://app?vid=7a44288c-76ef-42bd-aa63-09fedbfa4f09","ios":"levelo://app?vid=7a44288c-76ef-42bd-aa63-09fedbfa4f09"},"vehicle_type_id":"4","last_reported":1769163276,"current_range_meters":5600,"station_id":"st_d4a3vfp97mjs738cd8kg","pricing_plan_id":"cebpf4jnsgd1na2vs0mg"},{"bike_id":"fd925f8e-899e-40ec-9287-4e65251eafb1","system_id":"levelo_inurba_marseille","lat":43.26826,"lon":5.38502,"is_reserved":false,"is_disabled":false,"rental_uris":{"android":"levelo://app?vid=fd925f8e-899e-40ec-9287-4e65251eafb1","ios":"levelo://app?vid=fd925f8e-899e-40ec-9287-4e65251eafb1"},"vehicle_type_id":"4","last_reported":1769163276,"current_range_meters":6000,"station_id":"","pricing_plan_id":"cebpf4jnsgd1na2vs0mg"},{"bike_id":"cc9f4717-497d-46b4-8770-89f5df0571cd","system_id":"levelo_inurba_marseille","lat":43.24394,"lon":5.37094,"is_reserved":false,"is_disabled":false,"rental_uris":{"android":"levelo://app?vid=cc9f4717-497d-46b4-8770-89f5df0571cd","ios":"levelo://app?vid=cc9f4717-497d-46b4-8770-89f5df0571cd"},"vehicle_type_id":"4","last_reported":1769163276,"current_range_meters":6000,"station_id":"ce4bhhh2rcd13ifvqfk0","pricing_plan_id":"cebpf4jnsgd1na2vs0mg"},{"bike_id":"c0285b55-73df-4265-a2e1-4a0bb225f766","system_id":"levelo_inurba_marseille","lat":43.24645,"lon":5.38917,"is_reserved":false,"is_disabled":false,"rental_uris":{"android":"levelo://app?vid=c0285b55-73df-4265-a2e1-4a0bb225f766","ios":"levelo://app?vid=c0285b55-73df-4265-a2e1-4a0bb225f766"},"vehicle_type_id":"4","last_reported":1769163276,"current_range_meters":6000,"station_id":"ce4bhg12rcd13ifvqf60","pricing_plan_id":"cebpf4jnsgd1na2vs0mg"},{"bike_id":"3cf97f5c-44e2-4840-86f1-adbb97679053","system_id":"levelo_inurba_marseille","lat":43.30541,"lon":5.36734,"is_reserved":false,"is_disabled":false,"rental_uris":{"android":"levelo://app?vid=3cf97f5c-44e2-4840-86f1-adbb97679053","ios":"levelo://app?vid=3cf97f5c-44e2-4840-86f1-adbb97679053"},"vehicle_type_id":"4","last_reported":1769163276,"current_range_meters":6000,"station_id":"ce4bgrp2rcd13ifvqc9g","pricing_plan_id":"cebpf4jnsgd1na2vs0mg"},{"bike_id":"05d6e816-c599-4137-a30a-5127b06dbfc0","system_id":"levelo_inurba_marseille","lat":43.281475,"lon":5.426425,"is_reserved":false,"is_disabled":true,"rental_uris":{"android":"levelo://app?vid=05d6e816-c599-4137-a30a-5127b06dbfc0","ios":"levelo://app?vid=05d6e816-c599-4137-a30a-5127b06dbfc0"},"vehicle_type_id":"4","last_reported":1769163276,"current_range_meters":6000,"station_id":"ce4bhnh2rcd13ifvqgug","pricing_plan_id":"cebpf4jnsgd1na2vs0mg"},{"bike_id":"a09228e5-b298-47e8-a0a2-1326015f2b67","system_id":"levelo_inurba_marseille","lat":43.238586,"lon":5.379993,"is_reserved":false,"is_disabled":false,"rental_uris":{"android":"levelo://app?vid=a09228e5-b298-47e8-a0a2-1326015f2b67","ios":"levelo://app?vid=a09228e5-b298-47e8-a0a2-1326015f2b67"},"vehicle_type_id":"4","last_reported":1769163276,"current_range_meters":6000,"station_id":"ce4bh292rcd13ifvqdf0","pricing_plan_id":"cebpf4jnsgd1na2vs0mg"},{"bike_id":"a6647b88-80b4-4619-873e-fc05f3342456","system_id":"levelo_inurba_marseille","lat":43.24624,"lon":5.43172,"is_reserved":false,"is_disabled":false,"rental_uris":{"android":"levelo://app?vid=a6647b88-80b4-4619-873e-fc05f3342456","ios":"levelo://app?vid=a6647b88-80b4-4619-873e-fc05f3342456"},"vehicle_type_id":"4","last_reported":1769163276,"current_range_meters":6000,"station_id":"st_d2m6c4gdas8pm72e190g","pricing_plan_id":"cebpf4jnsgd1na2vs0mg"},{"bike_id":"dbaf99ff-7cdf-410d-a89b-d60be462efcf","system_id":"levelo_inurba_marseille","lat":43.29862,"lon":5.38886,"is_reserved":false,"is_disabled":true,"rental_uris":{"android":"levelo://app?vid=dbaf99ff-7cdf-410d-a89b-d60be462efcf","ios":"levelo://app?vid=dbaf99ff-7cdf-410d-a89b-d60be462efcf"},"vehicle_type_id":"4","last_reported":1769163276,"current_range_meters":6000,"station_id":"","pricing_plan_id":"cebpf4jnsgd1na2vs0mg"},{"bike_id":"ee3a2dbe-3447-4690-ade5-e77fe4c29530","system_id":"levelo_inurba_marseille","lat":43.29367,"lon":5.37885,"is_reserved":false,"is_disabled":false,"rental_uris":{"android":"levelo://app?vid=ee3a2dbe-3447-4690-ade5-e77fe4c29530","ios":"levelo://app?vid=ee3a2dbe-3447-4690-ade5-e77fe4c29530"},"vehicle_type_id":"4","last_reported":1769163276,"current_range_meters":6000,"station_id":"ce4bgjh2rcd13ifvqbf0","pricing_plan_id":"cebpf4jnsgd1na2vs0mg"},{"bike_id":"20c1cc69-3a0d-4679-b45c-9954ef47fca5","system_id":"levelo_inurba_marseille","lat":43.23066,"lon":5.35509,"is_reserved":false,"is_disabled":false,"rental_uris":{"android":"levelo://app?vid=20c1cc69-3a0d-4679-b45c-9954ef47fca5","ios":"levelo://app?vid=20c1cc69-3a0d-4679-b45c-9954ef47fca5"},"vehicle_type_id":"4","last_reported":1769163276,"current_range_meters":6000,"station_id":"cpo3342slgdg3j2ifvpg","pricing_plan_id":"cebpf4jnsgd1na2vs0mg"},{"bike_id":"884b714b-de31-400c-acad-491c87710532","system_id":"levelo_inurba_marseille","lat":43.29903,"lon":5.43699,"is_reserved":false,"is_disabled":false,"rental_uris":{"android":"levelo://app?vid=884b714b-de31-400c-acad-491c87710532","ios":"levelo://app?vid=884b714b-de31-400c-acad-491c87710532"},"vehicle_type_id":"4","last_reported":1769163276,"current_range_meters":6000,"station_id":"","pricing_plan_id":"cebpf4jnsgd1na2vs0mg"},{"bike_id":"cf557c85-8b34-4929-8f7e-4bc211ee95de","system_id":"levelo_inurba_marseille","lat":43.21749,"lon":5.34585,"is_reserved":false,"is_disabled":false,"rental_uris":{"android":"levelo://app?vid=cf557c85-8b34-4929-8f7e-4bc211ee95de","ios":"levelo://app?vid=cf557c85-8b34-4929-8f7e-4bc211ee95de"},"vehicle_type_id":"4","last_reported":1769163276,"current_range_meters":6400,"station_id":"","pricing_plan_id":"cebpf4jnsgd1na2vs0mg"},{"bike_id":"ba4dbbff-8d2b-4731-b2d8-2ba2461db1db","system_id":"levelo_inurba_marseille","lat":43.28868,"lon":5.42518,"is_reserved":false,"is_disabled":false,"rental_uris":{"android":"levelo://app?vid=ba4dbbff-8d2b-4731-b2d8-2ba2461db1db","ios":"levelo://app?vid=ba4dbbff-8d2b-4731-b2d8-2ba2461db1db"},"vehicle_type_id":"4","last_reported":1769163276,"current_range_meters":6400,"station_id":"st_d3b462108ojc7389ooeg","pricing_plan_id":"cebpf4jnsgd1na2vs0mg"},{"bike_id":"249a4cf7-06f6-4fea-96cc-c9c6b750c37f","system_id":"levelo_inurba_marseille","lat":43.2417,"lon":5.36401,"is_reserved":false,"is_disabled":false,"rental_uris":{"android":"levelo://app?vid=249a4cf7-06f6-4fea-96cc-c9c6b750c37f","ios":"levelo://app?vid=249a4cf7-06f6-4fea-96cc-c9c6b750c37f"},"vehicle_type_id":"4","last_reported":1769163276,"current_range_meters":6400,"station_id":"cpo36qri1sfpv3e86is0","pricing_plan_id":"cebpf4jnsgd1na2vs0mg"},{"bike_id":"0e5e8cf1-1fab-4b8e-9fff-33f1bc30a012","system_id":"levelo_inurba_marseille","lat":43.32426,"lon":5.37389,"is_reserved":false,"is_disabled":false,"rental_uris":{"android":"levelo://app?vid=0e5e8cf1-1fab-4b8e-9fff-33f1bc30a012","ios":"levelo://app?vid=0e5e8cf1-1fab-4b8e-9fff-33f1bc30a012"},"vehicle_type_id":"4","last_reported":1769163276,"current_range_meters":6400,"station_id":"","pricing_plan_id":"cebpf4jnsgd1na2vs0mg"},{"bike_id":"8d79e999-534d-46eb-b226-e914c7d703b0","system_id":"levelo_inurba_marseille","lat":43.3056,"lon":5.36704,"is_reserved":false,"is_disabled":false,"rental_uris":{"android":"levelo://app?vid=8d79e999-534d-46eb-b226-e914c7d703b0","ios":"levelo://app?vid=8d79e999-534d-46eb-b226-e914c7d703b0"},"vehicle_type_id":"4","last_reported":1769163276,"current_range_meters":6400,"station_id":"ce4bgrp2rcd13ifvqc9g","pricing_plan_id":"cebpf4jnsgd1na2vs0mg"},{"bike_id":"cc3c0fa4-318c-42a8-b516-2cb6a62d73ef","system_id":"levelo_inurba_marseille","lat":43.25002,"lon":5.38965,"is_reserved":false,"is_disabled":false,"rental_uris":{"android":"levelo://app?vid=cc3c0fa4-318c-42a8-b516-2cb6a62d73ef","ios":"levelo://app?vid=cc3c0fa4-318c-42a8-b516-2cb6a62d73ef"},"vehicle_type_id":"4","last_reported":1769163276,"current_range_meters":6400,"station_id":"ce4bhgp2rcd13ifvqfd0","pricing_plan_id":"cebpf4jnsgd1na2vs0mg"},{"bike_id":"eb322ce7-5c9a-458c-aac7-7e247d2b9747","system_id":"levelo_inurba_marseille","lat":43.33596,"lon":5.410211,"is_reserved":false,"is_disabled":false,"rental_uris":{"android":"levelo://app?vid=eb322ce7-5c9a-458c-aac7-7e247d2b9747","ios":"levelo://app?vid=eb322ce7-5c9a-458c-aac7-7e247d2b9747"},"vehicle_type_id":"4","last_reported":1769163276,"current_range_meters":6400,"station_id":"ce4bhqh2rcd13ifvqhmg","pricing_plan_id":"cebpf4jnsgd1na2vs0mg"},{"bike_id":"f41a7409-a57f-41b4-8892-e0b5bddc76ef","system_id":"levelo_inurba_marseille","lat":43.27659,"lon":5.38924,"is_reserved":false,"is_disabled":false,"rental_uris":{"android":"levelo://app?vid=f41a7409-a57f-41b4-8892-e0b5bddc76ef","ios":"levelo://app?vid=f41a7409-a57f-41b4-8892-e0b5bddc76ef"},"vehicle_type_id":"4","last_reported":1769163276,"current_range_meters":6400,"station_id":"ce4bhi12rcd13ifvqfo0","pricing_plan_id":"cebpf4jnsgd1na2vs0mg"},{"bike_id":"70aa8391-3c8c-41ab-8c43-1b3661572c84","system_id":"levelo_inurba_marseille","lat":43.24645,"lon":5.38186,"is_reserved":false,"is_disabled":false,"rental_uris":{"android":"levelo://app?vid=70aa8391-3c8c-41ab-8c43-1b3661572c84","ios":"levelo://app?vid=70aa8391-3c8c-41ab-8c43-1b3661572c84"},"vehicle_type_id":"4","last_reported":1769163276,"current_range_meters":6400,"station_id":"ce4bhih2rcd13ifvqfr0","pricing_plan_id":"cebpf4jnsgd1na2vs0mg"},{"bike_id":"324cd82f-1083-4204-b317-811809b2300e","system_id":"levelo_inurba_marseille","lat":43.29187,"lon":5.37312,"is_reserved":false,"is_disabled":true,"rental_uris":{"android":"levelo://app?vid=324cd82f-1083-4204-b317-811809b2300e","ios":"levelo://app?vid=324cd82f-1083-4204-b317-811809b2300e"},"vehicle_type_id":"4","last_reported":1769163276,"current_range_meters":6400,"station_id":"","pricing_plan_id":"cebpf4jnsgd1na2vs0mg"},{"bike_id":"e185a292-4cd7-490f-8044-422d9fd7507d","system_id":"levelo_inurba_marseille","lat":43.29037,"lon":5.39954,"is_reserved":false,"is_disabled":false,"rental_uris":{"android":"levelo://app?vid=e185a292-4cd7-490f-8044-422d9fd7507d","ios":"levelo://app?vid=e185a292-4cd7-490f-8044-422d9fd7507d"},"vehicle_type_id":"4","last_reported":1769163276,"current_range_meters":6400,"station_id":"ce4bh392rcd13ifvqdm0","pricing_plan_id":"cebpf4jnsgd1na2vs0mg"},{"bike_id":"cddcd166-b3d6-4385-9135-e14b29a5fcbd","system_id":"levelo_inurba_marseille","lat":43.305406,"lon":5.367387,"is_reserved":false,"is_disabled":false,"rental_uris":{"android":"levelo://app?vid=cddcd166-b3d6-4385-9135-e14b29a5fcbd","ios":"levelo://app?vid=cddcd166-b3d6-4385-9135-e14b29a5fcbd"},"vehicle_type_id":"4","last_reported":1769163276,"current_range_meters":6400,"station_id":"ce4bgrp2rcd13ifvqc9g","pricing_plan_id":"cebpf4jnsgd1na2vs0mg"},{"bike_id":"cbd6d55e-5809-4853-9878-dbbf6af6a148","system_id":"levelo_inurba_marseille","lat":43.28874,"lon":5.42531,"is_reserved":false,"is_disabled":false,"rental_uris":{"android":"levelo://app?vid=cbd6d55e-5809-4853-9878-dbbf6af6a148","ios":"levelo://app?vid=cbd6d55e-5809-4853-9878-dbbf6af6a148"},"vehicle_type_id":"4","last_reported":1769163276,"current_range_meters":6800,"station_id":"st_d3b462108ojc7389ooeg","pricing_plan_id":"cebpf4jnsgd1na2vs0mg"},{"bike_id":"f2413f15-e0b6-4f03-bb3a-1e94b23daeef","system_id":"levelo_inurba_marseille","lat":43.24702,"lon":5.38097,"is_reserved":false,"is_disabled":false,"rental_uris":{"android":"levelo://app?vid=f2413f15-e0b6-4f03-bb3a-1e94b23daeef","ios":"levelo://app?vid=f2413f15-e0b6-4f03-bb3a-1e94b23daeef"},"vehicle_type_id":"4","last_reported":1769163276,"current_range_meters":6800,"station_id":"","pricing_plan_id":"cebpf4jnsgd1na2vs0mg"},{"bike_id":"8201b82f-83b0-49f2-99bb-f454c070ebda","system_id":"levelo_inurba_marseille","lat":43.22556,"lon":5.41633,"is_reserved":false,"is_disabled":false,"rental_uris":{"android":"levelo://app?vid=8201b82f-83b0-49f2-99bb-f454c070ebda","ios":"levelo://app?vid=8201b82f-83b0-49f2-99bb-f454c070ebda"},"vehicle_type_id":"4","last_reported":1769163276,"current_range_meters":6800,"station_id":"st_d2o4gvlbi1j2169b742g","pricing_plan_id":"cebpf4jnsgd1na2vs0mg"},{"bike_id":"2403f0bf-de39-4f6c-b1d8-f725bb90dee3","system_id":"levelo_inurba_marseille","lat":43.24165,"lon":5.36392,"is_reserved":false,"is_disabled":false,"rental_uris":{"android":"levelo://app?vid=2403f0bf-de39-4f6c-b1d8-f725bb90dee3","ios":"levelo://app?vid=2403f0bf-de39-4f6c-b1d8-f725bb90dee3"},"vehicle_type_id":"4","last_reported":1769163276,"current_range_meters":6800,"station_id":"cpo36qri1sfpv3e86is0","pricing_plan_id":"cebpf4jnsgd1na2vs0mg"},{"bike_id":"630358af-5dc2-4402-a954-7eec38a4ae20","system_id":"levelo_inurba_marseille","lat":43.30534,"lon":5.36718,"is_reserved":false,"is_disabled":false,"rental_uris":{"android":"levelo://app?vid=630358af-5dc2-4402-a954-7eec38a4ae20","ios":"levelo://app?vid=630358af-5dc2-4402-a954-7eec38a4ae20"},"vehicle_type_id":"4","last_reported":1769163276,"current_range_meters":6800,"station_id":"ce4bgrp2rcd13ifvqc9g","pricing_plan_id":"cebpf4jnsgd1na2vs0mg"},{"bike_id":"45babb45-93f7-4f3b-b6b9-60f993fef36c","system_id":"levelo_inurba_marseille","lat":43.3235,"lon":5.36743,"is_reserved":false,"is_disabled":false,"rental_uris":{"android":"levelo://app?vid=45babb45-93f7-4f3b-b6b9-60f993fef36c","ios":"levelo://app?vid=45babb45-93f7-4f3b-b6b9-60f993fef36c"},"vehicle_type_id":"4","last_reported":1769163276,"current_range_meters":6800,"station_id":"ce4bhsh2rcd13ifvqi2g","pricing_plan_id":"cebpf4jnsgd1na2vs0mg"},{"bike_id":"26b75af5-7ae4-4c9e-852d-f4607cbb3b5b","system_id":"levelo_inurba_marseille","lat":43.24542,"lon":5.39543,"is_reserved":false,"is_disabled":false,"rental_uris":{"android":"levelo://app?vid=26b75af5-7ae4-4c9e-852d-f4607cbb3b5b","ios":"levelo://app?vid=26b75af5-7ae4-4c9e-852d-f4607cbb3b5b"},"vehicle_type_id":"4","last_reported":1769163276,"current_range_meters":6800,"station_id":"ce4bhlp2rcd13ifvqgjg","pricing_plan_id":"cebpf4jnsgd1na2vs0mg"},{"bike_id":"8d4c3a37-1bcc-4c7e-8df0-4db94e80a659","system_id":"levelo_inurba_marseille","lat":43.30936,"lon":5.38996,"is_reserved":false,"is_disabled":false,"rental_uris":{"android":"levelo://app?vid=8d4c3a37-1bcc-4c7e-8df0-4db94e80a659","ios":"levelo://app?vid=8d4c3a37-1bcc-4c7e-8df0-4db94e80a659"},"vehicle_type_id":"4","last_reported":1769163276,"current_range_meters":6800,"station_id":"ce4bgup2rcd13ifvqco0","pricing_plan_id":"cebpf4jnsgd1na2vs0mg"},{"bike_id":"a11cffd0-9b57-4915-917d-0c6c7495713d","system_id":"levelo_inurba_marseille","lat":43.26681,"lon":5.38273,"is_reserved":false,"is_disabled":false,"rental_uris":{"android":"levelo://app?vid=a11cffd0-9b57-4915-917d-0c6c7495713d","ios":"levelo://app?vid=a11cffd0-9b57-4915-917d-0c6c7495713d"},"vehicle_type_id":"4","last_reported":1769163276,"current_range_meters":6800,"station_id":"ce4bhg92rcd13ifvqf90","pricing_plan_id":"cebpf4jnsgd1na2vs0mg"},{"bike_id":"92295e8e-aa68-4e38-8fb7-fb93e0d44651","system_id":"levelo_inurba_marseille","lat":43.23199,"lon":5.35557,"is_reserved":false,"is_disabled":false,"rental_uris":{"android":"levelo://app?vid=92295e8e-aa68-4e38-8fb7-fb93e0d44651","ios":"levelo://app?vid=92295e8e-aa68-4e38-8fb7-fb93e0d44651"},"vehicle_type_id":"4","last_reported":1769163276,"current_range_meters":6800,"station_id":"ce4bhu92rcd13ifvqi70","pricing_plan_id":"cebpf4jnsgd1na2vs0mg"},{"bike_id":"8cadc070-63ab-45ed-bbb6-c0e7ed1a678c","system_id":"levelo_inurba_marseille","lat":43.33602,"lon":5.41016,"is_reserved":false,"is_disabled":false,"rental_uris":{"android":"levelo://app?vid=8cadc070-63ab-45ed-bbb6-c0e7ed1a678c","ios":"levelo://app?vid=8cadc070-63ab-45ed-bbb6-c0e7ed1a678c"},"vehicle_type_id":"4","last_reported":1769163276,"current_range_meters":6800,"station_id":"ce4bhqh2rcd13ifvqhmg","pricing_plan_id":"cebpf4jnsgd1na2vs0mg"},{"bike_id":"9cc3faeb-2728-4e8c-becd-84beead73a00","system_id":"levelo_inurba_marseille","lat":43.26793,"lon":5.39403,"is_reserved":false,"is_disabled":false,"rental_uris":{"android":"levelo://app?vid=9cc3faeb-2728-4e8c-becd-84beead73a00","ios":"levelo://app?vid=9cc3faeb-2728-4e8c-becd-84beead73a00"},"vehicle_type_id":"4","last_reported":1769163276,"current_range_meters":6800,"station_id":"ce4bhh12rcd13ifvqfg0","pricing_plan_id":"cebpf4jnsgd1na2vs0mg"},{"bike_id":"f78947df-deca-4141-ad9c-b28b8e18cc28","system_id":"levelo_inurba_marseille","lat":43.29507,"lon":5.37413,"is_reserved":false,"is_disabled":false,"rental_uris":{"android":"levelo://app?vid=f78947df-deca-4141-ad9c-b28b8e18cc28","ios":"levelo://app?vid=f78947df-deca-4141-ad9c-b28b8e18cc28"},"vehicle_type_id":"4","last_reported":1769163276,"current_range_meters":7200,"station_id":"","pricing_plan_id":"cebpf4jnsgd1na2vs0mg"},{"bike_id":"59ba4534-2aee-44e4-9228-bcbe63725245","system_id":"levelo_inurba_marseille","lat":43.27309,"lon":5.39134,"is_reserved":false,"is_disabled":false,"rental_uris":{"android":"levelo://app?vid=59ba4534-2aee-44e4-9228-bcbe63725245","ios":"levelo://app?vid=59ba4534-2aee-44e4-9228-bcbe63725245"},"vehicle_type_id":"4","last_reported":1769163276,"current_range_meters":7200,"station_id":"ce4bhgp2rcd13ifvqfe0","pricing_plan_id":"cebpf4jnsgd1na2vs0mg"},{"bike_id":"26bd6ab6-4b40-4c45-b7dc-920d50072930","system_id":"levelo_inurba_marseille","lat":43.28457,"lon":5.39212,"is_reserved":false,"is_disabled":false,"rental_uris":{"android":"levelo://app?vid=26bd6ab6-4b40-4c45-b7dc-920d50072930","ios":"levelo://app?vid=26bd6ab6-4b40-4c45-b7dc-920d50072930"},"vehicle_type_id":"4","last_reported":1769163276,"current_range_meters":7200,"station_id":"ce4bhoh2rcd13ifvqh5g","pricing_plan_id":"cebpf4jnsgd1na2vs0mg"},{"bike_id":"5ed4e9d2-631e-4b69-8907-913cd14f0cf9","system_id":"levelo_inurba_marseille","lat":43.25799,"lon":5.39424,"is_reserved":false,"is_disabled":false,"rental_uris":{"android":"levelo://app?vid=5ed4e9d2-631e-4b69-8907-913cd14f0cf9","ios":"levelo://app?vid=5ed4e9d2-631e-4b69-8907-913cd14f0cf9"},"vehicle_type_id":"4","last_reported":1769163276,"current_range_meters":7200,"station_id":"ce4bhip2rcd13ifvqft0","pricing_plan_id":"cebpf4jnsgd1na2vs0mg"},{"bike_id":"f9224b49-4809-44ff-87b0-20ec41e3f94e","system_id":"levelo_inurba_marseille","lat":43.2827,"lon":5.35068,"is_reserved":false,"is_disabled":false,"rental_uris":{"android":"levelo://app?vid=f9224b49-4809-44ff-87b0-20ec41e3f94e","ios":"levelo://app?vid=f9224b49-4809-44ff-87b0-20ec41e3f94e"},"vehicle_type_id":"4","last_reported":1769163276,"current_range_meters":7200,"station_id":"ce4bhbp2rcd13ifvqerg","pricing_plan_id":"cebpf4jnsgd1na2vs0mg"},{"bike_id":"217c986b-eb9e-44c4-a3e0-92f4ba70b7a5","system_id":"levelo_inurba_marseille","lat":43.231834,"lon":5.399831,"is_reserved":false,"is_disabled":false,"rental_uris":{"android":"levelo://app?vid=217c986b-eb9e-44c4-a3e0-92f4ba70b7a5","ios":"levelo://app?vid=217c986b-eb9e-44c4-a3e0-92f4ba70b7a5"},"vehicle_type_id":"4","last_reported":1769163276,"current_range_meters":7200,"station_id":"ce4bhn12rcd13ifvqgqg","pricing_plan_id":"cebpf4jnsgd1na2vs0mg"},{"bike_id":"9ebcb6f2-2b34-450a-b0e9-a722077e035b","system_id":"levelo_inurba_marseille","lat":43.24642,"lon":5.43167,"is_reserved":false,"is_disabled":false,"rental_uris":{"android":"levelo://app?vid=9ebcb6f2-2b34-450a-b0e9-a722077e035b","ios":"levelo://app?vid=9ebcb6f2-2b34-450a-b0e9-a722077e035b"},"vehicle_type_id":"4","last_reported":1769163276,"current_range_meters":7200,"station_id":"st_d2m6c4gdas8pm72e190g","pricing_plan_id":"cebpf4jnsgd1na2vs0mg"},{"bike_id":"485f9176-e3d7-4a06-a887-1d75232b68b0","system_id":"levelo_inurba_marseille","lat":43.26703,"lon":5.38279,"is_reserved":false,"is_disabled":false,"rental_uris":{"android":"levelo://app?vid=485f9176-e3d7-4a06-a887-1d75232b68b0","ios":"levelo://app?vid=485f9176-e3d7-4a06-a887-1d75232b68b0"},"vehicle_type_id":"4","last_reported":1769163276,"current_range_meters":7200,"station_id":"ce4bhg92rcd13ifvqf90","pricing_plan_id":"cebpf4jnsgd1na2vs0mg"},{"bike_id":"3af3f89b-b83d-4aa2-82e0-be3bab344565","system_id":"levelo_inurba_marseille","lat":43.29004,"lon":5.35614,"is_reserved":false,"is_disabled":false,"rental_uris":{"android":"levelo://app?vid=3af3f89b-b83d-4aa2-82e0-be3bab344565","ios":"levelo://app?vid=3af3f89b-b83d-4aa2-82e0-be3bab344565"},"vehicle_type_id":"4","last_reported":1769163276,"current_range_meters":7200,"station_id":"ce4bhb92rcd13ifvqen0","pricing_plan_id":"cebpf4jnsgd1na2vs0mg"},{"bike_id":"b773bbbb-d72b-4b38-92a3-28fca628ed6c","system_id":"levelo_inurba_marseille","lat":43.22919,"lon":5.3539,"is_reserved":false,"is_disabled":false,"rental_uris":{"android":"levelo://app?vid=b773bbbb-d72b-4b38-92a3-28fca628ed6c","ios":"levelo://app?vid=b773bbbb-d72b-4b38-92a3-28fca628ed6c"},"vehicle_type_id":"4","last_reported":1769163276,"current_range_meters":7200,"station_id":"cpo3532slgdg3j2ikp40","pricing_plan_id":"cebpf4jnsgd1na2vs0mg"},{"bike_id":"b57df7ad-97cd-44b3-a204-ea83c250292c","system_id":"levelo_inurba_marseille","lat":43.23204,"lon":5.35574,"is_reserved":false,"is_disabled":false,"rental_uris":{"android":"levelo://app?vid=b57df7ad-97cd-44b3-a204-ea83c250292c","ios":"levelo://app?vid=b57df7ad-97cd-44b3-a204-ea83c250292c"},"vehicle_type_id":"4","last_reported":1769163276,"current_range_meters":7200,"station_id":"ce4bhu92rcd13ifvqi70","pricing_plan_id":"cebpf4jnsgd1na2vs0mg"},{"bike_id":"945b75a6-cb60-4db3-b411-8a275b15016e","system_id":"levelo_inurba_marseille","lat":43.25011,"lon":5.38937,"is_reserved":false,"is_disabled":false,"rental_uris":{"android":"levelo://app?vid=945b75a6-cb60-4db3-b411-8a275b15016e","ios":"levelo://app?vid=945b75a6-cb60-4db3-b411-8a275b15016e"},"vehicle_type_id":"4","last_reported":1769163276,"current_range_meters":7200,"station_id":"ce4bhgp2rcd13ifvqfd0","pricing_plan_id":"cebpf4jnsgd1na2vs0mg"},{"bike_id":"ab1ce965-255f-45f9-ad31-e191b42eae3a","system_id":"levelo_inurba_marseille","lat":43.23142,"lon":5.43765,"is_reserved":false,"is_disabled":false,"rental_uris":{"android":"levelo://app?vid=ab1ce965-255f-45f9-ad31-e191b42eae3a","ios":"levelo://app?vid=ab1ce965-255f-45f9-ad31-e191b42eae3a"},"vehicle_type_id":"4","last_reported":1769163276,"current_range_meters":7200,"station_id":"ce4bhmp2rcd13ifvqgog","pricing_plan_id":"cebpf4jnsgd1na2vs0mg"},{"bike_id":"3c14818c-a24d-48f3-b7db-1652ad81b188","system_id":"levelo_inurba_marseille","lat":43.25924,"lon":5.40928,"is_reserved":false,"is_disabled":false,"rental_uris":{"android":"levelo://app?vid=3c14818c-a24d-48f3-b7db-1652ad81b188","ios":"levelo://app?vid=3c14818c-a24d-48f3-b7db-1652ad81b188"},"vehicle_type_id":"4","last_reported":1769163276,"current_range_meters":7200,"station_id":"ce4bhm92rcd13ifvqglg","pricing_plan_id":"cebpf4jnsgd1na2vs0mg"},{"bike_id":"16590669-22b9-475f-acf3-c7e2ee0e80fd","system_id":"levelo_inurba_marseille","lat":43.25013,"lon":5.38924,"is_reserved":false,"is_disabled":false,"rental_uris":{"android":"levelo://app?vid=16590669-22b9-475f-acf3-c7e2ee0e80fd","ios":"levelo://app?vid=16590669-22b9-475f-acf3-c7e2ee0e80fd"},"vehicle_type_id":"4","last_reported":1769163276,"current_range_meters":7200,"station_id":"ce4bhgp2rcd13ifvqfd0","pricing_plan_id":"cebpf4jnsgd1na2vs0mg"},{"bike_id":"5b38d95a-957d-4597-90f1-9fbf09e5b340","system_id":"levelo_inurba_marseille","lat":43.290721,"lon":5.37154,"is_reserved":false,"is_disabled":false,"rental_uris":{"android":"levelo://app?vid=5b38d95a-957d-4597-90f1-9fbf09e5b340","ios":"levelo://app?vid=5b38d95a-957d-4597-90f1-9fbf09e5b340"},"vehicle_type_id":"4","last_reported":1769163276,"current_range_meters":7200,"station_id":"ce4bh5p2rcd13ifvqe4g","pricing_plan_id":"cebpf4jnsgd1na2vs0mg"},{"bike_id":"9f9c4f85-7d9e-4e8a-9123-cbd1f8de03db","system_id":"levelo_inurba_marseille","lat":43.31839,"lon":5.38983,"is_reserved":false,"is_disabled":false,"rental_uris":{"android":"levelo://app?vid=9f9c4f85-7d9e-4e8a-9123-cbd1f8de03db","ios":"levelo://app?vid=9f9c4f85-7d9e-4e8a-9123-cbd1f8de03db"},"vehicle_type_id":"4","last_reported":1769163276,"current_range_meters":7200,"station_id":"","pricing_plan_id":"cebpf4jnsgd1na2vs0mg"},{"bike_id":"a6ab8593-52ce-440a-b58b-f0ead590ee3a","system_id":"levelo_inurba_marseille","lat":43.30162,"lon":5.38088,"is_reserved":false,"is_disabled":false,"rental_uris":{"android":"levelo://app?vid=a6ab8593-52ce-440a-b58b-f0ead590ee3a","ios":"levelo://app?vid=a6ab8593-52ce-440a-b58b-f0ead590ee3a"},"vehicle_type_id":"4","last_reported":1769163276,"current_range_meters":7200,"station_id":"ce4bgjp2rcd13ifvqbh0","pricing_plan_id":"cebpf4jnsgd1na2vs0mg"},{"bike_id":"5400f95a-3e79-4d8e-b63d-814c0b42c1b8","system_id":"levelo_inurba_marseille","lat":43.30279,"lon":5.37708,"is_reserved":false,"is_disabled":false,"rental_uris":{"android":"levelo://app?vid=5400f95a-3e79-4d8e-b63d-814c0b42c1b8","ios":"levelo://app?vid=5400f95a-3e79-4d8e-b63d-814c0b42c1b8"},"vehicle_type_id":"4","last_reported":1769163276,"current_range_meters":7200,"station_id":"ce4bguh2rcd13ifvqcj0","pricing_plan_id":"cebpf4jnsgd1na2vs0mg"},{"bike_id":"3d597fd9-858c-4201-b70e-c019a48ebc4d","system_id":"levelo_inurba_marseille","lat":43.263691,"lon":5.410831,"is_reserved":false,"is_disabled":false,"rental_uris":{"android":"levelo://app?vid=3d597fd9-858c-4201-b70e-c019a48ebc4d","ios":"levelo://app?vid=3d597fd9-858c-4201-b70e-c019a48ebc4d"},"vehicle_type_id":"4","last_reported":1769163276,"current_range_meters":7200,"station_id":"ce4bh2p2rcd13ifvqdi0","pricing_plan_id":"cebpf4jnsgd1na2vs0mg"},{"bike_id":"dc82bfc6-2b44-4bff-8892-9b8eb7e91578","system_id":"levelo_inurba_marseille","lat":43.23965,"lon":5.36629,"is_reserved":false,"is_disabled":false,"rental_uris":{"android":"levelo://app?vid=dc82bfc6-2b44-4bff-8892-9b8eb7e91578","ios":"levelo://app?vid=dc82bfc6-2b44-4bff-8892-9b8eb7e91578"},"vehicle_type_id":"4","last_reported":1769163276,"current_range_meters":8000,"station_id":"ce4bhi12rcd13ifvqfp0","pricing_plan_id":"cebpf4jnsgd1na2vs0mg"},{"bike_id":"d2dd2bd5-35c6-4cf8-86dc-87c4bf274249","system_id":"levelo_inurba_marseille","lat":43.24639,"lon":5.38898,"is_reserved":false,"is_disabled":false,"rental_uris":{"android":"levelo://app?vid=d2dd2bd5-35c6-4cf8-86dc-87c4bf274249","ios":"levelo://app?vid=d2dd2bd5-35c6-4cf8-86dc-87c4bf274249"},"vehicle_type_id":"4","last_reported":1769163276,"current_range_meters":8000,"station_id":"ce4bhg12rcd13ifvqf60","pricing_plan_id":"cebpf4jnsgd1na2vs0mg"},{"bike_id":"137c1aa3-375d-434c-b8ea-265f86139225","system_id":"levelo_inurba_marseille","lat":43.31328,"lon":5.36741,"is_reserved":false,"is_disabled":false,"rental_uris":{"android":"levelo://app?vid=137c1aa3-375d-434c-b8ea-265f86139225","ios":"levelo://app?vid=137c1aa3-375d-434c-b8ea-265f86139225"},"vehicle_type_id":"4","last_reported":1769163276,"current_range_meters":8000,"station_id":"ce4bgr92rcd13ifvqc6g","pricing_plan_id":"cebpf4jnsgd1na2vs0mg"},{"bike_id":"7a979796-e9e0-46a0-8894-e0515e90f174","system_id":"levelo_inurba_marseille","lat":43.27997,"lon":5.4003,"is_reserved":false,"is_disabled":true,"rental_uris":{"android":"levelo://app?vid=7a979796-e9e0-46a0-8894-e0515e90f174","ios":"levelo://app?vid=7a979796-e9e0-46a0-8894-e0515e90f174"},"vehicle_type_id":"4","last_reported":1769163276,"current_range_meters":8000,"station_id":"ce4bho92rcd13ifvqh4g","pricing_plan_id":"cebpf4jnsgd1na2vs0mg"},{"bike_id":"340e74fd-4574-4d28-832c-d7e6960bf37b","system_id":"levelo_inurba_marseille","lat":43.23152,"lon":5.43714,"is_reserved":false,"is_disabled":false,"rental_uris":{"android":"levelo://app?vid=340e74fd-4574-4d28-832c-d7e6960bf37b","ios":"levelo://app?vid=340e74fd-4574-4d28-832c-d7e6960bf37b"},"vehicle_type_id":"4","last_reported":1769163276,"current_range_meters":8000,"station_id":"ce4bhmp2rcd13ifvqgog","pricing_plan_id":"cebpf4jnsgd1na2vs0mg"},{"bike_id":"9b45898e-68f4-47fa-9e2a-d93357bd073d","system_id":"levelo_inurba_marseille","lat":43.24813,"lon":5.37468,"is_reserved":false,"is_disabled":false,"rental_uris":{"android":"levelo://app?vid=9b45898e-68f4-47fa-9e2a-d93357bd073d","ios":"levelo://app?vid=9b45898e-68f4-47fa-9e2a-d93357bd073d"},"vehicle_type_id":"4","last_reported":1769163276,"current_range_meters":8000,"station_id":"ce4bhgh2rcd13ifvqfb0","pricing_plan_id":"cebpf4jnsgd1na2vs0mg"},{"bike_id":"da005ffc-f532-4b5a-a329-d2fbdebb6e7d","system_id":"levelo_inurba_marseille","lat":43.316841,"lon":5.404759,"is_reserved":false,"is_disabled":false,"rental_uris":{"android":"levelo://app?vid=da005ffc-f532-4b5a-a329-d2fbdebb6e7d","ios":"levelo://app?vid=da005ffc-f532-4b5a-a329-d2fbdebb6e7d"},"vehicle_type_id":"4","last_reported":1769163276,"current_range_meters":8000,"station_id":"ce4bh012rcd13ifvqd00","pricing_plan_id":"cebpf4jnsgd1na2vs0mg"},{"bike_id":"5686f102-6cf5-4a18-9b33-fbef2e2cef12","system_id":"levelo_inurba_marseille","lat":43.23191,"lon":5.35569,"is_reserved":false,"is_disabled":false,"rental_uris":{"android":"levelo://app?vid=5686f102-6cf5-4a18-9b33-fbef2e2cef12","ios":"levelo://app?vid=5686f102-6cf5-4a18-9b33-fbef2e2cef12"},"vehicle_type_id":"4","last_reported":1769163276,"current_range_meters":8000,"station_id":"ce4bhu92rcd13ifvqi70","pricing_plan_id":"cebpf4jnsgd1na2vs0mg"},{"bike_id":"1e7abe68-0b2d-4caa-981c-28f05900369d","system_id":"levelo_inurba_marseille","lat":43.23144,"lon":5.43742,"is_reserved":false,"is_disabled":false,"rental_uris":{"android":"levelo://app?vid=1e7abe68-0b2d-4caa-981c-28f05900369d","ios":"levelo://app?vid=1e7abe68-0b2d-4caa-981c-28f05900369d"},"vehicle_type_id":"4","last_reported":1769163276,"current_range_meters":8000,"station_id":"ce4bhmp2rcd13ifvqgog","pricing_plan_id":"cebpf4jnsgd1na2vs0mg"},{"bike_id":"1ff74440-841e-45a3-baf5-283c5a4a84e4","system_id":"levelo_inurba_marseille","lat":43.30469,"lon":5.37909,"is_reserved":false,"is_disabled":false,"rental_uris":{"android":"levelo://app?vid=1ff74440-841e-45a3-baf5-283c5a4a84e4","ios":"levelo://app?vid=1ff74440-841e-45a3-baf5-283c5a4a84e4"},"vehicle_type_id":"4","last_reported":1769163276,"current_range_meters":8000,"station_id":"ce4bgup2rcd13ifvqcn0","pricing_plan_id":"cebpf4jnsgd1na2vs0mg"},{"bike_id":"bc61b31d-a59b-43b4-9147-44220082005b","system_id":"levelo_inurba_marseille","lat":43.30538,"lon":5.36714,"is_reserved":false,"is_disabled":false,"rental_uris":{"android":"levelo://app?vid=bc61b31d-a59b-43b4-9147-44220082005b","ios":"levelo://app?vid=bc61b31d-a59b-43b4-9147-44220082005b"},"vehicle_type_id":"4","last_reported":1769163276,"current_range_meters":8000,"station_id":"ce4bgrp2rcd13ifvqc9g","pricing_plan_id":"cebpf4jnsgd1na2vs0mg"},{"bike_id":"d8368424-7a2e-4ab4-b75d-24eb5c1743cf","system_id":"levelo_inurba_marseille","lat":43.305287,"lon":5.36711,"is_reserved":false,"is_disabled":false,"rental_uris":{"android":"levelo://app?vid=d8368424-7a2e-4ab4-b75d-24eb5c1743cf","ios":"levelo://app?vid=d8368424-7a2e-4ab4-b75d-24eb5c1743cf"},"vehicle_type_id":"4","last_reported":1769163276,"current_range_meters":8000,"station_id":"ce4bgrp2rcd13ifvqc9g","pricing_plan_id":"cebpf4jnsgd1na2vs0mg"},{"bike_id":"5560fc7f-1e40-4887-b56f-d8792953a489","system_id":"levelo_inurba_marseille","lat":43.24167,"lon":5.3638,"is_reserved":false,"is_disabled":false,"rental_uris":{"android":"levelo://app?vid=5560fc7f-1e40-4887-b56f-d8792953a489","ios":"levelo://app?vid=5560fc7f-1e40-4887-b56f-d8792953a489"},"vehicle_type_id":"4","last_reported":1769163276,"current_range_meters":8000,"station_id":"cpo36qri1sfpv3e86is0","pricing_plan_id":"cebpf4jnsgd1na2vs0mg"},{"bike_id":"da85d8cc-4ec4-4e63-94c2-beb7bedb5c3f","system_id":"levelo_inurba_marseille","lat":43.29158,"lon":5.40053,"is_reserved":false,"is_disabled":false,"rental_uris":{"android":"levelo://app?vid=da85d8cc-4ec4-4e63-94c2-beb7bedb5c3f","ios":"levelo://app?vid=da85d8cc-4ec4-4e63-94c2-beb7bedb5c3f"},"vehicle_type_id":"4","last_reported":1769163276,"current_range_meters":8000,"station_id":"","pricing_plan_id":"cebpf4jnsgd1na2vs0mg"},{"bike_id":"d5979a98-94ba-4609-af07-e02fe23bf3bc","system_id":"levelo_inurba_marseille","lat":43.22547,"lon":5.41646,"is_reserved":false,"is_disabled":false,"rental_uris":{"android":"levelo://app?vid=d5979a98-94ba-4609-af07-e02fe23bf3bc","ios":"levelo://app?vid=d5979a98-94ba-4609-af07-e02fe23bf3bc"},"vehicle_type_id":"4","last_reported":1769163276,"current_range_meters":8000,"station_id":"st_d2o4gvlbi1j2169b742g","pricing_plan_id":"cebpf4jnsgd1na2vs0mg"},{"bike_id":"d3746757-64c0-4deb-8ffa-a59c72b048ff","system_id":"levelo_inurba_marseille","lat":43.29692,"lon":5.37329,"is_reserved":false,"is_disabled":false,"rental_uris":{"android":"levelo://app?vid=d3746757-64c0-4deb-8ffa-a59c72b048ff","ios":"levelo://app?vid=d3746757-64c0-4deb-8ffa-a59c72b048ff"},"vehicle_type_id":"4","last_reported":1769163276,"current_range_meters":8000,"station_id":"ce4bgk12rcd13ifvqbj0","pricing_plan_id":"cebpf4jnsgd1na2vs0mg"},{"bike_id":"d5114b0e-545c-482c-80e9-252195b2aef5","system_id":"levelo_inurba_marseille","lat":43.29252,"lon":5.38451,"is_reserved":false,"is_disabled":false,"rental_uris":{"android":"levelo://app?vid=d5114b0e-545c-482c-80e9-252195b2aef5","ios":"levelo://app?vid=d5114b0e-545c-482c-80e9-252195b2aef5"},"vehicle_type_id":"4","last_reported":1769163276,"current_range_meters":8000,"station_id":"ce4bh692rcd13ifvqea0","pricing_plan_id":"cebpf4jnsgd1na2vs0mg"},{"bike_id":"bad75388-e421-4a71-a9aa-cd2865663d67","system_id":"levelo_inurba_marseille","lat":43.32084,"lon":5.36809,"is_reserved":false,"is_disabled":false,"rental_uris":{"android":"levelo://app?vid=bad75388-e421-4a71-a9aa-cd2865663d67","ios":"levelo://app?vid=bad75388-e421-4a71-a9aa-cd2865663d67"},"vehicle_type_id":"4","last_reported":1769163276,"current_range_meters":8000,"station_id":"ce4bhrh2rcd13ifvqhug","pricing_plan_id":"cebpf4jnsgd1na2vs0mg"},{"bike_id":"722919f1-e164-467f-a946-cfaa35a85b10","system_id":"levelo_inurba_marseille","lat":43.27322,"lon":5.39087,"is_reserved":false,"is_disabled":false,"rental_uris":{"android":"levelo://app?vid=722919f1-e164-467f-a946-cfaa35a85b10","ios":"levelo://app?vid=722919f1-e164-467f-a946-cfaa35a85b10"},"vehicle_type_id":"4","last_reported":1769163276,"current_range_meters":8000,"station_id":"ce4bhgp2rcd13ifvqfe0","pricing_plan_id":"cebpf4jnsgd1na2vs0mg"},{"bike_id":"884f0875-38ce-48cc-9261-deeb0db0e66a","system_id":"levelo_inurba_marseille","lat":43.30893,"lon":5.37313,"is_reserved":false,"is_disabled":false,"rental_uris":{"android":"levelo://app?vid=884f0875-38ce-48cc-9261-deeb0db0e66a","ios":"levelo://app?vid=884f0875-38ce-48cc-9261-deeb0db0e66a"},"vehicle_type_id":"4","last_reported":1769163276,"current_range_meters":8000,"station_id":"","pricing_plan_id":"cebpf4jnsgd1na2vs0mg"},{"bike_id":"10d81607-b2c6-4f43-9034-1dd057977b39","system_id":"levelo_inurba_marseille","lat":43.24225,"lon":5.39701,"is_reserved":false,"is_disabled":false,"rental_uris":{"android":"levelo://app?vid=10d81607-b2c6-4f43-9034-1dd057977b39","ios":"levelo://app?vid=10d81607-b2c6-4f43-9034-1dd057977b39"},"vehicle_type_id":"4","last_reported":1769163276,"current_range_meters":8000,"station_id":"","pricing_plan_id":"cebpf4jnsgd1na2vs0mg"},{"bike_id":"6e2304c6-b50a-4c52-8ed0-0442d05fbbbe","system_id":"levelo_inurba_marseille","lat":43.29264,"lon":5.38436,"is_reserved":false,"is_disabled":false,"rental_uris":{"android":"levelo://app?vid=6e2304c6-b50a-4c52-8ed0-0442d05fbbbe","ios":"levelo://app?vid=6e2304c6-b50a-4c52-8ed0-0442d05fbbbe"},"vehicle_type_id":"4","last_reported":1769163276,"current_range_meters":8000,"station_id":"ce4bh692rcd13ifvqea0","pricing_plan_id":"cebpf4jnsgd1na2vs0mg"},{"bike_id":"ef3add8b-2c6e-4af9-92db-e40b97e61184","system_id":"levelo_inurba_marseille","lat":43.31525,"lon":5.38064,"is_reserved":false,"is_disabled":true,"rental_uris":{"android":"levelo://app?vid=ef3add8b-2c6e-4af9-92db-e40b97e61184","ios":"levelo://app?vid=ef3add8b-2c6e-4af9-92db-e40b97e61184"},"vehicle_type_id":"4","last_reported":1769163276,"current_range_meters":8400,"station_id":"ce4bhsp2rcd13ifvqi50","pricing_plan_id":"cebpf4jnsgd1na2vs0mg"},{"bike_id":"bcbc77f3-fa29-45ed-907c-082f61672a43","system_id":"levelo_inurba_marseille","lat":43.29758,"lon":5.42791,"is_reserved":false,"is_disabled":true,"rental_uris":{"android":"levelo://app?vid=bcbc77f3-fa29-45ed-907c-082f61672a43","ios":"levelo://app?vid=bcbc77f3-fa29-45ed-907c-082f61672a43"},"vehicle_type_id":"4","last_reported":1769163276,"current_range_meters":8400,"station_id":"st_d3md5207bmas73dh9klg","pricing_plan_id":"cebpf4jnsgd1na2vs0mg"},{"bike_id":"7423d516-da5c-4b79-9263-bcad22b3ff84","system_id":"levelo_inurba_marseille","lat":43.30161,"lon":5.38093,"is_reserved":false,"is_disabled":false,"rental_uris":{"android":"levelo://app?vid=7423d516-da5c-4b79-9263-bcad22b3ff84","ios":"levelo://app?vid=7423d516-da5c-4b79-9263-bcad22b3ff84"},"vehicle_type_id":"4","last_reported":1769163276,"current_range_meters":8400,"station_id":"ce4bgjp2rcd13ifvqbh0","pricing_plan_id":"cebpf4jnsgd1na2vs0mg"},{"bike_id":"2ed63fba-cb91-4f97-8bd0-a7d22dfd80c3","system_id":"levelo_inurba_marseille","lat":43.28926,"lon":5.36644,"is_reserved":false,"is_disabled":false,"rental_uris":{"android":"levelo://app?vid=2ed63fba-cb91-4f97-8bd0-a7d22dfd80c3","ios":"levelo://app?vid=2ed63fba-cb91-4f97-8bd0-a7d22dfd80c3"},"vehicle_type_id":"4","last_reported":1769163276,"current_range_meters":8400,"station_id":"ce4bhap2rcd13ifvqek0","pricing_plan_id":"cebpf4jnsgd1na2vs0mg"},{"bike_id":"ee1097c7-66cb-4cde-affa-a4b0a3128b81","system_id":"levelo_inurba_marseille","lat":43.284454,"lon":5.371769,"is_reserved":false,"is_disabled":false,"rental_uris":{"android":"levelo://app?vid=ee1097c7-66cb-4cde-affa-a4b0a3128b81","ios":"levelo://app?vid=ee1097c7-66cb-4cde-affa-a4b0a3128b81"},"vehicle_type_id":"4","last_reported":1769163276,"current_range_meters":8400,"station_id":"","pricing_plan_id":"cebpf4jnsgd1na2vs0mg"},{"bike_id":"7e40f92b-af7d-4c04-a6b2-c7fb67c9c6fb","system_id":"levelo_inurba_marseille","lat":43.274845,"lon":5.424643,"is_reserved":false,"is_disabled":false,"rental_uris":{"android":"levelo://app?vid=7e40f92b-af7d-4c04-a6b2-c7fb67c9c6fb","ios":"levelo://app?vid=7e40f92b-af7d-4c04-a6b2-c7fb67c9c6fb"},"vehicle_type_id":"4","last_reported":1769163276,"current_range_meters":8400,"station_id":"ce4bhn92rcd13ifvqgrg","pricing_plan_id":"cebpf4jnsgd1na2vs0mg"},{"bike_id":"a59677c2-732e-4af6-82bc-b80db91e4468","system_id":"levelo_inurba_marseille","lat":43.24538,"lon":5.3954,"is_reserved":false,"is_disabled":false,"rental_uris":{"android":"levelo://app?vid=a59677c2-732e-4af6-82bc-b80db91e4468","ios":"levelo://app?vid=a59677c2-732e-4af6-82bc-b80db91e4468"},"vehicle_type_id":"4","last_reported":1769163276,"current_range_meters":8400,"station_id":"ce4bhlp2rcd13ifvqgjg","pricing_plan_id":"cebpf4jnsgd1na2vs0mg"},{"bike_id":"d1248e4b-c241-4185-9668-62cef44fb4ea","system_id":"levelo_inurba_marseille","lat":43.32381,"lon":5.36754,"is_reserved":false,"is_disabled":false,"rental_uris":{"android":"levelo://app?vid=d1248e4b-c241-4185-9668-62cef44fb4ea","ios":"levelo://app?vid=d1248e4b-c241-4185-9668-62cef44fb4ea"},"vehicle_type_id":"4","last_reported":1769163276,"current_range_meters":8400,"station_id":"ce4bhsh2rcd13ifvqi2g","pricing_plan_id":"cebpf4jnsgd1na2vs0mg"},{"bike_id":"41b6079d-4cdc-43c3-992c-83a2df77a11e","system_id":"levelo_inurba_marseille","lat":43.30529,"lon":5.38429,"is_reserved":false,"is_disabled":false,"rental_uris":{"android":"levelo://app?vid=41b6079d-4cdc-43c3-992c-83a2df77a11e","ios":"levelo://app?vid=41b6079d-4cdc-43c3-992c-83a2df77a11e"},"vehicle_type_id":"4","last_reported":1769163276,"current_range_meters":8400,"station_id":"ce4bgg92rcd13ifvqb30","pricing_plan_id":"cebpf4jnsgd1na2vs0mg"},{"bike_id":"f72efe51-12d3-4c91-8eb1-b0d276f7cb47","system_id":"levelo_inurba_marseille","lat":43.248016,"lon":5.374629,"is_reserved":false,"is_disabled":false,"rental_uris":{"android":"levelo://app?vid=f72efe51-12d3-4c91-8eb1-b0d276f7cb47","ios":"levelo://app?vid=f72efe51-12d3-4c91-8eb1-b0d276f7cb47"},"vehicle_type_id":"4","last_reported":1769163276,"current_range_meters":8400,"station_id":"ce4bhgh2rcd13ifvqfb0","pricing_plan_id":"cebpf4jnsgd1na2vs0mg"},{"bike_id":"6282d9a7-88b7-444d-a3bd-050bf586be70","system_id":"levelo_inurba_marseille","lat":43.29681,"lon":5.37315,"is_reserved":false,"is_disabled":false,"rental_uris":{"android":"levelo://app?vid=6282d9a7-88b7-444d-a3bd-050bf586be70","ios":"levelo://app?vid=6282d9a7-88b7-444d-a3bd-050bf586be70"},"vehicle_type_id":"4","last_reported":1769163276,"current_range_meters":8400,"station_id":"ce4bgk12rcd13ifvqbj0","pricing_plan_id":"cebpf4jnsgd1na2vs0mg"},{"bike_id":"83cfc6fc-818a-4d29-b877-3fdba22e0a51","system_id":"levelo_inurba_marseille","lat":43.30537,"lon":5.36711,"is_reserved":false,"is_disabled":false,"rental_uris":{"android":"levelo://app?vid=83cfc6fc-818a-4d29-b877-3fdba22e0a51","ios":"levelo://app?vid=83cfc6fc-818a-4d29-b877-3fdba22e0a51"},"vehicle_type_id":"4","last_reported":1769163276,"current_range_meters":8400,"station_id":"ce4bgrp2rcd13ifvqc9g","pricing_plan_id":"cebpf4jnsgd1na2vs0mg"},{"bike_id":"04df064f-6595-4d9c-a76e-ac9b3521f389","system_id":"levelo_inurba_marseille","lat":43.24652,"lon":5.38896,"is_reserved":false,"is_disabled":false,"rental_uris":{"android":"levelo://app?vid=04df064f-6595-4d9c-a76e-ac9b3521f389","ios":"levelo://app?vid=04df064f-6595-4d9c-a76e-ac9b3521f389"},"vehicle_type_id":"4","last_reported":1769163276,"current_range_meters":8400,"station_id":"ce4bhg12rcd13ifvqf60","pricing_plan_id":"cebpf4jnsgd1na2vs0mg"},{"bike_id":"02e7a81c-add2-44fa-966b-2d696b46b0f6","system_id":"levelo_inurba_marseille","lat":43.29485,"lon":5.3738,"is_reserved":false,"is_disabled":false,"rental_uris":{"android":"levelo://app?vid=02e7a81c-add2-44fa-966b-2d696b46b0f6","ios":"levelo://app?vid=02e7a81c-add2-44fa-966b-2d696b46b0f6"},"vehicle_type_id":"4","last_reported":1769163276,"current_range_meters":8400,"station_id":"","pricing_plan_id":"cebpf4jnsgd1na2vs0mg"},{"bike_id":"731e3c39-4cfc-47aa-926e-d6f514d68010","system_id":"levelo_inurba_marseille","lat":43.22575,"lon":5.41633,"is_reserved":false,"is_disabled":false,"rental_uris":{"android":"levelo://app?vid=731e3c39-4cfc-47aa-926e-d6f514d68010","ios":"levelo://app?vid=731e3c39-4cfc-47aa-926e-d6f514d68010"},"vehicle_type_id":"4","last_reported":1769163276,"current_range_meters":8800,"station_id":"st_d2o4gvlbi1j2169b742g","pricing_plan_id":"cebpf4jnsgd1na2vs0mg"},{"bike_id":"5c6da10b-38e9-4dc2-819a-b9596fb94c5b","system_id":"levelo_inurba_marseille","lat":43.26194,"lon":5.37471,"is_reserved":false,"is_disabled":false,"rental_uris":{"android":"levelo://app?vid=5c6da10b-38e9-4dc2-819a-b9596fb94c5b","ios":"levelo://app?vid=5c6da10b-38e9-4dc2-819a-b9596fb94c5b"},"vehicle_type_id":"4","last_reported":1769163276,"current_range_meters":8800,"station_id":"ce4bhgp2rcd13ifvqfc0","pricing_plan_id":"cebpf4jnsgd1na2vs0mg"},{"bike_id":"9610a3a8-a0cb-4f50-91d5-011de8a06a00","system_id":"levelo_inurba_marseille","lat":43.32105,"lon":5.36772,"is_reserved":false,"is_disabled":false,"rental_uris":{"android":"levelo://app?vid=9610a3a8-a0cb-4f50-91d5-011de8a06a00","ios":"levelo://app?vid=9610a3a8-a0cb-4f50-91d5-011de8a06a00"},"vehicle_type_id":"4","last_reported":1769163276,"current_range_meters":8800,"station_id":"ce4bhrh2rcd13ifvqhug","pricing_plan_id":"cebpf4jnsgd1na2vs0mg"},{"bike_id":"078c9eab-27b6-460e-a26e-8ce7fa01f3b7","system_id":"levelo_inurba_marseille","lat":43.28704,"lon":5.3794,"is_reserved":false,"is_disabled":false,"rental_uris":{"android":"levelo://app?vid=078c9eab-27b6-460e-a26e-8ce7fa01f3b7","ios":"levelo://app?vid=078c9eab-27b6-460e-a26e-8ce7fa01f3b7"},"vehicle_type_id":"4","last_reported":1769163276,"current_range_meters":8800,"station_id":"ce4bh9p2rcd13ifvqec0","pricing_plan_id":"cebpf4jnsgd1na2vs0mg"},{"bike_id":"0b64e895-792b-4498-9172-5f40249c5668","system_id":"levelo_inurba_marseille","lat":43.26059,"lon":5.39408,"is_reserved":false,"is_disabled":false,"rental_uris":{"android":"levelo://app?vid=0b64e895-792b-4498-9172-5f40249c5668","ios":"levelo://app?vid=0b64e895-792b-4498-9172-5f40249c5668"},"vehicle_type_id":"4","last_reported":1769163276,"current_range_meters":8800,"station_id":"ce4bhh92rcd13ifvqfj0","pricing_plan_id":"cebpf4jnsgd1na2vs0mg"},{"bike_id":"43cb1635-bf0a-4d05-ad30-12a30803fa78","system_id":"levelo_inurba_marseille","lat":43.25591,"lon":5.38263,"is_reserved":false,"is_disabled":false,"rental_uris":{"android":"levelo://app?vid=43cb1635-bf0a-4d05-ad30-12a30803fa78","ios":"levelo://app?vid=43cb1635-bf0a-4d05-ad30-12a30803fa78"},"vehicle_type_id":"4","last_reported":1769163276,"current_range_meters":8800,"station_id":"ce4bhih2rcd13ifvqfs0","pricing_plan_id":"cebpf4jnsgd1na2vs0mg"},{"bike_id":"15ce2f7b-e27b-4b73-b1d7-521910c86f00","system_id":"levelo_inurba_marseille","lat":43.2848,"lon":5.48387,"is_reserved":false,"is_disabled":false,"rental_uris":{"android":"levelo://app?vid=15ce2f7b-e27b-4b73-b1d7-521910c86f00","ios":"levelo://app?vid=15ce2f7b-e27b-4b73-b1d7-521910c86f00"},"vehicle_type_id":"4","last_reported":1769163276,"current_range_meters":8800,"station_id":"st_d3svhcjqgbts73a3dn0g","pricing_plan_id":"cebpf4jnsgd1na2vs0mg"},{"bike_id":"793cad09-3542-49b7-8e67-feb699f928ab","system_id":"levelo_inurba_marseille","lat":43.29144,"lon":5.40051,"is_reserved":false,"is_disabled":false,"rental_uris":{"android":"levelo://app?vid=793cad09-3542-49b7-8e67-feb699f928ab","ios":"levelo://app?vid=793cad09-3542-49b7-8e67-feb699f928ab"},"vehicle_type_id":"4","last_reported":1769163276,"current_range_meters":8800,"station_id":"","pricing_plan_id":"cebpf4jnsgd1na2vs0mg"},{"bike_id":"c9389fd4-af01-4458-ab7b-0fb1fe06acd7","system_id":"levelo_inurba_marseille","lat":43.231511,"lon":5.437153,"is_reserved":false,"is_disabled":false,"rental_uris":{"android":"levelo://app?vid=c9389fd4-af01-4458-ab7b-0fb1fe06acd7","ios":"levelo://app?vid=c9389fd4-af01-4458-ab7b-0fb1fe06acd7"},"vehicle_type_id":"4","last_reported":1769163276,"current_range_meters":8800,"station_id":"ce4bhmp2rcd13ifvqgog","pricing_plan_id":"cebpf4jnsgd1na2vs0mg"},{"bike_id":"5227aa2c-fa57-4eba-94c4-cd0fb65fdf6e","system_id":"levelo_inurba_marseille","lat":43.30163,"lon":5.38088,"is_reserved":false,"is_disabled":false,"rental_uris":{"android":"levelo://app?vid=5227aa2c-fa57-4eba-94c4-cd0fb65fdf6e","ios":"levelo://app?vid=5227aa2c-fa57-4eba-94c4-cd0fb65fdf6e"},"vehicle_type_id":"4","last_reported":1769163276,"current_range_meters":8800,"station_id":"ce4bgjp2rcd13ifvqbh0","pricing_plan_id":"cebpf4jnsgd1na2vs0mg"},{"bike_id":"f237424f-2c97-487e-af8e-a2be2887f717","system_id":"levelo_inurba_marseille","lat":43.28936,"lon":5.36638,"is_reserved":false,"is_disabled":false,"rental_uris":{"android":"levelo://app?vid=f237424f-2c97-487e-af8e-a2be2887f717","ios":"levelo://app?vid=f237424f-2c97-487e-af8e-a2be2887f717"},"vehicle_type_id":"4","last_reported":1769163276,"current_range_meters":8800,"station_id":"ce4bhap2rcd13ifvqek0","pricing_plan_id":"cebpf4jnsgd1na2vs0mg"},{"bike_id":"fb4d7d53-4086-4377-a8e7-2904bb3a04eb","system_id":"levelo_inurba_marseille","lat":43.30308,"lon":5.36888,"is_reserved":false,"is_disabled":false,"rental_uris":{"android":"levelo://app?vid=fb4d7d53-4086-4377-a8e7-2904bb3a04eb","ios":"levelo://app?vid=fb4d7d53-4086-4377-a8e7-2904bb3a04eb"},"vehicle_type_id":"4","last_reported":1769163276,"current_range_meters":8800,"station_id":"ce4bgqh2rcd13ifvqc5g","pricing_plan_id":"cebpf4jnsgd1na2vs0mg"},{"bike_id":"17669b47-9100-4319-b70b-7d4875adf193","system_id":"levelo_inurba_marseille","lat":43.29756,"lon":5.42785,"is_reserved":false,"is_disabled":false,"rental_uris":{"android":"levelo://app?vid=17669b47-9100-4319-b70b-7d4875adf193","ios":"levelo://app?vid=17669b47-9100-4319-b70b-7d4875adf193"},"vehicle_type_id":"4","last_reported":1769163276,"current_range_meters":8800,"station_id":"st_d3md5207bmas73dh9klg","pricing_plan_id":"cebpf4jnsgd1na2vs0mg"},{"bike_id":"ddb744dc-0e68-480f-91b2-075fe1c80917","system_id":"levelo_inurba_marseille","lat":43.30316,"lon":5.36883,"is_reserved":false,"is_disabled":false,"rental_uris":{"android":"levelo://app?vid=ddb744dc-0e68-480f-91b2-075fe1c80917","ios":"levelo://app?vid=ddb744dc-0e68-480f-91b2-075fe1c80917"},"vehicle_type_id":"4","last_reported":1769163276,"current_range_meters":8800,"station_id":"ce4bgqh2rcd13ifvqc5g","pricing_plan_id":"cebpf4jnsgd1na2vs0mg"},{"bike_id":"8750ab90-342c-4b21-9046-287ee13df746","system_id":"levelo_inurba_marseille","lat":43.32368,"lon":5.36727,"is_reserved":false,"is_disabled":false,"rental_uris":{"android":"levelo://app?vid=8750ab90-342c-4b21-9046-287ee13df746","ios":"levelo://app?vid=8750ab90-342c-4b21-9046-287ee13df746"},"vehicle_type_id":"4","last_reported":1769163276,"current_range_meters":8800,"station_id":"ce4bhsh2rcd13ifvqi2g","pricing_plan_id":"cebpf4jnsgd1na2vs0mg"},{"bike_id":"0e7c9739-7c0b-462d-b69e-90718e9a5775","system_id":"levelo_inurba_marseille","lat":43.2661,"lon":5.37294,"is_reserved":false,"is_disabled":false,"rental_uris":{"android":"levelo://app?vid=0e7c9739-7c0b-462d-b69e-90718e9a5775","ios":"levelo://app?vid=0e7c9739-7c0b-462d-b69e-90718e9a5775"},"vehicle_type_id":"4","last_reported":1769163276,"current_range_meters":9200,"station_id":"ce4bhg12rcd13ifvqf70","pricing_plan_id":"cebpf4jnsgd1na2vs0mg"},{"bike_id":"e48b0243-245b-4bd6-9fa4-3379ed23e52f","system_id":"levelo_inurba_marseille","lat":43.27217,"lon":5.39196,"is_reserved":false,"is_disabled":false,"rental_uris":{"android":"levelo://app?vid=e48b0243-245b-4bd6-9fa4-3379ed23e52f","ios":"levelo://app?vid=e48b0243-245b-4bd6-9fa4-3379ed23e52f"},"vehicle_type_id":"4","last_reported":1769163276,"current_range_meters":9200,"station_id":"ce4bhhp2rcd13ifvqfm0","pricing_plan_id":"cebpf4jnsgd1na2vs0mg"},{"bike_id":"16bac1b9-8c78-40e2-a2a0-840ef0df37e4","system_id":"levelo_inurba_marseille","lat":43.29273,"lon":5.36851,"is_reserved":false,"is_disabled":false,"rental_uris":{"android":"levelo://app?vid=16bac1b9-8c78-40e2-a2a0-840ef0df37e4","ios":"levelo://app?vid=16bac1b9-8c78-40e2-a2a0-840ef0df37e4"},"vehicle_type_id":"4","last_reported":1769163276,"current_range_meters":9200,"station_id":"ce4bhbp2rcd13ifvqesg","pricing_plan_id":"cebpf4jnsgd1na2vs0mg"},{"bike_id":"68b37f36-cf3a-478d-b797-11563aaa1e5e","system_id":"levelo_inurba_marseille","lat":43.29982,"lon":5.3718,"is_reserved":false,"is_disabled":false,"rental_uris":{"android":"levelo://app?vid=68b37f36-cf3a-478d-b797-11563aaa1e5e","ios":"levelo://app?vid=68b37f36-cf3a-478d-b797-11563aaa1e5e"},"vehicle_type_id":"4","last_reported":1769163276,"current_range_meters":9200,"station_id":"ce4bgr92rcd13ifvqc7g","pricing_plan_id":"cebpf4jnsgd1na2vs0mg"},{"bike_id":"6ea28498-46da-4e65-a2e6-c34934b1d61c","system_id":"levelo_inurba_marseille","lat":43.29595,"lon":5.38101,"is_reserved":false,"is_disabled":false,"rental_uris":{"android":"levelo://app?vid=6ea28498-46da-4e65-a2e6-c34934b1d61c","ios":"levelo://app?vid=6ea28498-46da-4e65-a2e6-c34934b1d61c"},"vehicle_type_id":"4","last_reported":1769163276,"current_range_meters":9200,"station_id":"ce4bgl12rcd13ifvqbo0","pricing_plan_id":"cebpf4jnsgd1na2vs0mg"},{"bike_id":"46f75794-75d1-4ef5-98be-9fe9801b2e3c","system_id":"levelo_inurba_marseille","lat":43.31374,"lon":5.36685,"is_reserved":false,"is_disabled":false,"rental_uris":{"android":"levelo://app?vid=46f75794-75d1-4ef5-98be-9fe9801b2e3c","ios":"levelo://app?vid=46f75794-75d1-4ef5-98be-9fe9801b2e3c"},"vehicle_type_id":"4","last_reported":1769163276,"current_range_meters":9200,"station_id":"ce4bgr92rcd13ifvqc6g","pricing_plan_id":"cebpf4jnsgd1na2vs0mg"},{"bike_id":"640121a6-98f3-4df3-8ec4-d218eca026e4","system_id":"levelo_inurba_marseille","lat":43.24164,"lon":5.36419,"is_reserved":false,"is_disabled":false,"rental_uris":{"android":"levelo://app?vid=640121a6-98f3-4df3-8ec4-d218eca026e4","ios":"levelo://app?vid=640121a6-98f3-4df3-8ec4-d218eca026e4"},"vehicle_type_id":"4","last_reported":1769163276,"current_range_meters":9200,"station_id":"cpo36qri1sfpv3e86is0","pricing_plan_id":"cebpf4jnsgd1na2vs0mg"},{"bike_id":"98dea6ea-b7af-4e6b-9660-eb2e4071f25d","system_id":"levelo_inurba_marseille","lat":43.28739,"lon":5.40017,"is_reserved":false,"is_disabled":false,"rental_uris":{"android":"levelo://app?vid=98dea6ea-b7af-4e6b-9660-eb2e4071f25d","ios":"levelo://app?vid=98dea6ea-b7af-4e6b-9660-eb2e4071f25d"},"vehicle_type_id":"4","last_reported":1769163276,"current_range_meters":9200,"station_id":"ce4bho92rcd13ifvqh3g","pricing_plan_id":"cebpf4jnsgd1na2vs0mg"},{"bike_id":"42258f14-4722-4aac-b949-245a1ef55bb3","system_id":"levelo_inurba_marseille","lat":43.22942,"lon":5.35376,"is_reserved":false,"is_disabled":false,"rental_uris":{"android":"levelo://app?vid=42258f14-4722-4aac-b949-245a1ef55bb3","ios":"levelo://app?vid=42258f14-4722-4aac-b949-245a1ef55bb3"},"vehicle_type_id":"4","last_reported":1769163276,"current_range_meters":9200,"station_id":"cpo3532slgdg3j2ikp40","pricing_plan_id":"cebpf4jnsgd1na2vs0mg"},{"bike_id":"8b3cd425-bcfd-4e98-97ed-9364c3ab1a83","system_id":"levelo_inurba_marseille","lat":43.32513,"lon":5.39556,"is_reserved":false,"is_disabled":false,"rental_uris":{"android":"levelo://app?vid=8b3cd425-bcfd-4e98-97ed-9364c3ab1a83","ios":"levelo://app?vid=8b3cd425-bcfd-4e98-97ed-9364c3ab1a83"},"vehicle_type_id":"4","last_reported":1769163276,"current_range_meters":9200,"station_id":"","pricing_plan_id":"cebpf4jnsgd1na2vs0mg"},{"bike_id":"b147dd6d-64e5-4e1d-a67d-e4c30841ca44","system_id":"levelo_inurba_marseille","lat":43.26578,"lon":5.39037,"is_reserved":false,"is_disabled":false,"rental_uris":{"android":"levelo://app?vid=b147dd6d-64e5-4e1d-a67d-e4c30841ca44","ios":"levelo://app?vid=b147dd6d-64e5-4e1d-a67d-e4c30841ca44"},"vehicle_type_id":"4","last_reported":1769163276,"current_range_meters":9200,"station_id":"ce4bhe12rcd13ifvqf30","pricing_plan_id":"cebpf4jnsgd1na2vs0mg"},{"bike_id":"fb30118e-3aaa-4f7f-a8cd-64975e058af9","system_id":"levelo_inurba_marseille","lat":43.2926,"lon":5.38439,"is_reserved":false,"is_disabled":false,"rental_uris":{"android":"levelo://app?vid=fb30118e-3aaa-4f7f-a8cd-64975e058af9","ios":"levelo://app?vid=fb30118e-3aaa-4f7f-a8cd-64975e058af9"},"vehicle_type_id":"4","last_reported":1769163276,"current_range_meters":9200,"station_id":"ce4bh692rcd13ifvqea0","pricing_plan_id":"cebpf4jnsgd1na2vs0mg"},{"bike_id":"dd178b0d-57a2-42e1-8a69-79f640f4f2cc","system_id":"levelo_inurba_marseille","lat":43.33385,"lon":5.39433,"is_reserved":false,"is_disabled":false,"rental_uris":{"android":"levelo://app?vid=dd178b0d-57a2-42e1-8a69-79f640f4f2cc","ios":"levelo://app?vid=dd178b0d-57a2-42e1-8a69-79f640f4f2cc"},"vehicle_type_id":"4","last_reported":1769163276,"current_range_meters":9200,"station_id":"","pricing_plan_id":"cebpf4jnsgd1na2vs0mg"},{"bike_id":"7434e6a0-6ed5-4336-b73f-81756290d548","system_id":"levelo_inurba_marseille","lat":43.29305,"lon":5.3746,"is_reserved":false,"is_disabled":false,"rental_uris":{"android":"levelo://app?vid=7434e6a0-6ed5-4336-b73f-81756290d548","ios":"levelo://app?vid=7434e6a0-6ed5-4336-b73f-81756290d548"},"vehicle_type_id":"4","last_reported":1769163276,"current_range_meters":9200,"station_id":"ce4bgi12rcd13ifvqb70","pricing_plan_id":"cebpf4jnsgd1na2vs0mg"},{"bike_id":"3fd603c4-6e35-4017-a90c-25d398c36f9b","system_id":"levelo_inurba_marseille","lat":43.312,"lon":5.36856,"is_reserved":false,"is_disabled":false,"rental_uris":{"android":"levelo://app?vid=3fd603c4-6e35-4017-a90c-25d398c36f9b","ios":"levelo://app?vid=3fd603c4-6e35-4017-a90c-25d398c36f9b"},"vehicle_type_id":"4","last_reported":1769163276,"current_range_meters":9200,"station_id":"ce4bgl92rcd13ifvqbq0","pricing_plan_id":"cebpf4jnsgd1na2vs0mg"},{"bike_id":"df48ff42-f262-45fd-870e-875d13fd81e4","system_id":"levelo_inurba_marseille","lat":43.26576,"lon":5.39028,"is_reserved":false,"is_disabled":false,"rental_uris":{"android":"levelo://app?vid=df48ff42-f262-45fd-870e-875d13fd81e4","ios":"levelo://app?vid=df48ff42-f262-45fd-870e-875d13fd81e4"},"vehicle_type_id":"4","last_reported":1769163276,"current_range_meters":9200,"station_id":"ce4bhe12rcd13ifvqf30","pricing_plan_id":"cebpf4jnsgd1na2vs0mg"},{"bike_id":"2e2ce66a-3f89-4c21-a9df-34056a5a5860","system_id":"levelo_inurba_marseille","lat":43.22552,"lon":5.41627,"is_reserved":false,"is_disabled":false,"rental_uris":{"android":"levelo://app?vid=2e2ce66a-3f89-4c21-a9df-34056a5a5860","ios":"levelo://app?vid=2e2ce66a-3f89-4c21-a9df-34056a5a5860"},"vehicle_type_id":"4","last_reported":1769163276,"current_range_meters":9200,"station_id":"st_d2o4gvlbi1j2169b742g","pricing_plan_id":"cebpf4jnsgd1na2vs0mg"},{"bike_id":"31435c69-25b9-4ce8-9ee2-a00fda9647a2","system_id":"levelo_inurba_marseille","lat":43.30448,"lon":5.3792,"is_reserved":false,"is_disabled":false,"rental_uris":{"android":"levelo://app?vid=31435c69-25b9-4ce8-9ee2-a00fda9647a2","ios":"levelo://app?vid=31435c69-25b9-4ce8-9ee2-a00fda9647a2"},"vehicle_type_id":"4","last_reported":1769163276,"current_range_meters":9600,"station_id":"ce4bgup2rcd13ifvqcn0","pricing_plan_id":"cebpf4jnsgd1na2vs0mg"},{"bike_id":"e4c4f5dd-c80d-4d75-801c-35c973416425","system_id":"levelo_inurba_marseille","lat":43.26674,"lon":5.37103,"is_reserved":false,"is_disabled":false,"rental_uris":{"android":"levelo://app?vid=e4c4f5dd-c80d-4d75-801c-35c973416425","ios":"levelo://app?vid=e4c4f5dd-c80d-4d75-801c-35c973416425"},"vehicle_type_id":"4","last_reported":1769163276,"current_range_meters":9600,"station_id":"ce4bhg12rcd13ifvqf70","pricing_plan_id":"cebpf4jnsgd1na2vs0mg"},{"bike_id":"10c585ec-0d69-49bc-a403-a71e7446105a","system_id":"levelo_inurba_marseille","lat":43.249192,"lon":5.397192,"is_reserved":false,"is_disabled":false,"rental_uris":{"android":"levelo://app?vid=10c585ec-0d69-49bc-a403-a71e7446105a","ios":"levelo://app?vid=10c585ec-0d69-49bc-a403-a71e7446105a"},"vehicle_type_id":"4","last_reported":1769163276,"current_range_meters":9600,"station_id":"","pricing_plan_id":"cebpf4jnsgd1na2vs0mg"},{"bike_id":"7c7cc252-7f4f-4ac1-8175-44f20e46ac77","system_id":"levelo_inurba_marseille","lat":43.267341,"lon":5.401895,"is_reserved":false,"is_disabled":false,"rental_uris":{"android":"levelo://app?vid=7c7cc252-7f4f-4ac1-8175-44f20e46ac77","ios":"levelo://app?vid=7c7cc252-7f4f-4ac1-8175-44f20e46ac77"},"vehicle_type_id":"4","last_reported":1769163276,"current_range_meters":9600,"station_id":"","pricing_plan_id":"cebpf4jnsgd1na2vs0mg"},{"bike_id":"4f500101-ee1c-4456-87d4-30f775017429","system_id":"levelo_inurba_marseille","lat":43.29563,"lon":5.42271,"is_reserved":false,"is_disabled":false,"rental_uris":{"android":"levelo://app?vid=4f500101-ee1c-4456-87d4-30f775017429","ios":"levelo://app?vid=4f500101-ee1c-4456-87d4-30f775017429"},"vehicle_type_id":"4","last_reported":1769163276,"current_range_meters":9600,"station_id":"ce4bhph2rcd13ifvqhdg","pricing_plan_id":"cebpf4jnsgd1na2vs0mg"},{"bike_id":"8ac90997-fa6e-4e47-9844-f802382369ea","system_id":"levelo_inurba_marseille","lat":43.30472,"lon":5.37919,"is_reserved":false,"is_disabled":false,"rental_uris":{"android":"levelo://app?vid=8ac90997-fa6e-4e47-9844-f802382369ea","ios":"levelo://app?vid=8ac90997-fa6e-4e47-9844-f802382369ea"},"vehicle_type_id":"4","last_reported":1769163276,"current_range_meters":9600,"station_id":"ce4bgup2rcd13ifvqcn0","pricing_plan_id":"cebpf4jnsgd1na2vs0mg"},{"bike_id":"17ed46bf-b051-47fc-a887-339e35ccca50","system_id":"levelo_inurba_marseille","lat":43.29024,"lon":5.37548,"is_reserved":false,"is_disabled":false,"rental_uris":{"android":"levelo://app?vid=17ed46bf-b051-47fc-a887-339e35ccca50","ios":"levelo://app?vid=17ed46bf-b051-47fc-a887-339e35ccca50"},"vehicle_type_id":"4","last_reported":1769163276,"current_range_meters":9600,"station_id":"ce4bh692rcd13ifvqe90","pricing_plan_id":"cebpf4jnsgd1na2vs0mg"},{"bike_id":"72879d1c-890c-4352-a31f-76d07f7913aa","system_id":"levelo_inurba_marseille","lat":43.27493,"lon":5.42455,"is_reserved":false,"is_disabled":false,"rental_uris":{"android":"levelo://app?vid=72879d1c-890c-4352-a31f-76d07f7913aa","ios":"levelo://app?vid=72879d1c-890c-4352-a31f-76d07f7913aa"},"vehicle_type_id":"4","last_reported":1769163276,"current_range_meters":9600,"station_id":"ce4bhn92rcd13ifvqgrg","pricing_plan_id":"cebpf4jnsgd1na2vs0mg"},{"bike_id":"05d1c121-28b2-4089-b97e-95b3b06f8585","system_id":"levelo_inurba_marseille","lat":43.31408,"lon":5.37213,"is_reserved":false,"is_disabled":false,"rental_uris":{"android":"levelo://app?vid=05d1c121-28b2-4089-b97e-95b3b06f8585","ios":"levelo://app?vid=05d1c121-28b2-4089-b97e-95b3b06f8585"},"vehicle_type_id":"4","last_reported":1769163276,"current_range_meters":9600,"station_id":"","pricing_plan_id":"cebpf4jnsgd1na2vs0mg"},{"bike_id":"223ad298-5704-4f0a-8740-2752b6dcb7d9","system_id":"levelo_inurba_marseille","lat":43.2731,"lon":5.39084,"is_reserved":false,"is_disabled":false,"rental_uris":{"android":"levelo://app?vid=223ad298-5704-4f0a-8740-2752b6dcb7d9","ios":"levelo://app?vid=223ad298-5704-4f0a-8740-2752b6dcb7d9"},"vehicle_type_id":"4","last_reported":1769163276,"current_range_meters":9600,"station_id":"ce4bhgp2rcd13ifvqfe0","pricing_plan_id":"cebpf4jnsgd1na2vs0mg"},{"bike_id":"71ceaef8-058d-40b6-bed5-cb16e50a7e8d","system_id":"levelo_inurba_marseille","lat":43.28474,"lon":5.38426,"is_reserved":false,"is_disabled":false,"rental_uris":{"android":"levelo://app?vid=71ceaef8-058d-40b6-bed5-cb16e50a7e8d","ios":"levelo://app?vid=71ceaef8-058d-40b6-bed5-cb16e50a7e8d"},"vehicle_type_id":"4","last_reported":1769163276,"current_range_meters":9600,"station_id":"ce4bh512rcd13ifvqe3g","pricing_plan_id":"cebpf4jnsgd1na2vs0mg"},{"bike_id":"dbacbe0b-2e19-4e5a-a279-dbb0320742d2","system_id":"levelo_inurba_marseille","lat":43.30961,"lon":5.39052,"is_reserved":false,"is_disabled":false,"rental_uris":{"android":"levelo://app?vid=dbacbe0b-2e19-4e5a-a279-dbb0320742d2","ios":"levelo://app?vid=dbacbe0b-2e19-4e5a-a279-dbb0320742d2"},"vehicle_type_id":"4","last_reported":1769163276,"current_range_meters":9600,"station_id":"ce4bgup2rcd13ifvqco0","pricing_plan_id":"cebpf4jnsgd1na2vs0mg"},{"bike_id":"ca616cdb-4b11-45fe-ae44-b700aa3b252d","system_id":"levelo_inurba_marseille","lat":43.26229,"lon":5.38812,"is_reserved":false,"is_disabled":false,"rental_uris":{"android":"levelo://app?vid=ca616cdb-4b11-45fe-ae44-b700aa3b252d","ios":"levelo://app?vid=ca616cdb-4b11-45fe-ae44-b700aa3b252d"},"vehicle_type_id":"4","last_reported":1769163276,"current_range_meters":9600,"station_id":"","pricing_plan_id":"cebpf4jnsgd1na2vs0mg"},{"bike_id":"db707ca5-be57-461e-96f8-9e5ad0330353","system_id":"levelo_inurba_marseille","lat":43.32504,"lon":5.38291,"is_reserved":false,"is_disabled":false,"rental_uris":{"android":"levelo://app?vid=db707ca5-be57-461e-96f8-9e5ad0330353","ios":"levelo://app?vid=db707ca5-be57-461e-96f8-9e5ad0330353"},"vehicle_type_id":"4","last_reported":1769163276,"current_range_meters":9600,"station_id":"st_d4asgbiv49dc73anf9m0","pricing_plan_id":"cebpf4jnsgd1na2vs0mg"},{"bike_id":"54247625-5421-4985-8cfb-4f29ba1ac252","system_id":"levelo_inurba_marseille","lat":43.31654,"lon":5.37658,"is_reserved":false,"is_disabled":false,"rental_uris":{"android":"levelo://app?vid=54247625-5421-4985-8cfb-4f29ba1ac252","ios":"levelo://app?vid=54247625-5421-4985-8cfb-4f29ba1ac252"},"vehicle_type_id":"4","last_reported":1769163276,"current_range_meters":9600,"station_id":"","pricing_plan_id":"cebpf4jnsgd1na2vs0mg"},{"bike_id":"f8d9b269-c286-45ae-8e78-09b2d8fcd752","system_id":"levelo_inurba_marseille","lat":43.23147,"lon":5.43739,"is_reserved":false,"is_disabled":false,"rental_uris":{"android":"levelo://app?vid=f8d9b269-c286-45ae-8e78-09b2d8fcd752","ios":"levelo://app?vid=f8d9b269-c286-45ae-8e78-09b2d8fcd752"},"vehicle_type_id":"4","last_reported":1769163276,"current_range_meters":9600,"station_id":"ce4bhmp2rcd13ifvqgog","pricing_plan_id":"cebpf4jnsgd1na2vs0mg"},{"bike_id":"853be11f-d5b5-436f-b21e-8041641df50e","system_id":"levelo_inurba_marseille","lat":43.25828,"lon":5.39426,"is_reserved":false,"is_disabled":false,"rental_uris":{"android":"levelo://app?vid=853be11f-d5b5-436f-b21e-8041641df50e","ios":"levelo://app?vid=853be11f-d5b5-436f-b21e-8041641df50e"},"vehicle_type_id":"4","last_reported":1769163276,"current_range_meters":9600,"station_id":"ce4bhip2rcd13ifvqft0","pricing_plan_id":"cebpf4jnsgd1na2vs0mg"},{"bike_id":"332fbe96-cc6d-441b-94cd-0857a5e1ec11","system_id":"levelo_inurba_marseille","lat":43.29696,"lon":5.36597,"is_reserved":false,"is_disabled":false,"rental_uris":{"android":"levelo://app?vid=332fbe96-cc6d-441b-94cd-0857a5e1ec11","ios":"levelo://app?vid=332fbe96-cc6d-441b-94cd-0857a5e1ec11"},"vehicle_type_id":"4","last_reported":1769163276,"current_range_meters":9600,"station_id":"ce4bgn12rcd13ifvqbt0","pricing_plan_id":"cebpf4jnsgd1na2vs0mg"},{"bike_id":"de13daa3-9427-4f29-bc07-2c270fc518f0","system_id":"levelo_inurba_marseille","lat":43.24079,"lon":5.37763,"is_reserved":false,"is_disabled":false,"rental_uris":{"android":"levelo://app?vid=de13daa3-9427-4f29-bc07-2c270fc518f0","ios":"levelo://app?vid=de13daa3-9427-4f29-bc07-2c270fc518f0"},"vehicle_type_id":"4","last_reported":1769163276,"current_range_meters":10000,"station_id":"ce4bhnp2rcd13ifvqgvg","pricing_plan_id":"cebpf4jnsgd1na2vs0mg"},{"bike_id":"6ce0459e-0183-40a0-a83f-0da5dda0b95a","system_id":"levelo_inurba_marseille","lat":43.24685,"lon":5.38169,"is_reserved":false,"is_disabled":false,"rental_uris":{"android":"levelo://app?vid=6ce0459e-0183-40a0-a83f-0da5dda0b95a","ios":"levelo://app?vid=6ce0459e-0183-40a0-a83f-0da5dda0b95a"},"vehicle_type_id":"4","last_reported":1769163276,"current_range_meters":10000,"station_id":"ce4bhih2rcd13ifvqfr0","pricing_plan_id":"cebpf4jnsgd1na2vs0mg"},{"bike_id":"0067e0af-5ba0-4b0d-a268-ed0ed9e19547","system_id":"levelo_inurba_marseille","lat":43.323558,"lon":5.367621,"is_reserved":false,"is_disabled":false,"rental_uris":{"android":"levelo://app?vid=0067e0af-5ba0-4b0d-a268-ed0ed9e19547","ios":"levelo://app?vid=0067e0af-5ba0-4b0d-a268-ed0ed9e19547"},"vehicle_type_id":"4","last_reported":1769163276,"current_range_meters":10000,"station_id":"ce4bhsh2rcd13ifvqi2g","pricing_plan_id":"cebpf4jnsgd1na2vs0mg"},{"bike_id":"28717d61-7495-4704-9751-13d576ce0ba5","system_id":"levelo_inurba_marseille","lat":43.30317,"lon":5.36886,"is_reserved":false,"is_disabled":true,"rental_uris":{"android":"levelo://app?vid=28717d61-7495-4704-9751-13d576ce0ba5","ios":"levelo://app?vid=28717d61-7495-4704-9751-13d576ce0ba5"},"vehicle_type_id":"4","last_reported":1769163276,"current_range_meters":10000,"station_id":"ce4bgqh2rcd13ifvqc5g","pricing_plan_id":"cebpf4jnsgd1na2vs0mg"},{"bike_id":"4b7c68c6-a9a4-4dd4-b9ea-7708888d7664","system_id":"levelo_inurba_marseille","lat":43.32282,"lon":5.38279,"is_reserved":false,"is_disabled":false,"rental_uris":{"android":"levelo://app?vid=4b7c68c6-a9a4-4dd4-b9ea-7708888d7664","ios":"levelo://app?vid=4b7c68c6-a9a4-4dd4-b9ea-7708888d7664"},"vehicle_type_id":"4","last_reported":1769163276,"current_range_meters":10000,"station_id":"ce4bhr12rcd13ifvqhqg","pricing_plan_id":"cebpf4jnsgd1na2vs0mg"},{"bike_id":"8b917e27-22d9-41a4-8cc4-2ae4540e4e35","system_id":"levelo_inurba_marseille","lat":43.29164,"lon":5.37155,"is_reserved":false,"is_disabled":false,"rental_uris":{"android":"levelo://app?vid=8b917e27-22d9-41a4-8cc4-2ae4540e4e35","ios":"levelo://app?vid=8b917e27-22d9-41a4-8cc4-2ae4540e4e35"},"vehicle_type_id":"4","last_reported":1769163276,"current_range_meters":10000,"station_id":"ce4bha92rcd13ifvqeh0","pricing_plan_id":"cebpf4jnsgd1na2vs0mg"},{"bike_id":"73c63664-8c9f-45d4-b198-ca35b3561de2","system_id":"levelo_inurba_marseille","lat":43.30271,"lon":5.37723,"is_reserved":false,"is_disabled":false,"rental_uris":{"android":"levelo://app?vid=73c63664-8c9f-45d4-b198-ca35b3561de2","ios":"levelo://app?vid=73c63664-8c9f-45d4-b198-ca35b3561de2"},"vehicle_type_id":"4","last_reported":1769163276,"current_range_meters":10000,"station_id":"ce4bguh2rcd13ifvqcj0","pricing_plan_id":"cebpf4jnsgd1na2vs0mg"},