{"last_updated":1707858383,"ttl":30,"version":"2.2","data":{"bikes":[{"bike_id":"941e1a41-0ea2-4c41-840f-58a9f8026d49","system_id":"levelo_inurba_marseille","lat":43.312487,"lon":5.36848,"is_reserved":false,"is_disabled":false,"rental_uris":{"android":"levelo://app?vid=941e1a41-0ea2-4c41-840f-58a9f8026d49","ios":"levelo://app?vid=941e1a41-0ea2-4c41-840f-58a9f8026d49"},"vehicle_type_id":"4","last_reported":1707858383,"current_range_meters":13600,"station_id":"ce4bgl92rcd13ifvqbq0","pricing_plan_id":"cebpf4jnsgd1na2vs0mg"},{"bike_id":"3431bb5d-37b3-4cc1-8a7d-6e2785e6f59f","system_id":"levelo_inurba_marseille","lat":43.314811,"lon":5.373103,"is_reserved":false,"is_disabled":false,"rental_uris":{"android":"levelo://app?vid=3431bb5d-37b3-4cc1-8a7d-6e2785e6f59f","ios":"levelo://app?vid=3431bb5d-37b3-4cc1-8a7d-6e2785e6f59f"},"vehicle_type_id":"4","last_reported":1707858383,"current_range_meters":4400,"station_id":"ce4bgt12rcd13ifvqcd0","pricing_plan_id":"cebpf4jnsgd1na2vs0mg"},{"bike_id":"97299784-ff23-4377-95a2-e5229e13e8b7","system_id":"levelo_inurba_marseille","lat":43.314811,"lon":5.373104,"is_reserved":false,"is_disabled":false,"rental_uris":{"android":"levelo://app?vid=97299784-ff23-4377-95a2-e5229e13e8b7","ios":"levelo://app?vid=97299784-ff23-4377-95a2-e5229e13e8b7"},"vehicle_type_id":"4","last_reported":1707858383,"current_range_meters":26800,"station_id":"ce4bgt12rcd13ifvqcd0","pricing_plan_id":"cebpf4jnsgd1na2vs0mg"},{"bike_id":"a0218574-acfc-4d22-8e7e-746b3dd883a6","system_id":"levelo_inurba_marseille","lat":43.309039,"lon":5.371797,"is_reserved":false,"is_disabled":false,"rental_uris":{"android":"levelo://app?vid=a0218574-acfc-4d22-8e7e-746b3dd883a6","ios":"levelo://app?vid=a0218574-acfc-4d22-8e7e-746b3dd883a6"},"vehicle_type_id":"4","last_reported":1707858383,"current_range_meters":11200,"station_id":"ce4bguh2rcd13ifvqckg","pricing_plan_id":"cebpf4jnsgd1na2vs0mg"},{"bike_id":"24141e23-0c7c-406f-a237-4918c06e395e","system_id":"levelo_inurba_marseille","lat":43.30537,"lon":5.367345,"is_reserved":false,"is_disabled":false,"rental_uris":{"android":"levelo://app?vid=24141e23-0c7c-406f-a237-4918c06e395e","ios":"levelo://app?vid=24141e23-0c7c-406f-a237-4918c06e395e"},"vehicle_type_id":"4","last_reported":1707858383,"current_range_meters":13200,"station_id":"ce4bgrp2rcd13ifvqc9g","pricing_plan_id":"cebpf4jnsgd1na2vs0mg"},{"bike_id":"53803b5a-d6f6-444c-999f-0d477d2a039b","system_id":"levelo_inurba_marseille","lat":43.305714,"lon":5.365633,"is_reserved":false,"is_disabled":false,"rental_uris":{"android":"levelo://app?vid=53803b5a-d6f6-444c-999f-0d477d2a039b","ios":"levelo://app?vid=53803b5a-d6f6-444c-999f-0d477d2a039b"},"vehicle_type_id":"4","last_reported":1707858383,"current_range_meters":4800,"station_id":"ce4bgs12rcd13ifvqcag","pricing_plan_id":"cebpf4jnsgd1na2vs0mg"},{"bike_id":"0026d7c2-25e5-4477-8da5-a3113c5c201a","system_id":"levelo_inurba_marseille","lat":43.305714,"lon":5.365633,"is_reserved":false,"is_disabled":false,"rental_uris":{"android":"levelo://app?vid=0026d7c2-25e5-4477-8da5-a3113c5c201a","ios":"levelo://app?vid=0026d7c2-25e5-4477-8da5-a3113c5c201a"},"vehicle_type_id":"4","last_reported":1707858383,"current_range_meters":29600,"station_id":"ce4bgs12rcd13ifvqcag","pricing_plan_id":"cebpf4jnsgd1na2vs0mg"},{"bike_id":"4afbed8f-f722-4933-b61a-0df2a35e0100","system_id":"levelo_inurba_marseille","lat":43.305989,"lon":5.37225,"is_reserved":false,"is_disabled":false,"rental_uris":{"android":"levelo://app?vid=4afbed8f-f722-4933-b61a-0df2a35e0100","ios":"levelo://app?vid=4afbed8f-f722-4933-b61a-0df2a35e0100"},"vehicle_type_id":"4","last_reported":1707858383,"current_range_meters":2000,"station_id":"ce4bgqh2rcd13ifvqc4g","pricing_plan_id":"cebpf4jnsgd1na2vs0mg"},{"bike_id":"58301f8f-c061-4b44-a2a2-59f0dc09f221","system_id":"levelo_inurba_marseille","lat":43.305989,"lon":5.37225,"is_reserved":false,"is_disabled":false,"rental_uris":{"android":"levelo://app?vid=58301f8f-c061-4b44-a2a2-59f0dc09f221","ios":"levelo://app?vid=58301f8f-c061-4b44-a2a2-59f0dc09f221"},"vehicle_type_id":"4","last_reported":1707858383,"current_range_meters":24400,"station_id":"ce4bgqh2rcd13ifvqc4g","pricing_plan_id":"cebpf4jnsgd1na2vs0mg"},{"bike_id":"b96bae78-f9fb-480d-889b-88c06fc7a931","system_id":"levelo_inurba_marseille","lat":43.305989,"lon":5.37225,"is_reserved":false,"is_disabled":false,"rental_uris":{"android":"levelo://app?vid=b96bae78-f9fb-480d-889b-88c06fc7a931","ios":"levelo://app?vid=b96bae78-f9fb-480d-889b-88c06fc7a931"},"vehicle_type_id":"4","last_reported":1707858383,"current_range_meters":17200,"station_id":"ce4bgqh2rcd13ifvqc4g","pricing_plan_id":"cebpf4jnsgd1na2vs0mg"},{"bike_id":"951ba1d4-45b1-4ec9-b479-43c541840c6f","system_id":"levelo_inurba_marseille","lat":43.305989,"lon":5.37225,"is_reserved":false,"is_disabled":false,"rental_uris":{"android":"levelo://app?vid=951ba1d4-45b1-4ec9-b479-43c541840c6f","ios":"levelo://app?vid=951ba1d4-45b1-4ec9-b479-43c541840c6f"},"vehicle_type_id":"4","last_reported":1707858383,"current_range_meters":28400,"station_id":"ce4bgqh2rcd13ifvqc4g","pricing_plan_id":"cebpf4jnsgd1na2vs0mg"},{"bike_id":"50be6209-5f3d-4b9e-a077-92cccafbf382","system_id":"levelo_inurba_marseille","lat":43.305989,"lon":5.37225,"is_reserved":false,"is_disabled":false,"rental_uris":{"android":"levelo://app?vid=50be6209-5f3d-4b9e-a077-92cccafbf382","ios":"levelo://app?vid=50be6209-5f3d-4b9e-a077-92cccafbf382"},"vehicle_type_id":"4","last_reported":1707858383,"current_range_meters":19200,"station_id":"ce4bgqh2rcd13ifvqc4g","pricing_plan_id":"cebpf4jnsgd1na2vs0mg"},{"bike_id":"d46c34cd-201d-4a50-8ad6-9818219ac223","system_id":"levelo_inurba_marseille","lat":43.305989,"lon":5.37225,"is_reserved":false,"is_disabled":false,"rental_uris":{"android":"levelo://app?vid=d46c34cd-201d-4a50-8ad6-9818219ac223","ios":"levelo://app?vid=d46c34cd-201d-4a50-8ad6-9818219ac223"},"vehicle_type_id":"4","last_reported":1707858383,"current_range_meters":25600,"station_id":"ce4bgqh2rcd13ifvqc4g","pricing_plan_id":"cebpf4jnsgd1na2vs0mg"},{"bike_id":"488be198-e0b7-41ab-8787-7118ee77b8e0","system_id":"levelo_inurba_marseille","lat":43.311125,"lon":5.377624,"is_reserved":false,"is_disabled":false,"rental_uris":{"android":"levelo://app?vid=488be198-e0b7-41ab-8787-7118ee77b8e0","ios":"levelo://app?vid=488be198-e0b7-41ab-8787-7118ee77b8e0"},"vehicle_type_id":"4","last_reported":1707858383,"current_range_meters":14800,"station_id":"ce4bgt92rcd13ifvqcg0","pricing_plan_id":"cebpf4jnsgd1na2vs0mg"},{"bike_id":"27646afb-2cc4-4927-aba7-416f53e2fc35","system_id":"levelo_inurba_marseille","lat":43.311125,"lon":5.377624,"is_reserved":false,"is_disabled":false,"rental_uris":{"android":"levelo://app?vid=27646afb-2cc4-4927-aba7-416f53e2fc35","ios":"levelo://app?vid=27646afb-2cc4-4927-aba7-416f53e2fc35"},"vehicle_type_id":"4","last_reported":1707858383,"current_range_meters":7600,"station_id":"ce4bgt92rcd13ifvqcg0","pricing_plan_id":"cebpf4jnsgd1na2vs0mg"},{"bike_id":"d61ed51f-6aaf-4d9b-8f4d-492bfa534f3f","system_id":"levelo_inurba_marseille","lat":43.307945,"lon":5.376487,"is_reserved":false,"is_disabled":false,"rental_uris":{"android":"levelo://app?vid=d61ed51f-6aaf-4d9b-8f4d-492bfa534f3f","ios":"levelo://app?vid=d61ed51f-6aaf-4d9b-8f4d-492bfa534f3f"},"vehicle_type_id":"4","last_reported":1707858383,"current_range_meters":16400,"station_id":"ce4bgv92rcd13ifvqcq0","pricing_plan_id":"cebpf4jnsgd1na2vs0mg"},{"bike_id":"0225ae1b-515d-4755-8585-1aed4e8d05af","system_id":"levelo_inurba_marseille","lat":43.31713,"lon":5.3775,"is_reserved":false,"is_disabled":false,"rental_uris":{"android":"levelo://app?vid=0225ae1b-515d-4755-8585-1aed4e8d05af","ios":"levelo://app?vid=0225ae1b-515d-4755-8585-1aed4e8d05af"},"vehicle_type_id":"4","last_reported":1707858383,"current_range_meters":0,"station_id":"ce4bgth2rcd13ifvqch0","pricing_plan_id":"cebpf4jnsgd1na2vs0mg"},{"bike_id":"078de53b-05c8-427f-9ab6-27d8b38a2d6d","system_id":"levelo_inurba_marseille","lat":43.303046,"lon":5.368981,"is_reserved":false,"is_disabled":false,"rental_uris":{"android":"levelo://app?vid=078de53b-05c8-427f-9ab6-27d8b38a2d6d","ios":"levelo://app?vid=078de53b-05c8-427f-9ab6-27d8b38a2d6d"},"vehicle_type_id":"4","last_reported":1707858383,"current_range_meters":2800,"station_id":"ce4bgqh2rcd13ifvqc5g","pricing_plan_id":"cebpf4jnsgd1na2vs0mg"},{"bike_id":"66217388-09bf-4862-a269-2c7d8410c5ca","system_id":"levelo_inurba_marseille","lat":43.30304,"lon":5.368987,"is_reserved":false,"is_disabled":false,"rental_uris":{"android":"levelo://app?vid=66217388-09bf-4862-a269-2c7d8410c5ca","ios":"levelo://app?vid=66217388-09bf-4862-a269-2c7d8410c5ca"},"vehicle_type_id":"4","last_reported":1707858383,"current_range_meters":31200,"station_id":"ce4bgqh2rcd13ifvqc5g","pricing_plan_id":"cebpf4jnsgd1na2vs0mg"},{"bike_id":"8f097647-e4f8-4567-ac07-01d9327b196b","system_id":"levelo_inurba_marseille","lat":43.303046,"lon":5.368981,"is_reserved":false,"is_disabled":false,"rental_uris":{"android":"levelo://app?vid=8f097647-e4f8-4567-ac07-01d9327b196b","ios":"levelo://app?vid=8f097647-e4f8-4567-ac07-01d9327b196b"},"vehicle_type_id":"4","last_reported":1707858383,"current_range_meters":9200,"station_id":"ce4bgqh2rcd13ifvqc5g","pricing_plan_id":"cebpf4jnsgd1na2vs0mg"},{"bike_id":"18382602-aaee-4d3f-a6cd-20f10c5d89d2","system_id":"levelo_inurba_marseille","lat":43.315293,"lon":5.380349,"is_reserved":false,"is_disabled":false,"rental_uris":{"android":"levelo://app?vid=18382602-aaee-4d3f-a6cd-20f10c5d89d2","ios":"levelo://app?vid=18382602-aaee-4d3f-a6cd-20f10c5d89d2"},"vehicle_type_id":"4","last_reported":1707858383,"current_range_meters":9200,"station_id":"ce4bhsp2rcd13ifvqi50","pricing_plan_id":"cebpf4jnsgd1na2vs0mg"},{"bike_id":"99b25015-5bc0-4096-9668-a27a161256eb","system_id":"levelo_inurba_marseille","lat":43.32273,"lon":5.36961,"is_reserved":false,"is_disabled":false,"rental_uris":{"android":"levelo://app?vid=99b25015-5bc0-4096-9668-a27a161256eb","ios":"levelo://app?vid=99b25015-5bc0-4096-9668-a27a161256eb"},"vehicle_type_id":"4","last_reported":1707858383,"current_range_meters":9600,"station_id":"","pricing_plan_id":"cebpf4jnsgd1na2vs0mg"},{"bike_id":"68620e41-2674-400a-9f26-61e1b33b7d01","system_id":"levelo_inurba_marseille","lat":43.302,"lon":5.36618,"is_reserved":false,"is_disabled":false,"rental_uris":{"android":"levelo://app?vid=68620e41-2674-400a-9f26-61e1b33b7d01","ios":"levelo://app?vid=68620e41-2674-400a-9f26-61e1b33b7d01"},"vehicle_type_id":"4","last_reported":1707858383,"current_range_meters":30800,"station_id":"","pricing_plan_id":"cebpf4jnsgd1na2vs0mg"},{"bike_id":"9837374c-3dde-4b97-8ea7-61be83a641cc","system_id":"levelo_inurba_marseille","lat":43.301939,"lon":5.366286,"is_reserved":false,"is_disabled":false,"rental_uris":{"android":"levelo://app?vid=9837374c-3dde-4b97-8ea7-61be83a641cc","ios":"levelo://app?vid=9837374c-3dde-4b97-8ea7-61be83a641cc"},"vehicle_type_id":"4","last_reported":1707858383,"current_range_meters":26800,"station_id":"ce4bgrh2rcd13ifvqc8g","pricing_plan_id":"cebpf4jnsgd1na2vs0mg"},{"bike_id":"f568a5dd-2c58-414f-8eb8-6b27370f622f","system_id":"levelo_inurba_marseille","lat":43.30805,"lon":5.38151,"is_reserved":false,"is_disabled":false,"rental_uris":{"android":"levelo://app?vid=f568a5dd-2c58-414f-8eb8-6b27370f622f","ios":"levelo://app?vid=f568a5dd-2c58-414f-8eb8-6b27370f622f"},"vehicle_type_id":"4","last_reported":1707858383,"current_range_meters":30000,"station_id":"ce4bgt12rcd13ifvqce0","pricing_plan_id":"cebpf4jnsgd1na2vs0mg"},{"bike_id":"c1334953-6d00-42de-a5d4-e907f8c25c93","system_id":"levelo_inurba_marseille","lat":43.308012,"lon":5.381511,"is_reserved":false,"is_disabled":false,"rental_uris":{"android":"levelo://app?vid=c1334953-6d00-42de-a5d4-e907f8c25c93","ios":"levelo://app?vid=c1334953-6d00-42de-a5d4-e907f8c25c93"},"vehicle_type_id":"4","last_reported":1707858383,"current_range_meters":31200,"station_id":"ce4bgt12rcd13ifvqce0","pricing_plan_id":"cebpf4jnsgd1na2vs0mg"},{"bike_id":"192d0b00-cb71-468d-869b-ff1423b1ea66","system_id":"levelo_inurba_marseille","lat":43.308012,"lon":5.381511,"is_reserved":false,"is_disabled":false,"rental_uris":{"android":"levelo://app?vid=192d0b00-cb71-468d-869b-ff1423b1ea66","ios":"levelo://app?vid=192d0b00-cb71-468d-869b-ff1423b1ea66"},"vehicle_type_id":"4","last_reported":1707858383,"current_range_meters":4000,"station_id":"ce4bgt12rcd13ifvqce0","pricing_plan_id":"cebpf4jnsgd1na2vs0mg"},{"bike_id":"34fc1f60-2015-49c0-9c5f-4b8a4ea20596","system_id":"levelo_inurba_marseille","lat":43.304606,"lon":5.379026,"is_reserved":false,"is_disabled":false,"rental_uris":{"android":"levelo://app?vid=34fc1f60-2015-49c0-9c5f-4b8a4ea20596","ios":"levelo://app?vid=34fc1f60-2015-49c0-9c5f-4b8a4ea20596"},"vehicle_type_id":"4","last_reported":1707858383,"current_range_meters":31200,"station_id":"ce4bgup2rcd13ifvqcn0","pricing_plan_id":"cebpf4jnsgd1na2vs0mg"},{"bike_id":"a5150c7a-e2e5-4922-972d-4b2fc2e80862","system_id":"levelo_inurba_marseille","lat":43.324771,"lon":5.36557,"is_reserved":false,"is_disabled":false,"rental_uris":{"android":"levelo://app?vid=a5150c7a-e2e5-4922-972d-4b2fc2e80862","ios":"levelo://app?vid=a5150c7a-e2e5-4922-972d-4b2fc2e80862"},"vehicle_type_id":"4","last_reported":1707858383,"current_range_meters":16000,"station_id":"ce4bhs12rcd13ifvqhvg","pricing_plan_id":"cebpf4jnsgd1na2vs0mg"},{"bike_id":"565f9df3-8834-492a-82ea-11e6e32cb8ea","system_id":"levelo_inurba_marseille","lat":43.324771,"lon":5.36557,"is_reserved":false,"is_disabled":false,"rental_uris":{"android":"levelo://app?vid=565f9df3-8834-492a-82ea-11e6e32cb8ea","ios":"levelo://app?vid=565f9df3-8834-492a-82ea-11e6e32cb8ea"},"vehicle_type_id":"4","last_reported":1707858383,"current_range_meters":19200,"station_id":"ce4bhs12rcd13ifvqhvg","pricing_plan_id":"cebpf4jnsgd1na2vs0mg"},{"bike_id":"75fdce3e-cfd1-47f8-8f8c-b7de490a1785","system_id":"levelo_inurba_marseille","lat":43.324771,"lon":5.36557,"is_reserved":false,"is_disabled":false,"rental_uris":{"android":"levelo://app?vid=75fdce3e-cfd1-47f8-8f8c-b7de490a1785","ios":"levelo://app?vid=75fdce3e-cfd1-47f8-8f8c-b7de490a1785"},"vehicle_type_id":"4","last_reported":1707858383,"current_range_meters":18400,"station_id":"ce4bhs12rcd13ifvqhvg","pricing_plan_id":"cebpf4jnsgd1na2vs0mg"},{"bike_id":"3c3b17ec-aa6b-4a35-9f14-1d304594707e","system_id":"levelo_inurba_marseille","lat":43.324771,"lon":5.36557,"is_reserved":false,"is_disabled":false,"rental_uris":{"android":"levelo://app?vid=3c3b17ec-aa6b-4a35-9f14-1d304594707e","ios":"levelo://app?vid=3c3b17ec-aa6b-4a35-9f14-1d304594707e"},"vehicle_type_id":"4","last_reported":1707858383,"current_range_meters":400,"station_id":"ce4bhs12rcd13ifvqhvg","pricing_plan_id":"cebpf4jnsgd1na2vs0mg"},{"bike_id":"bfd78388-62bb-45aa-8792-4a786470862a","system_id":"levelo_inurba_marseille","lat":43.310804,"lon":5.38359,"is_reserved":false,"is_disabled":false,"rental_uris":{"android":"levelo://app?vid=bfd78388-62bb-45aa-8792-4a786470862a","ios":"levelo://app?vid=bfd78388-62bb-45aa-8792-4a786470862a"},"vehicle_type_id":"4","last_reported":1707858383,"current_range_meters":0,"station_id":"ce4bgv92rcd13ifvqcr0","pricing_plan_id":"cebpf4jnsgd1na2vs0mg"},{"bike_id":"4dfacadf-7ff6-40cb-b688-8cd93334986a","system_id":"levelo_inurba_marseille","lat":43.310804,"lon":5.38359,"is_reserved":false,"is_disabled":false,"rental_uris":{"android":"levelo://app?vid=4dfacadf-7ff6-40cb-b688-8cd93334986a","ios":"levelo://app?vid=4dfacadf-7ff6-40cb-b688-8cd93334986a"},"vehicle_type_id":"4","last_reported":1707858383,"current_range_meters":0,"station_id":"ce4bgv92rcd13ifvqcr0","pricing_plan_id":"cebpf4jnsgd1na2vs0mg"},{"bike_id":"237d60d5-e9da-4c8d-9843-6915d4445eeb","system_id":"levelo_inurba_marseille","lat":43.302784,"lon":5.377158,"is_reserved":false,"is_disabled":false,"rental_uris":{"android":"levelo://app?vid=237d60d5-e9da-4c8d-9843-6915d4445eeb","ios":"levelo://app?vid=237d60d5-e9da-4c8d-9843-6915d4445eeb"},"vehicle_type_id":"4","last_reported":1707858383,"current_range_meters":19200,"station_id":"ce4bguh2rcd13ifvqcj0","pricing_plan_id":"cebpf4jnsgd1na2vs0mg"},{"bike_id":"904717e0-567f-402b-b8fb-82da03c63213","system_id":"levelo_inurba_marseille","lat":43.31993,"lon":5.38151,"is_reserved":false,"is_disabled":false,"rental_uris":{"android":"levelo://app?vid=904717e0-567f-402b-b8fb-82da03c63213","ios":"levelo://app?vid=904717e0-567f-402b-b8fb-82da03c63213"},"vehicle_type_id":"4","last_reported":1707858383,"current_range_meters":6800,"station_id":"ce4bhr12rcd13ifvqhpg","pricing_plan_id":"cebpf4jnsgd1na2vs0mg"},{"bike_id":"0ec568e8-ea29-47b6-adf7-566d6e2149d4","system_id":"levelo_inurba_marseille","lat":43.319973,"lon":5.381473,"is_reserved":false,"is_disabled":false,"rental_uris":{"android":"levelo://app?vid=0ec568e8-ea29-47b6-adf7-566d6e2149d4","ios":"levelo://app?vid=0ec568e8-ea29-47b6-adf7-566d6e2149d4"},"vehicle_type_id":"4","last_reported":1707858383,"current_range_meters":15200,"station_id":"ce4bhr12rcd13ifvqhpg","pricing_plan_id":"cebpf4jnsgd1na2vs0mg"},{"bike_id":"d60a56b1-8df5-46c7-9c58-03251d97f7ca","system_id":"levelo_inurba_marseille","lat":43.32,"lon":5.38151,"is_reserved":false,"is_disabled":false,"rental_uris":{"android":"levelo://app?vid=d60a56b1-8df5-46c7-9c58-03251d97f7ca","ios":"levelo://app?vid=d60a56b1-8df5-46c7-9c58-03251d97f7ca"},"vehicle_type_id":"4","last_reported":1707858383,"current_range_meters":0,"station_id":"ce4bhr12rcd13ifvqhpg","pricing_plan_id":"cebpf4jnsgd1na2vs0mg"},{"bike_id":"c37622e8-813d-4691-b64b-e5180e6ff89f","system_id":"levelo_inurba_marseille","lat":43.319935,"lon":5.381699,"is_reserved":false,"is_disabled":false,"rental_uris":{"android":"levelo://app?vid=c37622e8-813d-4691-b64b-e5180e6ff89f","ios":"levelo://app?vid=c37622e8-813d-4691-b64b-e5180e6ff89f"},"vehicle_type_id":"4","last_reported":1707858383,"current_range_meters":5200,"station_id":"ce4bhr12rcd13ifvqhpg","pricing_plan_id":"cebpf4jnsgd1na2vs0mg"},{"bike_id":"9fbc3664-6855-4721-960a-9f9f9da0da99","system_id":"levelo_inurba_marseille","lat":43.31994,"lon":5.381611,"is_reserved":false,"is_disabled":false,"rental_uris":{"android":"levelo://app?vid=9fbc3664-6855-4721-960a-9f9f9da0da99","ios":"levelo://app?vid=9fbc3664-6855-4721-960a-9f9f9da0da99"},"vehicle_type_id":"4","last_reported":1707858383,"current_range_meters":18400,"station_id":"ce4bhr12rcd13ifvqhpg","pricing_plan_id":"cebpf4jnsgd1na2vs0mg"},{"bike_id":"1ddcb4a9-2c2c-4499-8df2-9b141368eee9","system_id":"levelo_inurba_marseille","lat":43.31998,"lon":5.38168,"is_reserved":false,"is_disabled":false,"rental_uris":{"android":"levelo://app?vid=1ddcb4a9-2c2c-4499-8df2-9b141368eee9","ios":"levelo://app?vid=1ddcb4a9-2c2c-4499-8df2-9b141368eee9"},"vehicle_type_id":"4","last_reported":1707858383,"current_range_meters":26800,"station_id":"ce4bhr12rcd13ifvqhpg","pricing_plan_id":"cebpf4jnsgd1na2vs0mg"},{"bike_id":"42da6bc1-fcd8-439c-b7d8-afb4d34ba40c","system_id":"levelo_inurba_marseille","lat":43.32004,"lon":5.381665,"is_reserved":false,"is_disabled":false,"rental_uris":{"android":"levelo://app?vid=42da6bc1-fcd8-439c-b7d8-afb4d34ba40c","ios":"levelo://app?vid=42da6bc1-fcd8-439c-b7d8-afb4d34ba40c"},"vehicle_type_id":"4","last_reported":1707858383,"current_range_meters":13600,"station_id":"ce4bhr12rcd13ifvqhpg","pricing_plan_id":"cebpf4jnsgd1na2vs0mg"},{"bike_id":"7bd1634b-d63a-43e9-a475-e3e6f2cf2e3f","system_id":"levelo_inurba_marseille","lat":43.313571,"lon":5.384829,"is_reserved":false,"is_disabled":false,"rental_uris":{"android":"levelo://app?vid=7bd1634b-d63a-43e9-a475-e3e6f2cf2e3f","ios":"levelo://app?vid=7bd1634b-d63a-43e9-a475-e3e6f2cf2e3f"},"vehicle_type_id":"4","last_reported":1707858383,"current_range_meters":9200,"station_id":"ce4bgt92rcd13ifvqcf0","pricing_plan_id":"cebpf4jnsgd1na2vs0mg"},{"bike_id":"3606158b-1ca3-499d-bffc-9e2160b138d6","system_id":"levelo_inurba_marseille","lat":43.313571,"lon":5.384829,"is_reserved":false,"is_disabled":false,"rental_uris":{"android":"levelo://app?vid=3606158b-1ca3-499d-bffc-9e2160b138d6","ios":"levelo://app?vid=3606158b-1ca3-499d-bffc-9e2160b138d6"},"vehicle_type_id":"4","last_reported":1707858383,"current_range_meters":2800,"station_id":"ce4bgt92rcd13ifvqcf0","pricing_plan_id":"cebpf4jnsgd1na2vs0mg"},{"bike_id":"eb38be35-f1bb-41cd-a46b-4031f96374cb","system_id":"levelo_inurba_marseille","lat":43.313571,"lon":5.384829,"is_reserved":false,"is_disabled":false,"rental_uris":{"android":"levelo://app?vid=eb38be35-f1bb-41cd-a46b-4031f96374cb","ios":"levelo://app?vid=eb38be35-f1bb-41cd-a46b-4031f96374cb"},"vehicle_type_id":"4","last_reported":1707858383,"current_range_meters":7600,"station_id":"ce4bgt92rcd13ifvqcf0","pricing_plan_id":"cebpf4jnsgd1na2vs0mg"},{"bike_id":"f06c325c-ca09-4e77-8b37-5b027ef0241e","system_id":"levelo_inurba_marseille","lat":43.31358,"lon":5.38494,"is_reserved":false,"is_disabled":false,"rental_uris":{"android":"levelo://app?vid=f06c325c-ca09-4e77-8b37-5b027ef0241e","ios":"levelo://app?vid=f06c325c-ca09-4e77-8b37-5b027ef0241e"},"vehicle_type_id":"4","last_reported":1707858383,"current_range_meters":25600,"station_id":"ce4bgt92rcd13ifvqcf0","pricing_plan_id":"cebpf4jnsgd1na2vs0mg"},{"bike_id":"5ea52c01-4d83-46c8-a113-e0eb45e3e064","system_id":"levelo_inurba_marseille","lat":43.313571,"lon":5.384829,"is_reserved":false,"is_disabled":false,"rental_uris":{"android":"levelo://app?vid=5ea52c01-4d83-46c8-a113-e0eb45e3e064","ios":"levelo://app?vid=5ea52c01-4d83-46c8-a113-e0eb45e3e064"},"vehicle_type_id":"4","last_reported":1707858383,"current_range_meters":0,"station_id":"ce4bgt92rcd13ifvqcf0","pricing_plan_id":"cebpf4jnsgd1na2vs0mg"},{"bike_id":"543a8fd9-8065-4ede-a03d-62ae9001ba2f","system_id":"levelo_inurba_marseille","lat":43.29982,"lon":5.37181,"is_reserved":false,"is_disabled":false,"rental_uris":{"android":"levelo://app?vid=543a8fd9-8065-4ede-a03d-62ae9001ba2f","ios":"levelo://app?vid=543a8fd9-8065-4ede-a03d-62ae9001ba2f"},"vehicle_type_id":"4","last_reported":1707858383,"current_range_meters":6800,"station_id":"ce4bgr92rcd13ifvqc7g","pricing_plan_id":"cebpf4jnsgd1na2vs0mg"},{"bike_id":"2d00791d-fe4d-4730-b9d8-8342df4b35fc","system_id":"levelo_inurba_marseille","lat":43.299724,"lon":5.371829,"is_reserved":false,"is_disabled":false,"rental_uris":{"android":"levelo://app?vid=2d00791d-fe4d-4730-b9d8-8342df4b35fc","ios":"levelo://app?vid=2d00791d-fe4d-4730-b9d8-8342df4b35fc"},"vehicle_type_id":"4","last_reported":1707858383,"current_range_meters":14000,"station_id":"ce4bgr92rcd13ifvqc7g","pricing_plan_id":"cebpf4jnsgd1na2vs0mg"},{"bike_id":"854302f4-3b2d-4c02-8592-c63ce05a18b8","system_id":"levelo_inurba_marseille","lat":43.299774,"lon":5.37177,"is_reserved":false,"is_disabled":false,"rental_uris":{"android":"levelo://app?vid=854302f4-3b2d-4c02-8592-c63ce05a18b8","ios":"levelo://app?vid=854302f4-3b2d-4c02-8592-c63ce05a18b8"},"vehicle_type_id":"4","last_reported":1707858383,"current_range_meters":26000,"station_id":"ce4bgr92rcd13ifvqc7g","pricing_plan_id":"cebpf4jnsgd1na2vs0mg"},{"bike_id":"c499c534-b1ea-40ca-aa15-e2f6cc68bc8c","system_id":"levelo_inurba_marseille","lat":43.299724,"lon":5.371829,"is_reserved":false,"is_disabled":false,"rental_uris":{"android":"levelo://app?vid=c499c534-b1ea-40ca-aa15-e2f6cc68bc8c","ios":"levelo://app?vid=c499c534-b1ea-40ca-aa15-e2f6cc68bc8c"},"vehicle_type_id":"4","last_reported":1707858383,"current_range_meters":15200,"station_id":"ce4bgr92rcd13ifvqc7g","pricing_plan_id":"cebpf4jnsgd1na2vs0mg"},{"bike_id":"01f5c8c0-c1b8-45fd-aaca-723f67a32206","system_id":"levelo_inurba_marseille","lat":43.29973,"lon":5.37181,"is_reserved":false,"is_disabled":false,"rental_uris":{"android":"levelo://app?vid=01f5c8c0-c1b8-45fd-aaca-723f67a32206","ios":"levelo://app?vid=01f5c8c0-c1b8-45fd-aaca-723f67a32206"},"vehicle_type_id":"4","last_reported":1707858383,"current_range_meters":26800,"station_id":"ce4bgr92rcd13ifvqc7g","pricing_plan_id":"cebpf4jnsgd1na2vs0mg"},{"bike_id":"7cefed0c-bc67-45e9-ae5c-9ee7aab22854","system_id":"levelo_inurba_marseille","lat":43.29971,"lon":5.37182,"is_reserved":false,"is_disabled":false,"rental_uris":{"android":"levelo://app?vid=7cefed0c-bc67-45e9-ae5c-9ee7aab22854","ios":"levelo://app?vid=7cefed0c-bc67-45e9-ae5c-9ee7aab22854"},"vehicle_type_id":"4","last_reported":1707858383,"current_range_meters":26800,"station_id":"ce4bgr92rcd13ifvqc7g","pricing_plan_id":"cebpf4jnsgd1na2vs0mg"},{"bike_id":"3c017e2a-71e6-4abf-aa04-e0ec67de8627","system_id":"levelo_inurba_marseille","lat":43.299222,"lon":5.365554,"is_reserved":false,"is_disabled":false,"rental_uris":{"android":"levelo://app?vid=3c017e2a-71e6-4abf-aa04-e0ec67de8627","ios":"levelo://app?vid=3c017e2a-71e6-4abf-aa04-e0ec67de8627"},"vehicle_type_id":"4","last_reported":1707858383,"current_range_meters":400,"station_id":"ce4bgm92rcd13ifvqbr0","pricing_plan_id":"cebpf4jnsgd1na2vs0mg"},{"bike_id":"07e366c2-bb5a-4d31-be2a-fc31ee4ab4d2","system_id":"levelo_inurba_marseille","lat":43.311722,"lon":5.387247,"is_reserved":false,"is_disabled":false,"rental_uris":{"android":"levelo://app?vid=07e366c2-bb5a-4d31-be2a-fc31ee4ab4d2","ios":"levelo://app?vid=07e366c2-bb5a-4d31-be2a-fc31ee4ab4d2"},"vehicle_type_id":"4","last_reported":1707858383,"current_range_meters":5200,"station_id":"ce4bgv12rcd13ifvqcp0","pricing_plan_id":"cebpf4jnsgd1na2vs0mg"},{"bike_id":"3b6fd47c-f860-4967-b147-3526322b443e","system_id":"levelo_inurba_marseille","lat":43.31161,"lon":5.38692,"is_reserved":false,"is_disabled":false,"rental_uris":{"android":"levelo://app?vid=3b6fd47c-f860-4967-b147-3526322b443e","ios":"levelo://app?vid=3b6fd47c-f860-4967-b147-3526322b443e"},"vehicle_type_id":"4","last_reported":1707858383,"current_range_meters":14400,"station_id":"ce4bgv12rcd13ifvqcp0","pricing_plan_id":"cebpf4jnsgd1na2vs0mg"},{"bike_id":"2655ae48-80a6-44f0-9f57-87b1c4795861","system_id":"levelo_inurba_marseille","lat":43.299243,"lon":5.37481,"is_reserved":false,"is_disabled":false,"rental_uris":{"android":"levelo://app?vid=2655ae48-80a6-44f0-9f57-87b1c4795861","ios":"levelo://app?vid=2655ae48-80a6-44f0-9f57-87b1c4795861"},"vehicle_type_id":"4","last_reported":1707858383,"current_range_meters":26000,"station_id":"ce4bgjh2rcd13ifvqbg0","pricing_plan_id":"cebpf4jnsgd1na2vs0mg"},{"bike_id":"a8b5180e-f39f-407d-b5d0-52b35fd20ac4","system_id":"levelo_inurba_marseille","lat":43.311722,"lon":5.387247,"is_reserved":false,"is_disabled":false,"rental_uris":{"android":"levelo://app?vid=a8b5180e-f39f-407d-b5d0-52b35fd20ac4","ios":"levelo://app?vid=a8b5180e-f39f-407d-b5d0-52b35fd20ac4"},"vehicle_type_id":"4","last_reported":1707858383,"current_range_meters":32000,"station_id":"ce4bgv12rcd13ifvqcp0","pricing_plan_id":"cebpf4jnsgd1na2vs0mg"},{"bike_id":"f9a328d6-c6dc-4cba-aea7-5d42634a1c6c","system_id":"levelo_inurba_marseille","lat":43.322872,"lon":5.382756,"is_reserved":false,"is_disabled":false,"rental_uris":{"android":"levelo://app?vid=f9a328d6-c6dc-4cba-aea7-5d42634a1c6c","ios":"levelo://app?vid=f9a328d6-c6dc-4cba-aea7-5d42634a1c6c"},"vehicle_type_id":"4","last_reported":1707858383,"current_range_meters":26400,"station_id":"ce4bhr12rcd13ifvqhqg","pricing_plan_id":"cebpf4jnsgd1na2vs0mg"},{"bike_id":"d74bd2a1-22ad-4021-869f-09a8873f8a42","system_id":"levelo_inurba_marseille","lat":43.322872,"lon":5.382756,"is_reserved":false,"is_disabled":false,"rental_uris":{"android":"levelo://app?vid=d74bd2a1-22ad-4021-869f-09a8873f8a42","ios":"levelo://app?vid=d74bd2a1-22ad-4021-869f-09a8873f8a42"},"vehicle_type_id":"4","last_reported":1707858383,"current_range_meters":28400,"station_id":"ce4bhr12rcd13ifvqhqg","pricing_plan_id":"cebpf4jnsgd1na2vs0mg"},{"bike_id":"aed9e4ad-9c1a-4a51-8095-58a12f0b44f4","system_id":"levelo_inurba_marseille","lat":43.322872,"lon":5.382756,"is_reserved":false,"is_disabled":false,"rental_uris":{"android":"levelo://app?vid=aed9e4ad-9c1a-4a51-8095-58a12f0b44f4","ios":"levelo://app?vid=aed9e4ad-9c1a-4a51-8095-58a12f0b44f4"},"vehicle_type_id":"4","last_reported":1707858383,"current_range_meters":30800,"station_id":"ce4bhr12rcd13ifvqhqg","pricing_plan_id":"cebpf4jnsgd1na2vs0mg"},{"bike_id":"24cbb04a-c763-4b6c-91c7-7ce4ce9a6969","system_id":"levelo_inurba_marseille","lat":43.32822,"lon":5.36686,"is_reserved":false,"is_disabled":false,"rental_uris":{"android":"levelo://app?vid=24cbb04a-c763-4b6c-91c7-7ce4ce9a6969","ios":"levelo://app?vid=24cbb04a-c763-4b6c-91c7-7ce4ce9a6969"},"vehicle_type_id":"4","last_reported":1707858383,"current_range_meters":20800,"station_id":"ce4bhs92rcd13ifvqi0g","pricing_plan_id":"cebpf4jnsgd1na2vs0mg"},{"bike_id":"ec21c626-faeb-41e5-9192-4d2bef3ee4d3","system_id":"levelo_inurba_marseille","lat":43.32822,"lon":5.36682,"is_reserved":false,"is_disabled":false,"rental_uris":{"android":"levelo://app?vid=ec21c626-faeb-41e5-9192-4d2bef3ee4d3","ios":"levelo://app?vid=ec21c626-faeb-41e5-9192-4d2bef3ee4d3"},"vehicle_type_id":"4","last_reported":1707858383,"current_range_meters":13200,"station_id":"ce4bhs92rcd13ifvqi0g","pricing_plan_id":"cebpf4jnsgd1na2vs0mg"},{"bike_id":"b69dafd6-5e51-4079-932c-30e4c80d8b2d","system_id":"levelo_inurba_marseille","lat":43.32824,"lon":5.36685,"is_reserved":false,"is_disabled":false,"rental_uris":{"android":"levelo://app?vid=b69dafd6-5e51-4079-932c-30e4c80d8b2d","ios":"levelo://app?vid=b69dafd6-5e51-4079-932c-30e4c80d8b2d"},"vehicle_type_id":"4","last_reported":1707858383,"current_range_meters":11600,"station_id":"ce4bhs92rcd13ifvqi0g","pricing_plan_id":"cebpf4jnsgd1na2vs0mg"},{"bike_id":"f13968be-ff01-484e-90e7-f7595d28950b","system_id":"levelo_inurba_marseille","lat":43.297163,"lon":5.365866,"is_reserved":false,"is_disabled":false,"rental_uris":{"android":"levelo://app?vid=f13968be-ff01-484e-90e7-f7595d28950b","ios":"levelo://app?vid=f13968be-ff01-484e-90e7-f7595d28950b"},"vehicle_type_id":"4","last_reported":1707858383,"current_range_meters":30400,"station_id":"ce4bgn12rcd13ifvqbt0","pricing_plan_id":"cebpf4jnsgd1na2vs0mg"},{"bike_id":"07a2b44b-47c4-46fe-b8d8-d7ad3b775366","system_id":"levelo_inurba_marseille","lat":43.32826,"lon":5.36681,"is_reserved":false,"is_disabled":false,"rental_uris":{"android":"levelo://app?vid=07a2b44b-47c4-46fe-b8d8-d7ad3b775366","ios":"levelo://app?vid=07a2b44b-47c4-46fe-b8d8-d7ad3b775366"},"vehicle_type_id":"4","last_reported":1707858383,"current_range_meters":30400,"station_id":"ce4bhs92rcd13ifvqi0g","pricing_plan_id":"cebpf4jnsgd1na2vs0mg"},{"bike_id":"c9b88aad-86c2-4a51-9436-08e8586a0048","system_id":"levelo_inurba_marseille","lat":43.32826,"lon":5.36678,"is_reserved":false,"is_disabled":false,"rental_uris":{"android":"levelo://app?vid=c9b88aad-86c2-4a51-9436-08e8586a0048","ios":"levelo://app?vid=c9b88aad-86c2-4a51-9436-08e8586a0048"},"vehicle_type_id":"4","last_reported":1707858383,"current_range_meters":23200,"station_id":"ce4bhs92rcd13ifvqi0g","pricing_plan_id":"cebpf4jnsgd1na2vs0mg"},{"bike_id":"b354d40e-f748-45df-b8a4-085ee0f39b31","system_id":"levelo_inurba_marseille","lat":43.32827,"lon":5.36682,"is_reserved":false,"is_disabled":false,"rental_uris":{"android":"levelo://app?vid=b354d40e-f748-45df-b8a4-085ee0f39b31","ios":"levelo://app?vid=b354d40e-f748-45df-b8a4-085ee0f39b31"},"vehicle_type_id":"4","last_reported":1707858383,"current_range_meters":28000,"station_id":"ce4bhs92rcd13ifvqi0g","pricing_plan_id":"cebpf4jnsgd1na2vs0mg"},{"bike_id":"eec18b1c-bcf1-4268-8859-b234d772b467","system_id":"levelo_inurba_marseille","lat":43.32828,"lon":5.3668,"is_reserved":false,"is_disabled":false,"rental_uris":{"android":"levelo://app?vid=eec18b1c-bcf1-4268-8859-b234d772b467","ios":"levelo://app?vid=eec18b1c-bcf1-4268-8859-b234d772b467"},"vehicle_type_id":"4","last_reported":1707858383,"current_range_meters":15600,"station_id":"ce4bhs92rcd13ifvqi0g","pricing_plan_id":"cebpf4jnsgd1na2vs0mg"},{"bike_id":"d059372d-713e-4306-a0dc-ef5b2b5ad059","system_id":"levelo_inurba_marseille","lat":43.32829,"lon":5.36683,"is_reserved":false,"is_disabled":false,"rental_uris":{"android":"levelo://app?vid=d059372d-713e-4306-a0dc-ef5b2b5ad059","ios":"levelo://app?vid=d059372d-713e-4306-a0dc-ef5b2b5ad059"},"vehicle_type_id":"4","last_reported":1707858383,"current_range_meters":7600,"station_id":"ce4bhs92rcd13ifvqi0g","pricing_plan_id":"cebpf4jnsgd1na2vs0mg"},{"bike_id":"8d4d4aba-3495-4235-ada7-809a0bcb5c57","system_id":"levelo_inurba_marseille","lat":43.328293,"lon":5.366777,"is_reserved":false,"is_disabled":false,"rental_uris":{"android":"levelo://app?vid=8d4d4aba-3495-4235-ada7-809a0bcb5c57","ios":"levelo://app?vid=8d4d4aba-3495-4235-ada7-809a0bcb5c57"},"vehicle_type_id":"4","last_reported":1707858383,"current_range_meters":26800,"station_id":"ce4bhs92rcd13ifvqi0g","pricing_plan_id":"cebpf4jnsgd1na2vs0mg"},{"bike_id":"b1ae39ac-e250-4a6a-9a12-58352f8b9818","system_id":"levelo_inurba_marseille","lat":43.3283,"lon":5.36686,"is_reserved":false,"is_disabled":false,"rental_uris":{"android":"levelo://app?vid=b1ae39ac-e250-4a6a-9a12-58352f8b9818","ios":"levelo://app?vid=b1ae39ac-e250-4a6a-9a12-58352f8b9818"},"vehicle_type_id":"4","last_reported":1707858383,"current_range_meters":9600,"station_id":"ce4bhs92rcd13ifvqi0g","pricing_plan_id":"cebpf4jnsgd1na2vs0mg"},{"bike_id":"530b0293-faac-450b-b9c9-f6bd0cb4b490","system_id":"levelo_inurba_marseille","lat":43.3283,"lon":5.36684,"is_reserved":false,"is_disabled":false,"rental_uris":{"android":"levelo://app?vid=530b0293-faac-450b-b9c9-f6bd0cb4b490","ios":"levelo://app?vid=530b0293-faac-450b-b9c9-f6bd0cb4b490"},"vehicle_type_id":"4","last_reported":1707858383,"current_range_meters":16400,"station_id":"ce4bhs92rcd13ifvqi0g","pricing_plan_id":"cebpf4jnsgd1na2vs0mg"},{"bike_id":"41cabaa6-fb04-4591-b0e8-079b09bfd970","system_id":"levelo_inurba_marseille","lat":43.3283,"lon":5.36681,"is_reserved":false,"is_disabled":false,"rental_uris":{"android":"levelo://app?vid=41cabaa6-fb04-4591-b0e8-079b09bfd970","ios":"levelo://app?vid=41cabaa6-fb04-4591-b0e8-079b09bfd970"},"vehicle_type_id":"4","last_reported":1707858383,"current_range_meters":0,"station_id":"ce4bhs92rcd13ifvqi0g","pricing_plan_id":"cebpf4jnsgd1na2vs0mg"},{"bike_id":"6df14f4e-5762-4688-823c-207c1d70636e","system_id":"levelo_inurba_marseille","lat":43.3283,"lon":5.3668,"is_reserved":false,"is_disabled":false,"rental_uris":{"android":"levelo://app?vid=6df14f4e-5762-4688-823c-207c1d70636e","ios":"levelo://app?vid=6df14f4e-5762-4688-823c-207c1d70636e"},"vehicle_type_id":"4","last_reported":1707858383,"current_range_meters":8400,"station_id":"ce4bhs92rcd13ifvqi0g","pricing_plan_id":"cebpf4jnsgd1na2vs0mg"},{"bike_id":"2deee51f-fb5a-4bcb-a500-c4d35805e5a8","system_id":"levelo_inurba_marseille","lat":43.32831,"lon":5.36685,"is_reserved":false,"is_disabled":false,"rental_uris":{"android":"levelo://app?vid=2deee51f-fb5a-4bcb-a500-c4d35805e5a8","ios":"levelo://app?vid=2deee51f-fb5a-4bcb-a500-c4d35805e5a8"},"vehicle_type_id":"4","last_reported":1707858383,"current_range_meters":24000,"station_id":"ce4bhs92rcd13ifvqi0g","pricing_plan_id":"cebpf4jnsgd1na2vs0mg"},{"bike_id":"f41ceea4-9289-4d6b-990c-9f2656a72f3b","system_id":"levelo_inurba_marseille","lat":43.32831,"lon":5.3668,"is_reserved":false,"is_disabled":false,"rental_uris":{"android":"levelo://app?vid=f41ceea4-9289-4d6b-990c-9f2656a72f3b","ios":"levelo://app?vid=f41ceea4-9289-4d6b-990c-9f2656a72f3b"},"vehicle_type_id":"4","last_reported":1707858383,"current_range_meters":7200,"station_id":"ce4bhs92rcd13ifvqi0g","pricing_plan_id":"cebpf4jnsgd1na2vs0mg"},{"bike_id":"7c47e388-9433-4092-857a-2e1a28e7faaa","system_id":"levelo_inurba_marseille","lat":43.32831,"lon":5.36673,"is_reserved":false,"is_disabled":false,"rental_uris":{"android":"levelo://app?vid=7c47e388-9433-4092-857a-2e1a28e7faaa","ios":"levelo://app?vid=7c47e388-9433-4092-857a-2e1a28e7faaa"},"vehicle_type_id":"4","last_reported":1707858383,"current_range_meters":30400,"station_id":"ce4bhs92rcd13ifvqi0g","pricing_plan_id":"cebpf4jnsgd1na2vs0mg"},{"bike_id":"00c486e2-5b6f-4240-9c00-f34f4cd392e2","system_id":"levelo_inurba_marseille","lat":43.328313,"lon":5.366771,"is_reserved":false,"is_disabled":false,"rental_uris":{"android":"levelo://app?vid=00c486e2-5b6f-4240-9c00-f34f4cd392e2","ios":"levelo://app?vid=00c486e2-5b6f-4240-9c00-f34f4cd392e2"},"vehicle_type_id":"4","last_reported":1707858383,"current_range_meters":20800,"station_id":"ce4bhs92rcd13ifvqi0g","pricing_plan_id":"cebpf4jnsgd1na2vs0mg"},{"bike_id":"e53477e0-6f81-44d0-bf92-8c0c4ae8ef5b","system_id":"levelo_inurba_marseille","lat":43.32832,"lon":5.36686,"is_reserved":false,"is_disabled":false,"rental_uris":{"android":"levelo://app?vid=e53477e0-6f81-44d0-bf92-8c0c4ae8ef5b","ios":"levelo://app?vid=e53477e0-6f81-44d0-bf92-8c0c4ae8ef5b"},"vehicle_type_id":"4","last_reported":1707858383,"current_range_meters":23600,"station_id":"ce4bhs92rcd13ifvqi0g","pricing_plan_id":"cebpf4jnsgd1na2vs0mg"},{"bike_id":"8b36ce43-3bc7-4f8a-bb1e-1f87c12ac26a","system_id":"levelo_inurba_marseille","lat":43.328335,"lon":5.366845,"is_reserved":false,"is_disabled":false,"rental_uris":{"android":"levelo://app?vid=8b36ce43-3bc7-4f8a-bb1e-1f87c12ac26a","ios":"levelo://app?vid=8b36ce43-3bc7-4f8a-bb1e-1f87c12ac26a"},"vehicle_type_id":"4","last_reported":1707858383,"current_range_meters":13200,"station_id":"ce4bhs92rcd13ifvqi0g","pricing_plan_id":"cebpf4jnsgd1na2vs0mg"},{"bike_id":"8bd326d5-8ef8-4e43-9eb7-d4dfbed48ee1","system_id":"levelo_inurba_marseille","lat":43.32835,"lon":5.36692,"is_reserved":false,"is_disabled":false,"rental_uris":{"android":"levelo://app?vid=8bd326d5-8ef8-4e43-9eb7-d4dfbed48ee1","ios":"levelo://app?vid=8bd326d5-8ef8-4e43-9eb7-d4dfbed48ee1"},"vehicle_type_id":"4","last_reported":1707858383,"current_range_meters":4400,"station_id":"ce4bhs92rcd13ifvqi0g","pricing_plan_id":"cebpf4jnsgd1na2vs0mg"},{"bike_id":"38c9b4a3-3930-4aa1-aad5-ceff1d6b05fe","system_id":"levelo_inurba_marseille","lat":43.32835,"lon":5.36688,"is_reserved":false,"is_disabled":false,"rental_uris":{"android":"levelo://app?vid=38c9b4a3-3930-4aa1-aad5-ceff1d6b05fe","ios":"levelo://app?vid=38c9b4a3-3930-4aa1-aad5-ceff1d6b05fe"},"vehicle_type_id":"4","last_reported":1707858383,"current_range_meters":13600,"station_id":"ce4bhs92rcd13ifvqi0g","pricing_plan_id":"cebpf4jnsgd1na2vs0mg"},{"bike_id":"f4bc5f5b-9db1-4cc7-91ef-45246b43f923","system_id":"levelo_inurba_marseille","lat":43.297163,"lon":5.365866,"is_reserved":false,"is_disabled":false,"rental_uris":{"android":"levelo://app?vid=f4bc5f5b-9db1-4cc7-91ef-45246b43f923","ios":"levelo://app?vid=f4bc5f5b-9db1-4cc7-91ef-45246b43f923"},"vehicle_type_id":"4","last_reported":1707858383,"current_range_meters":13600,"station_id":"ce4bgn12rcd13ifvqbt0","pricing_plan_id":"cebpf4jnsgd1na2vs0mg"},{"bike_id":"c1cf6b3f-2bbd-4cb1-b8c2-b93d2ebfe323","system_id":"levelo_inurba_marseille","lat":43.297163,"lon":5.365866,"is_reserved":false,"is_disabled":false,"rental_uris":{"android":"levelo://app?vid=c1cf6b3f-2bbd-4cb1-b8c2-b93d2ebfe323","ios":"levelo://app?vid=c1cf6b3f-2bbd-4cb1-b8c2-b93d2ebfe323"},"vehicle_type_id":"4","last_reported":1707858383,"current_range_meters":10800,"station_id":"ce4bgn12rcd13ifvqbt0","pricing_plan_id":"cebpf4jnsgd1na2vs0mg"},{"bike_id":"ca9eb2bd-76f0-467a-b34d-3f09418a4a5b","system_id":"levelo_inurba_marseille","lat":43.297163,"lon":5.365866,"is_reserved":false,"is_disabled":false,"rental_uris":{"android":"levelo://app?vid=ca9eb2bd-76f0-467a-b34d-3f09418a4a5b","ios":"levelo://app?vid=ca9eb2bd-76f0-467a-b34d-3f09418a4a5b"},"vehicle_type_id":"4","last_reported":1707858383,"current_range_meters":30800,"station_id":"ce4bgn12rcd13ifvqbt0","pricing_plan_id":"cebpf4jnsgd1na2vs0mg"},{"bike_id":"b3224c42-1ebd-4e2c-8c55-ff559ab369aa","system_id":"levelo_inurba_marseille","lat":43.297163,"lon":5.365866,"is_reserved":false,"is_disabled":false,"rental_uris":{"android":"levelo://app?vid=b3224c42-1ebd-4e2c-8c55-ff559ab369aa","ios":"levelo://app?vid=b3224c42-1ebd-4e2c-8c55-ff559ab369aa"},"vehicle_type_id":"4","last_reported":1707858383,"current_range_meters":20000,"station_id":"ce4bgn12rcd13ifvqbt0","pricing_plan_id":"cebpf4jnsgd1na2vs0mg"},{"bike_id":"c4b5125b-06d0-4865-b239-c248f4688648","system_id":"levelo_inurba_marseille","lat":43.29841,"lon":5.3773,"is_reserved":false,"is_disabled":false,"rental_uris":{"android":"levelo://app?vid=c4b5125b-06d0-4865-b239-c248f4688648","ios":"levelo://app?vid=c4b5125b-06d0-4865-b239-c248f4688648"},"vehicle_type_id":"4","last_reported":1707858383,"current_range_meters":6400,"station_id":"","pricing_plan_id":"cebpf4jnsgd1na2vs0mg"},{"bike_id":"39d3c7cf-25b7-446f-8605-45c2c2927825","system_id":"levelo_inurba_marseille","lat":43.29693,"lon":5.37292,"is_reserved":false,"is_disabled":false,"rental_uris":{"android":"levelo://app?vid=39d3c7cf-25b7-446f-8605-45c2c2927825","ios":"levelo://app?vid=39d3c7cf-25b7-446f-8605-45c2c2927825"},"vehicle_type_id":"4","last_reported":1707858383,"current_range_meters":31200,"station_id":"ce4bgk12rcd13ifvqbj0","pricing_plan_id":"cebpf4jnsgd1na2vs0mg"},{"bike_id":"8c5f1e27-1508-4878-afb8-78079d9b7dfb","system_id":"levelo_inurba_marseille","lat":43.29738,"lon":5.3752,"is_reserved":false,"is_disabled":false,"rental_uris":{"android":"levelo://app?vid=8c5f1e27-1508-4878-afb8-78079d9b7dfb","ios":"levelo://app?vid=8c5f1e27-1508-4878-afb8-78079d9b7dfb"},"vehicle_type_id":"4","last_reported":1707858383,"current_range_meters":800,"station_id":"","pricing_plan_id":"cebpf4jnsgd1na2vs0mg"},{"bike_id":"f902c375-b225-4ad1-976c-fff3baa4b7ed","system_id":"levelo_inurba_marseille","lat":43.309589,"lon":5.390258,"is_reserved":false,"is_disabled":false,"rental_uris":{"android":"levelo://app?vid=f902c375-b225-4ad1-976c-fff3baa4b7ed","ios":"levelo://app?vid=f902c375-b225-4ad1-976c-fff3baa4b7ed"},"vehicle_type_id":"4","last_reported":1707858383,"current_range_meters":28800,"station_id":"ce4bgup2rcd13ifvqco0","pricing_plan_id":"cebpf4jnsgd1na2vs0mg"},{"bike_id":"a49498e4-76a2-4a02-ae1f-68c796c15f59","system_id":"levelo_inurba_marseille","lat":43.31758,"lon":5.39005,"is_reserved":false,"is_disabled":false,"rental_uris":{"android":"levelo://app?vid=a49498e4-76a2-4a02-ae1f-68c796c15f59","ios":"levelo://app?vid=a49498e4-76a2-4a02-ae1f-68c796c15f59"},"vehicle_type_id":"4","last_reported":1707858383,"current_range_meters":1200,"station_id":"ce4bhqp2rcd13ifvqhng","pricing_plan_id":"cebpf4jnsgd1na2vs0mg"},{"bike_id":"095b561f-b67d-4dfc-8b7b-24904c0d74fe","system_id":"levelo_inurba_marseille","lat":43.31757,"lon":5.390077,"is_reserved":false,"is_disabled":false,"rental_uris":{"android":"levelo://app?vid=095b561f-b67d-4dfc-8b7b-24904c0d74fe","ios":"levelo://app?vid=095b561f-b67d-4dfc-8b7b-24904c0d74fe"},"vehicle_type_id":"4","last_reported":1707858383,"current_range_meters":22400,"station_id":"ce4bhqp2rcd13ifvqhng","pricing_plan_id":"cebpf4jnsgd1na2vs0mg"},{"bike_id":"0d568f49-9e25-417a-91e9-babe78949eca","system_id":"levelo_inurba_marseille","lat":43.317557,"lon":5.390173,"is_reserved":false,"is_disabled":false,"rental_uris":{"android":"levelo://app?vid=0d568f49-9e25-417a-91e9-babe78949eca","ios":"levelo://app?vid=0d568f49-9e25-417a-91e9-babe78949eca"},"vehicle_type_id":"4","last_reported":1707858383,"current_range_meters":31200,"station_id":"ce4bhqp2rcd13ifvqhng","pricing_plan_id":"cebpf4jnsgd1na2vs0mg"},{"bike_id":"13db1a0a-84c8-4ba0-87f6-9800285e27fa","system_id":"levelo_inurba_marseille","lat":43.317557,"lon":5.390173,"is_reserved":false,"is_disabled":false,"rental_uris":{"android":"levelo://app?vid=13db1a0a-84c8-4ba0-87f6-9800285e27fa","ios":"levelo://app?vid=13db1a0a-84c8-4ba0-87f6-9800285e27fa"},"vehicle_type_id":"4","last_reported":1707858383,"current_range_meters":26800,"station_id":"ce4bhqp2rcd13ifvqhng","pricing_plan_id":"cebpf4jnsgd1na2vs0mg"},{"bike_id":"39c94f4e-94d9-4b12-aff8-cdb6b284c034","system_id":"levelo_inurba_marseille","lat":43.317557,"lon":5.390173,"is_reserved":false,"is_disabled":false,"rental_uris":{"android":"levelo://app?vid=39c94f4e-94d9-4b12-aff8-cdb6b284c034","ios":"levelo://app?vid=39c94f4e-94d9-4b12-aff8-cdb6b284c034"},"vehicle_type_id":"4","last_reported":1707858383,"current_range_meters":21200,"station_id":"ce4bhqp2rcd13ifvqhng","pricing_plan_id":"cebpf4jnsgd1na2vs0mg"},{"bike_id":"46fddee0-8afd-4938-8611-aae2e5c099d9","system_id":"levelo_inurba_marseille","lat":43.317557,"lon":5.390173,"is_reserved":false,"is_disabled":false,"rental_uris":{"android":"levelo://app?vid=46fddee0-8afd-4938-8611-aae2e5c099d9","ios":"levelo://app?vid=46fddee0-8afd-4938-8611-aae2e5c099d9"},"vehicle_type_id":"4","last_reported":1707858383,"current_range_meters":29200,"station_id":"ce4bhqp2rcd13ifvqhng","pricing_plan_id":"cebpf4jnsgd1na2vs0mg"},{"bike_id":"9310559c-22d3-4744-8b16-cacb48dba489","system_id":"levelo_inurba_marseille","lat":43.317557,"lon":5.390173,"is_reserved":false,"is_disabled":false,"rental_uris":{"android":"levelo://app?vid=9310559c-22d3-4744-8b16-cacb48dba489","ios":"levelo://app?vid=9310559c-22d3-4744-8b16-cacb48dba489"},"vehicle_type_id":"4","last_reported":1707858383,"current_range_meters":31600,"station_id":"ce4bhqp2rcd13ifvqhng","pricing_plan_id":"cebpf4jnsgd1na2vs0mg"},{"bike_id":"1283398e-1c0e-4cca-9df7-0413f541a207","system_id":"levelo_inurba_marseille","lat":43.317557,"lon":5.390173,"is_reserved":false,"is_disabled":false,"rental_uris":{"android":"levelo://app?vid=1283398e-1c0e-4cca-9df7-0413f541a207","ios":"levelo://app?vid=1283398e-1c0e-4cca-9df7-0413f541a207"},"vehicle_type_id":"4","last_reported":1707858383,"current_range_meters":19200,"station_id":"ce4bhqp2rcd13ifvqhng","pricing_plan_id":"cebpf4jnsgd1na2vs0mg"},{"bike_id":"6bbdbcf9-8545-4c1a-866f-b1aacd2086cc","system_id":"levelo_inurba_marseille","lat":43.317557,"lon":5.390173,"is_reserved":false,"is_disabled":false,"rental_uris":{"android":"levelo://app?vid=6bbdbcf9-8545-4c1a-866f-b1aacd2086cc","ios":"levelo://app?vid=6bbdbcf9-8545-4c1a-866f-b1aacd2086cc"},"vehicle_type_id":"4","last_reported":1707858383,"current_range_meters":21600,"station_id":"ce4bhqp2rcd13ifvqhng","pricing_plan_id":"cebpf4jnsgd1na2vs0mg"},{"bike_id":"a66fec16-5c26-4073-bc2a-b4cafe2573db","system_id":"levelo_inurba_marseille","lat":43.2975,"lon":5.37929,"is_reserved":false,"is_disabled":false,"rental_uris":{"android":"levelo://app?vid=a66fec16-5c26-4073-bc2a-b4cafe2573db","ios":"levelo://app?vid=a66fec16-5c26-4073-bc2a-b4cafe2573db"},"vehicle_type_id":"4","last_reported":1707858383,"current_range_meters":3600,"station_id":"","pricing_plan_id":"cebpf4jnsgd1na2vs0mg"},{"bike_id":"87dca717-0ccb-4731-8b48-48db74325e38","system_id":"levelo_inurba_marseille","lat":43.29805,"lon":5.38088,"is_reserved":false,"is_disabled":false,"rental_uris":{"android":"levelo://app?vid=87dca717-0ccb-4731-8b48-48db74325e38","ios":"levelo://app?vid=87dca717-0ccb-4731-8b48-48db74325e38"},"vehicle_type_id":"4","last_reported":1707858383,"current_range_meters":31200,"station_id":"ce4bgip2rcd13ifvqbb0","pricing_plan_id":"cebpf4jnsgd1na2vs0mg"},{"bike_id":"cfbbf573-b4f8-4883-baf0-ceacbdeda221","system_id":"levelo_inurba_marseille","lat":43.29797,"lon":5.38082,"is_reserved":false,"is_disabled":false,"rental_uris":{"android":"levelo://app?vid=cfbbf573-b4f8-4883-baf0-ceacbdeda221","ios":"levelo://app?vid=cfbbf573-b4f8-4883-baf0-ceacbdeda221"},"vehicle_type_id":"4","last_reported":1707858383,"current_range_meters":13200,"station_id":"ce4bgip2rcd13ifvqbb0","pricing_plan_id":"cebpf4jnsgd1na2vs0mg"},{"bike_id":"d0c7f4f6-d411-4aa0-a796-04cee7c77609","system_id":"levelo_inurba_marseille","lat":43.304278,"lon":5.388868,"is_reserved":false,"is_disabled":false,"rental_uris":{"android":"levelo://app?vid=d0c7f4f6-d411-4aa0-a796-04cee7c77609","ios":"levelo://app?vid=d0c7f4f6-d411-4aa0-a796-04cee7c77609"},"vehicle_type_id":"4","last_reported":1707858383,"current_range_meters":18800,"station_id":"ce4bgk12rcd13ifvqbi0","pricing_plan_id":"cebpf4jnsgd1na2vs0mg"},{"bike_id":"648d6e7b-9a06-437a-aee6-63816bb138cb","system_id":"levelo_inurba_marseille","lat":43.304278,"lon":5.388868,"is_reserved":false,"is_disabled":false,"rental_uris":{"android":"levelo://app?vid=648d6e7b-9a06-437a-aee6-63816bb138cb","ios":"levelo://app?vid=648d6e7b-9a06-437a-aee6-63816bb138cb"},"vehicle_type_id":"4","last_reported":1707858383,"current_range_meters":20400,"station_id":"ce4bgk12rcd13ifvqbi0","pricing_plan_id":"cebpf4jnsgd1na2vs0mg"},{"bike_id":"88dcc8fa-eda2-406e-8daa-4a86ad32696c","system_id":"levelo_inurba_marseille","lat":43.296277,"lon":5.377108,"is_reserved":false,"is_disabled":false,"rental_uris":{"android":"levelo://app?vid=88dcc8fa-eda2-406e-8daa-4a86ad32696c","ios":"levelo://app?vid=88dcc8fa-eda2-406e-8daa-4a86ad32696c"},"vehicle_type_id":"4","last_reported":1707858383,"current_range_meters":26400,"station_id":"ce4bgi92rcd13ifvqb90","pricing_plan_id":"cebpf4jnsgd1na2vs0mg"},{"bike_id":"705da99b-eb32-4593-9ce5-3afb7f6b914a","system_id":"levelo_inurba_marseille","lat":43.296023,"lon":5.377137,"is_reserved":false,"is_disabled":false,"rental_uris":{"android":"levelo://app?vid=705da99b-eb32-4593-9ce5-3afb7f6b914a","ios":"levelo://app?vid=705da99b-eb32-4593-9ce5-3afb7f6b914a"},"vehicle_type_id":"4","last_reported":1707858383,"current_range_meters":29600,"station_id":"ce4bgi92rcd13ifvqb90","pricing_plan_id":"cebpf4jnsgd1na2vs0mg"},{"bike_id":"7f75f8b2-ecc2-4d50-a581-f65cc808e156","system_id":"levelo_inurba_marseille","lat":43.29983,"lon":5.38499,"is_reserved":false,"is_disabled":false,"rental_uris":{"android":"levelo://app?vid=7f75f8b2-ecc2-4d50-a581-f65cc808e156","ios":"levelo://app?vid=7f75f8b2-ecc2-4d50-a581-f65cc808e156"},"vehicle_type_id":"4","last_reported":1707858383,"current_range_meters":0,"station_id":"ce4bgj92rcd13ifvqbd0","pricing_plan_id":"cebpf4jnsgd1na2vs0mg"},{"bike_id":"190a5763-79ad-4a82-b951-3b7c7e1a05dc","system_id":"levelo_inurba_marseille","lat":43.29973,"lon":5.38494,"is_reserved":false,"is_disabled":false,"rental_uris":{"android":"levelo://app?vid=190a5763-79ad-4a82-b951-3b7c7e1a05dc","ios":"levelo://app?vid=190a5763-79ad-4a82-b951-3b7c7e1a05dc"},"vehicle_type_id":"4","last_reported":1707858383,"current_range_meters":7200,"station_id":"","pricing_plan_id":"cebpf4jnsgd1na2vs0mg"},{"bike_id":"717fae1b-74a7-49b2-b4c9-1f50976a1b71","system_id":"levelo_inurba_marseille","lat":43.32367,"lon":5.388836,"is_reserved":false,"is_disabled":false,"rental_uris":{"android":"levelo://app?vid=717fae1b-74a7-49b2-b4c9-1f50976a1b71","ios":"levelo://app?vid=717fae1b-74a7-49b2-b4c9-1f50976a1b71"},"vehicle_type_id":"4","last_reported":1707858383,"current_range_meters":21200,"station_id":"ce4bhqp2rcd13ifvqhog","pricing_plan_id":"cebpf4jnsgd1na2vs0mg"},{"bike_id":"dda016c9-25a8-4e98-89c2-61cf41b68115","system_id":"levelo_inurba_marseille","lat":43.32364,"lon":5.38886,"is_reserved":false,"is_disabled":false,"rental_uris":{"android":"levelo://app?vid=dda016c9-25a8-4e98-89c2-61cf41b68115","ios":"levelo://app?vid=dda016c9-25a8-4e98-89c2-61cf41b68115"},"vehicle_type_id":"4","last_reported":1707858383,"current_range_meters":14000,"station_id":"ce4bhqp2rcd13ifvqhog","pricing_plan_id":"cebpf4jnsgd1na2vs0mg"},{"bike_id":"5d8b3fba-147e-4ac8-adcf-37e2745b4edf","system_id":"levelo_inurba_marseille","lat":43.32367,"lon":5.388836,"is_reserved":false,"is_disabled":false,"rental_uris":{"android":"levelo://app?vid=5d8b3fba-147e-4ac8-adcf-37e2745b4edf","ios":"levelo://app?vid=5d8b3fba-147e-4ac8-adcf-37e2745b4edf"},"vehicle_type_id":"4","last_reported":1707858383,"current_range_meters":16000,"station_id":"ce4bhqp2rcd13ifvqhog","pricing_plan_id":"cebpf4jnsgd1na2vs0mg"},{"bike_id":"c814b3c0-3206-4333-9010-f90f4bcf60b7","system_id":"levelo_inurba_marseille","lat":43.32367,"lon":5.38889,"is_reserved":false,"is_disabled":false,"rental_uris":{"android":"levelo://app?vid=c814b3c0-3206-4333-9010-f90f4bcf60b7","ios":"levelo://app?vid=c814b3c0-3206-4333-9010-f90f4bcf60b7"},"vehicle_type_id":"4","last_reported":1707858383,"current_range_meters":25600,"station_id":"ce4bhqp2rcd13ifvqhog","pricing_plan_id":"cebpf4jnsgd1na2vs0mg"},{"bike_id":"8c86de1b-34ad-4a57-8111-be43a668f670","system_id":"levelo_inurba_marseille","lat":43.29602,"lon":5.381084,"is_reserved":false,"is_disabled":false,"rental_uris":{"android":"levelo://app?vid=8c86de1b-34ad-4a57-8111-be43a668f670","ios":"levelo://app?vid=8c86de1b-34ad-4a57-8111-be43a668f670"},"vehicle_type_id":"4","last_reported":1707858383,"current_range_meters":12800,"station_id":"ce4bgl12rcd13ifvqbo0","pricing_plan_id":"cebpf4jnsgd1na2vs0mg"},{"bike_id":"413e9b16-f6d6-4281-9921-6ff1dbcea212","system_id":"levelo_inurba_marseille","lat":43.29596,"lon":5.380907,"is_reserved":false,"is_disabled":false,"rental_uris":{"android":"levelo://app?vid=413e9b16-f6d6-4281-9921-6ff1dbcea212","ios":"levelo://app?vid=413e9b16-f6d6-4281-9921-6ff1dbcea212"},"vehicle_type_id":"4","last_reported":1707858383,"current_range_meters":31200,"station_id":"ce4bgl12rcd13ifvqbo0","pricing_plan_id":"cebpf4jnsgd1na2vs0mg"},{"bike_id":"dafed823-2a13-4e36-9011-3a3ea52ad392","system_id":"levelo_inurba_marseille","lat":43.293009,"lon":5.374584,"is_reserved":false,"is_disabled":false,"rental_uris":{"android":"levelo://app?vid=dafed823-2a13-4e36-9011-3a3ea52ad392","ios":"levelo://app?vid=dafed823-2a13-4e36-9011-3a3ea52ad392"},"vehicle_type_id":"4","last_reported":1707858383,"current_range_meters":0,"station_id":"ce4bgi12rcd13ifvqb70","pricing_plan_id":"cebpf4jnsgd1na2vs0mg"},{"bike_id":"6dd66214-c896-402d-9b87-add061b95e25","system_id":"levelo_inurba_marseille","lat":43.293009,"lon":5.374584,"is_reserved":false,"is_disabled":false,"rental_uris":{"android":"levelo://app?vid=6dd66214-c896-402d-9b87-add061b95e25","ios":"levelo://app?vid=6dd66214-c896-402d-9b87-add061b95e25"},"vehicle_type_id":"4","last_reported":1707858383,"current_range_meters":22400,"station_id":"ce4bgi12rcd13ifvqb70","pricing_plan_id":"cebpf4jnsgd1na2vs0mg"},{"bike_id":"92d5fc08-6b5c-41a9-875a-02634adc37aa","system_id":"levelo_inurba_marseille","lat":43.305994,"lon":5.393687,"is_reserved":false,"is_disabled":false,"rental_uris":{"android":"levelo://app?vid=92d5fc08-6b5c-41a9-875a-02634adc37aa","ios":"levelo://app?vid=92d5fc08-6b5c-41a9-875a-02634adc37aa"},"vehicle_type_id":"4","last_reported":1707858383,"current_range_meters":31200,"station_id":"ce4bh0p2rcd13ifvqd80","pricing_plan_id":"cebpf4jnsgd1na2vs0mg"},{"bike_id":"6b1b40eb-7df6-4e5f-b6b9-8345877823d9","system_id":"levelo_inurba_marseille","lat":43.305986,"lon":5.393646,"is_reserved":false,"is_disabled":false,"rental_uris":{"android":"levelo://app?vid=6b1b40eb-7df6-4e5f-b6b9-8345877823d9","ios":"levelo://app?vid=6b1b40eb-7df6-4e5f-b6b9-8345877823d9"},"vehicle_type_id":"4","last_reported":1707858383,"current_range_meters":4000,"station_id":"","pricing_plan_id":"cebpf4jnsgd1na2vs0mg"},{"bike_id":"43d74663-1b59-42f1-bc45-0697c48c54d5","system_id":"levelo_inurba_marseille","lat":43.29292,"lon":5.37457,"is_reserved":false,"is_disabled":false,"rental_uris":{"android":"levelo://app?vid=43d74663-1b59-42f1-bc45-0697c48c54d5","ios":"levelo://app?vid=43d74663-1b59-42f1-bc45-0697c48c54d5"},"vehicle_type_id":"4","last_reported":1707858383,"current_range_meters":0,"station_id":"ce4bgi12rcd13ifvqb70","pricing_plan_id":"cebpf4jnsgd1na2vs0mg"},{"bike_id":"b16c1a7b-2192-433e-9603-cfac06c64542","system_id":"levelo_inurba_marseille","lat":43.2936,"lon":5.37835,"is_reserved":false,"is_disabled":false,"rental_uris":{"android":"levelo://app?vid=b16c1a7b-2192-433e-9603-cfac06c64542","ios":"levelo://app?vid=b16c1a7b-2192-433e-9603-cfac06c64542"},"vehicle_type_id":"4","last_reported":1707858383,"current_range_meters":21600,"station_id":"ce4bgjh2rcd13ifvqbf0","pricing_plan_id":"cebpf4jnsgd1na2vs0mg"},{"bike_id":"cc63f427-4ff5-42f2-af58-033a59382fe3","system_id":"levelo_inurba_marseille","lat":43.2936,"lon":5.37835,"is_reserved":false,"is_disabled":false,"rental_uris":{"android":"levelo://app?vid=cc63f427-4ff5-42f2-af58-033a59382fe3","ios":"levelo://app?vid=cc63f427-4ff5-42f2-af58-033a59382fe3"},"vehicle_type_id":"4","last_reported":1707858383,"current_range_meters":1600,"station_id":"ce4bgjh2rcd13ifvqbf0","pricing_plan_id":"cebpf4jnsgd1na2vs0mg"},{"bike_id":"5cfdce0b-5fda-4a7b-b226-5d8e8830836f","system_id":"levelo_inurba_marseille","lat":43.2936,"lon":5.37835,"is_reserved":false,"is_disabled":false,"rental_uris":{"android":"levelo://app?vid=5cfdce0b-5fda-4a7b-b226-5d8e8830836f","ios":"levelo://app?vid=5cfdce0b-5fda-4a7b-b226-5d8e8830836f"},"vehicle_type_id":"4","last_reported":1707858383,"current_range_meters":0,"station_id":"ce4bgjh2rcd13ifvqbf0","pricing_plan_id":"cebpf4jnsgd1na2vs0mg"},{"bike_id":"f5f75c6e-a075-4349-aae8-381db0185037","system_id":"levelo_inurba_marseille","lat":43.2936,"lon":5.37835,"is_reserved":false,"is_disabled":false,"rental_uris":{"android":"levelo://app?vid=f5f75c6e-a075-4349-aae8-381db0185037","ios":"levelo://app?vid=f5f75c6e-a075-4349-aae8-381db0185037"},"vehicle_type_id":"4","last_reported":1707858383,"current_range_meters":7600,"station_id":"ce4bgjh2rcd13ifvqbf0","pricing_plan_id":"cebpf4jnsgd1na2vs0mg"},{"bike_id":"8324c727-b01c-48de-b193-142d393a2524","system_id":"levelo_inurba_marseille","lat":43.29365,"lon":5.378437,"is_reserved":false,"is_disabled":false,"rental_uris":{"android":"levelo://app?vid=8324c727-b01c-48de-b193-142d393a2524","ios":"levelo://app?vid=8324c727-b01c-48de-b193-142d393a2524"},"vehicle_type_id":"4","last_reported":1707858383,"current_range_meters":0,"station_id":"ce4bgjh2rcd13ifvqbf0","pricing_plan_id":"cebpf4jnsgd1na2vs0mg"},{"bike_id":"44af555d-6925-48bc-93a4-4c4fd150e3b5","system_id":"levelo_inurba_marseille","lat":43.300852,"lon":5.390859,"is_reserved":false,"is_disabled":false,"rental_uris":{"android":"levelo://app?vid=44af555d-6925-48bc-93a4-4c4fd150e3b5","ios":"levelo://app?vid=44af555d-6925-48bc-93a4-4c4fd150e3b5"},"vehicle_type_id":"4","last_reported":1707858383,"current_range_meters":11600,"station_id":"ce4bh192rcd13ifvqdb0","pricing_plan_id":"cebpf4jnsgd1na2vs0mg"},{"bike_id":"372d89c2-66e3-4e2a-896d-dba4e185d653","system_id":"levelo_inurba_marseille","lat":43.292215,"lon":5.36053,"is_reserved":false,"is_disabled":false,"rental_uris":{"android":"levelo://app?vid=372d89c2-66e3-4e2a-896d-dba4e185d653","ios":"levelo://app?vid=372d89c2-66e3-4e2a-896d-dba4e185d653"},"vehicle_type_id":"4","last_reported":1707858383,"current_range_meters":20800,"station_id":"ce4bhbh2rcd13ifvqeqg","pricing_plan_id":"cebpf4jnsgd1na2vs0mg"},{"bike_id":"ff760cc2-b458-4560-a902-ee8fb30f8443","system_id":"levelo_inurba_marseille","lat":43.29213,"lon":5.36052,"is_reserved":false,"is_disabled":false,"rental_uris":{"android":"levelo://app?vid=ff760cc2-b458-4560-a902-ee8fb30f8443","ios":"levelo://app?vid=ff760cc2-b458-4560-a902-ee8fb30f8443"},"vehicle_type_id":"4","last_reported":1707858383,"current_range_meters":22000,"station_id":"ce4bhbh2rcd13ifvqeqg","pricing_plan_id":"cebpf4jnsgd1na2vs0mg"},{"bike_id":"667eff39-f73d-41ef-9201-6730861c6676","system_id":"levelo_inurba_marseille","lat":43.298764,"lon":5.388973,"is_reserved":false,"is_disabled":false,"rental_uris":{"android":"levelo://app?vid=667eff39-f73d-41ef-9201-6730861c6676","ios":"levelo://app?vid=667eff39-f73d-41ef-9201-6730861c6676"},"vehicle_type_id":"4","last_reported":1707858383,"current_range_meters":22800,"station_id":"ce4bh392rcd13ifvqdl0","pricing_plan_id":"cebpf4jnsgd1na2vs0mg"},{"bike_id":"45441cf3-7f1a-4076-8fca-1da3785a41b5","system_id":"levelo_inurba_marseille","lat":43.298764,"lon":5.388973,"is_reserved":false,"is_disabled":false,"rental_uris":{"android":"levelo://app?vid=45441cf3-7f1a-4076-8fca-1da3785a41b5","ios":"levelo://app?vid=45441cf3-7f1a-4076-8fca-1da3785a41b5"},"vehicle_type_id":"4","last_reported":1707858383,"current_range_meters":0,"station_id":"ce4bh392rcd13ifvqdl0","pricing_plan_id":"cebpf4jnsgd1na2vs0mg"},{"bike_id":"9eb79d80-2637-4de1-a966-89e8d3432b61","system_id":"levelo_inurba_marseille","lat":43.298764,"lon":5.388973,"is_reserved":false,"is_disabled":false,"rental_uris":{"android":"levelo://app?vid=9eb79d80-2637-4de1-a966-89e8d3432b61","ios":"levelo://app?vid=9eb79d80-2637-4de1-a966-89e8d3432b61"},"vehicle_type_id":"4","last_reported":1707858383,"current_range_meters":4400,"station_id":"ce4bh392rcd13ifvqdl0","pricing_plan_id":"cebpf4jnsgd1na2vs0mg"},{"bike_id":"59ba627c-45f6-4744-8aba-4451f210e680","system_id":"levelo_inurba_marseille","lat":43.298764,"lon":5.388973,"is_reserved":false,"is_disabled":false,"rental_uris":{"android":"levelo://app?vid=59ba627c-45f6-4744-8aba-4451f210e680","ios":"levelo://app?vid=59ba627c-45f6-4744-8aba-4451f210e680"},"vehicle_type_id":"4","last_reported":1707858383,"current_range_meters":8800,"station_id":"ce4bh392rcd13ifvqdl0","pricing_plan_id":"cebpf4jnsgd1na2vs0mg"},{"bike_id":"49b6b8e3-7804-4f70-8b44-6667a37e802e","system_id":"levelo_inurba_marseille","lat":43.298764,"lon":5.388973,"is_reserved":false,"is_disabled":false,"rental_uris":{"android":"levelo://app?vid=49b6b8e3-7804-4f70-8b44-6667a37e802e","ios":"levelo://app?vid=49b6b8e3-7804-4f70-8b44-6667a37e802e"},"vehicle_type_id":"4","last_reported":1707858383,"current_range_meters":30000,"station_id":"ce4bh392rcd13ifvqdl0","pricing_plan_id":"cebpf4jnsgd1na2vs0mg"},{"bike_id":"7804a1ff-a34a-45a8-8099-809316d89e32","system_id":"levelo_inurba_marseille","lat":43.291994,"lon":5.357886,"is_reserved":false,"is_disabled":false,"rental_uris":{"android":"levelo://app?vid=7804a1ff-a34a-45a8-8099-809316d89e32","ios":"levelo://app?vid=7804a1ff-a34a-45a8-8099-809316d89e32"},"vehicle_type_id":"4","last_reported":1707858383,"current_range_meters":4000,"station_id":"ce4bhb12rcd13ifvqel0","pricing_plan_id":"cebpf4jnsgd1na2vs0mg"},{"bike_id":"5683db77-5fa9-4a97-a3cb-35dc2afa3e3b","system_id":"levelo_inurba_marseille","lat":43.313291,"lon":5.396838,"is_reserved":false,"is_disabled":false,"rental_uris":{"android":"levelo://app?vid=5683db77-5fa9-4a97-a3cb-35dc2afa3e3b","ios":"levelo://app?vid=5683db77-5fa9-4a97-a3cb-35dc2afa3e3b"},"vehicle_type_id":"4","last_reported":1707858383,"current_range_meters":0,"station_id":"ce4bgvp2rcd13ifvqcu0","pricing_plan_id":"cebpf4jnsgd1na2vs0mg"},{"bike_id":"d6cd38b4-678b-4b08-94a2-c080fcf3634e","system_id":"levelo_inurba_marseille","lat":43.291936,"lon":5.358097,"is_reserved":false,"is_disabled":false,"rental_uris":{"android":"levelo://app?vid=d6cd38b4-678b-4b08-94a2-c080fcf3634e","ios":"levelo://app?vid=d6cd38b4-678b-4b08-94a2-c080fcf3634e"},"vehicle_type_id":"4","last_reported":1707858383,"current_range_meters":29600,"station_id":"ce4bhb12rcd13ifvqel0","pricing_plan_id":"cebpf4jnsgd1na2vs0mg"},{"bike_id":"cf13d62b-e9ac-4319-bf84-78c512fda1b9","system_id":"levelo_inurba_marseille","lat":43.309038,"lon":5.396546,"is_reserved":false,"is_disabled":false,"rental_uris":{"android":"levelo://app?vid=cf13d62b-e9ac-4319-bf84-78c512fda1b9","ios":"levelo://app?vid=cf13d62b-e9ac-4319-bf84-78c512fda1b9"},"vehicle_type_id":"4","last_reported":1707858383,"current_range_meters":31200,"station_id":"ce4bh012rcd13ifvqcv0","pricing_plan_id":"cebpf4jnsgd1na2vs0mg"},{"bike_id":"ffba7ffe-c6d6-4776-afd5-76bbb9bbb2d4","system_id":"levelo_inurba_marseille","lat":43.313291,"lon":5.396838,"is_reserved":false,"is_disabled":false,"rental_uris":{"android":"levelo://app?vid=ffba7ffe-c6d6-4776-afd5-76bbb9bbb2d4","ios":"levelo://app?vid=ffba7ffe-c6d6-4776-afd5-76bbb9bbb2d4"},"vehicle_type_id":"4","last_reported":1707858383,"current_range_meters":10000,"station_id":"ce4bgvp2rcd13ifvqcu0","pricing_plan_id":"cebpf4jnsgd1na2vs0mg"},{"bike_id":"34bdd3cb-8d52-405a-919b-595224270b84","system_id":"levelo_inurba_marseille","lat":43.30887,"lon":5.39646,"is_reserved":false,"is_disabled":false,"rental_uris":{"android":"levelo://app?vid=34bdd3cb-8d52-405a-919b-595224270b84","ios":"levelo://app?vid=34bdd3cb-8d52-405a-919b-595224270b84"},"vehicle_type_id":"4","last_reported":1707858383,"current_range_meters":400,"station_id":"ce4bh012rcd13ifvqcv0","pricing_plan_id":"cebpf4jnsgd1na2vs0mg"},{"bike_id":"57ea175d-3917-4e25-92b9-efc357cbebac","system_id":"levelo_inurba_marseille","lat":43.313291,"lon":5.396838,"is_reserved":false,"is_disabled":false,"rental_uris":{"android":"levelo://app?vid=57ea175d-3917-4e25-92b9-efc357cbebac","ios":"levelo://app?vid=57ea175d-3917-4e25-92b9-efc357cbebac"},"vehicle_type_id":"4","last_reported":1707858383,"current_range_meters":24400,"station_id":"ce4bgvp2rcd13ifvqcu0","pricing_plan_id":"cebpf4jnsgd1na2vs0mg"},{"bike_id":"c8cce3e3-b075-4976-bd9f-13f28abf6511","system_id":"levelo_inurba_marseille","lat":43.291994,"lon":5.357886,"is_reserved":false,"is_disabled":false,"rental_uris":{"android":"levelo://app?vid=c8cce3e3-b075-4976-bd9f-13f28abf6511","ios":"levelo://app?vid=c8cce3e3-b075-4976-bd9f-13f28abf6511"},"vehicle_type_id":"4","last_reported":1707858383,"current_range_meters":17600,"station_id":"ce4bhb12rcd13ifvqel0","pricing_plan_id":"cebpf4jnsgd1na2vs0mg"},{"bike_id":"9c229404-84ad-4b13-a885-0acc2e42a3f0","system_id":"levelo_inurba_marseille","lat":43.313291,"lon":5.396838,"is_reserved":false,"is_disabled":false,"rental_uris":{"android":"levelo://app?vid=9c229404-84ad-4b13-a885-0acc2e42a3f0","ios":"levelo://app?vid=9c229404-84ad-4b13-a885-0acc2e42a3f0"},"vehicle_type_id":"4","last_reported":1707858383,"current_range_meters":30000,"station_id":"ce4bgvp2rcd13ifvqcu0","pricing_plan_id":"cebpf4jnsgd1na2vs0mg"},{"bike_id":"40d2783a-dc92-4ed3-81e4-d0b8ba9563bb","system_id":"levelo_inurba_marseille","lat":43.308793,"lon":5.396456,"is_reserved":false,"is_disabled":false,"rental_uris":{"android":"levelo://app?vid=40d2783a-dc92-4ed3-81e4-d0b8ba9563bb","ios":"levelo://app?vid=40d2783a-dc92-4ed3-81e4-d0b8ba9563bb"},"vehicle_type_id":"4","last_reported":1707858383,"current_range_meters":10800,"station_id":"ce4bh012rcd13ifvqcv0","pricing_plan_id":"cebpf4jnsgd1na2vs0mg"},{"bike_id":"2075e603-a853-4864-8be9-d2ccfb00dd28","system_id":"levelo_inurba_marseille","lat":43.309038,"lon":5.396546,"is_reserved":false,"is_disabled":false,"rental_uris":{"android":"levelo://app?vid=2075e603-a853-4864-8be9-d2ccfb00dd28","ios":"levelo://app?vid=2075e603-a853-4864-8be9-d2ccfb00dd28"},"vehicle_type_id":"4","last_reported":1707858383,"current_range_meters":20000,"station_id":"ce4bh012rcd13ifvqcv0","pricing_plan_id":"cebpf4jnsgd1na2vs0mg"},{"bike_id":"61bddf63-0bc1-4efd-a5d5-f8d40970a19d","system_id":"levelo_inurba_marseille","lat":43.308853,"lon":5.396498,"is_reserved":false,"is_disabled":false,"rental_uris":{"android":"levelo://app?vid=61bddf63-0bc1-4efd-a5d5-f8d40970a19d","ios":"levelo://app?vid=61bddf63-0bc1-4efd-a5d5-f8d40970a19d"},"vehicle_type_id":"4","last_reported":1707858383,"current_range_meters":7600,"station_id":"ce4bh012rcd13ifvqcv0","pricing_plan_id":"cebpf4jnsgd1na2vs0mg"},{"bike_id":"e42f925f-6183-46fb-8657-b430fae0db8f","system_id":"levelo_inurba_marseille","lat":43.30888,"lon":5.39652,"is_reserved":false,"is_disabled":false,"rental_uris":{"android":"levelo://app?vid=e42f925f-6183-46fb-8657-b430fae0db8f","ios":"levelo://app?vid=e42f925f-6183-46fb-8657-b430fae0db8f"},"vehicle_type_id":"4","last_reported":1707858383,"current_range_meters":24800,"station_id":"ce4bh012rcd13ifvqcv0","pricing_plan_id":"cebpf4jnsgd1na2vs0mg"},{"bike_id":"96d5d210-2897-4318-9246-8eb6af5975cc","system_id":"levelo_inurba_marseille","lat":43.313291,"lon":5.396838,"is_reserved":false,"is_disabled":false,"rental_uris":{"android":"levelo://app?vid=96d5d210-2897-4318-9246-8eb6af5975cc","ios":"levelo://app?vid=96d5d210-2897-4318-9246-8eb6af5975cc"},"vehicle_type_id":"4","last_reported":1707858383,"current_range_meters":31600,"station_id":"ce4bgvp2rcd13ifvqcu0","pricing_plan_id":"cebpf4jnsgd1na2vs0mg"},{"bike_id":"2ab70626-37b0-4925-8049-7655e376acdc","system_id":"levelo_inurba_marseille","lat":43.30882,"lon":5.39654,"is_reserved":false,"is_disabled":false,"rental_uris":{"android":"levelo://app?vid=2ab70626-37b0-4925-8049-7655e376acdc","ios":"levelo://app?vid=2ab70626-37b0-4925-8049-7655e376acdc"},"vehicle_type_id":"4","last_reported":1707858383,"current_range_meters":30000,"station_id":"ce4bh012rcd13ifvqcv0","pricing_plan_id":"cebpf4jnsgd1na2vs0mg"},{"bike_id":"fe08ebc9-9138-4a08-b97a-42ceced3dedd","system_id":"levelo_inurba_marseille","lat":43.309038,"lon":5.396546,"is_reserved":false,"is_disabled":false,"rental_uris":{"android":"levelo://app?vid=fe08ebc9-9138-4a08-b97a-42ceced3dedd","ios":"levelo://app?vid=fe08ebc9-9138-4a08-b97a-42ceced3dedd"},"vehicle_type_id":"4","last_reported":1707858383,"current_range_meters":14400,"station_id":"ce4bh012rcd13ifvqcv0","pricing_plan_id":"cebpf4jnsgd1na2vs0mg"},{"bike_id":"7d6fcf7a-276f-40f4-84ac-f439a1e91ebe","system_id":"levelo_inurba_marseille","lat":43.309038,"lon":5.396546,"is_reserved":false,"is_disabled":false,"rental_uris":{"android":"levelo://app?vid=7d6fcf7a-276f-40f4-84ac-f439a1e91ebe","ios":"levelo://app?vid=7d6fcf7a-276f-40f4-84ac-f439a1e91ebe"},"vehicle_type_id":"4","last_reported":1707858383,"current_range_meters":21600,"station_id":"ce4bh012rcd13ifvqcv0","pricing_plan_id":"cebpf4jnsgd1na2vs0mg"},{"bike_id":"263f02e9-f2bd-49c1-9d6b-c5ab824c90f8","system_id":"levelo_inurba_marseille","lat":43.30889,"lon":5.39658,"is_reserved":false,"is_disabled":false,"rental_uris":{"android":"levelo://app?vid=263f02e9-f2bd-49c1-9d6b-c5ab824c90f8","ios":"levelo://app?vid=263f02e9-f2bd-49c1-9d6b-c5ab824c90f8"},"vehicle_type_id":"4","last_reported":1707858383,"current_range_meters":12400,"station_id":"ce4bh012rcd13ifvqcv0","pricing_plan_id":"cebpf4jnsgd1na2vs0mg"},{"bike_id":"4a0b65b3-b31b-4db2-9e42-b5350cfb6a84","system_id":"levelo_inurba_marseille","lat":43.31321,"lon":5.39706,"is_reserved":false,"is_disabled":false,"rental_uris":{"android":"levelo://app?vid=4a0b65b3-b31b-4db2-9e42-b5350cfb6a84","ios":"levelo://app?vid=4a0b65b3-b31b-4db2-9e42-b5350cfb6a84"},"vehicle_type_id":"4","last_reported":1707858383,"current_range_meters":0,"station_id":"ce4bgvp2rcd13ifvqcu0","pricing_plan_id":"cebpf4jnsgd1na2vs0mg"},{"bike_id":"c52c1913-574a-45a4-8215-97446171cbfd","system_id":"levelo_inurba_marseille","lat":43.29539,"lon":5.38538,"is_reserved":false,"is_disabled":false,"rental_uris":{"android":"levelo://app?vid=c52c1913-574a-45a4-8215-97446171cbfd","ios":"levelo://app?vid=c52c1913-574a-45a4-8215-97446171cbfd"},"vehicle_type_id":"4","last_reported":1707858383,"current_range_meters":19200,"station_id":"ce4bgih2rcd13ifvqba0","pricing_plan_id":"cebpf4jnsgd1na2vs0mg"},{"bike_id":"e69126a3-73b9-45df-be8e-f92019ca2158","system_id":"levelo_inurba_marseille","lat":43.30883,"lon":5.39661,"is_reserved":false,"is_disabled":false,"rental_uris":{"android":"levelo://app?vid=e69126a3-73b9-45df-be8e-f92019ca2158","ios":"levelo://app?vid=e69126a3-73b9-45df-be8e-f92019ca2158"},"vehicle_type_id":"4","last_reported":1707858383,"current_range_meters":4800,"station_id":"ce4bh012rcd13ifvqcv0","pricing_plan_id":"cebpf4jnsgd1na2vs0mg"},{"bike_id":"10bd03dc-dfd9-4330-8f46-14dd5a10d503","system_id":"levelo_inurba_marseille","lat":43.29529,"lon":5.385581,"is_reserved":false,"is_disabled":false,"rental_uris":{"android":"levelo://app?vid=10bd03dc-dfd9-4330-8f46-14dd5a10d503","ios":"levelo://app?vid=10bd03dc-dfd9-4330-8f46-14dd5a10d503"},"vehicle_type_id":"4","last_reported":1707858383,"current_range_meters":18000,"station_id":"ce4bgih2rcd13ifvqba0","pricing_plan_id":"cebpf4jnsgd1na2vs0mg"},{"bike_id":"1ac10612-40ce-4c5a-a4a4-e21b3d0ea078","system_id":"levelo_inurba_marseille","lat":43.29537,"lon":5.38543,"is_reserved":false,"is_disabled":false,"rental_uris":{"android":"levelo://app?vid=1ac10612-40ce-4c5a-a4a4-e21b3d0ea078","ios":"levelo://app?vid=1ac10612-40ce-4c5a-a4a4-e21b3d0ea078"},"vehicle_type_id":"4","last_reported":1707858383,"current_range_meters":30000,"station_id":"ce4bgih2rcd13ifvqba0","pricing_plan_id":"cebpf4jnsgd1na2vs0mg"},{"bike_id":"e52978b1-b5b5-4bee-b203-82282179c309","system_id":"levelo_inurba_marseille","lat":43.29529,"lon":5.385581,"is_reserved":false,"is_disabled":false,"rental_uris":{"android":"levelo://app?vid=e52978b1-b5b5-4bee-b203-82282179c309","ios":"levelo://app?vid=e52978b1-b5b5-4bee-b203-82282179c309"},"vehicle_type_id":"4","last_reported":1707858383,"current_range_meters":2400,"station_id":"ce4bgih2rcd13ifvqba0","pricing_plan_id":"cebpf4jnsgd1na2vs0mg"},{"bike_id":"a6aa7e69-b7d3-4664-aab0-543c01115e1f","system_id":"levelo_inurba_marseille","lat":43.29529,"lon":5.385581,"is_reserved":false,"is_disabled":false,"rental_uris":{"android":"levelo://app?vid=a6aa7e69-b7d3-4664-aab0-543c01115e1f","ios":"levelo://app?vid=a6aa7e69-b7d3-4664-aab0-543c01115e1f"},"vehicle_type_id":"4","last_reported":1707858383,"current_range_meters":22000,"station_id":"ce4bgih2rcd13ifvqba0","pricing_plan_id":"cebpf4jnsgd1na2vs0mg"},{"bike_id":"17aff5f8-57d1-4942-91f4-bb95cf0ca583","system_id":"levelo_inurba_marseille","lat":43.29529,"lon":5.385581,"is_reserved":false,"is_disabled":false,"rental_uris":{"android":"levelo://app?vid=17aff5f8-57d1-4942-91f4-bb95cf0ca583","ios":"levelo://app?vid=17aff5f8-57d1-4942-91f4-bb95cf0ca583"},"vehicle_type_id":"4","last_reported":1707858383,"current_range_meters":11200,"station_id":"ce4bgih2rcd13ifvqba0","pricing_plan_id":"cebpf4jnsgd1na2vs0mg"},{"bike_id":"8c6ac577-a85f-47be-ba04-00235beedb61","system_id":"levelo_inurba_marseille","lat":43.29526,"lon":5.38546,"is_reserved":false,"is_disabled":false,"rental_uris":{"android":"levelo://app?vid=8c6ac577-a85f-47be-ba04-00235beedb61","ios":"levelo://app?vid=8c6ac577-a85f-47be-ba04-00235beedb61"},"vehicle_type_id":"4","last_reported":1707858383,"current_range_meters":23200,"station_id":"ce4bgih2rcd13ifvqba0","pricing_plan_id":"cebpf4jnsgd1na2vs0mg"},{"bike_id":"cdfebdbd-2e53-4212-9eb5-0ccec165cf5d","system_id":"levelo_inurba_marseille","lat":43.295254,"lon":5.385474,"is_reserved":false,"is_disabled":false,"rental_uris":{"android":"levelo://app?vid=cdfebdbd-2e53-4212-9eb5-0ccec165cf5d","ios":"levelo://app?vid=cdfebdbd-2e53-4212-9eb5-0ccec165cf5d"},"vehicle_type_id":"4","last_reported":1707858383,"current_range_meters":22000,"station_id":"ce4bgih2rcd13ifvqba0","pricing_plan_id":"cebpf4jnsgd1na2vs0mg"},{"bike_id":"d7fdad8f-564f-4939-aa96-dc8e57cdf7f6","system_id":"levelo_inurba_marseille","lat":43.295276,"lon":5.385516,"is_reserved":false,"is_disabled":false,"rental_uris":{"android":"levelo://app?vid=d7fdad8f-564f-4939-aa96-dc8e57cdf7f6","ios":"levelo://app?vid=d7fdad8f-564f-4939-aa96-dc8e57cdf7f6"},"vehicle_type_id":"4","last_reported":1707858383,"current_range_meters":17200,"station_id":"ce4bgih2rcd13ifvqba0","pricing_plan_id":"cebpf4jnsgd1na2vs0mg"},{"bike_id":"1cc3ec89-811d-4845-a8bb-e6b62c8fd779","system_id":"levelo_inurba_marseille","lat":43.2953,"lon":5.38556,"is_reserved":false,"is_disabled":false,"rental_uris":{"android":"levelo://app?vid=1cc3ec89-811d-4845-a8bb-e6b62c8fd779","ios":"levelo://app?vid=1cc3ec89-811d-4845-a8bb-e6b62c8fd779"},"vehicle_type_id":"4","last_reported":1707858383,"current_range_meters":0,"station_id":"ce4bgih2rcd13ifvqba0","pricing_plan_id":"cebpf4jnsgd1na2vs0mg"},{"bike_id":"ac7bcebd-7a8d-4377-9c27-6bf210f57c42","system_id":"levelo_inurba_marseille","lat":43.290779,"lon":5.371482,"is_reserved":false,"is_disabled":false,"rental_uris":{"android":"levelo://app?vid=ac7bcebd-7a8d-4377-9c27-6bf210f57c42","ios":"levelo://app?vid=ac7bcebd-7a8d-4377-9c27-6bf210f57c42"},"vehicle_type_id":"4","last_reported":1707858383,"current_range_meters":2800,"station_id":"ce4bh5p2rcd13ifvqe4g","pricing_plan_id":"cebpf4jnsgd1na2vs0mg"},{"bike_id":"13a29e70-a59d-4806-af5a-7685914f3f2d","system_id":"levelo_inurba_marseille","lat":43.290624,"lon":5.359245,"is_reserved":false,"is_disabled":false,"rental_uris":{"android":"levelo://app?vid=13a29e70-a59d-4806-af5a-7685914f3f2d","ios":"levelo://app?vid=13a29e70-a59d-4806-af5a-7685914f3f2d"},"vehicle_type_id":"4","last_reported":1707858383,"current_range_meters":4400,"station_id":"ce4bha92rcd13ifvqeg0","pricing_plan_id":"cebpf4jnsgd1na2vs0mg"},{"bike_id":"8dd55620-1b61-42ca-baac-206d54c9287e","system_id":"levelo_inurba_marseille","lat":43.302008,"lon":5.394694,"is_reserved":false,"is_disabled":false,"rental_uris":{"android":"levelo://app?vid=8dd55620-1b61-42ca-baac-206d54c9287e","ios":"levelo://app?vid=8dd55620-1b61-42ca-baac-206d54c9287e"},"vehicle_type_id":"4","last_reported":1707858383,"current_range_meters":14000,"station_id":"ce4bh0p2rcd13ifvqd70","pricing_plan_id":"cebpf4jnsgd1na2vs0mg"},{"bike_id":"becb6bbe-1e0d-471e-b91a-235e9d52c5b8","system_id":"levelo_inurba_marseille","lat":43.302008,"lon":5.394694,"is_reserved":false,"is_disabled":false,"rental_uris":{"android":"levelo://app?vid=becb6bbe-1e0d-471e-b91a-235e9d52c5b8","ios":"levelo://app?vid=becb6bbe-1e0d-471e-b91a-235e9d52c5b8"},"vehicle_type_id":"4","last_reported":1707858383,"current_range_meters":10000,"station_id":"ce4bh0p2rcd13ifvqd70","pricing_plan_id":"cebpf4jnsgd1na2vs0mg"},{"bike_id":"8a04783e-d49a-4456-a0cc-9af149da0fa2","system_id":"levelo_inurba_marseille","lat":43.290624,"lon":5.359245,"is_reserved":false,"is_disabled":false,"rental_uris":{"android":"levelo://app?vid=8a04783e-d49a-4456-a0cc-9af149da0fa2","ios":"levelo://app?vid=8a04783e-d49a-4456-a0cc-9af149da0fa2"},"vehicle_type_id":"4","last_reported":1707858383,"current_range_meters":22400,"station_id":"ce4bha92rcd13ifvqeg0","pricing_plan_id":"cebpf4jnsgd1na2vs0mg"},{"bike_id":"46e3d354-edef-462a-819f-7f8a063aeaf4","system_id":"levelo_inurba_marseille","lat":43.290624,"lon":5.359245,"is_reserved":false,"is_disabled":false,"rental_uris":{"android":"levelo://app?vid=46e3d354-edef-462a-819f-7f8a063aeaf4","ios":"levelo://app?vid=46e3d354-edef-462a-819f-7f8a063aeaf4"},"vehicle_type_id":"4","last_reported":1707858383,"current_range_meters":28000,"station_id":"ce4bha92rcd13ifvqeg0","pricing_plan_id":"cebpf4jnsgd1na2vs0mg"},{"bike_id":"18bd592a-c942-4d0e-b4da-950369ab2aef","system_id":"levelo_inurba_marseille","lat":43.290631,"lon":5.359244,"is_reserved":false,"is_disabled":false,"rental_uris":{"android":"levelo://app?vid=18bd592a-c942-4d0e-b4da-950369ab2aef","ios":"levelo://app?vid=18bd592a-c942-4d0e-b4da-950369ab2aef"},"vehicle_type_id":"4","last_reported":1707858383,"current_range_meters":30400,"station_id":"ce4bha92rcd13ifvqeg0","pricing_plan_id":"cebpf4jnsgd1na2vs0mg"},{"bike_id":"c23ce342-4001-4eb0-8809-23a4816b0dd7","system_id":"levelo_inurba_marseille","lat":43.290624,"lon":5.359245,"is_reserved":false,"is_disabled":false,"rental_uris":{"android":"levelo://app?vid=c23ce342-4001-4eb0-8809-23a4816b0dd7","ios":"levelo://app?vid=c23ce342-4001-4eb0-8809-23a4816b0dd7"},"vehicle_type_id":"4","last_reported":1707858383,"current_range_meters":12800,"station_id":"ce4bha92rcd13ifvqeg0","pricing_plan_id":"cebpf4jnsgd1na2vs0mg"},{"bike_id":"1545af12-6829-44fb-ac0b-6c9dd2c1ee62","system_id":"levelo_inurba_marseille","lat":43.294153,"lon":5.386305,"is_reserved":false,"is_disabled":false,"rental_uris":{"android":"levelo://app?vid=1545af12-6829-44fb-ac0b-6c9dd2c1ee62","ios":"levelo://app?vid=1545af12-6829-44fb-ac0b-6c9dd2c1ee62"},"vehicle_type_id":"4","last_reported":1707858383,"current_range_meters":18000,"station_id":"ce4bh2h2rcd13ifvqdh0","pricing_plan_id":"cebpf4jnsgd1na2vs0mg"},{"bike_id":"1ea52bd4-2749-4546-94cf-e4c564ee61d3","system_id":"levelo_inurba_marseille","lat":43.29422,"lon":5.38625,"is_reserved":false,"is_disabled":false,"rental_uris":{"android":"levelo://app?vid=1ea52bd4-2749-4546-94cf-e4c564ee61d3","ios":"levelo://app?vid=1ea52bd4-2749-4546-94cf-e4c564ee61d3"},"vehicle_type_id":"4","last_reported":1707858383,"current_range_meters":3200,"station_id":"ce4bh2h2rcd13ifvqdh0","pricing_plan_id":"cebpf4jnsgd1na2vs0mg"},{"bike_id":"610bba5d-73f3-49b7-be36-b7ffa0915ad2","system_id":"levelo_inurba_marseille","lat":43.29423,"lon":5.3863,"is_reserved":false,"is_disabled":false,"rental_uris":{"android":"levelo://app?vid=610bba5d-73f3-49b7-be36-b7ffa0915ad2","ios":"levelo://app?vid=610bba5d-73f3-49b7-be36-b7ffa0915ad2"},"vehicle_type_id":"4","last_reported":1707858383,"current_range_meters":21600,"station_id":"ce4bh2h2rcd13ifvqdh0","pricing_plan_id":"cebpf4jnsgd1na2vs0mg"},{"bike_id":"fba8ea91-4ecc-4f93-a974-476b87311b90","system_id":"levelo_inurba_marseille","lat":43.294197,"lon":5.386241,"is_reserved":false,"is_disabled":false,"rental_uris":{"android":"levelo://app?vid=fba8ea91-4ecc-4f93-a974-476b87311b90","ios":"levelo://app?vid=fba8ea91-4ecc-4f93-a974-476b87311b90"},"vehicle_type_id":"4","last_reported":1707858383,"current_range_meters":14400,"station_id":"ce4bh2h2rcd13ifvqdh0","pricing_plan_id":"cebpf4jnsgd1na2vs0mg"},{"bike_id":"4493b867-ac6f-4c78-8518-ac28c73c96c6","system_id":"levelo_inurba_marseille","lat":43.29419,"lon":5.38624,"is_reserved":false,"is_disabled":false,"rental_uris":{"android":"levelo://app?vid=4493b867-ac6f-4c78-8518-ac28c73c96c6","ios":"levelo://app?vid=4493b867-ac6f-4c78-8518-ac28c73c96c6"},"vehicle_type_id":"4","last_reported":1707858383,"current_range_meters":6000,"station_id":"ce4bh2h2rcd13ifvqdh0","pricing_plan_id":"cebpf4jnsgd1na2vs0mg"},{"bike_id":"ed6850eb-9008-46c3-8262-b42ee3ac89d7","system_id":"levelo_inurba_marseille","lat":43.29424,"lon":5.38634,"is_reserved":false,"is_disabled":false,"rental_uris":{"android":"levelo://app?vid=ed6850eb-9008-46c3-8262-b42ee3ac89d7","ios":"levelo://app?vid=ed6850eb-9008-46c3-8262-b42ee3ac89d7"},"vehicle_type_id":"4","last_reported":1707858383,"current_range_meters":29600,"station_id":"ce4bh2h2rcd13ifvqdh0","pricing_plan_id":"cebpf4jnsgd1na2vs0mg"},{"bike_id":"3a5826f4-538f-404d-8b5f-d3827baeda30","system_id":"levelo_inurba_marseille","lat":43.2942,"lon":5.38629,"is_reserved":false,"is_disabled":false,"rental_uris":{"android":"levelo://app?vid=3a5826f4-538f-404d-8b5f-d3827baeda30","ios":"levelo://app?vid=3a5826f4-538f-404d-8b5f-d3827baeda30"},"vehicle_type_id":"4","last_reported":1707858383,"current_range_meters":26400,"station_id":"ce4bh2h2rcd13ifvqdh0","pricing_plan_id":"cebpf4jnsgd1na2vs0mg"},{"bike_id":"1affff20-befd-4be3-9834-ca28c05e941f","system_id":"levelo_inurba_marseille","lat":43.294205,"lon":5.3863,"is_reserved":false,"is_disabled":false,"rental_uris":{"android":"levelo://app?vid=1affff20-befd-4be3-9834-ca28c05e941f","ios":"levelo://app?vid=1affff20-befd-4be3-9834-ca28c05e941f"},"vehicle_type_id":"4","last_reported":1707858383,"current_range_meters":4400,"station_id":"ce4bh2h2rcd13ifvqdh0","pricing_plan_id":"cebpf4jnsgd1na2vs0mg"},{"bike_id":"8a0960c4-2dc4-4e6d-b86a-280a45d40387","system_id":"levelo_inurba_marseille","lat":43.294201,"lon":5.386303,"is_reserved":false,"is_disabled":false,"rental_uris":{"android":"levelo://app?vid=8a0960c4-2dc4-4e6d-b86a-280a45d40387","ios":"levelo://app?vid=8a0960c4-2dc4-4e6d-b86a-280a45d40387"},"vehicle_type_id":"4","last_reported":1707858383,"current_range_meters":22000,"station_id":"ce4bh2h2rcd13ifvqdh0","pricing_plan_id":"cebpf4jnsgd1na2vs0mg"},{"bike_id":"bcd36c31-3d05-4c86-ae56-1c25f23893ea","system_id":"levelo_inurba_marseille","lat":43.29421,"lon":5.38632,"is_reserved":false,"is_disabled":false,"rental_uris":{"android":"levelo://app?vid=bcd36c31-3d05-4c86-ae56-1c25f23893ea","ios":"levelo://app?vid=bcd36c31-3d05-4c86-ae56-1c25f23893ea"},"vehicle_type_id":"4","last_reported":1707858383,"current_range_meters":18800,"station_id":"ce4bh2h2rcd13ifvqdh0","pricing_plan_id":"cebpf4jnsgd1na2vs0mg"},{"bike_id":"55f9b471-6b82-4372-b67c-1dafb71948b5","system_id":"levelo_inurba_marseille","lat":43.290319,"lon":5.375732,"is_reserved":false,"is_disabled":false,"rental_uris":{"android":"levelo://app?vid=55f9b471-6b82-4372-b67c-1dafb71948b5","ios":"levelo://app?vid=55f9b471-6b82-4372-b67c-1dafb71948b5"},"vehicle_type_id":"4","last_reported":1707858383,"current_range_meters":25600,"station_id":"ce4bh692rcd13ifvqe90","pricing_plan_id":"cebpf4jnsgd1na2vs0mg"},{"bike_id":"e9ee4a0c-f5d4-4a0a-96c7-6a6e1c4d075b","system_id":"levelo_inurba_marseille","lat":43.2942,"lon":5.386321,"is_reserved":false,"is_disabled":false,"rental_uris":{"android":"levelo://app?vid=e9ee4a0c-f5d4-4a0a-96c7-6a6e1c4d075b","ios":"levelo://app?vid=e9ee4a0c-f5d4-4a0a-96c7-6a6e1c4d075b"},"vehicle_type_id":"4","last_reported":1707858383,"current_range_meters":30000,"station_id":"ce4bh2h2rcd13ifvqdh0","pricing_plan_id":"cebpf4jnsgd1na2vs0mg"},{"bike_id":"6e84631a-5b19-4748-aa3b-8c050ad154e0","system_id":"levelo_inurba_marseille","lat":43.29416,"lon":5.38625,"is_reserved":false,"is_disabled":false,"rental_uris":{"android":"levelo://app?vid=6e84631a-5b19-4748-aa3b-8c050ad154e0","ios":"levelo://app?vid=6e84631a-5b19-4748-aa3b-8c050ad154e0"},"vehicle_type_id":"4","last_reported":1707858383,"current_range_meters":30400,"station_id":"ce4bh2h2rcd13ifvqdh0","pricing_plan_id":"cebpf4jnsgd1na2vs0mg"},{"bike_id":"87a3b5bd-2b2f-49a2-ac81-46914e65e96a","system_id":"levelo_inurba_marseille","lat":43.2942,"lon":5.38634,"is_reserved":false,"is_disabled":false,"rental_uris":{"android":"levelo://app?vid=87a3b5bd-2b2f-49a2-ac81-46914e65e96a","ios":"levelo://app?vid=87a3b5bd-2b2f-49a2-ac81-46914e65e96a"},"vehicle_type_id":"4","last_reported":1707858383,"current_range_meters":0,"station_id":"ce4bh2h2rcd13ifvqdh0","pricing_plan_id":"cebpf4jnsgd1na2vs0mg"},{"bike_id":"b909b1b6-a138-4643-bf68-82243373c20c","system_id":"levelo_inurba_marseille","lat":43.28943,"lon":5.36636,"is_reserved":false,"is_disabled":false,"rental_uris":{"android":"levelo://app?vid=b909b1b6-a138-4643-bf68-82243373c20c","ios":"levelo://app?vid=b909b1b6-a138-4643-bf68-82243373c20c"},"vehicle_type_id":"4","last_reported":1707858383,"current_range_meters":1200,"station_id":"ce4bhap2rcd13ifvqek0","pricing_plan_id":"cebpf4jnsgd1na2vs0mg"},{"bike_id":"555bb9a8-6837-4be2-802b-001bc9bc2a0e","system_id":"levelo_inurba_marseille","lat":43.29418,"lon":5.38633,"is_reserved":false,"is_disabled":false,"rental_uris":{"android":"levelo://app?vid=555bb9a8-6837-4be2-802b-001bc9bc2a0e","ios":"levelo://app?vid=555bb9a8-6837-4be2-802b-001bc9bc2a0e"},"vehicle_type_id":"4","last_reported":1707858383,"current_range_meters":22400,"station_id":"ce4bh2h2rcd13ifvqdh0","pricing_plan_id":"cebpf4jnsgd1na2vs0mg"},{"bike_id":"f94b49d7-ea61-418e-ae24-970838828cc8","system_id":"levelo_inurba_marseille","lat":43.29414,"lon":5.3863,"is_reserved":false,"is_disabled":false,"rental_uris":{"android":"levelo://app?vid=f94b49d7-ea61-418e-ae24-970838828cc8","ios":"levelo://app?vid=f94b49d7-ea61-418e-ae24-970838828cc8"},"vehicle_type_id":"4","last_reported":1707858383,"current_range_meters":26400,"station_id":"ce4bh2h2rcd13ifvqdh0","pricing_plan_id":"cebpf4jnsgd1na2vs0mg"},{"bike_id":"fc9960b3-6613-4f8f-a58a-4ea88934b80c","system_id":"levelo_inurba_marseille","lat":43.289468,"lon":5.363719,"is_reserved":false,"is_disabled":false,"rental_uris":{"android":"levelo://app?vid=fc9960b3-6613-4f8f-a58a-4ea88934b80c","ios":"levelo://app?vid=fc9960b3-6613-4f8f-a58a-4ea88934b80c"},"vehicle_type_id":"4","last_reported":1707858383,"current_range_meters":6400,"station_id":"ce4bhc92rcd13ifvqetg","pricing_plan_id":"cebpf4jnsgd1na2vs0mg"},{"bike_id":"26e33ff2-93df-44e3-9318-6b472bdb4f5d","system_id":"levelo_inurba_marseille","lat":43.289369,"lon":5.36636,"is_reserved":false,"is_disabled":false,"rental_uris":{"android":"levelo://app?vid=26e33ff2-93df-44e3-9318-6b472bdb4f5d","ios":"levelo://app?vid=26e33ff2-93df-44e3-9318-6b472bdb4f5d"},"vehicle_type_id":"4","last_reported":1707858383,"current_range_meters":0,"station_id":"ce4bhap2rcd13ifvqek0","pricing_plan_id":"cebpf4jnsgd1na2vs0mg"},{"bike_id":"ba5a8208-9ab3-4cda-88fc-d6ae37778a63","system_id":"levelo_inurba_marseille","lat":43.289184,"lon":5.366408,"is_reserved":false,"is_disabled":false,"rental_uris":{"android":"levelo://app?vid=ba5a8208-9ab3-4cda-88fc-d6ae37778a63","ios":"levelo://app?vid=ba5a8208-9ab3-4cda-88fc-d6ae37778a63"},"vehicle_type_id":"4","last_reported":1707858383,"current_range_meters":1600,"station_id":"ce4bhap2rcd13ifvqek0","pricing_plan_id":"cebpf4jnsgd1na2vs0mg"},{"bike_id":"90ffa4ca-6109-4942-afc7-d5a2411225e3","system_id":"levelo_inurba_marseille","lat":43.289468,"lon":5.363719,"is_reserved":false,"is_disabled":false,"rental_uris":{"android":"levelo://app?vid=90ffa4ca-6109-4942-afc7-d5a2411225e3","ios":"levelo://app?vid=90ffa4ca-6109-4942-afc7-d5a2411225e3"},"vehicle_type_id":"4","last_reported":1707858383,"current_range_meters":30400,"station_id":"ce4bhc92rcd13ifvqetg","pricing_plan_id":"cebpf4jnsgd1na2vs0mg"},{"bike_id":"c67f53db-d3c5-4d71-a15a-c4967fa3f011","system_id":"levelo_inurba_marseille","lat":43.289184,"lon":5.366408,"is_reserved":false,"is_disabled":false,"rental_uris":{"android":"levelo://app?vid=c67f53db-d3c5-4d71-a15a-c4967fa3f011","ios":"levelo://app?vid=c67f53db-d3c5-4d71-a15a-c4967fa3f011"},"vehicle_type_id":"4","last_reported":1707858383,"current_range_meters":21200,"station_id":"ce4bhap2rcd13ifvqek0","pricing_plan_id":"cebpf4jnsgd1na2vs0mg"},{"bike_id":"2151f951-4a32-4b6e-a309-90c1221064f0","system_id":"levelo_inurba_marseille","lat":43.289468,"lon":5.363719,"is_reserved":false,"is_disabled":false,"rental_uris":{"android":"levelo://app?vid=2151f951-4a32-4b6e-a309-90c1221064f0","ios":"levelo://app?vid=2151f951-4a32-4b6e-a309-90c1221064f0"},"vehicle_type_id":"4","last_reported":1707858383,"current_range_meters":1200,"station_id":"ce4bhc92rcd13ifvqetg","pricing_plan_id":"cebpf4jnsgd1na2vs0mg"},{"bike_id":"508a6d5c-c369-404e-8999-b97fea44d260","system_id":"levelo_inurba_marseille","lat":43.29401,"lon":5.38646,"is_reserved":false,"is_disabled":false,"rental_uris":{"android":"levelo://app?vid=508a6d5c-c369-404e-8999-b97fea44d260","ios":"levelo://app?vid=508a6d5c-c369-404e-8999-b97fea44d260"},"vehicle_type_id":"4","last_reported":1707858383,"current_range_meters":31200,"station_id":"ce4bh2h2rcd13ifvqdh0","pricing_plan_id":"cebpf4jnsgd1na2vs0mg"},{"bike_id":"bacceb55-b56a-4d07-ba4e-96718b181ec2","system_id":"levelo_inurba_marseille","lat":43.289468,"lon":5.363719,"is_reserved":false,"is_disabled":false,"rental_uris":{"android":"levelo://app?vid=bacceb55-b56a-4d07-ba4e-96718b181ec2","ios":"levelo://app?vid=bacceb55-b56a-4d07-ba4e-96718b181ec2"},"vehicle_type_id":"4","last_reported":1707858383,"current_range_meters":12800,"station_id":"ce4bhc92rcd13ifvqetg","pricing_plan_id":"cebpf4jnsgd1na2vs0mg"},{"bike_id":"02b0d1b1-a224-44d0-b036-e4ee7d24b264","system_id":"levelo_inurba_marseille","lat":43.289468,"lon":5.363719,"is_reserved":false,"is_disabled":false,"rental_uris":{"android":"levelo://app?vid=02b0d1b1-a224-44d0-b036-e4ee7d24b264","ios":"levelo://app?vid=02b0d1b1-a224-44d0-b036-e4ee7d24b264"},"vehicle_type_id":"4","last_reported":1707858383,"current_range_meters":8400,"station_id":"ce4bhc92rcd13ifvqetg","pricing_plan_id":"cebpf4jnsgd1na2vs0mg"},{"bike_id":"d435ea0e-37d7-4645-9f7c-4226a60810fd","system_id":"levelo_inurba_marseille","lat":43.292644,"lon":5.384257,"is_reserved":false,"is_disabled":false,"rental_uris":{"android":"levelo://app?vid=d435ea0e-37d7-4645-9f7c-4226a60810fd","ios":"levelo://app?vid=d435ea0e-37d7-4645-9f7c-4226a60810fd"},"vehicle_type_id":"4","last_reported":1707858383,"current_range_meters":3600,"station_id":"ce4bh692rcd13ifvqea0","pricing_plan_id":"cebpf4jnsgd1na2vs0mg"},{"bike_id":"845396a6-fd7c-4a8d-9fec-2056853c6fa8","system_id":"levelo_inurba_marseille","lat":43.304274,"lon":5.397513,"is_reserved":false,"is_disabled":false,"rental_uris":{"android":"levelo://app?vid=845396a6-fd7c-4a8d-9fec-2056853c6fa8","ios":"levelo://app?vid=845396a6-fd7c-4a8d-9fec-2056853c6fa8"},"vehicle_type_id":"4","last_reported":1707858383,"current_range_meters":26800,"station_id":"ce4bh092rcd13ifvqd20","pricing_plan_id":"cebpf4jnsgd1na2vs0mg"},{"bike_id":"67678ea8-4a2a-4abc-b51c-6c1becb4a2af","system_id":"levelo_inurba_marseille","lat":43.292644,"lon":5.384257,"is_reserved":false,"is_disabled":false,"rental_uris":{"android":"levelo://app?vid=67678ea8-4a2a-4abc-b51c-6c1becb4a2af","ios":"levelo://app?vid=67678ea8-4a2a-4abc-b51c-6c1becb4a2af"},"vehicle_type_id":"4","last_reported":1707858383,"current_range_meters":5200,"station_id":"ce4bh692rcd13ifvqea0","pricing_plan_id":"cebpf4jnsgd1na2vs0mg"},{"bike_id":"170812e6-a8f4-4dcb-bbce-6483fcbb54bf","system_id":"levelo_inurba_marseille","lat":43.292644,"lon":5.384257,"is_reserved":false,"is_disabled":false,"rental_uris":{"android":"levelo://app?vid=170812e6-a8f4-4dcb-bbce-6483fcbb54bf","ios":"levelo://app?vid=170812e6-a8f4-4dcb-bbce-6483fcbb54bf"},"vehicle_type_id":"4","last_reported":1707858383,"current_range_meters":9600,"station_id":"ce4bh692rcd13ifvqea0","pricing_plan_id":"cebpf4jnsgd1na2vs0mg"},{"bike_id":"8a7cba14-479d-4e89-86e2-df38f28d5947","system_id":"levelo_inurba_marseille","lat":43.304274,"lon":5.397513,"is_reserved":false,"is_disabled":false,"rental_uris":{"android":"levelo://app?vid=8a7cba14-479d-4e89-86e2-df38f28d5947","ios":"levelo://app?vid=8a7cba14-479d-4e89-86e2-df38f28d5947"},"vehicle_type_id":"4","last_reported":1707858383,"current_range_meters":29200,"station_id":"ce4bh092rcd13ifvqd20","pricing_plan_id":"cebpf4jnsgd1na2vs0mg"},{"bike_id":"d552e8f8-0fc6-4c50-9a75-e674fcee9cee","system_id":"levelo_inurba_marseille","lat":43.32895,"lon":5.39114,"is_reserved":false,"is_disabled":false,"rental_uris":{"android":"levelo://app?vid=d552e8f8-0fc6-4c50-9a75-e674fcee9cee","ios":"levelo://app?vid=d552e8f8-0fc6-4c50-9a75-e674fcee9cee"},"vehicle_type_id":"4","last_reported":1707858383,"current_range_meters":6400,"station_id":"","pricing_plan_id":"cebpf4jnsgd1na2vs0mg"},{"bike_id":"a9102ef3-54bc-40f3-805f-10186a9f6eeb","system_id":"levelo_inurba_marseille","lat":43.290103,"lon":5.356114,"is_reserved":false,"is_disabled":false,"rental_uris":{"android":"levelo://app?vid=a9102ef3-54bc-40f3-805f-10186a9f6eeb","ios":"levelo://app?vid=a9102ef3-54bc-40f3-805f-10186a9f6eeb"},"vehicle_type_id":"4","last_reported":1707858383,"current_range_meters":0,"station_id":"ce4bhb92rcd13ifvqen0","pricing_plan_id":"cebpf4jnsgd1na2vs0mg"},{"bike_id":"a045d6f5-8d57-40ac-b3ad-87d61d1983be","system_id":"levelo_inurba_marseille","lat":43.290104,"lon":5.356111,"is_reserved":false,"is_disabled":false,"rental_uris":{"android":"levelo://app?vid=a045d6f5-8d57-40ac-b3ad-87d61d1983be","ios":"levelo://app?vid=a045d6f5-8d57-40ac-b3ad-87d61d1983be"},"vehicle_type_id":"4","last_reported":1707858383,"current_range_meters":20400,"station_id":"ce4bhb92rcd13ifvqen0","pricing_plan_id":"cebpf4jnsgd1na2vs0mg"},{"bike_id":"c7350db9-c48e-493e-ae54-f8ff7e122c0b","system_id":"levelo_inurba_marseille","lat":43.29002,"lon":5.35616,"is_reserved":false,"is_disabled":false,"rental_uris":{"android":"levelo://app?vid=c7350db9-c48e-493e-ae54-f8ff7e122c0b","ios":"levelo://app?vid=c7350db9-c48e-493e-ae54-f8ff7e122c0b"},"vehicle_type_id":"4","last_reported":1707858383,"current_range_meters":16800,"station_id":"ce4bhb92rcd13ifvqen0","pricing_plan_id":"cebpf4jnsgd1na2vs0mg"},{"bike_id":"f95e5a92-c897-49c2-b68f-c6dfb06c5d8b","system_id":"levelo_inurba_marseille","lat":43.290995,"lon":5.381361,"is_reserved":false,"is_disabled":false,"rental_uris":{"android":"levelo://app?vid=f95e5a92-c897-49c2-b68f-c6dfb06c5d8b","ios":"levelo://app?vid=f95e5a92-c897-49c2-b68f-c6dfb06c5d8b"},"vehicle_type_id":"4","last_reported":1707858383,"current_range_meters":23200,"station_id":"ce4bh512rcd13ifvqe2g","pricing_plan_id":"cebpf4jnsgd1na2vs0mg"},{"bike_id":"16a23b7e-0108-4e48-ab97-9abda1ce9124","system_id":"levelo_inurba_marseille","lat":43.290995,"lon":5.381361,"is_reserved":false,"is_disabled":false,"rental_uris":{"android":"levelo://app?vid=16a23b7e-0108-4e48-ab97-9abda1ce9124","ios":"levelo://app?vid=16a23b7e-0108-4e48-ab97-9abda1ce9124"},"vehicle_type_id":"4","last_reported":1707858383,"current_range_meters":29200,"station_id":"ce4bh512rcd13ifvqe2g","pricing_plan_id":"cebpf4jnsgd1na2vs0mg"},{"bike_id":"a9b1289b-0b57-4724-9c19-6b6aac1012f2","system_id":"levelo_inurba_marseille","lat":43.297815,"lon":5.393548,"is_reserved":false,"is_disabled":false,"rental_uris":{"android":"levelo://app?vid=a9b1289b-0b57-4724-9c19-6b6aac1012f2","ios":"levelo://app?vid=a9b1289b-0b57-4724-9c19-6b6aac1012f2"},"vehicle_type_id":"4","last_reported":1707858383,"current_range_meters":28000,"station_id":"chh1huq6cuj3fo74tm60","pricing_plan_id":"cebpf4jnsgd1na2vs0mg"},{"bike_id":"8f7ec182-d3fc-4812-8544-eb022e87d8f4","system_id":"levelo_inurba_marseille","lat":43.297815,"lon":5.393548,"is_reserved":false,"is_disabled":false,"rental_uris":{"android":"levelo://app?vid=8f7ec182-d3fc-4812-8544-eb022e87d8f4","ios":"levelo://app?vid=8f7ec182-d3fc-4812-8544-eb022e87d8f4"},"vehicle_type_id":"4","last_reported":1707858383,"current_range_meters":18000,"station_id":"chh1huq6cuj3fo74tm60","pricing_plan_id":"cebpf4jnsgd1na2vs0mg"},{"bike_id":"59ecd068-7ccf-4438-b5f6-b20a34a30462","system_id":"levelo_inurba_marseille","lat":43.290995,"lon":5.381361,"is_reserved":false,"is_disabled":false,"rental_uris":{"android":"levelo://app?vid=59ecd068-7ccf-4438-b5f6-b20a34a30462","ios":"levelo://app?vid=59ecd068-7ccf-4438-b5f6-b20a34a30462"},"vehicle_type_id":"4","last_reported":1707858383,"current_range_meters":27200,"station_id":"ce4bh512rcd13ifvqe2g","pricing_plan_id":"cebpf4jnsgd1na2vs0mg"},{"bike_id":"eaef3920-2ad0-44b6-a5e6-e6e60481ba5c","system_id":"levelo_inurba_marseille","lat":43.297837,"lon":5.393373,"is_reserved":false,"is_disabled":false,"rental_uris":{"android":"levelo://app?vid=eaef3920-2ad0-44b6-a5e6-e6e60481ba5c","ios":"levelo://app?vid=eaef3920-2ad0-44b6-a5e6-e6e60481ba5c"},"vehicle_type_id":"4","last_reported":1707858383,"current_range_meters":29200,"station_id":"chh1huq6cuj3fo74tm60","pricing_plan_id":"cebpf4jnsgd1na2vs0mg"},{"bike_id":"fc2622b3-45bc-4fc9-8456-700a959654ed","system_id":"levelo_inurba_marseille","lat":43.33019,"lon":5.39037,"is_reserved":false,"is_disabled":false,"rental_uris":{"android":"levelo://app?vid=fc2622b3-45bc-4fc9-8456-700a959654ed","ios":"levelo://app?vid=fc2622b3-45bc-4fc9-8456-700a959654ed"},"vehicle_type_id":"4","last_reported":1707858383,"current_range_meters":13600,"station_id":"ce4bhr92rcd13ifvqhrg","pricing_plan_id":"cebpf4jnsgd1na2vs0mg"},{"bike_id":"f139b206-454b-4989-9fb5-f0e80f3e90ee","system_id":"levelo_inurba_marseille","lat":43.33022,"lon":5.39035,"is_reserved":false,"is_disabled":false,"rental_uris":{"android":"levelo://app?vid=f139b206-454b-4989-9fb5-f0e80f3e90ee","ios":"levelo://app?vid=f139b206-454b-4989-9fb5-f0e80f3e90ee"},"vehicle_type_id":"4","last_reported":1707858383,"current_range_meters":25200,"station_id":"ce4bhr92rcd13ifvqhrg","pricing_plan_id":"cebpf4jnsgd1na2vs0mg"},{"bike_id":"8069560b-8a5f-49af-9fbb-4c0ffdf7f3d8","system_id":"levelo_inurba_marseille","lat":43.295169,"lon":5.390426,"is_reserved":false,"is_disabled":false,"rental_uris":{"android":"levelo://app?vid=8069560b-8a5f-49af-9fbb-4c0ffdf7f3d8","ios":"levelo://app?vid=8069560b-8a5f-49af-9fbb-4c0ffdf7f3d8"},"vehicle_type_id":"4","last_reported":1707858383,"current_range_meters":11600,"station_id":"ce4bh3p2rcd13ifvqdp0","pricing_plan_id":"cebpf4jnsgd1na2vs0mg"},{"bike_id":"b0e03183-fcb2-4d8d-a79a-8c4255276339","system_id":"levelo_inurba_marseille","lat":43.33021,"lon":5.39039,"is_reserved":false,"is_disabled":false,"rental_uris":{"android":"levelo://app?vid=b0e03183-fcb2-4d8d-a79a-8c4255276339","ios":"levelo://app?vid=b0e03183-fcb2-4d8d-a79a-8c4255276339"},"vehicle_type_id":"4","last_reported":1707858383,"current_range_meters":14000,"station_id":"ce4bhr92rcd13ifvqhrg","pricing_plan_id":"cebpf4jnsgd1na2vs0mg"},{"bike_id":"044286a5-7e05-43c9-934a-b36b9881b84d","system_id":"levelo_inurba_marseille","lat":43.33023,"lon":5.39037,"is_reserved":false,"is_disabled":false,"rental_uris":{"android":"levelo://app?vid=044286a5-7e05-43c9-934a-b36b9881b84d","ios":"levelo://app?vid=044286a5-7e05-43c9-934a-b36b9881b84d"},"vehicle_type_id":"4","last_reported":1707858383,"current_range_meters":5200,"station_id":"ce4bhr92rcd13ifvqhrg","pricing_plan_id":"cebpf4jnsgd1na2vs0mg"},{"bike_id":"131478ab-04e5-4003-8ac8-ff81498e27be","system_id":"levelo_inurba_marseille","lat":43.330442,"lon":5.389148,"is_reserved":false,"is_disabled":false,"rental_uris":{"android":"levelo://app?vid=131478ab-04e5-4003-8ac8-ff81498e27be","ios":"levelo://app?vid=131478ab-04e5-4003-8ac8-ff81498e27be"},"vehicle_type_id":"4","last_reported":1707858383,"current_range_meters":6400,"station_id":"ce4bhr92rcd13ifvqhrg","pricing_plan_id":"cebpf4jnsgd1na2vs0mg"},{"bike_id":"a7b4fa92-4058-4abb-920e-d6e53b178ef9","system_id":"levelo_inurba_marseille","lat":43.33022,"lon":5.39041,"is_reserved":false,"is_disabled":false,"rental_uris":{"android":"levelo://app?vid=a7b4fa92-4058-4abb-920e-d6e53b178ef9","ios":"levelo://app?vid=a7b4fa92-4058-4abb-920e-d6e53b178ef9"},