{"last_updated":1718996763,"ttl":30,"version":"2.2","data":{"bikes":[{"bike_id":"20d02c0e-38b5-4423-b687-9fd64d2290f7","system_id":"levelo_inurba_marseille","lat":43.313391,"lon":5.36706,"is_reserved":false,"is_disabled":false,"rental_uris":{"android":"levelo://app?vid=20d02c0e-38b5-4423-b687-9fd64d2290f7","ios":"levelo://app?vid=20d02c0e-38b5-4423-b687-9fd64d2290f7"},"vehicle_type_id":"4","last_reported":1718996763,"current_range_meters":30000,"station_id":"ce4bgr92rcd13ifvqc6g","pricing_plan_id":"cebpf4jnsgd1na2vs0mg"},{"bike_id":"382f25fb-ca7e-49e8-a925-9381436a43e0","system_id":"levelo_inurba_marseille","lat":43.312239,"lon":5.368562,"is_reserved":false,"is_disabled":false,"rental_uris":{"android":"levelo://app?vid=382f25fb-ca7e-49e8-a925-9381436a43e0","ios":"levelo://app?vid=382f25fb-ca7e-49e8-a925-9381436a43e0"},"vehicle_type_id":"4","last_reported":1718996763,"current_range_meters":21200,"station_id":"ce4bgl92rcd13ifvqbq0","pricing_plan_id":"cebpf4jnsgd1na2vs0mg"},{"bike_id":"ca19933c-adba-43d7-ae19-bf541960d79a","system_id":"levelo_inurba_marseille","lat":43.314811,"lon":5.373103,"is_reserved":false,"is_disabled":false,"rental_uris":{"android":"levelo://app?vid=ca19933c-adba-43d7-ae19-bf541960d79a","ios":"levelo://app?vid=ca19933c-adba-43d7-ae19-bf541960d79a"},"vehicle_type_id":"4","last_reported":1718996763,"current_range_meters":400,"station_id":"ce4bgt12rcd13ifvqcd0","pricing_plan_id":"cebpf4jnsgd1na2vs0mg"},{"bike_id":"4d65f698-03b9-43a1-8927-409f3c9731ae","system_id":"levelo_inurba_marseille","lat":43.314811,"lon":5.373104,"is_reserved":false,"is_disabled":false,"rental_uris":{"android":"levelo://app?vid=4d65f698-03b9-43a1-8927-409f3c9731ae","ios":"levelo://app?vid=4d65f698-03b9-43a1-8927-409f3c9731ae"},"vehicle_type_id":"4","last_reported":1718996763,"current_range_meters":0,"station_id":"ce4bgt12rcd13ifvqcd0","pricing_plan_id":"cebpf4jnsgd1na2vs0mg"},{"bike_id":"20f31c62-307b-4c16-93b6-6fcc5accd677","system_id":"levelo_inurba_marseille","lat":43.314601,"lon":5.373697,"is_reserved":false,"is_disabled":false,"rental_uris":{"android":"levelo://app?vid=20f31c62-307b-4c16-93b6-6fcc5accd677","ios":"levelo://app?vid=20f31c62-307b-4c16-93b6-6fcc5accd677"},"vehicle_type_id":"4","last_reported":1718996763,"current_range_meters":16400,"station_id":"","pricing_plan_id":"cebpf4jnsgd1na2vs0mg"},{"bike_id":"a73c160a-1ea3-467f-aa97-b76a92c8066b","system_id":"levelo_inurba_marseille","lat":43.305368,"lon":5.367343,"is_reserved":false,"is_disabled":false,"rental_uris":{"android":"levelo://app?vid=a73c160a-1ea3-467f-aa97-b76a92c8066b","ios":"levelo://app?vid=a73c160a-1ea3-467f-aa97-b76a92c8066b"},"vehicle_type_id":"4","last_reported":1718996763,"current_range_meters":5600,"station_id":"ce4bgrp2rcd13ifvqc9g","pricing_plan_id":"cebpf4jnsgd1na2vs0mg"},{"bike_id":"19712e53-2adf-4900-8e05-8b373c895a6c","system_id":"levelo_inurba_marseille","lat":43.305712,"lon":5.365641,"is_reserved":false,"is_disabled":false,"rental_uris":{"android":"levelo://app?vid=19712e53-2adf-4900-8e05-8b373c895a6c","ios":"levelo://app?vid=19712e53-2adf-4900-8e05-8b373c895a6c"},"vehicle_type_id":"4","last_reported":1718996763,"current_range_meters":6800,"station_id":"ce4bgs12rcd13ifvqcag","pricing_plan_id":"cebpf4jnsgd1na2vs0mg"},{"bike_id":"f7d4da36-8f2b-4599-a4ec-0ed2aa80c593","system_id":"levelo_inurba_marseille","lat":43.299209,"lon":5.365547,"is_reserved":false,"is_disabled":false,"rental_uris":{"android":"levelo://app?vid=f7d4da36-8f2b-4599-a4ec-0ed2aa80c593","ios":"levelo://app?vid=f7d4da36-8f2b-4599-a4ec-0ed2aa80c593"},"vehicle_type_id":"4","last_reported":1718996763,"current_range_meters":0,"station_id":"ce4bgm92rcd13ifvqbr0","pricing_plan_id":"cebpf4jnsgd1na2vs0mg"},{"bike_id":"a7ce4af3-b9a3-4154-b2c6-fe94ff06d9e4","system_id":"levelo_inurba_marseille","lat":43.306629,"lon":5.373601,"is_reserved":false,"is_disabled":false,"rental_uris":{"android":"levelo://app?vid=a7ce4af3-b9a3-4154-b2c6-fe94ff06d9e4","ios":"levelo://app?vid=a7ce4af3-b9a3-4154-b2c6-fe94ff06d9e4"},"vehicle_type_id":"4","last_reported":1718996763,"current_range_meters":14400,"station_id":"","pricing_plan_id":"cebpf4jnsgd1na2vs0mg"},{"bike_id":"4639c520-bb9e-47b6-93cd-06b5cc778647","system_id":"levelo_inurba_marseille","lat":43.305989,"lon":5.37225,"is_reserved":false,"is_disabled":false,"rental_uris":{"android":"levelo://app?vid=4639c520-bb9e-47b6-93cd-06b5cc778647","ios":"levelo://app?vid=4639c520-bb9e-47b6-93cd-06b5cc778647"},"vehicle_type_id":"4","last_reported":1718996763,"current_range_meters":0,"station_id":"ce4bgqh2rcd13ifvqc4g","pricing_plan_id":"cebpf4jnsgd1na2vs0mg"},{"bike_id":"1a8b296d-211f-4c5e-ad15-d99a6212f9a7","system_id":"levelo_inurba_marseille","lat":43.311131,"lon":5.377651,"is_reserved":false,"is_disabled":false,"rental_uris":{"android":"levelo://app?vid=1a8b296d-211f-4c5e-ad15-d99a6212f9a7","ios":"levelo://app?vid=1a8b296d-211f-4c5e-ad15-d99a6212f9a7"},"vehicle_type_id":"4","last_reported":1718996763,"current_range_meters":17600,"station_id":"ce4bgt92rcd13ifvqcg0","pricing_plan_id":"cebpf4jnsgd1na2vs0mg"},{"bike_id":"0b57e9c8-9650-4117-89a2-fbc1659c955d","system_id":"levelo_inurba_marseille","lat":43.311125,"lon":5.377624,"is_reserved":false,"is_disabled":false,"rental_uris":{"android":"levelo://app?vid=0b57e9c8-9650-4117-89a2-fbc1659c955d","ios":"levelo://app?vid=0b57e9c8-9650-4117-89a2-fbc1659c955d"},"vehicle_type_id":"4","last_reported":1718996763,"current_range_meters":1200,"station_id":"ce4bgt92rcd13ifvqcg0","pricing_plan_id":"cebpf4jnsgd1na2vs0mg"},{"bike_id":"c8d74784-cfa3-4dc0-a55e-c53d6b6b7590","system_id":"levelo_inurba_marseille","lat":43.31821,"lon":5.375752,"is_reserved":false,"is_disabled":false,"rental_uris":{"android":"levelo://app?vid=c8d74784-cfa3-4dc0-a55e-c53d6b6b7590","ios":"levelo://app?vid=c8d74784-cfa3-4dc0-a55e-c53d6b6b7590"},"vehicle_type_id":"4","last_reported":1718996763,"current_range_meters":18800,"station_id":"","pricing_plan_id":"cebpf4jnsgd1na2vs0mg"},{"bike_id":"355cf518-9154-45dd-860d-8b6810d7dcd3","system_id":"levelo_inurba_marseille","lat":43.317075,"lon":5.377367,"is_reserved":false,"is_disabled":false,"rental_uris":{"android":"levelo://app?vid=355cf518-9154-45dd-860d-8b6810d7dcd3","ios":"levelo://app?vid=355cf518-9154-45dd-860d-8b6810d7dcd3"},"vehicle_type_id":"4","last_reported":1718996763,"current_range_meters":29600,"station_id":"ce4bgth2rcd13ifvqch0","pricing_plan_id":"cebpf4jnsgd1na2vs0mg"},{"bike_id":"4e85fdad-75e1-449a-b822-9464cb5301ee","system_id":"levelo_inurba_marseille","lat":43.30304,"lon":5.368987,"is_reserved":false,"is_disabled":false,"rental_uris":{"android":"levelo://app?vid=4e85fdad-75e1-449a-b822-9464cb5301ee","ios":"levelo://app?vid=4e85fdad-75e1-449a-b822-9464cb5301ee"},"vehicle_type_id":"4","last_reported":1718996763,"current_range_meters":21600,"station_id":"ce4bgqh2rcd13ifvqc5g","pricing_plan_id":"cebpf4jnsgd1na2vs0mg"},{"bike_id":"1aa9382d-bd55-4aff-8971-b23615fccdae","system_id":"levelo_inurba_marseille","lat":43.31094,"lon":5.38135,"is_reserved":false,"is_disabled":false,"rental_uris":{"android":"levelo://app?vid=1aa9382d-bd55-4aff-8971-b23615fccdae","ios":"levelo://app?vid=1aa9382d-bd55-4aff-8971-b23615fccdae"},"vehicle_type_id":"4","last_reported":1718996763,"current_range_meters":4400,"station_id":"","pricing_plan_id":"cebpf4jnsgd1na2vs0mg"},{"bike_id":"d05340d5-c74c-47d6-a2be-20b8f3f720b7","system_id":"levelo_inurba_marseille","lat":43.301939,"lon":5.366286,"is_reserved":false,"is_disabled":false,"rental_uris":{"android":"levelo://app?vid=d05340d5-c74c-47d6-a2be-20b8f3f720b7","ios":"levelo://app?vid=d05340d5-c74c-47d6-a2be-20b8f3f720b7"},"vehicle_type_id":"4","last_reported":1718996763,"current_range_meters":20400,"station_id":"ce4bgrh2rcd13ifvqc8g","pricing_plan_id":"cebpf4jnsgd1na2vs0mg"},{"bike_id":"a2966588-0c39-4d67-9e5d-b15720245a01","system_id":"levelo_inurba_marseille","lat":43.30253,"lon":5.37436,"is_reserved":false,"is_disabled":false,"rental_uris":{"android":"levelo://app?vid=a2966588-0c39-4d67-9e5d-b15720245a01","ios":"levelo://app?vid=a2966588-0c39-4d67-9e5d-b15720245a01"},"vehicle_type_id":"4","last_reported":1718996763,"current_range_meters":11600,"station_id":"","pricing_plan_id":"cebpf4jnsgd1na2vs0mg"},{"bike_id":"1cf8ebbf-396e-4e5d-8863-a0e6010561dc","system_id":"levelo_inurba_marseille","lat":43.308013,"lon":5.381513,"is_reserved":false,"is_disabled":false,"rental_uris":{"android":"levelo://app?vid=1cf8ebbf-396e-4e5d-8863-a0e6010561dc","ios":"levelo://app?vid=1cf8ebbf-396e-4e5d-8863-a0e6010561dc"},"vehicle_type_id":"4","last_reported":1718996763,"current_range_meters":0,"station_id":"ce4bgt12rcd13ifvqce0","pricing_plan_id":"cebpf4jnsgd1na2vs0mg"},{"bike_id":"a4e60c2c-24e1-4cbe-8bf2-3541eab1da23","system_id":"levelo_inurba_marseille","lat":43.308012,"lon":5.381511,"is_reserved":false,"is_disabled":false,"rental_uris":{"android":"levelo://app?vid=a4e60c2c-24e1-4cbe-8bf2-3541eab1da23","ios":"levelo://app?vid=a4e60c2c-24e1-4cbe-8bf2-3541eab1da23"},"vehicle_type_id":"4","last_reported":1718996763,"current_range_meters":8800,"station_id":"ce4bgt12rcd13ifvqce0","pricing_plan_id":"cebpf4jnsgd1na2vs0mg"},{"bike_id":"39ea8e28-3de3-4d52-8c74-6616a9f37906","system_id":"levelo_inurba_marseille","lat":43.307846,"lon":5.381644,"is_reserved":false,"is_disabled":false,"rental_uris":{"android":"levelo://app?vid=39ea8e28-3de3-4d52-8c74-6616a9f37906","ios":"levelo://app?vid=39ea8e28-3de3-4d52-8c74-6616a9f37906"},"vehicle_type_id":"4","last_reported":1718996763,"current_range_meters":0,"station_id":"ce4bgt12rcd13ifvqce0","pricing_plan_id":"cebpf4jnsgd1na2vs0mg"},{"bike_id":"a3351bc9-57e5-40a8-a632-fb07b59c3abd","system_id":"levelo_inurba_marseille","lat":43.300911,"lon":5.36545,"is_reserved":false,"is_disabled":false,"rental_uris":{"android":"levelo://app?vid=a3351bc9-57e5-40a8-a632-fb07b59c3abd","ios":"levelo://app?vid=a3351bc9-57e5-40a8-a632-fb07b59c3abd"},"vehicle_type_id":"4","last_reported":1718996763,"current_range_meters":0,"station_id":"","pricing_plan_id":"cebpf4jnsgd1na2vs0mg"},{"bike_id":"0cf4f2e2-150e-4567-bd04-06c956a4df89","system_id":"levelo_inurba_marseille","lat":43.32488,"lon":5.36555,"is_reserved":false,"is_disabled":false,"rental_uris":{"android":"levelo://app?vid=0cf4f2e2-150e-4567-bd04-06c956a4df89","ios":"levelo://app?vid=0cf4f2e2-150e-4567-bd04-06c956a4df89"},"vehicle_type_id":"4","last_reported":1718996763,"current_range_meters":0,"station_id":"ce4bhs12rcd13ifvqhvg","pricing_plan_id":"cebpf4jnsgd1na2vs0mg"},{"bike_id":"732f3b32-0acc-46de-bd4d-d288d2686bf1","system_id":"levelo_inurba_marseille","lat":43.310804,"lon":5.38359,"is_reserved":false,"is_disabled":false,"rental_uris":{"android":"levelo://app?vid=732f3b32-0acc-46de-bd4d-d288d2686bf1","ios":"levelo://app?vid=732f3b32-0acc-46de-bd4d-d288d2686bf1"},"vehicle_type_id":"4","last_reported":1718996763,"current_range_meters":0,"station_id":"ce4bgv92rcd13ifvqcr0","pricing_plan_id":"cebpf4jnsgd1na2vs0mg"},{"bike_id":"228b21ec-c224-49ac-a6e9-f6bb6f8bc4a2","system_id":"levelo_inurba_marseille","lat":43.302784,"lon":5.377158,"is_reserved":false,"is_disabled":false,"rental_uris":{"android":"levelo://app?vid=228b21ec-c224-49ac-a6e9-f6bb6f8bc4a2","ios":"levelo://app?vid=228b21ec-c224-49ac-a6e9-f6bb6f8bc4a2"},"vehicle_type_id":"4","last_reported":1718996763,"current_range_meters":24800,"station_id":"ce4bguh2rcd13ifvqcj0","pricing_plan_id":"cebpf4jnsgd1na2vs0mg"},{"bike_id":"1a08cdc3-e789-4354-aa83-08d603fed786","system_id":"levelo_inurba_marseille","lat":43.302784,"lon":5.377158,"is_reserved":false,"is_disabled":false,"rental_uris":{"android":"levelo://app?vid=1a08cdc3-e789-4354-aa83-08d603fed786","ios":"levelo://app?vid=1a08cdc3-e789-4354-aa83-08d603fed786"},"vehicle_type_id":"4","last_reported":1718996763,"current_range_meters":16000,"station_id":"ce4bguh2rcd13ifvqcj0","pricing_plan_id":"cebpf4jnsgd1na2vs0mg"},{"bike_id":"4f17b089-79cb-4f2e-a7e1-b736df93b457","system_id":"levelo_inurba_marseille","lat":43.31991,"lon":5.3815,"is_reserved":false,"is_disabled":false,"rental_uris":{"android":"levelo://app?vid=4f17b089-79cb-4f2e-a7e1-b736df93b457","ios":"levelo://app?vid=4f17b089-79cb-4f2e-a7e1-b736df93b457"},"vehicle_type_id":"4","last_reported":1718996763,"current_range_meters":0,"station_id":"ce4bhr12rcd13ifvqhpg","pricing_plan_id":"cebpf4jnsgd1na2vs0mg"},{"bike_id":"0909d642-3769-4280-a67d-cfffb46e66f8","system_id":"levelo_inurba_marseille","lat":43.319935,"lon":5.381699,"is_reserved":false,"is_disabled":false,"rental_uris":{"android":"levelo://app?vid=0909d642-3769-4280-a67d-cfffb46e66f8","ios":"levelo://app?vid=0909d642-3769-4280-a67d-cfffb46e66f8"},"vehicle_type_id":"4","last_reported":1718996763,"current_range_meters":0,"station_id":"ce4bhr12rcd13ifvqhpg","pricing_plan_id":"cebpf4jnsgd1na2vs0mg"},{"bike_id":"c07aff00-4eae-4c47-9b68-664428730875","system_id":"levelo_inurba_marseille","lat":43.29998,"lon":5.36894,"is_reserved":false,"is_disabled":false,"rental_uris":{"android":"levelo://app?vid=c07aff00-4eae-4c47-9b68-664428730875","ios":"levelo://app?vid=c07aff00-4eae-4c47-9b68-664428730875"},"vehicle_type_id":"4","last_reported":1718996763,"current_range_meters":13200,"station_id":"","pricing_plan_id":"cebpf4jnsgd1na2vs0mg"},{"bike_id":"2742ccea-3e55-4dd5-8738-1fd0a0203391","system_id":"levelo_inurba_marseille","lat":43.29933,"lon":5.36546,"is_reserved":false,"is_disabled":false,"rental_uris":{"android":"levelo://app?vid=2742ccea-3e55-4dd5-8738-1fd0a0203391","ios":"levelo://app?vid=2742ccea-3e55-4dd5-8738-1fd0a0203391"},"vehicle_type_id":"4","last_reported":1718996763,"current_range_meters":27200,"station_id":"","pricing_plan_id":"cebpf4jnsgd1na2vs0mg"},{"bike_id":"d4df2a14-706d-482c-a5d2-b4a39a19759a","system_id":"levelo_inurba_marseille","lat":43.299724,"lon":5.371829,"is_reserved":false,"is_disabled":false,"rental_uris":{"android":"levelo://app?vid=d4df2a14-706d-482c-a5d2-b4a39a19759a","ios":"levelo://app?vid=d4df2a14-706d-482c-a5d2-b4a39a19759a"},"vehicle_type_id":"4","last_reported":1718996763,"current_range_meters":0,"station_id":"ce4bgr92rcd13ifvqc7g","pricing_plan_id":"cebpf4jnsgd1na2vs0mg"},{"bike_id":"197d4110-9a37-4972-b2cb-2d07ac146834","system_id":"levelo_inurba_marseille","lat":43.298433,"lon":5.362774,"is_reserved":false,"is_disabled":false,"rental_uris":{"android":"levelo://app?vid=197d4110-9a37-4972-b2cb-2d07ac146834","ios":"levelo://app?vid=197d4110-9a37-4972-b2cb-2d07ac146834"},"vehicle_type_id":"4","last_reported":1718996763,"current_range_meters":22800,"station_id":"ce4bgpp2rcd13ifvqc3g","pricing_plan_id":"cebpf4jnsgd1na2vs0mg"},{"bike_id":"1d0eff0d-4de7-44ae-a42a-bb1f1f3830f5","system_id":"levelo_inurba_marseille","lat":43.298433,"lon":5.362774,"is_reserved":false,"is_disabled":false,"rental_uris":{"android":"levelo://app?vid=1d0eff0d-4de7-44ae-a42a-bb1f1f3830f5","ios":"levelo://app?vid=1d0eff0d-4de7-44ae-a42a-bb1f1f3830f5"},"vehicle_type_id":"4","last_reported":1718996763,"current_range_meters":8800,"station_id":"ce4bgpp2rcd13ifvqc3g","pricing_plan_id":"cebpf4jnsgd1na2vs0mg"},{"bike_id":"aad9a726-0f3c-4b88-baed-3a2973bd3503","system_id":"levelo_inurba_marseille","lat":43.298433,"lon":5.362774,"is_reserved":false,"is_disabled":false,"rental_uris":{"android":"levelo://app?vid=aad9a726-0f3c-4b88-baed-3a2973bd3503","ios":"levelo://app?vid=aad9a726-0f3c-4b88-baed-3a2973bd3503"},"vehicle_type_id":"4","last_reported":1718996763,"current_range_meters":0,"station_id":"ce4bgpp2rcd13ifvqc3g","pricing_plan_id":"cebpf4jnsgd1na2vs0mg"},{"bike_id":"1ae1b268-ea82-4afe-beb0-79b9aa0ce425","system_id":"levelo_inurba_marseille","lat":43.298433,"lon":5.362774,"is_reserved":false,"is_disabled":false,"rental_uris":{"android":"levelo://app?vid=1ae1b268-ea82-4afe-beb0-79b9aa0ce425","ios":"levelo://app?vid=1ae1b268-ea82-4afe-beb0-79b9aa0ce425"},"vehicle_type_id":"4","last_reported":1718996763,"current_range_meters":15600,"station_id":"ce4bgpp2rcd13ifvqc3g","pricing_plan_id":"cebpf4jnsgd1na2vs0mg"},{"bike_id":"5b90e3c9-5d78-4c68-a004-77653d75644c","system_id":"levelo_inurba_marseille","lat":43.30533,"lon":5.38431,"is_reserved":false,"is_disabled":false,"rental_uris":{"android":"levelo://app?vid=5b90e3c9-5d78-4c68-a004-77653d75644c","ios":"levelo://app?vid=5b90e3c9-5d78-4c68-a004-77653d75644c"},"vehicle_type_id":"4","last_reported":1718996763,"current_range_meters":0,"station_id":"ce4bgg92rcd13ifvqb30","pricing_plan_id":"cebpf4jnsgd1na2vs0mg"},{"bike_id":"641058b9-5034-47ff-ad8b-af589373bfe2","system_id":"levelo_inurba_marseille","lat":43.299243,"lon":5.37481,"is_reserved":false,"is_disabled":false,"rental_uris":{"android":"levelo://app?vid=641058b9-5034-47ff-ad8b-af589373bfe2","ios":"levelo://app?vid=641058b9-5034-47ff-ad8b-af589373bfe2"},"vehicle_type_id":"4","last_reported":1718996763,"current_range_meters":27200,"station_id":"ce4bgjh2rcd13ifvqbg0","pricing_plan_id":"cebpf4jnsgd1na2vs0mg"},{"bike_id":"ed14ec74-1f1c-4cfd-8d26-59aa92fdca8a","system_id":"levelo_inurba_marseille","lat":43.306835,"lon":5.38606,"is_reserved":false,"is_disabled":false,"rental_uris":{"android":"levelo://app?vid=ed14ec74-1f1c-4cfd-8d26-59aa92fdca8a","ios":"levelo://app?vid=ed14ec74-1f1c-4cfd-8d26-59aa92fdca8a"},"vehicle_type_id":"4","last_reported":1718996763,"current_range_meters":27200,"station_id":"","pricing_plan_id":"cebpf4jnsgd1na2vs0mg"},{"bike_id":"7c19a321-b828-4814-a4b9-9c8b67dbb673","system_id":"levelo_inurba_marseille","lat":43.297794,"lon":5.370888,"is_reserved":false,"is_disabled":false,"rental_uris":{"android":"levelo://app?vid=7c19a321-b828-4814-a4b9-9c8b67dbb673","ios":"levelo://app?vid=7c19a321-b828-4814-a4b9-9c8b67dbb673"},"vehicle_type_id":"4","last_reported":1718996763,"current_range_meters":28000,"station_id":"ce4bgop2rcd13ifvqc1g","pricing_plan_id":"cebpf4jnsgd1na2vs0mg"},{"bike_id":"84649b8e-69a6-4cda-900e-acb8717b71e8","system_id":"levelo_inurba_marseille","lat":43.297774,"lon":5.370875,"is_reserved":false,"is_disabled":false,"rental_uris":{"android":"levelo://app?vid=84649b8e-69a6-4cda-900e-acb8717b71e8","ios":"levelo://app?vid=84649b8e-69a6-4cda-900e-acb8717b71e8"},"vehicle_type_id":"4","last_reported":1718996763,"current_range_meters":400,"station_id":"ce4bgop2rcd13ifvqc1g","pricing_plan_id":"cebpf4jnsgd1na2vs0mg"},{"bike_id":"7e2676af-7806-4cd9-b892-6effd8c8f018","system_id":"levelo_inurba_marseille","lat":43.296131,"lon":5.370773,"is_reserved":false,"is_disabled":false,"rental_uris":{"android":"levelo://app?vid=7e2676af-7806-4cd9-b892-6effd8c8f018","ios":"levelo://app?vid=7e2676af-7806-4cd9-b892-6effd8c8f018"},"vehicle_type_id":"4","last_reported":1718996763,"current_range_meters":28800,"station_id":"ce4bgnh2rcd13ifvqc0g","pricing_plan_id":"cebpf4jnsgd1na2vs0mg"},{"bike_id":"15a6783f-e5d9-43c4-8f7b-da9941a1042c","system_id":"levelo_inurba_marseille","lat":43.29573,"lon":5.367355,"is_reserved":false,"is_disabled":false,"rental_uris":{"android":"levelo://app?vid=15a6783f-e5d9-43c4-8f7b-da9941a1042c","ios":"levelo://app?vid=15a6783f-e5d9-43c4-8f7b-da9941a1042c"},"vehicle_type_id":"4","last_reported":1718996763,"current_range_meters":13600,"station_id":"ce4bgph2rcd13ifvqc2g","pricing_plan_id":"cebpf4jnsgd1na2vs0mg"},{"bike_id":"c02f17cc-ef38-43d1-ba6f-74f874658e48","system_id":"levelo_inurba_marseille","lat":43.29573,"lon":5.367355,"is_reserved":false,"is_disabled":false,"rental_uris":{"android":"levelo://app?vid=c02f17cc-ef38-43d1-ba6f-74f874658e48","ios":"levelo://app?vid=c02f17cc-ef38-43d1-ba6f-74f874658e48"},"vehicle_type_id":"4","last_reported":1718996763,"current_range_meters":4000,"station_id":"ce4bgph2rcd13ifvqc2g","pricing_plan_id":"cebpf4jnsgd1na2vs0mg"},{"bike_id":"48949ec6-7bb0-4a26-92e4-92ad44893b54","system_id":"levelo_inurba_marseille","lat":43.296921,"lon":5.376579,"is_reserved":false,"is_disabled":false,"rental_uris":{"android":"levelo://app?vid=48949ec6-7bb0-4a26-92e4-92ad44893b54","ios":"levelo://app?vid=48949ec6-7bb0-4a26-92e4-92ad44893b54"},"vehicle_type_id":"4","last_reported":1718996763,"current_range_meters":23200,"station_id":"ce4bgkh2rcd13ifvqbl0","pricing_plan_id":"cebpf4jnsgd1na2vs0mg"},{"bike_id":"c5d04f63-aff3-476b-b0aa-52a6ba057c8b","system_id":"levelo_inurba_marseille","lat":43.299028,"lon":5.381509,"is_reserved":false,"is_disabled":false,"rental_uris":{"android":"levelo://app?vid=c5d04f63-aff3-476b-b0aa-52a6ba057c8b","ios":"levelo://app?vid=c5d04f63-aff3-476b-b0aa-52a6ba057c8b"},"vehicle_type_id":"4","last_reported":1718996763,"current_range_meters":2400,"station_id":"ce4bgj12rcd13ifvqbc0","pricing_plan_id":"cebpf4jnsgd1na2vs0mg"},{"bike_id":"5a815f6e-4f58-4738-8998-8261ac188843","system_id":"levelo_inurba_marseille","lat":43.296921,"lon":5.376579,"is_reserved":false,"is_disabled":false,"rental_uris":{"android":"levelo://app?vid=5a815f6e-4f58-4738-8998-8261ac188843","ios":"levelo://app?vid=5a815f6e-4f58-4738-8998-8261ac188843"},"vehicle_type_id":"4","last_reported":1718996763,"current_range_meters":14800,"station_id":"ce4bgkh2rcd13ifvqbl0","pricing_plan_id":"cebpf4jnsgd1na2vs0mg"},{"bike_id":"3ab91720-eb61-491c-b465-307afcca8839","system_id":"levelo_inurba_marseille","lat":43.309589,"lon":5.390258,"is_reserved":false,"is_disabled":false,"rental_uris":{"android":"levelo://app?vid=3ab91720-eb61-491c-b465-307afcca8839","ios":"levelo://app?vid=3ab91720-eb61-491c-b465-307afcca8839"},"vehicle_type_id":"4","last_reported":1718996763,"current_range_meters":3200,"station_id":"ce4bgup2rcd13ifvqco0","pricing_plan_id":"cebpf4jnsgd1na2vs0mg"},{"bike_id":"0a613bae-0da3-465b-a88d-ed61ada308f7","system_id":"levelo_inurba_marseille","lat":43.317557,"lon":5.390173,"is_reserved":false,"is_disabled":false,"rental_uris":{"android":"levelo://app?vid=0a613bae-0da3-465b-a88d-ed61ada308f7","ios":"levelo://app?vid=0a613bae-0da3-465b-a88d-ed61ada308f7"},"vehicle_type_id":"4","last_reported":1718996763,"current_range_meters":26000,"station_id":"ce4bhqp2rcd13ifvqhng","pricing_plan_id":"cebpf4jnsgd1na2vs0mg"},{"bike_id":"8aef9e7a-bb94-4a06-b5b2-7b07cea637b7","system_id":"levelo_inurba_marseille","lat":43.29675,"lon":5.377689,"is_reserved":false,"is_disabled":false,"rental_uris":{"android":"levelo://app?vid=8aef9e7a-bb94-4a06-b5b2-7b07cea637b7","ios":"levelo://app?vid=8aef9e7a-bb94-4a06-b5b2-7b07cea637b7"},"vehicle_type_id":"4","last_reported":1718996763,"current_range_meters":27600,"station_id":"","pricing_plan_id":"cebpf4jnsgd1na2vs0mg"},{"bike_id":"84077b94-b124-4fb1-9703-a6cb0c01f3d7","system_id":"levelo_inurba_marseille","lat":43.295748,"lon":5.37522,"is_reserved":false,"is_disabled":false,"rental_uris":{"android":"levelo://app?vid=84077b94-b124-4fb1-9703-a6cb0c01f3d7","ios":"levelo://app?vid=84077b94-b124-4fb1-9703-a6cb0c01f3d7"},"vehicle_type_id":"4","last_reported":1718996763,"current_range_meters":12400,"station_id":"ce4bgh92rcd13ifvqb50","pricing_plan_id":"cebpf4jnsgd1na2vs0mg"},{"bike_id":"65095e84-f885-4b62-8579-b2c802471932","system_id":"levelo_inurba_marseille","lat":43.2957,"lon":5.3752,"is_reserved":false,"is_disabled":false,"rental_uris":{"android":"levelo://app?vid=65095e84-f885-4b62-8579-b2c802471932","ios":"levelo://app?vid=65095e84-f885-4b62-8579-b2c802471932"},"vehicle_type_id":"4","last_reported":1718996763,"current_range_meters":24800,"station_id":"ce4bgh92rcd13ifvqb50","pricing_plan_id":"cebpf4jnsgd1na2vs0mg"},{"bike_id":"48a686db-3756-42a0-ad15-9cc2294a8a84","system_id":"levelo_inurba_marseille","lat":43.296263,"lon":5.377094,"is_reserved":false,"is_disabled":false,"rental_uris":{"android":"levelo://app?vid=48a686db-3756-42a0-ad15-9cc2294a8a84","ios":"levelo://app?vid=48a686db-3756-42a0-ad15-9cc2294a8a84"},"vehicle_type_id":"4","last_reported":1718996763,"current_range_meters":29200,"station_id":"ce4bgi92rcd13ifvqb90","pricing_plan_id":"cebpf4jnsgd1na2vs0mg"},{"bike_id":"b02a39f1-2e15-4035-92a0-84c3bba7590f","system_id":"levelo_inurba_marseille","lat":43.295279,"lon":5.375048,"is_reserved":false,"is_disabled":false,"rental_uris":{"android":"levelo://app?vid=b02a39f1-2e15-4035-92a0-84c3bba7590f","ios":"levelo://app?vid=b02a39f1-2e15-4035-92a0-84c3bba7590f"},"vehicle_type_id":"4","last_reported":1718996763,"current_range_meters":27200,"station_id":"ce4bgkp2rcd13ifvqbmg","pricing_plan_id":"cebpf4jnsgd1na2vs0mg"},{"bike_id":"d5021629-9897-42a6-bcc6-27dbe4307609","system_id":"levelo_inurba_marseille","lat":43.299707,"lon":5.384859,"is_reserved":false,"is_disabled":false,"rental_uris":{"android":"levelo://app?vid=d5021629-9897-42a6-bcc6-27dbe4307609","ios":"levelo://app?vid=d5021629-9897-42a6-bcc6-27dbe4307609"},"vehicle_type_id":"4","last_reported":1718996763,"current_range_meters":800,"station_id":"ce4bgj92rcd13ifvqbd0","pricing_plan_id":"cebpf4jnsgd1na2vs0mg"},{"bike_id":"e6843191-47c3-423f-b05b-953e98378e0a","system_id":"levelo_inurba_marseille","lat":43.295279,"lon":5.375048,"is_reserved":false,"is_disabled":false,"rental_uris":{"android":"levelo://app?vid=e6843191-47c3-423f-b05b-953e98378e0a","ios":"levelo://app?vid=e6843191-47c3-423f-b05b-953e98378e0a"},"vehicle_type_id":"4","last_reported":1718996763,"current_range_meters":22000,"station_id":"ce4bgkp2rcd13ifvqbmg","pricing_plan_id":"cebpf4jnsgd1na2vs0mg"},{"bike_id":"ac4f0c6c-be58-498f-9f27-8518d3cfe382","system_id":"levelo_inurba_marseille","lat":43.299724,"lon":5.384848,"is_reserved":false,"is_disabled":false,"rental_uris":{"android":"levelo://app?vid=ac4f0c6c-be58-498f-9f27-8518d3cfe382","ios":"levelo://app?vid=ac4f0c6c-be58-498f-9f27-8518d3cfe382"},"vehicle_type_id":"4","last_reported":1718996763,"current_range_meters":21200,"station_id":"ce4bgj92rcd13ifvqbd0","pricing_plan_id":"cebpf4jnsgd1na2vs0mg"},{"bike_id":"10109b1c-dcf0-47ee-baee-bed50349c63e","system_id":"levelo_inurba_marseille","lat":43.29973,"lon":5.38499,"is_reserved":false,"is_disabled":false,"rental_uris":{"android":"levelo://app?vid=10109b1c-dcf0-47ee-baee-bed50349c63e","ios":"levelo://app?vid=10109b1c-dcf0-47ee-baee-bed50349c63e"},"vehicle_type_id":"4","last_reported":1718996763,"current_range_meters":27600,"station_id":"ce4bgj92rcd13ifvqbd0","pricing_plan_id":"cebpf4jnsgd1na2vs0mg"},{"bike_id":"30c3d8ca-3c04-46ec-a1de-0eb5180c6603","system_id":"levelo_inurba_marseille","lat":43.29968,"lon":5.38498,"is_reserved":false,"is_disabled":false,"rental_uris":{"android":"levelo://app?vid=30c3d8ca-3c04-46ec-a1de-0eb5180c6603","ios":"levelo://app?vid=30c3d8ca-3c04-46ec-a1de-0eb5180c6603"},"vehicle_type_id":"4","last_reported":1718996763,"current_range_meters":0,"station_id":"ce4bgj92rcd13ifvqbd0","pricing_plan_id":"cebpf4jnsgd1na2vs0mg"},{"bike_id":"a0759c43-cf6c-49b3-988f-7a668d5839fe","system_id":"levelo_inurba_marseille","lat":43.299724,"lon":5.384848,"is_reserved":false,"is_disabled":false,"rental_uris":{"android":"levelo://app?vid=a0759c43-cf6c-49b3-988f-7a668d5839fe","ios":"levelo://app?vid=a0759c43-cf6c-49b3-988f-7a668d5839fe"},"vehicle_type_id":"4","last_reported":1718996763,"current_range_meters":26800,"station_id":"ce4bgj92rcd13ifvqbd0","pricing_plan_id":"cebpf4jnsgd1na2vs0mg"},{"bike_id":"d24b6a69-c2d1-4a0a-9766-81390501209c","system_id":"levelo_inurba_marseille","lat":43.295279,"lon":5.375048,"is_reserved":false,"is_disabled":false,"rental_uris":{"android":"levelo://app?vid=d24b6a69-c2d1-4a0a-9766-81390501209c","ios":"levelo://app?vid=d24b6a69-c2d1-4a0a-9766-81390501209c"},"vehicle_type_id":"4","last_reported":1718996763,"current_range_meters":22800,"station_id":"ce4bgkp2rcd13ifvqbmg","pricing_plan_id":"cebpf4jnsgd1na2vs0mg"},{"bike_id":"3ebacbc5-434a-4519-a06d-5ddf8cb42c65","system_id":"levelo_inurba_marseille","lat":43.326605,"lon":5.409903,"is_reserved":false,"is_disabled":false,"rental_uris":{"android":"levelo://app?vid=3ebacbc5-434a-4519-a06d-5ddf8cb42c65","ios":"levelo://app?vid=3ebacbc5-434a-4519-a06d-5ddf8cb42c65"},"vehicle_type_id":"4","last_reported":1718996763,"current_range_meters":7200,"station_id":"ce4bhpp2rcd13ifvqhgg","pricing_plan_id":"cebpf4jnsgd1na2vs0mg"},{"bike_id":"c39ff722-c7b8-45de-8714-4f0e0f814735","system_id":"levelo_inurba_marseille","lat":43.32365,"lon":5.38886,"is_reserved":false,"is_disabled":false,"rental_uris":{"android":"levelo://app?vid=c39ff722-c7b8-45de-8714-4f0e0f814735","ios":"levelo://app?vid=c39ff722-c7b8-45de-8714-4f0e0f814735"},"vehicle_type_id":"4","last_reported":1718996763,"current_range_meters":6000,"station_id":"ce4bhqp2rcd13ifvqhog","pricing_plan_id":"cebpf4jnsgd1na2vs0mg"},{"bike_id":"004a7cdb-4746-43cd-a305-a05207e33dd8","system_id":"levelo_inurba_marseille","lat":43.296043,"lon":5.380817,"is_reserved":false,"is_disabled":false,"rental_uris":{"android":"levelo://app?vid=004a7cdb-4746-43cd-a305-a05207e33dd8","ios":"levelo://app?vid=004a7cdb-4746-43cd-a305-a05207e33dd8"},"vehicle_type_id":"4","last_reported":1718996763,"current_range_meters":0,"station_id":"ce4bgl12rcd13ifvqbo0","pricing_plan_id":"cebpf4jnsgd1na2vs0mg"},{"bike_id":"408e9382-d9fe-4d05-b94c-80a4ae1e3f8f","system_id":"levelo_inurba_marseille","lat":43.29607,"lon":5.38091,"is_reserved":false,"is_disabled":false,"rental_uris":{"android":"levelo://app?vid=408e9382-d9fe-4d05-b94c-80a4ae1e3f8f","ios":"levelo://app?vid=408e9382-d9fe-4d05-b94c-80a4ae1e3f8f"},"vehicle_type_id":"4","last_reported":1718996763,"current_range_meters":31600,"station_id":"ce4bgl12rcd13ifvqbo0","pricing_plan_id":"cebpf4jnsgd1na2vs0mg"},{"bike_id":"b7178539-f7bb-401b-92d5-51eb90ec5fab","system_id":"levelo_inurba_marseille","lat":43.29602,"lon":5.381084,"is_reserved":false,"is_disabled":false,"rental_uris":{"android":"levelo://app?vid=b7178539-f7bb-401b-92d5-51eb90ec5fab","ios":"levelo://app?vid=b7178539-f7bb-401b-92d5-51eb90ec5fab"},"vehicle_type_id":"4","last_reported":1718996763,"current_range_meters":1200,"station_id":"ce4bgl12rcd13ifvqbo0","pricing_plan_id":"cebpf4jnsgd1na2vs0mg"},{"bike_id":"02c9cee3-134e-497e-9708-237b95561488","system_id":"levelo_inurba_marseille","lat":43.29342,"lon":5.37142,"is_reserved":false,"is_disabled":false,"rental_uris":{"android":"levelo://app?vid=02c9cee3-134e-497e-9708-237b95561488","ios":"levelo://app?vid=02c9cee3-134e-497e-9708-237b95561488"},"vehicle_type_id":"4","last_reported":1718996763,"current_range_meters":0,"station_id":"","pricing_plan_id":"cebpf4jnsgd1na2vs0mg"},{"bike_id":"f9d84d2e-be1f-4b06-b4d2-14e4d07d0d60","system_id":"levelo_inurba_marseille","lat":43.29603,"lon":5.38099,"is_reserved":false,"is_disabled":false,"rental_uris":{"android":"levelo://app?vid=f9d84d2e-be1f-4b06-b4d2-14e4d07d0d60","ios":"levelo://app?vid=f9d84d2e-be1f-4b06-b4d2-14e4d07d0d60"},"vehicle_type_id":"4","last_reported":1718996763,"current_range_meters":30400,"station_id":"ce4bgl12rcd13ifvqbo0","pricing_plan_id":"cebpf4jnsgd1na2vs0mg"},{"bike_id":"e5712b2e-ce72-4bcd-b20b-efcb88af62ea","system_id":"levelo_inurba_marseille","lat":43.296,"lon":5.38093,"is_reserved":false,"is_disabled":false,"rental_uris":{"android":"levelo://app?vid=e5712b2e-ce72-4bcd-b20b-efcb88af62ea","ios":"levelo://app?vid=e5712b2e-ce72-4bcd-b20b-efcb88af62ea"},"vehicle_type_id":"4","last_reported":1718996763,"current_range_meters":26000,"station_id":"ce4bgl12rcd13ifvqbo0","pricing_plan_id":"cebpf4jnsgd1na2vs0mg"},{"bike_id":"b6f9c28b-5378-4eb5-a498-824e8eb3eb06","system_id":"levelo_inurba_marseille","lat":43.29602,"lon":5.381084,"is_reserved":false,"is_disabled":false,"rental_uris":{"android":"levelo://app?vid=b6f9c28b-5378-4eb5-a498-824e8eb3eb06","ios":"levelo://app?vid=b6f9c28b-5378-4eb5-a498-824e8eb3eb06"},"vehicle_type_id":"4","last_reported":1718996763,"current_range_meters":24800,"station_id":"ce4bgl12rcd13ifvqbo0","pricing_plan_id":"cebpf4jnsgd1na2vs0mg"},{"bike_id":"2c2c8c13-6b57-4f56-83e3-4915ab3e280a","system_id":"levelo_inurba_marseille","lat":43.29602,"lon":5.38102,"is_reserved":false,"is_disabled":false,"rental_uris":{"android":"levelo://app?vid=2c2c8c13-6b57-4f56-83e3-4915ab3e280a","ios":"levelo://app?vid=2c2c8c13-6b57-4f56-83e3-4915ab3e280a"},"vehicle_type_id":"4","last_reported":1718996763,"current_range_meters":31200,"station_id":"ce4bgl12rcd13ifvqbo0","pricing_plan_id":"cebpf4jnsgd1na2vs0mg"},{"bike_id":"27b529e5-a44f-45d4-ac02-3f2d08572c28","system_id":"levelo_inurba_marseille","lat":43.296023,"lon":5.381066,"is_reserved":false,"is_disabled":false,"rental_uris":{"android":"levelo://app?vid=27b529e5-a44f-45d4-ac02-3f2d08572c28","ios":"levelo://app?vid=27b529e5-a44f-45d4-ac02-3f2d08572c28"},"vehicle_type_id":"4","last_reported":1718996763,"current_range_meters":24400,"station_id":"ce4bgl12rcd13ifvqbo0","pricing_plan_id":"cebpf4jnsgd1na2vs0mg"},{"bike_id":"6632b804-fcf9-40fb-a289-49d2e138336d","system_id":"levelo_inurba_marseille","lat":43.29589,"lon":5.38091,"is_reserved":false,"is_disabled":false,"rental_uris":{"android":"levelo://app?vid=6632b804-fcf9-40fb-a289-49d2e138336d","ios":"levelo://app?vid=6632b804-fcf9-40fb-a289-49d2e138336d"},"vehicle_type_id":"4","last_reported":1718996763,"current_range_meters":31200,"station_id":"ce4bgl12rcd13ifvqbo0","pricing_plan_id":"cebpf4jnsgd1na2vs0mg"},{"bike_id":"d901434c-ed30-4d38-8b5f-df4ed5dc28eb","system_id":"levelo_inurba_marseille","lat":43.293249,"lon":5.371578,"is_reserved":false,"is_disabled":false,"rental_uris":{"android":"levelo://app?vid=d901434c-ed30-4d38-8b5f-df4ed5dc28eb","ios":"levelo://app?vid=d901434c-ed30-4d38-8b5f-df4ed5dc28eb"},"vehicle_type_id":"4","last_reported":1718996763,"current_range_meters":5600,"station_id":"ce4bgh92rcd13ifvqb40","pricing_plan_id":"cebpf4jnsgd1na2vs0mg"},{"bike_id":"6e0d56d9-4521-48c9-8370-605fed06b1ec","system_id":"levelo_inurba_marseille","lat":43.293249,"lon":5.371578,"is_reserved":false,"is_disabled":false,"rental_uris":{"android":"levelo://app?vid=6e0d56d9-4521-48c9-8370-605fed06b1ec","ios":"levelo://app?vid=6e0d56d9-4521-48c9-8370-605fed06b1ec"},"vehicle_type_id":"4","last_reported":1718996763,"current_range_meters":19200,"station_id":"ce4bgh92rcd13ifvqb40","pricing_plan_id":"cebpf4jnsgd1na2vs0mg"},{"bike_id":"1e6c79c2-e260-4c21-adcc-8a54d2e6d727","system_id":"levelo_inurba_marseille","lat":43.293249,"lon":5.371578,"is_reserved":false,"is_disabled":false,"rental_uris":{"android":"levelo://app?vid=1e6c79c2-e260-4c21-adcc-8a54d2e6d727","ios":"levelo://app?vid=1e6c79c2-e260-4c21-adcc-8a54d2e6d727"},"vehicle_type_id":"4","last_reported":1718996763,"current_range_meters":27200,"station_id":"ce4bgh92rcd13ifvqb40","pricing_plan_id":"cebpf4jnsgd1na2vs0mg"},{"bike_id":"ae6038d0-7594-4896-8753-c16ce84e3aab","system_id":"levelo_inurba_marseille","lat":43.293259,"lon":5.371586,"is_reserved":false,"is_disabled":false,"rental_uris":{"android":"levelo://app?vid=ae6038d0-7594-4896-8753-c16ce84e3aab","ios":"levelo://app?vid=ae6038d0-7594-4896-8753-c16ce84e3aab"},"vehicle_type_id":"4","last_reported":1718996763,"current_range_meters":800,"station_id":"ce4bgh92rcd13ifvqb40","pricing_plan_id":"cebpf4jnsgd1na2vs0mg"},{"bike_id":"c9443ceb-e8c0-496b-b949-84ebd05e2555","system_id":"levelo_inurba_marseille","lat":43.297474,"lon":5.3854,"is_reserved":false,"is_disabled":false,"rental_uris":{"android":"levelo://app?vid=c9443ceb-e8c0-496b-b949-84ebd05e2555","ios":"levelo://app?vid=c9443ceb-e8c0-496b-b949-84ebd05e2555"},"vehicle_type_id":"4","last_reported":1718996763,"current_range_meters":0,"station_id":"","pricing_plan_id":"cebpf4jnsgd1na2vs0mg"},{"bike_id":"a61f2b80-aa54-4732-92a0-6327d3bc66b0","system_id":"levelo_inurba_marseille","lat":43.29301,"lon":5.37463,"is_reserved":false,"is_disabled":false,"rental_uris":{"android":"levelo://app?vid=a61f2b80-aa54-4732-92a0-6327d3bc66b0","ios":"levelo://app?vid=a61f2b80-aa54-4732-92a0-6327d3bc66b0"},"vehicle_type_id":"4","last_reported":1718996763,"current_range_meters":400,"station_id":"ce4bgi12rcd13ifvqb70","pricing_plan_id":"cebpf4jnsgd1na2vs0mg"},{"bike_id":"9c4ffeb3-2974-42f5-bc68-90553357d103","system_id":"levelo_inurba_marseille","lat":43.29297,"lon":5.3745,"is_reserved":false,"is_disabled":false,"rental_uris":{"android":"levelo://app?vid=9c4ffeb3-2974-42f5-bc68-90553357d103","ios":"levelo://app?vid=9c4ffeb3-2974-42f5-bc68-90553357d103"},"vehicle_type_id":"4","last_reported":1718996763,"current_range_meters":0,"station_id":"ce4bgi12rcd13ifvqb70","pricing_plan_id":"cebpf4jnsgd1na2vs0mg"},{"bike_id":"c433b533-ba1f-4144-8911-dcca7fca2747","system_id":"levelo_inurba_marseille","lat":43.293009,"lon":5.374584,"is_reserved":false,"is_disabled":false,"rental_uris":{"android":"levelo://app?vid=c433b533-ba1f-4144-8911-dcca7fca2747","ios":"levelo://app?vid=c433b533-ba1f-4144-8911-dcca7fca2747"},"vehicle_type_id":"4","last_reported":1718996763,"current_range_meters":8000,"station_id":"ce4bgi12rcd13ifvqb70","pricing_plan_id":"cebpf4jnsgd1na2vs0mg"},{"bike_id":"eb0a0c5c-5ce9-4047-a84e-d4856613adbd","system_id":"levelo_inurba_marseille","lat":43.29299,"lon":5.37468,"is_reserved":false,"is_disabled":false,"rental_uris":{"android":"levelo://app?vid=eb0a0c5c-5ce9-4047-a84e-d4856613adbd","ios":"levelo://app?vid=eb0a0c5c-5ce9-4047-a84e-d4856613adbd"},"vehicle_type_id":"4","last_reported":1718996763,"current_range_meters":0,"station_id":"ce4bgi12rcd13ifvqb70","pricing_plan_id":"cebpf4jnsgd1na2vs0mg"},{"bike_id":"1bcb5aea-c012-43b4-bac4-51e16d69506d","system_id":"levelo_inurba_marseille","lat":43.29297,"lon":5.3746,"is_reserved":false,"is_disabled":false,"rental_uris":{"android":"levelo://app?vid=1bcb5aea-c012-43b4-bac4-51e16d69506d","ios":"levelo://app?vid=1bcb5aea-c012-43b4-bac4-51e16d69506d"},"vehicle_type_id":"4","last_reported":1718996763,"current_range_meters":0,"station_id":"ce4bgi12rcd13ifvqb70","pricing_plan_id":"cebpf4jnsgd1na2vs0mg"},{"bike_id":"a790a00b-caa0-4d23-8eff-94a7b9d11a7f","system_id":"levelo_inurba_marseille","lat":43.29297,"lon":5.37461,"is_reserved":false,"is_disabled":false,"rental_uris":{"android":"levelo://app?vid=a790a00b-caa0-4d23-8eff-94a7b9d11a7f","ios":"levelo://app?vid=a790a00b-caa0-4d23-8eff-94a7b9d11a7f"},"vehicle_type_id":"4","last_reported":1718996763,"current_range_meters":26000,"station_id":"ce4bgi12rcd13ifvqb70","pricing_plan_id":"cebpf4jnsgd1na2vs0mg"},{"bike_id":"6120a593-bccd-4912-ace8-d515d2e74b72","system_id":"levelo_inurba_marseille","lat":43.29558,"lon":5.38246,"is_reserved":false,"is_disabled":false,"rental_uris":{"android":"levelo://app?vid=6120a593-bccd-4912-ace8-d515d2e74b72","ios":"levelo://app?vid=6120a593-bccd-4912-ace8-d515d2e74b72"},"vehicle_type_id":"4","last_reported":1718996763,"current_range_meters":0,"station_id":"","pricing_plan_id":"cebpf4jnsgd1na2vs0mg"},{"bike_id":"3c242259-6da9-4b0c-bbe0-7fb0409334fc","system_id":"levelo_inurba_marseille","lat":43.29295,"lon":5.37464,"is_reserved":false,"is_disabled":false,"rental_uris":{"android":"levelo://app?vid=3c242259-6da9-4b0c-bbe0-7fb0409334fc","ios":"levelo://app?vid=3c242259-6da9-4b0c-bbe0-7fb0409334fc"},"vehicle_type_id":"4","last_reported":1718996763,"current_range_meters":26400,"station_id":"ce4bgi12rcd13ifvqb70","pricing_plan_id":"cebpf4jnsgd1na2vs0mg"},{"bike_id":"4ec98e77-bec7-49f9-b419-ad4d541c5531","system_id":"levelo_inurba_marseille","lat":43.29296,"lon":5.3747,"is_reserved":false,"is_disabled":false,"rental_uris":{"android":"levelo://app?vid=4ec98e77-bec7-49f9-b419-ad4d541c5531","ios":"levelo://app?vid=4ec98e77-bec7-49f9-b419-ad4d541c5531"},"vehicle_type_id":"4","last_reported":1718996763,"current_range_meters":23600,"station_id":"ce4bgi12rcd13ifvqb70","pricing_plan_id":"cebpf4jnsgd1na2vs0mg"},{"bike_id":"d1c1cfbc-7b2e-4519-80a5-3c8279558723","system_id":"levelo_inurba_marseille","lat":43.29294,"lon":5.37461,"is_reserved":false,"is_disabled":false,"rental_uris":{"android":"levelo://app?vid=d1c1cfbc-7b2e-4519-80a5-3c8279558723","ios":"levelo://app?vid=d1c1cfbc-7b2e-4519-80a5-3c8279558723"},"vehicle_type_id":"4","last_reported":1718996763,"current_range_meters":24000,"station_id":"ce4bgi12rcd13ifvqb70","pricing_plan_id":"cebpf4jnsgd1na2vs0mg"},{"bike_id":"dba12d27-6c36-4ab6-862f-a18ebb6fb9e1","system_id":"levelo_inurba_marseille","lat":43.29293,"lon":5.37464,"is_reserved":false,"is_disabled":false,"rental_uris":{"android":"levelo://app?vid=dba12d27-6c36-4ab6-862f-a18ebb6fb9e1","ios":"levelo://app?vid=dba12d27-6c36-4ab6-862f-a18ebb6fb9e1"},"vehicle_type_id":"4","last_reported":1718996763,"current_range_meters":0,"station_id":"ce4bgi12rcd13ifvqb70","pricing_plan_id":"cebpf4jnsgd1na2vs0mg"},{"bike_id":"badb0300-a0ea-4501-a832-ff93e739e9e4","system_id":"levelo_inurba_marseille","lat":43.303002,"lon":5.392142,"is_reserved":false,"is_disabled":false,"rental_uris":{"android":"levelo://app?vid=badb0300-a0ea-4501-a832-ff93e739e9e4","ios":"levelo://app?vid=badb0300-a0ea-4501-a832-ff93e739e9e4"},"vehicle_type_id":"4","last_reported":1718996763,"current_range_meters":4000,"station_id":"ce4bgkh2rcd13ifvqbk0","pricing_plan_id":"cebpf4jnsgd1na2vs0mg"},{"bike_id":"be321bb9-3ae0-446a-bb70-e2d31b247e1b","system_id":"levelo_inurba_marseille","lat":43.30085,"lon":5.390856,"is_reserved":false,"is_disabled":false,"rental_uris":{"android":"levelo://app?vid=be321bb9-3ae0-446a-bb70-e2d31b247e1b","ios":"levelo://app?vid=be321bb9-3ae0-446a-bb70-e2d31b247e1b"},"vehicle_type_id":"4","last_reported":1718996763,"current_range_meters":6800,"station_id":"ce4bh192rcd13ifvqdb0","pricing_plan_id":"cebpf4jnsgd1na2vs0mg"},{"bike_id":"5647d597-e6d3-42de-82e2-be1e2cc1315c","system_id":"levelo_inurba_marseille","lat":43.292311,"lon":5.360731,"is_reserved":false,"is_disabled":false,"rental_uris":{"android":"levelo://app?vid=5647d597-e6d3-42de-82e2-be1e2cc1315c","ios":"levelo://app?vid=5647d597-e6d3-42de-82e2-be1e2cc1315c"},"vehicle_type_id":"4","last_reported":1718996763,"current_range_meters":2400,"station_id":"ce4bhbh2rcd13ifvqeqg","pricing_plan_id":"cebpf4jnsgd1na2vs0mg"},{"bike_id":"bc4290fb-5284-4762-924e-e8527a332e13","system_id":"levelo_inurba_marseille","lat":43.303002,"lon":5.392142,"is_reserved":false,"is_disabled":false,"rental_uris":{"android":"levelo://app?vid=bc4290fb-5284-4762-924e-e8527a332e13","ios":"levelo://app?vid=bc4290fb-5284-4762-924e-e8527a332e13"},"vehicle_type_id":"4","last_reported":1718996763,"current_range_meters":400,"station_id":"ce4bgkh2rcd13ifvqbk0","pricing_plan_id":"cebpf4jnsgd1na2vs0mg"},{"bike_id":"24f4bfa6-75d7-4729-aa8f-9ad6ee72ed36","system_id":"levelo_inurba_marseille","lat":43.291671,"lon":5.371575,"is_reserved":false,"is_disabled":false,"rental_uris":{"android":"levelo://app?vid=24f4bfa6-75d7-4729-aa8f-9ad6ee72ed36","ios":"levelo://app?vid=24f4bfa6-75d7-4729-aa8f-9ad6ee72ed36"},"vehicle_type_id":"4","last_reported":1718996763,"current_range_meters":15600,"station_id":"ce4bha92rcd13ifvqeh0","pricing_plan_id":"cebpf4jnsgd1na2vs0mg"},{"bike_id":"d16ad5ac-b41d-4639-b509-b2ad5a373f4d","system_id":"levelo_inurba_marseille","lat":43.298764,"lon":5.388973,"is_reserved":false,"is_disabled":false,"rental_uris":{"android":"levelo://app?vid=d16ad5ac-b41d-4639-b509-b2ad5a373f4d","ios":"levelo://app?vid=d16ad5ac-b41d-4639-b509-b2ad5a373f4d"},"vehicle_type_id":"4","last_reported":1718996763,"current_range_meters":26800,"station_id":"ce4bh392rcd13ifvqdl0","pricing_plan_id":"cebpf4jnsgd1na2vs0mg"},{"bike_id":"1a3e5d85-9f0e-480f-86c8-0265fe50ec3d","system_id":"levelo_inurba_marseille","lat":43.292005,"lon":5.357875,"is_reserved":false,"is_disabled":false,"rental_uris":{"android":"levelo://app?vid=1a3e5d85-9f0e-480f-86c8-0265fe50ec3d","ios":"levelo://app?vid=1a3e5d85-9f0e-480f-86c8-0265fe50ec3d"},"vehicle_type_id":"4","last_reported":1718996763,"current_range_meters":20800,"station_id":"ce4bhb12rcd13ifvqel0","pricing_plan_id":"cebpf4jnsgd1na2vs0mg"},{"bike_id":"f9bb77d3-6b2a-400a-8586-0fb7b45b1a4c","system_id":"levelo_inurba_marseille","lat":43.29191,"lon":5.35799,"is_reserved":false,"is_disabled":false,"rental_uris":{"android":"levelo://app?vid=f9bb77d3-6b2a-400a-8586-0fb7b45b1a4c","ios":"levelo://app?vid=f9bb77d3-6b2a-400a-8586-0fb7b45b1a4c"},"vehicle_type_id":"4","last_reported":1718996763,"current_range_meters":0,"station_id":"ce4bhb12rcd13ifvqel0","pricing_plan_id":"cebpf4jnsgd1na2vs0mg"},{"bike_id":"ef47d77e-7207-4950-b537-39e4b48030d0","system_id":"levelo_inurba_marseille","lat":43.29541,"lon":5.38542,"is_reserved":false,"is_disabled":false,"rental_uris":{"android":"levelo://app?vid=ef47d77e-7207-4950-b537-39e4b48030d0","ios":"levelo://app?vid=ef47d77e-7207-4950-b537-39e4b48030d0"},"vehicle_type_id":"4","last_reported":1718996763,"current_range_meters":3200,"station_id":"ce4bgih2rcd13ifvqba0","pricing_plan_id":"cebpf4jnsgd1na2vs0mg"},{"bike_id":"6b6b3c1d-b665-4545-b65c-c761fb686208","system_id":"levelo_inurba_marseille","lat":43.29538,"lon":5.38543,"is_reserved":false,"is_disabled":false,"rental_uris":{"android":"levelo://app?vid=6b6b3c1d-b665-4545-b65c-c761fb686208","ios":"levelo://app?vid=6b6b3c1d-b665-4545-b65c-c761fb686208"},"vehicle_type_id":"4","last_reported":1718996763,"current_range_meters":4800,"station_id":"ce4bgih2rcd13ifvqba0","pricing_plan_id":"cebpf4jnsgd1na2vs0mg"},{"bike_id":"cf09fb06-1470-46c2-b9fc-226e4271063c","system_id":"levelo_inurba_marseille","lat":43.29529,"lon":5.385581,"is_reserved":false,"is_disabled":false,"rental_uris":{"android":"levelo://app?vid=cf09fb06-1470-46c2-b9fc-226e4271063c","ios":"levelo://app?vid=cf09fb06-1470-46c2-b9fc-226e4271063c"},"vehicle_type_id":"4","last_reported":1718996763,"current_range_meters":19200,"station_id":"ce4bgih2rcd13ifvqba0","pricing_plan_id":"cebpf4jnsgd1na2vs0mg"},{"bike_id":"a071f621-ed5f-4dbe-a78d-51c4098843b1","system_id":"levelo_inurba_marseille","lat":43.295334,"lon":5.385388,"is_reserved":false,"is_disabled":false,"rental_uris":{"android":"levelo://app?vid=a071f621-ed5f-4dbe-a78d-51c4098843b1","ios":"levelo://app?vid=a071f621-ed5f-4dbe-a78d-51c4098843b1"},"vehicle_type_id":"4","last_reported":1718996763,"current_range_meters":0,"station_id":"","pricing_plan_id":"cebpf4jnsgd1na2vs0mg"},{"bike_id":"9cb16436-92da-4c72-abb8-24ac0add9fc5","system_id":"levelo_inurba_marseille","lat":43.29529,"lon":5.385581,"is_reserved":false,"is_disabled":false,"rental_uris":{"android":"levelo://app?vid=9cb16436-92da-4c72-abb8-24ac0add9fc5","ios":"levelo://app?vid=9cb16436-92da-4c72-abb8-24ac0add9fc5"},"vehicle_type_id":"4","last_reported":1718996763,"current_range_meters":26000,"station_id":"ce4bgih2rcd13ifvqba0","pricing_plan_id":"cebpf4jnsgd1na2vs0mg"},{"bike_id":"70259f20-b066-4942-b7e3-c8140860148b","system_id":"levelo_inurba_marseille","lat":43.29529,"lon":5.385581,"is_reserved":false,"is_disabled":false,"rental_uris":{"android":"levelo://app?vid=70259f20-b066-4942-b7e3-c8140860148b","ios":"levelo://app?vid=70259f20-b066-4942-b7e3-c8140860148b"},"vehicle_type_id":"4","last_reported":1718996763,"current_range_meters":0,"station_id":"ce4bgih2rcd13ifvqba0","pricing_plan_id":"cebpf4jnsgd1na2vs0mg"},{"bike_id":"71a846a0-8f48-4acb-b4fa-55dd98a07e32","system_id":"levelo_inurba_marseille","lat":43.29537,"lon":5.38546,"is_reserved":false,"is_disabled":false,"rental_uris":{"android":"levelo://app?vid=71a846a0-8f48-4acb-b4fa-55dd98a07e32","ios":"levelo://app?vid=71a846a0-8f48-4acb-b4fa-55dd98a07e32"},"vehicle_type_id":"4","last_reported":1718996763,"current_range_meters":10000,"station_id":"ce4bgih2rcd13ifvqba0","pricing_plan_id":"cebpf4jnsgd1na2vs0mg"},{"bike_id":"fc11e692-dea3-47b1-b738-8178c163ce89","system_id":"levelo_inurba_marseille","lat":43.29529,"lon":5.385581,"is_reserved":false,"is_disabled":false,"rental_uris":{"android":"levelo://app?vid=fc11e692-dea3-47b1-b738-8178c163ce89","ios":"levelo://app?vid=fc11e692-dea3-47b1-b738-8178c163ce89"},"vehicle_type_id":"4","last_reported":1718996763,"current_range_meters":12000,"station_id":"ce4bgih2rcd13ifvqba0","pricing_plan_id":"cebpf4jnsgd1na2vs0mg"},{"bike_id":"b633bb77-0e13-4f2a-86f4-b2a60dcc6116","system_id":"levelo_inurba_marseille","lat":43.29529,"lon":5.385581,"is_reserved":false,"is_disabled":false,"rental_uris":{"android":"levelo://app?vid=b633bb77-0e13-4f2a-86f4-b2a60dcc6116","ios":"levelo://app?vid=b633bb77-0e13-4f2a-86f4-b2a60dcc6116"},"vehicle_type_id":"4","last_reported":1718996763,"current_range_meters":18800,"station_id":"ce4bgih2rcd13ifvqba0","pricing_plan_id":"cebpf4jnsgd1na2vs0mg"},{"bike_id":"6e7ccf66-365c-46ef-aff6-fd7f76725fcc","system_id":"levelo_inurba_marseille","lat":43.29529,"lon":5.385581,"is_reserved":false,"is_disabled":false,"rental_uris":{"android":"levelo://app?vid=6e7ccf66-365c-46ef-aff6-fd7f76725fcc","ios":"levelo://app?vid=6e7ccf66-365c-46ef-aff6-fd7f76725fcc"},"vehicle_type_id":"4","last_reported":1718996763,"current_range_meters":12000,"station_id":"ce4bgih2rcd13ifvqba0","pricing_plan_id":"cebpf4jnsgd1na2vs0mg"},{"bike_id":"1475602b-9f76-4517-9ca1-59d703bae1c0","system_id":"levelo_inurba_marseille","lat":43.29529,"lon":5.385581,"is_reserved":false,"is_disabled":false,"rental_uris":{"android":"levelo://app?vid=1475602b-9f76-4517-9ca1-59d703bae1c0","ios":"levelo://app?vid=1475602b-9f76-4517-9ca1-59d703bae1c0"},"vehicle_type_id":"4","last_reported":1718996763,"current_range_meters":17200,"station_id":"ce4bgih2rcd13ifvqba0","pricing_plan_id":"cebpf4jnsgd1na2vs0mg"},{"bike_id":"ea2ce179-3e39-4cfa-af18-62f8dfd537fa","system_id":"levelo_inurba_marseille","lat":43.29529,"lon":5.385581,"is_reserved":false,"is_disabled":false,"rental_uris":{"android":"levelo://app?vid=ea2ce179-3e39-4cfa-af18-62f8dfd537fa","ios":"levelo://app?vid=ea2ce179-3e39-4cfa-af18-62f8dfd537fa"},"vehicle_type_id":"4","last_reported":1718996763,"current_range_meters":17600,"station_id":"ce4bgih2rcd13ifvqba0","pricing_plan_id":"cebpf4jnsgd1na2vs0mg"},{"bike_id":"e6fdbd44-6891-40ca-86d1-b4c7e00e8925","system_id":"levelo_inurba_marseille","lat":43.29529,"lon":5.385581,"is_reserved":false,"is_disabled":false,"rental_uris":{"android":"levelo://app?vid=e6fdbd44-6891-40ca-86d1-b4c7e00e8925","ios":"levelo://app?vid=e6fdbd44-6891-40ca-86d1-b4c7e00e8925"},"vehicle_type_id":"4","last_reported":1718996763,"current_range_meters":20000,"station_id":"ce4bgih2rcd13ifvqba0","pricing_plan_id":"cebpf4jnsgd1na2vs0mg"},{"bike_id":"f6b2c9fd-bc0e-4285-9bb7-ce1e04d28f3e","system_id":"levelo_inurba_marseille","lat":43.29529,"lon":5.385581,"is_reserved":false,"is_disabled":false,"rental_uris":{"android":"levelo://app?vid=f6b2c9fd-bc0e-4285-9bb7-ce1e04d28f3e","ios":"levelo://app?vid=f6b2c9fd-bc0e-4285-9bb7-ce1e04d28f3e"},"vehicle_type_id":"4","last_reported":1718996763,"current_range_meters":31200,"station_id":"ce4bgih2rcd13ifvqba0","pricing_plan_id":"cebpf4jnsgd1na2vs0mg"},{"bike_id":"27d765de-a303-4073-91e0-737d5054e438","system_id":"levelo_inurba_marseille","lat":43.29529,"lon":5.385581,"is_reserved":false,"is_disabled":false,"rental_uris":{"android":"levelo://app?vid=27d765de-a303-4073-91e0-737d5054e438","ios":"levelo://app?vid=27d765de-a303-4073-91e0-737d5054e438"},"vehicle_type_id":"4","last_reported":1718996763,"current_range_meters":4800,"station_id":"ce4bgih2rcd13ifvqba0","pricing_plan_id":"cebpf4jnsgd1na2vs0mg"},{"bike_id":"b394ba8c-7c01-40a9-a93f-86ac4637b143","system_id":"levelo_inurba_marseille","lat":43.29529,"lon":5.385581,"is_reserved":false,"is_disabled":false,"rental_uris":{"android":"levelo://app?vid=b394ba8c-7c01-40a9-a93f-86ac4637b143","ios":"levelo://app?vid=b394ba8c-7c01-40a9-a93f-86ac4637b143"},"vehicle_type_id":"4","last_reported":1718996763,"current_range_meters":31200,"station_id":"ce4bgih2rcd13ifvqba0","pricing_plan_id":"cebpf4jnsgd1na2vs0mg"},{"bike_id":"b165aecb-eed3-4e54-8d7b-6c63c41a1dd9","system_id":"levelo_inurba_marseille","lat":43.290779,"lon":5.371482,"is_reserved":false,"is_disabled":false,"rental_uris":{"android":"levelo://app?vid=b165aecb-eed3-4e54-8d7b-6c63c41a1dd9","ios":"levelo://app?vid=b165aecb-eed3-4e54-8d7b-6c63c41a1dd9"},"vehicle_type_id":"4","last_reported":1718996763,"current_range_meters":0,"station_id":"ce4bh5p2rcd13ifvqe4g","pricing_plan_id":"cebpf4jnsgd1na2vs0mg"},{"bike_id":"90f6fa27-cc66-48b6-afb6-47920c6efc19","system_id":"levelo_inurba_marseille","lat":43.290779,"lon":5.371482,"is_reserved":false,"is_disabled":false,"rental_uris":{"android":"levelo://app?vid=90f6fa27-cc66-48b6-afb6-47920c6efc19","ios":"levelo://app?vid=90f6fa27-cc66-48b6-afb6-47920c6efc19"},"vehicle_type_id":"4","last_reported":1718996763,"current_range_meters":3200,"station_id":"ce4bh5p2rcd13ifvqe4g","pricing_plan_id":"cebpf4jnsgd1na2vs0mg"},{"bike_id":"a09d4367-7904-4885-b94e-175d9b091b4f","system_id":"levelo_inurba_marseille","lat":43.290779,"lon":5.371482,"is_reserved":false,"is_disabled":false,"rental_uris":{"android":"levelo://app?vid=a09d4367-7904-4885-b94e-175d9b091b4f","ios":"levelo://app?vid=a09d4367-7904-4885-b94e-175d9b091b4f"},"vehicle_type_id":"4","last_reported":1718996763,"current_range_meters":0,"station_id":"ce4bh5p2rcd13ifvqe4g","pricing_plan_id":"cebpf4jnsgd1na2vs0mg"},{"bike_id":"bec7feb8-a142-47d7-943e-f549e78c840f","system_id":"levelo_inurba_marseille","lat":43.29422,"lon":5.38612,"is_reserved":false,"is_disabled":false,"rental_uris":{"android":"levelo://app?vid=bec7feb8-a142-47d7-943e-f549e78c840f","ios":"levelo://app?vid=bec7feb8-a142-47d7-943e-f549e78c840f"},"vehicle_type_id":"4","last_reported":1718996763,"current_range_meters":1600,"station_id":"ce4bh2h2rcd13ifvqdh0","pricing_plan_id":"cebpf4jnsgd1na2vs0mg"},{"bike_id":"6f29f8d9-0d48-4f4a-a242-3e8cb0c5bd48","system_id":"levelo_inurba_marseille","lat":43.294162,"lon":5.386292,"is_reserved":false,"is_disabled":false,"rental_uris":{"android":"levelo://app?vid=6f29f8d9-0d48-4f4a-a242-3e8cb0c5bd48","ios":"levelo://app?vid=6f29f8d9-0d48-4f4a-a242-3e8cb0c5bd48"},"vehicle_type_id":"4","last_reported":1718996763,"current_range_meters":6000,"station_id":"ce4bh2h2rcd13ifvqdh0","pricing_plan_id":"cebpf4jnsgd1na2vs0mg"},{"bike_id":"480f6b23-42ff-4c1c-be0d-4454466b743a","system_id":"levelo_inurba_marseille","lat":43.29422,"lon":5.38617,"is_reserved":false,"is_disabled":false,"rental_uris":{"android":"levelo://app?vid=480f6b23-42ff-4c1c-be0d-4454466b743a","ios":"levelo://app?vid=480f6b23-42ff-4c1c-be0d-4454466b743a"},"vehicle_type_id":"4","last_reported":1718996763,"current_range_meters":3600,"station_id":"ce4bh2h2rcd13ifvqdh0","pricing_plan_id":"cebpf4jnsgd1na2vs0mg"},{"bike_id":"0034413c-fc3e-4e4b-9241-97db948ad16f","system_id":"levelo_inurba_marseille","lat":43.29422,"lon":5.38618,"is_reserved":false,"is_disabled":false,"rental_uris":{"android":"levelo://app?vid=0034413c-fc3e-4e4b-9241-97db948ad16f","ios":"levelo://app?vid=0034413c-fc3e-4e4b-9241-97db948ad16f"},"vehicle_type_id":"4","last_reported":1718996763,"current_range_meters":10800,"station_id":"ce4bh2h2rcd13ifvqdh0","pricing_plan_id":"cebpf4jnsgd1na2vs0mg"},{"bike_id":"952847a7-4492-4bc3-ae07-bb8ea42b91c2","system_id":"levelo_inurba_marseille","lat":43.29421,"lon":5.38617,"is_reserved":false,"is_disabled":false,"rental_uris":{"android":"levelo://app?vid=952847a7-4492-4bc3-ae07-bb8ea42b91c2","ios":"levelo://app?vid=952847a7-4492-4bc3-ae07-bb8ea42b91c2"},"vehicle_type_id":"4","last_reported":1718996763,"current_range_meters":29200,"station_id":"ce4bh2h2rcd13ifvqdh0","pricing_plan_id":"cebpf4jnsgd1na2vs0mg"},{"bike_id":"d1ddfe01-2e01-490b-8ed9-b0f718c1d39d","system_id":"levelo_inurba_marseille","lat":43.2942,"lon":5.38616,"is_reserved":false,"is_disabled":false,"rental_uris":{"android":"levelo://app?vid=d1ddfe01-2e01-490b-8ed9-b0f718c1d39d","ios":"levelo://app?vid=d1ddfe01-2e01-490b-8ed9-b0f718c1d39d"},"vehicle_type_id":"4","last_reported":1718996763,"current_range_meters":0,"station_id":"ce4bh2h2rcd13ifvqdh0","pricing_plan_id":"cebpf4jnsgd1na2vs0mg"},{"bike_id":"225ba511-6139-4fdc-8710-119cc897b5ef","system_id":"levelo_inurba_marseille","lat":43.294153,"lon":5.386305,"is_reserved":false,"is_disabled":false,"rental_uris":{"android":"levelo://app?vid=225ba511-6139-4fdc-8710-119cc897b5ef","ios":"levelo://app?vid=225ba511-6139-4fdc-8710-119cc897b5ef"},"vehicle_type_id":"4","last_reported":1718996763,"current_range_meters":31200,"station_id":"ce4bh2h2rcd13ifvqdh0","pricing_plan_id":"cebpf4jnsgd1na2vs0mg"},{"bike_id":"8c02c460-dc57-4fa4-8aaa-2c927bc436be","system_id":"levelo_inurba_marseille","lat":43.29419,"lon":5.38616,"is_reserved":false,"is_disabled":false,"rental_uris":{"android":"levelo://app?vid=8c02c460-dc57-4fa4-8aaa-2c927bc436be","ios":"levelo://app?vid=8c02c460-dc57-4fa4-8aaa-2c927bc436be"},"vehicle_type_id":"4","last_reported":1718996763,"current_range_meters":4400,"station_id":"ce4bh2h2rcd13ifvqdh0","pricing_plan_id":"cebpf4jnsgd1na2vs0mg"},{"bike_id":"f358d95d-c97e-46bc-8633-dc6a25235fe7","system_id":"levelo_inurba_marseille","lat":43.294153,"lon":5.386305,"is_reserved":false,"is_disabled":false,"rental_uris":{"android":"levelo://app?vid=f358d95d-c97e-46bc-8633-dc6a25235fe7","ios":"levelo://app?vid=f358d95d-c97e-46bc-8633-dc6a25235fe7"},"vehicle_type_id":"4","last_reported":1718996763,"current_range_meters":11200,"station_id":"ce4bh2h2rcd13ifvqdh0","pricing_plan_id":"cebpf4jnsgd1na2vs0mg"},{"bike_id":"8fef1a45-68b9-42e4-84a8-155b4045c9e7","system_id":"levelo_inurba_marseille","lat":43.290319,"lon":5.375732,"is_reserved":false,"is_disabled":false,"rental_uris":{"android":"levelo://app?vid=8fef1a45-68b9-42e4-84a8-155b4045c9e7","ios":"levelo://app?vid=8fef1a45-68b9-42e4-84a8-155b4045c9e7"},"vehicle_type_id":"4","last_reported":1718996763,"current_range_meters":0,"station_id":"ce4bh692rcd13ifvqe90","pricing_plan_id":"cebpf4jnsgd1na2vs0mg"},{"bike_id":"18d79ea3-4c96-4257-baa9-713c8ff4f3e7","system_id":"levelo_inurba_marseille","lat":43.294162,"lon":5.386292,"is_reserved":false,"is_disabled":false,"rental_uris":{"android":"levelo://app?vid=18d79ea3-4c96-4257-baa9-713c8ff4f3e7","ios":"levelo://app?vid=18d79ea3-4c96-4257-baa9-713c8ff4f3e7"},"vehicle_type_id":"4","last_reported":1718996763,"current_range_meters":10400,"station_id":"ce4bh2h2rcd13ifvqdh0","pricing_plan_id":"cebpf4jnsgd1na2vs0mg"},{"bike_id":"32b4c9fa-eeaf-423b-8045-2666c2976b80","system_id":"levelo_inurba_marseille","lat":43.294162,"lon":5.386292,"is_reserved":false,"is_disabled":false,"rental_uris":{"android":"levelo://app?vid=32b4c9fa-eeaf-423b-8045-2666c2976b80","ios":"levelo://app?vid=32b4c9fa-eeaf-423b-8045-2666c2976b80"},"vehicle_type_id":"4","last_reported":1718996763,"current_range_meters":0,"station_id":"ce4bh2h2rcd13ifvqdh0","pricing_plan_id":"cebpf4jnsgd1na2vs0mg"},{"bike_id":"d341a7c4-7ad9-4d36-ab5d-f359be40e236","system_id":"levelo_inurba_marseille","lat":43.294162,"lon":5.386292,"is_reserved":false,"is_disabled":false,"rental_uris":{"android":"levelo://app?vid=d341a7c4-7ad9-4d36-ab5d-f359be40e236","ios":"levelo://app?vid=d341a7c4-7ad9-4d36-ab5d-f359be40e236"},"vehicle_type_id":"4","last_reported":1718996763,"current_range_meters":2000,"station_id":"ce4bh2h2rcd13ifvqdh0","pricing_plan_id":"cebpf4jnsgd1na2vs0mg"},{"bike_id":"8181c522-c3b8-4deb-839a-9fb237493737","system_id":"levelo_inurba_marseille","lat":43.29417,"lon":5.38623,"is_reserved":false,"is_disabled":false,"rental_uris":{"android":"levelo://app?vid=8181c522-c3b8-4deb-839a-9fb237493737","ios":"levelo://app?vid=8181c522-c3b8-4deb-839a-9fb237493737"},"vehicle_type_id":"4","last_reported":1718996763,"current_range_meters":10400,"station_id":"ce4bh2h2rcd13ifvqdh0","pricing_plan_id":"cebpf4jnsgd1na2vs0mg"},{"bike_id":"a7e061e0-2419-494a-a435-dab9772ee7d0","system_id":"levelo_inurba_marseille","lat":43.294162,"lon":5.386292,"is_reserved":false,"is_disabled":false,"rental_uris":{"android":"levelo://app?vid=a7e061e0-2419-494a-a435-dab9772ee7d0","ios":"levelo://app?vid=a7e061e0-2419-494a-a435-dab9772ee7d0"},"vehicle_type_id":"4","last_reported":1718996763,"current_range_meters":7600,"station_id":"ce4bh2h2rcd13ifvqdh0","pricing_plan_id":"cebpf4jnsgd1na2vs0mg"},{"bike_id":"01f22998-1463-4aab-97ec-4df1e5920741","system_id":"levelo_inurba_marseille","lat":43.294162,"lon":5.386292,"is_reserved":false,"is_disabled":false,"rental_uris":{"android":"levelo://app?vid=01f22998-1463-4aab-97ec-4df1e5920741","ios":"levelo://app?vid=01f22998-1463-4aab-97ec-4df1e5920741"},"vehicle_type_id":"4","last_reported":1718996763,"current_range_meters":12800,"station_id":"ce4bh2h2rcd13ifvqdh0","pricing_plan_id":"cebpf4jnsgd1na2vs0mg"},{"bike_id":"81dddc43-1a1e-463e-b5e3-bdae30449428","system_id":"levelo_inurba_marseille","lat":43.294153,"lon":5.386305,"is_reserved":false,"is_disabled":false,"rental_uris":{"android":"levelo://app?vid=81dddc43-1a1e-463e-b5e3-bdae30449428","ios":"levelo://app?vid=81dddc43-1a1e-463e-b5e3-bdae30449428"},"vehicle_type_id":"4","last_reported":1718996763,"current_range_meters":8800,"station_id":"ce4bh2h2rcd13ifvqdh0","pricing_plan_id":"cebpf4jnsgd1na2vs0mg"},{"bike_id":"ac5616c3-3d0f-4618-a1cc-b4efbd8cc92e","system_id":"levelo_inurba_marseille","lat":43.29416,"lon":5.38624,"is_reserved":false,"is_disabled":false,"rental_uris":{"android":"levelo://app?vid=ac5616c3-3d0f-4618-a1cc-b4efbd8cc92e","ios":"levelo://app?vid=ac5616c3-3d0f-4618-a1cc-b4efbd8cc92e"},"vehicle_type_id":"4","last_reported":1718996763,"current_range_meters":0,"station_id":"ce4bh2h2rcd13ifvqdh0","pricing_plan_id":"cebpf4jnsgd1na2vs0mg"},{"bike_id":"6ce6c5e0-3166-4bf8-b903-08bdf649a722","system_id":"levelo_inurba_marseille","lat":43.29417,"lon":5.38626,"is_reserved":false,"is_disabled":false,"rental_uris":{"android":"levelo://app?vid=6ce6c5e0-3166-4bf8-b903-08bdf649a722","ios":"levelo://app?vid=6ce6c5e0-3166-4bf8-b903-08bdf649a722"},"vehicle_type_id":"4","last_reported":1718996763,"current_range_meters":31200,"station_id":"ce4bh2h2rcd13ifvqdh0","pricing_plan_id":"cebpf4jnsgd1na2vs0mg"},{"bike_id":"85af2f30-cc01-4700-a10a-3b6dd77d6a5d","system_id":"levelo_inurba_marseille","lat":43.29419,"lon":5.3863,"is_reserved":false,"is_disabled":false,"rental_uris":{"android":"levelo://app?vid=85af2f30-cc01-4700-a10a-3b6dd77d6a5d","ios":"levelo://app?vid=85af2f30-cc01-4700-a10a-3b6dd77d6a5d"},"vehicle_type_id":"4","last_reported":1718996763,"current_range_meters":4800,"station_id":"ce4bh2h2rcd13ifvqdh0","pricing_plan_id":"cebpf4jnsgd1na2vs0mg"},{"bike_id":"c0e72eb5-220d-47bf-8f31-e0ca8fde9184","system_id":"levelo_inurba_marseille","lat":43.294162,"lon":5.386292,"is_reserved":false,"is_disabled":false,"rental_uris":{"android":"levelo://app?vid=c0e72eb5-220d-47bf-8f31-e0ca8fde9184","ios":"levelo://app?vid=c0e72eb5-220d-47bf-8f31-e0ca8fde9184"},"vehicle_type_id":"4","last_reported":1718996763,"current_range_meters":26800,"station_id":"ce4bh2h2rcd13ifvqdh0","pricing_plan_id":"cebpf4jnsgd1na2vs0mg"},{"bike_id":"5746a5fb-a385-4ee3-974e-20726c57606d","system_id":"levelo_inurba_marseille","lat":43.29417,"lon":5.38627,"is_reserved":false,"is_disabled":false,"rental_uris":{"android":"levelo://app?vid=5746a5fb-a385-4ee3-974e-20726c57606d","ios":"levelo://app?vid=5746a5fb-a385-4ee3-974e-20726c57606d"},"vehicle_type_id":"4","last_reported":1718996763,"current_range_meters":2400,"station_id":"ce4bh2h2rcd13ifvqdh0","pricing_plan_id":"cebpf4jnsgd1na2vs0mg"},{"bike_id":"2df616d2-a6d3-40bb-90a6-a9c63d2b51a3","system_id":"levelo_inurba_marseille","lat":43.29415,"lon":5.38624,"is_reserved":false,"is_disabled":false,"rental_uris":{"android":"levelo://app?vid=2df616d2-a6d3-40bb-90a6-a9c63d2b51a3","ios":"levelo://app?vid=2df616d2-a6d3-40bb-90a6-a9c63d2b51a3"},"vehicle_type_id":"4","last_reported":1718996763,"current_range_meters":31600,"station_id":"ce4bh2h2rcd13ifvqdh0","pricing_plan_id":"cebpf4jnsgd1na2vs0mg"},{"bike_id":"d361ac5a-c60b-4477-a3d8-8e2b26578312","system_id":"levelo_inurba_marseille","lat":43.29414,"lon":5.38623,"is_reserved":false,"is_disabled":false,"rental_uris":{"android":"levelo://app?vid=d361ac5a-c60b-4477-a3d8-8e2b26578312","ios":"levelo://app?vid=d361ac5a-c60b-4477-a3d8-8e2b26578312"},"vehicle_type_id":"4","last_reported":1718996763,"current_range_meters":26000,"station_id":"ce4bh2h2rcd13ifvqdh0","pricing_plan_id":"cebpf4jnsgd1na2vs0mg"},{"bike_id":"19c465ee-c9d9-4434-aa64-2277aa38571b","system_id":"levelo_inurba_marseille","lat":43.29416,"lon":5.38631,"is_reserved":false,"is_disabled":false,"rental_uris":{"android":"levelo://app?vid=19c465ee-c9d9-4434-aa64-2277aa38571b","ios":"levelo://app?vid=19c465ee-c9d9-4434-aa64-2277aa38571b"},"vehicle_type_id":"4","last_reported":1718996763,"current_range_meters":20400,"station_id":"ce4bh2h2rcd13ifvqdh0","pricing_plan_id":"cebpf4jnsgd1na2vs0mg"},{"bike_id":"b8cee238-c540-4936-b8af-4a21d2186181","system_id":"levelo_inurba_marseille","lat":43.289184,"lon":5.366408,"is_reserved":false,"is_disabled":false,"rental_uris":{"android":"levelo://app?vid=b8cee238-c540-4936-b8af-4a21d2186181","ios":"levelo://app?vid=b8cee238-c540-4936-b8af-4a21d2186181"},"vehicle_type_id":"4","last_reported":1718996763,"current_range_meters":0,"station_id":"ce4bhap2rcd13ifvqek0","pricing_plan_id":"cebpf4jnsgd1na2vs0mg"},{"bike_id":"1c048c9f-9eb0-42c2-a5ac-bde34891858b","system_id":"levelo_inurba_marseille","lat":43.29413,"lon":5.38627,"is_reserved":false,"is_disabled":false,"rental_uris":{"android":"levelo://app?vid=1c048c9f-9eb0-42c2-a5ac-bde34891858b","ios":"levelo://app?vid=1c048c9f-9eb0-42c2-a5ac-bde34891858b"},"vehicle_type_id":"4","last_reported":1718996763,"current_range_meters":31200,"station_id":"ce4bh2h2rcd13ifvqdh0","pricing_plan_id":"cebpf4jnsgd1na2vs0mg"},{"bike_id":"0982539d-df91-4aff-bada-32a5e77e6624","system_id":"levelo_inurba_marseille","lat":43.2894,"lon":5.36632,"is_reserved":false,"is_disabled":false,"rental_uris":{"android":"levelo://app?vid=0982539d-df91-4aff-bada-32a5e77e6624","ios":"levelo://app?vid=0982539d-df91-4aff-bada-32a5e77e6624"},"vehicle_type_id":"4","last_reported":1718996763,"current_range_meters":11200,"station_id":"ce4bhap2rcd13ifvqek0","pricing_plan_id":"cebpf4jnsgd1na2vs0mg"},{"bike_id":"db82de54-d3dd-4dde-96fa-42d110f1b840","system_id":"levelo_inurba_marseille","lat":43.289184,"lon":5.366408,"is_reserved":false,"is_disabled":false,"rental_uris":{"android":"levelo://app?vid=db82de54-d3dd-4dde-96fa-42d110f1b840","ios":"levelo://app?vid=db82de54-d3dd-4dde-96fa-42d110f1b840"},"vehicle_type_id":"4","last_reported":1718996763,"current_range_meters":27600,"station_id":"ce4bhap2rcd13ifvqek0","pricing_plan_id":"cebpf4jnsgd1na2vs0mg"},{"bike_id":"2efc579f-02f3-4f85-ad84-a1e15960f7f7","system_id":"levelo_inurba_marseille","lat":43.289184,"lon":5.366408,"is_reserved":false,"is_disabled":false,"rental_uris":{"android":"levelo://app?vid=2efc579f-02f3-4f85-ad84-a1e15960f7f7","ios":"levelo://app?vid=2efc579f-02f3-4f85-ad84-a1e15960f7f7"},"vehicle_type_id":"4","last_reported":1718996763,"current_range_meters":24000,"station_id":"ce4bhap2rcd13ifvqek0","pricing_plan_id":"cebpf4jnsgd1na2vs0mg"},{"bike_id":"c83a2627-fa02-44fd-8fa2-e4c062ff2cbe","system_id":"levelo_inurba_marseille","lat":43.29263,"lon":5.38428,"is_reserved":false,"is_disabled":false,"rental_uris":{"android":"levelo://app?vid=c83a2627-fa02-44fd-8fa2-e4c062ff2cbe","ios":"levelo://app?vid=c83a2627-fa02-44fd-8fa2-e4c062ff2cbe"},"vehicle_type_id":"4","last_reported":1718996763,"current_range_meters":7200,"station_id":"ce4bh692rcd13ifvqea0","pricing_plan_id":"cebpf4jnsgd1na2vs0mg"},{"bike_id":"aa3edfd2-e8ab-4fe8-9709-4be997737a25","system_id":"levelo_inurba_marseille","lat":43.292687,"lon":5.384427,"is_reserved":false,"is_disabled":false,"rental_uris":{"android":"levelo://app?vid=aa3edfd2-e8ab-4fe8-9709-4be997737a25","ios":"levelo://app?vid=aa3edfd2-e8ab-4fe8-9709-4be997737a25"},"vehicle_type_id":"4","last_reported":1718996763,"current_range_meters":17200,"station_id":"ce4bh692rcd13ifvqea0","pricing_plan_id":"cebpf4jnsgd1na2vs0mg"},{"bike_id":"dbec2fb8-35b2-44db-857d-c9888742a9bc","system_id":"levelo_inurba_marseille","lat":43.29271,"lon":5.38449,"is_reserved":false,"is_disabled":false,"rental_uris":{"android":"levelo://app?vid=dbec2fb8-35b2-44db-857d-c9888742a9bc","ios":"levelo://app?vid=dbec2fb8-35b2-44db-857d-c9888742a9bc"},"vehicle_type_id":"4","last_reported":1718996763,"current_range_meters":2400,"station_id":"ce4bh692rcd13ifvqea0","pricing_plan_id":"cebpf4jnsgd1na2vs0mg"},{"bike_id":"9a0e23b8-8e85-4409-be31-34497de02484","system_id":"levelo_inurba_marseille","lat":43.292642,"lon":5.384254,"is_reserved":false,"is_disabled":false,"rental_uris":{"android":"levelo://app?vid=9a0e23b8-8e85-4409-be31-34497de02484","ios":"levelo://app?vid=9a0e23b8-8e85-4409-be31-34497de02484"},"vehicle_type_id":"4","last_reported":1718996763,"current_range_meters":12800,"station_id":"ce4bh692rcd13ifvqea0","pricing_plan_id":"cebpf4jnsgd1na2vs0mg"},{"bike_id":"489511f9-1712-4957-b959-96a7ad7e5f95","system_id":"levelo_inurba_marseille","lat":43.292644,"lon":5.384257,"is_reserved":false,"is_disabled":false,"rental_uris":{"android":"levelo://app?vid=489511f9-1712-4957-b959-96a7ad7e5f95","ios":"levelo://app?vid=489511f9-1712-4957-b959-96a7ad7e5f95"},"vehicle_type_id":"4","last_reported":1718996763,"current_range_meters":5200,"station_id":"ce4bh692rcd13ifvqea0","pricing_plan_id":"cebpf4jnsgd1na2vs0mg"},{"bike_id":"d29d07fe-f8ca-4047-a708-00e7d58b6829","system_id":"levelo_inurba_marseille","lat":43.30422,"lon":5.39743,"is_reserved":false,"is_disabled":false,"rental_uris":{"android":"levelo://app?vid=d29d07fe-f8ca-4047-a708-00e7d58b6829","ios":"levelo://app?vid=d29d07fe-f8ca-4047-a708-00e7d58b6829"},"vehicle_type_id":"4","last_reported":1718996763,"current_range_meters":0,"station_id":"ce4bh092rcd13ifvqd20","pricing_plan_id":"cebpf4jnsgd1na2vs0mg"},{"bike_id":"786beef9-b881-4745-911b-288fd02c8b58","system_id":"levelo_inurba_marseille","lat":43.292644,"lon":5.384257,"is_reserved":false,"is_disabled":false,"rental_uris":{"android":"levelo://app?vid=786beef9-b881-4745-911b-288fd02c8b58","ios":"levelo://app?vid=786beef9-b881-4745-911b-288fd02c8b58"},"vehicle_type_id":"4","last_reported":1718996763,"current_range_meters":4400,"station_id":"ce4bh692rcd13ifvqea0","pricing_plan_id":"cebpf4jnsgd1na2vs0mg"},{"bike_id":"6a2e00b6-7eb1-4bc3-8c1b-10405b4b69eb","system_id":"levelo_inurba_marseille","lat":43.29264,"lon":5.3844,"is_reserved":false,"is_disabled":false,"rental_uris":{"android":"levelo://app?vid=6a2e00b6-7eb1-4bc3-8c1b-10405b4b69eb","ios":"levelo://app?vid=6a2e00b6-7eb1-4bc3-8c1b-10405b4b69eb"},"vehicle_type_id":"4","last_reported":1718996763,"current_range_meters":4400,"station_id":"ce4bh692rcd13ifvqea0","pricing_plan_id":"cebpf4jnsgd1na2vs0mg"},{"bike_id":"8e1c71a5-7509-4936-a325-9b3fbc8a9efc","system_id":"levelo_inurba_marseille","lat":43.292642,"lon":5.384254,"is_reserved":false,"is_disabled":false,"rental_uris":{"android":"levelo://app?vid=8e1c71a5-7509-4936-a325-9b3fbc8a9efc","ios":"levelo://app?vid=8e1c71a5-7509-4936-a325-9b3fbc8a9efc"},"vehicle_type_id":"4","last_reported":1718996763,"current_range_meters":7200,"station_id":"ce4bh692rcd13ifvqea0","pricing_plan_id":"cebpf4jnsgd1na2vs0mg"},{"bike_id":"844ec1d8-d39f-47ae-b7d8-35e739596a4f","system_id":"levelo_inurba_marseille","lat":43.292644,"lon":5.384257,"is_reserved":false,"is_disabled":false,"rental_uris":{"android":"levelo://app?vid=844ec1d8-d39f-47ae-b7d8-35e739596a4f","ios":"levelo://app?vid=844ec1d8-d39f-47ae-b7d8-35e739596a4f"},"vehicle_type_id":"4","last_reported":1718996763,"current_range_meters":20400,"station_id":"ce4bh692rcd13ifvqea0","pricing_plan_id":"cebpf4jnsgd1na2vs0mg"},{"bike_id":"501a18ba-a76e-4c44-83db-8e196aac9f0b","system_id":"levelo_inurba_marseille","lat":43.29262,"lon":5.3844,"is_reserved":false,"is_disabled":false,"rental_uris":{"android":"levelo://app?vid=501a18ba-a76e-4c44-83db-8e196aac9f0b","ios":"levelo://app?vid=501a18ba-a76e-4c44-83db-8e196aac9f0b"},"vehicle_type_id":"4","last_reported":1718996763,"current_range_meters":14000,"station_id":"ce4bh692rcd13ifvqea0","pricing_plan_id":"cebpf4jnsgd1na2vs0mg"},{"bike_id":"8bc37c7f-bf30-4ef6-b575-11903fbc5739","system_id":"levelo_inurba_marseille","lat":43.29261,"lon":5.38438,"is_reserved":false,"is_disabled":false,"rental_uris":{"android":"levelo://app?vid=8bc37c7f-bf30-4ef6-b575-11903fbc5739","ios":"levelo://app?vid=8bc37c7f-bf30-4ef6-b575-11903fbc5739"},"vehicle_type_id":"4","last_reported":1718996763,"current_range_meters":10800,"station_id":"ce4bh692rcd13ifvqea0","pricing_plan_id":"cebpf4jnsgd1na2vs0mg"},{"bike_id":"238ee276-67cb-4315-be73-d3b8ec5e7c80","system_id":"levelo_inurba_marseille","lat":43.29263,"lon":5.38443,"is_reserved":false,"is_disabled":false,"rental_uris":{"android":"levelo://app?vid=238ee276-67cb-4315-be73-d3b8ec5e7c80","ios":"levelo://app?vid=238ee276-67cb-4315-be73-d3b8ec5e7c80"},"vehicle_type_id":"4","last_reported":1718996763,"current_range_meters":0,"station_id":"ce4bh692rcd13ifvqea0","pricing_plan_id":"cebpf4jnsgd1na2vs0mg"},{"bike_id":"3406ab01-04b2-447f-ac6d-4745c74ce1d8","system_id":"levelo_inurba_marseille","lat":43.29265,"lon":5.38448,"is_reserved":false,"is_disabled":false,"rental_uris":{"android":"levelo://app?vid=3406ab01-04b2-447f-ac6d-4745c74ce1d8","ios":"levelo://app?vid=3406ab01-04b2-447f-ac6d-4745c74ce1d8"},"vehicle_type_id":"4","last_reported":1718996763,"current_range_meters":6400,"station_id":"ce4bh692rcd13ifvqea0","pricing_plan_id":"cebpf4jnsgd1na2vs0mg"},{"bike_id":"d9bfd3e4-7708-43ba-9b7b-69fc5379b291","system_id":"levelo_inurba_marseille","lat":43.292642,"lon":5.384254,"is_reserved":false,"is_disabled":false,"rental_uris":{"android":"levelo://app?vid=d9bfd3e4-7708-43ba-9b7b-69fc5379b291","ios":"levelo://app?vid=d9bfd3e4-7708-43ba-9b7b-69fc5379b291"},"vehicle_type_id":"4","last_reported":1718996763,"current_range_meters":16800,"station_id":"ce4bh692rcd13ifvqea0","pricing_plan_id":"cebpf4jnsgd1na2vs0mg"},{"bike_id":"b9fff1e0-04ce-493e-b698-384bec72b204","system_id":"levelo_inurba_marseille","lat":43.292642,"lon":5.384254,"is_reserved":false,"is_disabled":false,"rental_uris":{"android":"levelo://app?vid=b9fff1e0-04ce-493e-b698-384bec72b204","ios":"levelo://app?vid=b9fff1e0-04ce-493e-b698-384bec72b204"},"vehicle_type_id":"4","last_reported":1718996763,"current_range_meters":18400,"station_id":"ce4bh692rcd13ifvqea0","pricing_plan_id":"cebpf4jnsgd1na2vs0mg"},{"bike_id":"66142ebd-8997-4faf-835f-5a06e60f6fcc","system_id":"levelo_inurba_marseille","lat":43.29262,"lon":5.38445,"is_reserved":false,"is_disabled":false,"rental_uris":{"android":"levelo://app?vid=66142ebd-8997-4faf-835f-5a06e60f6fcc","ios":"levelo://app?vid=66142ebd-8997-4faf-835f-5a06e60f6fcc"},"vehicle_type_id":"4","last_reported":1718996763,"current_range_meters":0,"station_id":"ce4bh692rcd13ifvqea0","pricing_plan_id":"cebpf4jnsgd1na2vs0mg"},{"bike_id":"0ae7750b-8c9a-44fb-a037-1c457438f7a7","system_id":"levelo_inurba_marseille","lat":43.292644,"lon":5.384257,"is_reserved":false,"is_disabled":false,"rental_uris":{"android":"levelo://app?vid=0ae7750b-8c9a-44fb-a037-1c457438f7a7","ios":"levelo://app?vid=0ae7750b-8c9a-44fb-a037-1c457438f7a7"},"vehicle_type_id":"4","last_reported":1718996763,"current_range_meters":3200,"station_id":"ce4bh692rcd13ifvqea0","pricing_plan_id":"cebpf4jnsgd1na2vs0mg"},{"bike_id":"3f4dba2a-9019-4574-a042-54fb9131eef9","system_id":"levelo_inurba_marseille","lat":43.289468,"lon":5.363719,"is_reserved":false,"is_disabled":false,"rental_uris":{"android":"levelo://app?vid=3f4dba2a-9019-4574-a042-54fb9131eef9","ios":"levelo://app?vid=3f4dba2a-9019-4574-a042-54fb9131eef9"},"vehicle_type_id":"4","last_reported":1718996763,"current_range_meters":5200,"station_id":"ce4bhc92rcd13ifvqetg","pricing_plan_id":"cebpf4jnsgd1na2vs0mg"},{"bike_id":"56bb1cbb-7d84-455d-928f-5e4942955ed2","system_id":"levelo_inurba_marseille","lat":43.290103,"lon":5.356114,"is_reserved":false,"is_disabled":false,"rental_uris":{"android":"levelo://app?vid=56bb1cbb-7d84-455d-928f-5e4942955ed2","ios":"levelo://app?vid=56bb1cbb-7d84-455d-928f-5e4942955ed2"},"vehicle_type_id":"4","last_reported":1718996763,"current_range_meters":6000,"station_id":"ce4bhb92rcd13ifvqen0","pricing_plan_id":"cebpf4jnsgd1na2vs0mg"},{"bike_id":"26dcbc16-3fdb-4f53-942e-df6bca825920","system_id":"levelo_inurba_marseille","lat":43.29008,"lon":5.35605,"is_reserved":false,"is_disabled":false,"rental_uris":{"android":"levelo://app?vid=26dcbc16-3fdb-4f53-942e-df6bca825920","ios":"levelo://app?vid=26dcbc16-3fdb-4f53-942e-df6bca825920"},"vehicle_type_id":"4","last_reported":1718996763,"current_range_meters":2400,"station_id":"ce4bhb92rcd13ifvqen0","pricing_plan_id":"cebpf4jnsgd1na2vs0mg"},{"bike_id":"a8b01aeb-cc98-4fd5-b603-5195e11aabec","system_id":"levelo_inurba_marseille","lat":43.290103,"lon":5.356114,"is_reserved":false,"is_disabled":false,"rental_uris":{"android":"levelo://app?vid=a8b01aeb-cc98-4fd5-b603-5195e11aabec","ios":"levelo://app?vid=a8b01aeb-cc98-4fd5-b603-5195e11aabec"},"vehicle_type_id":"4","last_reported":1718996763,"current_range_meters":0,"station_id":"ce4bhb92rcd13ifvqen0","pricing_plan_id":"cebpf4jnsgd1na2vs0mg"},{"bike_id":"b3baaa3a-c0f9-4f1b-b0d7-f2b8a39edafb","system_id":"levelo_inurba_marseille","lat":43.290995,"lon":5.381361,"is_reserved":false,"is_disabled":false,"rental_uris":{"android":"levelo://app?vid=b3baaa3a-c0f9-4f1b-b0d7-f2b8a39edafb","ios":"levelo://app?vid=b3baaa3a-c0f9-4f1b-b0d7-f2b8a39edafb"},"vehicle_type_id":"4","last_reported":1718996763,"current_range_meters":800,"station_id":"ce4bh512rcd13ifvqe2g","pricing_plan_id":"cebpf4jnsgd1na2vs0mg"},{"bike_id":"c4801e0c-56f0-48ad-9774-423b3b1828ed","system_id":"levelo_inurba_marseille","lat":43.289307,"lon":5.38406,"is_reserved":false,"is_disabled":false,"rental_uris":{"android":"levelo://app?vid=c4801e0c-56f0-48ad-9774-423b3b1828ed","ios":"levelo://app?vid=c4801e0c-56f0-48ad-9774-423b3b1828ed"},"vehicle_type_id":"4","last_reported":1718996763,"current_range_meters":0,"station_id":"ce4bh612rcd13ifvqe6g","pricing_plan_id":"cebpf4jnsgd1na2vs0mg"},{"bike_id":"d5712ac3-8b93-47d4-9f9c-f031190ae1ed","system_id":"levelo_inurba_marseille","lat":43.29098,"lon":5.38127,"is_reserved":false,"is_disabled":false,"rental_uris":{"android":"levelo://app?vid=d5712ac3-8b93-47d4-9f9c-f031190ae1ed","ios":"levelo://app?vid=d5712ac3-8b93-47d4-9f9c-f031190ae1ed"},"vehicle_type_id":"4","last_reported":1718996763,"current_range_meters":0,"station_id":"ce4bh512rcd13ifvqe2g","pricing_plan_id":"cebpf4jnsgd1na2vs0mg"},{"bike_id":"4f70b162-1264-4526-9829-b5b68ed037a1","system_id":"levelo_inurba_marseille","lat":43.290995,"lon":5.381361,"is_reserved":false,"is_disabled":false,"rental_uris":{"android":"levelo://app?vid=4f70b162-1264-4526-9829-b5b68ed037a1","ios":"levelo://app?vid=4f70b162-1264-4526-9829-b5b68ed037a1"},"vehicle_type_id":"4","last_reported":1718996763,"current_range_meters":30800,"station_id":"ce4bh512rcd13ifvqe2g","pricing_plan_id":"cebpf4jnsgd1na2vs0mg"},{"bike_id":"2994925c-5248-4637-a008-0ff0ca958593","system_id":"levelo_inurba_marseille","lat":43.29797,"lon":5.39348,"is_reserved":false,"is_disabled":false,"rental_uris":{"android":"levelo://app?vid=2994925c-5248-4637-a008-0ff0ca958593","ios":"levelo://app?vid=2994925c-5248-4637-a008-0ff0ca958593"},"vehicle_type_id":"4","last_reported":1718996763,"current_range_meters":0,"station_id":"chh1huq6cuj3fo74tm60","pricing_plan_id":"cebpf4jnsgd1na2vs0mg"},{"bike_id":"09981a3e-6ada-4b39-b3a2-859e69a44f65","system_id":"levelo_inurba_marseille","lat":43.28981,"lon":5.37822,"is_reserved":false,"is_disabled":false,"rental_uris":{"android":"levelo://app?vid=09981a3e-6ada-4b39-b3a2-859e69a44f65","ios":"levelo://app?vid=09981a3e-6ada-4b39-b3a2-859e69a44f65"},"vehicle_type_id":"4","last_reported":1718996763,"current_range_meters":23600,"station_id":"ce4bh9p2rcd13ifvqed0","pricing_plan_id":"cebpf4jnsgd1na2vs0mg"},{"bike_id":"5ec3c6c6-6138-441b-a8e7-9a2c83fd9eef","system_id":"levelo_inurba_marseille","lat":43.295173,"lon":5.39036,"is_reserved":false,"is_disabled":false,"rental_uris":{"android":"levelo://app?vid=5ec3c6c6-6138-441b-a8e7-9a2c83fd9eef","ios":"levelo://app?vid=5ec3c6c6-6138-441b-a8e7-9a2c83fd9eef"},"vehicle_type_id":"4","last_reported":1718996763,"current_range_meters":0,"station_id":"ce4bh3p2rcd13ifvqdp0","pricing_plan_id":"cebpf4jnsgd1na2vs0mg"},{"bike_id":"cd93b60b-81fa-48ec-a4f0-6c204c83542a","system_id":"levelo_inurba_marseille","lat":43.33025,"lon":5.39046,"is_reserved":false,"is_disabled":false,"rental_uris":{"android":"levelo://app?vid=cd93b60b-81fa-48ec-a4f0-6c204c83542a","ios":"levelo://app?vid=cd93b60b-81fa-48ec-a4f0-6c204c83542a"},"vehicle_type_id":"4","last_reported":1718996763,"current_range_meters":0,"station_id":"ce4bhr92rcd13ifvqhrg","pricing_plan_id":"cebpf4jnsgd1na2vs0mg"},{"bike_id":"701efbd8-ae39-4d28-b36e-c3ad8ced34db","system_id":"levelo_inurba_marseille","lat":43.295169,"lon":5.390426,"is_reserved":false,"is_disabled":false,"rental_uris":{"android":"levelo://app?vid=701efbd8-ae39-4d28-b36e-c3ad8ced34db","ios":"levelo://app?vid=701efbd8-ae39-4d28-b36e-c3ad8ced34db"},"vehicle_type_id":"4","last_reported":1718996763,"current_range_meters":28400,"station_id":"ce4bh3p2rcd13ifvqdp0","pricing_plan_id":"cebpf4jnsgd1na2vs0mg"},{"bike_id":"89be1fdc-b4dd-4929-bb67-87243a1c0241","system_id":"levelo_inurba_marseille","lat":43.310603,"lon":5.400887,"is_reserved":false,"is_disabled":false,"rental_uris":{"android":"levelo://app?vid=89be1fdc-b4dd-4929-bb67-87243a1c0241","ios":"levelo://app?vid=89be1fdc-b4dd-4929-bb67-87243a1c0241"},"vehicle_type_id":"4","last_reported":1718996763,"current_range_meters":0,"station_id":"","pricing_plan_id":"cebpf4jnsgd1na2vs0mg"},{"bike_id":"05092e03-5cef-41c3-9575-df5db7507ebd","system_id":"levelo_inurba_marseille","lat":43.33739,"lon":5.37464,"is_reserved":false,"is_disabled":false,"rental_uris":{"android":"levelo://app?vid=05092e03-5cef-41c3-9575-df5db7507ebd","ios":"levelo://app?vid=05092e03-5cef-41c3-9575-df5db7507ebd"},"vehicle_type_id":"4","last_reported":1718996763,"current_range_meters":22400,"station_id":"","pricing_plan_id":"cebpf4jnsgd1na2vs0mg"},{"bike_id":"ee69e007-b6fd-4371-943b-05d7cc240fe9","system_id":"levelo_inurba_marseille","lat":43.312609,"lon":5.401662,"is_reserved":false,"is_disabled":false,"rental_uris":{"android":"levelo://app?vid=ee69e007-b6fd-4371-943b-05d7cc240fe9","ios":"levelo://app?vid=ee69e007-b6fd-4371-943b-05d7cc240fe9"},"vehicle_type_id":"4","last_reported":1718996763,"current_range_meters":1600,"station_id":"ce4bh092rcd13ifvqd30","pricing_plan_id":"cebpf4jnsgd1na2vs0mg"},{"bike_id":"d689a06a-4369-4cef-9754-43dddd10e797","system_id":"levelo_inurba_marseille","lat":43.312609,"lon":5.401662,"is_reserved":false,"is_disabled":false,"rental_uris":{"android":"levelo://app?vid=d689a06a-4369-4cef-9754-43dddd10e797","ios":"levelo://app?vid=d689a06a-4369-4cef-9754-43dddd10e797"},"vehicle_type_id":"4","last_reported":1718996763,"current_range_meters":0,"station_id":"ce4bh092rcd13ifvqd30","pricing_plan_id":"cebpf4jnsgd1na2vs0mg"},{"bike_id":"db534928-e6a2-47cc-a852-558fe66ed50c","system_id":"levelo_inurba_marseille","lat":43.337439,"lon":5.374671,"is_reserved":false,"is_disabled":false,"rental_uris":{"android":"levelo://app?vid=db534928-e6a2-47cc-a852-558fe66ed50c","ios":"levelo://app?vid=db534928-e6a2-47cc-a852-558fe66ed50c"},"vehicle_type_id":"4","last_reported":1718996763,"current_range_meters":22000,"station_id":"","pricing_plan_id":"cebpf4jnsgd1na2vs0mg"},{"bike_id":"a00c218c-138a-4388-aca4-2952a6961815","system_id":"levelo_inurba_marseille","lat":43.337473,"lon":5.374885,"is_reserved":false,"is_disabled":false,"rental_uris":{"android":"levelo://app?vid=a00c218c-138a-4388-aca4-2952a6961815","ios":"levelo://app?vid=a00c218c-138a-4388-aca4-2952a6961815"},"vehicle_type_id":"4","last_reported":1718996763,"current_range_meters":30400,"station_id":"","pricing_plan_id":"cebpf4jnsgd1na2vs0mg"},{"bike_id":"0e11bbab-a5d9-4098-a6f1-624d89f27c59","system_id":"levelo_inurba_marseille","lat":43.337572,"lon":5.374546,"is_reserved":false,"is_disabled":false,"rental_uris":{"android":"levelo://app?vid=0e11bbab-a5d9-4098-a6f1-624d89f27c59","ios":"levelo://app?vid=0e11bbab-a5d9-4098-a6f1-624d89f27c59"},"vehicle_type_id":"4","last_reported":1718996763,"current_range_meters":27200,"station_id":"","pricing_plan_id":"cebpf4jnsgd1na2vs0mg"},{"bike_id":"c9b66a2b-0639-4d7a-b560-2bf673d8bd00","system_id":"levelo_inurba_marseille","lat":43.33033,"lon":5.39233,"is_reserved":false,"is_disabled":false,"rental_uris":{"android":"levelo://app?vid=c9b66a2b-0639-4d7a-b560-2bf673d8bd00","ios":"levelo://app?vid=c9b66a2b-0639-4d7a-b560-2bf673d8bd00"},"vehicle_type_id":"4","last_reported":1718996763,"current_range_meters":0,"station_id":"","pricing_plan_id":"cebpf4jnsgd1na2vs0mg"},{"bike_id":"e7be790b-07e4-40f3-b60f-da683b157943","system_id":"levelo_inurba_marseille","lat":43.33033,"lon":5.39238,"is_reserved":false,"is_disabled":false,"rental_uris":{"android":"levelo://app?vid=e7be790b-07e4-40f3-b60f-da683b157943","ios":"levelo://app?vid=e7be790b-07e4-40f3-b60f-da683b157943"},"vehicle_type_id":"4","last_reported":1718996763,"current_range_meters":22000,"station_id":"","pricing_plan_id":"cebpf4jnsgd1na2vs0mg"},{"bike_id":"6e445f2c-ca64-4b5f-91f7-41d553691ea5","system_id":"levelo_inurba_marseille","lat":43.33771,"lon":5.37435,"is_reserved":false,"is_disabled":false,"rental_uris":{"android":"levelo://app?vid=6e445f2c-ca64-4b5f-91f7-41d553691ea5","ios":"levelo://app?vid=6e445f2c-ca64-4b5f-91f7-41d553691ea5"},"vehicle_type_id":"4","last_reported":1718996763,"current_range_meters":30400,"station_id":"","pricing_plan_id":"cebpf4jnsgd1na2vs0mg"},{"bike_id":"a77bf3f1-dc55-4e35-8fe0-6292cee970ef","system_id":"levelo_inurba_marseille","lat":43.33035,"lon":5.39239,"is_reserved":false,"is_disabled":false,"rental_uris":{"android":"levelo://app?vid=a77bf3f1-dc55-4e35-8fe0-6292cee970ef","ios":"levelo://app?vid=a77bf3f1-dc55-4e35-8fe0-6292cee970ef"},"vehicle_type_id":"4","last_reported":1718996763,"current_range_meters":24400,"station_id":"","pricing_plan_id":"cebpf4jnsgd1na2vs0mg"},{"bike_id":"457259f4-2778-42f8-8372-c6c895d3a51d","system_id":"levelo_inurba_marseille","lat":43.33036,"lon":5.392397,"is_reserved":false,"is_disabled":false,"rental_uris":{"android":"levelo://app?vid=457259f4-2778-42f8-8372-c6c895d3a51d","ios":"levelo://app?vid=457259f4-2778-42f8-8372-c6c895d3a51d"},"vehicle_type_id":"4","last_reported":1718996763,"current_range_meters":12800,"station_id":"","pricing_plan_id":"cebpf4jnsgd1na2vs0mg"},{"bike_id":"2543dd63-b151-4c36-b360-cfe6247ae3b3","system_id":"levelo_inurba_marseille","lat":43.28854,"lon":5.378795,"is_reserved":false,"is_disabled":false,"rental_uris":{"android":"levelo://app?vid=2543dd63-b151-4c36-b360-cfe6247ae3b3","ios":"levelo://app?vid=2543dd63-b151-4c36-b360-cfe6247ae3b3"},"vehicle_type_id":"4","last_reported":1718996763,"current_range_meters":0,"station_id":"","pricing_plan_id":"cebpf4jnsgd1na2vs0mg"},{"bike_id":"1529575d-3c24-4053-9dc4-3fc753c20a3e","system_id":"levelo_inurba_marseille","lat":43.3304,"lon":5.39281,"is_reserved":false,"is_disabled":false,"rental_uris":{"android":"levelo://app?vid=1529575d-3c24-4053-9dc4-3fc753c20a3e","ios":"levelo://app?vid=1529575d-3c24-4053-9dc4-3fc753c20a3e"},"vehicle_type_id":"4","last_reported":1718996763,"current_range_meters":4800,"station_id":"","pricing_plan_id":"cebpf4jnsgd1na2vs0mg"},{"bike_id":"bc956cb7-a470-4b84-9039-0022e6c8e1fc","system_id":"levelo_inurba_marseille","lat":43.286961,"lon":5.373785,"is_reserved":false,"is_disabled":false,"rental_uris":{"android":"levelo://app?vid=bc956cb7-a470-4b84-9039-0022e6c8e1fc","ios":"levelo://app?vid=bc956cb7-a470-4b84-9039-0022e6c8e1fc"},"vehicle_type_id":"4","last_reported":1718996763,"current_range_meters":17600,"station_id":"ce4bh3p2rcd13ifvqdq0","pricing_plan_id":"cebpf4jnsgd1na2vs0mg"},{"bike_id":"7ea31ee4-bfec-4aa7-ba9b-6cb16f093bd4","system_id":"levelo_inurba_marseille","lat":43.286591,"lon":5.363346,"is_reserved":false,"is_disabled":false,"rental_uris":{"android":"levelo://app?vid=7ea31ee4-bfec-4aa7-ba9b-6cb16f093bd4","ios":"levelo://app?vid=7ea31ee4-bfec-4aa7-ba9b-6cb16f093bd4"},"vehicle_type_id":"4","last_reported":1718996763,"current_range_meters":28000,"station_id":"ce4bhah2rcd13ifvqej0","pricing_plan_id":"cebpf4jnsgd1na2vs0mg"},{"bike_id":"63f654b6-f4ed-4de7-9978-64943d6dd62d","system_id":"levelo_inurba_marseille","lat":43.29873,"lon":5.39731,"is_reserved":false,"is_disabled":false,"rental_uris":{"android":"levelo://app?vid=63f654b6-f4ed-4de7-9978-64943d6dd62d","ios":"levelo://app?vid=63f654b6-f4ed-4de7-9978-64943d6dd62d"},"vehicle_type_id":"4","last_reported":1718996763,"current_range_meters":0,"station_id":"ce4bh0h2rcd13ifvqd50","pricing_plan_id":"cebpf4jnsgd1na2vs0mg"},{"bike_id":"5be12bc2-761d-4bae-9ec8-a802d5fc2258","system_id":"levelo_inurba_marseille","lat":43.286593,"lon":5.363346,"is_reserved":false,"is_disabled":false,"rental_uris":{"android":"levelo://app?vid=5be12bc2-761d-4bae-9ec8-a802d5fc2258","ios":"levelo://app?vid=5be12bc2-761d-4bae-9ec8-a802d5fc2258"},"vehicle_type_id":"4","last_reported":1718996763,"current_range_meters":0,"station_id":"ce4bhah2rcd13ifvqej0","pricing_plan_id":"cebpf4jnsgd1na2vs0mg"},{"bike_id":"1ad77a20-2f60-43bc-b7d3-0447b03a352f","system_id":"levelo_inurba_marseille","lat":43.295196,"lon":5.39397,"is_reserved":false,"is_disabled":false,"rental_uris":{"android":"levelo://app?vid=1ad77a20-2f60-43bc-b7d3-0447b03a352f","ios":"levelo://app?vid=1ad77a20-2f60-43bc-b7d3-0447b03a352f"},"vehicle_type_id":"4","last_reported":1718996763,"current_range_meters":0,"station_id":"ce4bh292rcd13ifvqdf0","pricing_plan_id":"cebpf4jnsgd1na2vs0mg"},{"bike_id":"32cd5108-1c92-4a1d-92d2-b7c90408ab0c","system_id":"levelo_inurba_marseille","lat":43.295196,"lon":5.39397,"is_reserved":false,"is_disabled":false,"rental_uris":{"android":"levelo://app?vid=32cd5108-1c92-4a1d-92d2-b7c90408ab0c","ios":"levelo://app?vid=32cd5108-1c92-4a1d-92d2-b7c90408ab0c"},"vehicle_type_id":"4","last_reported":1718996763,"current_range_meters":0,"station_id":"ce4bh292rcd13ifvqdf0","pricing_plan_id":"cebpf4jnsgd1na2vs0mg"},{"bike_id":"45e8bc69-527f-4795-87b3-396a5b7e610e","system_id":"levelo_inurba_marseille","lat":43.29521,"lon":5.39402,"is_reserved":false,"is_disabled":false,"rental_uris":{"android":"levelo://app?vid=45e8bc69-527f-4795-87b3-396a5b7e610e","ios":"levelo://app?vid=45e8bc69-527f-4795-87b3-396a5b7e610e"},"vehicle_type_id":"4","last_reported":1718996763,"current_range_meters":8800,"station_id":"ce4bh292rcd13ifvqdf0","pricing_plan_id":"cebpf4jnsgd1na2vs0mg"},{"bike_id":"a6ad37bd-8397-497c-aa15-6e82cd11318a","system_id":"levelo_inurba_marseille","lat":43.295194,"lon":5.39397,"is_reserved":false,"is_disabled":false,"rental_uris":{"android":"levelo://app?vid=a6ad37bd-8397-497c-aa15-6e82cd11318a","ios":"levelo://app?vid=a6ad37bd-8397-497c-aa15-6e82cd11318a"},"vehicle_type_id":"4","last_reported":1718996763,"current_range_meters":4800,"station_id":"ce4bh292rcd13ifvqdf0","pricing_plan_id":"cebpf4jnsgd1na2vs0mg"},{"bike_id":"64ed8699-3537-4348-94e7-a5d7fec0e37c","system_id":"levelo_inurba_marseille","lat":43.290336,"lon":5.386425,"is_reserved":false,"is_disabled":false,"rental_uris":{"android":"levelo://app?vid=64ed8699-3537-4348-94e7-a5d7fec0e37c","ios":"levelo://app?vid=64ed8699-3537-4348-94e7-a5d7fec0e37c"},"vehicle_type_id":"4","last_reported":1718996763,"current_range_meters":26000,"station_id":"ce4bh4p2rcd13ifvqe0g","pricing_plan_id":"cebpf4jnsgd1na2vs0mg"},{"bike_id":"ae5e406c-0d12-4cb3-aafd-ec0a654b3263","system_id":"levelo_inurba_marseille","lat":43.290336,"lon":5.386425,"is_reserved":false,"is_disabled":false,"rental_uris":{"android":"levelo://app?vid=ae5e406c-0d12-4cb3-aafd-ec0a654b3263","ios":"levelo://app?vid=ae5e406c-0d12-4cb3-aafd-ec0a654b3263"},"vehicle_type_id":"4","last_reported":1718996763,"current_range_meters":8000,"station_id":"ce4bh4p2rcd13ifvqe0g","pricing_plan_id":"cebpf4jnsgd1na2vs0mg"},{"bike_id":"5e0dd7ef-7f77-4be0-8635-d24d18dbceb0","system_id":"levelo_inurba_marseille","lat":43.29031,"lon":5.38651,"is_reserved":false,"is_disabled":false,"rental_uris":{"android":"levelo://app?vid=5e0dd7ef-7f77-4be0-8635-d24d18dbceb0","ios":"levelo://app?vid=5e0dd7ef-7f77-4be0-8635-d24d18dbceb0"},"vehicle_type_id":"4","last_reported":1718996763,"current_range_meters":0,"station_id":"ce4bh4p2rcd13ifvqe0g","pricing_plan_id":"cebpf4jnsgd1na2vs0mg"},{"bike_id":"bc17386f-0ea8-404b-b2ea-62c9ab8c17d5","system_id":"levelo_inurba_marseille","lat":43.290336,"lon":5.386425,"is_reserved":false,"is_disabled":false,"rental_uris":{"android":"levelo://app?vid=bc17386f-0ea8-404b-b2ea-62c9ab8c17d5","ios":"levelo://app?vid=bc17386f-0ea8-404b-b2ea-62c9ab8c17d5"},"vehicle_type_id":"4","last_reported":1718996763,"current_range_meters":13200,"station_id":"ce4bh4p2rcd13ifvqe0g","pricing_plan_id":"cebpf4jnsgd1na2vs0mg"},{"bike_id":"70a80f14-a1e9-46a5-8a86-cf0cc2e0c76b","system_id":"levelo_inurba_marseille","lat":43.290345,"lon":5.38646,"is_reserved":false,"is_disabled":false,"rental_uris":{"android":"levelo://app?vid=70a80f14-a1e9-46a5-8a86-cf0cc2e0c76b","ios":"levelo://app?vid=70a80f14-a1e9-46a5-8a86-cf0cc2e0c76b"},"vehicle_type_id":"4","last_reported":1718996763,"current_range_meters":26800,"station_id":"ce4bh4p2rcd13ifvqe0g","pricing_plan_id":"cebpf4jnsgd1na2vs0mg"},{"bike_id":"0593d9c5-846a-46b9-b89f-21be7334f511","system_id":"levelo_inurba_marseille","lat":43.287184,"lon":5.37937,"is_reserved":false,"is_disabled":false,"rental_uris":{"android":"levelo://app?vid=0593d9c5-846a-46b9-b89f-21be7334f511","ios":"levelo://app?vid=0593d9c5-846a-46b9-b89f-21be7334f511"},"vehicle_type_id":"4","last_reported":1718996763,"current_range_meters":3200,"station_id":"ce4bh9p2rcd13ifvqec0","pricing_plan_id":"cebpf4jnsgd1na2vs0mg"},{"bike_id":"084fee1e-d6a7-47a8-a80d-11c66d6955b7","system_id":"levelo_inurba_marseille","lat":43.286039,"lon":5.370681,"is_reserved":false,"is_disabled":false,"rental_uris":{"android":"levelo://app?vid=084fee1e-d6a7-47a8-a80d-11c66d6955b7","ios":"levelo://app?vid=084fee1e-d6a7-47a8-a80d-11c66d6955b7"},"vehicle_type_id":"4","last_reported":1718996763,"current_range_meters":10000,"station_id":"ce4bht12rcd13ifvqi60","pricing_plan_id":"cebpf4jnsgd1na2vs0mg"},{"bike_id":"fef8b7d2-d17e-40e7-a449-f56a83246bb8","system_id":"levelo_inurba_marseille","lat":43.31266,"lon":5.40499,"is_reserved":false,"is_disabled":false,"rental_uris":{"android":"levelo://app?vid=fef8b7d2-d17e-40e7-a449-f56a83246bb8","ios":"levelo://app?vid=fef8b7d2-d17e-40e7-a449-f56a83246bb8"},"vehicle_type_id":"4","last_reported":1718996763,"current_range_meters":2800,"station_id":"","pricing_plan_id":"cebpf4jnsgd1na2vs0mg"},{"bike_id":"07449ae8-d1e8-45fb-b216-66cd386654fa","system_id":"levelo_inurba_marseille","lat":43.29191,"lon":5.39221,"is_reserved":false,"is_disabled":false,"rental_uris":{"android":"levelo://app?vid=07449ae8-d1e8-45fb-b216-66cd386654fa","ios":"levelo://app?vid=07449ae8-d1e8-45fb-b216-66cd386654fa"},"vehicle_type_id":"4","last_reported":1718996763,"current_range_meters":9600,"station_id":"","pricing_plan_id":"cebpf4jnsgd1na2vs0mg"},{"bike_id":"7a51eb13-48fa-4f53-9228-ff1fb7ca70bf","system_id":"levelo_inurba_marseille","lat":43.31694,"lon":5.40471,"is_reserved":false,"is_disabled":false,"rental_uris":{"android":"levelo://app?vid=7a51eb13-48fa-4f53-9228-ff1fb7ca70bf","ios":"levelo://app?vid=7a51eb13-48fa-4f53-9228-ff1fb7ca70bf"},"vehicle_type_id":"4","last_reported":1718996763,"current_range_meters":0,"station_id":"ce4bh012rcd13ifvqd00","pricing_plan_id":"cebpf4jnsgd1na2vs0mg"},{"bike_id":"c32af4b2-bb77-423b-97bf-bcef02fec79e","system_id":"levelo_inurba_marseille","lat":43.29197,"lon":5.39317,"is_reserved":false,"is_disabled":false,"rental_uris":{"android":"levelo://app?vid=c32af4b2-bb77-423b-97bf-bcef02fec79e","ios":"levelo://app?vid=c32af4b2-bb77-423b-97bf-bcef02fec79e"},"vehicle_type_id":"4","last_reported":1718996763,"current_range_meters":16800,"station_id":"ce4bh192rcd13ifvqdd0","pricing_plan_id":"cebpf4jnsgd1na2vs0mg"},{"bike_id":"08a204a9-53e4-4a4c-8d40-ba16992aa2b4","system_id":"levelo_inurba_marseille","lat":43.29191,"lon":5.39317,"is_reserved":false,"is_disabled":false,"rental_uris":{"android":"levelo://app?vid=08a204a9-53e4-4a4c-8d40-ba16992aa2b4","ios":"levelo://app?vid=08a204a9-53e4-4a4c-8d40-ba16992aa2b4"},"vehicle_type_id":"4","last_reported":1718996763,"current_range_meters":0,"station_id":"ce4bh192rcd13ifvqdd0","pricing_plan_id":"cebpf4jnsgd1na2vs0mg"},{"bike_id":"9b34cdeb-ecf7-4a0a-b44c-001cf76c2031","system_id":"levelo_inurba_marseille","lat":43.286379,"lon":5.351319,"is_reserved":false,"is_disabled":false,"rental_uris":{"android":"levelo://app?vid=9b34cdeb-ecf7-4a0a-b44c-001cf76c2031","ios":"levelo://app?vid=9b34cdeb-ecf7-4a0a-b44c-001cf76c2031"},"vehicle_type_id":"4","last_reported":1718996763,"current_range_meters":0,"station_id":"","pricing_plan_id":"cebpf4jnsgd1na2vs0mg"},{"bike_id":"a9c0b233-1bc8-4e92-bb0d-ec00e286d98e","system_id":"levelo_inurba_marseille","lat":43.28461,"lon":5.35894,"is_reserved":false,"is_disabled":false,"rental_uris":{"android":"levelo://app?vid=a9c0b233-1bc8-4e92-bb0d-ec00e286d98e","ios":"levelo://app?vid=a9c0b233-1bc8-4e92-bb0d-ec00e286d98e"},"vehicle_type_id":"4","last_reported":1718996763,"current_range_meters":0,"station_id":"ce4bhah2rcd13ifvqei0","pricing_plan_id":"cebpf4jnsgd1na2vs0mg"},{"bike_id":"5f11e4d7-ca6e-4afa-9466-632b95b239d5","system_id":"levelo_inurba_marseille","lat":43.331062,"lon":5.397356,"is_reserved":false,"is_disabled":false,"rental_uris":{"android":"levelo://app?vid=5f11e4d7-ca6e-4afa-9466-632b95b239d5","ios":"levelo://app?vid=5f11e4d7-ca6e-4afa-9466-632b95b239d5"},"vehicle_type_id":"4","last_reported":1718996763,"current_range_meters":3200,"station_id":"","pricing_plan_id":"cebpf4jnsgd1na2vs0mg"},{"bike_id":"070819b0-cd0b-4a14-b5a3-4f3ad3441064","system_id":"levelo_inurba_marseille","lat":43.294366,"lon":5.397571,"is_reserved":false,"is_disabled":false,"rental_uris":{"android":"levelo://app?vid=070819b0-cd0b-4a14-b5a3-4f3ad3441064","ios":"levelo://app?vid=070819b0-cd0b-4a14-b5a3-4f3ad3441064"},"vehicle_type_id":"4","last_reported":1718996763,"current_range_meters":0,"station_id":"ce4bh3h2rcd13ifvqdo0","pricing_plan_id":"cebpf4jnsgd1na2vs0mg"},{"bike_id":"090c938f-760f-4896-b416-dfd2d7349c0b","system_id":"levelo_inurba_marseille","lat":43.285856,"lon":5.350771,"is_reserved":false,"is_disabled":false,"rental_uris":{"android":"levelo://app?vid=090c938f-760f-4896-b416-dfd2d7349c0b","ios":"levelo://app?vid=090c938f-760f-4896-b416-dfd2d7349c0b"},"vehicle_type_id":"4","last_reported":1718996763,"current_range_meters":25600,"station_id":"ce4bhch2rcd13ifvqeug","pricing_plan_id":"cebpf4jnsgd1na2vs0mg"},{"bike_id":"f5e7183b-c1e2-4b45-a734-77543fe3729f","system_id":"levelo_inurba_marseille","lat":43.29243,"lon":5.3954,"is_reserved":false,"is_disabled":false,"rental_uris":{"android":"levelo://app?vid=f5e7183b-c1e2-4b45-a734-77543fe3729f","ios":"levelo://app?vid=f5e7183b-c1e2-4b45-a734-77543fe3729f"},"vehicle_type_id":"4","last_reported":1718996763,"current_range_meters":0,"station_id":"","pricing_plan_id":"cebpf4jnsgd1na2vs0mg"},{"bike_id":"3f49fce8-17c2-44b4-b9cf-0e956cce01dc","system_id":"levelo_inurba_marseille","lat":43.28612,"lon":5.35105,"is_reserved":false,"is_disabled":false,"rental_uris":{"android":"levelo://app?vid=3f49fce8-17c2-44b4-b9cf-0e956cce01dc","ios":"levelo://app?vid=3f49fce8-17c2-44b4-b9cf-0e956cce01dc"},"vehicle_type_id":"4","last_reported":1718996763,"current_range_meters":0,"station_id":"ce4bhch2rcd13ifvqeug","pricing_plan_id":"cebpf4jnsgd1na2vs0mg"},{"bike_id":"3c3d1116-4f2f-4806-93f4-8fd7fa098b95","system_id":"levelo_inurba_marseille","lat":43.28398,"lon":5.37515,"is_reserved":false,"is_disabled":false,"rental_uris":{"android":"levelo://app?vid=3c3d1116-4f2f-4806-93f4-8fd7fa098b95","ios":"levelo://app?vid=3c3d1116-4f2f-4806-93f4-8fd7fa098b95"},"vehicle_type_id":"4","last_reported":1718996763,"current_range_meters":23600,"station_id":"ce4bh412rcd13ifvqds0","pricing_plan_id":"cebpf4jnsgd1na2vs0mg"},{"bike_id":"8b19b793-8e5a-41fa-ac3a-8c80c1cdceed","system_id":"levelo_inurba_marseille","lat":43.299589,"lon":5.403065,"is_reserved":false,"is_disabled":false,"rental_uris":{"android":"levelo://app?vid=8b19b793-8e5a-41fa-ac3a-8c80c1cdceed","ios":"levelo://app?vid=8b19b793-8e5a-41fa-ac3a-8c80c1cdceed"},"vehicle_type_id":"4","last_reported":1718996763,"current_range_meters":20000,"station_id":"","pricing_plan_id":"cebpf4jnsgd1na2vs0mg"},{"bike_id":"85cad8a8-fbf9-4756-b615-1e0cff61b40f","system_id":"levelo_inurba_marseille","lat":43.2864,"lon":5.38556,"is_reserved":false,"is_disabled":false,"rental_uris":{"android":"levelo://app?vid=85cad8a8-fbf9-4756-b615-1e0cff61b40f","ios":"levelo://app?vid=85cad8a8-fbf9-4756-b615-1e0cff61b40f"},"vehicle_type_id":"4","last_reported":1718996763,"current_range_meters":800,"station_id":"","pricing_plan_id":"cebpf4jnsgd1na2vs0mg"},