{"last_updated":1751108910,"ttl":60,"version":"2.2","data":{"bikes":[{"bike_id":"3da29fb8-fc97-44c6-b9ac-31dd456b2fd4","system_id":"levelo_inurba_marseille","lat":43.33771,"lon":5.37424,"is_reserved":false,"is_disabled":true,"rental_uris":{"android":"levelo://app?vid=3da29fb8-fc97-44c6-b9ac-31dd456b2fd4","ios":"levelo://app?vid=3da29fb8-fc97-44c6-b9ac-31dd456b2fd4"},"vehicle_type_id":"4","last_reported":1751108910,"current_range_meters":0,"station_id":"","pricing_plan_id":"cebpf4jnsgd1na2vs0mg"},{"bike_id":"01861ad8-a8d7-4be6-816e-651927c87584","system_id":"levelo_inurba_marseille","lat":43.33751,"lon":5.37456,"is_reserved":false,"is_disabled":true,"rental_uris":{"android":"levelo://app?vid=01861ad8-a8d7-4be6-816e-651927c87584","ios":"levelo://app?vid=01861ad8-a8d7-4be6-816e-651927c87584"},"vehicle_type_id":"4","last_reported":1751108910,"current_range_meters":0,"station_id":"","pricing_plan_id":"cebpf4jnsgd1na2vs0mg"},{"bike_id":"77673b0f-fa8d-4a5f-802e-e3125964cb45","system_id":"levelo_inurba_marseille","lat":43.331007,"lon":5.36499,"is_reserved":false,"is_disabled":true,"rental_uris":{"android":"levelo://app?vid=77673b0f-fa8d-4a5f-802e-e3125964cb45","ios":"levelo://app?vid=77673b0f-fa8d-4a5f-802e-e3125964cb45"},"vehicle_type_id":"4","last_reported":1751108910,"current_range_meters":0,"station_id":"","pricing_plan_id":"cebpf4jnsgd1na2vs0mg"},{"bike_id":"a0aa7f48-2c07-453d-845a-eaeace62b973","system_id":"levelo_inurba_marseille","lat":43.31114,"lon":5.37748,"is_reserved":false,"is_disabled":true,"rental_uris":{"android":"levelo://app?vid=a0aa7f48-2c07-453d-845a-eaeace62b973","ios":"levelo://app?vid=a0aa7f48-2c07-453d-845a-eaeace62b973"},"vehicle_type_id":"4","last_reported":1751108910,"current_range_meters":0,"station_id":"ce4bgt92rcd13ifvqcg0","pricing_plan_id":"cebpf4jnsgd1na2vs0mg"},{"bike_id":"c2f7eb49-41af-46e9-9f27-1038cec53173","system_id":"levelo_inurba_marseille","lat":43.31167,"lon":5.38714,"is_reserved":false,"is_disabled":true,"rental_uris":{"android":"levelo://app?vid=c2f7eb49-41af-46e9-9f27-1038cec53173","ios":"levelo://app?vid=c2f7eb49-41af-46e9-9f27-1038cec53173"},"vehicle_type_id":"4","last_reported":1751108910,"current_range_meters":0,"station_id":"ce4bgv12rcd13ifvqcp0","pricing_plan_id":"cebpf4jnsgd1na2vs0mg"},{"bike_id":"02b9c26d-4c25-4ca8-bd40-74de50cf0539","system_id":"levelo_inurba_marseille","lat":43.29424,"lon":5.38615,"is_reserved":false,"is_disabled":true,"rental_uris":{"android":"levelo://app?vid=02b9c26d-4c25-4ca8-bd40-74de50cf0539","ios":"levelo://app?vid=02b9c26d-4c25-4ca8-bd40-74de50cf0539"},"vehicle_type_id":"4","last_reported":1751108910,"current_range_meters":0,"station_id":"ce4bh2h2rcd13ifvqdh0","pricing_plan_id":"cebpf4jnsgd1na2vs0mg"},{"bike_id":"85072197-e9fe-4fc0-a926-3d1345b26b94","system_id":"levelo_inurba_marseille","lat":43.267846,"lon":5.394191,"is_reserved":false,"is_disabled":true,"rental_uris":{"android":"levelo://app?vid=85072197-e9fe-4fc0-a926-3d1345b26b94","ios":"levelo://app?vid=85072197-e9fe-4fc0-a926-3d1345b26b94"},"vehicle_type_id":"4","last_reported":1751108910,"current_range_meters":0,"station_id":"ce4bhh12rcd13ifvqfg0","pricing_plan_id":"cebpf4jnsgd1na2vs0mg"},{"bike_id":"6c62fe15-b37d-45e6-866e-a8f84312c5b8","system_id":"levelo_inurba_marseille","lat":43.284856,"lon":5.385639,"is_reserved":false,"is_disabled":true,"rental_uris":{"android":"levelo://app?vid=6c62fe15-b37d-45e6-866e-a8f84312c5b8","ios":"levelo://app?vid=6c62fe15-b37d-45e6-866e-a8f84312c5b8"},"vehicle_type_id":"4","last_reported":1751108910,"current_range_meters":0,"station_id":"ce4bhnp2rcd13ifvqgvg","pricing_plan_id":"cebpf4jnsgd1na2vs0mg"},{"bike_id":"c8ce0351-fe68-40b1-beb5-45d8ee0eed11","system_id":"levelo_inurba_marseille","lat":43.30379,"lon":5.42479,"is_reserved":false,"is_disabled":true,"rental_uris":{"android":"levelo://app?vid=c8ce0351-fe68-40b1-beb5-45d8ee0eed11","ios":"levelo://app?vid=c8ce0351-fe68-40b1-beb5-45d8ee0eed11"},"vehicle_type_id":"4","last_reported":1751108910,"current_range_meters":0,"station_id":"ce4bhoh2rcd13ifvqh6g","pricing_plan_id":"cebpf4jnsgd1na2vs0mg"},{"bike_id":"fde70215-ce15-4258-a0bf-27a465a43a0d","system_id":"levelo_inurba_marseille","lat":43.32085,"lon":5.36823,"is_reserved":false,"is_disabled":true,"rental_uris":{"android":"levelo://app?vid=fde70215-ce15-4258-a0bf-27a465a43a0d","ios":"levelo://app?vid=fde70215-ce15-4258-a0bf-27a465a43a0d"},"vehicle_type_id":"4","last_reported":1751108910,"current_range_meters":0,"station_id":"ce4bhrh2rcd13ifvqhug","pricing_plan_id":"cebpf4jnsgd1na2vs0mg"},{"bike_id":"070a5204-3e73-4cf5-9fda-520c8795969f","system_id":"levelo_inurba_marseille","lat":43.2175,"lon":5.34601,"is_reserved":false,"is_disabled":true,"rental_uris":{"android":"levelo://app?vid=070a5204-3e73-4cf5-9fda-520c8795969f","ios":"levelo://app?vid=070a5204-3e73-4cf5-9fda-520c8795969f"},"vehicle_type_id":"4","last_reported":1751108910,"current_range_meters":0,"station_id":"st_cvj6r9ubvosntc0bgbag","pricing_plan_id":"cebpf4jnsgd1na2vs0mg"},{"bike_id":"36c8d399-edbb-48d2-9542-0e5343ae36e8","system_id":"levelo_inurba_marseille","lat":43.27378,"lon":5.36257,"is_reserved":false,"is_disabled":true,"rental_uris":{"android":"levelo://app?vid=36c8d399-edbb-48d2-9542-0e5343ae36e8","ios":"levelo://app?vid=36c8d399-edbb-48d2-9542-0e5343ae36e8"},"vehicle_type_id":"4","last_reported":1751108910,"current_range_meters":400,"station_id":"ce4bhbh2rcd13ifvqeo0","pricing_plan_id":"cebpf4jnsgd1na2vs0mg"},{"bike_id":"d29fd179-7503-4773-a0f3-dca140ee5b9f","system_id":"levelo_inurba_marseille","lat":43.28419,"lon":5.34982,"is_reserved":false,"is_disabled":true,"rental_uris":{"android":"levelo://app?vid=d29fd179-7503-4773-a0f3-dca140ee5b9f","ios":"levelo://app?vid=d29fd179-7503-4773-a0f3-dca140ee5b9f"},"vehicle_type_id":"4","last_reported":1751108910,"current_range_meters":400,"station_id":"ce4bhbh2rcd13ifvqepg","pricing_plan_id":"cebpf4jnsgd1na2vs0mg"},{"bike_id":"92d3bb11-4cf3-47e6-bc0f-ff80eea58ad1","system_id":"levelo_inurba_marseille","lat":43.30383,"lon":5.42487,"is_reserved":false,"is_disabled":true,"rental_uris":{"android":"levelo://app?vid=92d3bb11-4cf3-47e6-bc0f-ff80eea58ad1","ios":"levelo://app?vid=92d3bb11-4cf3-47e6-bc0f-ff80eea58ad1"},"vehicle_type_id":"4","last_reported":1751108910,"current_range_meters":400,"station_id":"ce4bhoh2rcd13ifvqh6g","pricing_plan_id":"cebpf4jnsgd1na2vs0mg"},{"bike_id":"9aaff0a0-f638-431f-90c6-0d1d06b7f465","system_id":"levelo_inurba_marseille","lat":43.296051,"lon":5.381096,"is_reserved":false,"is_disabled":true,"rental_uris":{"android":"levelo://app?vid=9aaff0a0-f638-431f-90c6-0d1d06b7f465","ios":"levelo://app?vid=9aaff0a0-f638-431f-90c6-0d1d06b7f465"},"vehicle_type_id":"4","last_reported":1751108910,"current_range_meters":800,"station_id":"","pricing_plan_id":"cebpf4jnsgd1na2vs0mg"},{"bike_id":"289a7b61-3eba-4d0d-ae05-9704b6f10bf8","system_id":"levelo_inurba_marseille","lat":43.29579,"lon":5.36742,"is_reserved":false,"is_disabled":true,"rental_uris":{"android":"levelo://app?vid=289a7b61-3eba-4d0d-ae05-9704b6f10bf8","ios":"levelo://app?vid=289a7b61-3eba-4d0d-ae05-9704b6f10bf8"},"vehicle_type_id":"4","last_reported":1751108910,"current_range_meters":800,"station_id":"ce4bgph2rcd13ifvqc2g","pricing_plan_id":"cebpf4jnsgd1na2vs0mg"},{"bike_id":"b4b44fcb-d03d-421c-89eb-143bb78c2275","system_id":"levelo_inurba_marseille","lat":43.23182,"lon":5.39997,"is_reserved":false,"is_disabled":true,"rental_uris":{"android":"levelo://app?vid=b4b44fcb-d03d-421c-89eb-143bb78c2275","ios":"levelo://app?vid=b4b44fcb-d03d-421c-89eb-143bb78c2275"},"vehicle_type_id":"4","last_reported":1751108910,"current_range_meters":800,"station_id":"ce4bhn12rcd13ifvqgqg","pricing_plan_id":"cebpf4jnsgd1na2vs0mg"},{"bike_id":"f47876d7-9c85-474e-92c5-7a242e08b67c","system_id":"levelo_inurba_marseille","lat":43.305549,"lon":5.375489,"is_reserved":false,"is_disabled":true,"rental_uris":{"android":"levelo://app?vid=f47876d7-9c85-474e-92c5-7a242e08b67c","ios":"levelo://app?vid=f47876d7-9c85-474e-92c5-7a242e08b67c"},"vehicle_type_id":"4","last_reported":1751108910,"current_range_meters":1200,"station_id":"","pricing_plan_id":"cebpf4jnsgd1na2vs0mg"},{"bike_id":"e2e2626c-8b8f-453c-8865-e45faaa34540","system_id":"levelo_inurba_marseille","lat":43.31074,"lon":5.38357,"is_reserved":false,"is_disabled":true,"rental_uris":{"android":"levelo://app?vid=e2e2626c-8b8f-453c-8865-e45faaa34540","ios":"levelo://app?vid=e2e2626c-8b8f-453c-8865-e45faaa34540"},"vehicle_type_id":"4","last_reported":1751108910,"current_range_meters":1200,"station_id":"ce4bgv92rcd13ifvqcr0","pricing_plan_id":"cebpf4jnsgd1na2vs0mg"},{"bike_id":"c92b1d14-6727-44c4-b524-81490e184e51","system_id":"levelo_inurba_marseille","lat":43.29842,"lon":5.36266,"is_reserved":false,"is_disabled":true,"rental_uris":{"android":"levelo://app?vid=c92b1d14-6727-44c4-b524-81490e184e51","ios":"levelo://app?vid=c92b1d14-6727-44c4-b524-81490e184e51"},"vehicle_type_id":"4","last_reported":1751108910,"current_range_meters":1600,"station_id":"ce4bgpp2rcd13ifvqc3g","pricing_plan_id":"cebpf4jnsgd1na2vs0mg"},{"bike_id":"2e4b3190-9cc9-47cf-87ca-5dc482ba5b0d","system_id":"levelo_inurba_marseille","lat":43.231606,"lon":5.436956,"is_reserved":false,"is_disabled":true,"rental_uris":{"android":"levelo://app?vid=2e4b3190-9cc9-47cf-87ca-5dc482ba5b0d","ios":"levelo://app?vid=2e4b3190-9cc9-47cf-87ca-5dc482ba5b0d"},"vehicle_type_id":"4","last_reported":1751108910,"current_range_meters":1600,"station_id":"ce4bhmp2rcd13ifvqgog","pricing_plan_id":"cebpf4jnsgd1na2vs0mg"},{"bike_id":"8ba8c4f3-245f-41fc-b605-33740fdb6d20","system_id":"levelo_inurba_marseille","lat":43.32343,"lon":5.40621,"is_reserved":false,"is_disabled":true,"rental_uris":{"android":"levelo://app?vid=8ba8c4f3-245f-41fc-b605-33740fdb6d20","ios":"levelo://app?vid=8ba8c4f3-245f-41fc-b605-33740fdb6d20"},"vehicle_type_id":"4","last_reported":1751108910,"current_range_meters":2000,"station_id":"ce4bhq92rcd13ifvqhjg","pricing_plan_id":"cebpf4jnsgd1na2vs0mg"},{"bike_id":"f06c8821-159e-421b-9570-b2b2e3869982","system_id":"levelo_inurba_marseille","lat":43.34146,"lon":5.40914,"is_reserved":false,"is_disabled":false,"rental_uris":{"android":"levelo://app?vid=f06c8821-159e-421b-9570-b2b2e3869982","ios":"levelo://app?vid=f06c8821-159e-421b-9570-b2b2e3869982"},"vehicle_type_id":"4","last_reported":1751108910,"current_range_meters":2800,"station_id":"ce4bhqh2rcd13ifvqhlg","pricing_plan_id":"cebpf4jnsgd1na2vs0mg"},{"bike_id":"703df58a-ef75-4ae2-b700-970a1de18756","system_id":"levelo_inurba_marseille","lat":43.29804,"lon":5.40409,"is_reserved":false,"is_disabled":false,"rental_uris":{"android":"levelo://app?vid=703df58a-ef75-4ae2-b700-970a1de18756","ios":"levelo://app?vid=703df58a-ef75-4ae2-b700-970a1de18756"},"vehicle_type_id":"4","last_reported":1751108910,"current_range_meters":3600,"station_id":"ce4bh112rcd13ifvqd90","pricing_plan_id":"cebpf4jnsgd1na2vs0mg"},{"bike_id":"26779b6e-8626-433b-96fa-f3edf2bf8a7c","system_id":"levelo_inurba_marseille","lat":43.24984,"lon":5.38953,"is_reserved":false,"is_disabled":false,"rental_uris":{"android":"levelo://app?vid=26779b6e-8626-433b-96fa-f3edf2bf8a7c","ios":"levelo://app?vid=26779b6e-8626-433b-96fa-f3edf2bf8a7c"},"vehicle_type_id":"4","last_reported":1751108910,"current_range_meters":3600,"station_id":"ce4bhgp2rcd13ifvqfd0","pricing_plan_id":"cebpf4jnsgd1na2vs0mg"},{"bike_id":"de0ba27c-9f2c-4c4d-abca-31aa5df09b3a","system_id":"levelo_inurba_marseille","lat":43.21752,"lon":5.34599,"is_reserved":false,"is_disabled":false,"rental_uris":{"android":"levelo://app?vid=de0ba27c-9f2c-4c4d-abca-31aa5df09b3a","ios":"levelo://app?vid=de0ba27c-9f2c-4c4d-abca-31aa5df09b3a"},"vehicle_type_id":"4","last_reported":1751108910,"current_range_meters":3600,"station_id":"st_cvj6r9ubvosntc0bgbag","pricing_plan_id":"cebpf4jnsgd1na2vs0mg"},{"bike_id":"94e84186-d780-461a-b647-8d1cf3f036ad","system_id":"levelo_inurba_marseille","lat":43.3166,"lon":5.37857,"is_reserved":false,"is_disabled":false,"rental_uris":{"android":"levelo://app?vid=94e84186-d780-461a-b647-8d1cf3f036ad","ios":"levelo://app?vid=94e84186-d780-461a-b647-8d1cf3f036ad"},"vehicle_type_id":"4","last_reported":1751108910,"current_range_meters":4000,"station_id":"","pricing_plan_id":"cebpf4jnsgd1na2vs0mg"},{"bike_id":"35d15d31-b73c-4f3b-8b9b-34f0af6cd007","system_id":"levelo_inurba_marseille","lat":43.2848,"lon":5.38402,"is_reserved":false,"is_disabled":false,"rental_uris":{"android":"levelo://app?vid=35d15d31-b73c-4f3b-8b9b-34f0af6cd007","ios":"levelo://app?vid=35d15d31-b73c-4f3b-8b9b-34f0af6cd007"},"vehicle_type_id":"4","last_reported":1751108910,"current_range_meters":4400,"station_id":"ce4bh512rcd13ifvqe3g","pricing_plan_id":"cebpf4jnsgd1na2vs0mg"},{"bike_id":"f5dabf98-6b10-47de-8d9e-d5230d55ea63","system_id":"levelo_inurba_marseille","lat":43.27379,"lon":5.36252,"is_reserved":false,"is_disabled":false,"rental_uris":{"android":"levelo://app?vid=f5dabf98-6b10-47de-8d9e-d5230d55ea63","ios":"levelo://app?vid=f5dabf98-6b10-47de-8d9e-d5230d55ea63"},"vehicle_type_id":"4","last_reported":1751108910,"current_range_meters":4400,"station_id":"ce4bhbh2rcd13ifvqeo0","pricing_plan_id":"cebpf4jnsgd1na2vs0mg"},{"bike_id":"dd5db90d-00f5-4fb3-90ec-75fbc2136dec","system_id":"levelo_inurba_marseille","lat":43.26669,"lon":5.38245,"is_reserved":false,"is_disabled":false,"rental_uris":{"android":"levelo://app?vid=dd5db90d-00f5-4fb3-90ec-75fbc2136dec","ios":"levelo://app?vid=dd5db90d-00f5-4fb3-90ec-75fbc2136dec"},"vehicle_type_id":"4","last_reported":1751108910,"current_range_meters":4400,"station_id":"ce4bhg92rcd13ifvqf90","pricing_plan_id":"cebpf4jnsgd1na2vs0mg"},{"bike_id":"a4c72be0-3226-4d5c-a841-94842c79c5e5","system_id":"levelo_inurba_marseille","lat":43.30419,"lon":5.41283,"is_reserved":false,"is_disabled":false,"rental_uris":{"android":"levelo://app?vid=a4c72be0-3226-4d5c-a841-94842c79c5e5","ios":"levelo://app?vid=a4c72be0-3226-4d5c-a841-94842c79c5e5"},"vehicle_type_id":"4","last_reported":1751108910,"current_range_meters":4800,"station_id":"ce4bhop2rcd13ifvqh8g","pricing_plan_id":"cebpf4jnsgd1na2vs0mg"},{"bike_id":"a1210228-5ab1-4a7e-a2d3-282568b5124f","system_id":"levelo_inurba_marseille","lat":43.29579,"lon":5.36742,"is_reserved":false,"is_disabled":false,"rental_uris":{"android":"levelo://app?vid=a1210228-5ab1-4a7e-a2d3-282568b5124f","ios":"levelo://app?vid=a1210228-5ab1-4a7e-a2d3-282568b5124f"},"vehicle_type_id":"4","last_reported":1751108910,"current_range_meters":5600,"station_id":"ce4bgph2rcd13ifvqc2g","pricing_plan_id":"cebpf4jnsgd1na2vs0mg"},{"bike_id":"ef355692-8842-4e75-abe1-db22ebc698a1","system_id":"levelo_inurba_marseille","lat":43.28689,"lon":5.3739,"is_reserved":false,"is_disabled":false,"rental_uris":{"android":"levelo://app?vid=ef355692-8842-4e75-abe1-db22ebc698a1","ios":"levelo://app?vid=ef355692-8842-4e75-abe1-db22ebc698a1"},"vehicle_type_id":"4","last_reported":1751108910,"current_range_meters":6000,"station_id":"ce4bh3p2rcd13ifvqdq0","pricing_plan_id":"cebpf4jnsgd1na2vs0mg"},{"bike_id":"7e7141da-051a-41f0-9ff2-e41dc0c7d859","system_id":"levelo_inurba_marseille","lat":43.23187,"lon":5.39992,"is_reserved":false,"is_disabled":false,"rental_uris":{"android":"levelo://app?vid=7e7141da-051a-41f0-9ff2-e41dc0c7d859","ios":"levelo://app?vid=7e7141da-051a-41f0-9ff2-e41dc0c7d859"},"vehicle_type_id":"4","last_reported":1751108910,"current_range_meters":6000,"station_id":"ce4bhn12rcd13ifvqgqg","pricing_plan_id":"cebpf4jnsgd1na2vs0mg"},{"bike_id":"4b8da722-ee9e-48a4-a5e5-3a8a10364708","system_id":"levelo_inurba_marseille","lat":43.31226,"lon":5.37808,"is_reserved":false,"is_disabled":false,"rental_uris":{"android":"levelo://app?vid=4b8da722-ee9e-48a4-a5e5-3a8a10364708","ios":"levelo://app?vid=4b8da722-ee9e-48a4-a5e5-3a8a10364708"},"vehicle_type_id":"4","last_reported":1751108910,"current_range_meters":6400,"station_id":"","pricing_plan_id":"cebpf4jnsgd1na2vs0mg"},{"bike_id":"73a03650-973e-42b0-bad4-545481e15f73","system_id":"levelo_inurba_marseille","lat":43.31242,"lon":5.39057,"is_reserved":false,"is_disabled":false,"rental_uris":{"android":"levelo://app?vid=73a03650-973e-42b0-bad4-545481e15f73","ios":"levelo://app?vid=73a03650-973e-42b0-bad4-545481e15f73"},"vehicle_type_id":"4","last_reported":1751108910,"current_range_meters":6400,"station_id":"","pricing_plan_id":"cebpf4jnsgd1na2vs0mg"},{"bike_id":"dcea07ca-9323-4b9b-98f6-e1fc9b106559","system_id":"levelo_inurba_marseille","lat":43.303127,"lon":5.376707,"is_reserved":false,"is_disabled":false,"rental_uris":{"android":"levelo://app?vid=dcea07ca-9323-4b9b-98f6-e1fc9b106559","ios":"levelo://app?vid=dcea07ca-9323-4b9b-98f6-e1fc9b106559"},"vehicle_type_id":"4","last_reported":1751108910,"current_range_meters":6400,"station_id":"","pricing_plan_id":"cebpf4jnsgd1na2vs0mg"},{"bike_id":"787a5de5-eb65-4f49-9cc1-69b03232a861","system_id":"levelo_inurba_marseille","lat":43.26692,"lon":5.38273,"is_reserved":false,"is_disabled":false,"rental_uris":{"android":"levelo://app?vid=787a5de5-eb65-4f49-9cc1-69b03232a861","ios":"levelo://app?vid=787a5de5-eb65-4f49-9cc1-69b03232a861"},"vehicle_type_id":"4","last_reported":1751108910,"current_range_meters":6400,"station_id":"ce4bhg92rcd13ifvqf90","pricing_plan_id":"cebpf4jnsgd1na2vs0mg"},{"bike_id":"1e67d16c-d5b6-4195-9e4d-3607851b2ae6","system_id":"levelo_inurba_marseille","lat":43.25584,"lon":5.38236,"is_reserved":false,"is_disabled":false,"rental_uris":{"android":"levelo://app?vid=1e67d16c-d5b6-4195-9e4d-3607851b2ae6","ios":"levelo://app?vid=1e67d16c-d5b6-4195-9e4d-3607851b2ae6"},"vehicle_type_id":"4","last_reported":1751108910,"current_range_meters":6800,"station_id":"ce4bhih2rcd13ifvqfs0","pricing_plan_id":"cebpf4jnsgd1na2vs0mg"},{"bike_id":"e70acc99-1a30-467f-9721-3375d58ca749","system_id":"levelo_inurba_marseille","lat":43.25093,"lon":5.39468,"is_reserved":false,"is_disabled":false,"rental_uris":{"android":"levelo://app?vid=e70acc99-1a30-467f-9721-3375d58ca749","ios":"levelo://app?vid=e70acc99-1a30-467f-9721-3375d58ca749"},"vehicle_type_id":"4","last_reported":1751108910,"current_range_meters":6800,"station_id":"ce4bhm12rcd13ifvqgkg","pricing_plan_id":"cebpf4jnsgd1na2vs0mg"},{"bike_id":"7a92a51b-12db-41cc-98c0-2618d3831133","system_id":"levelo_inurba_marseille","lat":43.322859,"lon":5.382735,"is_reserved":false,"is_disabled":false,"rental_uris":{"android":"levelo://app?vid=7a92a51b-12db-41cc-98c0-2618d3831133","ios":"levelo://app?vid=7a92a51b-12db-41cc-98c0-2618d3831133"},"vehicle_type_id":"4","last_reported":1751108910,"current_range_meters":6800,"station_id":"ce4bhr12rcd13ifvqhqg","pricing_plan_id":"cebpf4jnsgd1na2vs0mg"},{"bike_id":"b7d0d8a1-c5dd-4278-8b3b-f5786872fe32","system_id":"levelo_inurba_marseille","lat":43.321156,"lon":5.36757,"is_reserved":false,"is_disabled":false,"rental_uris":{"android":"levelo://app?vid=b7d0d8a1-c5dd-4278-8b3b-f5786872fe32","ios":"levelo://app?vid=b7d0d8a1-c5dd-4278-8b3b-f5786872fe32"},"vehicle_type_id":"4","last_reported":1751108910,"current_range_meters":6800,"station_id":"ce4bhrh2rcd13ifvqhug","pricing_plan_id":"cebpf4jnsgd1na2vs0mg"},{"bike_id":"ab6eef49-f47b-46fb-8020-e7e3d7eaf073","system_id":"levelo_inurba_marseille","lat":43.23146,"lon":5.437,"is_reserved":false,"is_disabled":false,"rental_uris":{"android":"levelo://app?vid=ab6eef49-f47b-46fb-8020-e7e3d7eaf073","ios":"levelo://app?vid=ab6eef49-f47b-46fb-8020-e7e3d7eaf073"},"vehicle_type_id":"4","last_reported":1751108910,"current_range_meters":7200,"station_id":"ce4bhmp2rcd13ifvqgog","pricing_plan_id":"cebpf4jnsgd1na2vs0mg"},{"bike_id":"9e79b329-821c-45f3-995f-90829ab775d5","system_id":"levelo_inurba_marseille","lat":43.28864,"lon":5.39311,"is_reserved":false,"is_disabled":false,"rental_uris":{"android":"levelo://app?vid=9e79b329-821c-45f3-995f-90829ab775d5","ios":"levelo://app?vid=9e79b329-821c-45f3-995f-90829ab775d5"},"vehicle_type_id":"4","last_reported":1751108910,"current_range_meters":8000,"station_id":"ce4bh2p2rcd13ifvqdi0","pricing_plan_id":"cebpf4jnsgd1na2vs0mg"},{"bike_id":"50ed2be7-5e62-4fab-9ce2-470dc2f125af","system_id":"levelo_inurba_marseille","lat":43.29025,"lon":5.3813,"is_reserved":false,"is_disabled":false,"rental_uris":{"android":"levelo://app?vid=50ed2be7-5e62-4fab-9ce2-470dc2f125af","ios":"levelo://app?vid=50ed2be7-5e62-4fab-9ce2-470dc2f125af"},"vehicle_type_id":"4","last_reported":1751108910,"current_range_meters":8000,"station_id":"ce4bh4p2rcd13ifvqe1g","pricing_plan_id":"cebpf4jnsgd1na2vs0mg"},{"bike_id":"cd7aa0fa-c082-43fc-8954-41cfa352b4b5","system_id":"levelo_inurba_marseille","lat":43.2439,"lon":5.37061,"is_reserved":false,"is_disabled":false,"rental_uris":{"android":"levelo://app?vid=cd7aa0fa-c082-43fc-8954-41cfa352b4b5","ios":"levelo://app?vid=cd7aa0fa-c082-43fc-8954-41cfa352b4b5"},"vehicle_type_id":"4","last_reported":1751108910,"current_range_meters":8000,"station_id":"ce4bhhh2rcd13ifvqfk0","pricing_plan_id":"cebpf4jnsgd1na2vs0mg"},{"bike_id":"a6d8b4b1-5e59-49c3-9865-ffd1d4c284d0","system_id":"levelo_inurba_marseille","lat":43.28,"lon":5.41665,"is_reserved":false,"is_disabled":false,"rental_uris":{"android":"levelo://app?vid=a6d8b4b1-5e59-49c3-9865-ffd1d4c284d0","ios":"levelo://app?vid=a6d8b4b1-5e59-49c3-9865-ffd1d4c284d0"},"vehicle_type_id":"4","last_reported":1751108910,"current_range_meters":8000,"station_id":"ce4bho12rcd13ifvqh1g","pricing_plan_id":"cebpf4jnsgd1na2vs0mg"},{"bike_id":"10e0cc2e-10cc-4c9b-ba21-9d4c088b1b63","system_id":"levelo_inurba_marseille","lat":43.29903,"lon":5.4367,"is_reserved":false,"is_disabled":false,"rental_uris":{"android":"levelo://app?vid=10e0cc2e-10cc-4c9b-ba21-9d4c088b1b63","ios":"levelo://app?vid=10e0cc2e-10cc-4c9b-ba21-9d4c088b1b63"},"vehicle_type_id":"4","last_reported":1751108910,"current_range_meters":8000,"station_id":"ce4bhpp2rcd13ifvqhfg","pricing_plan_id":"cebpf4jnsgd1na2vs0mg"},{"bike_id":"a440f2f6-8cf8-4348-9ba1-e21002a18a07","system_id":"levelo_inurba_marseille","lat":43.32101,"lon":5.36806,"is_reserved":false,"is_disabled":false,"rental_uris":{"android":"levelo://app?vid=a440f2f6-8cf8-4348-9ba1-e21002a18a07","ios":"levelo://app?vid=a440f2f6-8cf8-4348-9ba1-e21002a18a07"},"vehicle_type_id":"4","last_reported":1751108910,"current_range_meters":8000,"station_id":"ce4bhrh2rcd13ifvqhug","pricing_plan_id":"cebpf4jnsgd1na2vs0mg"},{"bike_id":"d93518a7-acea-49d1-8b1d-66917831e25a","system_id":"levelo_inurba_marseille","lat":43.28362,"lon":5.39525,"is_reserved":false,"is_disabled":false,"rental_uris":{"android":"levelo://app?vid=d93518a7-acea-49d1-8b1d-66917831e25a","ios":"levelo://app?vid=d93518a7-acea-49d1-8b1d-66917831e25a"},"vehicle_type_id":"4","last_reported":1751108910,"current_range_meters":8400,"station_id":"","pricing_plan_id":"cebpf4jnsgd1na2vs0mg"},{"bike_id":"9c1a3304-9011-404e-a37f-944468c3d247","system_id":"levelo_inurba_marseille","lat":43.28937,"lon":5.36638,"is_reserved":false,"is_disabled":false,"rental_uris":{"android":"levelo://app?vid=9c1a3304-9011-404e-a37f-944468c3d247","ios":"levelo://app?vid=9c1a3304-9011-404e-a37f-944468c3d247"},"vehicle_type_id":"4","last_reported":1751108910,"current_range_meters":8400,"station_id":"ce4bhap2rcd13ifvqek0","pricing_plan_id":"cebpf4jnsgd1na2vs0mg"},{"bike_id":"b75c9cb8-fd78-4a80-9d1b-540023d5ad53","system_id":"levelo_inurba_marseille","lat":43.34133,"lon":5.40893,"is_reserved":false,"is_disabled":false,"rental_uris":{"android":"levelo://app?vid=b75c9cb8-fd78-4a80-9d1b-540023d5ad53","ios":"levelo://app?vid=b75c9cb8-fd78-4a80-9d1b-540023d5ad53"},"vehicle_type_id":"4","last_reported":1751108910,"current_range_meters":8400,"station_id":"ce4bhqh2rcd13ifvqhlg","pricing_plan_id":"cebpf4jnsgd1na2vs0mg"},{"bike_id":"489195ca-15c9-4ab9-8577-0c81cb7c65a6","system_id":"levelo_inurba_marseille","lat":43.30431,"lon":5.39745,"is_reserved":false,"is_disabled":false,"rental_uris":{"android":"levelo://app?vid=489195ca-15c9-4ab9-8577-0c81cb7c65a6","ios":"levelo://app?vid=489195ca-15c9-4ab9-8577-0c81cb7c65a6"},"vehicle_type_id":"4","last_reported":1751108910,"current_range_meters":8800,"station_id":"ce4bh092rcd13ifvqd20","pricing_plan_id":"cebpf4jnsgd1na2vs0mg"},{"bike_id":"1c8ab180-05fd-405f-9922-b2b2c2d5142f","system_id":"levelo_inurba_marseille","lat":43.321324,"lon":5.367257,"is_reserved":false,"is_disabled":false,"rental_uris":{"android":"levelo://app?vid=1c8ab180-05fd-405f-9922-b2b2c2d5142f","ios":"levelo://app?vid=1c8ab180-05fd-405f-9922-b2b2c2d5142f"},"vehicle_type_id":"4","last_reported":1751108910,"current_range_meters":8800,"station_id":"ce4bhrh2rcd13ifvqhug","pricing_plan_id":"cebpf4jnsgd1na2vs0mg"},{"bike_id":"5a01ae6d-9064-484c-8d77-2d9e141e2313","system_id":"levelo_inurba_marseille","lat":43.244848,"lon":5.390206,"is_reserved":false,"is_disabled":false,"rental_uris":{"android":"levelo://app?vid=5a01ae6d-9064-484c-8d77-2d9e141e2313","ios":"levelo://app?vid=5a01ae6d-9064-484c-8d77-2d9e141e2313"},"vehicle_type_id":"4","last_reported":1751108910,"current_range_meters":9200,"station_id":"","pricing_plan_id":"cebpf4jnsgd1na2vs0mg"},{"bike_id":"26d56617-7b3a-4ec2-bf36-3e6dea0698d8","system_id":"levelo_inurba_marseille","lat":43.2985,"lon":5.362763,"is_reserved":false,"is_disabled":false,"rental_uris":{"android":"levelo://app?vid=26d56617-7b3a-4ec2-bf36-3e6dea0698d8","ios":"levelo://app?vid=26d56617-7b3a-4ec2-bf36-3e6dea0698d8"},"vehicle_type_id":"4","last_reported":1751108910,"current_range_meters":9200,"station_id":"ce4bgpp2rcd13ifvqc3g","pricing_plan_id":"cebpf4jnsgd1na2vs0mg"},{"bike_id":"9781ca1d-e075-415f-84b6-358c1bad8737","system_id":"levelo_inurba_marseille","lat":43.30593,"lon":5.39348,"is_reserved":false,"is_disabled":false,"rental_uris":{"android":"levelo://app?vid=9781ca1d-e075-415f-84b6-358c1bad8737","ios":"levelo://app?vid=9781ca1d-e075-415f-84b6-358c1bad8737"},"vehicle_type_id":"4","last_reported":1751108910,"current_range_meters":9200,"station_id":"ce4bh0p2rcd13ifvqd80","pricing_plan_id":"cebpf4jnsgd1na2vs0mg"},{"bike_id":"765bb39c-83ec-40de-ad4e-24f52d085827","system_id":"levelo_inurba_marseille","lat":43.286888,"lon":5.373901,"is_reserved":false,"is_disabled":false,"rental_uris":{"android":"levelo://app?vid=765bb39c-83ec-40de-ad4e-24f52d085827","ios":"levelo://app?vid=765bb39c-83ec-40de-ad4e-24f52d085827"},"vehicle_type_id":"4","last_reported":1751108910,"current_range_meters":9200,"station_id":"ce4bh3p2rcd13ifvqdq0","pricing_plan_id":"cebpf4jnsgd1na2vs0mg"},{"bike_id":"711bc136-64e4-4a40-b49d-a3b1cd4f5631","system_id":"levelo_inurba_marseille","lat":43.29968,"lon":5.38496,"is_reserved":false,"is_disabled":false,"rental_uris":{"android":"levelo://app?vid=711bc136-64e4-4a40-b49d-a3b1cd4f5631","ios":"levelo://app?vid=711bc136-64e4-4a40-b49d-a3b1cd4f5631"},"vehicle_type_id":"4","last_reported":1751108910,"current_range_meters":9600,"station_id":"ce4bgj92rcd13ifvqbd0","pricing_plan_id":"cebpf4jnsgd1na2vs0mg"},{"bike_id":"ee106ddd-f05a-4c32-bc63-95dbbe76c1d1","system_id":"levelo_inurba_marseille","lat":43.29372,"lon":5.37855,"is_reserved":false,"is_disabled":false,"rental_uris":{"android":"levelo://app?vid=ee106ddd-f05a-4c32-bc63-95dbbe76c1d1","ios":"levelo://app?vid=ee106ddd-f05a-4c32-bc63-95dbbe76c1d1"},"vehicle_type_id":"4","last_reported":1751108910,"current_range_meters":9600,"station_id":"ce4bgjh2rcd13ifvqbf0","pricing_plan_id":"cebpf4jnsgd1na2vs0mg"},{"bike_id":"062e1048-06e8-439c-a6c9-0972cf171b5a","system_id":"levelo_inurba_marseille","lat":43.30155,"lon":5.38084,"is_reserved":false,"is_disabled":false,"rental_uris":{"android":"levelo://app?vid=062e1048-06e8-439c-a6c9-0972cf171b5a","ios":"levelo://app?vid=062e1048-06e8-439c-a6c9-0972cf171b5a"},"vehicle_type_id":"4","last_reported":1751108910,"current_range_meters":9600,"station_id":"ce4bgjp2rcd13ifvqbh0","pricing_plan_id":"cebpf4jnsgd1na2vs0mg"},{"bike_id":"0b83083c-ba72-4320-9e5a-f78a9c88d2cc","system_id":"levelo_inurba_marseille","lat":43.29526,"lon":5.37499,"is_reserved":false,"is_disabled":false,"rental_uris":{"android":"levelo://app?vid=0b83083c-ba72-4320-9e5a-f78a9c88d2cc","ios":"levelo://app?vid=0b83083c-ba72-4320-9e5a-f78a9c88d2cc"},"vehicle_type_id":"4","last_reported":1751108910,"current_range_meters":9600,"station_id":"ce4bgkp2rcd13ifvqbmg","pricing_plan_id":"cebpf4jnsgd1na2vs0mg"},{"bike_id":"ae585140-2ebc-4e9e-9c6f-37fd3c7c898e","system_id":"levelo_inurba_marseille","lat":43.23207,"lon":5.40035,"is_reserved":false,"is_disabled":false,"rental_uris":{"android":"levelo://app?vid=ae585140-2ebc-4e9e-9c6f-37fd3c7c898e","ios":"levelo://app?vid=ae585140-2ebc-4e9e-9c6f-37fd3c7c898e"},"vehicle_type_id":"4","last_reported":1751108910,"current_range_meters":9600,"station_id":"ce4bhn12rcd13ifvqgqg","pricing_plan_id":"cebpf4jnsgd1na2vs0mg"},{"bike_id":"f48fdea1-2a26-4196-80fe-6c19cdd467cf","system_id":"levelo_inurba_marseille","lat":43.31082,"lon":5.42425,"is_reserved":false,"is_disabled":false,"rental_uris":{"android":"levelo://app?vid=f48fdea1-2a26-4196-80fe-6c19cdd467cf","ios":"levelo://app?vid=f48fdea1-2a26-4196-80fe-6c19cdd467cf"},"vehicle_type_id":"4","last_reported":1751108910,"current_range_meters":9600,"station_id":"ce4bhp92rcd13ifvqhag","pricing_plan_id":"cebpf4jnsgd1na2vs0mg"},{"bike_id":"03047c0b-d3f2-4299-b292-04c7da92b080","system_id":"levelo_inurba_marseille","lat":43.21187,"lon":5.35085,"is_reserved":false,"is_disabled":false,"rental_uris":{"android":"levelo://app?vid=03047c0b-d3f2-4299-b292-04c7da92b080","ios":"levelo://app?vid=03047c0b-d3f2-4299-b292-04c7da92b080"},"vehicle_type_id":"4","last_reported":1751108910,"current_range_meters":10000,"station_id":"","pricing_plan_id":"cebpf4jnsgd1na2vs0mg"},{"bike_id":"e1fd1f64-e94e-4282-a202-d3cbe31612b6","system_id":"levelo_inurba_marseille","lat":43.29307,"lon":5.37165,"is_reserved":false,"is_disabled":false,"rental_uris":{"android":"levelo://app?vid=e1fd1f64-e94e-4282-a202-d3cbe31612b6","ios":"levelo://app?vid=e1fd1f64-e94e-4282-a202-d3cbe31612b6"},"vehicle_type_id":"4","last_reported":1751108910,"current_range_meters":10000,"station_id":"ce4bgh92rcd13ifvqb40","pricing_plan_id":"cebpf4jnsgd1na2vs0mg"},{"bike_id":"7c269de9-da2a-4492-b37e-8ac3092077c1","system_id":"levelo_inurba_marseille","lat":43.29229,"lon":5.36056,"is_reserved":false,"is_disabled":false,"rental_uris":{"android":"levelo://app?vid=7c269de9-da2a-4492-b37e-8ac3092077c1","ios":"levelo://app?vid=7c269de9-da2a-4492-b37e-8ac3092077c1"},"vehicle_type_id":"4","last_reported":1751108910,"current_range_meters":10000,"station_id":"ce4bhbh2rcd13ifvqeqg","pricing_plan_id":"cebpf4jnsgd1na2vs0mg"},{"bike_id":"0f5bc191-1435-46d1-8a2c-73e77d43440f","system_id":"levelo_inurba_marseille","lat":43.32538,"lon":5.41425,"is_reserved":false,"is_disabled":false,"rental_uris":{"android":"levelo://app?vid=0f5bc191-1435-46d1-8a2c-73e77d43440f","ios":"levelo://app?vid=0f5bc191-1435-46d1-8a2c-73e77d43440f"},"vehicle_type_id":"4","last_reported":1751108910,"current_range_meters":10000,"station_id":"ce4bhq12rcd13ifvqhhg","pricing_plan_id":"cebpf4jnsgd1na2vs0mg"},{"bike_id":"d641659c-64fc-486a-91a2-3cc8072043e6","system_id":"levelo_inurba_marseille","lat":43.3212,"lon":5.36789,"is_reserved":false,"is_disabled":false,"rental_uris":{"android":"levelo://app?vid=d641659c-64fc-486a-91a2-3cc8072043e6","ios":"levelo://app?vid=d641659c-64fc-486a-91a2-3cc8072043e6"},"vehicle_type_id":"4","last_reported":1751108910,"current_range_meters":10000,"station_id":"ce4bhrh2rcd13ifvqhug","pricing_plan_id":"cebpf4jnsgd1na2vs0mg"},{"bike_id":"f0057ca2-de2d-4464-8902-068dc3677e00","system_id":"levelo_inurba_marseille","lat":43.21181,"lon":5.35085,"is_reserved":false,"is_disabled":false,"rental_uris":{"android":"levelo://app?vid=f0057ca2-de2d-4464-8902-068dc3677e00","ios":"levelo://app?vid=f0057ca2-de2d-4464-8902-068dc3677e00"},"vehicle_type_id":"4","last_reported":1751108910,"current_range_meters":10000,"station_id":"st_cvj6sg6p6f1abm77japg","pricing_plan_id":"cebpf4jnsgd1na2vs0mg"},{"bike_id":"d5448301-c3c5-4b24-a27e-279276ed0ddf","system_id":"levelo_inurba_marseille","lat":43.28269,"lon":5.35077,"is_reserved":false,"is_disabled":false,"rental_uris":{"android":"levelo://app?vid=d5448301-c3c5-4b24-a27e-279276ed0ddf","ios":"levelo://app?vid=d5448301-c3c5-4b24-a27e-279276ed0ddf"},"vehicle_type_id":"4","last_reported":1751108910,"current_range_meters":10800,"station_id":"ce4bhbp2rcd13ifvqerg","pricing_plan_id":"cebpf4jnsgd1na2vs0mg"},{"bike_id":"64e1943f-ca58-492e-b632-184a1df722c8","system_id":"levelo_inurba_marseille","lat":43.28642,"lon":5.35084,"is_reserved":false,"is_disabled":false,"rental_uris":{"android":"levelo://app?vid=64e1943f-ca58-492e-b632-184a1df722c8","ios":"levelo://app?vid=64e1943f-ca58-492e-b632-184a1df722c8"},"vehicle_type_id":"4","last_reported":1751108910,"current_range_meters":10800,"station_id":"ce4bhch2rcd13ifvqeug","pricing_plan_id":"cebpf4jnsgd1na2vs0mg"},{"bike_id":"9d292f0d-bfc0-4079-ac62-767c6fc24ede","system_id":"levelo_inurba_marseille","lat":43.27181,"lon":5.40991,"is_reserved":false,"is_disabled":false,"rental_uris":{"android":"levelo://app?vid=9d292f0d-bfc0-4079-ac62-767c6fc24ede","ios":"levelo://app?vid=9d292f0d-bfc0-4079-ac62-767c6fc24ede"},"vehicle_type_id":"4","last_reported":1751108910,"current_range_meters":10800,"station_id":"ce4bhl12rcd13ifvqgf0","pricing_plan_id":"cebpf4jnsgd1na2vs0mg"},{"bike_id":"338f3914-93ad-4118-9332-ddbcd97658cd","system_id":"levelo_inurba_marseille","lat":43.23139,"lon":5.43693,"is_reserved":false,"is_disabled":false,"rental_uris":{"android":"levelo://app?vid=338f3914-93ad-4118-9332-ddbcd97658cd","ios":"levelo://app?vid=338f3914-93ad-4118-9332-ddbcd97658cd"},"vehicle_type_id":"4","last_reported":1751108910,"current_range_meters":10800,"station_id":"ce4bhmp2rcd13ifvqgog","pricing_plan_id":"cebpf4jnsgd1na2vs0mg"},{"bike_id":"f52e2b9f-6bf2-45dc-95bf-0b457f06e5f3","system_id":"levelo_inurba_marseille","lat":43.33723,"lon":5.39184,"is_reserved":false,"is_disabled":false,"rental_uris":{"android":"levelo://app?vid=f52e2b9f-6bf2-45dc-95bf-0b457f06e5f3","ios":"levelo://app?vid=f52e2b9f-6bf2-45dc-95bf-0b457f06e5f3"},"vehicle_type_id":"4","last_reported":1751108910,"current_range_meters":10800,"station_id":"ce4bhr92rcd13ifvqhsg","pricing_plan_id":"cebpf4jnsgd1na2vs0mg"},{"bike_id":"d5e70777-ad97-4594-91b6-43ede9611b14","system_id":"levelo_inurba_marseille","lat":43.321113,"lon":5.367724,"is_reserved":false,"is_disabled":false,"rental_uris":{"android":"levelo://app?vid=d5e70777-ad97-4594-91b6-43ede9611b14","ios":"levelo://app?vid=d5e70777-ad97-4594-91b6-43ede9611b14"},"vehicle_type_id":"4","last_reported":1751108910,"current_range_meters":10800,"station_id":"ce4bhrh2rcd13ifvqhug","pricing_plan_id":"cebpf4jnsgd1na2vs0mg"},{"bike_id":"1422aae9-4428-4bc5-9f1e-88df6f664dde","system_id":"levelo_inurba_marseille","lat":43.29391,"lon":5.3733,"is_reserved":false,"is_disabled":false,"rental_uris":{"android":"levelo://app?vid=1422aae9-4428-4bc5-9f1e-88df6f664dde","ios":"levelo://app?vid=1422aae9-4428-4bc5-9f1e-88df6f664dde"},"vehicle_type_id":"4","last_reported":1751108910,"current_range_meters":11200,"station_id":"","pricing_plan_id":"cebpf4jnsgd1na2vs0mg"},{"bike_id":"0084fa36-b099-43a6-9ba4-567287b5ca8d","system_id":"levelo_inurba_marseille","lat":43.2319,"lon":5.40011,"is_reserved":false,"is_disabled":false,"rental_uris":{"android":"levelo://app?vid=0084fa36-b099-43a6-9ba4-567287b5ca8d","ios":"levelo://app?vid=0084fa36-b099-43a6-9ba4-567287b5ca8d"},"vehicle_type_id":"4","last_reported":1751108910,"current_range_meters":11200,"station_id":"ce4bhn12rcd13ifvqgqg","pricing_plan_id":"cebpf4jnsgd1na2vs0mg"},{"bike_id":"bbc4a376-bee7-4ad5-a49a-1022d27c1489","system_id":"levelo_inurba_marseille","lat":43.32079,"lon":5.36795,"is_reserved":false,"is_disabled":false,"rental_uris":{"android":"levelo://app?vid=bbc4a376-bee7-4ad5-a49a-1022d27c1489","ios":"levelo://app?vid=bbc4a376-bee7-4ad5-a49a-1022d27c1489"},"vehicle_type_id":"4","last_reported":1751108910,"current_range_meters":11200,"station_id":"ce4bhrh2rcd13ifvqhug","pricing_plan_id":"cebpf4jnsgd1na2vs0mg"},{"bike_id":"abf2c7f6-a48e-49e5-ae77-66b3e2277999","system_id":"levelo_inurba_marseille","lat":43.29346,"lon":5.37108,"is_reserved":false,"is_disabled":false,"rental_uris":{"android":"levelo://app?vid=abf2c7f6-a48e-49e5-ae77-66b3e2277999","ios":"levelo://app?vid=abf2c7f6-a48e-49e5-ae77-66b3e2277999"},"vehicle_type_id":"4","last_reported":1751108910,"current_range_meters":11600,"station_id":"","pricing_plan_id":"cebpf4jnsgd1na2vs0mg"},{"bike_id":"e6ce70f7-9138-485c-a4db-2c9174614cff","system_id":"levelo_inurba_marseille","lat":43.31779,"lon":5.3684,"is_reserved":false,"is_disabled":false,"rental_uris":{"android":"levelo://app?vid=e6ce70f7-9138-485c-a4db-2c9174614cff","ios":"levelo://app?vid=e6ce70f7-9138-485c-a4db-2c9174614cff"},"vehicle_type_id":"4","last_reported":1751108910,"current_range_meters":11600,"station_id":"","pricing_plan_id":"cebpf4jnsgd1na2vs0mg"},{"bike_id":"13726ea4-91b3-4b24-87ce-db653217d50c","system_id":"levelo_inurba_marseille","lat":43.32081,"lon":5.36833,"is_reserved":false,"is_disabled":false,"rental_uris":{"android":"levelo://app?vid=13726ea4-91b3-4b24-87ce-db653217d50c","ios":"levelo://app?vid=13726ea4-91b3-4b24-87ce-db653217d50c"},"vehicle_type_id":"4","last_reported":1751108910,"current_range_meters":11600,"station_id":"","pricing_plan_id":"cebpf4jnsgd1na2vs0mg"},{"bike_id":"0723844f-77ff-48f2-abea-02587fb687c6","system_id":"levelo_inurba_marseille","lat":43.29379,"lon":5.37849,"is_reserved":false,"is_disabled":false,"rental_uris":{"android":"levelo://app?vid=0723844f-77ff-48f2-abea-02587fb687c6","ios":"levelo://app?vid=0723844f-77ff-48f2-abea-02587fb687c6"},"vehicle_type_id":"4","last_reported":1751108910,"current_range_meters":11600,"station_id":"ce4bgjh2rcd13ifvqbf0","pricing_plan_id":"cebpf4jnsgd1na2vs0mg"},{"bike_id":"8f9248f5-5c15-4675-92d9-aa0121c02b7c","system_id":"levelo_inurba_marseille","lat":43.23151,"lon":5.43717,"is_reserved":false,"is_disabled":false,"rental_uris":{"android":"levelo://app?vid=8f9248f5-5c15-4675-92d9-aa0121c02b7c","ios":"levelo://app?vid=8f9248f5-5c15-4675-92d9-aa0121c02b7c"},"vehicle_type_id":"4","last_reported":1751108910,"current_range_meters":11600,"station_id":"ce4bhmp2rcd13ifvqgog","pricing_plan_id":"cebpf4jnsgd1na2vs0mg"},{"bike_id":"60f668db-5eea-4126-95a5-14e0c783bae5","system_id":"levelo_inurba_marseille","lat":43.281673,"lon":5.40458,"is_reserved":false,"is_disabled":false,"rental_uris":{"android":"levelo://app?vid=60f668db-5eea-4126-95a5-14e0c783bae5","ios":"levelo://app?vid=60f668db-5eea-4126-95a5-14e0c783bae5"},"vehicle_type_id":"4","last_reported":1751108910,"current_range_meters":11600,"station_id":"ce4bho92rcd13ifvqh4g","pricing_plan_id":"cebpf4jnsgd1na2vs0mg"},{"bike_id":"a2588648-26dc-4121-bee2-c283e3f6b0c1","system_id":"levelo_inurba_marseille","lat":43.34147,"lon":5.40919,"is_reserved":false,"is_disabled":false,"rental_uris":{"android":"levelo://app?vid=a2588648-26dc-4121-bee2-c283e3f6b0c1","ios":"levelo://app?vid=a2588648-26dc-4121-bee2-c283e3f6b0c1"},"vehicle_type_id":"4","last_reported":1751108910,"current_range_meters":11600,"station_id":"ce4bhqh2rcd13ifvqhlg","pricing_plan_id":"cebpf4jnsgd1na2vs0mg"},{"bike_id":"b266b36d-c328-4691-8298-fd36d6e08d51","system_id":"levelo_inurba_marseille","lat":43.22934,"lon":5.35376,"is_reserved":false,"is_disabled":false,"rental_uris":{"android":"levelo://app?vid=b266b36d-c328-4691-8298-fd36d6e08d51","ios":"levelo://app?vid=b266b36d-c328-4691-8298-fd36d6e08d51"},"vehicle_type_id":"4","last_reported":1751108910,"current_range_meters":11600,"station_id":"cpo3532slgdg3j2ikp40","pricing_plan_id":"cebpf4jnsgd1na2vs0mg"},{"bike_id":"8fcf59d2-6388-4c16-b9ec-42c2ac2976e5","system_id":"levelo_inurba_marseille","lat":43.31969,"lon":5.40955,"is_reserved":false,"is_disabled":false,"rental_uris":{"android":"levelo://app?vid=8fcf59d2-6388-4c16-b9ec-42c2ac2976e5","ios":"levelo://app?vid=8fcf59d2-6388-4c16-b9ec-42c2ac2976e5"},"vehicle_type_id":"4","last_reported":1751108910,"current_range_meters":12000,"station_id":"","pricing_plan_id":"cebpf4jnsgd1na2vs0mg"},{"bike_id":"9873975f-762c-48ed-907f-c923b446b518","system_id":"levelo_inurba_marseille","lat":43.29625,"lon":5.3626,"is_reserved":false,"is_disabled":false,"rental_uris":{"android":"levelo://app?vid=9873975f-762c-48ed-907f-c923b446b518","ios":"levelo://app?vid=9873975f-762c-48ed-907f-c923b446b518"},"vehicle_type_id":"4","last_reported":1751108910,"current_range_meters":12000,"station_id":"","pricing_plan_id":"cebpf4jnsgd1na2vs0mg"},{"bike_id":"b2453cb9-fe18-4236-bb02-850c84f5302f","system_id":"levelo_inurba_marseille","lat":43.28665,"lon":5.36347,"is_reserved":false,"is_disabled":false,"rental_uris":{"android":"levelo://app?vid=b2453cb9-fe18-4236-bb02-850c84f5302f","ios":"levelo://app?vid=b2453cb9-fe18-4236-bb02-850c84f5302f"},"vehicle_type_id":"4","last_reported":1751108910,"current_range_meters":12000,"station_id":"ce4bhah2rcd13ifvqej0","pricing_plan_id":"cebpf4jnsgd1na2vs0mg"},{"bike_id":"0ac37032-b1f2-43a6-a6a4-6ef29f12da66","system_id":"levelo_inurba_marseille","lat":43.25087,"lon":5.39534,"is_reserved":false,"is_disabled":false,"rental_uris":{"android":"levelo://app?vid=0ac37032-b1f2-43a6-a6a4-6ef29f12da66","ios":"levelo://app?vid=0ac37032-b1f2-43a6-a6a4-6ef29f12da66"},"vehicle_type_id":"4","last_reported":1751108910,"current_range_meters":12000,"station_id":"ce4bhm12rcd13ifvqgkg","pricing_plan_id":"cebpf4jnsgd1na2vs0mg"},{"bike_id":"efc79048-35fc-467f-bfeb-67eb407043c3","system_id":"levelo_inurba_marseille","lat":43.23183,"lon":5.39986,"is_reserved":false,"is_disabled":false,"rental_uris":{"android":"levelo://app?vid=efc79048-35fc-467f-bfeb-67eb407043c3","ios":"levelo://app?vid=efc79048-35fc-467f-bfeb-67eb407043c3"},"vehicle_type_id":"4","last_reported":1751108910,"current_range_meters":12000,"station_id":"ce4bhn12rcd13ifvqgqg","pricing_plan_id":"cebpf4jnsgd1na2vs0mg"},{"bike_id":"a4bd29ca-f4b9-4a98-ad42-e38dc2d3b360","system_id":"levelo_inurba_marseille","lat":43.32661,"lon":5.40996,"is_reserved":false,"is_disabled":false,"rental_uris":{"android":"levelo://app?vid=a4bd29ca-f4b9-4a98-ad42-e38dc2d3b360","ios":"levelo://app?vid=a4bd29ca-f4b9-4a98-ad42-e38dc2d3b360"},"vehicle_type_id":"4","last_reported":1751108910,"current_range_meters":12000,"station_id":"ce4bhpp2rcd13ifvqhgg","pricing_plan_id":"cebpf4jnsgd1na2vs0mg"},{"bike_id":"8a50aac5-39f1-4536-bea7-43efb3a7f1fe","system_id":"levelo_inurba_marseille","lat":43.21754,"lon":5.34606,"is_reserved":false,"is_disabled":false,"rental_uris":{"android":"levelo://app?vid=8a50aac5-39f1-4536-bea7-43efb3a7f1fe","ios":"levelo://app?vid=8a50aac5-39f1-4536-bea7-43efb3a7f1fe"},"vehicle_type_id":"4","last_reported":1751108910,"current_range_meters":12000,"station_id":"st_cvj6r9ubvosntc0bgbag","pricing_plan_id":"cebpf4jnsgd1na2vs0mg"},{"bike_id":"44b677c8-76ed-4eac-8888-58151f9d5d6e","system_id":"levelo_inurba_marseille","lat":43.319543,"lon":5.367531,"is_reserved":false,"is_disabled":false,"rental_uris":{"android":"levelo://app?vid=44b677c8-76ed-4eac-8888-58151f9d5d6e","ios":"levelo://app?vid=44b677c8-76ed-4eac-8888-58151f9d5d6e"},"vehicle_type_id":"4","last_reported":1751108910,"current_range_meters":12400,"station_id":"","pricing_plan_id":"cebpf4jnsgd1na2vs0mg"},{"bike_id":"f1953887-1b02-447a-bc77-4e2cfee8acd9","system_id":"levelo_inurba_marseille","lat":43.27907,"lon":5.3957,"is_reserved":false,"is_disabled":false,"rental_uris":{"android":"levelo://app?vid=f1953887-1b02-447a-bc77-4e2cfee8acd9","ios":"levelo://app?vid=f1953887-1b02-447a-bc77-4e2cfee8acd9"},"vehicle_type_id":"4","last_reported":1751108910,"current_range_meters":12400,"station_id":"ce4bhf92rcd13ifvqf40","pricing_plan_id":"cebpf4jnsgd1na2vs0mg"},{"bike_id":"2cbd26d7-8ccb-4bca-b892-7ed090bc3322","system_id":"levelo_inurba_marseille","lat":43.23182,"lon":5.35546,"is_reserved":false,"is_disabled":false,"rental_uris":{"android":"levelo://app?vid=2cbd26d7-8ccb-4bca-b892-7ed090bc3322","ios":"levelo://app?vid=2cbd26d7-8ccb-4bca-b892-7ed090bc3322"},"vehicle_type_id":"4","last_reported":1751108910,"current_range_meters":12400,"station_id":"ce4bhu92rcd13ifvqi70","pricing_plan_id":"cebpf4jnsgd1na2vs0mg"},{"bike_id":"2b902ddb-2c8c-48f9-932c-c7dd3cad3b78","system_id":"levelo_inurba_marseille","lat":43.24167,"lon":5.36392,"is_reserved":false,"is_disabled":false,"rental_uris":{"android":"levelo://app?vid=2b902ddb-2c8c-48f9-932c-c7dd3cad3b78","ios":"levelo://app?vid=2b902ddb-2c8c-48f9-932c-c7dd3cad3b78"},"vehicle_type_id":"4","last_reported":1751108910,"current_range_meters":12400,"station_id":"cpo36qri1sfpv3e86is0","pricing_plan_id":"cebpf4jnsgd1na2vs0mg"},{"bike_id":"0635fae1-172c-4e34-9bfd-d64c80c60a94","system_id":"levelo_inurba_marseille","lat":43.30212,"lon":5.39465,"is_reserved":false,"is_disabled":false,"rental_uris":{"android":"levelo://app?vid=0635fae1-172c-4e34-9bfd-d64c80c60a94","ios":"levelo://app?vid=0635fae1-172c-4e34-9bfd-d64c80c60a94"},"vehicle_type_id":"4","last_reported":1751108910,"current_range_meters":12800,"station_id":"ce4bh0p2rcd13ifvqd70","pricing_plan_id":"cebpf4jnsgd1na2vs0mg"},{"bike_id":"de50c5e1-d260-4e2a-9d87-29d0d078654e","system_id":"levelo_inurba_marseille","lat":43.23195,"lon":5.35548,"is_reserved":false,"is_disabled":false,"rental_uris":{"android":"levelo://app?vid=de50c5e1-d260-4e2a-9d87-29d0d078654e","ios":"levelo://app?vid=de50c5e1-d260-4e2a-9d87-29d0d078654e"},"vehicle_type_id":"4","last_reported":1751108910,"current_range_meters":12800,"station_id":"ce4bhu92rcd13ifvqi70","pricing_plan_id":"cebpf4jnsgd1na2vs0mg"},{"bike_id":"8a75cf9d-86a5-477d-8b20-1d4883c966fc","system_id":"levelo_inurba_marseille","lat":43.30898,"lon":5.37188,"is_reserved":false,"is_disabled":false,"rental_uris":{"android":"levelo://app?vid=8a75cf9d-86a5-477d-8b20-1d4883c966fc","ios":"levelo://app?vid=8a75cf9d-86a5-477d-8b20-1d4883c966fc"},"vehicle_type_id":"4","last_reported":1751108910,"current_range_meters":13600,"station_id":"ce4bguh2rcd13ifvqckg","pricing_plan_id":"cebpf4jnsgd1na2vs0mg"},{"bike_id":"9384e764-5cc9-4088-9b71-a780ab767645","system_id":"levelo_inurba_marseille","lat":43.26036,"lon":5.37544,"is_reserved":false,"is_disabled":false,"rental_uris":{"android":"levelo://app?vid=9384e764-5cc9-4088-9b71-a780ab767645","ios":"levelo://app?vid=9384e764-5cc9-4088-9b71-a780ab767645"},"vehicle_type_id":"4","last_reported":1751108910,"current_range_meters":13600,"station_id":"ce4bhgh2rcd13ifvqfa0","pricing_plan_id":"cebpf4jnsgd1na2vs0mg"},{"bike_id":"9c63e9b2-2323-48f2-93ab-713cdd6ccb8e","system_id":"levelo_inurba_marseille","lat":43.32028,"lon":5.41589,"is_reserved":false,"is_disabled":false,"rental_uris":{"android":"levelo://app?vid=9c63e9b2-2323-48f2-93ab-713cdd6ccb8e","ios":"levelo://app?vid=9c63e9b2-2323-48f2-93ab-713cdd6ccb8e"},"vehicle_type_id":"4","last_reported":1751108910,"current_range_meters":13600,"station_id":"ce4bhq92rcd13ifvqhkg","pricing_plan_id":"cebpf4jnsgd1na2vs0mg"},{"bike_id":"db6aaebb-75a1-4c34-bf9a-52b3d4679d75","system_id":"levelo_inurba_marseille","lat":43.21753,"lon":5.34601,"is_reserved":false,"is_disabled":false,"rental_uris":{"android":"levelo://app?vid=db6aaebb-75a1-4c34-bf9a-52b3d4679d75","ios":"levelo://app?vid=db6aaebb-75a1-4c34-bf9a-52b3d4679d75"},"vehicle_type_id":"4","last_reported":1751108910,"current_range_meters":13600,"station_id":"st_cvj6r9ubvosntc0bgbag","pricing_plan_id":"cebpf4jnsgd1na2vs0mg"},{"bike_id":"12c7fc9f-7c7b-4185-9b2f-badd0c17e36b","system_id":"levelo_inurba_marseille","lat":43.24745,"lon":5.37444,"is_reserved":false,"is_disabled":false,"rental_uris":{"android":"levelo://app?vid=12c7fc9f-7c7b-4185-9b2f-badd0c17e36b","ios":"levelo://app?vid=12c7fc9f-7c7b-4185-9b2f-badd0c17e36b"},"vehicle_type_id":"4","last_reported":1751108910,"current_range_meters":14000,"station_id":"","pricing_plan_id":"cebpf4jnsgd1na2vs0mg"},{"bike_id":"721165c1-ef6f-40cc-8d33-af3a7999864b","system_id":"levelo_inurba_marseille","lat":43.3265,"lon":5.37878,"is_reserved":false,"is_disabled":false,"rental_uris":{"android":"levelo://app?vid=721165c1-ef6f-40cc-8d33-af3a7999864b","ios":"levelo://app?vid=721165c1-ef6f-40cc-8d33-af3a7999864b"},"vehicle_type_id":"4","last_reported":1751108910,"current_range_meters":14000,"station_id":"","pricing_plan_id":"cebpf4jnsgd1na2vs0mg"},{"bike_id":"a5730775-b517-456b-ace7-dd850b739687","system_id":"levelo_inurba_marseille","lat":43.30151,"lon":5.38087,"is_reserved":false,"is_disabled":false,"rental_uris":{"android":"levelo://app?vid=a5730775-b517-456b-ace7-dd850b739687","ios":"levelo://app?vid=a5730775-b517-456b-ace7-dd850b739687"},"vehicle_type_id":"4","last_reported":1751108910,"current_range_meters":14000,"station_id":"ce4bgjp2rcd13ifvqbh0","pricing_plan_id":"cebpf4jnsgd1na2vs0mg"},{"bike_id":"5a4b4170-b09a-4dea-8a78-e058592c0b8d","system_id":"levelo_inurba_marseille","lat":43.30092,"lon":5.39083,"is_reserved":false,"is_disabled":false,"rental_uris":{"android":"levelo://app?vid=5a4b4170-b09a-4dea-8a78-e058592c0b8d","ios":"levelo://app?vid=5a4b4170-b09a-4dea-8a78-e058592c0b8d"},"vehicle_type_id":"4","last_reported":1751108910,"current_range_meters":14000,"station_id":"ce4bh192rcd13ifvqdb0","pricing_plan_id":"cebpf4jnsgd1na2vs0mg"},{"bike_id":"873ce198-d36d-4815-8778-b72bd2ca0116","system_id":"levelo_inurba_marseille","lat":43.32115,"lon":5.36778,"is_reserved":false,"is_disabled":false,"rental_uris":{"android":"levelo://app?vid=873ce198-d36d-4815-8778-b72bd2ca0116","ios":"levelo://app?vid=873ce198-d36d-4815-8778-b72bd2ca0116"},"vehicle_type_id":"4","last_reported":1751108910,"current_range_meters":14000,"station_id":"ce4bhrh2rcd13ifvqhug","pricing_plan_id":"cebpf4jnsgd1na2vs0mg"},{"bike_id":"a7883090-0e10-4075-944b-a3cca54bc544","system_id":"levelo_inurba_marseille","lat":43.22522,"lon":5.34767,"is_reserved":false,"is_disabled":false,"rental_uris":{"android":"levelo://app?vid=a7883090-0e10-4075-944b-a3cca54bc544","ios":"levelo://app?vid=a7883090-0e10-4075-944b-a3cca54bc544"},"vehicle_type_id":"4","last_reported":1751108910,"current_range_meters":14000,"station_id":"st_cvj5dfep6f1abm77gieg","pricing_plan_id":"cebpf4jnsgd1na2vs0mg"},{"bike_id":"7a63f1f0-ab92-4431-90a0-628ae7550c2d","system_id":"levelo_inurba_marseille","lat":43.21187,"lon":5.35068,"is_reserved":false,"is_disabled":false,"rental_uris":{"android":"levelo://app?vid=7a63f1f0-ab92-4431-90a0-628ae7550c2d","ios":"levelo://app?vid=7a63f1f0-ab92-4431-90a0-628ae7550c2d"},"vehicle_type_id":"4","last_reported":1751108910,"current_range_meters":14000,"station_id":"st_cvj6sg6p6f1abm77japg","pricing_plan_id":"cebpf4jnsgd1na2vs0mg"},{"bike_id":"a142c6a0-186c-4d0c-abd3-28fc582eacd3","system_id":"levelo_inurba_marseille","lat":43.28413,"lon":5.37505,"is_reserved":false,"is_disabled":false,"rental_uris":{"android":"levelo://app?vid=a142c6a0-186c-4d0c-abd3-28fc582eacd3","ios":"levelo://app?vid=a142c6a0-186c-4d0c-abd3-28fc582eacd3"},"vehicle_type_id":"4","last_reported":1751108910,"current_range_meters":14400,"station_id":"ce4bh412rcd13ifvqds0","pricing_plan_id":"cebpf4jnsgd1na2vs0mg"},{"bike_id":"cf984e9c-fafd-4539-8384-f53854da8be6","system_id":"levelo_inurba_marseille","lat":43.27373,"lon":5.36261,"is_reserved":false,"is_disabled":false,"rental_uris":{"android":"levelo://app?vid=cf984e9c-fafd-4539-8384-f53854da8be6","ios":"levelo://app?vid=cf984e9c-fafd-4539-8384-f53854da8be6"},"vehicle_type_id":"4","last_reported":1751108910,"current_range_meters":14400,"station_id":"ce4bhbh2rcd13ifvqeo0","pricing_plan_id":"cebpf4jnsgd1na2vs0mg"},{"bike_id":"93fb9e8a-2df2-41a2-afce-e0f72f6b7c05","system_id":"levelo_inurba_marseille","lat":43.23189,"lon":5.39986,"is_reserved":false,"is_disabled":false,"rental_uris":{"android":"levelo://app?vid=93fb9e8a-2df2-41a2-afce-e0f72f6b7c05","ios":"levelo://app?vid=93fb9e8a-2df2-41a2-afce-e0f72f6b7c05"},"vehicle_type_id":"4","last_reported":1751108910,"current_range_meters":14400,"station_id":"ce4bhn12rcd13ifvqgqg","pricing_plan_id":"cebpf4jnsgd1na2vs0mg"},{"bike_id":"98a79256-0a17-43c5-834a-103ec9b098c3","system_id":"levelo_inurba_marseille","lat":43.30157,"lon":5.38096,"is_reserved":false,"is_disabled":false,"rental_uris":{"android":"levelo://app?vid=98a79256-0a17-43c5-834a-103ec9b098c3","ios":"levelo://app?vid=98a79256-0a17-43c5-834a-103ec9b098c3"},"vehicle_type_id":"4","last_reported":1751108910,"current_range_meters":14800,"station_id":"ce4bgjp2rcd13ifvqbh0","pricing_plan_id":"cebpf4jnsgd1na2vs0mg"},{"bike_id":"86798a82-eef3-4b99-9637-fbe9f0061f53","system_id":"levelo_inurba_marseille","lat":43.28706,"lon":5.37381,"is_reserved":false,"is_disabled":false,"rental_uris":{"android":"levelo://app?vid=86798a82-eef3-4b99-9637-fbe9f0061f53","ios":"levelo://app?vid=86798a82-eef3-4b99-9637-fbe9f0061f53"},"vehicle_type_id":"4","last_reported":1751108910,"current_range_meters":14800,"station_id":"ce4bh3p2rcd13ifvqdq0","pricing_plan_id":"cebpf4jnsgd1na2vs0mg"},{"bike_id":"14e8ef37-e834-4d76-9946-e98f7a083a2f","system_id":"levelo_inurba_marseille","lat":43.21196,"lon":5.35099,"is_reserved":false,"is_disabled":false,"rental_uris":{"android":"levelo://app?vid=14e8ef37-e834-4d76-9946-e98f7a083a2f","ios":"levelo://app?vid=14e8ef37-e834-4d76-9946-e98f7a083a2f"},"vehicle_type_id":"4","last_reported":1751108910,"current_range_meters":14800,"station_id":"st_cvj6sg6p6f1abm77japg","pricing_plan_id":"cebpf4jnsgd1na2vs0mg"},{"bike_id":"465d715d-c466-435a-83c2-03d320454a0a","system_id":"levelo_inurba_marseille","lat":43.284109,"lon":5.349772,"is_reserved":false,"is_disabled":false,"rental_uris":{"android":"levelo://app?vid=465d715d-c466-435a-83c2-03d320454a0a","ios":"levelo://app?vid=465d715d-c466-435a-83c2-03d320454a0a"},"vehicle_type_id":"4","last_reported":1751108910,"current_range_meters":15200,"station_id":"ce4bhbh2rcd13ifvqepg","pricing_plan_id":"cebpf4jnsgd1na2vs0mg"},{"bike_id":"468a98c5-5dbc-4755-b2b4-222fef0faa0b","system_id":"levelo_inurba_marseille","lat":43.29892,"lon":5.43661,"is_reserved":false,"is_disabled":false,"rental_uris":{"android":"levelo://app?vid=468a98c5-5dbc-4755-b2b4-222fef0faa0b","ios":"levelo://app?vid=468a98c5-5dbc-4755-b2b4-222fef0faa0b"},"vehicle_type_id":"4","last_reported":1751108910,"current_range_meters":15200,"station_id":"ce4bhpp2rcd13ifvqhfg","pricing_plan_id":"cebpf4jnsgd1na2vs0mg"},{"bike_id":"6af79a00-84aa-4908-a347-34425e08c383","system_id":"levelo_inurba_marseille","lat":43.30286,"lon":5.37622,"is_reserved":false,"is_disabled":false,"rental_uris":{"android":"levelo://app?vid=6af79a00-84aa-4908-a347-34425e08c383","ios":"levelo://app?vid=6af79a00-84aa-4908-a347-34425e08c383"},"vehicle_type_id":"4","last_reported":1751108910,"current_range_meters":16000,"station_id":"","pricing_plan_id":"cebpf4jnsgd1na2vs0mg"},{"bike_id":"d3f7a3ac-4e24-4bf6-9298-0ce215481106","system_id":"levelo_inurba_marseille","lat":43.29377,"lon":5.3785,"is_reserved":false,"is_disabled":false,"rental_uris":{"android":"levelo://app?vid=d3f7a3ac-4e24-4bf6-9298-0ce215481106","ios":"levelo://app?vid=d3f7a3ac-4e24-4bf6-9298-0ce215481106"},"vehicle_type_id":"4","last_reported":1751108910,"current_range_meters":16000,"station_id":"ce4bgjh2rcd13ifvqbf0","pricing_plan_id":"cebpf4jnsgd1na2vs0mg"},{"bike_id":"0c803610-f6e9-41d4-936d-0b433fa62796","system_id":"levelo_inurba_marseille","lat":43.29734,"lon":5.37693,"is_reserved":false,"is_disabled":false,"rental_uris":{"android":"levelo://app?vid=0c803610-f6e9-41d4-936d-0b433fa62796","ios":"levelo://app?vid=0c803610-f6e9-41d4-936d-0b433fa62796"},"vehicle_type_id":"4","last_reported":1751108910,"current_range_meters":16000,"station_id":"ce4bgkh2rcd13ifvqbl0","pricing_plan_id":"cebpf4jnsgd1na2vs0mg"},{"bike_id":"03e0de36-bf27-4790-823b-078c473638df","system_id":"levelo_inurba_marseille","lat":43.295894,"lon":5.367384,"is_reserved":false,"is_disabled":false,"rental_uris":{"android":"levelo://app?vid=03e0de36-bf27-4790-823b-078c473638df","ios":"levelo://app?vid=03e0de36-bf27-4790-823b-078c473638df"},"vehicle_type_id":"4","last_reported":1751108910,"current_range_meters":16000,"station_id":"ce4bgph2rcd13ifvqc2g","pricing_plan_id":"cebpf4jnsgd1na2vs0mg"},{"bike_id":"0ca717a1-45d0-467a-befd-9d85a9b7f044","system_id":"levelo_inurba_marseille","lat":43.30311,"lon":5.40109,"is_reserved":false,"is_disabled":false,"rental_uris":{"android":"levelo://app?vid=0ca717a1-45d0-467a-befd-9d85a9b7f044","ios":"levelo://app?vid=0ca717a1-45d0-467a-befd-9d85a9b7f044"},"vehicle_type_id":"4","last_reported":1751108910,"current_range_meters":16000,"station_id":"ce4bgvh2rcd13ifvqcs0","pricing_plan_id":"cebpf4jnsgd1na2vs0mg"},{"bike_id":"802b2630-8376-4119-a81f-42e77fef6b85","system_id":"levelo_inurba_marseille","lat":43.28426,"lon":5.35017,"is_reserved":false,"is_disabled":false,"rental_uris":{"android":"levelo://app?vid=802b2630-8376-4119-a81f-42e77fef6b85","ios":"levelo://app?vid=802b2630-8376-4119-a81f-42e77fef6b85"},"vehicle_type_id":"4","last_reported":1751108910,"current_range_meters":16000,"station_id":"ce4bhbh2rcd13ifvqepg","pricing_plan_id":"cebpf4jnsgd1na2vs0mg"},{"bike_id":"daf45b22-cd27-4ccb-b47b-ee4b1d2a54cd","system_id":"levelo_inurba_marseille","lat":43.22939,"lon":5.35381,"is_reserved":false,"is_disabled":false,"rental_uris":{"android":"levelo://app?vid=daf45b22-cd27-4ccb-b47b-ee4b1d2a54cd","ios":"levelo://app?vid=daf45b22-cd27-4ccb-b47b-ee4b1d2a54cd"},"vehicle_type_id":"4","last_reported":1751108910,"current_range_meters":16000,"station_id":"cpo3532slgdg3j2ikp40","pricing_plan_id":"cebpf4jnsgd1na2vs0mg"},{"bike_id":"b7b58613-cdc6-4750-8137-2d44544d5e13","system_id":"levelo_inurba_marseille","lat":43.314752,"lon":5.369326,"is_reserved":false,"is_disabled":false,"rental_uris":{"android":"levelo://app?vid=b7b58613-cdc6-4750-8137-2d44544d5e13","ios":"levelo://app?vid=b7b58613-cdc6-4750-8137-2d44544d5e13"},"vehicle_type_id":"4","last_reported":1751108910,"current_range_meters":16400,"station_id":"","pricing_plan_id":"cebpf4jnsgd1na2vs0mg"},{"bike_id":"ad257cb2-80ab-48da-982d-b7b72a3e1b91","system_id":"levelo_inurba_marseille","lat":43.29376,"lon":5.37846,"is_reserved":false,"is_disabled":false,"rental_uris":{"android":"levelo://app?vid=ad257cb2-80ab-48da-982d-b7b72a3e1b91","ios":"levelo://app?vid=ad257cb2-80ab-48da-982d-b7b72a3e1b91"},"vehicle_type_id":"4","last_reported":1751108910,"current_range_meters":16400,"station_id":"ce4bgjh2rcd13ifvqbf0","pricing_plan_id":"cebpf4jnsgd1na2vs0mg"},{"bike_id":"63526588-d8d7-4a1d-b9a5-69c6ed3bb5e4","system_id":"levelo_inurba_marseille","lat":43.28409,"lon":5.34976,"is_reserved":false,"is_disabled":false,"rental_uris":{"android":"levelo://app?vid=63526588-d8d7-4a1d-b9a5-69c6ed3bb5e4","ios":"levelo://app?vid=63526588-d8d7-4a1d-b9a5-69c6ed3bb5e4"},"vehicle_type_id":"4","last_reported":1751108910,"current_range_meters":16400,"station_id":"ce4bhbh2rcd13ifvqepg","pricing_plan_id":"cebpf4jnsgd1na2vs0mg"},{"bike_id":"7025df18-330e-42a4-bc8d-a4cf9b4b300e","system_id":"levelo_inurba_marseille","lat":43.24801,"lon":5.37487,"is_reserved":false,"is_disabled":false,"rental_uris":{"android":"levelo://app?vid=7025df18-330e-42a4-bc8d-a4cf9b4b300e","ios":"levelo://app?vid=7025df18-330e-42a4-bc8d-a4cf9b4b300e"},"vehicle_type_id":"4","last_reported":1751108910,"current_range_meters":16400,"station_id":"ce4bhgh2rcd13ifvqfb0","pricing_plan_id":"cebpf4jnsgd1na2vs0mg"},{"bike_id":"bf525adf-9539-4b47-9dea-a6c9ac31b7a5","system_id":"levelo_inurba_marseille","lat":43.22937,"lon":5.35387,"is_reserved":false,"is_disabled":false,"rental_uris":{"android":"levelo://app?vid=bf525adf-9539-4b47-9dea-a6c9ac31b7a5","ios":"levelo://app?vid=bf525adf-9539-4b47-9dea-a6c9ac31b7a5"},"vehicle_type_id":"4","last_reported":1751108910,"current_range_meters":16400,"station_id":"cpo3532slgdg3j2ikp40","pricing_plan_id":"cebpf4jnsgd1na2vs0mg"},{"bike_id":"2a9a5366-8dad-42f1-bee6-ffb042c54776","system_id":"levelo_inurba_marseille","lat":43.21179,"lon":5.35052,"is_reserved":false,"is_disabled":false,"rental_uris":{"android":"levelo://app?vid=2a9a5366-8dad-42f1-bee6-ffb042c54776","ios":"levelo://app?vid=2a9a5366-8dad-42f1-bee6-ffb042c54776"},"vehicle_type_id":"4","last_reported":1751108910,"current_range_meters":16400,"station_id":"st_cvj6sg6p6f1abm77japg","pricing_plan_id":"cebpf4jnsgd1na2vs0mg"},{"bike_id":"e5e9e78b-4730-43b1-8651-5c571c638bbb","system_id":"levelo_inurba_marseille","lat":43.21192,"lon":5.35109,"is_reserved":false,"is_disabled":false,"rental_uris":{"android":"levelo://app?vid=e5e9e78b-4730-43b1-8651-5c571c638bbb","ios":"levelo://app?vid=e5e9e78b-4730-43b1-8651-5c571c638bbb"},"vehicle_type_id":"4","last_reported":1751108910,"current_range_meters":16400,"station_id":"st_cvj6sg6p6f1abm77japg","pricing_plan_id":"cebpf4jnsgd1na2vs0mg"},{"bike_id":"6529dc0b-ee3c-4a8e-8481-bb029b2cbe5f","system_id":"levelo_inurba_marseille","lat":43.293677,"lon":5.37842,"is_reserved":false,"is_disabled":false,"rental_uris":{"android":"levelo://app?vid=6529dc0b-ee3c-4a8e-8481-bb029b2cbe5f","ios":"levelo://app?vid=6529dc0b-ee3c-4a8e-8481-bb029b2cbe5f"},"vehicle_type_id":"4","last_reported":1751108910,"current_range_meters":16800,"station_id":"ce4bgjh2rcd13ifvqbf0","pricing_plan_id":"cebpf4jnsgd1na2vs0mg"},{"bike_id":"99198872-be44-4a0c-a2b4-6b7878ce386e","system_id":"levelo_inurba_marseille","lat":43.30897,"lon":5.3719,"is_reserved":false,"is_disabled":false,"rental_uris":{"android":"levelo://app?vid=99198872-be44-4a0c-a2b4-6b7878ce386e","ios":"levelo://app?vid=99198872-be44-4a0c-a2b4-6b7878ce386e"},"vehicle_type_id":"4","last_reported":1751108910,"current_range_meters":16800,"station_id":"ce4bguh2rcd13ifvqckg","pricing_plan_id":"cebpf4jnsgd1na2vs0mg"},{"bike_id":"fd55bd4e-8656-4ff8-91a0-e317185801a6","system_id":"levelo_inurba_marseille","lat":43.30467,"lon":5.37904,"is_reserved":false,"is_disabled":false,"rental_uris":{"android":"levelo://app?vid=fd55bd4e-8656-4ff8-91a0-e317185801a6","ios":"levelo://app?vid=fd55bd4e-8656-4ff8-91a0-e317185801a6"},"vehicle_type_id":"4","last_reported":1751108910,"current_range_meters":16800,"station_id":"ce4bgup2rcd13ifvqcn0","pricing_plan_id":"cebpf4jnsgd1na2vs0mg"},{"bike_id":"060d11ba-8fa0-4856-a4c4-3f7d9e7be168","system_id":"levelo_inurba_marseille","lat":43.284812,"lon":5.384293,"is_reserved":false,"is_disabled":false,"rental_uris":{"android":"levelo://app?vid=060d11ba-8fa0-4856-a4c4-3f7d9e7be168","ios":"levelo://app?vid=060d11ba-8fa0-4856-a4c4-3f7d9e7be168"},"vehicle_type_id":"4","last_reported":1751108910,"current_range_meters":16800,"station_id":"ce4bh512rcd13ifvqe3g","pricing_plan_id":"cebpf4jnsgd1na2vs0mg"},{"bike_id":"641e6289-6811-41fe-a848-4459481912e3","system_id":"levelo_inurba_marseille","lat":43.279053,"lon":5.395774,"is_reserved":false,"is_disabled":false,"rental_uris":{"android":"levelo://app?vid=641e6289-6811-41fe-a848-4459481912e3","ios":"levelo://app?vid=641e6289-6811-41fe-a848-4459481912e3"},"vehicle_type_id":"4","last_reported":1751108910,"current_range_meters":16800,"station_id":"ce4bhf92rcd13ifvqf40","pricing_plan_id":"cebpf4jnsgd1na2vs0mg"},{"bike_id":"f810be2a-3c00-446f-9ba1-1f3840ce349d","system_id":"levelo_inurba_marseille","lat":43.32103,"lon":5.36783,"is_reserved":false,"is_disabled":false,"rental_uris":{"android":"levelo://app?vid=f810be2a-3c00-446f-9ba1-1f3840ce349d","ios":"levelo://app?vid=f810be2a-3c00-446f-9ba1-1f3840ce349d"},"vehicle_type_id":"4","last_reported":1751108910,"current_range_meters":16800,"station_id":"ce4bhrh2rcd13ifvqhug","pricing_plan_id":"cebpf4jnsgd1na2vs0mg"},{"bike_id":"c0a2de0a-20e3-4e62-848e-f0dbd6b2e588","system_id":"levelo_inurba_marseille","lat":43.2251,"lon":5.34793,"is_reserved":false,"is_disabled":false,"rental_uris":{"android":"levelo://app?vid=c0a2de0a-20e3-4e62-848e-f0dbd6b2e588","ios":"levelo://app?vid=c0a2de0a-20e3-4e62-848e-f0dbd6b2e588"},"vehicle_type_id":"4","last_reported":1751108910,"current_range_meters":16800,"station_id":"st_cvj5dfep6f1abm77gieg","pricing_plan_id":"cebpf4jnsgd1na2vs0mg"},{"bike_id":"6f4919b0-d9c4-4c52-b108-ac1dd2e153c7","system_id":"levelo_inurba_marseille","lat":43.312717,"lon":5.36863,"is_reserved":false,"is_disabled":false,"rental_uris":{"android":"levelo://app?vid=6f4919b0-d9c4-4c52-b108-ac1dd2e153c7","ios":"levelo://app?vid=6f4919b0-d9c4-4c52-b108-ac1dd2e153c7"},"vehicle_type_id":"4","last_reported":1751108910,"current_range_meters":17200,"station_id":"","pricing_plan_id":"cebpf4jnsgd1na2vs0mg"},{"bike_id":"d88f7a9b-532d-4f16-a895-aad8a6fdc835","system_id":"levelo_inurba_marseille","lat":43.29589,"lon":5.36767,"is_reserved":false,"is_disabled":false,"rental_uris":{"android":"levelo://app?vid=d88f7a9b-532d-4f16-a895-aad8a6fdc835","ios":"levelo://app?vid=d88f7a9b-532d-4f16-a895-aad8a6fdc835"},"vehicle_type_id":"4","last_reported":1751108910,"current_range_meters":17200,"station_id":"ce4bgph2rcd13ifvqc2g","pricing_plan_id":"cebpf4jnsgd1na2vs0mg"},{"bike_id":"1971a3ff-1df0-4da0-8377-95e72680416b","system_id":"levelo_inurba_marseille","lat":43.2985,"lon":5.36286,"is_reserved":false,"is_disabled":false,"rental_uris":{"android":"levelo://app?vid=1971a3ff-1df0-4da0-8377-95e72680416b","ios":"levelo://app?vid=1971a3ff-1df0-4da0-8377-95e72680416b"},"vehicle_type_id":"4","last_reported":1751108910,"current_range_meters":17200,"station_id":"ce4bgpp2rcd13ifvqc3g","pricing_plan_id":"cebpf4jnsgd1na2vs0mg"},{"bike_id":"5b083d6d-ff5e-4684-a4d8-69cd6ecfdee4","system_id":"levelo_inurba_marseille","lat":43.30539,"lon":5.36537,"is_reserved":false,"is_disabled":false,"rental_uris":{"android":"levelo://app?vid=5b083d6d-ff5e-4684-a4d8-69cd6ecfdee4","ios":"levelo://app?vid=5b083d6d-ff5e-4684-a4d8-69cd6ecfdee4"},"vehicle_type_id":"4","last_reported":1751108910,"current_range_meters":17200,"station_id":"ce4bgs12rcd13ifvqcag","pricing_plan_id":"cebpf4jnsgd1na2vs0mg"},{"bike_id":"8032a042-cb06-45d6-88ee-935737bf7e86","system_id":"levelo_inurba_marseille","lat":43.30938,"lon":5.40148,"is_reserved":false,"is_disabled":false,"rental_uris":{"android":"levelo://app?vid=8032a042-cb06-45d6-88ee-935737bf7e86","ios":"levelo://app?vid=8032a042-cb06-45d6-88ee-935737bf7e86"},"vehicle_type_id":"4","last_reported":1751108910,"current_range_meters":17200,"station_id":"ce4bgvp2rcd13ifvqct0","pricing_plan_id":"cebpf4jnsgd1na2vs0mg"},{"bike_id":"f342fe44-5d74-40e3-a0fa-5214bcb4d08c","system_id":"levelo_inurba_marseille","lat":43.31686,"lon":5.40476,"is_reserved":false,"is_disabled":false,"rental_uris":{"android":"levelo://app?vid=f342fe44-5d74-40e3-a0fa-5214bcb4d08c","ios":"levelo://app?vid=f342fe44-5d74-40e3-a0fa-5214bcb4d08c"},"vehicle_type_id":"4","last_reported":1751108910,"current_range_meters":17200,"station_id":"ce4bh012rcd13ifvqd00","pricing_plan_id":"cebpf4jnsgd1na2vs0mg"},{"bike_id":"2287b753-3344-403e-a9e0-526651a52461","system_id":"levelo_inurba_marseille","lat":43.24087,"lon":5.37787,"is_reserved":false,"is_disabled":false,"rental_uris":{"android":"levelo://app?vid=2287b753-3344-403e-a9e0-526651a52461","ios":"levelo://app?vid=2287b753-3344-403e-a9e0-526651a52461"},"vehicle_type_id":"4","last_reported":1751108910,"current_range_meters":17200,"station_id":"ce4bhnp2rcd13ifvqgvg","pricing_plan_id":"cebpf4jnsgd1na2vs0mg"},{"bike_id":"4f7da216-f811-4c57-9e64-cdee7467bddd","system_id":"levelo_inurba_marseille","lat":43.22494,"lon":5.3479,"is_reserved":false,"is_disabled":false,"rental_uris":{"android":"levelo://app?vid=4f7da216-f811-4c57-9e64-cdee7467bddd","ios":"levelo://app?vid=4f7da216-f811-4c57-9e64-cdee7467bddd"},"vehicle_type_id":"4","last_reported":1751108910,"current_range_meters":17200,"station_id":"st_cvj5dfep6f1abm77gieg","pricing_plan_id":"cebpf4jnsgd1na2vs0mg"},{"bike_id":"00932398-1409-4e32-8ce3-cdcf5ca03ae2","system_id":"levelo_inurba_marseille","lat":43.21748,"lon":5.346,"is_reserved":false,"is_disabled":false,"rental_uris":{"android":"levelo://app?vid=00932398-1409-4e32-8ce3-cdcf5ca03ae2","ios":"levelo://app?vid=00932398-1409-4e32-8ce3-cdcf5ca03ae2"},"vehicle_type_id":"4","last_reported":1751108910,"current_range_meters":17200,"station_id":"st_cvj6r9ubvosntc0bgbag","pricing_plan_id":"cebpf4jnsgd1na2vs0mg"},{"bike_id":"db821bdc-433a-4b87-abec-9312b5b57723","system_id":"levelo_inurba_marseille","lat":43.21191,"lon":5.35099,"is_reserved":false,"is_disabled":false,"rental_uris":{"android":"levelo://app?vid=db821bdc-433a-4b87-abec-9312b5b57723","ios":"levelo://app?vid=db821bdc-433a-4b87-abec-9312b5b57723"},"vehicle_type_id":"4","last_reported":1751108910,"current_range_meters":17200,"station_id":"st_cvj6sg6p6f1abm77japg","pricing_plan_id":"cebpf4jnsgd1na2vs0mg"},{"bike_id":"d308c658-b19c-49c0-8014-5506ff26f69a","system_id":"levelo_inurba_marseille","lat":43.23079,"lon":5.40494,"is_reserved":false,"is_disabled":false,"rental_uris":{"android":"levelo://app?vid=d308c658-b19c-49c0-8014-5506ff26f69a","ios":"levelo://app?vid=d308c658-b19c-49c0-8014-5506ff26f69a"},"vehicle_type_id":"4","last_reported":1751108910,"current_range_meters":17600,"station_id":"","pricing_plan_id":"cebpf4jnsgd1na2vs0mg"},{"bike_id":"d4e8a291-ae55-446d-a85e-63a7ce0108a5","system_id":"levelo_inurba_marseille","lat":43.29294,"lon":5.37438,"is_reserved":false,"is_disabled":false,"rental_uris":{"android":"levelo://app?vid=d4e8a291-ae55-446d-a85e-63a7ce0108a5","ios":"levelo://app?vid=d4e8a291-ae55-446d-a85e-63a7ce0108a5"},"vehicle_type_id":"4","last_reported":1751108910,"current_range_meters":17600,"station_id":"ce4bgi12rcd13ifvqb70","pricing_plan_id":"cebpf4jnsgd1na2vs0mg"},{"bike_id":"b3dbd7bd-250e-4441-9efe-688aad7b6a49","system_id":"levelo_inurba_marseille","lat":43.31268,"lon":5.36834,"is_reserved":false,"is_disabled":false,"rental_uris":{"android":"levelo://app?vid=b3dbd7bd-250e-4441-9efe-688aad7b6a49","ios":"levelo://app?vid=b3dbd7bd-250e-4441-9efe-688aad7b6a49"},"vehicle_type_id":"4","last_reported":1751108910,"current_range_meters":17600,"station_id":"ce4bgl92rcd13ifvqbq0","pricing_plan_id":"cebpf4jnsgd1na2vs0mg"},{"bike_id":"2c03385f-76a7-47fe-b1bf-f32d10282144","system_id":"levelo_inurba_marseille","lat":43.29856,"lon":5.36288,"is_reserved":false,"is_disabled":false,"rental_uris":{"android":"levelo://app?vid=2c03385f-76a7-47fe-b1bf-f32d10282144","ios":"levelo://app?vid=2c03385f-76a7-47fe-b1bf-f32d10282144"},"vehicle_type_id":"4","last_reported":1751108910,"current_range_meters":17600,"station_id":"ce4bgpp2rcd13ifvqc3g","pricing_plan_id":"cebpf4jnsgd1na2vs0mg"},{"bike_id":"ec1641df-6975-481a-9083-9175bcb48235","system_id":"levelo_inurba_marseille","lat":43.31525,"lon":5.37309,"is_reserved":false,"is_disabled":false,"rental_uris":{"android":"levelo://app?vid=ec1641df-6975-481a-9083-9175bcb48235","ios":"levelo://app?vid=ec1641df-6975-481a-9083-9175bcb48235"},"vehicle_type_id":"4","last_reported":1751108910,"current_range_meters":17600,"station_id":"ce4bgt12rcd13ifvqcd0","pricing_plan_id":"cebpf4jnsgd1na2vs0mg"},{"bike_id":"80a563cd-2512-4b18-8644-9b4140646fdc","system_id":"levelo_inurba_marseille","lat":43.257325,"lon":5.411007,"is_reserved":false,"is_disabled":false,"rental_uris":{"android":"levelo://app?vid=80a563cd-2512-4b18-8644-9b4140646fdc","ios":"levelo://app?vid=80a563cd-2512-4b18-8644-9b4140646fdc"},"vehicle_type_id":"4","last_reported":1751108910,"current_range_meters":17600,"station_id":"ce4bhkp2rcd13ifvqgd0","pricing_plan_id":"cebpf4jnsgd1na2vs0mg"},{"bike_id":"aff4423e-c2af-4b70-b9bd-2bdc17fafffc","system_id":"levelo_inurba_marseille","lat":43.24193,"lon":5.36377,"is_reserved":false,"is_disabled":false,"rental_uris":{"android":"levelo://app?vid=aff4423e-c2af-4b70-b9bd-2bdc17fafffc","ios":"levelo://app?vid=aff4423e-c2af-4b70-b9bd-2bdc17fafffc"},"vehicle_type_id":"4","last_reported":1751108910,"current_range_meters":17600,"station_id":"cpo36qri1sfpv3e86is0","pricing_plan_id":"cebpf4jnsgd1na2vs0mg"},{"bike_id":"5d5e13a4-10cc-485c-a362-06d02242e666","system_id":"levelo_inurba_marseille","lat":43.2119,"lon":5.35069,"is_reserved":false,"is_disabled":false,"rental_uris":{"android":"levelo://app?vid=5d5e13a4-10cc-485c-a362-06d02242e666","ios":"levelo://app?vid=5d5e13a4-10cc-485c-a362-06d02242e666"},"vehicle_type_id":"4","last_reported":1751108910,"current_range_meters":17600,"station_id":"st_cvj6sg6p6f1abm77japg","pricing_plan_id":"cebpf4jnsgd1na2vs0mg"},{"bike_id":"b13877a6-4825-4d82-b46b-67fa8ad66c5d","system_id":"levelo_inurba_marseille","lat":43.2119,"lon":5.35068,"is_reserved":false,"is_disabled":false,"rental_uris":{"android":"levelo://app?vid=b13877a6-4825-4d82-b46b-67fa8ad66c5d","ios":"levelo://app?vid=b13877a6-4825-4d82-b46b-67fa8ad66c5d"},"vehicle_type_id":"4","last_reported":1751108910,"current_range_meters":17600,"station_id":"st_cvj6sg6p6f1abm77japg","pricing_plan_id":"cebpf4jnsgd1na2vs0mg"},{"bike_id":"9063a283-04e6-416a-b7fe-b3ed16db32dd","system_id":"levelo_inurba_marseille","lat":43.212,"lon":5.35069,"is_reserved":false,"is_disabled":false,"rental_uris":{"android":"levelo://app?vid=9063a283-04e6-416a-b7fe-b3ed16db32dd","ios":"levelo://app?vid=9063a283-04e6-416a-b7fe-b3ed16db32dd"},"vehicle_type_id":"4","last_reported":1751108910,"current_range_meters":17600,"station_id":"st_cvj6sg6p6f1abm77japg","pricing_plan_id":"cebpf4jnsgd1na2vs0mg"},{"bike_id":"735fb3ec-51d3-42a0-b0e0-35a6ef148211","system_id":"levelo_inurba_marseille","lat":43.31283,"lon":5.37308,"is_reserved":false,"is_disabled":false,"rental_uris":{"android":"levelo://app?vid=735fb3ec-51d3-42a0-b0e0-35a6ef148211","ios":"levelo://app?vid=735fb3ec-51d3-42a0-b0e0-35a6ef148211"},"vehicle_type_id":"4","last_reported":1751108910,"current_range_meters":18000,"station_id":"","pricing_plan_id":"cebpf4jnsgd1na2vs0mg"},{"bike_id":"c595d0e1-c778-4abe-9c79-a9dd74f54e27","system_id":"levelo_inurba_marseille","lat":43.24475,"lon":5.37237,"is_reserved":false,"is_disabled":false,"rental_uris":{"android":"levelo://app?vid=c595d0e1-c778-4abe-9c79-a9dd74f54e27","ios":"levelo://app?vid=c595d0e1-c778-4abe-9c79-a9dd74f54e27"},"vehicle_type_id":"4","last_reported":1751108910,"current_range_meters":18000,"station_id":"","pricing_plan_id":"cebpf4jnsgd1na2vs0mg"},{"bike_id":"fa5d59bc-295a-44d9-bb3b-54633110c5d9","system_id":"levelo_inurba_marseille","lat":43.3014,"lon":5.38779,"is_reserved":false,"is_disabled":false,"rental_uris":{"android":"levelo://app?vid=fa5d59bc-295a-44d9-bb3b-54633110c5d9","ios":"levelo://app?vid=fa5d59bc-295a-44d9-bb3b-54633110c5d9"},"vehicle_type_id":"4","last_reported":1751108910,"current_range_meters":18000,"station_id":"ce4bghh2rcd13ifvqb60","pricing_plan_id":"cebpf4jnsgd1na2vs0mg"},{"bike_id":"c9aa3893-652c-415b-89af-2149bbf8de41","system_id":"levelo_inurba_marseille","lat":43.29028,"lon":5.38647,"is_reserved":false,"is_disabled":false,"rental_uris":{"android":"levelo://app?vid=c9aa3893-652c-415b-89af-2149bbf8de41","ios":"levelo://app?vid=c9aa3893-652c-415b-89af-2149bbf8de41"},"vehicle_type_id":"4","last_reported":1751108910,"current_range_meters":18000,"station_id":"ce4bh4p2rcd13ifvqe0g","pricing_plan_id":"cebpf4jnsgd1na2vs0mg"},{"bike_id":"8938ae4b-572d-47fc-b025-02b05af60188","system_id":"levelo_inurba_marseille","lat":43.22494,"lon":5.34849,"is_reserved":false,"is_disabled":false,"rental_uris":{"android":"levelo://app?vid=8938ae4b-572d-47fc-b025-02b05af60188","ios":"levelo://app?vid=8938ae4b-572d-47fc-b025-02b05af60188"},"vehicle_type_id":"4","last_reported":1751108910,"current_range_meters":18000,"station_id":"st_cvj5dfep6f1abm77gieg","pricing_plan_id":"cebpf4jnsgd1na2vs0mg"},{"bike_id":"00232df6-47e0-4159-9a64-03051f9ea3a1","system_id":"levelo_inurba_marseille","lat":43.28117,"lon":5.39897,"is_reserved":false,"is_disabled":false,"rental_uris":{"android":"levelo://app?vid=00232df6-47e0-4159-9a64-03051f9ea3a1","ios":"levelo://app?vid=00232df6-47e0-4159-9a64-03051f9ea3a1"},"vehicle_type_id":"4","last_reported":1751108910,"current_range_meters":18800,"station_id":"","pricing_plan_id":"cebpf4jnsgd1na2vs0mg"},{"bike_id":"726b4506-50d4-4425-b12f-6b62c9c5b1f5","system_id":"levelo_inurba_marseille","lat":43.29541,"lon":5.38545,"is_reserved":false,"is_disabled":false,"rental_uris":{"android":"levelo://app?vid=726b4506-50d4-4425-b12f-6b62c9c5b1f5","ios":"levelo://app?vid=726b4506-50d4-4425-b12f-6b62c9c5b1f5"},"vehicle_type_id":"4","last_reported":1751108910,"current_range_meters":18800,"station_id":"ce4bgih2rcd13ifvqba0","pricing_plan_id":"cebpf4jnsgd1na2vs0mg"},{"bike_id":"9dc83171-8b46-4469-b253-2f12d7d41e64","system_id":"levelo_inurba_marseille","lat":43.3093,"lon":5.40146,"is_reserved":false,"is_disabled":false,"rental_uris":{"android":"levelo://app?vid=9dc83171-8b46-4469-b253-2f12d7d41e64","ios":"levelo://app?vid=9dc83171-8b46-4469-b253-2f12d7d41e64"},"vehicle_type_id":"4","last_reported":1751108910,"current_range_meters":18800,"station_id":"ce4bgvp2rcd13ifvqct0","pricing_plan_id":"cebpf4jnsgd1na2vs0mg"},{"bike_id":"b18670cb-dfc0-44c9-9f9a-405cfe4ca685","system_id":"levelo_inurba_marseille","lat":43.27376,"lon":5.36258,"is_reserved":false,"is_disabled":false,"rental_uris":{"android":"levelo://app?vid=b18670cb-dfc0-44c9-9f9a-405cfe4ca685","ios":"levelo://app?vid=b18670cb-dfc0-44c9-9f9a-405cfe4ca685"},"vehicle_type_id":"4","last_reported":1751108910,"current_range_meters":18800,"station_id":"ce4bhbh2rcd13ifvqeo0","pricing_plan_id":"cebpf4jnsgd1na2vs0mg"},{"bike_id":"808df313-7b70-4385-8bc0-ea5b1e1d5899","system_id":"levelo_inurba_marseille","lat":43.24668,"lon":5.38166,"is_reserved":false,"is_disabled":false,"rental_uris":{"android":"levelo://app?vid=808df313-7b70-4385-8bc0-ea5b1e1d5899","ios":"levelo://app?vid=808df313-7b70-4385-8bc0-ea5b1e1d5899"},"vehicle_type_id":"4","last_reported":1751108910,"current_range_meters":18800,"station_id":"ce4bhih2rcd13ifvqfr0","pricing_plan_id":"cebpf4jnsgd1na2vs0mg"},{"bike_id":"1c1e2c7a-f6a1-441d-9a07-f1850a88b957","system_id":"levelo_inurba_marseille","lat":43.32659,"lon":5.40988,"is_reserved":false,"is_disabled":false,"rental_uris":{"android":"levelo://app?vid=1c1e2c7a-f6a1-441d-9a07-f1850a88b957","ios":"levelo://app?vid=1c1e2c7a-f6a1-441d-9a07-f1850a88b957"},"vehicle_type_id":"4","last_reported":1751108910,"current_range_meters":18800,"station_id":"ce4bhpp2rcd13ifvqhgg","pricing_plan_id":"cebpf4jnsgd1na2vs0mg"},{"bike_id":"8e41df63-5922-4cd3-94e1-83a309f71dc9","system_id":"levelo_inurba_marseille","lat":43.21193,"lon":5.35057,"is_reserved":false,"is_disabled":false,"rental_uris":{"android":"levelo://app?vid=8e41df63-5922-4cd3-94e1-83a309f71dc9","ios":"levelo://app?vid=8e41df63-5922-4cd3-94e1-83a309f71dc9"},"vehicle_type_id":"4","last_reported":1751108910,"current_range_meters":18800,"station_id":"st_cvj6sg6p6f1abm77japg","pricing_plan_id":"cebpf4jnsgd1na2vs0mg"},{"bike_id":"e74c12e3-87e0-4b8a-83be-385330dd67e5","system_id":"levelo_inurba_marseille","lat":43.21183,"lon":5.35059,"is_reserved":false,"is_disabled":false,"rental_uris":{"android":"levelo://app?vid=e74c12e3-87e0-4b8a-83be-385330dd67e5","ios":"levelo://app?vid=e74c12e3-87e0-4b8a-83be-385330dd67e5"},"vehicle_type_id":"4","last_reported":1751108910,"current_range_meters":18800,"station_id":"st_cvj6sg6p6f1abm77japg","pricing_plan_id":"cebpf4jnsgd1na2vs0mg"},{"bike_id":"f982334d-72e8-4b3a-b3eb-f6cf8245eee2","system_id":"levelo_inurba_marseille","lat":43.33763,"lon":5.37425,"is_reserved":false,"is_disabled":false,"rental_uris":{"android":"levelo://app?vid=f982334d-72e8-4b3a-b3eb-f6cf8245eee2","ios":"levelo://app?vid=f982334d-72e8-4b3a-b3eb-f6cf8245eee2"},"vehicle_type_id":"4","last_reported":1751108910,"current_range_meters":19200,"station_id":"","pricing_plan_id":"cebpf4jnsgd1na2vs0mg"},{"bike_id":"3a7e54b5-a2f5-42f3-a085-743ac5e93398","system_id":"levelo_inurba_marseille","lat":43.251885,"lon":5.422085,"is_reserved":false,"is_disabled":false,"rental_uris":{"android":"levelo://app?vid=3a7e54b5-a2f5-42f3-a085-743ac5e93398","ios":"levelo://app?vid=3a7e54b5-a2f5-42f3-a085-743ac5e93398"},"vehicle_type_id":"4","last_reported":1751108910,"current_range_meters":19200,"station_id":"","pricing_plan_id":"cebpf4jnsgd1na2vs0mg"},{"bike_id":"513c2d64-e1ed-4c04-93f8-99807d5bd5c9","system_id":"levelo_inurba_marseille","lat":43.28367,"lon":5.38625,"is_reserved":false,"is_disabled":false,"rental_uris":{"android":"levelo://app?vid=513c2d64-e1ed-4c04-93f8-99807d5bd5c9","ios":"levelo://app?vid=513c2d64-e1ed-4c04-93f8-99807d5bd5c9"},"vehicle_type_id":"4","last_reported":1751108910,"current_range_meters":19200,"station_id":"ce4bh492rcd13ifvqdvg","pricing_plan_id":"cebpf4jnsgd1na2vs0mg"},{"bike_id":"fede116f-fe8f-4996-bd86-bef08c43bb15","system_id":"levelo_inurba_marseille","lat":43.28425,"lon":5.34979,"is_reserved":false,"is_disabled":false,"rental_uris":{"android":"levelo://app?vid=fede116f-fe8f-4996-bd86-bef08c43bb15","ios":"levelo://app?vid=fede116f-fe8f-4996-bd86-bef08c43bb15"},"vehicle_type_id":"4","last_reported":1751108910,"current_range_meters":19200,"station_id":"ce4bhbh2rcd13ifvqepg","pricing_plan_id":"cebpf4jnsgd1na2vs0mg"},{"bike_id":"5d314faa-e17a-4fed-889d-06b8bab33783","system_id":"levelo_inurba_marseille","lat":43.26555,"lon":5.37283,"is_reserved":false,"is_disabled":false,"rental_uris":{"android":"levelo://app?vid=5d314faa-e17a-4fed-889d-06b8bab33783","ios":"levelo://app?vid=5d314faa-e17a-4fed-889d-06b8bab33783"},"vehicle_type_id":"4","last_reported":1751108910,"current_range_meters":19200,"station_id":"ce4bhg12rcd13ifvqf70","pricing_plan_id":"cebpf4jnsgd1na2vs0mg"},{"bike_id":"e8ea605e-e138-4e5e-ba06-7b44d8d7c125","system_id":"levelo_inurba_marseille","lat":43.21194,"lon":5.35076,"is_reserved":false,"is_disabled":false,"rental_uris":{"android":"levelo://app?vid=e8ea605e-e138-4e5e-ba06-7b44d8d7c125","ios":"levelo://app?vid=e8ea605e-e138-4e5e-ba06-7b44d8d7c125"},"vehicle_type_id":"4","last_reported":1751108910,"current_range_meters":19200,"station_id":"st_cvj6sg6p6f1abm77japg","pricing_plan_id":"cebpf4jnsgd1na2vs0mg"},{"bike_id":"c6f69d7d-cfad-4ab2-9dcb-51e8b0e4376f","system_id":"levelo_inurba_marseille","lat":43.29379,"lon":5.37842,"is_reserved":false,"is_disabled":false,"rental_uris":{"android":"levelo://app?vid=c6f69d7d-cfad-4ab2-9dcb-51e8b0e4376f","ios":"levelo://app?vid=c6f69d7d-cfad-4ab2-9dcb-51e8b0e4376f"},"vehicle_type_id":"4","last_reported":1751108910,"current_range_meters":19600,"station_id":"ce4bgjh2rcd13ifvqbf0","pricing_plan_id":"cebpf4jnsgd1na2vs0mg"},{"bike_id":"13753061-7e2c-4277-a0b7-edb3fcd151f8","system_id":"levelo_inurba_marseille","lat":43.30602,"lon":5.37224,"is_reserved":false,"is_disabled":false,"rental_uris":{"android":"levelo://app?vid=13753061-7e2c-4277-a0b7-edb3fcd151f8","ios":"levelo://app?vid=13753061-7e2c-4277-a0b7-edb3fcd151f8"},"vehicle_type_id":"4","last_reported":1751108910,"current_range_meters":19600,"station_id":"ce4bgqh2rcd13ifvqc4g","pricing_plan_id":"cebpf4jnsgd1na2vs0mg"},{"bike_id":"a8e8c878-eec7-465b-ae42-8a34da47b984","system_id":"levelo_inurba_marseille","lat":43.29975,"lon":5.37178,"is_reserved":false,"is_disabled":false,"rental_uris":{"android":"levelo://app?vid=a8e8c878-eec7-465b-ae42-8a34da47b984","ios":"levelo://app?vid=a8e8c878-eec7-465b-ae42-8a34da47b984"},"vehicle_type_id":"4","last_reported":1751108910,"current_range_meters":19600,"station_id":"ce4bgr92rcd13ifvqc7g","pricing_plan_id":"cebpf4jnsgd1na2vs0mg"},{"bike_id":"1bb5be89-a673-436f-b463-107936c48780","system_id":"levelo_inurba_marseille","lat":43.28401,"lon":5.34977,"is_reserved":false,"is_disabled":false,"rental_uris":{"android":"levelo://app?vid=1bb5be89-a673-436f-b463-107936c48780","ios":"levelo://app?vid=1bb5be89-a673-436f-b463-107936c48780"},"vehicle_type_id":"4","last_reported":1751108910,"current_range_meters":19600,"station_id":"ce4bhbh2rcd13ifvqepg","pricing_plan_id":"cebpf4jnsgd1na2vs0mg"},{"bike_id":"7757c5d7-8597-4da8-bc28-0c6a39bb89b9","system_id":"levelo_inurba_marseille","lat":43.322887,"lon":5.382773,"is_reserved":false,"is_disabled":false,"rental_uris":{"android":"levelo://app?vid=7757c5d7-8597-4da8-bc28-0c6a39bb89b9","ios":"levelo://app?vid=7757c5d7-8597-4da8-bc28-0c6a39bb89b9"},"vehicle_type_id":"4","last_reported":1751108910,"current_range_meters":19600,"station_id":"ce4bhr12rcd13ifvqhqg","pricing_plan_id":"cebpf4jnsgd1na2vs0mg"},{"bike_id":"72df8c60-f190-4633-b0af-a27bfeb7314d","system_id":"levelo_inurba_marseille","lat":43.24168,"lon":5.3639,"is_reserved":false,"is_disabled":false,"rental_uris":{"android":"levelo://app?vid=72df8c60-f190-4633-b0af-a27bfeb7314d","ios":"levelo://app?vid=72df8c60-f190-4633-b0af-a27bfeb7314d"},"vehicle_type_id":"4","last_reported":1751108910,"current_range_meters":19600,"station_id":"cpo36qri1sfpv3e86is0","pricing_plan_id":"cebpf4jnsgd1na2vs0mg"},{"bike_id":"938a3fd4-3ed6-48f4-b993-bfd037cb52d6","system_id":"levelo_inurba_marseille","lat":43.22505,"lon":5.34783,"is_reserved":false,"is_disabled":false,"rental_uris":{"android":"levelo://app?vid=938a3fd4-3ed6-48f4-b993-bfd037cb52d6","ios":"levelo://app?vid=938a3fd4-3ed6-48f4-b993-bfd037cb52d6"},"vehicle_type_id":"4","last_reported":1751108910,"current_range_meters":19600,"station_id":"st_cvj5dfep6f1abm77gieg","pricing_plan_id":"cebpf4jnsgd1na2vs0mg"},{"bike_id":"5362cab0-6dcb-4dee-8a37-5ed826c77ba7","system_id":"levelo_inurba_marseille","lat":43.29923,"lon":5.37466,"is_reserved":false,"is_disabled":false,"rental_uris":{"android":"levelo://app?vid=5362cab0-6dcb-4dee-8a37-5ed826c77ba7","ios":"levelo://app?vid=5362cab0-6dcb-4dee-8a37-5ed826c77ba7"},"vehicle_type_id":"4","last_reported":1751108910,"current_range_meters":20000,"station_id":"ce4bgjh2rcd13ifvqbg0","pricing_plan_id":"cebpf4jnsgd1na2vs0mg"},{"bike_id":"08f9dd50-9df5-4f76-810a-36aab0cbe4d5","system_id":"levelo_inurba_marseille","lat":43.3112,"lon":5.37766,"is_reserved":false,"is_disabled":false,"rental_uris":{"android":"levelo://app?vid=08f9dd50-9df5-4f76-810a-36aab0cbe4d5","ios":"levelo://app?vid=08f9dd50-9df5-4f76-810a-36aab0cbe4d5"},"vehicle_type_id":"4","last_reported":1751108910,"current_range_meters":20000,"station_id":"ce4bgt92rcd13ifvqcg0","pricing_plan_id":"cebpf4jnsgd1na2vs0mg"},{"bike_id":"fa6e0db7-dcc2-4849-aa80-971c698d7095","system_id":"levelo_inurba_marseille","lat":43.29272,"lon":5.38433,"is_reserved":false,"is_disabled":false,"rental_uris":{"android":"levelo://app?vid=fa6e0db7-dcc2-4849-aa80-971c698d7095","ios":"levelo://app?vid=fa6e0db7-dcc2-4849-aa80-971c698d7095"},"vehicle_type_id":"4","last_reported":1751108910,"current_range_meters":20000,"station_id":"ce4bh692rcd13ifvqea0","pricing_plan_id":"cebpf4jnsgd1na2vs0mg"},{"bike_id":"be50305c-e85f-48b2-814a-a2bd52c26a19","system_id":"levelo_inurba_marseille","lat":43.28274,"lon":5.35071,"is_reserved":false,"is_disabled":false,"rental_uris":{"android":"levelo://app?vid=be50305c-e85f-48b2-814a-a2bd52c26a19","ios":"levelo://app?vid=be50305c-e85f-48b2-814a-a2bd52c26a19"},"vehicle_type_id":"4","last_reported":1751108910,"current_range_meters":20000,"station_id":"ce4bhbp2rcd13ifvqerg","pricing_plan_id":"cebpf4jnsgd1na2vs0mg"},{"bike_id":"bc0333fd-1397-4952-b6c9-b389233d6324","system_id":"levelo_inurba_marseille","lat":43.25494,"lon":5.37613,"is_reserved":false,"is_disabled":false,"rental_uris":{"android":"levelo://app?vid=bc0333fd-1397-4952-b6c9-b389233d6324","ios":"levelo://app?vid=bc0333fd-1397-4952-b6c9-b389233d6324"},"vehicle_type_id":"4","last_reported":1751108910,"current_range_meters":20000,"station_id":"ce4bhh12rcd13ifvqff0","pricing_plan_id":"cebpf4jnsgd1na2vs0mg"},{"bike_id":"39391c58-0ced-47c1-ad0c-ead1501fc7b8","system_id":"levelo_inurba_marseille","lat":43.21734,"lon":5.34629,"is_reserved":false,"is_disabled":false,"rental_uris":{"android":"levelo://app?vid=39391c58-0ced-47c1-ad0c-ead1501fc7b8","ios":"levelo://app?vid=39391c58-0ced-47c1-ad0c-ead1501fc7b8"},"vehicle_type_id":"4","last_reported":1751108910,"current_range_meters":20000,"station_id":"st_cvj6r9ubvosntc0bgbag","pricing_plan_id":"cebpf4jnsgd1na2vs0mg"},{"bike_id":"3e82f598-9d1d-4257-8afa-a4dc7305de09","system_id":"levelo_inurba_marseille","lat":43.2119,"lon":5.35062,"is_reserved":false,"is_disabled":false,"rental_uris":{"android":"levelo://app?vid=3e82f598-9d1d-4257-8afa-a4dc7305de09","ios":"levelo://app?vid=3e82f598-9d1d-4257-8afa-a4dc7305de09"},"vehicle_type_id":"4","last_reported":1751108910,"current_range_meters":20000,"station_id":"st_cvj6sg6p6f1abm77japg","pricing_plan_id":"cebpf4jnsgd1na2vs0mg"},{"bike_id":"7cd73daf-6410-4b72-a872-e5224e9d29ff","system_id":"levelo_inurba_marseille","lat":43.274253,"lon":5.411827,"is_reserved":false,"is_disabled":false,"rental_uris":{"android":"levelo://app?vid=7cd73daf-6410-4b72-a872-e5224e9d29ff","ios":"levelo://app?vid=7cd73daf-6410-4b72-a872-e5224e9d29ff"},"vehicle_type_id":"4","last_reported":1751108910,"current_range_meters":20400,"station_id":"","pricing_plan_id":"cebpf4jnsgd1na2vs0mg"},{"bike_id":"f6209cb1-6aa7-41ba-8826-c9055b8ac401","system_id":"levelo_inurba_marseille","lat":43.292991,"lon":5.374578,"is_reserved":false,"is_disabled":false,"rental_uris":{"android":"levelo://app?vid=f6209cb1-6aa7-41ba-8826-c9055b8ac401","ios":"levelo://app?vid=f6209cb1-6aa7-41ba-8826-c9055b8ac401"},"vehicle_type_id":"4","last_reported":1751108910,"current_range_meters":20400,"station_id":"","pricing_plan_id":"cebpf4jnsgd1na2vs0mg"},{"bike_id":"6e53ad1f-d4f5-4de6-9418-67b290ec993f","system_id":"levelo_inurba_marseille","lat":43.30941,"lon":5.4103,"is_reserved":false,"is_disabled":false,"rental_uris":{"android":"levelo://app?vid=6e53ad1f-d4f5-4de6-9418-67b290ec993f","ios":"levelo://app?vid=6e53ad1f-d4f5-4de6-9418-67b290ec993f"},"vehicle_type_id":"4","last_reported":1751108910,"current_range_meters":20400,"station_id":"","pricing_plan_id":"cebpf4jnsgd1na2vs0mg"},{"bike_id":"4e9b68f6-93e5-4be1-9775-1645fa9aa211","system_id":"levelo_inurba_marseille","lat":43.29944,"lon":5.36555,"is_reserved":false,"is_disabled":false,"rental_uris":{"android":"levelo://app?vid=4e9b68f6-93e5-4be1-9775-1645fa9aa211","ios":"levelo://app?vid=4e9b68f6-93e5-4be1-9775-1645fa9aa211"},"vehicle_type_id":"4","last_reported":1751108910,"current_range_meters":20400,"station_id":"ce4bgm92rcd13ifvqbr0","pricing_plan_id":"cebpf4jnsgd1na2vs0mg"},{"bike_id":"ed770461-ca86-48a0-9e67-54dc30bd9693","system_id":"levelo_inurba_marseille","lat":43.306041,"lon":5.372375,"is_reserved":false,"is_disabled":false,"rental_uris":{"android":"levelo://app?vid=ed770461-ca86-48a0-9e67-54dc30bd9693","ios":"levelo://app?vid=ed770461-ca86-48a0-9e67-54dc30bd9693"},"vehicle_type_id":"4","last_reported":1751108910,"current_range_meters":20400,"station_id":"ce4bgqh2rcd13ifvqc4g","pricing_plan_id":"cebpf4jnsgd1na2vs0mg"},{"bike_id":"a5bd99f1-8fbe-4b1d-946b-72ab577c6600","system_id":"levelo_inurba_marseille","lat":43.31117,"lon":5.37769,"is_reserved":false,"is_disabled":false,"rental_uris":{"android":"levelo://app?vid=a5bd99f1-8fbe-4b1d-946b-72ab577c6600","ios":"levelo://app?vid=a5bd99f1-8fbe-4b1d-946b-72ab577c6600"},"vehicle_type_id":"4","last_reported":1751108910,"current_range_meters":20400,"station_id":"ce4bgt92rcd13ifvqcg0","pricing_plan_id":"cebpf4jnsgd1na2vs0mg"},{"bike_id":"cc4da6ae-63f9-446a-ad86-c93982d09d32","system_id":"levelo_inurba_marseille","lat":43.28609,"lon":5.37065,"is_reserved":false,"is_disabled":false,"rental_uris":{"android":"levelo://app?vid=cc4da6ae-63f9-446a-ad86-c93982d09d32","ios":"levelo://app?vid=cc4da6ae-63f9-446a-ad86-c93982d09d32"},"vehicle_type_id":"4","last_reported":1751108910,"current_range_meters":20400,"station_id":"ce4bht12rcd13ifvqi60","pricing_plan_id":"cebpf4jnsgd1na2vs0mg"},{"bike_id":"ed92a9c0-fb64-496e-9fee-b9638536839a","system_id":"levelo_inurba_marseille","lat":43.23197,"lon":5.35551,"is_reserved":false,"is_disabled":false,"rental_uris":{"android":"levelo://app?vid=ed92a9c0-fb64-496e-9fee-b9638536839a","ios":"levelo://app?vid=ed92a9c0-fb64-496e-9fee-b9638536839a"},"vehicle_type_id":"4","last_reported":1751108910,"current_range_meters":20400,"station_id":"ce4bhu92rcd13ifvqi70","pricing_plan_id":"cebpf4jnsgd1na2vs0mg"},{"bike_id":"bf24b26e-7f51-4120-9a48-54c87edaa2f7","system_id":"levelo_inurba_marseille","lat":43.21202,"lon":5.35094,"is_reserved":false,"is_disabled":false,"rental_uris":{"android":"levelo://app?vid=bf24b26e-7f51-4120-9a48-54c87edaa2f7","ios":"levelo://app?vid=bf24b26e-7f51-4120-9a48-54c87edaa2f7"},"vehicle_type_id":"4","last_reported":1751108910,"current_range_meters":20400,"station_id":"st_cvj6sg6p6f1abm77japg","pricing_plan_id":"cebpf4jnsgd1na2vs0mg"},{"bike_id":"7f212f1e-9b22-4ad3-88bb-18d999719345","system_id":"levelo_inurba_marseille","lat":43.21192,"lon":5.35121,"is_reserved":false,"is_disabled":false,"rental_uris":{"android":"levelo://app?vid=7f212f1e-9b22-4ad3-88bb-18d999719345","ios":"levelo://app?vid=7f212f1e-9b22-4ad3-88bb-18d999719345"},"vehicle_type_id":"4","last_reported":1751108910,"current_range_meters":20400,"station_id":"st_cvj6sg6p6f1abm77japg","pricing_plan_id":"cebpf4jnsgd1na2vs0mg"},{"bike_id":"09cb3b7f-3ebf-4726-ab49-a55d4fd48b3c","system_id":"levelo_inurba_marseille","lat":43.280792,"lon":5.407427,"is_reserved":false,"is_disabled":false,"rental_uris":{"android":"levelo://app?vid=09cb3b7f-3ebf-4726-ab49-a55d4fd48b3c","ios":"levelo://app?vid=09cb3b7f-3ebf-4726-ab49-a55d4fd48b3c"},"vehicle_type_id":"4","last_reported":1751108910,"current_range_meters":20800,"station_id":"","pricing_plan_id":"cebpf4jnsgd1na2vs0mg"},{"bike_id":"20d730cc-2c9d-4797-bfe6-f87ceea04ce1","system_id":"levelo_inurba_marseille","lat":43.30546,"lon":5.36548,"is_reserved":false,"is_disabled":false,"rental_uris":{"android":"levelo://app?vid=20d730cc-2c9d-4797-bfe6-f87ceea04ce1","ios":"levelo://app?vid=20d730cc-2c9d-4797-bfe6-f87ceea04ce1"},"vehicle_type_id":"4","last_reported":1751108910,"current_range_meters":20800,"station_id":"ce4bgs12rcd13ifvqcag","pricing_plan_id":"cebpf4jnsgd1na2vs0mg"},{"bike_id":"cedcbd3d-7785-48b1-8175-96b85ae03655","system_id":"levelo_inurba_marseille","lat":43.28853,"lon":5.3932,"is_reserved":false,"is_disabled":false,"rental_uris":{"android":"levelo://app?vid=cedcbd3d-7785-48b1-8175-96b85ae03655","ios":"levelo://app?vid=cedcbd3d-7785-48b1-8175-96b85ae03655"},"vehicle_type_id":"4","last_reported":1751108910,"current_range_meters":20800,"station_id":"ce4bh2p2rcd13ifvqdi0","pricing_plan_id":"cebpf4jnsgd1na2vs0mg"},{"bike_id":"7bda6b61-95c2-4760-9b18-5f93255ec6e6","system_id":"levelo_inurba_marseille","lat":43.26562,"lon":5.37279,"is_reserved":false,"is_disabled":false,"rental_uris":{"android":"levelo://app?vid=7bda6b61-95c2-4760-9b18-5f93255ec6e6","ios":"levelo://app?vid=7bda6b61-95c2-4760-9b18-5f93255ec6e6"},"vehicle_type_id":"4","last_reported":1751108910,"current_range_meters":20800,"station_id":"ce4bhg12rcd13ifvqf70","pricing_plan_id":"cebpf4jnsgd1na2vs0mg"},{"bike_id":"af736a8e-4d73-41a5-9c6a-daec1b2775c3","system_id":"levelo_inurba_marseille","lat":43.24671,"lon":5.38163,"is_reserved":false,"is_disabled":false,"rental_uris":{"android":"levelo://app?vid=af736a8e-4d73-41a5-9c6a-daec1b2775c3","ios":"levelo://app?vid=af736a8e-4d73-41a5-9c6a-daec1b2775c3"},"vehicle_type_id":"4","last_reported":1751108910,"current_range_meters":20800,"station_id":"ce4bhih2rcd13ifvqfr0","pricing_plan_id":"cebpf4jnsgd1na2vs0mg"},{"bike_id":"155119f3-64a7-44dd-b162-cbb24edb596b","system_id":"levelo_inurba_marseille","lat":43.29624,"lon":5.37163,"is_reserved":false,"is_disabled":false,"rental_uris":{"android":"levelo://app?vid=155119f3-64a7-44dd-b162-cbb24edb596b","ios":"levelo://app?vid=155119f3-64a7-44dd-b162-cbb24edb596b"},"vehicle_type_id":"4","last_reported":1751108910,"current_range_meters":21600,"station_id":"ce4bgnh2rcd13ifvqc0g","pricing_plan_id":"cebpf4jnsgd1na2vs0mg"},{"bike_id":"7cfacfb5-1131-4805-99c2-8d9714d7028b","system_id":"levelo_inurba_marseille","lat":43.29035,"lon":5.38655,"is_reserved":false,"is_disabled":false,"rental_uris":{"android":"levelo://app?vid=7cfacfb5-1131-4805-99c2-8d9714d7028b","ios":"levelo://app?vid=7cfacfb5-1131-4805-99c2-8d9714d7028b"},"vehicle_type_id":"4","last_reported":1751108910,"current_range_meters":21600,"station_id":"ce4bh4p2rcd13ifvqe0g","pricing_plan_id":"cebpf4jnsgd1na2vs0mg"},{"bike_id":"7a8bd449-dc92-4d82-ae40-dcf4a5b6bb6e","system_id":"levelo_inurba_marseille","lat":43.28624,"lon":5.35098,"is_reserved":false,"is_disabled":false,"rental_uris":{"android":"levelo://app?vid=7a8bd449-dc92-4d82-ae40-dcf4a5b6bb6e","ios":"levelo://app?vid=7a8bd449-dc92-4d82-ae40-dcf4a5b6bb6e"},"vehicle_type_id":"4","last_reported":1751108910,"current_range_meters":21600,"station_id":"ce4bhch2rcd13ifvqeug","pricing_plan_id":"cebpf4jnsgd1na2vs0mg"},{"bike_id":"a74187b0-84c5-40c5-831d-da03c7c15d05","system_id":"levelo_inurba_marseille","lat":43.27212,"lon":5.39176,"is_reserved":false,"is_disabled":false,"rental_uris":{"android":"levelo://app?vid=a74187b0-84c5-40c5-831d-da03c7c15d05","ios":"levelo://app?vid=a74187b0-84c5-40c5-831d-da03c7c15d05"},"vehicle_type_id":"4","last_reported":1751108910,"current_range_meters":21600,"station_id":"ce4bhhp2rcd13ifvqfm0","pricing_plan_id":"cebpf4jnsgd1na2vs0mg"},{"bike_id":"e7641e58-176f-485d-9342-129003cdc52b","system_id":"levelo_inurba_marseille","lat":43.32103,"lon":5.3676,"is_reserved":false,"is_disabled":false,"rental_uris":{"android":"levelo://app?vid=e7641e58-176f-485d-9342-129003cdc52b","ios":"levelo://app?vid=e7641e58-176f-485d-9342-129003cdc52b"},"vehicle_type_id":"4","last_reported":1751108910,"current_range_meters":21600,"station_id":"ce4bhrh2rcd13ifvqhug","pricing_plan_id":"cebpf4jnsgd1na2vs0mg"},{"bike_id":"01eb83e9-db84-48d5-88df-ee2f44932807","system_id":"levelo_inurba_marseille","lat":43.30543,"lon":5.38426,"is_reserved":false,"is_disabled":false,"rental_uris":{"android":"levelo://app?vid=01eb83e9-db84-48d5-88df-ee2f44932807","ios":"levelo://app?vid=01eb83e9-db84-48d5-88df-ee2f44932807"},"vehicle_type_id":"4","last_reported":1751108910,"current_range_meters":22000,"station_id":"ce4bgg92rcd13ifvqb30","pricing_plan_id":"cebpf4jnsgd1na2vs0mg"},{"bike_id":"7497403c-3301-477f-959b-54d4b07ab7fe","system_id":"levelo_inurba_marseille","lat":43.31497,"lon":5.3731,"is_reserved":false,"is_disabled":false,"rental_uris":{"android":"levelo://app?vid=7497403c-3301-477f-959b-54d4b07ab7fe","ios":"levelo://app?vid=7497403c-3301-477f-959b-54d4b07ab7fe"},"vehicle_type_id":"4","last_reported":1751108910,"current_range_meters":22000,"station_id":"ce4bgt12rcd13ifvqcd0","pricing_plan_id":"cebpf4jnsgd1na2vs0mg"},{"bike_id":"51eaf5a3-11a8-48b7-af44-cb5e683a3abc","system_id":"levelo_inurba_marseille","lat":43.275015,"lon":5.360162,"is_reserved":false,"is_disabled":false,"rental_uris":{"android":"levelo://app?vid=51eaf5a3-11a8-48b7-af44-cb5e683a3abc","ios":"levelo://app?vid=51eaf5a3-11a8-48b7-af44-cb5e683a3abc"},"vehicle_type_id":"4","last_reported":1751108910,"current_range_meters":22000,"station_id":"ce4bhg12rcd13ifvqf70","pricing_plan_id":"cebpf4jnsgd1na2vs0mg"},{"bike_id":"260b452a-098e-47e7-af12-c5f3a21f4f6d","system_id":"levelo_inurba_marseille","lat":43.28708,"lon":5.39991,"is_reserved":false,"is_disabled":false,"rental_uris":{"android":"levelo://app?vid=260b452a-098e-47e7-af12-c5f3a21f4f6d","ios":"levelo://app?vid=260b452a-098e-47e7-af12-c5f3a21f4f6d"},"vehicle_type_id":"4","last_reported":1751108910,"current_range_meters":22000,"station_id":"ce4bho92rcd13ifvqh3g","pricing_plan_id":"cebpf4jnsgd1na2vs0mg"},{"bike_id":"00cfcd6d-d839-4069-9b75-127e1b36c605","system_id":"levelo_inurba_marseille","lat":43.297842,"lon":5.371104,"is_reserved":false,"is_disabled":false,"rental_uris":{"android":"levelo://app?vid=00cfcd6d-d839-4069-9b75-127e1b36c605","ios":"levelo://app?vid=00cfcd6d-d839-4069-9b75-127e1b36c605"},"vehicle_type_id":"4","last_reported":1751108910,"current_range_meters":22400,"station_id":"ce4bgop2rcd13ifvqc1g","pricing_plan_id":"cebpf4jnsgd1na2vs0mg"},{"bike_id":"bb1fa3de-d5fc-4a65-a017-3bf9e1a09e84","system_id":"levelo_inurba_marseille","lat":43.28414,"lon":5.34974,"is_reserved":false,"is_disabled":false,"rental_uris":{"android":"levelo://app?vid=bb1fa3de-d5fc-4a65-a017-3bf9e1a09e84","ios":"levelo://app?vid=bb1fa3de-d5fc-4a65-a017-3bf9e1a09e84"},"vehicle_type_id":"4","last_reported":1751108910,"current_range_meters":22400,"station_id":"ce4bhbh2rcd13ifvqepg","pricing_plan_id":"cebpf4jnsgd1na2vs0mg"},{"bike_id":"54e6c144-89e2-4352-bee4-0bc5a4da8819","system_id":"levelo_inurba_marseille","lat":43.32658,"lon":5.40988,"is_reserved":false,"is_disabled":false,"rental_uris":{"android":"levelo://app?vid=54e6c144-89e2-4352-bee4-0bc5a4da8819","ios":"levelo://app?vid=54e6c144-89e2-4352-bee4-0bc5a4da8819"},"vehicle_type_id":"4","last_reported":1751108910,"current_range_meters":22400,"station_id":"ce4bhpp2rcd13ifvqhgg","pricing_plan_id":"cebpf4jnsgd1na2vs0mg"},