{"last_updated":1745212256,"ttl":60,"version":"2.2","data":{"bikes":[{"bike_id":"8a1dde72-6b8d-4113-a8d9-29ea6b05ede2","system_id":"levelo_inurba_marseille","lat":43.29262,"lon":5.38209,"is_reserved":false,"is_disabled":false,"rental_uris":{"android":"levelo://app?vid=8a1dde72-6b8d-4113-a8d9-29ea6b05ede2","ios":"levelo://app?vid=8a1dde72-6b8d-4113-a8d9-29ea6b05ede2"},"vehicle_type_id":"4","last_reported":1745212256,"current_range_meters":2800,"station_id":"","pricing_plan_id":"cebpf4jnsgd1na2vs0mg"},{"bike_id":"d2ba4413-c35f-41b1-8baf-f83e6001a359","system_id":"levelo_inurba_marseille","lat":43.29031,"lon":5.38663,"is_reserved":false,"is_disabled":true,"rental_uris":{"android":"levelo://app?vid=d2ba4413-c35f-41b1-8baf-f83e6001a359","ios":"levelo://app?vid=d2ba4413-c35f-41b1-8baf-f83e6001a359"},"vehicle_type_id":"4","last_reported":1745212256,"current_range_meters":2800,"station_id":"ce4bh4p2rcd13ifvqe0g","pricing_plan_id":"cebpf4jnsgd1na2vs0mg"},{"bike_id":"220ab7fa-a81f-4a51-805c-3d4feeb64942","system_id":"levelo_inurba_marseille","lat":43.28694,"lon":5.37419,"is_reserved":false,"is_disabled":true,"rental_uris":{"android":"levelo://app?vid=220ab7fa-a81f-4a51-805c-3d4feeb64942","ios":"levelo://app?vid=220ab7fa-a81f-4a51-805c-3d4feeb64942"},"vehicle_type_id":"4","last_reported":1745212256,"current_range_meters":2800,"station_id":"ce4bh3p2rcd13ifvqdq0","pricing_plan_id":"cebpf4jnsgd1na2vs0mg"},{"bike_id":"db0f8317-b82a-46f0-96bf-2bb2259a2f2b","system_id":"levelo_inurba_marseille","lat":43.284839,"lon":5.385749,"is_reserved":false,"is_disabled":false,"rental_uris":{"android":"levelo://app?vid=db0f8317-b82a-46f0-96bf-2bb2259a2f2b","ios":"levelo://app?vid=db0f8317-b82a-46f0-96bf-2bb2259a2f2b"},"vehicle_type_id":"4","last_reported":1745212256,"current_range_meters":3200,"station_id":"ce4bh8p2rcd13ifvqeb0","pricing_plan_id":"cebpf4jnsgd1na2vs0mg"},{"bike_id":"186380b9-3dab-457b-b648-71d123fa0368","system_id":"levelo_inurba_marseille","lat":43.25108,"lon":5.40328,"is_reserved":false,"is_disabled":true,"rental_uris":{"android":"levelo://app?vid=186380b9-3dab-457b-b648-71d123fa0368","ios":"levelo://app?vid=186380b9-3dab-457b-b648-71d123fa0368"},"vehicle_type_id":"4","last_reported":1745212256,"current_range_meters":3200,"station_id":"ce4bhlh2rcd13ifvqgig","pricing_plan_id":"cebpf4jnsgd1na2vs0mg"},{"bike_id":"a389d44e-88d6-4373-942c-6121d426ebb1","system_id":"levelo_inurba_marseille","lat":43.31222,"lon":5.40239,"is_reserved":false,"is_disabled":false,"rental_uris":{"android":"levelo://app?vid=a389d44e-88d6-4373-942c-6121d426ebb1","ios":"levelo://app?vid=a389d44e-88d6-4373-942c-6121d426ebb1"},"vehicle_type_id":"4","last_reported":1745212256,"current_range_meters":3200,"station_id":"","pricing_plan_id":"cebpf4jnsgd1na2vs0mg"},{"bike_id":"0d21f9f9-922e-4003-8dc4-8224af9ef712","system_id":"levelo_inurba_marseille","lat":43.32594,"lon":5.359,"is_reserved":false,"is_disabled":true,"rental_uris":{"android":"levelo://app?vid=0d21f9f9-922e-4003-8dc4-8224af9ef712","ios":"levelo://app?vid=0d21f9f9-922e-4003-8dc4-8224af9ef712"},"vehicle_type_id":"4","last_reported":1745212256,"current_range_meters":3600,"station_id":"","pricing_plan_id":"cebpf4jnsgd1na2vs0mg"},{"bike_id":"a4f53f83-a203-4112-88cd-432220291605","system_id":"levelo_inurba_marseille","lat":43.28414,"lon":5.3499,"is_reserved":false,"is_disabled":true,"rental_uris":{"android":"levelo://app?vid=a4f53f83-a203-4112-88cd-432220291605","ios":"levelo://app?vid=a4f53f83-a203-4112-88cd-432220291605"},"vehicle_type_id":"4","last_reported":1745212256,"current_range_meters":3600,"station_id":"ce4bhbh2rcd13ifvqepg","pricing_plan_id":"cebpf4jnsgd1na2vs0mg"},{"bike_id":"564fb40e-5fad-4e99-b12d-f5030eebc05e","system_id":"levelo_inurba_marseille","lat":43.265472,"lon":5.372858,"is_reserved":false,"is_disabled":true,"rental_uris":{"android":"levelo://app?vid=564fb40e-5fad-4e99-b12d-f5030eebc05e","ios":"levelo://app?vid=564fb40e-5fad-4e99-b12d-f5030eebc05e"},"vehicle_type_id":"4","last_reported":1745212256,"current_range_meters":3600,"station_id":"ce4bhap2rcd13ifvqek0","pricing_plan_id":"cebpf4jnsgd1na2vs0mg"},{"bike_id":"46823f52-b3ef-4ae1-acb9-1fbb1a724f7e","system_id":"levelo_inurba_marseille","lat":43.25496,"lon":5.37677,"is_reserved":false,"is_disabled":true,"rental_uris":{"android":"levelo://app?vid=46823f52-b3ef-4ae1-acb9-1fbb1a724f7e","ios":"levelo://app?vid=46823f52-b3ef-4ae1-acb9-1fbb1a724f7e"},"vehicle_type_id":"4","last_reported":1745212256,"current_range_meters":4000,"station_id":"ce4bhh12rcd13ifvqff0","pricing_plan_id":"cebpf4jnsgd1na2vs0mg"},{"bike_id":"1b4a8f9d-2faa-464e-b7a7-813f9c13d848","system_id":"levelo_inurba_marseille","lat":43.24181,"lon":5.36402,"is_reserved":false,"is_disabled":false,"rental_uris":{"android":"levelo://app?vid=1b4a8f9d-2faa-464e-b7a7-813f9c13d848","ios":"levelo://app?vid=1b4a8f9d-2faa-464e-b7a7-813f9c13d848"},"vehicle_type_id":"4","last_reported":1745212256,"current_range_meters":4000,"station_id":"cpo36qri1sfpv3e86is0","pricing_plan_id":"cebpf4jnsgd1na2vs0mg"},{"bike_id":"4e2d7459-c30f-4125-8783-49ae2904310d","system_id":"levelo_inurba_marseille","lat":43.29201,"lon":5.39342,"is_reserved":false,"is_disabled":false,"rental_uris":{"android":"levelo://app?vid=4e2d7459-c30f-4125-8783-49ae2904310d","ios":"levelo://app?vid=4e2d7459-c30f-4125-8783-49ae2904310d"},"vehicle_type_id":"4","last_reported":1745212256,"current_range_meters":4400,"station_id":"ce4bh192rcd13ifvqdd0","pricing_plan_id":"cebpf4jnsgd1na2vs0mg"},{"bike_id":"1965f819-3778-4654-96e5-aaaf9c36cc08","system_id":"levelo_inurba_marseille","lat":43.3038,"lon":5.42477,"is_reserved":false,"is_disabled":true,"rental_uris":{"android":"levelo://app?vid=1965f819-3778-4654-96e5-aaaf9c36cc08","ios":"levelo://app?vid=1965f819-3778-4654-96e5-aaaf9c36cc08"},"vehicle_type_id":"4","last_reported":1745212256,"current_range_meters":4400,"station_id":"ce4bhoh2rcd13ifvqh6g","pricing_plan_id":"cebpf4jnsgd1na2vs0mg"},{"bike_id":"0dd13644-e942-427d-9540-f17eaef6dd89","system_id":"levelo_inurba_marseille","lat":43.270101,"lon":5.387939,"is_reserved":false,"is_disabled":true,"rental_uris":{"android":"levelo://app?vid=0dd13644-e942-427d-9540-f17eaef6dd89","ios":"levelo://app?vid=0dd13644-e942-427d-9540-f17eaef6dd89"},"vehicle_type_id":"4","last_reported":1745212256,"current_range_meters":5600,"station_id":"","pricing_plan_id":"cebpf4jnsgd1na2vs0mg"},{"bike_id":"c7bcb425-6a3e-46d0-9451-728e5831e9b4","system_id":"levelo_inurba_marseille","lat":43.26711,"lon":5.38227,"is_reserved":false,"is_disabled":false,"rental_uris":{"android":"levelo://app?vid=c7bcb425-6a3e-46d0-9451-728e5831e9b4","ios":"levelo://app?vid=c7bcb425-6a3e-46d0-9451-728e5831e9b4"},"vehicle_type_id":"4","last_reported":1745212256,"current_range_meters":6000,"station_id":"ce4bhg92rcd13ifvqf90","pricing_plan_id":"cebpf4jnsgd1na2vs0mg"},{"bike_id":"8dcdbddf-c32e-4b31-8e8c-b20dbb5dcd33","system_id":"levelo_inurba_marseille","lat":43.279489,"lon":5.410457,"is_reserved":false,"is_disabled":false,"rental_uris":{"android":"levelo://app?vid=8dcdbddf-c32e-4b31-8e8c-b20dbb5dcd33","ios":"levelo://app?vid=8dcdbddf-c32e-4b31-8e8c-b20dbb5dcd33"},"vehicle_type_id":"4","last_reported":1745212256,"current_range_meters":6000,"station_id":"ce4bhnp2rcd13ifvqh0g","pricing_plan_id":"cebpf4jnsgd1na2vs0mg"},{"bike_id":"2d46f81e-bf83-4416-bba9-7e11b13652fc","system_id":"levelo_inurba_marseille","lat":43.30156,"lon":5.37403,"is_reserved":false,"is_disabled":true,"rental_uris":{"android":"levelo://app?vid=2d46f81e-bf83-4416-bba9-7e11b13652fc","ios":"levelo://app?vid=2d46f81e-bf83-4416-bba9-7e11b13652fc"},"vehicle_type_id":"4","last_reported":1745212256,"current_range_meters":6000,"station_id":"ce4bgs92rcd13ifvqcc0","pricing_plan_id":"cebpf4jnsgd1na2vs0mg"},{"bike_id":"c1cf7e7e-3484-4493-be00-fedbf732cf36","system_id":"levelo_inurba_marseille","lat":43.31493,"lon":5.37312,"is_reserved":false,"is_disabled":false,"rental_uris":{"android":"levelo://app?vid=c1cf7e7e-3484-4493-be00-fedbf732cf36","ios":"levelo://app?vid=c1cf7e7e-3484-4493-be00-fedbf732cf36"},"vehicle_type_id":"4","last_reported":1745212256,"current_range_meters":6400,"station_id":"ce4bgt12rcd13ifvqcd0","pricing_plan_id":"cebpf4jnsgd1na2vs0mg"},{"bike_id":"bc29e8db-1593-4f92-b3c6-80fbe7dce44f","system_id":"levelo_inurba_marseille","lat":43.30328,"lon":5.4044,"is_reserved":false,"is_disabled":false,"rental_uris":{"android":"levelo://app?vid=bc29e8db-1593-4f92-b3c6-80fbe7dce44f","ios":"levelo://app?vid=bc29e8db-1593-4f92-b3c6-80fbe7dce44f"},"vehicle_type_id":"4","last_reported":1745212256,"current_range_meters":6400,"station_id":"ce4bh012rcd13ifvqd10","pricing_plan_id":"cebpf4jnsgd1na2vs0mg"},{"bike_id":"24213b37-b766-4d9c-a174-f6bf34920497","system_id":"levelo_inurba_marseille","lat":43.28469,"lon":5.384178,"is_reserved":false,"is_disabled":false,"rental_uris":{"android":"levelo://app?vid=24213b37-b766-4d9c-a174-f6bf34920497","ios":"levelo://app?vid=24213b37-b766-4d9c-a174-f6bf34920497"},"vehicle_type_id":"4","last_reported":1745212256,"current_range_meters":6400,"station_id":"ce4bh512rcd13ifvqe3g","pricing_plan_id":"cebpf4jnsgd1na2vs0mg"},{"bike_id":"f0b6af0d-1cbf-47a3-af07-dab09fabbbf0","system_id":"levelo_inurba_marseille","lat":43.231937,"lon":5.355534,"is_reserved":false,"is_disabled":false,"rental_uris":{"android":"levelo://app?vid=f0b6af0d-1cbf-47a3-af07-dab09fabbbf0","ios":"levelo://app?vid=f0b6af0d-1cbf-47a3-af07-dab09fabbbf0"},"vehicle_type_id":"4","last_reported":1745212256,"current_range_meters":6400,"station_id":"ce4bhu92rcd13ifvqi70","pricing_plan_id":"cebpf4jnsgd1na2vs0mg"},{"bike_id":"94652236-4ef1-43be-ab0a-0a1df88e0ac9","system_id":"levelo_inurba_marseille","lat":43.30928,"lon":5.40149,"is_reserved":false,"is_disabled":false,"rental_uris":{"android":"levelo://app?vid=94652236-4ef1-43be-ab0a-0a1df88e0ac9","ios":"levelo://app?vid=94652236-4ef1-43be-ab0a-0a1df88e0ac9"},"vehicle_type_id":"4","last_reported":1745212256,"current_range_meters":6400,"station_id":"","pricing_plan_id":"cebpf4jnsgd1na2vs0mg"},{"bike_id":"b157dc81-51c5-45f3-a677-9e9c3cf6283b","system_id":"levelo_inurba_marseille","lat":43.30821,"lon":5.37135,"is_reserved":false,"is_disabled":false,"rental_uris":{"android":"levelo://app?vid=b157dc81-51c5-45f3-a677-9e9c3cf6283b","ios":"levelo://app?vid=b157dc81-51c5-45f3-a677-9e9c3cf6283b"},"vehicle_type_id":"4","last_reported":1745212256,"current_range_meters":6400,"station_id":"","pricing_plan_id":"cebpf4jnsgd1na2vs0mg"},{"bike_id":"868b379d-e27f-4516-8288-d0bec557660c","system_id":"levelo_inurba_marseille","lat":43.30701,"lon":5.38087,"is_reserved":false,"is_disabled":false,"rental_uris":{"android":"levelo://app?vid=868b379d-e27f-4516-8288-d0bec557660c","ios":"levelo://app?vid=868b379d-e27f-4516-8288-d0bec557660c"},"vehicle_type_id":"4","last_reported":1745212256,"current_range_meters":6400,"station_id":"","pricing_plan_id":"cebpf4jnsgd1na2vs0mg"},{"bike_id":"6565ca44-2e63-4f42-a847-09fa2bdb37f3","system_id":"levelo_inurba_marseille","lat":43.319869,"lon":5.381469,"is_reserved":false,"is_disabled":true,"rental_uris":{"android":"levelo://app?vid=6565ca44-2e63-4f42-a847-09fa2bdb37f3","ios":"levelo://app?vid=6565ca44-2e63-4f42-a847-09fa2bdb37f3"},"vehicle_type_id":"4","last_reported":1745212256,"current_range_meters":6400,"station_id":"ce4bhr12rcd13ifvqhpg","pricing_plan_id":"cebpf4jnsgd1na2vs0mg"},{"bike_id":"2ba8c5c4-f0af-4f23-add7-feee032d7669","system_id":"levelo_inurba_marseille","lat":43.28279,"lon":5.35097,"is_reserved":false,"is_disabled":false,"rental_uris":{"android":"levelo://app?vid=2ba8c5c4-f0af-4f23-add7-feee032d7669","ios":"levelo://app?vid=2ba8c5c4-f0af-4f23-add7-feee032d7669"},"vehicle_type_id":"4","last_reported":1745212256,"current_range_meters":6400,"station_id":"ce4bhbp2rcd13ifvqerg","pricing_plan_id":"cebpf4jnsgd1na2vs0mg"},{"bike_id":"138d6608-886e-4863-a664-7df6e5cc9a47","system_id":"levelo_inurba_marseille","lat":43.32661,"lon":5.42211,"is_reserved":false,"is_disabled":false,"rental_uris":{"android":"levelo://app?vid=138d6608-886e-4863-a664-7df6e5cc9a47","ios":"levelo://app?vid=138d6608-886e-4863-a664-7df6e5cc9a47"},"vehicle_type_id":"4","last_reported":1745212256,"current_range_meters":6400,"station_id":"","pricing_plan_id":"cebpf4jnsgd1na2vs0mg"},{"bike_id":"97e50bb0-9a70-481b-b370-e509345e710a","system_id":"levelo_inurba_marseille","lat":43.28013,"lon":5.36949,"is_reserved":false,"is_disabled":true,"rental_uris":{"android":"levelo://app?vid=97e50bb0-9a70-481b-b370-e509345e710a","ios":"levelo://app?vid=97e50bb0-9a70-481b-b370-e509345e710a"},"vehicle_type_id":"4","last_reported":1745212256,"current_range_meters":6800,"station_id":"ce4bha12rcd13ifvqef0","pricing_plan_id":"cebpf4jnsgd1na2vs0mg"},{"bike_id":"cb1906e0-eddc-4a43-b28c-29be8c0aa51a","system_id":"levelo_inurba_marseille","lat":43.27497,"lon":5.42466,"is_reserved":false,"is_disabled":true,"rental_uris":{"android":"levelo://app?vid=cb1906e0-eddc-4a43-b28c-29be8c0aa51a","ios":"levelo://app?vid=cb1906e0-eddc-4a43-b28c-29be8c0aa51a"},"vehicle_type_id":"4","last_reported":1745212256,"current_range_meters":6800,"station_id":"ce4bhn92rcd13ifvqgrg","pricing_plan_id":"cebpf4jnsgd1na2vs0mg"},{"bike_id":"ab9be9a2-b412-4e12-b774-0ac14e1c75f2","system_id":"levelo_inurba_marseille","lat":43.23197,"lon":5.35548,"is_reserved":false,"is_disabled":false,"rental_uris":{"android":"levelo://app?vid=ab9be9a2-b412-4e12-b774-0ac14e1c75f2","ios":"levelo://app?vid=ab9be9a2-b412-4e12-b774-0ac14e1c75f2"},"vehicle_type_id":"4","last_reported":1745212256,"current_range_meters":6800,"station_id":"ce4bhu92rcd13ifvqi70","pricing_plan_id":"cebpf4jnsgd1na2vs0mg"},{"bike_id":"9810eab0-14d5-401c-ae8f-b57e44462930","system_id":"levelo_inurba_marseille","lat":43.23188,"lon":5.39997,"is_reserved":false,"is_disabled":false,"rental_uris":{"android":"levelo://app?vid=9810eab0-14d5-401c-ae8f-b57e44462930","ios":"levelo://app?vid=9810eab0-14d5-401c-ae8f-b57e44462930"},"vehicle_type_id":"4","last_reported":1745212256,"current_range_meters":6800,"station_id":"ce4bhn12rcd13ifvqgqg","pricing_plan_id":"cebpf4jnsgd1na2vs0mg"},{"bike_id":"4be6b500-ad98-466b-9e90-b4db29b8f640","system_id":"levelo_inurba_marseille","lat":43.28624,"lon":5.35097,"is_reserved":false,"is_disabled":false,"rental_uris":{"android":"levelo://app?vid=4be6b500-ad98-466b-9e90-b4db29b8f640","ios":"levelo://app?vid=4be6b500-ad98-466b-9e90-b4db29b8f640"},"vehicle_type_id":"4","last_reported":1745212256,"current_range_meters":6800,"station_id":"ce4bhch2rcd13ifvqeug","pricing_plan_id":"cebpf4jnsgd1na2vs0mg"},{"bike_id":"dc901913-7038-4881-86f2-f816646eb17a","system_id":"levelo_inurba_marseille","lat":43.24549,"lon":5.39525,"is_reserved":false,"is_disabled":false,"rental_uris":{"android":"levelo://app?vid=dc901913-7038-4881-86f2-f816646eb17a","ios":"levelo://app?vid=dc901913-7038-4881-86f2-f816646eb17a"},"vehicle_type_id":"4","last_reported":1745212256,"current_range_meters":6800,"station_id":"ce4bhlp2rcd13ifvqgjg","pricing_plan_id":"cebpf4jnsgd1na2vs0mg"},{"bike_id":"7afeef51-2056-4d06-b296-c2c124d55600","system_id":"levelo_inurba_marseille","lat":43.3173,"lon":5.42404,"is_reserved":false,"is_disabled":false,"rental_uris":{"android":"levelo://app?vid=7afeef51-2056-4d06-b296-c2c124d55600","ios":"levelo://app?vid=7afeef51-2056-4d06-b296-c2c124d55600"},"vehicle_type_id":"4","last_reported":1745212256,"current_range_meters":6800,"station_id":"ce4bhp92rcd13ifvqhbg","pricing_plan_id":"cebpf4jnsgd1na2vs0mg"},{"bike_id":"a969d1ed-77d3-4189-b5a7-0bf8cf90d349","system_id":"levelo_inurba_marseille","lat":43.23212,"lon":5.35526,"is_reserved":false,"is_disabled":false,"rental_uris":{"android":"levelo://app?vid=a969d1ed-77d3-4189-b5a7-0bf8cf90d349","ios":"levelo://app?vid=a969d1ed-77d3-4189-b5a7-0bf8cf90d349"},"vehicle_type_id":"4","last_reported":1745212256,"current_range_meters":6800,"station_id":"ce4bhu92rcd13ifvqi70","pricing_plan_id":"cebpf4jnsgd1na2vs0mg"},{"bike_id":"d0395819-ea40-46d3-acfe-3a01d6c396c0","system_id":"levelo_inurba_marseille","lat":43.23191,"lon":5.39988,"is_reserved":false,"is_disabled":true,"rental_uris":{"android":"levelo://app?vid=d0395819-ea40-46d3-acfe-3a01d6c396c0","ios":"levelo://app?vid=d0395819-ea40-46d3-acfe-3a01d6c396c0"},"vehicle_type_id":"4","last_reported":1745212256,"current_range_meters":6800,"station_id":"ce4bhn12rcd13ifvqgqg","pricing_plan_id":"cebpf4jnsgd1na2vs0mg"},{"bike_id":"1b64a06c-8c3f-4044-b435-0c5447524fd5","system_id":"levelo_inurba_marseille","lat":43.28706,"lon":5.374,"is_reserved":false,"is_disabled":true,"rental_uris":{"android":"levelo://app?vid=1b64a06c-8c3f-4044-b435-0c5447524fd5","ios":"levelo://app?vid=1b64a06c-8c3f-4044-b435-0c5447524fd5"},"vehicle_type_id":"4","last_reported":1745212256,"current_range_meters":7200,"station_id":"ce4bh3p2rcd13ifvqdq0","pricing_plan_id":"cebpf4jnsgd1na2vs0mg"},{"bike_id":"4e6892ef-dbe3-43e4-bc69-b2da5d802c90","system_id":"levelo_inurba_marseille","lat":43.27379,"lon":5.36268,"is_reserved":false,"is_disabled":true,"rental_uris":{"android":"levelo://app?vid=4e6892ef-dbe3-43e4-bc69-b2da5d802c90","ios":"levelo://app?vid=4e6892ef-dbe3-43e4-bc69-b2da5d802c90"},"vehicle_type_id":"4","last_reported":1745212256,"current_range_meters":8000,"station_id":"ce4bhbh2rcd13ifvqeo0","pricing_plan_id":"cebpf4jnsgd1na2vs0mg"},{"bike_id":"527fac75-0783-4b2c-bd4e-07f2f2fee902","system_id":"levelo_inurba_marseille","lat":43.311203,"lon":5.378118,"is_reserved":false,"is_disabled":true,"rental_uris":{"android":"levelo://app?vid=527fac75-0783-4b2c-bd4e-07f2f2fee902","ios":"levelo://app?vid=527fac75-0783-4b2c-bd4e-07f2f2fee902"},"vehicle_type_id":"4","last_reported":1745212256,"current_range_meters":8000,"station_id":"ce4bgt92rcd13ifvqcg0","pricing_plan_id":"cebpf4jnsgd1na2vs0mg"},{"bike_id":"1886fb80-2895-40f7-844d-7933f5d904dc","system_id":"levelo_inurba_marseille","lat":43.278846,"lon":5.393186,"is_reserved":false,"is_disabled":false,"rental_uris":{"android":"levelo://app?vid=1886fb80-2895-40f7-844d-7933f5d904dc","ios":"levelo://app?vid=1886fb80-2895-40f7-844d-7933f5d904dc"},"vehicle_type_id":"4","last_reported":1745212256,"current_range_meters":8000,"station_id":"","pricing_plan_id":"cebpf4jnsgd1na2vs0mg"},{"bike_id":"3962bca2-84e6-4d12-9870-621608bdc278","system_id":"levelo_inurba_marseille","lat":43.23189,"lon":5.39996,"is_reserved":false,"is_disabled":false,"rental_uris":{"android":"levelo://app?vid=3962bca2-84e6-4d12-9870-621608bdc278","ios":"levelo://app?vid=3962bca2-84e6-4d12-9870-621608bdc278"},"vehicle_type_id":"4","last_reported":1745212256,"current_range_meters":8000,"station_id":"ce4bhn12rcd13ifvqgqg","pricing_plan_id":"cebpf4jnsgd1na2vs0mg"},{"bike_id":"cb9127a5-76f8-4cfa-9e72-3f333449e26a","system_id":"levelo_inurba_marseille","lat":43.27942,"lon":5.410358,"is_reserved":false,"is_disabled":false,"rental_uris":{"android":"levelo://app?vid=cb9127a5-76f8-4cfa-9e72-3f333449e26a","ios":"levelo://app?vid=cb9127a5-76f8-4cfa-9e72-3f333449e26a"},"vehicle_type_id":"4","last_reported":1745212256,"current_range_meters":8400,"station_id":"ce4bhnp2rcd13ifvqh0g","pricing_plan_id":"cebpf4jnsgd1na2vs0mg"},{"bike_id":"dbcb3890-93e8-4d00-ad8f-8f065bfebff0","system_id":"levelo_inurba_marseille","lat":43.29596,"lon":5.3812,"is_reserved":false,"is_disabled":true,"rental_uris":{"android":"levelo://app?vid=dbcb3890-93e8-4d00-ad8f-8f065bfebff0","ios":"levelo://app?vid=dbcb3890-93e8-4d00-ad8f-8f065bfebff0"},"vehicle_type_id":"4","last_reported":1745212256,"current_range_meters":8400,"station_id":"ce4bgl12rcd13ifvqbo0","pricing_plan_id":"cebpf4jnsgd1na2vs0mg"},{"bike_id":"d8754dce-3ce6-4f68-ba47-f64cfc8b26ab","system_id":"levelo_inurba_marseille","lat":43.23209,"lon":5.35546,"is_reserved":false,"is_disabled":false,"rental_uris":{"android":"levelo://app?vid=d8754dce-3ce6-4f68-ba47-f64cfc8b26ab","ios":"levelo://app?vid=d8754dce-3ce6-4f68-ba47-f64cfc8b26ab"},"vehicle_type_id":"4","last_reported":1745212256,"current_range_meters":8400,"station_id":"ce4bhu92rcd13ifvqi70","pricing_plan_id":"cebpf4jnsgd1na2vs0mg"},{"bike_id":"575ecb3d-9a37-407e-bd15-e9b0ede0cfdd","system_id":"levelo_inurba_marseille","lat":43.292759,"lon":5.401146,"is_reserved":false,"is_disabled":false,"rental_uris":{"android":"levelo://app?vid=575ecb3d-9a37-407e-bd15-e9b0ede0cfdd","ios":"levelo://app?vid=575ecb3d-9a37-407e-bd15-e9b0ede0cfdd"},"vehicle_type_id":"4","last_reported":1745212256,"current_range_meters":8400,"station_id":"ce4bh312rcd13ifvqdk0","pricing_plan_id":"cebpf4jnsgd1na2vs0mg"},{"bike_id":"a360f0f1-2725-4615-9b2f-399546db3eef","system_id":"levelo_inurba_marseille","lat":43.26484,"lon":5.39564,"is_reserved":false,"is_disabled":false,"rental_uris":{"android":"levelo://app?vid=a360f0f1-2725-4615-9b2f-399546db3eef","ios":"levelo://app?vid=a360f0f1-2725-4615-9b2f-399546db3eef"},"vehicle_type_id":"4","last_reported":1745212256,"current_range_meters":8400,"station_id":"ce4bhi12rcd13ifvqfq0","pricing_plan_id":"cebpf4jnsgd1na2vs0mg"},{"bike_id":"3838833b-4bc6-4cd3-aec4-b4c8b8738953","system_id":"levelo_inurba_marseille","lat":43.31315,"lon":5.38666,"is_reserved":false,"is_disabled":false,"rental_uris":{"android":"levelo://app?vid=3838833b-4bc6-4cd3-aec4-b4c8b8738953","ios":"levelo://app?vid=3838833b-4bc6-4cd3-aec4-b4c8b8738953"},"vehicle_type_id":"4","last_reported":1745212256,"current_range_meters":8400,"station_id":"","pricing_plan_id":"cebpf4jnsgd1na2vs0mg"},{"bike_id":"fa22f285-c123-45a4-984d-fec5c2b43250","system_id":"levelo_inurba_marseille","lat":43.25125,"lon":5.40321,"is_reserved":false,"is_disabled":false,"rental_uris":{"android":"levelo://app?vid=fa22f285-c123-45a4-984d-fec5c2b43250","ios":"levelo://app?vid=fa22f285-c123-45a4-984d-fec5c2b43250"},"vehicle_type_id":"4","last_reported":1745212256,"current_range_meters":8400,"station_id":"ce4bhlh2rcd13ifvqgig","pricing_plan_id":"cebpf4jnsgd1na2vs0mg"},{"bike_id":"6276c712-dc71-4137-9a44-e63299fa20b2","system_id":"levelo_inurba_marseille","lat":43.32716,"lon":5.35959,"is_reserved":false,"is_disabled":false,"rental_uris":{"android":"levelo://app?vid=6276c712-dc71-4137-9a44-e63299fa20b2","ios":"levelo://app?vid=6276c712-dc71-4137-9a44-e63299fa20b2"},"vehicle_type_id":"4","last_reported":1745212256,"current_range_meters":8800,"station_id":"","pricing_plan_id":"cebpf4jnsgd1na2vs0mg"},{"bike_id":"d177bdcb-ba4d-4c2e-8899-f6b0f9af395c","system_id":"levelo_inurba_marseille","lat":43.25975,"lon":5.40904,"is_reserved":false,"is_disabled":false,"rental_uris":{"android":"levelo://app?vid=d177bdcb-ba4d-4c2e-8899-f6b0f9af395c","ios":"levelo://app?vid=d177bdcb-ba4d-4c2e-8899-f6b0f9af395c"},"vehicle_type_id":"4","last_reported":1745212256,"current_range_meters":8800,"station_id":"ce4bhm92rcd13ifvqglg","pricing_plan_id":"cebpf4jnsgd1na2vs0mg"},{"bike_id":"ddf08875-1592-475b-ae64-af5865607585","system_id":"levelo_inurba_marseille","lat":43.30416,"lon":5.41294,"is_reserved":false,"is_disabled":false,"rental_uris":{"android":"levelo://app?vid=ddf08875-1592-475b-ae64-af5865607585","ios":"levelo://app?vid=ddf08875-1592-475b-ae64-af5865607585"},"vehicle_type_id":"4","last_reported":1745212256,"current_range_meters":8800,"station_id":"ce4bhop2rcd13ifvqh8g","pricing_plan_id":"cebpf4jnsgd1na2vs0mg"},{"bike_id":"33399c5a-7b71-4ae2-a964-55b2f2e618d0","system_id":"levelo_inurba_marseille","lat":43.30179,"lon":5.36671,"is_reserved":false,"is_disabled":true,"rental_uris":{"android":"levelo://app?vid=33399c5a-7b71-4ae2-a964-55b2f2e618d0","ios":"levelo://app?vid=33399c5a-7b71-4ae2-a964-55b2f2e618d0"},"vehicle_type_id":"4","last_reported":1745212256,"current_range_meters":8800,"station_id":"ce4bgrh2rcd13ifvqc8g","pricing_plan_id":"cebpf4jnsgd1na2vs0mg"},{"bike_id":"ebd74a14-798c-47e0-90bb-1b11f085832c","system_id":"levelo_inurba_marseille","lat":43.291923,"lon":5.393185,"is_reserved":false,"is_disabled":false,"rental_uris":{"android":"levelo://app?vid=ebd74a14-798c-47e0-90bb-1b11f085832c","ios":"levelo://app?vid=ebd74a14-798c-47e0-90bb-1b11f085832c"},"vehicle_type_id":"4","last_reported":1745212256,"current_range_meters":8800,"station_id":"ce4bh192rcd13ifvqdd0","pricing_plan_id":"cebpf4jnsgd1na2vs0mg"},{"bike_id":"37388e1a-253d-422c-ba73-4a19c8b5c62e","system_id":"levelo_inurba_marseille","lat":43.28726,"lon":5.36094,"is_reserved":false,"is_disabled":false,"rental_uris":{"android":"levelo://app?vid=37388e1a-253d-422c-ba73-4a19c8b5c62e","ios":"levelo://app?vid=37388e1a-253d-422c-ba73-4a19c8b5c62e"},"vehicle_type_id":"4","last_reported":1745212256,"current_range_meters":8800,"station_id":"cki0cbj6b192h4jlfktg","pricing_plan_id":"cebpf4jnsgd1na2vs0mg"},{"bike_id":"4e0feb4b-9af5-4c5c-a215-eabded87c4f9","system_id":"levelo_inurba_marseille","lat":43.2319,"lon":5.35555,"is_reserved":false,"is_disabled":false,"rental_uris":{"android":"levelo://app?vid=4e0feb4b-9af5-4c5c-a215-eabded87c4f9","ios":"levelo://app?vid=4e0feb4b-9af5-4c5c-a215-eabded87c4f9"},"vehicle_type_id":"4","last_reported":1745212256,"current_range_meters":8800,"station_id":"ce4bhu92rcd13ifvqi70","pricing_plan_id":"cebpf4jnsgd1na2vs0mg"},{"bike_id":"e6bafddd-a5d9-44f3-8c65-30a0518f53d4","system_id":"levelo_inurba_marseille","lat":43.25477,"lon":5.37685,"is_reserved":false,"is_disabled":true,"rental_uris":{"android":"levelo://app?vid=e6bafddd-a5d9-44f3-8c65-30a0518f53d4","ios":"levelo://app?vid=e6bafddd-a5d9-44f3-8c65-30a0518f53d4"},"vehicle_type_id":"4","last_reported":1745212256,"current_range_meters":8800,"station_id":"ce4bhh12rcd13ifvqff0","pricing_plan_id":"cebpf4jnsgd1na2vs0mg"},{"bike_id":"d5ef647d-00ca-43ce-8de2-a9826ded3f15","system_id":"levelo_inurba_marseille","lat":43.212,"lon":5.35073,"is_reserved":false,"is_disabled":false,"rental_uris":{"android":"levelo://app?vid=d5ef647d-00ca-43ce-8de2-a9826ded3f15","ios":"levelo://app?vid=d5ef647d-00ca-43ce-8de2-a9826ded3f15"},"vehicle_type_id":"4","last_reported":1745212256,"current_range_meters":8800,"station_id":"st_cvj6sg6p6f1abm77japg","pricing_plan_id":"cebpf4jnsgd1na2vs0mg"},{"bike_id":"2662eac7-25bf-4ae7-8592-5a62e4feed0b","system_id":"levelo_inurba_marseille","lat":43.29712,"lon":5.377,"is_reserved":false,"is_disabled":false,"rental_uris":{"android":"levelo://app?vid=2662eac7-25bf-4ae7-8592-5a62e4feed0b","ios":"levelo://app?vid=2662eac7-25bf-4ae7-8592-5a62e4feed0b"},"vehicle_type_id":"4","last_reported":1745212256,"current_range_meters":8800,"station_id":"ce4bgkh2rcd13ifvqbl0","pricing_plan_id":"cebpf4jnsgd1na2vs0mg"},{"bike_id":"3c68d4af-f244-4d5b-a673-170645748e37","system_id":"levelo_inurba_marseille","lat":43.27644,"lon":5.39822,"is_reserved":false,"is_disabled":false,"rental_uris":{"android":"levelo://app?vid=3c68d4af-f244-4d5b-a673-170645748e37","ios":"levelo://app?vid=3c68d4af-f244-4d5b-a673-170645748e37"},"vehicle_type_id":"4","last_reported":1745212256,"current_range_meters":9200,"station_id":"","pricing_plan_id":"cebpf4jnsgd1na2vs0mg"},{"bike_id":"3f9b351e-24c7-4831-949f-a89b33917557","system_id":"levelo_inurba_marseille","lat":43.24034,"lon":5.37778,"is_reserved":false,"is_disabled":false,"rental_uris":{"android":"levelo://app?vid=3f9b351e-24c7-4831-949f-a89b33917557","ios":"levelo://app?vid=3f9b351e-24c7-4831-949f-a89b33917557"},"vehicle_type_id":"4","last_reported":1745212256,"current_range_meters":9200,"station_id":"ce4bhnp2rcd13ifvqgvg","pricing_plan_id":"cebpf4jnsgd1na2vs0mg"},{"bike_id":"89edf026-e9af-4504-874f-adbe61cd4424","system_id":"levelo_inurba_marseille","lat":43.30309,"lon":5.39204,"is_reserved":false,"is_disabled":false,"rental_uris":{"android":"levelo://app?vid=89edf026-e9af-4504-874f-adbe61cd4424","ios":"levelo://app?vid=89edf026-e9af-4504-874f-adbe61cd4424"},"vehicle_type_id":"4","last_reported":1745212256,"current_range_meters":9200,"station_id":"ce4bgkh2rcd13ifvqbk0","pricing_plan_id":"cebpf4jnsgd1na2vs0mg"},{"bike_id":"f01fc261-033f-49c7-b09e-b9967362bd76","system_id":"levelo_inurba_marseille","lat":43.288505,"lon":5.358501,"is_reserved":false,"is_disabled":true,"rental_uris":{"android":"levelo://app?vid=f01fc261-033f-49c7-b09e-b9967362bd76","ios":"levelo://app?vid=f01fc261-033f-49c7-b09e-b9967362bd76"},"vehicle_type_id":"4","last_reported":1745212256,"current_range_meters":9200,"station_id":"ce4bhb12rcd13ifvqem0","pricing_plan_id":"cebpf4jnsgd1na2vs0mg"},{"bike_id":"ff62b9d0-0cdf-448d-ada3-96d9918ce15c","system_id":"levelo_inurba_marseille","lat":43.31113,"lon":5.36933,"is_reserved":false,"is_disabled":false,"rental_uris":{"android":"levelo://app?vid=ff62b9d0-0cdf-448d-ada3-96d9918ce15c","ios":"levelo://app?vid=ff62b9d0-0cdf-448d-ada3-96d9918ce15c"},"vehicle_type_id":"4","last_reported":1745212256,"current_range_meters":9600,"station_id":"","pricing_plan_id":"cebpf4jnsgd1na2vs0mg"},{"bike_id":"64904af7-8595-4150-91ff-57ff6ea5c1cc","system_id":"levelo_inurba_marseille","lat":43.31515,"lon":5.37288,"is_reserved":false,"is_disabled":false,"rental_uris":{"android":"levelo://app?vid=64904af7-8595-4150-91ff-57ff6ea5c1cc","ios":"levelo://app?vid=64904af7-8595-4150-91ff-57ff6ea5c1cc"},"vehicle_type_id":"4","last_reported":1745212256,"current_range_meters":9600,"station_id":"ce4bgt12rcd13ifvqcd0","pricing_plan_id":"cebpf4jnsgd1na2vs0mg"},{"bike_id":"044b6cdf-529a-462e-b435-6c399001a1a6","system_id":"levelo_inurba_marseille","lat":43.30936,"lon":5.40141,"is_reserved":false,"is_disabled":false,"rental_uris":{"android":"levelo://app?vid=044b6cdf-529a-462e-b435-6c399001a1a6","ios":"levelo://app?vid=044b6cdf-529a-462e-b435-6c399001a1a6"},"vehicle_type_id":"4","last_reported":1745212256,"current_range_meters":9600,"station_id":"ce4bgvp2rcd13ifvqct0","pricing_plan_id":"cebpf4jnsgd1na2vs0mg"},{"bike_id":"e553e7b9-c5be-4177-878b-d92283c2b80b","system_id":"levelo_inurba_marseille","lat":43.28561,"lon":5.39501,"is_reserved":false,"is_disabled":false,"rental_uris":{"android":"levelo://app?vid=e553e7b9-c5be-4177-878b-d92283c2b80b","ios":"levelo://app?vid=e553e7b9-c5be-4177-878b-d92283c2b80b"},"vehicle_type_id":"4","last_reported":1745212256,"current_range_meters":9600,"station_id":"ce4bh292rcd13ifvqdg0","pricing_plan_id":"cebpf4jnsgd1na2vs0mg"},{"bike_id":"59216526-d01c-4d77-b6e3-a6c766976571","system_id":"levelo_inurba_marseille","lat":43.22526,"lon":5.34755,"is_reserved":false,"is_disabled":false,"rental_uris":{"android":"levelo://app?vid=59216526-d01c-4d77-b6e3-a6c766976571","ios":"levelo://app?vid=59216526-d01c-4d77-b6e3-a6c766976571"},"vehicle_type_id":"4","last_reported":1745212256,"current_range_meters":9600,"station_id":"st_cvj5dfep6f1abm77gieg","pricing_plan_id":"cebpf4jnsgd1na2vs0mg"},{"bike_id":"9ec00016-bdd1-44d1-be62-4b7d926dd044","system_id":"levelo_inurba_marseille","lat":43.30906,"lon":5.3729,"is_reserved":false,"is_disabled":false,"rental_uris":{"android":"levelo://app?vid=9ec00016-bdd1-44d1-be62-4b7d926dd044","ios":"levelo://app?vid=9ec00016-bdd1-44d1-be62-4b7d926dd044"},"vehicle_type_id":"4","last_reported":1745212256,"current_range_meters":9600,"station_id":"","pricing_plan_id":"cebpf4jnsgd1na2vs0mg"},{"bike_id":"f15e6d6c-4e91-4850-86dd-4c3b99eca958","system_id":"levelo_inurba_marseille","lat":43.28071,"lon":5.39602,"is_reserved":false,"is_disabled":false,"rental_uris":{"android":"levelo://app?vid=f15e6d6c-4e91-4850-86dd-4c3b99eca958","ios":"levelo://app?vid=f15e6d6c-4e91-4850-86dd-4c3b99eca958"},"vehicle_type_id":"4","last_reported":1745212256,"current_range_meters":9600,"station_id":"ce4bho12rcd13ifvqh2g","pricing_plan_id":"cebpf4jnsgd1na2vs0mg"},{"bike_id":"478adf2f-07e1-4396-965c-e1a74e1fa681","system_id":"levelo_inurba_marseille","lat":43.27887,"lon":5.38045,"is_reserved":false,"is_disabled":false,"rental_uris":{"android":"levelo://app?vid=478adf2f-07e1-4396-965c-e1a74e1fa681","ios":"levelo://app?vid=478adf2f-07e1-4396-965c-e1a74e1fa681"},"vehicle_type_id":"4","last_reported":1745212256,"current_range_meters":9600,"station_id":"ce4bhf92rcd13ifvqf50","pricing_plan_id":"cebpf4jnsgd1na2vs0mg"},{"bike_id":"72335dcd-8b2d-4e7b-bae6-1179c991ff40","system_id":"levelo_inurba_marseille","lat":43.25485,"lon":5.37663,"is_reserved":false,"is_disabled":false,"rental_uris":{"android":"levelo://app?vid=72335dcd-8b2d-4e7b-bae6-1179c991ff40","ios":"levelo://app?vid=72335dcd-8b2d-4e7b-bae6-1179c991ff40"},"vehicle_type_id":"4","last_reported":1745212256,"current_range_meters":10000,"station_id":"ce4bhh12rcd13ifvqff0","pricing_plan_id":"cebpf4jnsgd1na2vs0mg"},{"bike_id":"cab64969-2640-47ee-abb9-f11afb1f3a59","system_id":"levelo_inurba_marseille","lat":43.28615,"lon":5.35102,"is_reserved":false,"is_disabled":true,"rental_uris":{"android":"levelo://app?vid=cab64969-2640-47ee-abb9-f11afb1f3a59","ios":"levelo://app?vid=cab64969-2640-47ee-abb9-f11afb1f3a59"},"vehicle_type_id":"4","last_reported":1745212256,"current_range_meters":10000,"station_id":"ce4bhch2rcd13ifvqeug","pricing_plan_id":"cebpf4jnsgd1na2vs0mg"},{"bike_id":"1ace1b61-e2c8-4a41-a3cf-5c94b36f34ae","system_id":"levelo_inurba_marseille","lat":43.2118,"lon":5.35089,"is_reserved":false,"is_disabled":false,"rental_uris":{"android":"levelo://app?vid=1ace1b61-e2c8-4a41-a3cf-5c94b36f34ae","ios":"levelo://app?vid=1ace1b61-e2c8-4a41-a3cf-5c94b36f34ae"},"vehicle_type_id":"4","last_reported":1745212256,"current_range_meters":10000,"station_id":"st_cvj6sg6p6f1abm77japg","pricing_plan_id":"cebpf4jnsgd1na2vs0mg"},{"bike_id":"50720bbe-5512-41d7-86e0-3df313b565c6","system_id":"levelo_inurba_marseille","lat":43.32365,"lon":5.38914,"is_reserved":false,"is_disabled":true,"rental_uris":{"android":"levelo://app?vid=50720bbe-5512-41d7-86e0-3df313b565c6","ios":"levelo://app?vid=50720bbe-5512-41d7-86e0-3df313b565c6"},"vehicle_type_id":"4","last_reported":1745212256,"current_range_meters":10000,"station_id":"ce4bhqp2rcd13ifvqhog","pricing_plan_id":"cebpf4jnsgd1na2vs0mg"},{"bike_id":"f1e1bc98-6c86-455e-bb78-02898a313f74","system_id":"levelo_inurba_marseille","lat":43.31051,"lon":5.38355,"is_reserved":false,"is_disabled":false,"rental_uris":{"android":"levelo://app?vid=f1e1bc98-6c86-455e-bb78-02898a313f74","ios":"levelo://app?vid=f1e1bc98-6c86-455e-bb78-02898a313f74"},"vehicle_type_id":"4","last_reported":1745212256,"current_range_meters":10000,"station_id":"ce4bgv92rcd13ifvqcr0","pricing_plan_id":"cebpf4jnsgd1na2vs0mg"},{"bike_id":"a3dd9a0b-1e95-49bd-9b52-a761b312f104","system_id":"levelo_inurba_marseille","lat":43.2552,"lon":5.38218,"is_reserved":false,"is_disabled":false,"rental_uris":{"android":"levelo://app?vid=a3dd9a0b-1e95-49bd-9b52-a761b312f104","ios":"levelo://app?vid=a3dd9a0b-1e95-49bd-9b52-a761b312f104"},"vehicle_type_id":"4","last_reported":1745212256,"current_range_meters":10800,"station_id":"","pricing_plan_id":"cebpf4jnsgd1na2vs0mg"},{"bike_id":"1184e7cb-97e6-48bd-84cd-8e59c100c07b","system_id":"levelo_inurba_marseille","lat":43.292679,"lon":5.368441,"is_reserved":false,"is_disabled":true,"rental_uris":{"android":"levelo://app?vid=1184e7cb-97e6-48bd-84cd-8e59c100c07b","ios":"levelo://app?vid=1184e7cb-97e6-48bd-84cd-8e59c100c07b"},"vehicle_type_id":"4","last_reported":1745212256,"current_range_meters":10800,"station_id":"ce4bhbp2rcd13ifvqesg","pricing_plan_id":"cebpf4jnsgd1na2vs0mg"},{"bike_id":"d53e964c-f934-484c-a259-3e8f23cdd819","system_id":"levelo_inurba_marseille","lat":43.33726,"lon":5.39191,"is_reserved":false,"is_disabled":false,"rental_uris":{"android":"levelo://app?vid=d53e964c-f934-484c-a259-3e8f23cdd819","ios":"levelo://app?vid=d53e964c-f934-484c-a259-3e8f23cdd819"},"vehicle_type_id":"4","last_reported":1745212256,"current_range_meters":10800,"station_id":"ce4bhr92rcd13ifvqhsg","pricing_plan_id":"cebpf4jnsgd1na2vs0mg"},{"bike_id":"31daaaea-e3d1-46f6-8391-a46d550b149c","system_id":"levelo_inurba_marseille","lat":43.279431,"lon":5.410396,"is_reserved":false,"is_disabled":false,"rental_uris":{"android":"levelo://app?vid=31daaaea-e3d1-46f6-8391-a46d550b149c","ios":"levelo://app?vid=31daaaea-e3d1-46f6-8391-a46d550b149c"},"vehicle_type_id":"4","last_reported":1745212256,"current_range_meters":10800,"station_id":"ce4bhnp2rcd13ifvqh0g","pricing_plan_id":"cebpf4jnsgd1na2vs0mg"},{"bike_id":"aa4956c6-6845-4783-8776-ee4b88f920ec","system_id":"levelo_inurba_marseille","lat":43.28634,"lon":5.37101,"is_reserved":false,"is_disabled":true,"rental_uris":{"android":"levelo://app?vid=aa4956c6-6845-4783-8776-ee4b88f920ec","ios":"levelo://app?vid=aa4956c6-6845-4783-8776-ee4b88f920ec"},"vehicle_type_id":"4","last_reported":1745212256,"current_range_meters":10800,"station_id":"ce4bht12rcd13ifvqi60","pricing_plan_id":"cebpf4jnsgd1na2vs0mg"},{"bike_id":"1737dea4-541f-4bc8-9731-1ab03c2deae6","system_id":"levelo_inurba_marseille","lat":43.23958,"lon":5.36638,"is_reserved":false,"is_disabled":true,"rental_uris":{"android":"levelo://app?vid=1737dea4-541f-4bc8-9731-1ab03c2deae6","ios":"levelo://app?vid=1737dea4-541f-4bc8-9731-1ab03c2deae6"},"vehicle_type_id":"4","last_reported":1745212256,"current_range_meters":10800,"station_id":"ce4bhi12rcd13ifvqfp0","pricing_plan_id":"cebpf4jnsgd1na2vs0mg"},{"bike_id":"54333f71-3852-4e7b-b374-b14e492e4962","system_id":"levelo_inurba_marseille","lat":43.30396,"lon":5.41271,"is_reserved":false,"is_disabled":true,"rental_uris":{"android":"levelo://app?vid=54333f71-3852-4e7b-b374-b14e492e4962","ios":"levelo://app?vid=54333f71-3852-4e7b-b374-b14e492e4962"},"vehicle_type_id":"4","last_reported":1745212256,"current_range_meters":11200,"station_id":"ce4bhop2rcd13ifvqh8g","pricing_plan_id":"cebpf4jnsgd1na2vs0mg"},{"bike_id":"f189c969-32b5-44ac-9d90-7e5f9f22e08d","system_id":"levelo_inurba_marseille","lat":43.3111,"lon":5.37777,"is_reserved":false,"is_disabled":false,"rental_uris":{"android":"levelo://app?vid=f189c969-32b5-44ac-9d90-7e5f9f22e08d","ios":"levelo://app?vid=f189c969-32b5-44ac-9d90-7e5f9f22e08d"},"vehicle_type_id":"4","last_reported":1745212256,"current_range_meters":11200,"station_id":"ce4bgt92rcd13ifvqcg0","pricing_plan_id":"cebpf4jnsgd1na2vs0mg"},{"bike_id":"b25b6470-ff43-4d6b-b299-0f21ec070f27","system_id":"levelo_inurba_marseille","lat":43.299039,"lon":5.381499,"is_reserved":false,"is_disabled":true,"rental_uris":{"android":"levelo://app?vid=b25b6470-ff43-4d6b-b299-0f21ec070f27","ios":"levelo://app?vid=b25b6470-ff43-4d6b-b299-0f21ec070f27"},"vehicle_type_id":"4","last_reported":1745212256,"current_range_meters":11600,"station_id":"ce4bgj12rcd13ifvqbc0","pricing_plan_id":"cebpf4jnsgd1na2vs0mg"},{"bike_id":"d66f2fbf-84c1-4006-a003-d92ef3aa9479","system_id":"levelo_inurba_marseille","lat":43.23196,"lon":5.3554,"is_reserved":false,"is_disabled":false,"rental_uris":{"android":"levelo://app?vid=d66f2fbf-84c1-4006-a003-d92ef3aa9479","ios":"levelo://app?vid=d66f2fbf-84c1-4006-a003-d92ef3aa9479"},"vehicle_type_id":"4","last_reported":1745212256,"current_range_meters":11600,"station_id":"ce4bhu92rcd13ifvqi70","pricing_plan_id":"cebpf4jnsgd1na2vs0mg"},{"bike_id":"cf5d5d71-b8c4-450d-8a7a-cec7df0e00d3","system_id":"levelo_inurba_marseille","lat":43.30419,"lon":5.39763,"is_reserved":false,"is_disabled":false,"rental_uris":{"android":"levelo://app?vid=cf5d5d71-b8c4-450d-8a7a-cec7df0e00d3","ios":"levelo://app?vid=cf5d5d71-b8c4-450d-8a7a-cec7df0e00d3"},"vehicle_type_id":"4","last_reported":1745212256,"current_range_meters":11600,"station_id":"ce4bh092rcd13ifvqd20","pricing_plan_id":"cebpf4jnsgd1na2vs0mg"},{"bike_id":"7c874957-fd8c-4332-809c-6583befbbac0","system_id":"levelo_inurba_marseille","lat":43.25865,"lon":5.39902,"is_reserved":false,"is_disabled":false,"rental_uris":{"android":"levelo://app?vid=7c874957-fd8c-4332-809c-6583befbbac0","ios":"levelo://app?vid=7c874957-fd8c-4332-809c-6583befbbac0"},"vehicle_type_id":"4","last_reported":1745212256,"current_range_meters":11600,"station_id":"ce4bhl92rcd13ifvqghg","pricing_plan_id":"cebpf4jnsgd1na2vs0mg"},{"bike_id":"6d18b19d-4791-463b-8151-8aafeb70e2d2","system_id":"levelo_inurba_marseille","lat":43.27917,"lon":5.39581,"is_reserved":false,"is_disabled":false,"rental_uris":{"android":"levelo://app?vid=6d18b19d-4791-463b-8151-8aafeb70e2d2","ios":"levelo://app?vid=6d18b19d-4791-463b-8151-8aafeb70e2d2"},"vehicle_type_id":"4","last_reported":1745212256,"current_range_meters":12000,"station_id":"ce4bhf92rcd13ifvqf40","pricing_plan_id":"cebpf4jnsgd1na2vs0mg"},{"bike_id":"710a06f4-2058-4096-a014-efe82286ec08","system_id":"levelo_inurba_marseille","lat":43.31465,"lon":5.37303,"is_reserved":false,"is_disabled":false,"rental_uris":{"android":"levelo://app?vid=710a06f4-2058-4096-a014-efe82286ec08","ios":"levelo://app?vid=710a06f4-2058-4096-a014-efe82286ec08"},"vehicle_type_id":"4","last_reported":1745212256,"current_range_meters":12000,"station_id":"ce4bgt12rcd13ifvqcd0","pricing_plan_id":"cebpf4jnsgd1na2vs0mg"},{"bike_id":"cb04d036-524e-497d-b1e8-d53251979b05","system_id":"levelo_inurba_marseille","lat":43.298855,"lon":5.397349,"is_reserved":false,"is_disabled":true,"rental_uris":{"android":"levelo://app?vid=cb04d036-524e-497d-b1e8-d53251979b05","ios":"levelo://app?vid=cb04d036-524e-497d-b1e8-d53251979b05"},"vehicle_type_id":"4","last_reported":1745212256,"current_range_meters":12000,"station_id":"ce4bh0h2rcd13ifvqd50","pricing_plan_id":"cebpf4jnsgd1na2vs0mg"},{"bike_id":"4d8ee2c5-8346-4b66-ae86-f443b6bdd2d9","system_id":"levelo_inurba_marseille","lat":43.245428,"lon":5.412975,"is_reserved":false,"is_disabled":false,"rental_uris":{"android":"levelo://app?vid=4d8ee2c5-8346-4b66-ae86-f443b6bdd2d9","ios":"levelo://app?vid=4d8ee2c5-8346-4b66-ae86-f443b6bdd2d9"},"vehicle_type_id":"4","last_reported":1745212256,"current_range_meters":12000,"station_id":"","pricing_plan_id":"cebpf4jnsgd1na2vs0mg"},{"bike_id":"879c4764-ec34-4053-99a8-4501c6e0ccc4","system_id":"levelo_inurba_marseille","lat":43.25722,"lon":5.41134,"is_reserved":false,"is_disabled":false,"rental_uris":{"android":"levelo://app?vid=879c4764-ec34-4053-99a8-4501c6e0ccc4","ios":"levelo://app?vid=879c4764-ec34-4053-99a8-4501c6e0ccc4"},"vehicle_type_id":"4","last_reported":1745212256,"current_range_meters":12000,"station_id":"ce4bhkp2rcd13ifvqgd0","pricing_plan_id":"cebpf4jnsgd1na2vs0mg"},{"bike_id":"c9992ae2-060e-483b-bf4f-875f74b57b5b","system_id":"levelo_inurba_marseille","lat":43.26562,"lon":5.37266,"is_reserved":false,"is_disabled":false,"rental_uris":{"android":"levelo://app?vid=c9992ae2-060e-483b-bf4f-875f74b57b5b","ios":"levelo://app?vid=c9992ae2-060e-483b-bf4f-875f74b57b5b"},"vehicle_type_id":"4","last_reported":1745212256,"current_range_meters":12000,"station_id":"ce4bhg12rcd13ifvqf70","pricing_plan_id":"cebpf4jnsgd1na2vs0mg"},{"bike_id":"4a7b1a03-2df0-4e20-8c86-9af3afa1180c","system_id":"levelo_inurba_marseille","lat":43.30893,"lon":5.3964,"is_reserved":false,"is_disabled":false,"rental_uris":{"android":"levelo://app?vid=4a7b1a03-2df0-4e20-8c86-9af3afa1180c","ios":"levelo://app?vid=4a7b1a03-2df0-4e20-8c86-9af3afa1180c"},"vehicle_type_id":"4","last_reported":1745212256,"current_range_meters":12400,"station_id":"ce4bh012rcd13ifvqcv0","pricing_plan_id":"cebpf4jnsgd1na2vs0mg"},{"bike_id":"2d2e4840-713e-4771-ae07-2155d13a6672","system_id":"levelo_inurba_marseille","lat":43.29944,"lon":5.36541,"is_reserved":false,"is_disabled":true,"rental_uris":{"android":"levelo://app?vid=2d2e4840-713e-4771-ae07-2155d13a6672","ios":"levelo://app?vid=2d2e4840-713e-4771-ae07-2155d13a6672"},"vehicle_type_id":"4","last_reported":1745212256,"current_range_meters":12400,"station_id":"ce4bgm92rcd13ifvqbr0","pricing_plan_id":"cebpf4jnsgd1na2vs0mg"},{"bike_id":"618c1376-a348-4c61-a9cb-11aebb2066ed","system_id":"levelo_inurba_marseille","lat":43.300842,"lon":5.390697,"is_reserved":false,"is_disabled":false,"rental_uris":{"android":"levelo://app?vid=618c1376-a348-4c61-a9cb-11aebb2066ed","ios":"levelo://app?vid=618c1376-a348-4c61-a9cb-11aebb2066ed"},"vehicle_type_id":"4","last_reported":1745212256,"current_range_meters":12000,"station_id":"ce4bh012rcd13ifvqd10","pricing_plan_id":"cebpf4jnsgd1na2vs0mg"},{"bike_id":"9cd66f20-0974-44a3-a00c-3af08e74ebf2","system_id":"levelo_inurba_marseille","lat":43.26034,"lon":5.41714,"is_reserved":false,"is_disabled":false,"rental_uris":{"android":"levelo://app?vid=9cd66f20-0974-44a3-a00c-3af08e74ebf2","ios":"levelo://app?vid=9cd66f20-0974-44a3-a00c-3af08e74ebf2"},"vehicle_type_id":"4","last_reported":1745212256,"current_range_meters":12400,"station_id":"","pricing_plan_id":"cebpf4jnsgd1na2vs0mg"},{"bike_id":"46600b5c-7330-43b7-8392-789f98f83f0b","system_id":"levelo_inurba_marseille","lat":43.30929,"lon":5.40156,"is_reserved":false,"is_disabled":false,"rental_uris":{"android":"levelo://app?vid=46600b5c-7330-43b7-8392-789f98f83f0b","ios":"levelo://app?vid=46600b5c-7330-43b7-8392-789f98f83f0b"},"vehicle_type_id":"4","last_reported":1745212256,"current_range_meters":12400,"station_id":"ce4bgvp2rcd13ifvqct0","pricing_plan_id":"cebpf4jnsgd1na2vs0mg"},{"bike_id":"f95b6ba3-4ffd-4dee-8387-c1e0a51dcdd2","system_id":"levelo_inurba_marseille","lat":43.27937,"lon":5.41059,"is_reserved":false,"is_disabled":false,"rental_uris":{"android":"levelo://app?vid=f95b6ba3-4ffd-4dee-8387-c1e0a51dcdd2","ios":"levelo://app?vid=f95b6ba3-4ffd-4dee-8387-c1e0a51dcdd2"},"vehicle_type_id":"4","last_reported":1745212256,"current_range_meters":12400,"station_id":"ce4bhnp2rcd13ifvqh0g","pricing_plan_id":"cebpf4jnsgd1na2vs0mg"},{"bike_id":"3c6c7b1e-cd54-4dd6-9572-42d399eb8a4c","system_id":"levelo_inurba_marseille","lat":43.30272,"lon":5.37714,"is_reserved":false,"is_disabled":false,"rental_uris":{"android":"levelo://app?vid=3c6c7b1e-cd54-4dd6-9572-42d399eb8a4c","ios":"levelo://app?vid=3c6c7b1e-cd54-4dd6-9572-42d399eb8a4c"},"vehicle_type_id":"4","last_reported":1745212256,"current_range_meters":12800,"station_id":"ce4bguh2rcd13ifvqcj0","pricing_plan_id":"cebpf4jnsgd1na2vs0mg"},{"bike_id":"1e56c845-c052-465c-aa20-9f674f4c5764","system_id":"levelo_inurba_marseille","lat":43.30378,"lon":5.38928,"is_reserved":false,"is_disabled":false,"rental_uris":{"android":"levelo://app?vid=1e56c845-c052-465c-aa20-9f674f4c5764","ios":"levelo://app?vid=1e56c845-c052-465c-aa20-9f674f4c5764"},"vehicle_type_id":"4","last_reported":1745212256,"current_range_meters":12800,"station_id":"","pricing_plan_id":"cebpf4jnsgd1na2vs0mg"},{"bike_id":"53b3b9c9-bf4c-40f9-ba2e-ec3f8e3f866c","system_id":"levelo_inurba_marseille","lat":43.22954,"lon":5.35392,"is_reserved":false,"is_disabled":false,"rental_uris":{"android":"levelo://app?vid=53b3b9c9-bf4c-40f9-ba2e-ec3f8e3f866c","ios":"levelo://app?vid=53b3b9c9-bf4c-40f9-ba2e-ec3f8e3f866c"},"vehicle_type_id":"4","last_reported":1745212256,"current_range_meters":13600,"station_id":"cpo3532slgdg3j2ikp40","pricing_plan_id":"cebpf4jnsgd1na2vs0mg"},{"bike_id":"a049c569-0294-4594-b06b-589d19df1531","system_id":"levelo_inurba_marseille","lat":43.248559,"lon":5.382114,"is_reserved":false,"is_disabled":false,"rental_uris":{"android":"levelo://app?vid=a049c569-0294-4594-b06b-589d19df1531","ios":"levelo://app?vid=a049c569-0294-4594-b06b-589d19df1531"},"vehicle_type_id":"4","last_reported":1745212256,"current_range_meters":13600,"station_id":"","pricing_plan_id":"cebpf4jnsgd1na2vs0mg"},{"bike_id":"5060df55-1a6f-40ec-8e54-5aaa6badef85","system_id":"levelo_inurba_marseille","lat":43.310585,"lon":5.383703,"is_reserved":false,"is_disabled":false,"rental_uris":{"android":"levelo://app?vid=5060df55-1a6f-40ec-8e54-5aaa6badef85","ios":"levelo://app?vid=5060df55-1a6f-40ec-8e54-5aaa6badef85"},"vehicle_type_id":"4","last_reported":1745212256,"current_range_meters":13600,"station_id":"ce4bgv92rcd13ifvqcr0","pricing_plan_id":"cebpf4jnsgd1na2vs0mg"},{"bike_id":"a5984312-2869-4820-8cb6-c49aefed6914","system_id":"levelo_inurba_marseille","lat":43.28022,"lon":5.3694,"is_reserved":false,"is_disabled":false,"rental_uris":{"android":"levelo://app?vid=a5984312-2869-4820-8cb6-c49aefed6914","ios":"levelo://app?vid=a5984312-2869-4820-8cb6-c49aefed6914"},"vehicle_type_id":"4","last_reported":1745212256,"current_range_meters":13600,"station_id":"ce4bha12rcd13ifvqef0","pricing_plan_id":"cebpf4jnsgd1na2vs0mg"},{"bike_id":"f4f7624b-eec9-47f5-9227-aa44836a7a81","system_id":"levelo_inurba_marseille","lat":43.23199,"lon":5.355441,"is_reserved":false,"is_disabled":false,"rental_uris":{"android":"levelo://app?vid=f4f7624b-eec9-47f5-9227-aa44836a7a81","ios":"levelo://app?vid=f4f7624b-eec9-47f5-9227-aa44836a7a81"},"vehicle_type_id":"4","last_reported":1745212256,"current_range_meters":13600,"station_id":"ce4bhu92rcd13ifvqi70","pricing_plan_id":"cebpf4jnsgd1na2vs0mg"},{"bike_id":"1dfc51e9-ff8f-486f-ac10-69f34ffe2a20","system_id":"levelo_inurba_marseille","lat":43.302215,"lon":5.437743,"is_reserved":false,"is_disabled":false,"rental_uris":{"android":"levelo://app?vid=1dfc51e9-ff8f-486f-ac10-69f34ffe2a20","ios":"levelo://app?vid=1dfc51e9-ff8f-486f-ac10-69f34ffe2a20"},"vehicle_type_id":"4","last_reported":1745212256,"current_range_meters":13600,"station_id":"","pricing_plan_id":"cebpf4jnsgd1na2vs0mg"},{"bike_id":"c4fc050b-7c58-4380-8033-ffe242748317","system_id":"levelo_inurba_marseille","lat":43.29505,"lon":5.39405,"is_reserved":false,"is_disabled":true,"rental_uris":{"android":"levelo://app?vid=c4fc050b-7c58-4380-8033-ffe242748317","ios":"levelo://app?vid=c4fc050b-7c58-4380-8033-ffe242748317"},"vehicle_type_id":"4","last_reported":1745212256,"current_range_meters":14000,"station_id":"ce4bh292rcd13ifvqdf0","pricing_plan_id":"cebpf4jnsgd1na2vs0mg"},{"bike_id":"b1a92491-f6da-45e2-a9a5-178685f0efe8","system_id":"levelo_inurba_marseille","lat":43.30938,"lon":5.4015,"is_reserved":false,"is_disabled":false,"rental_uris":{"android":"levelo://app?vid=b1a92491-f6da-45e2-a9a5-178685f0efe8","ios":"levelo://app?vid=b1a92491-f6da-45e2-a9a5-178685f0efe8"},"vehicle_type_id":"4","last_reported":1745212256,"current_range_meters":14000,"station_id":"ce4bgvp2rcd13ifvqct0","pricing_plan_id":"cebpf4jnsgd1na2vs0mg"},{"bike_id":"64ff8926-d764-44c7-a44c-0924c13282f0","system_id":"levelo_inurba_marseille","lat":43.29264,"lon":5.40145,"is_reserved":false,"is_disabled":false,"rental_uris":{"android":"levelo://app?vid=64ff8926-d764-44c7-a44c-0924c13282f0","ios":"levelo://app?vid=64ff8926-d764-44c7-a44c-0924c13282f0"},"vehicle_type_id":"4","last_reported":1745212256,"current_range_meters":14000,"station_id":"ce4bh312rcd13ifvqdk0","pricing_plan_id":"cebpf4jnsgd1na2vs0mg"},{"bike_id":"64c1e03b-2971-4be3-b430-369489f10b8e","system_id":"levelo_inurba_marseille","lat":43.29357,"lon":5.37465,"is_reserved":false,"is_disabled":true,"rental_uris":{"android":"levelo://app?vid=64c1e03b-2971-4be3-b430-369489f10b8e","ios":"levelo://app?vid=64c1e03b-2971-4be3-b430-369489f10b8e"},"vehicle_type_id":"4","last_reported":1745212256,"current_range_meters":14000,"station_id":"","pricing_plan_id":"cebpf4jnsgd1na2vs0mg"},{"bike_id":"b63b7a5e-a38c-41b2-b8ca-03dcb2ce1a70","system_id":"levelo_inurba_marseille","lat":43.25089,"lon":5.39501,"is_reserved":false,"is_disabled":true,"rental_uris":{"android":"levelo://app?vid=b63b7a5e-a38c-41b2-b8ca-03dcb2ce1a70","ios":"levelo://app?vid=b63b7a5e-a38c-41b2-b8ca-03dcb2ce1a70"},"vehicle_type_id":"4","last_reported":1745212256,"current_range_meters":14400,"station_id":"ce4bhm12rcd13ifvqgkg","pricing_plan_id":"cebpf4jnsgd1na2vs0mg"},{"bike_id":"04494bc7-45b7-4bae-8033-eab647359250","system_id":"levelo_inurba_marseille","lat":43.29192,"lon":5.39331,"is_reserved":false,"is_disabled":false,"rental_uris":{"android":"levelo://app?vid=04494bc7-45b7-4bae-8033-eab647359250","ios":"levelo://app?vid=04494bc7-45b7-4bae-8033-eab647359250"},"vehicle_type_id":"4","last_reported":1745212256,"current_range_meters":14800,"station_id":"ce4bh192rcd13ifvqdd0","pricing_plan_id":"cebpf4jnsgd1na2vs0mg"},{"bike_id":"acb337f8-9a02-4c16-ad32-3a6e67af21e4","system_id":"levelo_inurba_marseille","lat":43.28428,"lon":5.35894,"is_reserved":false,"is_disabled":true,"rental_uris":{"android":"levelo://app?vid=acb337f8-9a02-4c16-ad32-3a6e67af21e4","ios":"levelo://app?vid=acb337f8-9a02-4c16-ad32-3a6e67af21e4"},"vehicle_type_id":"4","last_reported":1745212256,"current_range_meters":14800,"station_id":"ce4bhah2rcd13ifvqei0","pricing_plan_id":"cebpf4jnsgd1na2vs0mg"},{"bike_id":"c1502975-37e3-4e72-9fe3-fb33585be3fd","system_id":"levelo_inurba_marseille","lat":43.22923,"lon":5.354,"is_reserved":false,"is_disabled":false,"rental_uris":{"android":"levelo://app?vid=c1502975-37e3-4e72-9fe3-fb33585be3fd","ios":"levelo://app?vid=c1502975-37e3-4e72-9fe3-fb33585be3fd"},"vehicle_type_id":"4","last_reported":1745212256,"current_range_meters":14800,"station_id":"cpo3532slgdg3j2ikp40","pricing_plan_id":"cebpf4jnsgd1na2vs0mg"},{"bike_id":"54f0d2d4-b0f8-4db8-a984-f8751855f3a9","system_id":"levelo_inurba_marseille","lat":43.25489,"lon":5.37686,"is_reserved":false,"is_disabled":true,"rental_uris":{"android":"levelo://app?vid=54f0d2d4-b0f8-4db8-a984-f8751855f3a9","ios":"levelo://app?vid=54f0d2d4-b0f8-4db8-a984-f8751855f3a9"},"vehicle_type_id":"4","last_reported":1745212256,"current_range_meters":14800,"station_id":"ce4bhh12rcd13ifvqff0","pricing_plan_id":"cebpf4jnsgd1na2vs0mg"},{"bike_id":"7974a0b9-d888-4717-8913-9d7bc8fa8019","system_id":"levelo_inurba_marseille","lat":43.30026,"lon":5.36595,"is_reserved":false,"is_disabled":false,"rental_uris":{"android":"levelo://app?vid=7974a0b9-d888-4717-8913-9d7bc8fa8019","ios":"levelo://app?vid=7974a0b9-d888-4717-8913-9d7bc8fa8019"},"vehicle_type_id":"4","last_reported":1745212256,"current_range_meters":15200,"station_id":"","pricing_plan_id":"cebpf4jnsgd1na2vs0mg"},{"bike_id":"4cec43c2-5f50-4b41-80bd-a9aa2383ae93","system_id":"levelo_inurba_marseille","lat":43.323329,"lon":5.406212,"is_reserved":false,"is_disabled":false,"rental_uris":{"android":"levelo://app?vid=4cec43c2-5f50-4b41-80bd-a9aa2383ae93","ios":"levelo://app?vid=4cec43c2-5f50-4b41-80bd-a9aa2383ae93"},"vehicle_type_id":"4","last_reported":1745212256,"current_range_meters":15200,"station_id":"ce4bhq92rcd13ifvqhjg","pricing_plan_id":"cebpf4jnsgd1na2vs0mg"},{"bike_id":"820f62be-9c86-4ba0-b470-a6efb3442528","system_id":"levelo_inurba_marseille","lat":43.2409,"lon":5.37729,"is_reserved":false,"is_disabled":true,"rental_uris":{"android":"levelo://app?vid=820f62be-9c86-4ba0-b470-a6efb3442528","ios":"levelo://app?vid=820f62be-9c86-4ba0-b470-a6efb3442528"},"vehicle_type_id":"4","last_reported":1745212256,"current_range_meters":15200,"station_id":"ce4bhnp2rcd13ifvqgvg","pricing_plan_id":"cebpf4jnsgd1na2vs0mg"},{"bike_id":"878b7bad-6baa-4a9a-97e3-cb147f9aea9b","system_id":"levelo_inurba_marseille","lat":43.23959,"lon":5.36643,"is_reserved":false,"is_disabled":false,"rental_uris":{"android":"levelo://app?vid=878b7bad-6baa-4a9a-97e3-cb147f9aea9b","ios":"levelo://app?vid=878b7bad-6baa-4a9a-97e3-cb147f9aea9b"},"vehicle_type_id":"4","last_reported":1745212256,"current_range_meters":16000,"station_id":"ce4bhi12rcd13ifvqfp0","pricing_plan_id":"cebpf4jnsgd1na2vs0mg"},{"bike_id":"a5ac99e7-3bfe-4bdf-b59d-68957b05ee92","system_id":"levelo_inurba_marseille","lat":43.31332,"lon":5.38667,"is_reserved":false,"is_disabled":false,"rental_uris":{"android":"levelo://app?vid=a5ac99e7-3bfe-4bdf-b59d-68957b05ee92","ios":"levelo://app?vid=a5ac99e7-3bfe-4bdf-b59d-68957b05ee92"},"vehicle_type_id":"4","last_reported":1745212256,"current_range_meters":16000,"station_id":"","pricing_plan_id":"cebpf4jnsgd1na2vs0mg"},{"bike_id":"a7f91fb8-2846-493f-a68f-69867197cfa1","system_id":"levelo_inurba_marseille","lat":43.33653,"lon":5.39745,"is_reserved":false,"is_disabled":false,"rental_uris":{"android":"levelo://app?vid=a7f91fb8-2846-493f-a68f-69867197cfa1","ios":"levelo://app?vid=a7f91fb8-2846-493f-a68f-69867197cfa1"},"vehicle_type_id":"4","last_reported":1745212256,"current_range_meters":16000,"station_id":"","pricing_plan_id":"cebpf4jnsgd1na2vs0mg"},{"bike_id":"1496c68b-9915-4e58-a409-5e573a0a3a5b","system_id":"levelo_inurba_marseille","lat":43.3112,"lon":5.37766,"is_reserved":false,"is_disabled":false,"rental_uris":{"android":"levelo://app?vid=1496c68b-9915-4e58-a409-5e573a0a3a5b","ios":"levelo://app?vid=1496c68b-9915-4e58-a409-5e573a0a3a5b"},"vehicle_type_id":"4","last_reported":1745212256,"current_range_meters":16000,"station_id":"ce4bgt92rcd13ifvqcg0","pricing_plan_id":"cebpf4jnsgd1na2vs0mg"},{"bike_id":"4d0c211d-cc3b-4460-a3c4-121acaf031ae","system_id":"levelo_inurba_marseille","lat":43.3374,"lon":5.39182,"is_reserved":false,"is_disabled":false,"rental_uris":{"android":"levelo://app?vid=4d0c211d-cc3b-4460-a3c4-121acaf031ae","ios":"levelo://app?vid=4d0c211d-cc3b-4460-a3c4-121acaf031ae"},"vehicle_type_id":"4","last_reported":1745212256,"current_range_meters":16000,"station_id":"ce4bhr92rcd13ifvqhsg","pricing_plan_id":"cebpf4jnsgd1na2vs0mg"},{"bike_id":"49e44546-d950-48d4-81ad-6ad303d08980","system_id":"levelo_inurba_marseille","lat":43.21746,"lon":5.34607,"is_reserved":false,"is_disabled":true,"rental_uris":{"android":"levelo://app?vid=49e44546-d950-48d4-81ad-6ad303d08980","ios":"levelo://app?vid=49e44546-d950-48d4-81ad-6ad303d08980"},"vehicle_type_id":"4","last_reported":1745212256,"current_range_meters":16000,"station_id":"","pricing_plan_id":"cebpf4jnsgd1na2vs0mg"},{"bike_id":"54547122-c9e3-44aa-92d3-ee29b2aa8445","system_id":"levelo_inurba_marseille","lat":43.28415,"lon":5.34988,"is_reserved":false,"is_disabled":true,"rental_uris":{"android":"levelo://app?vid=54547122-c9e3-44aa-92d3-ee29b2aa8445","ios":"levelo://app?vid=54547122-c9e3-44aa-92d3-ee29b2aa8445"},"vehicle_type_id":"4","last_reported":1745212256,"current_range_meters":16000,"station_id":"ce4bhbh2rcd13ifvqepg","pricing_plan_id":"cebpf4jnsgd1na2vs0mg"},{"bike_id":"37c2bca0-8d17-4681-b908-adafbea4e0d8","system_id":"levelo_inurba_marseille","lat":43.29278,"lon":5.37624,"is_reserved":false,"is_disabled":false,"rental_uris":{"android":"levelo://app?vid=37c2bca0-8d17-4681-b908-adafbea4e0d8","ios":"levelo://app?vid=37c2bca0-8d17-4681-b908-adafbea4e0d8"},"vehicle_type_id":"4","last_reported":1745212256,"current_range_meters":16000,"station_id":"ce4bgi12rcd13ifvqb80","pricing_plan_id":"cebpf4jnsgd1na2vs0mg"},{"bike_id":"5421f91f-c5b9-4312-b8b1-ba44221bb5c0","system_id":"levelo_inurba_marseille","lat":43.26203,"lon":5.37923,"is_reserved":false,"is_disabled":true,"rental_uris":{"android":"levelo://app?vid=5421f91f-c5b9-4312-b8b1-ba44221bb5c0","ios":"levelo://app?vid=5421f91f-c5b9-4312-b8b1-ba44221bb5c0"},"vehicle_type_id":"4","last_reported":1745212256,"current_range_meters":16000,"station_id":"ce4bhjp2rcd13ifvqg90","pricing_plan_id":"cebpf4jnsgd1na2vs0mg"},{"bike_id":"1ac1b160-80aa-4c3d-8047-868b15af45f6","system_id":"levelo_inurba_marseille","lat":43.27919,"lon":5.39599,"is_reserved":false,"is_disabled":false,"rental_uris":{"android":"levelo://app?vid=1ac1b160-80aa-4c3d-8047-868b15af45f6","ios":"levelo://app?vid=1ac1b160-80aa-4c3d-8047-868b15af45f6"},"vehicle_type_id":"4","last_reported":1745212256,"current_range_meters":16000,"station_id":"ce4bhf92rcd13ifvqf40","pricing_plan_id":"cebpf4jnsgd1na2vs0mg"},{"bike_id":"46b669d0-bb58-4c91-9176-115328c4fb6e","system_id":"levelo_inurba_marseille","lat":43.30955,"lon":5.39077,"is_reserved":false,"is_disabled":false,"rental_uris":{"android":"levelo://app?vid=46b669d0-bb58-4c91-9176-115328c4fb6e","ios":"levelo://app?vid=46b669d0-bb58-4c91-9176-115328c4fb6e"},"vehicle_type_id":"4","last_reported":1745212256,"current_range_meters":16000,"station_id":"ce4bgup2rcd13ifvqco0","pricing_plan_id":"cebpf4jnsgd1na2vs0mg"},{"bike_id":"b8cd5422-1e24-48d1-bc5d-5f973732c00b","system_id":"levelo_inurba_marseille","lat":43.23186,"lon":5.35549,"is_reserved":false,"is_disabled":false,"rental_uris":{"android":"levelo://app?vid=b8cd5422-1e24-48d1-bc5d-5f973732c00b","ios":"levelo://app?vid=b8cd5422-1e24-48d1-bc5d-5f973732c00b"},"vehicle_type_id":"4","last_reported":1745212256,"current_range_meters":16000,"station_id":"ce4bhu92rcd13ifvqi70","pricing_plan_id":"cebpf4jnsgd1na2vs0mg"},{"bike_id":"af5ba08c-0730-4dda-a43c-3e08ff505b3c","system_id":"levelo_inurba_marseille","lat":43.231959,"lon":5.355557,"is_reserved":false,"is_disabled":false,"rental_uris":{"android":"levelo://app?vid=af5ba08c-0730-4dda-a43c-3e08ff505b3c","ios":"levelo://app?vid=af5ba08c-0730-4dda-a43c-3e08ff505b3c"},"vehicle_type_id":"4","last_reported":1745212256,"current_range_meters":16400,"station_id":"ce4bhu92rcd13ifvqi70","pricing_plan_id":"cebpf4jnsgd1na2vs0mg"},{"bike_id":"68501225-8cea-4f95-ae47-484785f78e68","system_id":"levelo_inurba_marseille","lat":43.323663,"lon":5.389003,"is_reserved":false,"is_disabled":true,"rental_uris":{"android":"levelo://app?vid=68501225-8cea-4f95-ae47-484785f78e68","ios":"levelo://app?vid=68501225-8cea-4f95-ae47-484785f78e68"},"vehicle_type_id":"4","last_reported":1745212256,"current_range_meters":16400,"station_id":"ce4bhqp2rcd13ifvqhog","pricing_plan_id":"cebpf4jnsgd1na2vs0mg"},{"bike_id":"7f85cb0c-933e-490b-a0c3-bfacab605268","system_id":"levelo_inurba_marseille","lat":43.28838,"lon":5.35968,"is_reserved":false,"is_disabled":true,"rental_uris":{"android":"levelo://app?vid=7f85cb0c-933e-490b-a0c3-bfacab605268","ios":"levelo://app?vid=7f85cb0c-933e-490b-a0c3-bfacab605268"},"vehicle_type_id":"4","last_reported":1745212256,"current_range_meters":16400,"station_id":"","pricing_plan_id":"cebpf4jnsgd1na2vs0mg"},{"bike_id":"fd397a93-8f0f-4684-90df-7f1a6a5c6249","system_id":"levelo_inurba_marseille","lat":43.33041,"lon":5.40685,"is_reserved":false,"is_disabled":false,"rental_uris":{"android":"levelo://app?vid=fd397a93-8f0f-4684-90df-7f1a6a5c6249","ios":"levelo://app?vid=fd397a93-8f0f-4684-90df-7f1a6a5c6249"},"vehicle_type_id":"4","last_reported":1745212256,"current_range_meters":16400,"station_id":"","pricing_plan_id":"cebpf4jnsgd1na2vs0mg"},{"bike_id":"0df66e0a-9fc8-4b65-8ac4-cdbc9cef329a","system_id":"levelo_inurba_marseille","lat":43.31073,"lon":5.38356,"is_reserved":false,"is_disabled":true,"rental_uris":{"android":"levelo://app?vid=0df66e0a-9fc8-4b65-8ac4-cdbc9cef329a","ios":"levelo://app?vid=0df66e0a-9fc8-4b65-8ac4-cdbc9cef329a"},"vehicle_type_id":"4","last_reported":1745212256,"current_range_meters":16400,"station_id":"ce4bgv92rcd13ifvqcr0","pricing_plan_id":"cebpf4jnsgd1na2vs0mg"},{"bike_id":"b27a9d1c-abb4-43c8-8463-09cd46049d42","system_id":"levelo_inurba_marseille","lat":43.26195,"lon":5.37463,"is_reserved":false,"is_disabled":true,"rental_uris":{"android":"levelo://app?vid=b27a9d1c-abb4-43c8-8463-09cd46049d42","ios":"levelo://app?vid=b27a9d1c-abb4-43c8-8463-09cd46049d42"},"vehicle_type_id":"4","last_reported":1745212256,"current_range_meters":16400,"station_id":"ce4bhgp2rcd13ifvqfc0","pricing_plan_id":"cebpf4jnsgd1na2vs0mg"},{"bike_id":"608afa2a-e3df-4335-ae2c-e8de6a01e0fb","system_id":"levelo_inurba_marseille","lat":43.25002,"lon":5.38941,"is_reserved":false,"is_disabled":false,"rental_uris":{"android":"levelo://app?vid=608afa2a-e3df-4335-ae2c-e8de6a01e0fb","ios":"levelo://app?vid=608afa2a-e3df-4335-ae2c-e8de6a01e0fb"},"vehicle_type_id":"4","last_reported":1745212256,"current_range_meters":16400,"station_id":"ce4bhgp2rcd13ifvqfd0","pricing_plan_id":"cebpf4jnsgd1na2vs0mg"},{"bike_id":"af454791-f9b3-4152-989c-1ca4d88b23d5","system_id":"levelo_inurba_marseille","lat":43.25119,"lon":5.4031,"is_reserved":false,"is_disabled":false,"rental_uris":{"android":"levelo://app?vid=af454791-f9b3-4152-989c-1ca4d88b23d5","ios":"levelo://app?vid=af454791-f9b3-4152-989c-1ca4d88b23d5"},"vehicle_type_id":"4","last_reported":1745212256,"current_range_meters":16400,"station_id":"ce4bhlh2rcd13ifvqgig","pricing_plan_id":"cebpf4jnsgd1na2vs0mg"},{"bike_id":"2b9dc3a3-9ca1-4379-9bb7-4b8dbd4e17cf","system_id":"levelo_inurba_marseille","lat":43.239563,"lon":5.366219,"is_reserved":false,"is_disabled":true,"rental_uris":{"android":"levelo://app?vid=2b9dc3a3-9ca1-4379-9bb7-4b8dbd4e17cf","ios":"levelo://app?vid=2b9dc3a3-9ca1-4379-9bb7-4b8dbd4e17cf"},"vehicle_type_id":"4","last_reported":1745212256,"current_range_meters":16800,"station_id":"ce4bhi12rcd13ifvqfp0","pricing_plan_id":"cebpf4jnsgd1na2vs0mg"},{"bike_id":"948d5a35-9c81-459d-880f-1bf6fdb9262c","system_id":"levelo_inurba_marseille","lat":43.33745,"lon":5.37457,"is_reserved":false,"is_disabled":false,"rental_uris":{"android":"levelo://app?vid=948d5a35-9c81-459d-880f-1bf6fdb9262c","ios":"levelo://app?vid=948d5a35-9c81-459d-880f-1bf6fdb9262c"},"vehicle_type_id":"4","last_reported":1745212256,"current_range_meters":16800,"station_id":"","pricing_plan_id":"cebpf4jnsgd1na2vs0mg"},{"bike_id":"1bee1f6b-dcb8-46b9-a0b3-876cad04fee4","system_id":"levelo_inurba_marseille","lat":43.24645,"lon":5.38203,"is_reserved":false,"is_disabled":false,"rental_uris":{"android":"levelo://app?vid=1bee1f6b-dcb8-46b9-a0b3-876cad04fee4","ios":"levelo://app?vid=1bee1f6b-dcb8-46b9-a0b3-876cad04fee4"},"vehicle_type_id":"4","last_reported":1745212256,"current_range_meters":16800,"station_id":"ce4bhih2rcd13ifvqfr0","pricing_plan_id":"cebpf4jnsgd1na2vs0mg"},{"bike_id":"f5082407-ad9f-416d-b3f3-a40cd04bfde3","system_id":"levelo_inurba_marseille","lat":43.230128,"lon":5.354821,"is_reserved":false,"is_disabled":false,"rental_uris":{"android":"levelo://app?vid=f5082407-ad9f-416d-b3f3-a40cd04bfde3","ios":"levelo://app?vid=f5082407-ad9f-416d-b3f3-a40cd04bfde3"},"vehicle_type_id":"4","last_reported":1745212256,"current_range_meters":16800,"station_id":"cpo3342slgdg3j2ifvpg","pricing_plan_id":"cebpf4jnsgd1na2vs0mg"},{"bike_id":"708a791d-3040-4b21-8706-33329d812143","system_id":"levelo_inurba_marseille","lat":43.30694,"lon":5.3924,"is_reserved":false,"is_disabled":true,"rental_uris":{"android":"levelo://app?vid=708a791d-3040-4b21-8706-33329d812143","ios":"levelo://app?vid=708a791d-3040-4b21-8706-33329d812143"},"vehicle_type_id":"4","last_reported":1745212256,"current_range_meters":16800,"station_id":"","pricing_plan_id":"cebpf4jnsgd1na2vs0mg"},{"bike_id":"b747ec69-9972-4f2d-8123-aea4b86b27a6","system_id":"levelo_inurba_marseille","lat":43.29438,"lon":5.39748,"is_reserved":false,"is_disabled":false,"rental_uris":{"android":"levelo://app?vid=b747ec69-9972-4f2d-8123-aea4b86b27a6","ios":"levelo://app?vid=b747ec69-9972-4f2d-8123-aea4b86b27a6"},"vehicle_type_id":"4","last_reported":1745212256,"current_range_meters":16800,"station_id":"ce4bh3h2rcd13ifvqdo0","pricing_plan_id":"cebpf4jnsgd1na2vs0mg"},{"bike_id":"b3eec801-e14b-4c1a-ac15-531a25c956e2","system_id":"levelo_inurba_marseille","lat":43.29237,"lon":5.40903,"is_reserved":false,"is_disabled":false,"rental_uris":{"android":"levelo://app?vid=b3eec801-e14b-4c1a-ac15-531a25c956e2","ios":"levelo://app?vid=b3eec801-e14b-4c1a-ac15-531a25c956e2"},"vehicle_type_id":"4","last_reported":1745212256,"current_range_meters":16800,"station_id":"ce4bh192rcd13ifvqdc0","pricing_plan_id":"cebpf4jnsgd1na2vs0mg"},{"bike_id":"4049e89d-08c9-4176-9c1f-54da6bad12a8","system_id":"levelo_inurba_marseille","lat":43.3058,"lon":5.39365,"is_reserved":false,"is_disabled":false,"rental_uris":{"android":"levelo://app?vid=4049e89d-08c9-4176-9c1f-54da6bad12a8","ios":"levelo://app?vid=4049e89d-08c9-4176-9c1f-54da6bad12a8"},"vehicle_type_id":"4","last_reported":1745212256,"current_range_meters":16800,"station_id":"ce4bh0p2rcd13ifvqd80","pricing_plan_id":"cebpf4jnsgd1na2vs0mg"},{"bike_id":"3cd6e764-35d0-4055-a8a2-3896bb09f920","system_id":"levelo_inurba_marseille","lat":43.33651,"lon":5.39737,"is_reserved":false,"is_disabled":false,"rental_uris":{"android":"levelo://app?vid=3cd6e764-35d0-4055-a8a2-3896bb09f920","ios":"levelo://app?vid=3cd6e764-35d0-4055-a8a2-3896bb09f920"},"vehicle_type_id":"4","last_reported":1745212256,"current_range_meters":17200,"station_id":"","pricing_plan_id":"cebpf4jnsgd1na2vs0mg"},{"bike_id":"76453cd1-7d95-428f-9fac-4fd01a322ba9","system_id":"levelo_inurba_marseille","lat":43.29003,"lon":5.35614,"is_reserved":false,"is_disabled":true,"rental_uris":{"android":"levelo://app?vid=76453cd1-7d95-428f-9fac-4fd01a322ba9","ios":"levelo://app?vid=76453cd1-7d95-428f-9fac-4fd01a322ba9"},"vehicle_type_id":"4","last_reported":1745212256,"current_range_meters":17200,"station_id":"ce4bhb92rcd13ifvqen0","pricing_plan_id":"cebpf4jnsgd1na2vs0mg"},{"bike_id":"74f8973c-43cf-4dde-ba9d-517e369d28d9","system_id":"levelo_inurba_marseille","lat":43.27624,"lon":5.39494,"is_reserved":false,"is_disabled":false,"rental_uris":{"android":"levelo://app?vid=74f8973c-43cf-4dde-ba9d-517e369d28d9","ios":"levelo://app?vid=74f8973c-43cf-4dde-ba9d-517e369d28d9"},"vehicle_type_id":"4","last_reported":1745212256,"current_range_meters":17200,"station_id":"","pricing_plan_id":"cebpf4jnsgd1na2vs0mg"},{"bike_id":"8e09c260-562e-47ac-9cbf-89490298ff42","system_id":"levelo_inurba_marseille","lat":43.30655,"lon":5.40727,"is_reserved":false,"is_disabled":false,"rental_uris":{"android":"levelo://app?vid=8e09c260-562e-47ac-9cbf-89490298ff42","ios":"levelo://app?vid=8e09c260-562e-47ac-9cbf-89490298ff42"},"vehicle_type_id":"4","last_reported":1745212256,"current_range_meters":17200,"station_id":"","pricing_plan_id":"cebpf4jnsgd1na2vs0mg"},{"bike_id":"495096e8-215c-4369-b42a-f8123bca3e0d","system_id":"levelo_inurba_marseille","lat":43.26237,"lon":5.40471,"is_reserved":false,"is_disabled":false,"rental_uris":{"android":"levelo://app?vid=495096e8-215c-4369-b42a-f8123bca3e0d","ios":"levelo://app?vid=495096e8-215c-4369-b42a-f8123bca3e0d"},"vehicle_type_id":"4","last_reported":1745212256,"current_range_meters":17200,"station_id":"ce4bhmh2rcd13ifvqgmg","pricing_plan_id":"cebpf4jnsgd1na2vs0mg"},{"bike_id":"e024b5f0-c8a8-4c59-83b8-9fea0a0da8d5","system_id":"levelo_inurba_marseille","lat":43.31058,"lon":5.38354,"is_reserved":false,"is_disabled":false,"rental_uris":{"android":"levelo://app?vid=e024b5f0-c8a8-4c59-83b8-9fea0a0da8d5","ios":"levelo://app?vid=e024b5f0-c8a8-4c59-83b8-9fea0a0da8d5"},"vehicle_type_id":"4","last_reported":1745212256,"current_range_meters":17200,"station_id":"ce4bgv92rcd13ifvqcr0","pricing_plan_id":"cebpf4jnsgd1na2vs0mg"},{"bike_id":"90ce21df-5f7c-4551-a99a-0900c11e065d","system_id":"levelo_inurba_marseille","lat":43.283662,"lon":5.418573,"is_reserved":false,"is_disabled":false,"rental_uris":{"android":"levelo://app?vid=90ce21df-5f7c-4551-a99a-0900c11e065d","ios":"levelo://app?vid=90ce21df-5f7c-4551-a99a-0900c11e065d"},"vehicle_type_id":"4","last_reported":1745212256,"current_range_meters":17600,"station_id":"","pricing_plan_id":"cebpf4jnsgd1na2vs0mg"},{"bike_id":"57fa8f5b-772c-43d0-a9df-35a917243059","system_id":"levelo_inurba_marseille","lat":43.288453,"lon":5.358515,"is_reserved":false,"is_disabled":false,"rental_uris":{"android":"levelo://app?vid=57fa8f5b-772c-43d0-a9df-35a917243059","ios":"levelo://app?vid=57fa8f5b-772c-43d0-a9df-35a917243059"},"vehicle_type_id":"4","last_reported":1745212256,"current_range_meters":17600,"station_id":"ce4bhb12rcd13ifvqem0","pricing_plan_id":"cebpf4jnsgd1na2vs0mg"},{"bike_id":"c5e3d54c-a3b9-49be-b43b-87868e82f29e","system_id":"levelo_inurba_marseille","lat":43.26203,"lon":5.40486,"is_reserved":false,"is_disabled":false,"rental_uris":{"android":"levelo://app?vid=c5e3d54c-a3b9-49be-b43b-87868e82f29e","ios":"levelo://app?vid=c5e3d54c-a3b9-49be-b43b-87868e82f29e"},"vehicle_type_id":"4","last_reported":1745212256,"current_range_meters":17600,"station_id":"ce4bhmh2rcd13ifvqgmg","pricing_plan_id":"cebpf4jnsgd1na2vs0mg"},{"bike_id":"2b22eb8e-177c-4ead-8259-66e572a51a0a","system_id":"levelo_inurba_marseille","lat":43.30918,"lon":5.40148,"is_reserved":false,"is_disabled":false,"rental_uris":{"android":"levelo://app?vid=2b22eb8e-177c-4ead-8259-66e572a51a0a","ios":"levelo://app?vid=2b22eb8e-177c-4ead-8259-66e572a51a0a"},"vehicle_type_id":"4","last_reported":1745212256,"current_range_meters":17600,"station_id":"ce4bgvp2rcd13ifvqct0","pricing_plan_id":"cebpf4jnsgd1na2vs0mg"},{"bike_id":"d2afc502-7c0e-4c30-953a-05089d63cf8f","system_id":"levelo_inurba_marseille","lat":43.30428,"lon":5.41294,"is_reserved":false,"is_disabled":false,"rental_uris":{"android":"levelo://app?vid=d2afc502-7c0e-4c30-953a-05089d63cf8f","ios":"levelo://app?vid=d2afc502-7c0e-4c30-953a-05089d63cf8f"},"vehicle_type_id":"4","last_reported":1745212256,"current_range_meters":17600,"station_id":"ce4bhop2rcd13ifvqh8g","pricing_plan_id":"cebpf4jnsgd1na2vs0mg"},{"bike_id":"9235e989-b644-4df1-b668-556e4921b40e","system_id":"levelo_inurba_marseille","lat":43.2419,"lon":5.39703,"is_reserved":false,"is_disabled":true,"rental_uris":{"android":"levelo://app?vid=9235e989-b644-4df1-b668-556e4921b40e","ios":"levelo://app?vid=9235e989-b644-4df1-b668-556e4921b40e"},"vehicle_type_id":"4","last_reported":1745212256,"current_range_meters":18000,"station_id":"ce4bhn12rcd13ifvqgpg","pricing_plan_id":"cebpf4jnsgd1na2vs0mg"},{"bike_id":"9ebb9e31-b181-4120-a985-5579f166c1c4","system_id":"levelo_inurba_marseille","lat":43.28028,"lon":5.39982,"is_reserved":false,"is_disabled":true,"rental_uris":{"android":"levelo://app?vid=9ebb9e31-b181-4120-a985-5579f166c1c4","ios":"levelo://app?vid=9ebb9e31-b181-4120-a985-5579f166c1c4"},"vehicle_type_id":"4","last_reported":1745212256,"current_range_meters":18000,"station_id":"ce4bho92rcd13ifvqh4g","pricing_plan_id":"cebpf4jnsgd1na2vs0mg"},{"bike_id":"4548ac9e-e96e-45c1-a769-0832297babba","system_id":"levelo_inurba_marseille","lat":43.32067,"lon":5.36786,"is_reserved":false,"is_disabled":false,"rental_uris":{"android":"levelo://app?vid=4548ac9e-e96e-45c1-a769-0832297babba","ios":"levelo://app?vid=4548ac9e-e96e-45c1-a769-0832297babba"},"vehicle_type_id":"4","last_reported":1745212256,"current_range_meters":18000,"station_id":"ce4bhrh2rcd13ifvqhug","pricing_plan_id":"cebpf4jnsgd1na2vs0mg"},{"bike_id":"00ffbdc2-2962-4e85-97f2-b2875d1e2753","system_id":"levelo_inurba_marseille","lat":43.28276,"lon":5.35072,"is_reserved":false,"is_disabled":true,"rental_uris":{"android":"levelo://app?vid=00ffbdc2-2962-4e85-97f2-b2875d1e2753","ios":"levelo://app?vid=00ffbdc2-2962-4e85-97f2-b2875d1e2753"},"vehicle_type_id":"4","last_reported":1745212256,"current_range_meters":18000,"station_id":"ce4bhbp2rcd13ifvqerg","pricing_plan_id":"cebpf4jnsgd1na2vs0mg"},{"bike_id":"88d413c7-d41d-4858-9903-ae5aa953eaa9","system_id":"levelo_inurba_marseille","lat":43.25078,"lon":5.39531,"is_reserved":false,"is_disabled":false,"rental_uris":{"android":"levelo://app?vid=88d413c7-d41d-4858-9903-ae5aa953eaa9","ios":"levelo://app?vid=88d413c7-d41d-4858-9903-ae5aa953eaa9"},"vehicle_type_id":"4","last_reported":1745212256,"current_range_meters":18000,"station_id":"ce4bhm12rcd13ifvqgkg","pricing_plan_id":"cebpf4jnsgd1na2vs0mg"},{"bike_id":"5d90028c-0864-43cf-b843-04949956c6eb","system_id":"levelo_inurba_marseille","lat":43.29274,"lon":5.40137,"is_reserved":false,"is_disabled":false,"rental_uris":{"android":"levelo://app?vid=5d90028c-0864-43cf-b843-04949956c6eb","ios":"levelo://app?vid=5d90028c-0864-43cf-b843-04949956c6eb"},"vehicle_type_id":"4","last_reported":1745212256,"current_range_meters":18000,"station_id":"ce4bh312rcd13ifvqdk0","pricing_plan_id":"cebpf4jnsgd1na2vs0mg"},{"bike_id":"3242031d-70ee-42c4-80dd-fc750a7fa2d1","system_id":"levelo_inurba_marseille","lat":43.33746,"lon":5.35602,"is_reserved":false,"is_disabled":false,"rental_uris":{"android":"levelo://app?vid=3242031d-70ee-42c4-80dd-fc750a7fa2d1","ios":"levelo://app?vid=3242031d-70ee-42c4-80dd-fc750a7fa2d1"},"vehicle_type_id":"4","last_reported":1745212256,"current_range_meters":18800,"station_id":"","pricing_plan_id":"cebpf4jnsgd1na2vs0mg"},{"bike_id":"da12a936-18fd-4cef-bde1-14ba30917661","system_id":"levelo_inurba_marseille","lat":43.32365,"lon":5.40618,"is_reserved":false,"is_disabled":false,"rental_uris":{"android":"levelo://app?vid=da12a936-18fd-4cef-bde1-14ba30917661","ios":"levelo://app?vid=da12a936-18fd-4cef-bde1-14ba30917661"},"vehicle_type_id":"4","last_reported":1745212256,"current_range_meters":18800,"station_id":"ce4bhq92rcd13ifvqhjg","pricing_plan_id":"cebpf4jnsgd1na2vs0mg"},{"bike_id":"933d93a6-17c4-4815-a455-9d22b61db114","system_id":"levelo_inurba_marseille","lat":43.28691,"lon":5.40003,"is_reserved":false,"is_disabled":false,"rental_uris":{"android":"levelo://app?vid=933d93a6-17c4-4815-a455-9d22b61db114","ios":"levelo://app?vid=933d93a6-17c4-4815-a455-9d22b61db114"},"vehicle_type_id":"4","last_reported":1745212256,"current_range_meters":18000,"station_id":"ce4bho92rcd13ifvqh3g","pricing_plan_id":"cebpf4jnsgd1na2vs0mg"},{"bike_id":"7fbfc9a0-3123-40fa-bbce-c6ce9edda5ed","system_id":"levelo_inurba_marseille","lat":43.27079,"lon":5.42268,"is_reserved":false,"is_disabled":true,"rental_uris":{"android":"levelo://app?vid=7fbfc9a0-3123-40fa-bbce-c6ce9edda5ed","ios":"levelo://app?vid=7fbfc9a0-3123-40fa-bbce-c6ce9edda5ed"},"vehicle_type_id":"4","last_reported":1745212256,"current_range_meters":18800,"station_id":"ce4bhk92rcd13ifvqgb0","pricing_plan_id":"cebpf4jnsgd1na2vs0mg"},{"bike_id":"815228c1-b05e-49cf-9e82-cf6be4d5757f","system_id":"levelo_inurba_marseille","lat":43.30381,"lon":5.42498,"is_reserved":false,"is_disabled":false,"rental_uris":{"android":"levelo://app?vid=815228c1-b05e-49cf-9e82-cf6be4d5757f","ios":"levelo://app?vid=815228c1-b05e-49cf-9e82-cf6be4d5757f"},"vehicle_type_id":"4","last_reported":1745212256,"current_range_meters":19200,"station_id":"ce4bhoh2rcd13ifvqh6g","pricing_plan_id":"cebpf4jnsgd1na2vs0mg"},{"bike_id":"edb5d909-a522-40a7-afb8-0b251bbbb305","system_id":"levelo_inurba_marseille","lat":43.269413,"lon":5.386336,"is_reserved":false,"is_disabled":true,"rental_uris":{"android":"levelo://app?vid=edb5d909-a522-40a7-afb8-0b251bbbb305","ios":"levelo://app?vid=edb5d909-a522-40a7-afb8-0b251bbbb305"},"vehicle_type_id":"4","last_reported":1745212256,"current_range_meters":19200,"station_id":"ce4bhh92rcd13ifvqfh0","pricing_plan_id":"cebpf4jnsgd1na2vs0mg"},{"bike_id":"7677c4ef-d832-47d2-8cdb-18c973bf10e9","system_id":"levelo_inurba_marseille","lat":43.3089,"lon":5.39637,"is_reserved":false,"is_disabled":false,"rental_uris":{"android":"levelo://app?vid=7677c4ef-d832-47d2-8cdb-18c973bf10e9","ios":"levelo://app?vid=7677c4ef-d832-47d2-8cdb-18c973bf10e9"},"vehicle_type_id":"4","last_reported":1745212256,"current_range_meters":19200,"station_id":"ce4bh012rcd13ifvqcv0","pricing_plan_id":"cebpf4jnsgd1na2vs0mg"},{"bike_id":"f2578bcc-cf04-45b7-b6c9-54723449f9b1","system_id":"levelo_inurba_marseille","lat":43.28799,"lon":5.35861,"is_reserved":false,"is_disabled":false,"rental_uris":{"android":"levelo://app?vid=f2578bcc-cf04-45b7-b6c9-54723449f9b1","ios":"levelo://app?vid=f2578bcc-cf04-45b7-b6c9-54723449f9b1"},"vehicle_type_id":"4","last_reported":1745212256,"current_range_meters":19200,"station_id":"ce4bhb12rcd13ifvqem0","pricing_plan_id":"cebpf4jnsgd1na2vs0mg"},{"bike_id":"b8f1b8ef-455a-4891-ac6b-7ffde9116060","system_id":"levelo_inurba_marseille","lat":43.30915,"lon":5.39576,"is_reserved":false,"is_disabled":false,"rental_uris":{"android":"levelo://app?vid=b8f1b8ef-455a-4891-ac6b-7ffde9116060","ios":"levelo://app?vid=b8f1b8ef-455a-4891-ac6b-7ffde9116060"},"vehicle_type_id":"4","last_reported":1745212256,"current_range_meters":19200,"station_id":"","pricing_plan_id":"cebpf4jnsgd1na2vs0mg"},{"bike_id":"2cf5be3a-dd83-40ce-8a9d-0967a2587429","system_id":"levelo_inurba_marseille","lat":43.3164,"lon":5.37326,"is_reserved":false,"is_disabled":false,"rental_uris":{"android":"levelo://app?vid=2cf5be3a-dd83-40ce-8a9d-0967a2587429","ios":"levelo://app?vid=2cf5be3a-dd83-40ce-8a9d-0967a2587429"},"vehicle_type_id":"4","last_reported":1745212256,"current_range_meters":19200,"station_id":"","pricing_plan_id":"cebpf4jnsgd1na2vs0mg"},{"bike_id":"1acfafe7-850e-4a2d-b08f-d1ac70c876c9","system_id":"levelo_inurba_marseille","lat":43.27095,"lon":5.40298,"is_reserved":false,"is_disabled":false,"rental_uris":{"android":"levelo://app?vid=1acfafe7-850e-4a2d-b08f-d1ac70c876c9","ios":"levelo://app?vid=1acfafe7-850e-4a2d-b08f-d1ac70c876c9"},"vehicle_type_id":"4","last_reported":1745212256,"current_range_meters":19200,"station_id":"","pricing_plan_id":"cebpf4jnsgd1na2vs0mg"},{"bike_id":"5a46db62-513a-4883-9f49-f4d5b01aab0e","system_id":"levelo_inurba_marseille","lat":43.31538,"lon":5.38021,"is_reserved":false,"is_disabled":false,"rental_uris":{"android":"levelo://app?vid=5a46db62-513a-4883-9f49-f4d5b01aab0e","ios":"levelo://app?vid=5a46db62-513a-4883-9f49-f4d5b01aab0e"},"vehicle_type_id":"4","last_reported":1745212256,"current_range_meters":19600,"station_id":"ce4bhsp2rcd13ifvqi50","pricing_plan_id":"cebpf4jnsgd1na2vs0mg"},{"bike_id":"c0ac41c5-c845-40e1-a3b6-89315ac1fad7","system_id":"levelo_inurba_marseille","lat":43.299245,"lon":5.408383,"is_reserved":false,"is_disabled":false,"rental_uris":{"android":"levelo://app?vid=c0ac41c5-c845-40e1-a3b6-89315ac1fad7","ios":"levelo://app?vid=c0ac41c5-c845-40e1-a3b6-89315ac1fad7"},"vehicle_type_id":"4","last_reported":1745212256,"current_range_meters":19600,"station_id":"","pricing_plan_id":"cebpf4jnsgd1na2vs0mg"},{"bike_id":"11523877-2f6c-49d8-9233-0bd89a3be448","system_id":"levelo_inurba_marseille","lat":43.33739,"lon":5.39182,"is_reserved":false,"is_disabled":false,"rental_uris":{"android":"levelo://app?vid=11523877-2f6c-49d8-9233-0bd89a3be448","ios":"levelo://app?vid=11523877-2f6c-49d8-9233-0bd89a3be448"},"vehicle_type_id":"4","last_reported":1745212256,"current_range_meters":19600,"station_id":"ce4bhr92rcd13ifvqhsg","pricing_plan_id":"cebpf4jnsgd1na2vs0mg"},{"bike_id":"48a90738-15ce-4a6e-9b02-d3de2ab6faf0","system_id":"levelo_inurba_marseille","lat":43.30143,"lon":5.38066,"is_reserved":false,"is_disabled":false,"rental_uris":{"android":"levelo://app?vid=48a90738-15ce-4a6e-9b02-d3de2ab6faf0","ios":"levelo://app?vid=48a90738-15ce-4a6e-9b02-d3de2ab6faf0"},"vehicle_type_id":"4","last_reported":1745212256,"current_range_meters":19600,"station_id":"ce4bgjp2rcd13ifvqbh0","pricing_plan_id":"cebpf4jnsgd1na2vs0mg"},{"bike_id":"bee65c0e-3969-4a3e-9a94-ddda99c1298d","system_id":"levelo_inurba_marseille","lat":43.304202,"lon":5.412779,"is_reserved":false,"is_disabled":false,"rental_uris":{"android":"levelo://app?vid=bee65c0e-3969-4a3e-9a94-ddda99c1298d","ios":"levelo://app?vid=bee65c0e-3969-4a3e-9a94-ddda99c1298d"},"vehicle_type_id":"4","last_reported":1745212256,"current_range_meters":19600,"station_id":"ce4bhop2rcd13ifvqh8g","pricing_plan_id":"cebpf4jnsgd1na2vs0mg"},{"bike_id":"b261fe84-cd86-4730-b2ee-802177904fc1","system_id":"levelo_inurba_marseille","lat":43.31731,"lon":5.37776,"is_reserved":false,"is_disabled":false,"rental_uris":{"android":"levelo://app?vid=b261fe84-cd86-4730-b2ee-802177904fc1","ios":"levelo://app?vid=b261fe84-cd86-4730-b2ee-802177904fc1"},"vehicle_type_id":"4","last_reported":1745212256,"current_range_meters":20000,"station_id":"ce4bgth2rcd13ifvqch0","pricing_plan_id":"cebpf4jnsgd1na2vs0mg"},{"bike_id":"fc29c697-c8dc-4b48-8f04-ef505590e058","system_id":"levelo_inurba_marseille","lat":43.265892,"lon":5.389944,"is_reserved":false,"is_disabled":false,"rental_uris":{"android":"levelo://app?vid=fc29c697-c8dc-4b48-8f04-ef505590e058","ios":"levelo://app?vid=fc29c697-c8dc-4b48-8f04-ef505590e058"},"vehicle_type_id":"4","last_reported":1745212256,"current_range_meters":20000,"station_id":"","pricing_plan_id":"cebpf4jnsgd1na2vs0mg"},{"bike_id":"d6f3a255-8161-4d45-919d-bd54887358d5","system_id":"levelo_inurba_marseille","lat":43.24065,"lon":5.37764,"is_reserved":false,"is_disabled":false,"rental_uris":{"android":"levelo://app?vid=d6f3a255-8161-4d45-919d-bd54887358d5","ios":"levelo://app?vid=d6f3a255-8161-4d45-919d-bd54887358d5"},"vehicle_type_id":"4","last_reported":1745212256,"current_range_meters":20400,"station_id":"ce4bhnp2rcd13ifvqgvg","pricing_plan_id":"cebpf4jnsgd1na2vs0mg"},{"bike_id":"06839e26-45cf-4850-81ea-ca86cbed935d","system_id":"levelo_inurba_marseille","lat":43.30591,"lon":5.39341,"is_reserved":false,"is_disabled":false,"rental_uris":{"android":"levelo://app?vid=06839e26-45cf-4850-81ea-ca86cbed935d","ios":"levelo://app?vid=06839e26-45cf-4850-81ea-ca86cbed935d"},"vehicle_type_id":"4","last_reported":1745212256,"current_range_meters":20400,"station_id":"ce4bh0p2rcd13ifvqd80","pricing_plan_id":"cebpf4jnsgd1na2vs0mg"},{"bike_id":"59e0332a-055c-4a55-bbe7-35149d5556ed","system_id":"levelo_inurba_marseille","lat":43.24077,"lon":5.37743,"is_reserved":false,"is_disabled":false,"rental_uris":{"android":"levelo://app?vid=59e0332a-055c-4a55-bbe7-35149d5556ed","ios":"levelo://app?vid=59e0332a-055c-4a55-bbe7-35149d5556ed"},"vehicle_type_id":"4","last_reported":1745212256,"current_range_meters":20400,"station_id":"ce4bhnp2rcd13ifvqgvg","pricing_plan_id":"cebpf4jnsgd1na2vs0mg"},{"bike_id":"0ea403e7-0bae-4fc6-85cb-2bcadf8a0a3b","system_id":"levelo_inurba_marseille","lat":43.31098,"lon":5.37779,"is_reserved":false,"is_disabled":false,"rental_uris":{"android":"levelo://app?vid=0ea403e7-0bae-4fc6-85cb-2bcadf8a0a3b","ios":"levelo://app?vid=0ea403e7-0bae-4fc6-85cb-2bcadf8a0a3b"},"vehicle_type_id":"4","last_reported":1745212256,"current_range_meters":20400,"station_id":"ce4bgt92rcd13ifvqcg0","pricing_plan_id":"cebpf4jnsgd1na2vs0mg"},{"bike_id":"a79fb0f7-3487-47ce-865f-146ad377c1c2","system_id":"levelo_inurba_marseille","lat":43.24658,"lon":5.38167,"is_reserved":false,"is_disabled":false,"rental_uris":{"android":"levelo://app?vid=a79fb0f7-3487-47ce-865f-146ad377c1c2","ios":"levelo://app?vid=a79fb0f7-3487-47ce-865f-146ad377c1c2"},"vehicle_type_id":"4","last_reported":1745212256,"current_range_meters":20400,"station_id":"ce4bhih2rcd13ifvqfr0","pricing_plan_id":"cebpf4jnsgd1na2vs0mg"},{"bike_id":"dc801ee3-2819-4e78-8fb4-686f91c66e3d","system_id":"levelo_inurba_marseille","lat":43.30956,"lon":5.39028,"is_reserved":false,"is_disabled":false,"rental_uris":{"android":"levelo://app?vid=dc801ee3-2819-4e78-8fb4-686f91c66e3d","ios":"levelo://app?vid=dc801ee3-2819-4e78-8fb4-686f91c66e3d"},"vehicle_type_id":"4","last_reported":1745212256,"current_range_meters":20400,"station_id":"ce4bgup2rcd13ifvqco0","pricing_plan_id":"cebpf4jnsgd1na2vs0mg"},{"bike_id":"812d9bb8-13f0-4982-90b7-1d13c2703a54","system_id":"levelo_inurba_marseille","lat":43.28423,"lon":5.35911,"is_reserved":false,"is_disabled":false,"rental_uris":{"android":"levelo://app?vid=812d9bb8-13f0-4982-90b7-1d13c2703a54","ios":"levelo://app?vid=812d9bb8-13f0-4982-90b7-1d13c2703a54"},"vehicle_type_id":"4","last_reported":1745212256,"current_range_meters":20400,"station_id":"ce4bhah2rcd13ifvqei0","pricing_plan_id":"cebpf4jnsgd1na2vs0mg"},{"bike_id":"b120018a-a0a6-41d3-aa78-6aa09a90a05a","system_id":"levelo_inurba_marseille","lat":43.30158,"lon":5.38042,"is_reserved":false,"is_disabled":false,"rental_uris":{"android":"levelo://app?vid=b120018a-a0a6-41d3-aa78-6aa09a90a05a","ios":"levelo://app?vid=b120018a-a0a6-41d3-aa78-6aa09a90a05a"},"vehicle_type_id":"4","last_reported":1745212256,"current_range_meters":20000,"station_id":"ce4bgjp2rcd13ifvqbh0","pricing_plan_id":"cebpf4jnsgd1na2vs0mg"},{"bike_id":"ff691947-2342-40b1-b007-4c50dc3c90c0","system_id":"levelo_inurba_marseille","lat":43.30974,"lon":5.3796,"is_reserved":false,"is_disabled":true,"rental_uris":{"android":"levelo://app?vid=ff691947-2342-40b1-b007-4c50dc3c90c0","ios":"levelo://app?vid=ff691947-2342-40b1-b007-4c50dc3c90c0"},"vehicle_type_id":"4","last_reported":1745212256,"current_range_meters":20400,"station_id":"","pricing_plan_id":"cebpf4jnsgd1na2vs0mg"},{"bike_id":"18e3b8e3-4921-4d42-8ca8-50d09a9007c8","system_id":"levelo_inurba_marseille","lat":43.30932,"lon":5.40146,"is_reserved":false,"is_disabled":false,"rental_uris":{"android":"levelo://app?vid=18e3b8e3-4921-4d42-8ca8-50d09a9007c8","ios":"levelo://app?vid=18e3b8e3-4921-4d42-8ca8-50d09a9007c8"},"vehicle_type_id":"4","last_reported":1745212256,"current_range_meters":20800,"station_id":"ce4bgvp2rcd13ifvqct0","pricing_plan_id":"cebpf4jnsgd1na2vs0mg"},{"bike_id":"cfde290e-eb1f-41f2-8764-c44c415e0110","system_id":"levelo_inurba_marseille","lat":43.26224,"lon":5.40456,"is_reserved":false,"is_disabled":false,"rental_uris":{"android":"levelo://app?vid=cfde290e-eb1f-41f2-8764-c44c415e0110","ios":"levelo://app?vid=cfde290e-eb1f-41f2-8764-c44c415e0110"},"vehicle_type_id":"4","last_reported":1745212256,"current_range_meters":20800,"station_id":"ce4bhmh2rcd13ifvqgmg","pricing_plan_id":"cebpf4jnsgd1na2vs0mg"},{"bike_id":"fa56eefd-8d10-45c5-b0e1-b4b133c6abe6","system_id":"levelo_inurba_marseille","lat":43.30785,"lon":5.376495,"is_reserved":false,"is_disabled":false,"rental_uris":{"android":"levelo://app?vid=fa56eefd-8d10-45c5-b0e1-b4b133c6abe6","ios":"levelo://app?vid=fa56eefd-8d10-45c5-b0e1-b4b133c6abe6"},"vehicle_type_id":"4","last_reported":1745212256,"current_range_meters":20800,"station_id":"ce4bgv92rcd13ifvqcq0","pricing_plan_id":"cebpf4jnsgd1na2vs0mg"},{"bike_id":"f526e5c1-8e93-488d-a92e-0bcec7b169c5","system_id":"levelo_inurba_marseille","lat":43.29922,"lon":5.39613,"is_reserved":false,"is_disabled":false,"rental_uris":{"android":"levelo://app?vid=f526e5c1-8e93-488d-a92e-0bcec7b169c5","ios":"levelo://app?vid=f526e5c1-8e93-488d-a92e-0bcec7b169c5"},"vehicle_type_id":"4","last_reported":1745212256,"current_range_meters":20800,"station_id":"","pricing_plan_id":"cebpf4jnsgd1na2vs0mg"},{"bike_id":"0b044c5d-9d6e-407a-a0f4-56217862b4cf","system_id":"levelo_inurba_marseille","lat":43.279006,"lon":5.380068,"is_reserved":false,"is_disabled":false,"rental_uris":{"android":"levelo://app?vid=0b044c5d-9d6e-407a-a0f4-56217862b4cf","ios":"levelo://app?vid=0b044c5d-9d6e-407a-a0f4-56217862b4cf"},"vehicle_type_id":"4","last_reported":1745212256,"current_range_meters":21600,"station_id":"ce4bhf92rcd13ifvqf50","pricing_plan_id":"cebpf4jnsgd1na2vs0mg"},{"bike_id":"dc6f1c25-388d-4263-85e6-cf1beda449af","system_id":"levelo_inurba_marseille","lat":43.28837,"lon":5.39326,"is_reserved":false,"is_disabled":false,"rental_uris":{"android":"levelo://app?vid=dc6f1c25-388d-4263-85e6-cf1beda449af","ios":"levelo://app?vid=dc6f1c25-388d-4263-85e6-cf1beda449af"},"vehicle_type_id":"4","last_reported":1745212256,"current_range_meters":21600,"station_id":"ce4bh2p2rcd13ifvqdi0","pricing_plan_id":"cebpf4jnsgd1na2vs0mg"},{"bike_id":"d3d20f09-fde3-4089-a68c-f61e01a813b2","system_id":"levelo_inurba_marseille","lat":43.23192,"lon":5.39989,"is_reserved":false,"is_disabled":true,"rental_uris":{"android":"levelo://app?vid=d3d20f09-fde3-4089-a68c-f61e01a813b2","ios":"levelo://app?vid=d3d20f09-fde3-4089-a68c-f61e01a813b2"},"vehicle_type_id":"4","last_reported":1745212256,"current_range_meters":21600,"station_id":"ce4bhn12rcd13ifvqgqg","pricing_plan_id":"cebpf4jnsgd1na2vs0mg"},{"bike_id":"2e62bd50-8ce6-4b79-8517-7402c9904232","system_id":"levelo_inurba_marseille","lat":43.23185,"lon":5.40004,"is_reserved":false,"is_disabled":false,"rental_uris":{"android":"levelo://app?vid=2e62bd50-8ce6-4b79-8517-7402c9904232","ios":"levelo://app?vid=2e62bd50-8ce6-4b79-8517-7402c9904232"},"vehicle_type_id":"4","last_reported":1745212256,"current_range_meters":22000,"station_id":"ce4bhn12rcd13ifvqgqg","pricing_plan_id":"cebpf4jnsgd1na2vs0mg"},{"bike_id":"922ebf99-0297-4920-86fd-77f2def5a6f2","system_id":"levelo_inurba_marseille","lat":43.26029,"lon":5.41751,"is_reserved":false,"is_disabled":false,"rental_uris":{"android":"levelo://app?vid=922ebf99-0297-4920-86fd-77f2def5a6f2","ios":"levelo://app?vid=922ebf99-0297-4920-86fd-77f2def5a6f2"},"vehicle_type_id":"4","last_reported":1745212256,"current_range_meters":22000,"station_id":"","pricing_plan_id":"cebpf4jnsgd1na2vs0mg"},{"bike_id":"5346160b-695d-44d0-915a-5dfd75ed6529","system_id":"levelo_inurba_marseille","lat":43.26211,"lon":5.40472,"is_reserved":false,"is_disabled":false,"rental_uris":{"android":"levelo://app?vid=5346160b-695d-44d0-915a-5dfd75ed6529","ios":"levelo://app?vid=5346160b-695d-44d0-915a-5dfd75ed6529"},"vehicle_type_id":"4","last_reported":1745212256,"current_range_meters":22000,"station_id":"ce4bhmh2rcd13ifvqgmg","pricing_plan_id":"cebpf4jnsgd1na2vs0mg"},{"bike_id":"5a4030a3-e20e-4b79-8be2-0a55825b7aac","system_id":"levelo_inurba_marseille","lat":43.28023,"lon":5.3696,"is_reserved":false,"is_disabled":false,"rental_uris":{"android":"levelo://app?vid=5a4030a3-e20e-4b79-8be2-0a55825b7aac","ios":"levelo://app?vid=5a4030a3-e20e-4b79-8be2-0a55825b7aac"},"vehicle_type_id":"4","last_reported":1745212256,"current_range_meters":22000,"station_id":"ce4bha12rcd13ifvqef0","pricing_plan_id":"cebpf4jnsgd1na2vs0mg"},{"bike_id":"7b184fcb-8493-418c-970a-b38700a9d83d","system_id":"levelo_inurba_marseille","lat":43.320992,"lon":5.367809,"is_reserved":false,"is_disabled":false,"rental_uris":{"android":"levelo://app?vid=7b184fcb-8493-418c-970a-b38700a9d83d","ios":"levelo://app?vid=7b184fcb-8493-418c-970a-b38700a9d83d"},"vehicle_type_id":"4","last_reported":1745212256,"current_range_meters":22000,"station_id":"ce4bhrh2rcd13ifvqhug","pricing_plan_id":"cebpf4jnsgd1na2vs0mg"},{"bike_id":"ef588677-e937-4fb6-8359-89032b9d9c2e","system_id":"levelo_inurba_marseille","lat":43.25939,"lon":5.40905,"is_reserved":false,"is_disabled":false,"rental_uris":{"android":"levelo://app?vid=ef588677-e937-4fb6-8359-89032b9d9c2e","ios":"levelo://app?vid=ef588677-e937-4fb6-8359-89032b9d9c2e"},"vehicle_type_id":"4","last_reported":1745212256,"current_range_meters":22000,"station_id":"ce4bhm92rcd13ifvqglg","pricing_plan_id":"cebpf4jnsgd1na2vs0mg"},{"bike_id":"8b130a09-aaaf-4aa6-818b-7046c9a559b0","system_id":"levelo_inurba_marseille","lat":43.24669,"lon":5.38138,"is_reserved":false,"is_disabled":false,"rental_uris":{"android":"levelo://app?vid=8b130a09-aaaf-4aa6-818b-7046c9a559b0","ios":"levelo://app?vid=8b130a09-aaaf-4aa6-818b-7046c9a559b0"},"vehicle_type_id":"4","last_reported":1745212256,"current_range_meters":22000,"station_id":"ce4bhih2rcd13ifvqfr0","pricing_plan_id":"cebpf4jnsgd1na2vs0mg"},{"bike_id":"cb9917fc-856e-4194-b94e-d83b0fe1bd27","system_id":"levelo_inurba_marseille","lat":43.311901,"lon":5.416111,"is_reserved":false,"is_disabled":false,"rental_uris":{"android":"levelo://app?vid=cb9917fc-856e-4194-b94e-d83b0fe1bd27","ios":"levelo://app?vid=cb9917fc-856e-4194-b94e-d83b0fe1bd27"},"vehicle_type_id":"4","last_reported":1745212256,"current_range_meters":22400,"station_id":"","pricing_plan_id":"cebpf4jnsgd1na2vs0mg"},{"bike_id":"92918a7f-df96-4c5a-8eb5-64b292a739f8","system_id":"levelo_inurba_marseille","lat":43.22492,"lon":5.34788,"is_reserved":false,"is_disabled":false,"rental_uris":{"android":"levelo://app?vid=92918a7f-df96-4c5a-8eb5-64b292a739f8","ios":"levelo://app?vid=92918a7f-df96-4c5a-8eb5-64b292a739f8"},"vehicle_type_id":"4","last_reported":1745212256,"current_range_meters":22400,"station_id":"st_cvj5dfep6f1abm77gieg","pricing_plan_id":"cebpf4jnsgd1na2vs0mg"},{"bike_id":"5943c571-5946-403e-bba4-2bf697ef4438","system_id":"levelo_inurba_marseille","lat":43.28664,"lon":5.38669,"is_reserved":false,"is_disabled":false,"rental_uris":{"android":"levelo://app?vid=5943c571-5946-403e-bba4-2bf697ef4438","ios":"levelo://app?vid=5943c571-5946-403e-bba4-2bf697ef4438"},"vehicle_type_id":"4","last_reported":1745212256,"current_range_meters":22000,"station_id":"ce4bh492rcd13ifvqdug","pricing_plan_id":"cebpf4jnsgd1na2vs0mg"},{"bike_id":"d3d48819-6ba5-465a-95d2-07e3ecabee36","system_id":"levelo_inurba_marseille","lat":43.2988,"lon":5.39784,"is_reserved":false,"is_disabled":true,"rental_uris":{"android":"levelo://app?vid=d3d48819-6ba5-465a-95d2-07e3ecabee36","ios":"levelo://app?vid=d3d48819-6ba5-465a-95d2-07e3ecabee36"},"vehicle_type_id":"4","last_reported":1745212256,"current_range_meters":22400,"station_id":"","pricing_plan_id":"cebpf4jnsgd1na2vs0mg"},{"bike_id":"d9455f13-a47f-46b8-b4e4-f326fbee9108","system_id":"levelo_inurba_marseille","lat":43.301303,"lon":5.3988,"is_reserved":false,"is_disabled":true,"rental_uris":{"android":"levelo://app?vid=d9455f13-a47f-46b8-b4e4-f326fbee9108","ios":"levelo://app?vid=d9455f13-a47f-46b8-b4e4-f326fbee9108"},"vehicle_type_id":"4","last_reported":1745212256,"current_range_meters":22400,"station_id":"ce4bh0h2rcd13ifvqd40","pricing_plan_id":"cebpf4jnsgd1na2vs0mg"},{"bike_id":"cdd5db1d-b589-4ca1-94c1-202d30db1e56","system_id":"levelo_inurba_marseille","lat":43.23958,"lon":5.36663,"is_reserved":false,"is_disabled":false,"rental_uris":{"android":"levelo://app?vid=cdd5db1d-b589-4ca1-94c1-202d30db1e56","ios":"levelo://app?vid=cdd5db1d-b589-4ca1-94c1-202d30db1e56"},"vehicle_type_id":"4","last_reported":1745212256,"current_range_meters":22400,"station_id":"ce4bhi12rcd13ifvqfp0","pricing_plan_id":"cebpf4jnsgd1na2vs0mg"},{"bike_id":"e448e6a6-efd7-4dcb-85af-ec7e8f10bceb","system_id":"levelo_inurba_marseille","lat":43.2942,"lon":5.38635,"is_reserved":false,"is_disabled":true,"rental_uris":{"android":"levelo://app?vid=e448e6a6-efd7-4dcb-85af-ec7e8f10bceb","ios":"levelo://app?vid=e448e6a6-efd7-4dcb-85af-ec7e8f10bceb"},"vehicle_type_id":"4","last_reported":1745212256,"current_range_meters":22400,"station_id":"ce4bh2h2rcd13ifvqdh0","pricing_plan_id":"cebpf4jnsgd1na2vs0mg"},{"bike_id":"04c8951e-3a8b-40df-8ac4-0ebf1b70c9b4","system_id":"levelo_inurba_marseille","lat":43.24724,"lon":5.4117,"is_reserved":false,"is_disabled":false,"rental_uris":{"android":"levelo://app?vid=04c8951e-3a8b-40df-8ac4-0ebf1b70c9b4","ios":"levelo://app?vid=04c8951e-3a8b-40df-8ac4-0ebf1b70c9b4"},"vehicle_type_id":"4","last_reported":1745212256,"current_range_meters":22400,"station_id":"","pricing_plan_id":"cebpf4jnsgd1na2vs0mg"},{"bike_id":"b80b82d4-09f0-496a-841d-5b020810f36c","system_id":"levelo_inurba_marseille","lat":43.282556,"lon":5.358203,"is_reserved":false,"is_disabled":false,"rental_uris":{"android":"levelo://app?vid=b80b82d4-09f0-496a-841d-5b020810f36c","ios":"levelo://app?vid=b80b82d4-09f0-496a-841d-5b020810f36c"},"vehicle_type_id":"4","last_reported":1745212256,"current_range_meters":22800,"station_id":"","pricing_plan_id":"cebpf4jnsgd1na2vs0mg"},{"bike_id":"6d98458a-f292-45cd-9108-e91653a5ec28","system_id":"levelo_inurba_marseille","lat":43.28269,"lon":5.350762,"is_reserved":false,"is_disabled":true,"rental_uris":{"android":"levelo://app?vid=6d98458a-f292-45cd-9108-e91653a5ec28","ios":"levelo://app?vid=6d98458a-f292-45cd-9108-e91653a5ec28"},"vehicle_type_id":"4","last_reported":1745212256,"current_range_meters":22800,"station_id":"ce4bhbp2rcd13ifvqerg","pricing_plan_id":"cebpf4jnsgd1na2vs0mg"},{"bike_id":"b86c102c-2e6f-4fdf-b748-7c9ef19704fe","system_id":"levelo_inurba_marseille","lat":43.28141,"lon":5.43809,"is_reserved":false,"is_disabled":false,"rental_uris":{"android":"levelo://app?vid=b86c102c-2e6f-4fdf-b748-7c9ef19704fe","ios":"levelo://app?vid=b86c102c-2e6f-4fdf-b748-7c9ef19704fe"},"vehicle_type_id":"4","last_reported":1745212256,"current_range_meters":22800,"station_id":"","pricing_plan_id":"cebpf4jnsgd1na2vs0mg"},{"bike_id":"2ce15294-7e2e-46d9-9d6e-18cba0cffb01","system_id":"levelo_inurba_marseille","lat":43.25737,"lon":5.41078,"is_reserved":false,"is_disabled":false,"rental_uris":{"android":"levelo://app?vid=2ce15294-7e2e-46d9-9d6e-18cba0cffb01","ios":"levelo://app?vid=2ce15294-7e2e-46d9-9d6e-18cba0cffb01"},"vehicle_type_id":"4","last_reported":1745212256,"current_range_meters":22800,"station_id":"ce4bhkp2rcd13ifvqgd0","pricing_plan_id":"cebpf4jnsgd1na2vs0mg"},{"bike_id":"278ee132-281e-4a56-a4a6-ae5a169037d3","system_id":"levelo_inurba_marseille","lat":43.23945,"lon":5.36651,"is_reserved":false,"is_disabled":false,"rental_uris":{"android":"levelo://app?vid=278ee132-281e-4a56-a4a6-ae5a169037d3","ios":"levelo://app?vid=278ee132-281e-4a56-a4a6-ae5a169037d3"},"vehicle_type_id":"4","last_reported":1745212256,"current_range_meters":22800,"station_id":"ce4bhi12rcd13ifvqfp0","pricing_plan_id":"cebpf4jnsgd1na2vs0mg"},{"bike_id":"657bade1-8f00-49d7-97a1-ed9c214df2b5","system_id":"levelo_inurba_marseille","lat":43.28819,"lon":5.39322,"is_reserved":false,"is_disabled":false,"rental_uris":{"android":"levelo://app?vid=657bade1-8f00-49d7-97a1-ed9c214df2b5","ios":"levelo://app?vid=657bade1-8f00-49d7-97a1-ed9c214df2b5"},"vehicle_type_id":"4","last_reported":1745212256,"current_range_meters":23200,"station_id":"ce4bh2p2rcd13ifvqdi0","pricing_plan_id":"cebpf4jnsgd1na2vs0mg"},{"bike_id":"ee4868f0-b3b2-4242-9970-c5b8a8297085","system_id":"levelo_inurba_marseille","lat":43.337444,"lon":5.374475,"is_reserved":false,"is_disabled":false,"rental_uris":{"android":"levelo://app?vid=ee4868f0-b3b2-4242-9970-c5b8a8297085","ios":"levelo://app?vid=ee4868f0-b3b2-4242-9970-c5b8a8297085"},"vehicle_type_id":"4","last_reported":1745212256,"current_range_meters":23200,"station_id":"","pricing_plan_id":"cebpf4jnsgd1na2vs0mg"},{"bike_id":"bf0d59a1-6560-40af-be85-69c12e5dd0a0","system_id":"levelo_inurba_marseille","lat":43.251,"lon":5.39472,"is_reserved":false,"is_disabled":false,"rental_uris":{"android":"levelo://app?vid=bf0d59a1-6560-40af-be85-69c12e5dd0a0","ios":"levelo://app?vid=bf0d59a1-6560-40af-be85-69c12e5dd0a0"},