{"last_updated":1750767691,"ttl":60,"version":"2.2","data":{"bikes":[{"bike_id":"3da29fb8-fc97-44c6-b9ac-31dd456b2fd4","system_id":"levelo_inurba_marseille","lat":43.33771,"lon":5.37424,"is_reserved":false,"is_disabled":true,"rental_uris":{"android":"levelo://app?vid=3da29fb8-fc97-44c6-b9ac-31dd456b2fd4","ios":"levelo://app?vid=3da29fb8-fc97-44c6-b9ac-31dd456b2fd4"},"vehicle_type_id":"4","last_reported":1750767692,"current_range_meters":0,"station_id":"","pricing_plan_id":"cebpf4jnsgd1na2vs0mg"},{"bike_id":"01861ad8-a8d7-4be6-816e-651927c87584","system_id":"levelo_inurba_marseille","lat":43.33751,"lon":5.37456,"is_reserved":false,"is_disabled":true,"rental_uris":{"android":"levelo://app?vid=01861ad8-a8d7-4be6-816e-651927c87584","ios":"levelo://app?vid=01861ad8-a8d7-4be6-816e-651927c87584"},"vehicle_type_id":"4","last_reported":1750767692,"current_range_meters":0,"station_id":"","pricing_plan_id":"cebpf4jnsgd1na2vs0mg"},{"bike_id":"f0a1d594-9817-42ab-a8d6-aea4947e8858","system_id":"levelo_inurba_marseille","lat":43.28813,"lon":5.43438,"is_reserved":false,"is_disabled":true,"rental_uris":{"android":"levelo://app?vid=f0a1d594-9817-42ab-a8d6-aea4947e8858","ios":"levelo://app?vid=f0a1d594-9817-42ab-a8d6-aea4947e8858"},"vehicle_type_id":"4","last_reported":1750767692,"current_range_meters":0,"station_id":"","pricing_plan_id":"cebpf4jnsgd1na2vs0mg"},{"bike_id":"62a493c7-4534-4419-ad43-0582de34a72a","system_id":"levelo_inurba_marseille","lat":43.21366,"lon":5.355183,"is_reserved":false,"is_disabled":true,"rental_uris":{"android":"levelo://app?vid=62a493c7-4534-4419-ad43-0582de34a72a","ios":"levelo://app?vid=62a493c7-4534-4419-ad43-0582de34a72a"},"vehicle_type_id":"4","last_reported":1750767692,"current_range_meters":0,"station_id":"","pricing_plan_id":"cebpf4jnsgd1na2vs0mg"},{"bike_id":"139d47bd-ff87-42d8-a4c6-89da4be6f80c","system_id":"levelo_inurba_marseille","lat":43.27962,"lon":5.44252,"is_reserved":false,"is_disabled":true,"rental_uris":{"android":"levelo://app?vid=139d47bd-ff87-42d8-a4c6-89da4be6f80c","ios":"levelo://app?vid=139d47bd-ff87-42d8-a4c6-89da4be6f80c"},"vehicle_type_id":"4","last_reported":1750767692,"current_range_meters":0,"station_id":"","pricing_plan_id":"cebpf4jnsgd1na2vs0mg"},{"bike_id":"d07b07aa-5732-4368-b606-c642421b7603","system_id":"levelo_inurba_marseille","lat":43.34344,"lon":5.34918,"is_reserved":false,"is_disabled":true,"rental_uris":{"android":"levelo://app?vid=d07b07aa-5732-4368-b606-c642421b7603","ios":"levelo://app?vid=d07b07aa-5732-4368-b606-c642421b7603"},"vehicle_type_id":"4","last_reported":1750767692,"current_range_meters":0,"station_id":"","pricing_plan_id":"cebpf4jnsgd1na2vs0mg"},{"bike_id":"d6ce388f-ca76-4c7c-9e3f-e6b4d12862f1","system_id":"levelo_inurba_marseille","lat":43.24574,"lon":5.41459,"is_reserved":false,"is_disabled":true,"rental_uris":{"android":"levelo://app?vid=d6ce388f-ca76-4c7c-9e3f-e6b4d12862f1","ios":"levelo://app?vid=d6ce388f-ca76-4c7c-9e3f-e6b4d12862f1"},"vehicle_type_id":"4","last_reported":1750767692,"current_range_meters":0,"station_id":"","pricing_plan_id":"cebpf4jnsgd1na2vs0mg"},{"bike_id":"3a3a1818-f20a-442b-bfcf-0e0a18008f43","system_id":"levelo_inurba_marseille","lat":43.26612,"lon":5.37491,"is_reserved":false,"is_disabled":true,"rental_uris":{"android":"levelo://app?vid=3a3a1818-f20a-442b-bfcf-0e0a18008f43","ios":"levelo://app?vid=3a3a1818-f20a-442b-bfcf-0e0a18008f43"},"vehicle_type_id":"4","last_reported":1750767692,"current_range_meters":0,"station_id":"","pricing_plan_id":"cebpf4jnsgd1na2vs0mg"},{"bike_id":"1077b5b0-6cc3-4ca3-a74a-ec713036c223","system_id":"levelo_inurba_marseille","lat":43.2973,"lon":5.38016,"is_reserved":false,"is_disabled":true,"rental_uris":{"android":"levelo://app?vid=1077b5b0-6cc3-4ca3-a74a-ec713036c223","ios":"levelo://app?vid=1077b5b0-6cc3-4ca3-a74a-ec713036c223"},"vehicle_type_id":"4","last_reported":1750767692,"current_range_meters":0,"station_id":"","pricing_plan_id":"cebpf4jnsgd1na2vs0mg"},{"bike_id":"d6609b4f-333b-43c1-9ebe-8726f5e76e88","system_id":"levelo_inurba_marseille","lat":43.337444,"lon":5.374475,"is_reserved":false,"is_disabled":true,"rental_uris":{"android":"levelo://app?vid=d6609b4f-333b-43c1-9ebe-8726f5e76e88","ios":"levelo://app?vid=d6609b4f-333b-43c1-9ebe-8726f5e76e88"},"vehicle_type_id":"4","last_reported":1750767692,"current_range_meters":0,"station_id":"","pricing_plan_id":"cebpf4jnsgd1na2vs0mg"},{"bike_id":"0503e1d2-ec4f-4cb3-9ea6-e4f3eb558d3e","system_id":"levelo_inurba_marseille","lat":43.29944,"lon":5.36937,"is_reserved":false,"is_disabled":true,"rental_uris":{"android":"levelo://app?vid=0503e1d2-ec4f-4cb3-9ea6-e4f3eb558d3e","ios":"levelo://app?vid=0503e1d2-ec4f-4cb3-9ea6-e4f3eb558d3e"},"vehicle_type_id":"4","last_reported":1750767692,"current_range_meters":0,"station_id":"","pricing_plan_id":"cebpf4jnsgd1na2vs0mg"},{"bike_id":"9cb193d0-906b-4ac2-85c5-eea810b1d20f","system_id":"levelo_inurba_marseille","lat":43.294136,"lon":5.431778,"is_reserved":false,"is_disabled":true,"rental_uris":{"android":"levelo://app?vid=9cb193d0-906b-4ac2-85c5-eea810b1d20f","ios":"levelo://app?vid=9cb193d0-906b-4ac2-85c5-eea810b1d20f"},"vehicle_type_id":"4","last_reported":1750767692,"current_range_meters":0,"station_id":"","pricing_plan_id":"cebpf4jnsgd1na2vs0mg"},{"bike_id":"bd17737b-22d2-4e4f-88e8-4eb661d864c4","system_id":"levelo_inurba_marseille","lat":43.29162,"lon":5.4608,"is_reserved":false,"is_disabled":true,"rental_uris":{"android":"levelo://app?vid=bd17737b-22d2-4e4f-88e8-4eb661d864c4","ios":"levelo://app?vid=bd17737b-22d2-4e4f-88e8-4eb661d864c4"},"vehicle_type_id":"4","last_reported":1750767692,"current_range_meters":0,"station_id":"","pricing_plan_id":"cebpf4jnsgd1na2vs0mg"},{"bike_id":"5aa00661-d581-4293-bff6-1039cc48d2b4","system_id":"levelo_inurba_marseille","lat":43.29586,"lon":5.37817,"is_reserved":false,"is_disabled":true,"rental_uris":{"android":"levelo://app?vid=5aa00661-d581-4293-bff6-1039cc48d2b4","ios":"levelo://app?vid=5aa00661-d581-4293-bff6-1039cc48d2b4"},"vehicle_type_id":"4","last_reported":1750767692,"current_range_meters":0,"station_id":"","pricing_plan_id":"cebpf4jnsgd1na2vs0mg"},{"bike_id":"3d07ef76-af52-42e0-81f1-5f4963c9ee29","system_id":"levelo_inurba_marseille","lat":43.294701,"lon":5.438349,"is_reserved":false,"is_disabled":true,"rental_uris":{"android":"levelo://app?vid=3d07ef76-af52-42e0-81f1-5f4963c9ee29","ios":"levelo://app?vid=3d07ef76-af52-42e0-81f1-5f4963c9ee29"},"vehicle_type_id":"4","last_reported":1750767692,"current_range_meters":0,"station_id":"","pricing_plan_id":"cebpf4jnsgd1na2vs0mg"},{"bike_id":"0c86cdad-b64a-47bf-ba91-5b398064181c","system_id":"levelo_inurba_marseille","lat":43.384196,"lon":5.358629,"is_reserved":false,"is_disabled":true,"rental_uris":{"android":"levelo://app?vid=0c86cdad-b64a-47bf-ba91-5b398064181c","ios":"levelo://app?vid=0c86cdad-b64a-47bf-ba91-5b398064181c"},"vehicle_type_id":"4","last_reported":1750767692,"current_range_meters":0,"station_id":"","pricing_plan_id":"cebpf4jnsgd1na2vs0mg"},{"bike_id":"5f534812-541c-4662-88d6-40be387af302","system_id":"levelo_inurba_marseille","lat":43.29305,"lon":5.37165,"is_reserved":false,"is_disabled":true,"rental_uris":{"android":"levelo://app?vid=5f534812-541c-4662-88d6-40be387af302","ios":"levelo://app?vid=5f534812-541c-4662-88d6-40be387af302"},"vehicle_type_id":"4","last_reported":1750767692,"current_range_meters":0,"station_id":"ce4bgh92rcd13ifvqb40","pricing_plan_id":"cebpf4jnsgd1na2vs0mg"},{"bike_id":"b2ec89f7-5c70-4938-9eab-6a35e2af6088","system_id":"levelo_inurba_marseille","lat":43.30552,"lon":5.36555,"is_reserved":false,"is_disabled":true,"rental_uris":{"android":"levelo://app?vid=b2ec89f7-5c70-4938-9eab-6a35e2af6088","ios":"levelo://app?vid=b2ec89f7-5c70-4938-9eab-6a35e2af6088"},"vehicle_type_id":"4","last_reported":1750767692,"current_range_meters":0,"station_id":"ce4bgs12rcd13ifvqcag","pricing_plan_id":"cebpf4jnsgd1na2vs0mg"},{"bike_id":"9a0444bd-8b32-4243-8099-971bb043bb1f","system_id":"levelo_inurba_marseille","lat":43.30815,"lon":5.38165,"is_reserved":false,"is_disabled":true,"rental_uris":{"android":"levelo://app?vid=9a0444bd-8b32-4243-8099-971bb043bb1f","ios":"levelo://app?vid=9a0444bd-8b32-4243-8099-971bb043bb1f"},"vehicle_type_id":"4","last_reported":1750767692,"current_range_meters":0,"station_id":"ce4bgt12rcd13ifvqce0","pricing_plan_id":"cebpf4jnsgd1na2vs0mg"},{"bike_id":"fc0e4073-f62a-44e4-967b-0d8b354af548","system_id":"levelo_inurba_marseille","lat":43.30245,"lon":5.40053,"is_reserved":false,"is_disabled":true,"rental_uris":{"android":"levelo://app?vid=fc0e4073-f62a-44e4-967b-0d8b354af548","ios":"levelo://app?vid=fc0e4073-f62a-44e4-967b-0d8b354af548"},"vehicle_type_id":"4","last_reported":1750767692,"current_range_meters":0,"station_id":"ce4bgvh2rcd13ifvqcs0","pricing_plan_id":"cebpf4jnsgd1na2vs0mg"},{"bike_id":"89746c56-7ee6-49e4-8ab7-922eef7ad7da","system_id":"levelo_inurba_marseille","lat":43.29639,"lon":5.40599,"is_reserved":false,"is_disabled":true,"rental_uris":{"android":"levelo://app?vid=89746c56-7ee6-49e4-8ab7-922eef7ad7da","ios":"levelo://app?vid=89746c56-7ee6-49e4-8ab7-922eef7ad7da"},"vehicle_type_id":"4","last_reported":1750767692,"current_range_meters":0,"station_id":"ce4bh0h2rcd13ifvqd60","pricing_plan_id":"cebpf4jnsgd1na2vs0mg"},{"bike_id":"7cefba4d-0fab-4578-9846-a594665b861d","system_id":"levelo_inurba_marseille","lat":43.28697,"lon":5.37906,"is_reserved":false,"is_disabled":true,"rental_uris":{"android":"levelo://app?vid=7cefba4d-0fab-4578-9846-a594665b861d","ios":"levelo://app?vid=7cefba4d-0fab-4578-9846-a594665b861d"},"vehicle_type_id":"4","last_reported":1750767692,"current_range_meters":0,"station_id":"ce4bh9p2rcd13ifvqec0","pricing_plan_id":"cebpf4jnsgd1na2vs0mg"},{"bike_id":"906c6821-d517-4d22-8ed4-f6308fe1a71c","system_id":"levelo_inurba_marseille","lat":43.28423,"lon":5.35012,"is_reserved":false,"is_disabled":true,"rental_uris":{"android":"levelo://app?vid=906c6821-d517-4d22-8ed4-f6308fe1a71c","ios":"levelo://app?vid=906c6821-d517-4d22-8ed4-f6308fe1a71c"},"vehicle_type_id":"4","last_reported":1750767692,"current_range_meters":0,"station_id":"ce4bhbh2rcd13ifvqepg","pricing_plan_id":"cebpf4jnsgd1na2vs0mg"},{"bike_id":"8b0b3d9e-559c-4971-9718-741a2586612b","system_id":"levelo_inurba_marseille","lat":43.29223,"lon":5.36071,"is_reserved":false,"is_disabled":true,"rental_uris":{"android":"levelo://app?vid=8b0b3d9e-559c-4971-9718-741a2586612b","ios":"levelo://app?vid=8b0b3d9e-559c-4971-9718-741a2586612b"},"vehicle_type_id":"4","last_reported":1750767692,"current_range_meters":0,"station_id":"ce4bhbh2rcd13ifvqeqg","pricing_plan_id":"cebpf4jnsgd1na2vs0mg"},{"bike_id":"51631d09-4ffc-40d1-a7c0-18d4f1d30d27","system_id":"levelo_inurba_marseille","lat":43.2861,"lon":5.35103,"is_reserved":false,"is_disabled":true,"rental_uris":{"android":"levelo://app?vid=51631d09-4ffc-40d1-a7c0-18d4f1d30d27","ios":"levelo://app?vid=51631d09-4ffc-40d1-a7c0-18d4f1d30d27"},"vehicle_type_id":"4","last_reported":1750767692,"current_range_meters":0,"station_id":"ce4bhch2rcd13ifvqeug","pricing_plan_id":"cebpf4jnsgd1na2vs0mg"},{"bike_id":"62a261cf-4a75-42a7-a0ca-44dae3e88e5c","system_id":"levelo_inurba_marseille","lat":43.28641,"lon":5.35083,"is_reserved":false,"is_disabled":true,"rental_uris":{"android":"levelo://app?vid=62a261cf-4a75-42a7-a0ca-44dae3e88e5c","ios":"levelo://app?vid=62a261cf-4a75-42a7-a0ca-44dae3e88e5c"},"vehicle_type_id":"4","last_reported":1750767692,"current_range_meters":0,"station_id":"ce4bhch2rcd13ifvqeug","pricing_plan_id":"cebpf4jnsgd1na2vs0mg"},{"bike_id":"3980fcfd-8eea-4a37-9663-77ee49d05993","system_id":"levelo_inurba_marseille","lat":43.28613,"lon":5.35105,"is_reserved":false,"is_disabled":true,"rental_uris":{"android":"levelo://app?vid=3980fcfd-8eea-4a37-9663-77ee49d05993","ios":"levelo://app?vid=3980fcfd-8eea-4a37-9663-77ee49d05993"},"vehicle_type_id":"4","last_reported":1750767692,"current_range_meters":0,"station_id":"ce4bhch2rcd13ifvqeug","pricing_plan_id":"cebpf4jnsgd1na2vs0mg"},{"bike_id":"e4e103fe-da2e-4f06-917d-4c3284dd71fb","system_id":"levelo_inurba_marseille","lat":43.26558,"lon":5.39016,"is_reserved":false,"is_disabled":true,"rental_uris":{"android":"levelo://app?vid=e4e103fe-da2e-4f06-917d-4c3284dd71fb","ios":"levelo://app?vid=e4e103fe-da2e-4f06-917d-4c3284dd71fb"},"vehicle_type_id":"4","last_reported":1750767692,"current_range_meters":0,"station_id":"ce4bhe12rcd13ifvqf30","pricing_plan_id":"cebpf4jnsgd1na2vs0mg"},{"bike_id":"bf3255fe-1354-4736-8c41-aa74393ad6f0","system_id":"levelo_inurba_marseille","lat":43.27909,"lon":5.38,"is_reserved":false,"is_disabled":true,"rental_uris":{"android":"levelo://app?vid=bf3255fe-1354-4736-8c41-aa74393ad6f0","ios":"levelo://app?vid=bf3255fe-1354-4736-8c41-aa74393ad6f0"},"vehicle_type_id":"4","last_reported":1750767692,"current_range_meters":0,"station_id":"ce4bhf92rcd13ifvqf50","pricing_plan_id":"cebpf4jnsgd1na2vs0mg"},{"bike_id":"cbd1d7c6-d886-4812-a433-b6cdaf6b1eea","system_id":"levelo_inurba_marseille","lat":43.279803,"lon":5.387733,"is_reserved":false,"is_disabled":true,"rental_uris":{"android":"levelo://app?vid=cbd1d7c6-d886-4812-a433-b6cdaf6b1eea","ios":"levelo://app?vid=cbd1d7c6-d886-4812-a433-b6cdaf6b1eea"},"vehicle_type_id":"4","last_reported":1750767692,"current_range_meters":0,"station_id":"ce4bhg12rcd13ifvqf80","pricing_plan_id":"cebpf4jnsgd1na2vs0mg"},{"bike_id":"ced4454b-c886-4976-8b82-93b248aa3154","system_id":"levelo_inurba_marseille","lat":43.27975,"lon":5.38733,"is_reserved":false,"is_disabled":true,"rental_uris":{"android":"levelo://app?vid=ced4454b-c886-4976-8b82-93b248aa3154","ios":"levelo://app?vid=ced4454b-c886-4976-8b82-93b248aa3154"},"vehicle_type_id":"4","last_reported":1750767692,"current_range_meters":0,"station_id":"ce4bhg12rcd13ifvqf80","pricing_plan_id":"cebpf4jnsgd1na2vs0mg"},{"bike_id":"c41a94dd-bd69-4d49-b8da-e96020a5d155","system_id":"levelo_inurba_marseille","lat":43.26203,"lon":5.3744,"is_reserved":false,"is_disabled":true,"rental_uris":{"android":"levelo://app?vid=c41a94dd-bd69-4d49-b8da-e96020a5d155","ios":"levelo://app?vid=c41a94dd-bd69-4d49-b8da-e96020a5d155"},"vehicle_type_id":"4","last_reported":1750767692,"current_range_meters":0,"station_id":"ce4bhgp2rcd13ifvqfc0","pricing_plan_id":"cebpf4jnsgd1na2vs0mg"},{"bike_id":"5673c335-3976-464e-a076-dc2780c1ee93","system_id":"levelo_inurba_marseille","lat":43.25489,"lon":5.37646,"is_reserved":false,"is_disabled":true,"rental_uris":{"android":"levelo://app?vid=5673c335-3976-464e-a076-dc2780c1ee93","ios":"levelo://app?vid=5673c335-3976-464e-a076-dc2780c1ee93"},"vehicle_type_id":"4","last_reported":1750767692,"current_range_meters":0,"station_id":"ce4bhh12rcd13ifvqff0","pricing_plan_id":"cebpf4jnsgd1na2vs0mg"},{"bike_id":"a0bbf6b9-68a7-41a1-8d0a-71de1221afe7","system_id":"levelo_inurba_marseille","lat":43.25577,"lon":5.38244,"is_reserved":false,"is_disabled":true,"rental_uris":{"android":"levelo://app?vid=a0bbf6b9-68a7-41a1-8d0a-71de1221afe7","ios":"levelo://app?vid=a0bbf6b9-68a7-41a1-8d0a-71de1221afe7"},"vehicle_type_id":"4","last_reported":1750767692,"current_range_meters":0,"station_id":"ce4bhih2rcd13ifvqfs0","pricing_plan_id":"cebpf4jnsgd1na2vs0mg"},{"bike_id":"67de2a11-350d-4aa0-bb07-bffb1929fb06","system_id":"levelo_inurba_marseille","lat":43.25932,"lon":5.4089,"is_reserved":false,"is_disabled":true,"rental_uris":{"android":"levelo://app?vid=67de2a11-350d-4aa0-bb07-bffb1929fb06","ios":"levelo://app?vid=67de2a11-350d-4aa0-bb07-bffb1929fb06"},"vehicle_type_id":"4","last_reported":1750767692,"current_range_meters":0,"station_id":"ce4bhm92rcd13ifvqglg","pricing_plan_id":"cebpf4jnsgd1na2vs0mg"},{"bike_id":"41c8c0a1-8e5d-49b3-b232-d30cbb38ba09","system_id":"levelo_inurba_marseille","lat":43.23146,"lon":5.437238,"is_reserved":false,"is_disabled":true,"rental_uris":{"android":"levelo://app?vid=41c8c0a1-8e5d-49b3-b232-d30cbb38ba09","ios":"levelo://app?vid=41c8c0a1-8e5d-49b3-b232-d30cbb38ba09"},"vehicle_type_id":"4","last_reported":1750767692,"current_range_meters":0,"station_id":"ce4bhmp2rcd13ifvqgog","pricing_plan_id":"cebpf4jnsgd1na2vs0mg"},{"bike_id":"678aac53-1849-4c4a-b4f8-d255f04b648e","system_id":"levelo_inurba_marseille","lat":43.30504,"lon":5.39859,"is_reserved":false,"is_disabled":true,"rental_uris":{"android":"levelo://app?vid=678aac53-1849-4c4a-b4f8-d255f04b648e","ios":"levelo://app?vid=678aac53-1849-4c4a-b4f8-d255f04b648e"},"vehicle_type_id":"4","last_reported":1750767692,"current_range_meters":0,"station_id":"ce4bhnh2rcd13ifvqgug","pricing_plan_id":"cebpf4jnsgd1na2vs0mg"},{"bike_id":"8b964ade-b36e-4afc-b646-3414d72ed7fb","system_id":"levelo_inurba_marseille","lat":43.31722,"lon":5.42413,"is_reserved":false,"is_disabled":true,"rental_uris":{"android":"levelo://app?vid=8b964ade-b36e-4afc-b646-3414d72ed7fb","ios":"levelo://app?vid=8b964ade-b36e-4afc-b646-3414d72ed7fb"},"vehicle_type_id":"4","last_reported":1750767692,"current_range_meters":0,"station_id":"ce4bhp92rcd13ifvqhbg","pricing_plan_id":"cebpf4jnsgd1na2vs0mg"},{"bike_id":"9f3359f4-4b24-4cb1-a098-d4708cecf345","system_id":"levelo_inurba_marseille","lat":43.32539,"lon":5.41423,"is_reserved":false,"is_disabled":true,"rental_uris":{"android":"levelo://app?vid=9f3359f4-4b24-4cb1-a098-d4708cecf345","ios":"levelo://app?vid=9f3359f4-4b24-4cb1-a098-d4708cecf345"},"vehicle_type_id":"4","last_reported":1750767692,"current_range_meters":0,"station_id":"ce4bhq12rcd13ifvqhhg","pricing_plan_id":"cebpf4jnsgd1na2vs0mg"},{"bike_id":"cf0eab26-b7d1-4b13-a38a-4ab94638fe2a","system_id":"levelo_inurba_marseille","lat":43.323163,"lon":5.406082,"is_reserved":false,"is_disabled":true,"rental_uris":{"android":"levelo://app?vid=cf0eab26-b7d1-4b13-a38a-4ab94638fe2a","ios":"levelo://app?vid=cf0eab26-b7d1-4b13-a38a-4ab94638fe2a"},"vehicle_type_id":"4","last_reported":1750767692,"current_range_meters":0,"station_id":"ce4bhq92rcd13ifvqhjg","pricing_plan_id":"cebpf4jnsgd1na2vs0mg"},{"bike_id":"bc96b989-693e-42b8-9c5d-40313f36dc09","system_id":"levelo_inurba_marseille","lat":43.33029,"lon":5.39049,"is_reserved":false,"is_disabled":true,"rental_uris":{"android":"levelo://app?vid=bc96b989-693e-42b8-9c5d-40313f36dc09","ios":"levelo://app?vid=bc96b989-693e-42b8-9c5d-40313f36dc09"},"vehicle_type_id":"4","last_reported":1750767692,"current_range_meters":0,"station_id":"ce4bhr92rcd13ifvqhrg","pricing_plan_id":"cebpf4jnsgd1na2vs0mg"},{"bike_id":"9a37d9b9-b186-4e5a-835f-813d367f04f0","system_id":"levelo_inurba_marseille","lat":43.23192,"lon":5.355524,"is_reserved":false,"is_disabled":true,"rental_uris":{"android":"levelo://app?vid=9a37d9b9-b186-4e5a-835f-813d367f04f0","ios":"levelo://app?vid=9a37d9b9-b186-4e5a-835f-813d367f04f0"},"vehicle_type_id":"4","last_reported":1750767692,"current_range_meters":0,"station_id":"ce4bhu92rcd13ifvqi70","pricing_plan_id":"cebpf4jnsgd1na2vs0mg"},{"bike_id":"0032b41f-e702-48e0-a561-160b8fb6cb78","system_id":"levelo_inurba_marseille","lat":43.28956,"lon":5.39098,"is_reserved":false,"is_disabled":true,"rental_uris":{"android":"levelo://app?vid=0032b41f-e702-48e0-a561-160b8fb6cb78","ios":"levelo://app?vid=0032b41f-e702-48e0-a561-160b8fb6cb78"},"vehicle_type_id":"4","last_reported":1750767692,"current_range_meters":400,"station_id":"","pricing_plan_id":"cebpf4jnsgd1na2vs0mg"},{"bike_id":"69cdc7c7-88aa-4124-aee1-c048d7369e6b","system_id":"levelo_inurba_marseille","lat":43.29036,"lon":5.3997,"is_reserved":false,"is_disabled":true,"rental_uris":{"android":"levelo://app?vid=69cdc7c7-88aa-4124-aee1-c048d7369e6b","ios":"levelo://app?vid=69cdc7c7-88aa-4124-aee1-c048d7369e6b"},"vehicle_type_id":"4","last_reported":1750767692,"current_range_meters":400,"station_id":"ce4bh392rcd13ifvqdm0","pricing_plan_id":"cebpf4jnsgd1na2vs0mg"},{"bike_id":"c8481f83-5416-492c-b8ce-b3e9b333c224","system_id":"levelo_inurba_marseille","lat":43.27916,"lon":5.39584,"is_reserved":false,"is_disabled":true,"rental_uris":{"android":"levelo://app?vid=c8481f83-5416-492c-b8ce-b3e9b333c224","ios":"levelo://app?vid=c8481f83-5416-492c-b8ce-b3e9b333c224"},"vehicle_type_id":"4","last_reported":1750767692,"current_range_meters":400,"station_id":"ce4bhf92rcd13ifvqf40","pricing_plan_id":"cebpf4jnsgd1na2vs0mg"},{"bike_id":"23c3cccb-e7f5-4d0c-8d69-c1e56b5e9fd2","system_id":"levelo_inurba_marseille","lat":43.303411,"lon":5.404543,"is_reserved":false,"is_disabled":true,"rental_uris":{"android":"levelo://app?vid=23c3cccb-e7f5-4d0c-8d69-c1e56b5e9fd2","ios":"levelo://app?vid=23c3cccb-e7f5-4d0c-8d69-c1e56b5e9fd2"},"vehicle_type_id":"4","last_reported":1750767692,"current_range_meters":800,"station_id":"ce4bh012rcd13ifvqd10","pricing_plan_id":"cebpf4jnsgd1na2vs0mg"},{"bike_id":"9a6d7acc-8967-4c42-9cda-2007df7adfad","system_id":"levelo_inurba_marseille","lat":43.28847,"lon":5.35867,"is_reserved":false,"is_disabled":true,"rental_uris":{"android":"levelo://app?vid=9a6d7acc-8967-4c42-9cda-2007df7adfad","ios":"levelo://app?vid=9a6d7acc-8967-4c42-9cda-2007df7adfad"},"vehicle_type_id":"4","last_reported":1750767692,"current_range_meters":800,"station_id":"ce4bhb12rcd13ifvqem0","pricing_plan_id":"cebpf4jnsgd1na2vs0mg"},{"bike_id":"b9899b3d-d4ad-4882-ab1f-4810bbfb9c6b","system_id":"levelo_inurba_marseille","lat":43.28417,"lon":5.34982,"is_reserved":false,"is_disabled":true,"rental_uris":{"android":"levelo://app?vid=b9899b3d-d4ad-4882-ab1f-4810bbfb9c6b","ios":"levelo://app?vid=b9899b3d-d4ad-4882-ab1f-4810bbfb9c6b"},"vehicle_type_id":"4","last_reported":1750767692,"current_range_meters":1200,"station_id":"ce4bhbh2rcd13ifvqepg","pricing_plan_id":"cebpf4jnsgd1na2vs0mg"},{"bike_id":"f66599f4-feb2-4a01-a285-77996e208323","system_id":"levelo_inurba_marseille","lat":43.3038,"lon":5.4248,"is_reserved":false,"is_disabled":true,"rental_uris":{"android":"levelo://app?vid=f66599f4-feb2-4a01-a285-77996e208323","ios":"levelo://app?vid=f66599f4-feb2-4a01-a285-77996e208323"},"vehicle_type_id":"4","last_reported":1750767692,"current_range_meters":1200,"station_id":"ce4bhoh2rcd13ifvqh6g","pricing_plan_id":"cebpf4jnsgd1na2vs0mg"},{"bike_id":"4b60206d-b944-4b1a-a81d-b2b5aef52e8e","system_id":"levelo_inurba_marseille","lat":43.33601,"lon":5.41032,"is_reserved":false,"is_disabled":true,"rental_uris":{"android":"levelo://app?vid=4b60206d-b944-4b1a-a81d-b2b5aef52e8e","ios":"levelo://app?vid=4b60206d-b944-4b1a-a81d-b2b5aef52e8e"},"vehicle_type_id":"4","last_reported":1750767692,"current_range_meters":1200,"station_id":"ce4bhqh2rcd13ifvqhmg","pricing_plan_id":"cebpf4jnsgd1na2vs0mg"},{"bike_id":"bb4972a8-5b32-4e8a-9a63-fc910269cd03","system_id":"levelo_inurba_marseille","lat":43.2979,"lon":5.37125,"is_reserved":false,"is_disabled":true,"rental_uris":{"android":"levelo://app?vid=bb4972a8-5b32-4e8a-9a63-fc910269cd03","ios":"levelo://app?vid=bb4972a8-5b32-4e8a-9a63-fc910269cd03"},"vehicle_type_id":"4","last_reported":1750767692,"current_range_meters":1600,"station_id":"ce4bgop2rcd13ifvqc1g","pricing_plan_id":"cebpf4jnsgd1na2vs0mg"},{"bike_id":"05edebc5-779b-4134-8502-f9698d7ca601","system_id":"levelo_inurba_marseille","lat":43.26237,"lon":5.4049,"is_reserved":false,"is_disabled":true,"rental_uris":{"android":"levelo://app?vid=05edebc5-779b-4134-8502-f9698d7ca601","ios":"levelo://app?vid=05edebc5-779b-4134-8502-f9698d7ca601"},"vehicle_type_id":"4","last_reported":1750767692,"current_range_meters":1600,"station_id":"ce4bhmh2rcd13ifvqgmg","pricing_plan_id":"cebpf4jnsgd1na2vs0mg"},{"bike_id":"85c58f10-925d-4344-b389-09267487a6fc","system_id":"levelo_inurba_marseille","lat":43.21124,"lon":5.41942,"is_reserved":false,"is_disabled":true,"rental_uris":{"android":"levelo://app?vid=85c58f10-925d-4344-b389-09267487a6fc","ios":"levelo://app?vid=85c58f10-925d-4344-b389-09267487a6fc"},"vehicle_type_id":"4","last_reported":1750767692,"current_range_meters":2000,"station_id":"","pricing_plan_id":"cebpf4jnsgd1na2vs0mg"},{"bike_id":"abf39bfc-1a2f-4c14-a721-c61ba44c99b7","system_id":"levelo_inurba_marseille","lat":43.27383,"lon":5.36262,"is_reserved":false,"is_disabled":true,"rental_uris":{"android":"levelo://app?vid=abf39bfc-1a2f-4c14-a721-c61ba44c99b7","ios":"levelo://app?vid=abf39bfc-1a2f-4c14-a721-c61ba44c99b7"},"vehicle_type_id":"4","last_reported":1750767692,"current_range_meters":2000,"station_id":"ce4bhbh2rcd13ifvqeo0","pricing_plan_id":"cebpf4jnsgd1na2vs0mg"},{"bike_id":"344813c6-6f47-4435-9ac1-29d4158598a4","system_id":"levelo_inurba_marseille","lat":43.27373,"lon":5.36266,"is_reserved":false,"is_disabled":true,"rental_uris":{"android":"levelo://app?vid=344813c6-6f47-4435-9ac1-29d4158598a4","ios":"levelo://app?vid=344813c6-6f47-4435-9ac1-29d4158598a4"},"vehicle_type_id":"4","last_reported":1750767692,"current_range_meters":2000,"station_id":"ce4bhbh2rcd13ifvqeo0","pricing_plan_id":"cebpf4jnsgd1na2vs0mg"},{"bike_id":"b6e957ec-ebd6-49e1-9f8f-d86ea3c36b72","system_id":"levelo_inurba_marseille","lat":43.29712,"lon":5.37707,"is_reserved":false,"is_disabled":false,"rental_uris":{"android":"levelo://app?vid=b6e957ec-ebd6-49e1-9f8f-d86ea3c36b72","ios":"levelo://app?vid=b6e957ec-ebd6-49e1-9f8f-d86ea3c36b72"},"vehicle_type_id":"4","last_reported":1750767692,"current_range_meters":2800,"station_id":"ce4bgkh2rcd13ifvqbl0","pricing_plan_id":"cebpf4jnsgd1na2vs0mg"},{"bike_id":"0e90e29c-b46b-40b1-8663-d39f1630e9d0","system_id":"levelo_inurba_marseille","lat":43.26682,"lon":5.3827,"is_reserved":false,"is_disabled":false,"rental_uris":{"android":"levelo://app?vid=0e90e29c-b46b-40b1-8663-d39f1630e9d0","ios":"levelo://app?vid=0e90e29c-b46b-40b1-8663-d39f1630e9d0"},"vehicle_type_id":"4","last_reported":1750767692,"current_range_meters":2800,"station_id":"ce4bhg92rcd13ifvqf90","pricing_plan_id":"cebpf4jnsgd1na2vs0mg"},{"bike_id":"8875ffce-18a1-463b-a0b3-3f3f6cace83f","system_id":"levelo_inurba_marseille","lat":43.27571,"lon":5.38431,"is_reserved":false,"is_disabled":false,"rental_uris":{"android":"levelo://app?vid=8875ffce-18a1-463b-a0b3-3f3f6cace83f","ios":"levelo://app?vid=8875ffce-18a1-463b-a0b3-3f3f6cace83f"},"vehicle_type_id":"4","last_reported":1750767692,"current_range_meters":2800,"station_id":"ce4bhh92rcd13ifvqfi0","pricing_plan_id":"cebpf4jnsgd1na2vs0mg"},{"bike_id":"fd22a7a3-b5b8-4299-a6b7-3ed69b561f61","system_id":"levelo_inurba_marseille","lat":43.32656,"lon":5.40995,"is_reserved":false,"is_disabled":false,"rental_uris":{"android":"levelo://app?vid=fd22a7a3-b5b8-4299-a6b7-3ed69b561f61","ios":"levelo://app?vid=fd22a7a3-b5b8-4299-a6b7-3ed69b561f61"},"vehicle_type_id":"4","last_reported":1750767692,"current_range_meters":2800,"station_id":"ce4bhpp2rcd13ifvqhgg","pricing_plan_id":"cebpf4jnsgd1na2vs0mg"},{"bike_id":"adb14e12-762f-44e9-959a-b7191d76c184","system_id":"levelo_inurba_marseille","lat":43.2949,"lon":5.38045,"is_reserved":false,"is_disabled":false,"rental_uris":{"android":"levelo://app?vid=adb14e12-762f-44e9-959a-b7191d76c184","ios":"levelo://app?vid=adb14e12-762f-44e9-959a-b7191d76c184"},"vehicle_type_id":"4","last_reported":1750767692,"current_range_meters":3200,"station_id":"","pricing_plan_id":"cebpf4jnsgd1na2vs0mg"},{"bike_id":"957ae761-a759-481a-8d7f-0bb160e925a3","system_id":"levelo_inurba_marseille","lat":43.29967,"lon":5.38498,"is_reserved":false,"is_disabled":true,"rental_uris":{"android":"levelo://app?vid=957ae761-a759-481a-8d7f-0bb160e925a3","ios":"levelo://app?vid=957ae761-a759-481a-8d7f-0bb160e925a3"},"vehicle_type_id":"4","last_reported":1750767692,"current_range_meters":3200,"station_id":"ce4bgj92rcd13ifvqbd0","pricing_plan_id":"cebpf4jnsgd1na2vs0mg"},{"bike_id":"8b629be7-52d6-4061-a171-6f0747d9784e","system_id":"levelo_inurba_marseille","lat":43.27578,"lon":5.38415,"is_reserved":false,"is_disabled":false,"rental_uris":{"android":"levelo://app?vid=8b629be7-52d6-4061-a171-6f0747d9784e","ios":"levelo://app?vid=8b629be7-52d6-4061-a171-6f0747d9784e"},"vehicle_type_id":"4","last_reported":1750767692,"current_range_meters":3200,"station_id":"ce4bhh92rcd13ifvqfi0","pricing_plan_id":"cebpf4jnsgd1na2vs0mg"},{"bike_id":"8c6de0c1-9eaf-4c18-8155-d956789067ae","system_id":"levelo_inurba_marseille","lat":43.279439,"lon":5.442554,"is_reserved":false,"is_disabled":false,"rental_uris":{"android":"levelo://app?vid=8c6de0c1-9eaf-4c18-8155-d956789067ae","ios":"levelo://app?vid=8c6de0c1-9eaf-4c18-8155-d956789067ae"},"vehicle_type_id":"4","last_reported":1750767692,"current_range_meters":3600,"station_id":"","pricing_plan_id":"cebpf4jnsgd1na2vs0mg"},{"bike_id":"f37c3db8-c1e2-4df4-aed6-690ffac63ad9","system_id":"levelo_inurba_marseille","lat":43.29872,"lon":5.3973,"is_reserved":false,"is_disabled":false,"rental_uris":{"android":"levelo://app?vid=f37c3db8-c1e2-4df4-aed6-690ffac63ad9","ios":"levelo://app?vid=f37c3db8-c1e2-4df4-aed6-690ffac63ad9"},"vehicle_type_id":"4","last_reported":1750767692,"current_range_meters":3600,"station_id":"ce4bh0h2rcd13ifvqd50","pricing_plan_id":"cebpf4jnsgd1na2vs0mg"},{"bike_id":"ce7e3d5d-3212-487e-8226-1ed428d280f8","system_id":"levelo_inurba_marseille","lat":43.24081,"lon":5.37758,"is_reserved":false,"is_disabled":false,"rental_uris":{"android":"levelo://app?vid=ce7e3d5d-3212-487e-8226-1ed428d280f8","ios":"levelo://app?vid=ce7e3d5d-3212-487e-8226-1ed428d280f8"},"vehicle_type_id":"4","last_reported":1750767692,"current_range_meters":3600,"station_id":"ce4bhnp2rcd13ifvqgvg","pricing_plan_id":"cebpf4jnsgd1na2vs0mg"},{"bike_id":"a9e5e555-fdaf-49c0-b286-f0f2659b17d0","system_id":"levelo_inurba_marseille","lat":43.283148,"lon":5.432434,"is_reserved":false,"is_disabled":false,"rental_uris":{"android":"levelo://app?vid=a9e5e555-fdaf-49c0-b286-f0f2659b17d0","ios":"levelo://app?vid=a9e5e555-fdaf-49c0-b286-f0f2659b17d0"},"vehicle_type_id":"4","last_reported":1750767692,"current_range_meters":4000,"station_id":"","pricing_plan_id":"cebpf4jnsgd1na2vs0mg"},{"bike_id":"8703a0b9-0d09-48b3-938b-800a9ab674ba","system_id":"levelo_inurba_marseille","lat":43.23962,"lon":5.36635,"is_reserved":false,"is_disabled":false,"rental_uris":{"android":"levelo://app?vid=8703a0b9-0d09-48b3-938b-800a9ab674ba","ios":"levelo://app?vid=8703a0b9-0d09-48b3-938b-800a9ab674ba"},"vehicle_type_id":"4","last_reported":1750767692,"current_range_meters":4000,"station_id":"ce4bhi12rcd13ifvqfp0","pricing_plan_id":"cebpf4jnsgd1na2vs0mg"},{"bike_id":"d7c56714-1585-4954-976a-05b319c2a630","system_id":"levelo_inurba_marseille","lat":43.30753,"lon":5.37435,"is_reserved":false,"is_disabled":false,"rental_uris":{"android":"levelo://app?vid=d7c56714-1585-4954-976a-05b319c2a630","ios":"levelo://app?vid=d7c56714-1585-4954-976a-05b319c2a630"},"vehicle_type_id":"4","last_reported":1750767692,"current_range_meters":4400,"station_id":"","pricing_plan_id":"cebpf4jnsgd1na2vs0mg"},{"bike_id":"1dfb70fd-d281-4fde-a452-c8acd58f9201","system_id":"levelo_inurba_marseille","lat":43.29292,"lon":5.37468,"is_reserved":false,"is_disabled":false,"rental_uris":{"android":"levelo://app?vid=1dfb70fd-d281-4fde-a452-c8acd58f9201","ios":"levelo://app?vid=1dfb70fd-d281-4fde-a452-c8acd58f9201"},"vehicle_type_id":"4","last_reported":1750767692,"current_range_meters":4400,"station_id":"ce4bgi12rcd13ifvqb70","pricing_plan_id":"cebpf4jnsgd1na2vs0mg"},{"bike_id":"750577b5-7171-4908-b293-2dcbb30dc6a4","system_id":"levelo_inurba_marseille","lat":43.3089,"lon":5.39661,"is_reserved":false,"is_disabled":false,"rental_uris":{"android":"levelo://app?vid=750577b5-7171-4908-b293-2dcbb30dc6a4","ios":"levelo://app?vid=750577b5-7171-4908-b293-2dcbb30dc6a4"},"vehicle_type_id":"4","last_reported":1750767692,"current_range_meters":4800,"station_id":"ce4bh012rcd13ifvqcv0","pricing_plan_id":"cebpf4jnsgd1na2vs0mg"},{"bike_id":"101609ca-4415-4116-a064-d95bf8238d43","system_id":"levelo_inurba_marseille","lat":43.29264,"lon":5.36836,"is_reserved":false,"is_disabled":false,"rental_uris":{"android":"levelo://app?vid=101609ca-4415-4116-a064-d95bf8238d43","ios":"levelo://app?vid=101609ca-4415-4116-a064-d95bf8238d43"},"vehicle_type_id":"4","last_reported":1750767692,"current_range_meters":4800,"station_id":"ce4bhbp2rcd13ifvqesg","pricing_plan_id":"cebpf4jnsgd1na2vs0mg"},{"bike_id":"17d0afaa-6951-4dde-a43d-60017e75021c","system_id":"levelo_inurba_marseille","lat":43.291681,"lon":5.421175,"is_reserved":false,"is_disabled":false,"rental_uris":{"android":"levelo://app?vid=17d0afaa-6951-4dde-a43d-60017e75021c","ios":"levelo://app?vid=17d0afaa-6951-4dde-a43d-60017e75021c"},"vehicle_type_id":"4","last_reported":1750767692,"current_range_meters":5600,"station_id":"","pricing_plan_id":"cebpf4jnsgd1na2vs0mg"},{"bike_id":"f53b92b4-668f-447c-9e05-a0e2cfc624e1","system_id":"levelo_inurba_marseille","lat":43.30789,"lon":5.37645,"is_reserved":false,"is_disabled":false,"rental_uris":{"android":"levelo://app?vid=f53b92b4-668f-447c-9e05-a0e2cfc624e1","ios":"levelo://app?vid=f53b92b4-668f-447c-9e05-a0e2cfc624e1"},"vehicle_type_id":"4","last_reported":1750767692,"current_range_meters":5600,"station_id":"ce4bgv92rcd13ifvqcq0","pricing_plan_id":"cebpf4jnsgd1na2vs0mg"},{"bike_id":"ec3114a9-7362-45a1-946d-8f5a4274b21b","system_id":"levelo_inurba_marseille","lat":43.28092,"lon":5.37846,"is_reserved":false,"is_disabled":false,"rental_uris":{"android":"levelo://app?vid=ec3114a9-7362-45a1-946d-8f5a4274b21b","ios":"levelo://app?vid=ec3114a9-7362-45a1-946d-8f5a4274b21b"},"vehicle_type_id":"4","last_reported":1750767692,"current_range_meters":5600,"station_id":"ce4bha12rcd13ifvqee0","pricing_plan_id":"cebpf4jnsgd1na2vs0mg"},{"bike_id":"80102fbe-f5d8-4990-b2c1-703aeb7965f7","system_id":"levelo_inurba_marseille","lat":43.29791,"lon":5.39345,"is_reserved":false,"is_disabled":false,"rental_uris":{"android":"levelo://app?vid=80102fbe-f5d8-4990-b2c1-703aeb7965f7","ios":"levelo://app?vid=80102fbe-f5d8-4990-b2c1-703aeb7965f7"},"vehicle_type_id":"4","last_reported":1750767692,"current_range_meters":5600,"station_id":"chh1huq6cuj3fo74tm60","pricing_plan_id":"cebpf4jnsgd1na2vs0mg"},{"bike_id":"f10e38ce-c08a-4001-873a-ec3e8846285a","system_id":"levelo_inurba_marseille","lat":43.329593,"lon":5.380507,"is_reserved":false,"is_disabled":false,"rental_uris":{"android":"levelo://app?vid=f10e38ce-c08a-4001-873a-ec3e8846285a","ios":"levelo://app?vid=f10e38ce-c08a-4001-873a-ec3e8846285a"},"vehicle_type_id":"4","last_reported":1750767692,"current_range_meters":6000,"station_id":"","pricing_plan_id":"cebpf4jnsgd1na2vs0mg"},{"bike_id":"8bd13ef1-4d45-4e65-a96a-7f47f5de9d2f","system_id":"levelo_inurba_marseille","lat":43.27314,"lon":5.39076,"is_reserved":false,"is_disabled":false,"rental_uris":{"android":"levelo://app?vid=8bd13ef1-4d45-4e65-a96a-7f47f5de9d2f","ios":"levelo://app?vid=8bd13ef1-4d45-4e65-a96a-7f47f5de9d2f"},"vehicle_type_id":"4","last_reported":1750767692,"current_range_meters":6000,"station_id":"ce4bhgp2rcd13ifvqfe0","pricing_plan_id":"cebpf4jnsgd1na2vs0mg"},{"bike_id":"c6428f71-9dab-458a-a614-94b083ed2356","system_id":"levelo_inurba_marseille","lat":43.26786,"lon":5.39417,"is_reserved":false,"is_disabled":false,"rental_uris":{"android":"levelo://app?vid=c6428f71-9dab-458a-a614-94b083ed2356","ios":"levelo://app?vid=c6428f71-9dab-458a-a614-94b083ed2356"},"vehicle_type_id":"4","last_reported":1750767692,"current_range_meters":6000,"station_id":"ce4bhh12rcd13ifvqfg0","pricing_plan_id":"cebpf4jnsgd1na2vs0mg"},{"bike_id":"8dfea981-c608-416a-8600-739b0fc383c3","system_id":"levelo_inurba_marseille","lat":43.26201,"lon":5.37929,"is_reserved":false,"is_disabled":false,"rental_uris":{"android":"levelo://app?vid=8dfea981-c608-416a-8600-739b0fc383c3","ios":"levelo://app?vid=8dfea981-c608-416a-8600-739b0fc383c3"},"vehicle_type_id":"4","last_reported":1750767692,"current_range_meters":6000,"station_id":"ce4bhjp2rcd13ifvqg90","pricing_plan_id":"cebpf4jnsgd1na2vs0mg"},{"bike_id":"7b3425a0-bc87-4e07-8b83-ec3881216705","system_id":"levelo_inurba_marseille","lat":43.25939,"lon":5.40896,"is_reserved":false,"is_disabled":false,"rental_uris":{"android":"levelo://app?vid=7b3425a0-bc87-4e07-8b83-ec3881216705","ios":"levelo://app?vid=7b3425a0-bc87-4e07-8b83-ec3881216705"},"vehicle_type_id":"4","last_reported":1750767692,"current_range_meters":6000,"station_id":"ce4bhm92rcd13ifvqglg","pricing_plan_id":"cebpf4jnsgd1na2vs0mg"},{"bike_id":"6ed60de0-d4d8-4bcf-87eb-77bc6bd99ae7","system_id":"levelo_inurba_marseille","lat":43.30855,"lon":5.38188,"is_reserved":false,"is_disabled":false,"rental_uris":{"android":"levelo://app?vid=6ed60de0-d4d8-4bcf-87eb-77bc6bd99ae7","ios":"levelo://app?vid=6ed60de0-d4d8-4bcf-87eb-77bc6bd99ae7"},"vehicle_type_id":"4","last_reported":1750767692,"current_range_meters":6400,"station_id":"","pricing_plan_id":"cebpf4jnsgd1na2vs0mg"},{"bike_id":"956c97b9-1b8a-455a-a971-ab87adde5a89","system_id":"levelo_inurba_marseille","lat":43.286189,"lon":5.351074,"is_reserved":false,"is_disabled":false,"rental_uris":{"android":"levelo://app?vid=956c97b9-1b8a-455a-a971-ab87adde5a89","ios":"levelo://app?vid=956c97b9-1b8a-455a-a971-ab87adde5a89"},"vehicle_type_id":"4","last_reported":1750767692,"current_range_meters":6400,"station_id":"ce4bhch2rcd13ifvqeug","pricing_plan_id":"cebpf4jnsgd1na2vs0mg"},{"bike_id":"d1d0f092-d49d-4706-916c-2f36618f0204","system_id":"levelo_inurba_marseille","lat":43.31721,"lon":5.42396,"is_reserved":false,"is_disabled":false,"rental_uris":{"android":"levelo://app?vid=d1d0f092-d49d-4706-916c-2f36618f0204","ios":"levelo://app?vid=d1d0f092-d49d-4706-916c-2f36618f0204"},"vehicle_type_id":"4","last_reported":1750767692,"current_range_meters":6400,"station_id":"ce4bhp92rcd13ifvqhbg","pricing_plan_id":"cebpf4jnsgd1na2vs0mg"},{"bike_id":"70764641-799a-4261-99bd-903918c1b74a","system_id":"levelo_inurba_marseille","lat":43.32897,"lon":5.38393,"is_reserved":false,"is_disabled":false,"rental_uris":{"android":"levelo://app?vid=70764641-799a-4261-99bd-903918c1b74a","ios":"levelo://app?vid=70764641-799a-4261-99bd-903918c1b74a"},"vehicle_type_id":"4","last_reported":1750767692,"current_range_meters":6800,"station_id":"","pricing_plan_id":"cebpf4jnsgd1na2vs0mg"},{"bike_id":"a56daa4c-e76e-4b57-b8be-53cd405d3669","system_id":"levelo_inurba_marseille","lat":43.30544,"lon":5.36711,"is_reserved":false,"is_disabled":false,"rental_uris":{"android":"levelo://app?vid=a56daa4c-e76e-4b57-b8be-53cd405d3669","ios":"levelo://app?vid=a56daa4c-e76e-4b57-b8be-53cd405d3669"},"vehicle_type_id":"4","last_reported":1750767692,"current_range_meters":6800,"station_id":"","pricing_plan_id":"cebpf4jnsgd1na2vs0mg"},{"bike_id":"0a8325bd-70d0-4be8-8684-34752fccd5f3","system_id":"levelo_inurba_marseille","lat":43.30547,"lon":5.38419,"is_reserved":false,"is_disabled":false,"rental_uris":{"android":"levelo://app?vid=0a8325bd-70d0-4be8-8684-34752fccd5f3","ios":"levelo://app?vid=0a8325bd-70d0-4be8-8684-34752fccd5f3"},"vehicle_type_id":"4","last_reported":1750767692,"current_range_meters":6800,"station_id":"ce4bgg92rcd13ifvqb30","pricing_plan_id":"cebpf4jnsgd1na2vs0mg"},{"bike_id":"72a37226-87db-4d02-b128-ffcf64a3d723","system_id":"levelo_inurba_marseille","lat":43.28706,"lon":5.37413,"is_reserved":false,"is_disabled":false,"rental_uris":{"android":"levelo://app?vid=72a37226-87db-4d02-b128-ffcf64a3d723","ios":"levelo://app?vid=72a37226-87db-4d02-b128-ffcf64a3d723"},"vehicle_type_id":"4","last_reported":1750767692,"current_range_meters":6800,"station_id":"ce4bh3p2rcd13ifvqdq0","pricing_plan_id":"cebpf4jnsgd1na2vs0mg"},{"bike_id":"cec604d9-309a-4d43-abe1-70c04f62dc64","system_id":"levelo_inurba_marseille","lat":43.28262,"lon":5.35072,"is_reserved":false,"is_disabled":false,"rental_uris":{"android":"levelo://app?vid=cec604d9-309a-4d43-abe1-70c04f62dc64","ios":"levelo://app?vid=cec604d9-309a-4d43-abe1-70c04f62dc64"},"vehicle_type_id":"4","last_reported":1750767692,"current_range_meters":6800,"station_id":"ce4bhbp2rcd13ifvqerg","pricing_plan_id":"cebpf4jnsgd1na2vs0mg"},{"bike_id":"c572de09-8621-4080-97e0-afd1ccc92bb7","system_id":"levelo_inurba_marseille","lat":43.267189,"lon":5.394227,"is_reserved":false,"is_disabled":false,"rental_uris":{"android":"levelo://app?vid=c572de09-8621-4080-97e0-afd1ccc92bb7","ios":"levelo://app?vid=c572de09-8621-4080-97e0-afd1ccc92bb7"},"vehicle_type_id":"4","last_reported":1750767692,"current_range_meters":6800,"station_id":"ce4bhi12rcd13ifvqfq0","pricing_plan_id":"cebpf4jnsgd1na2vs0mg"},{"bike_id":"20942cfe-936a-46ca-b62e-9ad2167bf510","system_id":"levelo_inurba_marseille","lat":43.32101,"lon":5.36797,"is_reserved":false,"is_disabled":false,"rental_uris":{"android":"levelo://app?vid=20942cfe-936a-46ca-b62e-9ad2167bf510","ios":"levelo://app?vid=20942cfe-936a-46ca-b62e-9ad2167bf510"},"vehicle_type_id":"4","last_reported":1750767692,"current_range_meters":6800,"station_id":"ce4bhrh2rcd13ifvqhug","pricing_plan_id":"cebpf4jnsgd1na2vs0mg"},{"bike_id":"d1dbc170-fe56-4491-9a11-c3d149082527","system_id":"levelo_inurba_marseille","lat":43.324811,"lon":5.36569,"is_reserved":false,"is_disabled":false,"rental_uris":{"android":"levelo://app?vid=d1dbc170-fe56-4491-9a11-c3d149082527","ios":"levelo://app?vid=d1dbc170-fe56-4491-9a11-c3d149082527"},"vehicle_type_id":"4","last_reported":1750767692,"current_range_meters":7200,"station_id":"ce4bhs12rcd13ifvqhvg","pricing_plan_id":"cebpf4jnsgd1na2vs0mg"},{"bike_id":"e746e79a-3800-4fea-b7a5-d7ac2497a2e1","system_id":"levelo_inurba_marseille","lat":43.3053,"lon":5.36699,"is_reserved":false,"is_disabled":false,"rental_uris":{"android":"levelo://app?vid=e746e79a-3800-4fea-b7a5-d7ac2497a2e1","ios":"levelo://app?vid=e746e79a-3800-4fea-b7a5-d7ac2497a2e1"},"vehicle_type_id":"4","last_reported":1750767692,"current_range_meters":8000,"station_id":"ce4bgrp2rcd13ifvqc9g","pricing_plan_id":"cebpf4jnsgd1na2vs0mg"},{"bike_id":"da922b0d-3cdb-446e-8e82-47263f6f883c","system_id":"levelo_inurba_marseille","lat":43.3013,"lon":5.37417,"is_reserved":false,"is_disabled":false,"rental_uris":{"android":"levelo://app?vid=da922b0d-3cdb-446e-8e82-47263f6f883c","ios":"levelo://app?vid=da922b0d-3cdb-446e-8e82-47263f6f883c"},"vehicle_type_id":"4","last_reported":1750767692,"current_range_meters":8000,"station_id":"ce4bgs92rcd13ifvqcc0","pricing_plan_id":"cebpf4jnsgd1na2vs0mg"},{"bike_id":"87d92a9e-8a74-4c1e-ab5e-8583eca3bd49","system_id":"levelo_inurba_marseille","lat":43.28422,"lon":5.34992,"is_reserved":false,"is_disabled":false,"rental_uris":{"android":"levelo://app?vid=87d92a9e-8a74-4c1e-ab5e-8583eca3bd49","ios":"levelo://app?vid=87d92a9e-8a74-4c1e-ab5e-8583eca3bd49"},"vehicle_type_id":"4","last_reported":1750767692,"current_range_meters":8000,"station_id":"ce4bhbh2rcd13ifvqepg","pricing_plan_id":"cebpf4jnsgd1na2vs0mg"},{"bike_id":"412d2074-d496-4963-9f68-c9bc057d73f1","system_id":"levelo_inurba_marseille","lat":43.28622,"lon":5.35124,"is_reserved":false,"is_disabled":false,"rental_uris":{"android":"levelo://app?vid=412d2074-d496-4963-9f68-c9bc057d73f1","ios":"levelo://app?vid=412d2074-d496-4963-9f68-c9bc057d73f1"},"vehicle_type_id":"4","last_reported":1750767692,"current_range_meters":8000,"station_id":"ce4bhch2rcd13ifvqeug","pricing_plan_id":"cebpf4jnsgd1na2vs0mg"},{"bike_id":"8527eef5-3a92-4bba-b4de-34be96ff921e","system_id":"levelo_inurba_marseille","lat":43.32507,"lon":5.36573,"is_reserved":false,"is_disabled":false,"rental_uris":{"android":"levelo://app?vid=8527eef5-3a92-4bba-b4de-34be96ff921e","ios":"levelo://app?vid=8527eef5-3a92-4bba-b4de-34be96ff921e"},"vehicle_type_id":"4","last_reported":1750767692,"current_range_meters":8000,"station_id":"ce4bhs12rcd13ifvqhvg","pricing_plan_id":"cebpf4jnsgd1na2vs0mg"},{"bike_id":"465d2323-f97d-48b0-a820-bc5fa54ae0fa","system_id":"levelo_inurba_marseille","lat":43.2838,"lon":5.45981,"is_reserved":false,"is_disabled":false,"rental_uris":{"android":"levelo://app?vid=465d2323-f97d-48b0-a820-bc5fa54ae0fa","ios":"levelo://app?vid=465d2323-f97d-48b0-a820-bc5fa54ae0fa"},"vehicle_type_id":"4","last_reported":1750767692,"current_range_meters":8400,"station_id":"","pricing_plan_id":"cebpf4jnsgd1na2vs0mg"},{"bike_id":"d2956739-dfc1-48cd-b85b-e83cfeedddc5","system_id":"levelo_inurba_marseille","lat":43.31209,"lon":5.36818,"is_reserved":false,"is_disabled":false,"rental_uris":{"android":"levelo://app?vid=d2956739-dfc1-48cd-b85b-e83cfeedddc5","ios":"levelo://app?vid=d2956739-dfc1-48cd-b85b-e83cfeedddc5"},"vehicle_type_id":"4","last_reported":1750767692,"current_range_meters":8400,"station_id":"ce4bgl92rcd13ifvqbq0","pricing_plan_id":"cebpf4jnsgd1na2vs0mg"},{"bike_id":"c1b01407-745f-4fba-97ce-71ee29f671f1","system_id":"levelo_inurba_marseille","lat":43.30901,"lon":5.3685,"is_reserved":false,"is_disabled":false,"rental_uris":{"android":"levelo://app?vid=c1b01407-745f-4fba-97ce-71ee29f671f1","ios":"levelo://app?vid=c1b01407-745f-4fba-97ce-71ee29f671f1"},"vehicle_type_id":"4","last_reported":1750767692,"current_range_meters":8800,"station_id":"ce4bgn92rcd13ifvqbvg","pricing_plan_id":"cebpf4jnsgd1na2vs0mg"},{"bike_id":"27e62307-5c5f-49f9-81bc-1246e9bbfbcf","system_id":"levelo_inurba_marseille","lat":43.28923,"lon":5.38403,"is_reserved":false,"is_disabled":false,"rental_uris":{"android":"levelo://app?vid=27e62307-5c5f-49f9-81bc-1246e9bbfbcf","ios":"levelo://app?vid=27e62307-5c5f-49f9-81bc-1246e9bbfbcf"},"vehicle_type_id":"4","last_reported":1750767692,"current_range_meters":8800,"station_id":"ce4bh612rcd13ifvqe6g","pricing_plan_id":"cebpf4jnsgd1na2vs0mg"},{"bike_id":"cc5128dc-5be9-4699-ae82-c300eff3e404","system_id":"levelo_inurba_marseille","lat":43.29038,"lon":5.37552,"is_reserved":false,"is_disabled":false,"rental_uris":{"android":"levelo://app?vid=cc5128dc-5be9-4699-ae82-c300eff3e404","ios":"levelo://app?vid=cc5128dc-5be9-4699-ae82-c300eff3e404"},"vehicle_type_id":"4","last_reported":1750767692,"current_range_meters":8800,"station_id":"ce4bh692rcd13ifvqe90","pricing_plan_id":"cebpf4jnsgd1na2vs0mg"},{"bike_id":"7fdfd2c5-7daa-478b-b961-212c52a7eb84","system_id":"levelo_inurba_marseille","lat":43.284114,"lon":5.349783,"is_reserved":false,"is_disabled":false,"rental_uris":{"android":"levelo://app?vid=7fdfd2c5-7daa-478b-b961-212c52a7eb84","ios":"levelo://app?vid=7fdfd2c5-7daa-478b-b961-212c52a7eb84"},"vehicle_type_id":"4","last_reported":1750767692,"current_range_meters":8800,"station_id":"ce4bhb92rcd13ifvqen0","pricing_plan_id":"cebpf4jnsgd1na2vs0mg"},{"bike_id":"588a5867-9970-4e05-8294-dd4e9469e6e5","system_id":"levelo_inurba_marseille","lat":43.26555,"lon":5.37288,"is_reserved":false,"is_disabled":false,"rental_uris":{"android":"levelo://app?vid=588a5867-9970-4e05-8294-dd4e9469e6e5","ios":"levelo://app?vid=588a5867-9970-4e05-8294-dd4e9469e6e5"},"vehicle_type_id":"4","last_reported":1750767692,"current_range_meters":8800,"station_id":"ce4bhg12rcd13ifvqf70","pricing_plan_id":"cebpf4jnsgd1na2vs0mg"},{"bike_id":"58325c67-763e-430d-aa74-0c97c3111deb","system_id":"levelo_inurba_marseille","lat":43.24994,"lon":5.38938,"is_reserved":false,"is_disabled":false,"rental_uris":{"android":"levelo://app?vid=58325c67-763e-430d-aa74-0c97c3111deb","ios":"levelo://app?vid=58325c67-763e-430d-aa74-0c97c3111deb"},"vehicle_type_id":"4","last_reported":1750767692,"current_range_meters":8800,"station_id":"ce4bhgp2rcd13ifvqfd0","pricing_plan_id":"cebpf4jnsgd1na2vs0mg"},{"bike_id":"af1ee2aa-9649-4a84-92f8-a833c0e1efe3","system_id":"levelo_inurba_marseille","lat":43.32355,"lon":5.36747,"is_reserved":false,"is_disabled":false,"rental_uris":{"android":"levelo://app?vid=af1ee2aa-9649-4a84-92f8-a833c0e1efe3","ios":"levelo://app?vid=af1ee2aa-9649-4a84-92f8-a833c0e1efe3"},"vehicle_type_id":"4","last_reported":1750767692,"current_range_meters":8800,"station_id":"ce4bhsh2rcd13ifvqi2g","pricing_plan_id":"cebpf4jnsgd1na2vs0mg"},{"bike_id":"23eda1de-7440-4504-9e5b-607db57c6e71","system_id":"levelo_inurba_marseille","lat":43.31341,"lon":5.36775,"is_reserved":false,"is_disabled":false,"rental_uris":{"android":"levelo://app?vid=23eda1de-7440-4504-9e5b-607db57c6e71","ios":"levelo://app?vid=23eda1de-7440-4504-9e5b-607db57c6e71"},"vehicle_type_id":"4","last_reported":1750767692,"current_range_meters":9200,"station_id":"ce4bgr92rcd13ifvqc6g","pricing_plan_id":"cebpf4jnsgd1na2vs0mg"},{"bike_id":"0f8a17d8-ca6e-4acb-9bb7-92544d829fbf","system_id":"levelo_inurba_marseille","lat":43.3138,"lon":5.367,"is_reserved":false,"is_disabled":false,"rental_uris":{"android":"levelo://app?vid=0f8a17d8-ca6e-4acb-9bb7-92544d829fbf","ios":"levelo://app?vid=0f8a17d8-ca6e-4acb-9bb7-92544d829fbf"},"vehicle_type_id":"4","last_reported":1750767692,"current_range_meters":9200,"station_id":"ce4bgr92rcd13ifvqc6g","pricing_plan_id":"cebpf4jnsgd1na2vs0mg"},{"bike_id":"0a59d99c-0de1-47f4-ae9a-0aed56245b3f","system_id":"levelo_inurba_marseille","lat":43.307963,"lon":5.376426,"is_reserved":false,"is_disabled":false,"rental_uris":{"android":"levelo://app?vid=0a59d99c-0de1-47f4-ae9a-0aed56245b3f","ios":"levelo://app?vid=0a59d99c-0de1-47f4-ae9a-0aed56245b3f"},"vehicle_type_id":"4","last_reported":1750767692,"current_range_meters":9200,"station_id":"ce4bgv92rcd13ifvqcq0","pricing_plan_id":"cebpf4jnsgd1na2vs0mg"},{"bike_id":"11ae10ea-fcae-40a1-9af8-0c4c79a9261a","system_id":"levelo_inurba_marseille","lat":43.27895,"lon":5.37983,"is_reserved":false,"is_disabled":false,"rental_uris":{"android":"levelo://app?vid=11ae10ea-fcae-40a1-9af8-0c4c79a9261a","ios":"levelo://app?vid=11ae10ea-fcae-40a1-9af8-0c4c79a9261a"},"vehicle_type_id":"4","last_reported":1750767692,"current_range_meters":9200,"station_id":"ce4bhf92rcd13ifvqf50","pricing_plan_id":"cebpf4jnsgd1na2vs0mg"},{"bike_id":"9a0a6e71-b8d9-41b1-9f56-a085d79b6dcb","system_id":"levelo_inurba_marseille","lat":43.26188,"lon":5.37451,"is_reserved":false,"is_disabled":false,"rental_uris":{"android":"levelo://app?vid=9a0a6e71-b8d9-41b1-9f56-a085d79b6dcb","ios":"levelo://app?vid=9a0a6e71-b8d9-41b1-9f56-a085d79b6dcb"},"vehicle_type_id":"4","last_reported":1750767692,"current_range_meters":9200,"station_id":"ce4bhgp2rcd13ifvqfc0","pricing_plan_id":"cebpf4jnsgd1na2vs0mg"},{"bike_id":"087f2159-7753-4646-b13a-36c8508d6b4f","system_id":"levelo_inurba_marseille","lat":43.32463,"lon":5.36562,"is_reserved":false,"is_disabled":false,"rental_uris":{"android":"levelo://app?vid=087f2159-7753-4646-b13a-36c8508d6b4f","ios":"levelo://app?vid=087f2159-7753-4646-b13a-36c8508d6b4f"},"vehicle_type_id":"4","last_reported":1750767692,"current_range_meters":9200,"station_id":"ce4bhs12rcd13ifvqhvg","pricing_plan_id":"cebpf4jnsgd1na2vs0mg"},{"bike_id":"19106cc1-4510-46bd-8353-6d2ae140aae4","system_id":"levelo_inurba_marseille","lat":43.21192,"lon":5.35069,"is_reserved":false,"is_disabled":false,"rental_uris":{"android":"levelo://app?vid=19106cc1-4510-46bd-8353-6d2ae140aae4","ios":"levelo://app?vid=19106cc1-4510-46bd-8353-6d2ae140aae4"},"vehicle_type_id":"4","last_reported":1750767692,"current_range_meters":9200,"station_id":"st_cvj6sg6p6f1abm77japg","pricing_plan_id":"cebpf4jnsgd1na2vs0mg"},{"bike_id":"a092c41c-0118-4d86-b43e-981a2615e33e","system_id":"levelo_inurba_marseille","lat":43.34685,"lon":5.34547,"is_reserved":false,"is_disabled":false,"rental_uris":{"android":"levelo://app?vid=a092c41c-0118-4d86-b43e-981a2615e33e","ios":"levelo://app?vid=a092c41c-0118-4d86-b43e-981a2615e33e"},"vehicle_type_id":"4","last_reported":1750767692,"current_range_meters":9600,"station_id":"","pricing_plan_id":"cebpf4jnsgd1na2vs0mg"},{"bike_id":"b047fdef-a4a1-4278-896e-5a46534d5aa2","system_id":"levelo_inurba_marseille","lat":43.269424,"lon":5.402617,"is_reserved":false,"is_disabled":false,"rental_uris":{"android":"levelo://app?vid=b047fdef-a4a1-4278-896e-5a46534d5aa2","ios":"levelo://app?vid=b047fdef-a4a1-4278-896e-5a46534d5aa2"},"vehicle_type_id":"4","last_reported":1750767692,"current_range_meters":9600,"station_id":"","pricing_plan_id":"cebpf4jnsgd1na2vs0mg"},{"bike_id":"e127ef7e-24d3-4248-81fa-66c5e7c3e582","system_id":"levelo_inurba_marseille","lat":43.296136,"lon":5.3794,"is_reserved":false,"is_disabled":false,"rental_uris":{"android":"levelo://app?vid=e127ef7e-24d3-4248-81fa-66c5e7c3e582","ios":"levelo://app?vid=e127ef7e-24d3-4248-81fa-66c5e7c3e582"},"vehicle_type_id":"4","last_reported":1750767692,"current_range_meters":9600,"station_id":"","pricing_plan_id":"cebpf4jnsgd1na2vs0mg"},{"bike_id":"0e8d5a55-0a0e-400a-ac5f-e6c775b0b2a2","system_id":"levelo_inurba_marseille","lat":43.27605,"lon":5.36122,"is_reserved":false,"is_disabled":false,"rental_uris":{"android":"levelo://app?vid=0e8d5a55-0a0e-400a-ac5f-e6c775b0b2a2","ios":"levelo://app?vid=0e8d5a55-0a0e-400a-ac5f-e6c775b0b2a2"},"vehicle_type_id":"4","last_reported":1750767692,"current_range_meters":9600,"station_id":"ce4bgj92rcd13ifvqbe0","pricing_plan_id":"cebpf4jnsgd1na2vs0mg"},{"bike_id":"170426ad-fd4b-48e4-961c-00154fd6715d","system_id":"levelo_inurba_marseille","lat":43.29229,"lon":5.36067,"is_reserved":false,"is_disabled":false,"rental_uris":{"android":"levelo://app?vid=170426ad-fd4b-48e4-961c-00154fd6715d","ios":"levelo://app?vid=170426ad-fd4b-48e4-961c-00154fd6715d"},"vehicle_type_id":"4","last_reported":1750767692,"current_range_meters":9600,"station_id":"ce4bhbh2rcd13ifvqeqg","pricing_plan_id":"cebpf4jnsgd1na2vs0mg"},{"bike_id":"20ee7690-aced-4e48-9e5e-0d7fdfa26dae","system_id":"levelo_inurba_marseille","lat":43.337203,"lon":5.39194,"is_reserved":false,"is_disabled":false,"rental_uris":{"android":"levelo://app?vid=20ee7690-aced-4e48-9e5e-0d7fdfa26dae","ios":"levelo://app?vid=20ee7690-aced-4e48-9e5e-0d7fdfa26dae"},"vehicle_type_id":"4","last_reported":1750767692,"current_range_meters":9600,"station_id":"ce4bhr92rcd13ifvqhsg","pricing_plan_id":"cebpf4jnsgd1na2vs0mg"},{"bike_id":"cf4df708-b53f-4b70-b463-a9d5f81fd205","system_id":"levelo_inurba_marseille","lat":43.32493,"lon":5.36564,"is_reserved":false,"is_disabled":false,"rental_uris":{"android":"levelo://app?vid=cf4df708-b53f-4b70-b463-a9d5f81fd205","ios":"levelo://app?vid=cf4df708-b53f-4b70-b463-a9d5f81fd205"},"vehicle_type_id":"4","last_reported":1750767692,"current_range_meters":9600,"station_id":"ce4bhs12rcd13ifvqhvg","pricing_plan_id":"cebpf4jnsgd1na2vs0mg"},{"bike_id":"b53e1a5b-8a04-4df5-a43b-fdf609b09612","system_id":"levelo_inurba_marseille","lat":43.29532,"lon":5.38547,"is_reserved":false,"is_disabled":false,"rental_uris":{"android":"levelo://app?vid=b53e1a5b-8a04-4df5-a43b-fdf609b09612","ios":"levelo://app?vid=b53e1a5b-8a04-4df5-a43b-fdf609b09612"},"vehicle_type_id":"4","last_reported":1750767692,"current_range_meters":10000,"station_id":"ce4bgih2rcd13ifvqba0","pricing_plan_id":"cebpf4jnsgd1na2vs0mg"},{"bike_id":"89733d74-8a5d-4dca-b7da-df9ca8620146","system_id":"levelo_inurba_marseille","lat":43.29372,"lon":5.37824,"is_reserved":false,"is_disabled":false,"rental_uris":{"android":"levelo://app?vid=89733d74-8a5d-4dca-b7da-df9ca8620146","ios":"levelo://app?vid=89733d74-8a5d-4dca-b7da-df9ca8620146"},"vehicle_type_id":"4","last_reported":1750767692,"current_range_meters":10000,"station_id":"ce4bgjh2rcd13ifvqbf0","pricing_plan_id":"cebpf4jnsgd1na2vs0mg"},{"bike_id":"9f754f6a-d755-48d0-bb43-98e338a9df6d","system_id":"levelo_inurba_marseille","lat":43.30931,"lon":5.36831,"is_reserved":false,"is_disabled":false,"rental_uris":{"android":"levelo://app?vid=9f754f6a-d755-48d0-bb43-98e338a9df6d","ios":"levelo://app?vid=9f754f6a-d755-48d0-bb43-98e338a9df6d"},"vehicle_type_id":"4","last_reported":1750767692,"current_range_meters":10000,"station_id":"ce4bgn92rcd13ifvqbvg","pricing_plan_id":"cebpf4jnsgd1na2vs0mg"},{"bike_id":"8666a26a-5746-45b9-ac90-20114bdf8af4","system_id":"levelo_inurba_marseille","lat":43.30951,"lon":5.39031,"is_reserved":false,"is_disabled":false,"rental_uris":{"android":"levelo://app?vid=8666a26a-5746-45b9-ac90-20114bdf8af4","ios":"levelo://app?vid=8666a26a-5746-45b9-ac90-20114bdf8af4"},"vehicle_type_id":"4","last_reported":1750767692,"current_range_meters":10000,"station_id":"ce4bgup2rcd13ifvqco0","pricing_plan_id":"cebpf4jnsgd1na2vs0mg"},{"bike_id":"edd2be5e-eb27-4656-a5a7-deefa4acaf7b","system_id":"levelo_inurba_marseille","lat":43.29005,"lon":5.35617,"is_reserved":false,"is_disabled":false,"rental_uris":{"android":"levelo://app?vid=edd2be5e-eb27-4656-a5a7-deefa4acaf7b","ios":"levelo://app?vid=edd2be5e-eb27-4656-a5a7-deefa4acaf7b"},"vehicle_type_id":"4","last_reported":1750767692,"current_range_meters":10000,"station_id":"ce4bhb92rcd13ifvqen0","pricing_plan_id":"cebpf4jnsgd1na2vs0mg"},{"bike_id":"96784955-b331-4a01-bc1e-1afe3afb807a","system_id":"levelo_inurba_marseille","lat":43.26563,"lon":5.3902,"is_reserved":false,"is_disabled":false,"rental_uris":{"android":"levelo://app?vid=96784955-b331-4a01-bc1e-1afe3afb807a","ios":"levelo://app?vid=96784955-b331-4a01-bc1e-1afe3afb807a"},"vehicle_type_id":"4","last_reported":1750767692,"current_range_meters":10000,"station_id":"ce4bhe12rcd13ifvqf30","pricing_plan_id":"cebpf4jnsgd1na2vs0mg"},{"bike_id":"a7794009-9fb0-4d03-b8f8-6edf9031eddf","system_id":"levelo_inurba_marseille","lat":43.26548,"lon":5.39035,"is_reserved":false,"is_disabled":false,"rental_uris":{"android":"levelo://app?vid=a7794009-9fb0-4d03-b8f8-6edf9031eddf","ios":"levelo://app?vid=a7794009-9fb0-4d03-b8f8-6edf9031eddf"},"vehicle_type_id":"4","last_reported":1750767692,"current_range_meters":10000,"station_id":"ce4bhe12rcd13ifvqf30","pricing_plan_id":"cebpf4jnsgd1na2vs0mg"},{"bike_id":"c83554d8-8b0a-439d-8377-0a0412e36ea7","system_id":"levelo_inurba_marseille","lat":43.25931,"lon":5.40899,"is_reserved":false,"is_disabled":false,"rental_uris":{"android":"levelo://app?vid=c83554d8-8b0a-439d-8377-0a0412e36ea7","ios":"levelo://app?vid=c83554d8-8b0a-439d-8377-0a0412e36ea7"},"vehicle_type_id":"4","last_reported":1750767692,"current_range_meters":10000,"station_id":"ce4bhm92rcd13ifvqglg","pricing_plan_id":"cebpf4jnsgd1na2vs0mg"},{"bike_id":"cada33e7-7feb-4285-bb16-b2e63d63815b","system_id":"levelo_inurba_marseille","lat":43.23669,"lon":5.39165,"is_reserved":false,"is_disabled":false,"rental_uris":{"android":"levelo://app?vid=cada33e7-7feb-4285-bb16-b2e63d63815b","ios":"levelo://app?vid=cada33e7-7feb-4285-bb16-b2e63d63815b"},"vehicle_type_id":"4","last_reported":1750767692,"current_range_meters":10800,"station_id":"","pricing_plan_id":"cebpf4jnsgd1na2vs0mg"},{"bike_id":"82daa609-66e4-4b91-8a1c-a20f4b557675","system_id":"levelo_inurba_marseille","lat":43.30336,"lon":5.36691,"is_reserved":false,"is_disabled":false,"rental_uris":{"android":"levelo://app?vid=82daa609-66e4-4b91-8a1c-a20f4b557675","ios":"levelo://app?vid=82daa609-66e4-4b91-8a1c-a20f4b557675"},"vehicle_type_id":"4","last_reported":1750767692,"current_range_meters":10800,"station_id":"","pricing_plan_id":"cebpf4jnsgd1na2vs0mg"},{"bike_id":"11453444-4ae0-471d-93be-a047ef0b0d85","system_id":"levelo_inurba_marseille","lat":43.30909,"lon":5.36848,"is_reserved":false,"is_disabled":false,"rental_uris":{"android":"levelo://app?vid=11453444-4ae0-471d-93be-a047ef0b0d85","ios":"levelo://app?vid=11453444-4ae0-471d-93be-a047ef0b0d85"},"vehicle_type_id":"4","last_reported":1750767692,"current_range_meters":10800,"station_id":"ce4bgn92rcd13ifvqbvg","pricing_plan_id":"cebpf4jnsgd1na2vs0mg"},{"bike_id":"38dabb6e-b52d-4c1f-8e8e-ed4d8e15b415","system_id":"levelo_inurba_marseille","lat":43.279833,"lon":5.387041,"is_reserved":false,"is_disabled":false,"rental_uris":{"android":"levelo://app?vid=38dabb6e-b52d-4c1f-8e8e-ed4d8e15b415","ios":"levelo://app?vid=38dabb6e-b52d-4c1f-8e8e-ed4d8e15b415"},"vehicle_type_id":"4","last_reported":1750767692,"current_range_meters":10800,"station_id":"ce4bhg12rcd13ifvqf80","pricing_plan_id":"cebpf4jnsgd1na2vs0mg"},{"bike_id":"ba7009b7-dbb9-4c29-8645-d0a68dca7b4f","system_id":"levelo_inurba_marseille","lat":43.312975,"lon":5.445535,"is_reserved":false,"is_disabled":false,"rental_uris":{"android":"levelo://app?vid=ba7009b7-dbb9-4c29-8645-d0a68dca7b4f","ios":"levelo://app?vid=ba7009b7-dbb9-4c29-8645-d0a68dca7b4f"},"vehicle_type_id":"4","last_reported":1750767692,"current_range_meters":11200,"station_id":"","pricing_plan_id":"cebpf4jnsgd1na2vs0mg"},{"bike_id":"5a3c89c2-3450-4abf-8f80-3c018505aaa7","system_id":"levelo_inurba_marseille","lat":43.32111,"lon":5.36814,"is_reserved":false,"is_disabled":false,"rental_uris":{"android":"levelo://app?vid=5a3c89c2-3450-4abf-8f80-3c018505aaa7","ios":"levelo://app?vid=5a3c89c2-3450-4abf-8f80-3c018505aaa7"},"vehicle_type_id":"4","last_reported":1750767692,"current_range_meters":11200,"station_id":"ce4bhrh2rcd13ifvqhug","pricing_plan_id":"cebpf4jnsgd1na2vs0mg"},{"bike_id":"450a3642-ad05-4765-9a3a-f8f356367bc2","system_id":"levelo_inurba_marseille","lat":43.305403,"lon":5.365397,"is_reserved":false,"is_disabled":false,"rental_uris":{"android":"levelo://app?vid=450a3642-ad05-4765-9a3a-f8f356367bc2","ios":"levelo://app?vid=450a3642-ad05-4765-9a3a-f8f356367bc2"},"vehicle_type_id":"4","last_reported":1750767692,"current_range_meters":11600,"station_id":"ce4bgs12rcd13ifvqcag","pricing_plan_id":"cebpf4jnsgd1na2vs0mg"},{"bike_id":"7a82a6f5-d9dd-42e9-a872-fefabd9183ca","system_id":"levelo_inurba_marseille","lat":43.29041,"lon":5.37162,"is_reserved":false,"is_disabled":false,"rental_uris":{"android":"levelo://app?vid=7a82a6f5-d9dd-42e9-a872-fefabd9183ca","ios":"levelo://app?vid=7a82a6f5-d9dd-42e9-a872-fefabd9183ca"},"vehicle_type_id":"4","last_reported":1750767692,"current_range_meters":11600,"station_id":"ce4bh5p2rcd13ifvqe4g","pricing_plan_id":"cebpf4jnsgd1na2vs0mg"},{"bike_id":"ef1ab4fb-2fa0-43b2-bb55-6c43f7d999ca","system_id":"levelo_inurba_marseille","lat":43.2898,"lon":5.3784,"is_reserved":false,"is_disabled":false,"rental_uris":{"android":"levelo://app?vid=ef1ab4fb-2fa0-43b2-bb55-6c43f7d999ca","ios":"levelo://app?vid=ef1ab4fb-2fa0-43b2-bb55-6c43f7d999ca"},"vehicle_type_id":"4","last_reported":1750767692,"current_range_meters":11600,"station_id":"ce4bh9p2rcd13ifvqed0","pricing_plan_id":"cebpf4jnsgd1na2vs0mg"},{"bike_id":"86705c89-4c53-41ae-b858-eccb2ea2f0a6","system_id":"levelo_inurba_marseille","lat":43.28428,"lon":5.34985,"is_reserved":false,"is_disabled":false,"rental_uris":{"android":"levelo://app?vid=86705c89-4c53-41ae-b858-eccb2ea2f0a6","ios":"levelo://app?vid=86705c89-4c53-41ae-b858-eccb2ea2f0a6"},"vehicle_type_id":"4","last_reported":1750767692,"current_range_meters":11600,"station_id":"ce4bhbh2rcd13ifvqepg","pricing_plan_id":"cebpf4jnsgd1na2vs0mg"},{"bike_id":"c6c7b929-26ed-4696-9996-8fc006eb331a","system_id":"levelo_inurba_marseille","lat":43.24083,"lon":5.37805,"is_reserved":false,"is_disabled":false,"rental_uris":{"android":"levelo://app?vid=c6c7b929-26ed-4696-9996-8fc006eb331a","ios":"levelo://app?vid=c6c7b929-26ed-4696-9996-8fc006eb331a"},"vehicle_type_id":"4","last_reported":1750767692,"current_range_meters":11600,"station_id":"ce4bhnp2rcd13ifvqgvg","pricing_plan_id":"cebpf4jnsgd1na2vs0mg"},{"bike_id":"d3b4acd1-475d-43e1-bb04-3b5b22c96457","system_id":"levelo_inurba_marseille","lat":43.29891,"lon":5.43681,"is_reserved":false,"is_disabled":false,"rental_uris":{"android":"levelo://app?vid=d3b4acd1-475d-43e1-bb04-3b5b22c96457","ios":"levelo://app?vid=d3b4acd1-475d-43e1-bb04-3b5b22c96457"},"vehicle_type_id":"4","last_reported":1750767692,"current_range_meters":11600,"station_id":"ce4bhpp2rcd13ifvqhfg","pricing_plan_id":"cebpf4jnsgd1na2vs0mg"},{"bike_id":"70211e10-2222-4828-bd01-c6c768b02081","system_id":"levelo_inurba_marseille","lat":43.29303,"lon":5.37479,"is_reserved":false,"is_disabled":false,"rental_uris":{"android":"levelo://app?vid=70211e10-2222-4828-bd01-c6c768b02081","ios":"levelo://app?vid=70211e10-2222-4828-bd01-c6c768b02081"},"vehicle_type_id":"4","last_reported":1750767692,"current_range_meters":12000,"station_id":"ce4bgi12rcd13ifvqb70","pricing_plan_id":"cebpf4jnsgd1na2vs0mg"},{"bike_id":"c0bb3d99-b88b-43af-9785-6fab52d558f4","system_id":"levelo_inurba_marseille","lat":43.30606,"lon":5.37227,"is_reserved":false,"is_disabled":false,"rental_uris":{"android":"levelo://app?vid=c0bb3d99-b88b-43af-9785-6fab52d558f4","ios":"levelo://app?vid=c0bb3d99-b88b-43af-9785-6fab52d558f4"},"vehicle_type_id":"4","last_reported":1750767692,"current_range_meters":12000,"station_id":"ce4bgqh2rcd13ifvqc4g","pricing_plan_id":"cebpf4jnsgd1na2vs0mg"},{"bike_id":"a6d22fcb-a7bd-42df-8b2c-3e1ed39c0d96","system_id":"levelo_inurba_marseille","lat":43.292,"lon":5.3933,"is_reserved":false,"is_disabled":false,"rental_uris":{"android":"levelo://app?vid=a6d22fcb-a7bd-42df-8b2c-3e1ed39c0d96","ios":"levelo://app?vid=a6d22fcb-a7bd-42df-8b2c-3e1ed39c0d96"},"vehicle_type_id":"4","last_reported":1750767692,"current_range_meters":12000,"station_id":"ce4bh192rcd13ifvqdd0","pricing_plan_id":"cebpf4jnsgd1na2vs0mg"},{"bike_id":"de002d9d-83b0-41e6-99fe-f9eb013d6ff3","system_id":"levelo_inurba_marseille","lat":43.21742,"lon":5.34628,"is_reserved":false,"is_disabled":false,"rental_uris":{"android":"levelo://app?vid=de002d9d-83b0-41e6-99fe-f9eb013d6ff3","ios":"levelo://app?vid=de002d9d-83b0-41e6-99fe-f9eb013d6ff3"},"vehicle_type_id":"4","last_reported":1750767692,"current_range_meters":12000,"station_id":"st_cvj6r9ubvosntc0bgbag","pricing_plan_id":"cebpf4jnsgd1na2vs0mg"},{"bike_id":"ea58c5af-7e24-472a-9042-4626112e91cb","system_id":"levelo_inurba_marseille","lat":43.291979,"lon":5.358054,"is_reserved":false,"is_disabled":false,"rental_uris":{"android":"levelo://app?vid=ea58c5af-7e24-472a-9042-4626112e91cb","ios":"levelo://app?vid=ea58c5af-7e24-472a-9042-4626112e91cb"},"vehicle_type_id":"4","last_reported":1750767692,"current_range_meters":12400,"station_id":"","pricing_plan_id":"cebpf4jnsgd1na2vs0mg"},{"bike_id":"ff359b06-e82b-4518-b602-f9c62162a27d","system_id":"levelo_inurba_marseille","lat":43.21196,"lon":5.3507,"is_reserved":false,"is_disabled":false,"rental_uris":{"android":"levelo://app?vid=ff359b06-e82b-4518-b602-f9c62162a27d","ios":"levelo://app?vid=ff359b06-e82b-4518-b602-f9c62162a27d"},"vehicle_type_id":"4","last_reported":1750767692,"current_range_meters":12400,"station_id":"st_cvj6sg6p6f1abm77japg","pricing_plan_id":"cebpf4jnsgd1na2vs0mg"},{"bike_id":"3e0f5345-cfae-479a-9b41-9237c8726756","system_id":"levelo_inurba_marseille","lat":43.29682,"lon":5.36331,"is_reserved":false,"is_disabled":false,"rental_uris":{"android":"levelo://app?vid=3e0f5345-cfae-479a-9b41-9237c8726756","ios":"levelo://app?vid=3e0f5345-cfae-479a-9b41-9237c8726756"},"vehicle_type_id":"4","last_reported":1750767692,"current_range_meters":12800,"station_id":"","pricing_plan_id":"cebpf4jnsgd1na2vs0mg"},{"bike_id":"095eabd1-5dcf-4106-9219-bdac4470d970","system_id":"levelo_inurba_marseille","lat":43.32818,"lon":5.43351,"is_reserved":false,"is_disabled":false,"rental_uris":{"android":"levelo://app?vid=095eabd1-5dcf-4106-9219-bdac4470d970","ios":"levelo://app?vid=095eabd1-5dcf-4106-9219-bdac4470d970"},"vehicle_type_id":"4","last_reported":1750767692,"current_range_meters":12800,"station_id":"","pricing_plan_id":"cebpf4jnsgd1na2vs0mg"},{"bike_id":"45ede44d-b958-4b29-a7ac-798377844161","system_id":"levelo_inurba_marseille","lat":43.31234,"lon":5.36862,"is_reserved":false,"is_disabled":false,"rental_uris":{"android":"levelo://app?vid=45ede44d-b958-4b29-a7ac-798377844161","ios":"levelo://app?vid=45ede44d-b958-4b29-a7ac-798377844161"},"vehicle_type_id":"4","last_reported":1750767692,"current_range_meters":12800,"station_id":"ce4bgl92rcd13ifvqbq0","pricing_plan_id":"cebpf4jnsgd1na2vs0mg"},{"bike_id":"b6b861fa-fd27-43ad-89fb-4be1a264be92","system_id":"levelo_inurba_marseille","lat":43.25307,"lon":5.37497,"is_reserved":false,"is_disabled":false,"rental_uris":{"android":"levelo://app?vid=b6b861fa-fd27-43ad-89fb-4be1a264be92","ios":"levelo://app?vid=b6b861fa-fd27-43ad-89fb-4be1a264be92"},"vehicle_type_id":"4","last_reported":1750767692,"current_range_meters":13600,"station_id":"","pricing_plan_id":"cebpf4jnsgd1na2vs0mg"},{"bike_id":"14d13f7e-05f8-43bd-8b0c-b282ff3ae27d","system_id":"levelo_inurba_marseille","lat":43.29707,"lon":5.37706,"is_reserved":false,"is_disabled":false,"rental_uris":{"android":"levelo://app?vid=14d13f7e-05f8-43bd-8b0c-b282ff3ae27d","ios":"levelo://app?vid=14d13f7e-05f8-43bd-8b0c-b282ff3ae27d"},"vehicle_type_id":"4","last_reported":1750767692,"current_range_meters":13600,"station_id":"ce4bgkh2rcd13ifvqbl0","pricing_plan_id":"cebpf4jnsgd1na2vs0mg"},{"bike_id":"1ac88bea-1b32-4f4c-89af-44c4777fadfe","system_id":"levelo_inurba_marseille","lat":43.24081,"lon":5.37753,"is_reserved":false,"is_disabled":false,"rental_uris":{"android":"levelo://app?vid=1ac88bea-1b32-4f4c-89af-44c4777fadfe","ios":"levelo://app?vid=1ac88bea-1b32-4f4c-89af-44c4777fadfe"},"vehicle_type_id":"4","last_reported":1750767692,"current_range_meters":13600,"station_id":"ce4bhnp2rcd13ifvqgvg","pricing_plan_id":"cebpf4jnsgd1na2vs0mg"},{"bike_id":"a554455b-02a3-4243-a1d6-6c0959b9aa9e","system_id":"levelo_inurba_marseille","lat":43.32352,"lon":5.38887,"is_reserved":false,"is_disabled":false,"rental_uris":{"android":"levelo://app?vid=a554455b-02a3-4243-a1d6-6c0959b9aa9e","ios":"levelo://app?vid=a554455b-02a3-4243-a1d6-6c0959b9aa9e"},"vehicle_type_id":"4","last_reported":1750767692,"current_range_meters":13600,"station_id":"ce4bhqp2rcd13ifvqhog","pricing_plan_id":"cebpf4jnsgd1na2vs0mg"},{"bike_id":"4cd5164a-d55a-4627-ae6b-fa5c3d311f3f","system_id":"levelo_inurba_marseille","lat":43.23197,"lon":5.35559,"is_reserved":false,"is_disabled":false,"rental_uris":{"android":"levelo://app?vid=4cd5164a-d55a-4627-ae6b-fa5c3d311f3f","ios":"levelo://app?vid=4cd5164a-d55a-4627-ae6b-fa5c3d311f3f"},"vehicle_type_id":"4","last_reported":1750767692,"current_range_meters":13600,"station_id":"ce4bhu92rcd13ifvqi70","pricing_plan_id":"cebpf4jnsgd1na2vs0mg"},{"bike_id":"7c3f6852-4f29-42a9-a8c1-e2b82bb43fcf","system_id":"levelo_inurba_marseille","lat":43.29257,"lon":5.42682,"is_reserved":false,"is_disabled":false,"rental_uris":{"android":"levelo://app?vid=7c3f6852-4f29-42a9-a8c1-e2b82bb43fcf","ios":"levelo://app?vid=7c3f6852-4f29-42a9-a8c1-e2b82bb43fcf"},"vehicle_type_id":"4","last_reported":1750767692,"current_range_meters":14000,"station_id":"","pricing_plan_id":"cebpf4jnsgd1na2vs0mg"},{"bike_id":"fe2607a8-36b1-49dd-9a20-f824929f7e99","system_id":"levelo_inurba_marseille","lat":43.2892,"lon":5.36603,"is_reserved":false,"is_disabled":false,"rental_uris":{"android":"levelo://app?vid=fe2607a8-36b1-49dd-9a20-f824929f7e99","ios":"levelo://app?vid=fe2607a8-36b1-49dd-9a20-f824929f7e99"},"vehicle_type_id":"4","last_reported":1750767692,"current_range_meters":14000,"station_id":"ce4bhap2rcd13ifvqek0","pricing_plan_id":"cebpf4jnsgd1na2vs0mg"},{"bike_id":"984455f4-d51a-4995-b34c-402f6c830235","system_id":"levelo_inurba_marseille","lat":43.262008,"lon":5.379173,"is_reserved":false,"is_disabled":false,"rental_uris":{"android":"levelo://app?vid=984455f4-d51a-4995-b34c-402f6c830235","ios":"levelo://app?vid=984455f4-d51a-4995-b34c-402f6c830235"},"vehicle_type_id":"4","last_reported":1750767692,"current_range_meters":14000,"station_id":"ce4bhjp2rcd13ifvqg90","pricing_plan_id":"cebpf4jnsgd1na2vs0mg"},{"bike_id":"11ebf4fb-e752-44af-81e3-7d28e8eee9cc","system_id":"levelo_inurba_marseille","lat":43.28106,"lon":5.43221,"is_reserved":false,"is_disabled":false,"rental_uris":{"android":"levelo://app?vid=11ebf4fb-e752-44af-81e3-7d28e8eee9cc","ios":"levelo://app?vid=11ebf4fb-e752-44af-81e3-7d28e8eee9cc"},"vehicle_type_id":"4","last_reported":1750767692,"current_range_meters":14400,"station_id":"","pricing_plan_id":"cebpf4jnsgd1na2vs0mg"},{"bike_id":"f7d21a52-3225-4396-9d12-a1ed5d91e907","system_id":"levelo_inurba_marseille","lat":43.29165,"lon":5.3861,"is_reserved":false,"is_disabled":false,"rental_uris":{"android":"levelo://app?vid=f7d21a52-3225-4396-9d12-a1ed5d91e907","ios":"levelo://app?vid=f7d21a52-3225-4396-9d12-a1ed5d91e907"},"vehicle_type_id":"4","last_reported":1750767692,"current_range_meters":14400,"station_id":"","pricing_plan_id":"cebpf4jnsgd1na2vs0mg"},{"bike_id":"14f1a158-8cfe-45a7-bf35-f6a6d1d67d9a","system_id":"levelo_inurba_marseille","lat":43.27175,"lon":5.40998,"is_reserved":false,"is_disabled":false,"rental_uris":{"android":"levelo://app?vid=14f1a158-8cfe-45a7-bf35-f6a6d1d67d9a","ios":"levelo://app?vid=14f1a158-8cfe-45a7-bf35-f6a6d1d67d9a"},"vehicle_type_id":"4","last_reported":1750767692,"current_range_meters":14400,"station_id":"ce4bhl12rcd13ifvqgf0","pricing_plan_id":"cebpf4jnsgd1na2vs0mg"},{"bike_id":"67e49c55-2343-4bef-a9e5-04b00e3e3fb6","system_id":"levelo_inurba_marseille","lat":43.301483,"lon":5.380843,"is_reserved":false,"is_disabled":false,"rental_uris":{"android":"levelo://app?vid=67e49c55-2343-4bef-a9e5-04b00e3e3fb6","ios":"levelo://app?vid=67e49c55-2343-4bef-a9e5-04b00e3e3fb6"},"vehicle_type_id":"4","last_reported":1750767692,"current_range_meters":14800,"station_id":"ce4bgjp2rcd13ifvqbh0","pricing_plan_id":"cebpf4jnsgd1na2vs0mg"},{"bike_id":"9a0dca87-30f2-4ca4-b14d-4bcd7b0bfbd8","system_id":"levelo_inurba_marseille","lat":43.313497,"lon":5.36723,"is_reserved":false,"is_disabled":false,"rental_uris":{"android":"levelo://app?vid=9a0dca87-30f2-4ca4-b14d-4bcd7b0bfbd8","ios":"levelo://app?vid=9a0dca87-30f2-4ca4-b14d-4bcd7b0bfbd8"},"vehicle_type_id":"4","last_reported":1750767692,"current_range_meters":14800,"station_id":"ce4bgr92rcd13ifvqc6g","pricing_plan_id":"cebpf4jnsgd1na2vs0mg"},{"bike_id":"2c6e7c9f-c319-488f-97f2-12e7a44da27e","system_id":"levelo_inurba_marseille","lat":43.30559,"lon":5.36526,"is_reserved":false,"is_disabled":false,"rental_uris":{"android":"levelo://app?vid=2c6e7c9f-c319-488f-97f2-12e7a44da27e","ios":"levelo://app?vid=2c6e7c9f-c319-488f-97f2-12e7a44da27e"},"vehicle_type_id":"4","last_reported":1750767692,"current_range_meters":14800,"station_id":"ce4bgs12rcd13ifvqcag","pricing_plan_id":"cebpf4jnsgd1na2vs0mg"},{"bike_id":"d640a7b8-1397-43d6-a186-6115f601992f","system_id":"levelo_inurba_marseille","lat":43.30765,"lon":5.37633,"is_reserved":false,"is_disabled":false,"rental_uris":{"android":"levelo://app?vid=d640a7b8-1397-43d6-a186-6115f601992f","ios":"levelo://app?vid=d640a7b8-1397-43d6-a186-6115f601992f"},"vehicle_type_id":"4","last_reported":1750767692,"current_range_meters":14800,"station_id":"ce4bgv92rcd13ifvqcq0","pricing_plan_id":"cebpf4jnsgd1na2vs0mg"},{"bike_id":"057a6a0b-4f83-4b77-b411-d3946c151b09","system_id":"levelo_inurba_marseille","lat":43.303268,"lon":5.404393,"is_reserved":false,"is_disabled":false,"rental_uris":{"android":"levelo://app?vid=057a6a0b-4f83-4b77-b411-d3946c151b09","ios":"levelo://app?vid=057a6a0b-4f83-4b77-b411-d3946c151b09"},"vehicle_type_id":"4","last_reported":1750767692,"current_range_meters":14800,"station_id":"ce4bh012rcd13ifvqd10","pricing_plan_id":"cebpf4jnsgd1na2vs0mg"},{"bike_id":"cef721fd-afe4-48d0-89b0-0777a634e87f","system_id":"levelo_inurba_marseille","lat":43.244,"lon":5.37109,"is_reserved":false,"is_disabled":false,"rental_uris":{"android":"levelo://app?vid=cef721fd-afe4-48d0-89b0-0777a634e87f","ios":"levelo://app?vid=cef721fd-afe4-48d0-89b0-0777a634e87f"},"vehicle_type_id":"4","last_reported":1750767692,"current_range_meters":14800,"station_id":"ce4bhhh2rcd13ifvqfk0","pricing_plan_id":"cebpf4jnsgd1na2vs0mg"},{"bike_id":"c16329a8-a4d3-4fd2-9c24-4cd9632ea94d","system_id":"levelo_inurba_marseille","lat":43.25722,"lon":5.41107,"is_reserved":false,"is_disabled":false,"rental_uris":{"android":"levelo://app?vid=c16329a8-a4d3-4fd2-9c24-4cd9632ea94d","ios":"levelo://app?vid=c16329a8-a4d3-4fd2-9c24-4cd9632ea94d"},"vehicle_type_id":"4","last_reported":1750767692,"current_range_meters":14800,"station_id":"ce4bhkp2rcd13ifvqgd0","pricing_plan_id":"cebpf4jnsgd1na2vs0mg"},{"bike_id":"7ea3c9bd-f9bd-438e-b9e1-cdbe4f91c60d","system_id":"levelo_inurba_marseille","lat":43.22881,"lon":5.35284,"is_reserved":false,"is_disabled":false,"rental_uris":{"android":"levelo://app?vid=7ea3c9bd-f9bd-438e-b9e1-cdbe4f91c60d","ios":"levelo://app?vid=7ea3c9bd-f9bd-438e-b9e1-cdbe4f91c60d"},"vehicle_type_id":"4","last_reported":1750767692,"current_range_meters":15200,"station_id":"","pricing_plan_id":"cebpf4jnsgd1na2vs0mg"},{"bike_id":"7d48df8f-307a-43ce-a0b4-676726d9e33f","system_id":"levelo_inurba_marseille","lat":43.29223,"lon":5.36069,"is_reserved":false,"is_disabled":false,"rental_uris":{"android":"levelo://app?vid=7d48df8f-307a-43ce-a0b4-676726d9e33f","ios":"levelo://app?vid=7d48df8f-307a-43ce-a0b4-676726d9e33f"},"vehicle_type_id":"4","last_reported":1750767692,"current_range_meters":15200,"station_id":"ce4bhbh2rcd13ifvqeqg","pricing_plan_id":"cebpf4jnsgd1na2vs0mg"},{"bike_id":"68926176-3dcc-4058-a2fb-ab3e04992f57","system_id":"levelo_inurba_marseille","lat":43.23153,"lon":5.4372,"is_reserved":false,"is_disabled":false,"rental_uris":{"android":"levelo://app?vid=68926176-3dcc-4058-a2fb-ab3e04992f57","ios":"levelo://app?vid=68926176-3dcc-4058-a2fb-ab3e04992f57"},"vehicle_type_id":"4","last_reported":1750767692,"current_range_meters":15200,"station_id":"ce4bhmp2rcd13ifvqgog","pricing_plan_id":"cebpf4jnsgd1na2vs0mg"},{"bike_id":"35b14479-4a4d-4383-83de-c7fea66894b3","system_id":"levelo_inurba_marseille","lat":43.29901,"lon":5.43674,"is_reserved":false,"is_disabled":false,"rental_uris":{"android":"levelo://app?vid=35b14479-4a4d-4383-83de-c7fea66894b3","ios":"levelo://app?vid=35b14479-4a4d-4383-83de-c7fea66894b3"},"vehicle_type_id":"4","last_reported":1750767692,"current_range_meters":15200,"station_id":"ce4bhpp2rcd13ifvqhfg","pricing_plan_id":"cebpf4jnsgd1na2vs0mg"},{"bike_id":"51df9c8d-f116-4628-8c40-f3171ceea641","system_id":"levelo_inurba_marseille","lat":43.28149,"lon":5.44565,"is_reserved":false,"is_disabled":false,"rental_uris":{"android":"levelo://app?vid=51df9c8d-f116-4628-8c40-f3171ceea641","ios":"levelo://app?vid=51df9c8d-f116-4628-8c40-f3171ceea641"},"vehicle_type_id":"4","last_reported":1750767692,"current_range_meters":16000,"station_id":"","pricing_plan_id":"cebpf4jnsgd1na2vs0mg"},{"bike_id":"1566daf5-b63c-4c0f-9ed3-8f89b99b2c78","system_id":"levelo_inurba_marseille","lat":43.29592,"lon":5.36746,"is_reserved":false,"is_disabled":false,"rental_uris":{"android":"levelo://app?vid=1566daf5-b63c-4c0f-9ed3-8f89b99b2c78","ios":"levelo://app?vid=1566daf5-b63c-4c0f-9ed3-8f89b99b2c78"},"vehicle_type_id":"4","last_reported":1750767692,"current_range_meters":16000,"station_id":"ce4bgph2rcd13ifvqc2g","pricing_plan_id":"cebpf4jnsgd1na2vs0mg"},{"bike_id":"6af11411-eaec-434d-8aec-5ac25bed1ca3","system_id":"levelo_inurba_marseille","lat":43.31341,"lon":5.36733,"is_reserved":false,"is_disabled":false,"rental_uris":{"android":"levelo://app?vid=6af11411-eaec-434d-8aec-5ac25bed1ca3","ios":"levelo://app?vid=6af11411-eaec-434d-8aec-5ac25bed1ca3"},"vehicle_type_id":"4","last_reported":1750767692,"current_range_meters":16000,"station_id":"ce4bgr92rcd13ifvqc6g","pricing_plan_id":"cebpf4jnsgd1na2vs0mg"},{"bike_id":"26743e95-f872-4768-95e2-45f246ee7a3d","system_id":"levelo_inurba_marseille","lat":43.28407,"lon":5.34985,"is_reserved":false,"is_disabled":false,"rental_uris":{"android":"levelo://app?vid=26743e95-f872-4768-95e2-45f246ee7a3d","ios":"levelo://app?vid=26743e95-f872-4768-95e2-45f246ee7a3d"},"vehicle_type_id":"4","last_reported":1750767692,"current_range_meters":16000,"station_id":"ce4bhbh2rcd13ifvqepg","pricing_plan_id":"cebpf4jnsgd1na2vs0mg"},{"bike_id":"17554c52-9615-46f6-b92a-7d0e6af39209","system_id":"levelo_inurba_marseille","lat":43.231489,"lon":5.437258,"is_reserved":false,"is_disabled":false,"rental_uris":{"android":"levelo://app?vid=17554c52-9615-46f6-b92a-7d0e6af39209","ios":"levelo://app?vid=17554c52-9615-46f6-b92a-7d0e6af39209"},"vehicle_type_id":"4","last_reported":1750767692,"current_range_meters":16000,"station_id":"ce4bhmp2rcd13ifvqgog","pricing_plan_id":"cebpf4jnsgd1na2vs0mg"},{"bike_id":"df9df704-3332-46e8-b4c3-3dda695a185e","system_id":"levelo_inurba_marseille","lat":43.30417,"lon":5.41276,"is_reserved":false,"is_disabled":false,"rental_uris":{"android":"levelo://app?vid=df9df704-3332-46e8-b4c3-3dda695a185e","ios":"levelo://app?vid=df9df704-3332-46e8-b4c3-3dda695a185e"},"vehicle_type_id":"4","last_reported":1750767692,"current_range_meters":16000,"station_id":"ce4bhop2rcd13ifvqh8g","pricing_plan_id":"cebpf4jnsgd1na2vs0mg"},{"bike_id":"37639598-87cb-49f2-bb28-e8116a49605f","system_id":"levelo_inurba_marseille","lat":43.22501,"lon":5.34793,"is_reserved":false,"is_disabled":false,"rental_uris":{"android":"levelo://app?vid=37639598-87cb-49f2-bb28-e8116a49605f","ios":"levelo://app?vid=37639598-87cb-49f2-bb28-e8116a49605f"},"vehicle_type_id":"4","last_reported":1750767692,"current_range_meters":16400,"station_id":"","pricing_plan_id":"cebpf4jnsgd1na2vs0mg"},{"bike_id":"51b217be-9488-41c1-b083-6d728251b280","system_id":"levelo_inurba_marseille","lat":43.243431,"lon":5.368827,"is_reserved":false,"is_disabled":false,"rental_uris":{"android":"levelo://app?vid=51b217be-9488-41c1-b083-6d728251b280","ios":"levelo://app?vid=51b217be-9488-41c1-b083-6d728251b280"},"vehicle_type_id":"4","last_reported":1750767692,"current_range_meters":16400,"station_id":"","pricing_plan_id":"cebpf4jnsgd1na2vs0mg"},{"bike_id":"9d17ba94-28b9-4307-96c9-7a19692d51f0","system_id":"levelo_inurba_marseille","lat":43.331023,"lon":5.393717,"is_reserved":false,"is_disabled":false,"rental_uris":{"android":"levelo://app?vid=9d17ba94-28b9-4307-96c9-7a19692d51f0","ios":"levelo://app?vid=9d17ba94-28b9-4307-96c9-7a19692d51f0"},"vehicle_type_id":"4","last_reported":1750767692,"current_range_meters":16400,"station_id":"","pricing_plan_id":"cebpf4jnsgd1na2vs0mg"},{"bike_id":"ff1500cc-ac8f-45c9-881c-9fd6595094a3","system_id":"levelo_inurba_marseille","lat":43.31814,"lon":5.402,"is_reserved":false,"is_disabled":false,"rental_uris":{"android":"levelo://app?vid=ff1500cc-ac8f-45c9-881c-9fd6595094a3","ios":"levelo://app?vid=ff1500cc-ac8f-45c9-881c-9fd6595094a3"},"vehicle_type_id":"4","last_reported":1750767692,"current_range_meters":16400,"station_id":"","pricing_plan_id":"cebpf4jnsgd1na2vs0mg"},{"bike_id":"b87f5e37-a4df-4bc8-a944-6d6d09b0f782","system_id":"levelo_inurba_marseille","lat":43.30526,"lon":5.36689,"is_reserved":false,"is_disabled":false,"rental_uris":{"android":"levelo://app?vid=b87f5e37-a4df-4bc8-a944-6d6d09b0f782","ios":"levelo://app?vid=b87f5e37-a4df-4bc8-a944-6d6d09b0f782"},"vehicle_type_id":"4","last_reported":1750767692,"current_range_meters":16400,"station_id":"ce4bgrp2rcd13ifvqc9g","pricing_plan_id":"cebpf4jnsgd1na2vs0mg"},{"bike_id":"e7a0df06-1fc3-4d8d-aa5d-17fc658bb87d","system_id":"levelo_inurba_marseille","lat":43.30532,"lon":5.36572,"is_reserved":false,"is_disabled":false,"rental_uris":{"android":"levelo://app?vid=e7a0df06-1fc3-4d8d-aa5d-17fc658bb87d","ios":"levelo://app?vid=e7a0df06-1fc3-4d8d-aa5d-17fc658bb87d"},"vehicle_type_id":"4","last_reported":1750767692,"current_range_meters":16400,"station_id":"ce4bgs12rcd13ifvqcag","pricing_plan_id":"cebpf4jnsgd1na2vs0mg"},{"bike_id":"d136f562-c726-4ffb-8d5b-fcc96adebb26","system_id":"levelo_inurba_marseille","lat":43.29005,"lon":5.35618,"is_reserved":false,"is_disabled":false,"rental_uris":{"android":"levelo://app?vid=d136f562-c726-4ffb-8d5b-fcc96adebb26","ios":"levelo://app?vid=d136f562-c726-4ffb-8d5b-fcc96adebb26"},"vehicle_type_id":"4","last_reported":1750767692,"current_range_meters":16400,"station_id":"ce4bhb92rcd13ifvqen0","pricing_plan_id":"cebpf4jnsgd1na2vs0mg"},{"bike_id":"8cd3e3ea-2346-42fe-bba2-e7a68790f830","system_id":"levelo_inurba_marseille","lat":43.2594,"lon":5.40905,"is_reserved":false,"is_disabled":false,"rental_uris":{"android":"levelo://app?vid=8cd3e3ea-2346-42fe-bba2-e7a68790f830","ios":"levelo://app?vid=8cd3e3ea-2346-42fe-bba2-e7a68790f830"},"vehicle_type_id":"4","last_reported":1750767692,"current_range_meters":16400,"station_id":"ce4bhm92rcd13ifvqglg","pricing_plan_id":"cebpf4jnsgd1na2vs0mg"},{"bike_id":"92f77ff4-8ef7-4ca5-9725-fccd424112ce","system_id":"levelo_inurba_marseille","lat":43.28438,"lon":5.39211,"is_reserved":false,"is_disabled":false,"rental_uris":{"android":"levelo://app?vid=92f77ff4-8ef7-4ca5-9725-fccd424112ce","ios":"levelo://app?vid=92f77ff4-8ef7-4ca5-9725-fccd424112ce"},"vehicle_type_id":"4","last_reported":1750767692,"current_range_meters":16400,"station_id":"ce4bhoh2rcd13ifvqh5g","pricing_plan_id":"cebpf4jnsgd1na2vs0mg"},{"bike_id":"4a54e681-7dfe-4e2e-83f1-844bf72b1ac1","system_id":"levelo_inurba_marseille","lat":43.32059,"lon":5.41535,"is_reserved":false,"is_disabled":false,"rental_uris":{"android":"levelo://app?vid=4a54e681-7dfe-4e2e-83f1-844bf72b1ac1","ios":"levelo://app?vid=4a54e681-7dfe-4e2e-83f1-844bf72b1ac1"},"vehicle_type_id":"4","last_reported":1750767692,"current_range_meters":16400,"station_id":"ce4bhq92rcd13ifvqhkg","pricing_plan_id":"cebpf4jnsgd1na2vs0mg"},{"bike_id":"55c6f973-6ca9-4fbe-b330-6b9734dafc1e","system_id":"levelo_inurba_marseille","lat":43.33039,"lon":5.38991,"is_reserved":false,"is_disabled":false,"rental_uris":{"android":"levelo://app?vid=55c6f973-6ca9-4fbe-b330-6b9734dafc1e","ios":"levelo://app?vid=55c6f973-6ca9-4fbe-b330-6b9734dafc1e"},"vehicle_type_id":"4","last_reported":1750767692,"current_range_meters":16400,"station_id":"ce4bhr92rcd13ifvqhrg","pricing_plan_id":"cebpf4jnsgd1na2vs0mg"},{"bike_id":"135d67e6-9913-4e7b-a9a7-182e4d49532b","system_id":"levelo_inurba_marseille","lat":43.26939,"lon":5.40249,"is_reserved":false,"is_disabled":false,"rental_uris":{"android":"levelo://app?vid=135d67e6-9913-4e7b-a9a7-182e4d49532b","ios":"levelo://app?vid=135d67e6-9913-4e7b-a9a7-182e4d49532b"},"vehicle_type_id":"4","last_reported":1750767692,"current_range_meters":16400,"station_id":"cjm6bp8fraef2m0cb0m0","pricing_plan_id":"cebpf4jnsgd1na2vs0mg"},{"bike_id":"af112b62-19de-41d4-b8d7-e14d0172315d","system_id":"levelo_inurba_marseille","lat":43.32706,"lon":5.39223,"is_reserved":false,"is_disabled":false,"rental_uris":{"android":"levelo://app?vid=af112b62-19de-41d4-b8d7-e14d0172315d","ios":"levelo://app?vid=af112b62-19de-41d4-b8d7-e14d0172315d"},"vehicle_type_id":"4","last_reported":1750767692,"current_range_meters":16800,"station_id":"","pricing_plan_id":"cebpf4jnsgd1na2vs0mg"},{"bike_id":"ae056a3f-a43b-4284-a2c3-30b4677b9152","system_id":"levelo_inurba_marseille","lat":43.28441,"lon":5.34991,"is_reserved":false,"is_disabled":false,"rental_uris":{"android":"levelo://app?vid=ae056a3f-a43b-4284-a2c3-30b4677b9152","ios":"levelo://app?vid=ae056a3f-a43b-4284-a2c3-30b4677b9152"},"vehicle_type_id":"4","last_reported":1750767692,"current_range_meters":16800,"station_id":"ce4bgi12rcd13ifvqb80","pricing_plan_id":"cebpf4jnsgd1na2vs0mg"},{"bike_id":"1e5ea3f0-d077-4713-9f28-d54cfa1b778b","system_id":"levelo_inurba_marseille","lat":43.31348,"lon":5.36724,"is_reserved":false,"is_disabled":false,"rental_uris":{"android":"levelo://app?vid=1e5ea3f0-d077-4713-9f28-d54cfa1b778b","ios":"levelo://app?vid=1e5ea3f0-d077-4713-9f28-d54cfa1b778b"},"vehicle_type_id":"4","last_reported":1750767692,"current_range_meters":16800,"station_id":"ce4bgr92rcd13ifvqc6g","pricing_plan_id":"cebpf4jnsgd1na2vs0mg"},{"bike_id":"4a474a06-f56c-4553-8f9b-3b54b1387eab","system_id":"levelo_inurba_marseille","lat":43.28412,"lon":5.34983,"is_reserved":false,"is_disabled":false,"rental_uris":{"android":"levelo://app?vid=4a474a06-f56c-4553-8f9b-3b54b1387eab","ios":"levelo://app?vid=4a474a06-f56c-4553-8f9b-3b54b1387eab"},"vehicle_type_id":"4","last_reported":1750767692,"current_range_meters":16800,"station_id":"ce4bhbh2rcd13ifvqepg","pricing_plan_id":"cebpf4jnsgd1na2vs0mg"},{"bike_id":"ea253832-b8bd-4a85-850f-63d25959d942","system_id":"levelo_inurba_marseille","lat":43.26682,"lon":5.383,"is_reserved":false,"is_disabled":false,"rental_uris":{"android":"levelo://app?vid=ea253832-b8bd-4a85-850f-63d25959d942","ios":"levelo://app?vid=ea253832-b8bd-4a85-850f-63d25959d942"},"vehicle_type_id":"4","last_reported":1750767692,"current_range_meters":16800,"station_id":"ce4bhg92rcd13ifvqf90","pricing_plan_id":"cebpf4jnsgd1na2vs0mg"},{"bike_id":"1aad20bb-d602-46de-8f80-13f7cdd9cc05","system_id":"levelo_inurba_marseille","lat":43.24804,"lon":5.37453,"is_reserved":false,"is_disabled":false,"rental_uris":{"android":"levelo://app?vid=1aad20bb-d602-46de-8f80-13f7cdd9cc05","ios":"levelo://app?vid=1aad20bb-d602-46de-8f80-13f7cdd9cc05"},"vehicle_type_id":"4","last_reported":1750767692,"current_range_meters":16800,"station_id":"ce4bhgh2rcd13ifvqfb0","pricing_plan_id":"cebpf4jnsgd1na2vs0mg"},{"bike_id":"b8ce578d-7cf5-4a38-bd36-6a6897c9f454","system_id":"levelo_inurba_marseille","lat":43.29897,"lon":5.43668,"is_reserved":false,"is_disabled":false,"rental_uris":{"android":"levelo://app?vid=b8ce578d-7cf5-4a38-bd36-6a6897c9f454","ios":"levelo://app?vid=b8ce578d-7cf5-4a38-bd36-6a6897c9f454"},"vehicle_type_id":"4","last_reported":1750767692,"current_range_meters":16800,"station_id":"ce4bhpp2rcd13ifvqhfg","pricing_plan_id":"cebpf4jnsgd1na2vs0mg"},{"bike_id":"f1d9ee1e-40b0-4436-9add-400906aba09e","system_id":"levelo_inurba_marseille","lat":43.32457,"lon":5.36561,"is_reserved":false,"is_disabled":false,"rental_uris":{"android":"levelo://app?vid=f1d9ee1e-40b0-4436-9add-400906aba09e","ios":"levelo://app?vid=f1d9ee1e-40b0-4436-9add-400906aba09e"},"vehicle_type_id":"4","last_reported":1750767692,"current_range_meters":16800,"station_id":"ce4bhs12rcd13ifvqhvg","pricing_plan_id":"cebpf4jnsgd1na2vs0mg"},{"bike_id":"98f6a20a-fd34-4f77-a03e-460e4ea070b7","system_id":"levelo_inurba_marseille","lat":43.32363,"lon":5.36792,"is_reserved":false,"is_disabled":false,"rental_uris":{"android":"levelo://app?vid=98f6a20a-fd34-4f77-a03e-460e4ea070b7","ios":"levelo://app?vid=98f6a20a-fd34-4f77-a03e-460e4ea070b7"},"vehicle_type_id":"4","last_reported":1750767692,"current_range_meters":16800,"station_id":"ce4bhsh2rcd13ifvqi2g","pricing_plan_id":"cebpf4jnsgd1na2vs0mg"},{"bike_id":"df9bd9bf-73f1-45da-82f9-c4dfbeeed810","system_id":"levelo_inurba_marseille","lat":43.29789,"lon":5.39348,"is_reserved":false,"is_disabled":false,"rental_uris":{"android":"levelo://app?vid=df9bd9bf-73f1-45da-82f9-c4dfbeeed810","ios":"levelo://app?vid=df9bd9bf-73f1-45da-82f9-c4dfbeeed810"},"vehicle_type_id":"4","last_reported":1750767692,"current_range_meters":16800,"station_id":"chh1huq6cuj3fo74tm60","pricing_plan_id":"cebpf4jnsgd1na2vs0mg"},{"bike_id":"24bec0ac-4c6c-4842-80e7-9983c2b33e58","system_id":"levelo_inurba_marseille","lat":43.211928,"lon":5.350697,"is_reserved":false,"is_disabled":false,"rental_uris":{"android":"levelo://app?vid=24bec0ac-4c6c-4842-80e7-9983c2b33e58","ios":"levelo://app?vid=24bec0ac-4c6c-4842-80e7-9983c2b33e58"},"vehicle_type_id":"4","last_reported":1750767692,"current_range_meters":17200,"station_id":"","pricing_plan_id":"cebpf4jnsgd1na2vs0mg"},{"bike_id":"4590d246-3b07-4d38-b8d0-d550569009f2","system_id":"levelo_inurba_marseille","lat":43.30087,"lon":5.39075,"is_reserved":false,"is_disabled":false,"rental_uris":{"android":"levelo://app?vid=4590d246-3b07-4d38-b8d0-d550569009f2","ios":"levelo://app?vid=4590d246-3b07-4d38-b8d0-d550569009f2"},"vehicle_type_id":"4","last_reported":1750767692,"current_range_meters":17200,"station_id":"ce4bh192rcd13ifvqdb0","pricing_plan_id":"cebpf4jnsgd1na2vs0mg"},{"bike_id":"641c2c8f-b648-4eb9-bb3c-b9e1a111eb31","system_id":"levelo_inurba_marseille","lat":43.29037,"lon":5.37562,"is_reserved":false,"is_disabled":false,"rental_uris":{"android":"levelo://app?vid=641c2c8f-b648-4eb9-bb3c-b9e1a111eb31","ios":"levelo://app?vid=641c2c8f-b648-4eb9-bb3c-b9e1a111eb31"},"vehicle_type_id":"4","last_reported":1750767692,"current_range_meters":17200,"station_id":"ce4bh692rcd13ifvqe90","pricing_plan_id":"cebpf4jnsgd1na2vs0mg"},{"bike_id":"379fd03d-bb57-4627-8869-dbb0c277c298","system_id":"levelo_inurba_marseille","lat":43.28415,"lon":5.34978,"is_reserved":false,"is_disabled":false,"rental_uris":{"android":"levelo://app?vid=379fd03d-bb57-4627-8869-dbb0c277c298","ios":"levelo://app?vid=379fd03d-bb57-4627-8869-dbb0c277c298"},"vehicle_type_id":"4","last_reported":1750767692,"current_range_meters":17200,"station_id":"ce4bhbh2rcd13ifvqepg","pricing_plan_id":"cebpf4jnsgd1na2vs0mg"},{"bike_id":"1a4bc337-61ee-44ae-bc57-3bbcbd952fbd","system_id":"levelo_inurba_marseille","lat":43.29221,"lon":5.3606,"is_reserved":false,"is_disabled":false,"rental_uris":{"android":"levelo://app?vid=1a4bc337-61ee-44ae-bc57-3bbcbd952fbd","ios":"levelo://app?vid=1a4bc337-61ee-44ae-bc57-3bbcbd952fbd"},"vehicle_type_id":"4","last_reported":1750767692,"current_range_meters":17200,"station_id":"ce4bhbh2rcd13ifvqeqg","pricing_plan_id":"cebpf4jnsgd1na2vs0mg"},{"bike_id":"39486cc5-3a58-4e21-b1fd-7a6272ebbaec","system_id":"levelo_inurba_marseille","lat":43.23144,"lon":5.43726,"is_reserved":false,"is_disabled":false,"rental_uris":{"android":"levelo://app?vid=39486cc5-3a58-4e21-b1fd-7a6272ebbaec","ios":"levelo://app?vid=39486cc5-3a58-4e21-b1fd-7a6272ebbaec"},"vehicle_type_id":"4","last_reported":1750767692,"current_range_meters":17200,"station_id":"ce4bhmp2rcd13ifvqgog","pricing_plan_id":"cebpf4jnsgd1na2vs0mg"},{"bike_id":"7cd015d4-a64f-408d-885a-3044d1b6e974","system_id":"levelo_inurba_marseille","lat":43.23158,"lon":5.43704,"is_reserved":false,"is_disabled":false,"rental_uris":{"android":"levelo://app?vid=7cd015d4-a64f-408d-885a-3044d1b6e974","ios":"levelo://app?vid=7cd015d4-a64f-408d-885a-3044d1b6e974"},"vehicle_type_id":"4","last_reported":1750767692,"current_range_meters":17200,"station_id":"ce4bhmp2rcd13ifvqgog","pricing_plan_id":"cebpf4jnsgd1na2vs0mg"},{"bike_id":"e21df4f9-5a4d-4910-bdb1-d4448908e678","system_id":"levelo_inurba_marseille","lat":43.241775,"lon":5.397297,"is_reserved":false,"is_disabled":false,"rental_uris":{"android":"levelo://app?vid=e21df4f9-5a4d-4910-bdb1-d4448908e678","ios":"levelo://app?vid=e21df4f9-5a4d-4910-bdb1-d4448908e678"},"vehicle_type_id":"4","last_reported":1750767692,"current_range_meters":17200,"station_id":"ce4bhn12rcd13ifvqgpg","pricing_plan_id":"cebpf4jnsgd1na2vs0mg"},{"bike_id":"97f657bd-fa9d-458f-b8a1-3646f3322584","system_id":"levelo_inurba_marseille","lat":43.24135,"lon":5.39655,"is_reserved":false,"is_disabled":false,"rental_uris":{"android":"levelo://app?vid=97f657bd-fa9d-458f-b8a1-3646f3322584","ios":"levelo://app?vid=97f657bd-fa9d-458f-b8a1-3646f3322584"},"vehicle_type_id":"4","last_reported":1750767692,"current_range_meters":17600,"station_id":"","pricing_plan_id":"cebpf4jnsgd1na2vs0mg"},{"bike_id":"26a14eba-87a9-47b8-9607-30bd0042d428","system_id":"levelo_inurba_marseille","lat":43.31464,"lon":5.3944,"is_reserved":false,"is_disabled":false,"rental_uris":{"android":"levelo://app?vid=26a14eba-87a9-47b8-9607-30bd0042d428","ios":"levelo://app?vid=26a14eba-87a9-47b8-9607-30bd0042d428"},"vehicle_type_id":"4","last_reported":1750767692,"current_range_meters":17600,"station_id":"","pricing_plan_id":"cebpf4jnsgd1na2vs0mg"},{"bike_id":"b74e6f8f-7fe8-48aa-8f16-d8b584b7a247","system_id":"levelo_inurba_marseille","lat":43.23966,"lon":5.36628,"is_reserved":false,"is_disabled":false,"rental_uris":{"android":"levelo://app?vid=b74e6f8f-7fe8-48aa-8f16-d8b584b7a247","ios":"levelo://app?vid=b74e6f8f-7fe8-48aa-8f16-d8b584b7a247"},"vehicle_type_id":"4","last_reported":1750767692,"current_range_meters":17600,"station_id":"ce4bhi12rcd13ifvqfp0","pricing_plan_id":"cebpf4jnsgd1na2vs0mg"},{"bike_id":"602ab407-a79a-4fc2-8a9b-df3168b09d43","system_id":"levelo_inurba_marseille","lat":43.32363,"lon":5.367504,"is_reserved":false,"is_disabled":false,"rental_uris":{"android":"levelo://app?vid=602ab407-a79a-4fc2-8a9b-df3168b09d43","ios":"levelo://app?vid=602ab407-a79a-4fc2-8a9b-df3168b09d43"},"vehicle_type_id":"4","last_reported":1750767692,"current_range_meters":17600,"station_id":"ce4bhsh2rcd13ifvqi2g","pricing_plan_id":"cebpf4jnsgd1na2vs0mg"},{"bike_id":"ec1bbb20-efbe-404b-8beb-e922e0200c0c","system_id":"levelo_inurba_marseille","lat":43.29969,"lon":5.37053,"is_reserved":false,"is_disabled":false,"rental_uris":{"android":"levelo://app?vid=ec1bbb20-efbe-404b-8beb-e922e0200c0c","ios":"levelo://app?vid=ec1bbb20-efbe-404b-8beb-e922e0200c0c"},"vehicle_type_id":"4","last_reported":1750767692,"current_range_meters":18000,"station_id":"","pricing_plan_id":"cebpf4jnsgd1na2vs0mg"},{"bike_id":"b328a0d7-8a0f-4edc-8d18-c06838763bb3","system_id":"levelo_inurba_marseille","lat":43.27207,"lon":5.39183,"is_reserved":false,"is_disabled":false,"rental_uris":{"android":"levelo://app?vid=b328a0d7-8a0f-4edc-8d18-c06838763bb3","ios":"levelo://app?vid=b328a0d7-8a0f-4edc-8d18-c06838763bb3"},"vehicle_type_id":"4","last_reported":1750767692,"current_range_meters":18000,"station_id":"ce4bhhp2rcd13ifvqfm0","pricing_plan_id":"cebpf4jnsgd1na2vs0mg"},{"bike_id":"7f544cbb-6dfc-4db7-aa0c-52b417636e7e","system_id":"levelo_inurba_marseille","lat":43.27176,"lon":5.40995,"is_reserved":false,"is_disabled":false,"rental_uris":{"android":"levelo://app?vid=7f544cbb-6dfc-4db7-aa0c-52b417636e7e","ios":"levelo://app?vid=7f544cbb-6dfc-4db7-aa0c-52b417636e7e"},"vehicle_type_id":"4","last_reported":1750767692,"current_range_meters":18000,"station_id":"ce4bhl12rcd13ifvqgf0","pricing_plan_id":"cebpf4jnsgd1na2vs0mg"},{"bike_id":"e3cbe31d-3f2f-4c4c-a959-3bdba55d2dad","system_id":"levelo_inurba_marseille","lat":43.229214,"lon":5.353784,"is_reserved":false,"is_disabled":false,"rental_uris":{"android":"levelo://app?vid=e3cbe31d-3f2f-4c4c-a959-3bdba55d2dad","ios":"levelo://app?vid=e3cbe31d-3f2f-4c4c-a959-3bdba55d2dad"},"vehicle_type_id":"4","last_reported":1750767692,"current_range_meters":18000,"station_id":"cpo3532slgdg3j2ikp40","pricing_plan_id":"cebpf4jnsgd1na2vs0mg"},{"bike_id":"6d66f760-917a-49b1-b200-d585832e6166","system_id":"levelo_inurba_marseille","lat":43.22931,"lon":5.35366,"is_reserved":false,"is_disabled":false,"rental_uris":{"android":"levelo://app?vid=6d66f760-917a-49b1-b200-d585832e6166","ios":"levelo://app?vid=6d66f760-917a-49b1-b200-d585832e6166"},"vehicle_type_id":"4","last_reported":1750767692,"current_range_meters":18000,"station_id":"cpo3532slgdg3j2ikp40","pricing_plan_id":"cebpf4jnsgd1na2vs0mg"},{"bike_id":"3b951d47-daef-4f47-9b11-1cb55583c0cc","system_id":"levelo_inurba_marseille","lat":43.21195,"lon":5.35066,"is_reserved":false,"is_disabled":false,"rental_uris":{"android":"levelo://app?vid=3b951d47-daef-4f47-9b11-1cb55583c0cc","ios":"levelo://app?vid=3b951d47-daef-4f47-9b11-1cb55583c0cc"},"vehicle_type_id":"4","last_reported":1750767692,"current_range_meters":18000,"station_id":"st_cvj6sg6p6f1abm77japg","pricing_plan_id":"cebpf4jnsgd1na2vs0mg"},{"bike_id":"f4da8180-e66c-40be-b0dd-e95207ece69b","system_id":"levelo_inurba_marseille","lat":43.33785,"lon":5.37424,"is_reserved":false,"is_disabled":false,"rental_uris":{"android":"levelo://app?vid=f4da8180-e66c-40be-b0dd-e95207ece69b","ios":"levelo://app?vid=f4da8180-e66c-40be-b0dd-e95207ece69b"},"vehicle_type_id":"4","last_reported":1750767692,"current_range_meters":18800,"station_id":"","pricing_plan_id":"cebpf4jnsgd1na2vs0mg"},{"bike_id":"aff0bcba-2014-4019-a3d4-e0059dc966a9","system_id":"levelo_inurba_marseille","lat":43.29674,"lon":5.37286,"is_reserved":false,"is_disabled":false,"rental_uris":{"android":"levelo://app?vid=aff0bcba-2014-4019-a3d4-e0059dc966a9","ios":"levelo://app?vid=aff0bcba-2014-4019-a3d4-e0059dc966a9"},"vehicle_type_id":"4","last_reported":1750767692,"current_range_meters":18800,"station_id":"ce4bgk12rcd13ifvqbj0","pricing_plan_id":"cebpf4jnsgd1na2vs0mg"},{"bike_id":"78e9dd26-915c-48ae-936d-219551dd3a1f","system_id":"levelo_inurba_marseille","lat":43.24175,"lon":5.39737,"is_reserved":false,"is_disabled":false,"rental_uris":{"android":"levelo://app?vid=78e9dd26-915c-48ae-936d-219551dd3a1f","ios":"levelo://app?vid=78e9dd26-915c-48ae-936d-219551dd3a1f"},"vehicle_type_id":"4","last_reported":1750767692,"current_range_meters":18800,"station_id":"ce4bhn12rcd13ifvqgpg","pricing_plan_id":"cebpf4jnsgd1na2vs0mg"},{"bike_id":"07dc2d24-8da0-4095-879f-c8dcc1e1324d","system_id":"levelo_inurba_marseille","lat":43.24178,"lon":5.39732,"is_reserved":false,"is_disabled":false,"rental_uris":{"android":"levelo://app?vid=07dc2d24-8da0-4095-879f-c8dcc1e1324d","ios":"levelo://app?vid=07dc2d24-8da0-4095-879f-c8dcc1e1324d"},"vehicle_type_id":"4","last_reported":1750767692,"current_range_meters":18800,"station_id":"ce4bhn12rcd13ifvqgpg","pricing_plan_id":"cebpf4jnsgd1na2vs0mg"},{"bike_id":"b498d165-a635-4be2-bccd-50759704f133","system_id":"levelo_inurba_marseille","lat":43.28448,"lon":5.39209,"is_reserved":false,"is_disabled":false,"rental_uris":{"android":"levelo://app?vid=b498d165-a635-4be2-bccd-50759704f133","ios":"levelo://app?vid=b498d165-a635-4be2-bccd-50759704f133"},"vehicle_type_id":"4","last_reported":1750767692,"current_range_meters":18800,"station_id":"ce4bhoh2rcd13ifvqh5g","pricing_plan_id":"cebpf4jnsgd1na2vs0mg"},