{"last_updated":1729001341,"ttl":60,"version":"2.2","data":{"bikes":[{"bike_id":"ca19aae3-ddc9-46d5-8241-83affcfa7618","system_id":"levelo_inurba_marseille","lat":43.25928,"lon":5.40916,"is_reserved":false,"is_disabled":false,"rental_uris":{"android":"levelo://app?vid=ca19aae3-ddc9-46d5-8241-83affcfa7618","ios":"levelo://app?vid=ca19aae3-ddc9-46d5-8241-83affcfa7618"},"vehicle_type_id":"4","last_reported":1729001341,"current_range_meters":12000,"station_id":"ce4bhm92rcd13ifvqglg","pricing_plan_id":"cebpf4jnsgd1na2vs0mg"},{"bike_id":"b5eb4617-84c8-4797-a57a-cbb21d7c08ff","system_id":"levelo_inurba_marseille","lat":43.29176,"lon":5.35566,"is_reserved":false,"is_disabled":false,"rental_uris":{"android":"levelo://app?vid=b5eb4617-84c8-4797-a57a-cbb21d7c08ff","ios":"levelo://app?vid=b5eb4617-84c8-4797-a57a-cbb21d7c08ff"},"vehicle_type_id":"4","last_reported":1729001341,"current_range_meters":35600,"station_id":"","pricing_plan_id":"cebpf4jnsgd1na2vs0mg"},{"bike_id":"d7003c69-f2b6-41e3-bf56-1672b1cfa452","system_id":"levelo_inurba_marseille","lat":43.29552,"lon":5.423,"is_reserved":false,"is_disabled":false,"rental_uris":{"android":"levelo://app?vid=d7003c69-f2b6-41e3-bf56-1672b1cfa452","ios":"levelo://app?vid=d7003c69-f2b6-41e3-bf56-1672b1cfa452"},"vehicle_type_id":"4","last_reported":1729001341,"current_range_meters":11600,"station_id":"ce4bhph2rcd13ifvqhdg","pricing_plan_id":"cebpf4jnsgd1na2vs0mg"},{"bike_id":"b219e8df-801b-4f0f-a0f6-ea2485c345f9","system_id":"levelo_inurba_marseille","lat":43.22929,"lon":5.35373,"is_reserved":false,"is_disabled":false,"rental_uris":{"android":"levelo://app?vid=b219e8df-801b-4f0f-a0f6-ea2485c345f9","ios":"levelo://app?vid=b219e8df-801b-4f0f-a0f6-ea2485c345f9"},"vehicle_type_id":"4","last_reported":1729001341,"current_range_meters":36800,"station_id":"cpo3532slgdg3j2ikp40","pricing_plan_id":"cebpf4jnsgd1na2vs0mg"},{"bike_id":"370a38fa-3f75-4e58-9f98-3511e33f24fa","system_id":"levelo_inurba_marseille","lat":43.29578,"lon":5.36737,"is_reserved":false,"is_disabled":false,"rental_uris":{"android":"levelo://app?vid=370a38fa-3f75-4e58-9f98-3511e33f24fa","ios":"levelo://app?vid=370a38fa-3f75-4e58-9f98-3511e33f24fa"},"vehicle_type_id":"4","last_reported":1729001341,"current_range_meters":26800,"station_id":"ce4bgph2rcd13ifvqc2g","pricing_plan_id":"cebpf4jnsgd1na2vs0mg"},{"bike_id":"b3dbf566-af5d-485c-9d41-a0d9e18a367b","system_id":"levelo_inurba_marseille","lat":43.29618,"lon":5.37168,"is_reserved":false,"is_disabled":false,"rental_uris":{"android":"levelo://app?vid=b3dbf566-af5d-485c-9d41-a0d9e18a367b","ios":"levelo://app?vid=b3dbf566-af5d-485c-9d41-a0d9e18a367b"},"vehicle_type_id":"4","last_reported":1729001341,"current_range_meters":3200,"station_id":"ce4bgnh2rcd13ifvqc0g","pricing_plan_id":"cebpf4jnsgd1na2vs0mg"},{"bike_id":"46ac687d-6909-4192-9cae-77ae2321e6e7","system_id":"levelo_inurba_marseille","lat":43.29308,"lon":5.37178,"is_reserved":false,"is_disabled":false,"rental_uris":{"android":"levelo://app?vid=46ac687d-6909-4192-9cae-77ae2321e6e7","ios":"levelo://app?vid=46ac687d-6909-4192-9cae-77ae2321e6e7"},"vehicle_type_id":"4","last_reported":1729001341,"current_range_meters":4000,"station_id":"ce4bgh92rcd13ifvqb40","pricing_plan_id":"cebpf4jnsgd1na2vs0mg"},{"bike_id":"1999a2b5-b6cc-470a-bafc-18a837d4b22c","system_id":"levelo_inurba_marseille","lat":43.30894,"lon":5.39654,"is_reserved":false,"is_disabled":false,"rental_uris":{"android":"levelo://app?vid=1999a2b5-b6cc-470a-bafc-18a837d4b22c","ios":"levelo://app?vid=1999a2b5-b6cc-470a-bafc-18a837d4b22c"},"vehicle_type_id":"4","last_reported":1729001341,"current_range_meters":38800,"station_id":"ce4bh012rcd13ifvqcv0","pricing_plan_id":"cebpf4jnsgd1na2vs0mg"},{"bike_id":"eaa6f2eb-ba04-4041-bffa-9f1d2ff85d80","system_id":"levelo_inurba_marseille","lat":43.28463,"lon":5.38423,"is_reserved":false,"is_disabled":false,"rental_uris":{"android":"levelo://app?vid=eaa6f2eb-ba04-4041-bffa-9f1d2ff85d80","ios":"levelo://app?vid=eaa6f2eb-ba04-4041-bffa-9f1d2ff85d80"},"vehicle_type_id":"4","last_reported":1729001341,"current_range_meters":24800,"station_id":"ce4bh512rcd13ifvqe3g","pricing_plan_id":"cebpf4jnsgd1na2vs0mg"},{"bike_id":"505c001a-2d3e-435a-a369-21ef27eb563c","system_id":"levelo_inurba_marseille","lat":43.22936,"lon":5.35377,"is_reserved":false,"is_disabled":false,"rental_uris":{"android":"levelo://app?vid=505c001a-2d3e-435a-a369-21ef27eb563c","ios":"levelo://app?vid=505c001a-2d3e-435a-a369-21ef27eb563c"},"vehicle_type_id":"4","last_reported":1729001341,"current_range_meters":8400,"station_id":"cpo3532slgdg3j2ikp40","pricing_plan_id":"cebpf4jnsgd1na2vs0mg"},{"bike_id":"1373389e-3e71-4b98-a6dc-36806d1c2da6","system_id":"levelo_inurba_marseille","lat":43.337444,"lon":5.374475,"is_reserved":false,"is_disabled":false,"rental_uris":{"android":"levelo://app?vid=1373389e-3e71-4b98-a6dc-36806d1c2da6","ios":"levelo://app?vid=1373389e-3e71-4b98-a6dc-36806d1c2da6"},"vehicle_type_id":"4","last_reported":1729001341,"current_range_meters":32400,"station_id":"","pricing_plan_id":"cebpf4jnsgd1na2vs0mg"},{"bike_id":"736a01f9-e899-4393-ba0e-a7b0b0848bf4","system_id":"levelo_inurba_marseille","lat":43.30607,"lon":5.37229,"is_reserved":false,"is_disabled":false,"rental_uris":{"android":"levelo://app?vid=736a01f9-e899-4393-ba0e-a7b0b0848bf4","ios":"levelo://app?vid=736a01f9-e899-4393-ba0e-a7b0b0848bf4"},"vehicle_type_id":"4","last_reported":1729001341,"current_range_meters":16400,"station_id":"ce4bgqh2rcd13ifvqc4g","pricing_plan_id":"cebpf4jnsgd1na2vs0mg"},{"bike_id":"ac990160-74ea-4e89-9d54-6c4fa8644bd0","system_id":"levelo_inurba_marseille","lat":43.31713,"lon":5.43707,"is_reserved":false,"is_disabled":false,"rental_uris":{"android":"levelo://app?vid=ac990160-74ea-4e89-9d54-6c4fa8644bd0","ios":"levelo://app?vid=ac990160-74ea-4e89-9d54-6c4fa8644bd0"},"vehicle_type_id":"4","last_reported":1729001341,"current_range_meters":8000,"station_id":"ce4bhp92rcd13ifvqhcg","pricing_plan_id":"cebpf4jnsgd1na2vs0mg"},{"bike_id":"ed3c9810-c187-4711-a46c-f5e36811e5a1","system_id":"levelo_inurba_marseille","lat":43.292267,"lon":5.360628,"is_reserved":false,"is_disabled":false,"rental_uris":{"android":"levelo://app?vid=ed3c9810-c187-4711-a46c-f5e36811e5a1","ios":"levelo://app?vid=ed3c9810-c187-4711-a46c-f5e36811e5a1"},"vehicle_type_id":"4","last_reported":1729001341,"current_range_meters":9600,"station_id":"ce4bhbh2rcd13ifvqeqg","pricing_plan_id":"cebpf4jnsgd1na2vs0mg"},{"bike_id":"df230860-3f37-4376-b2ec-f6467837f38a","system_id":"levelo_inurba_marseille","lat":43.29252,"lon":5.4091,"is_reserved":false,"is_disabled":false,"rental_uris":{"android":"levelo://app?vid=df230860-3f37-4376-b2ec-f6467837f38a","ios":"levelo://app?vid=df230860-3f37-4376-b2ec-f6467837f38a"},"vehicle_type_id":"4","last_reported":1729001341,"current_range_meters":17200,"station_id":"ce4bh192rcd13ifvqdc0","pricing_plan_id":"cebpf4jnsgd1na2vs0mg"},{"bike_id":"394537bb-adeb-4ef2-8d5d-93ddf2c94b5b","system_id":"levelo_inurba_marseille","lat":43.28274,"lon":5.35066,"is_reserved":false,"is_disabled":false,"rental_uris":{"android":"levelo://app?vid=394537bb-adeb-4ef2-8d5d-93ddf2c94b5b","ios":"levelo://app?vid=394537bb-adeb-4ef2-8d5d-93ddf2c94b5b"},"vehicle_type_id":"4","last_reported":1729001341,"current_range_meters":29600,"station_id":"ce4bhbp2rcd13ifvqerg","pricing_plan_id":"cebpf4jnsgd1na2vs0mg"},{"bike_id":"b6894f60-15c5-4341-885f-959eb47a6977","system_id":"levelo_inurba_marseille","lat":43.3108,"lon":5.42432,"is_reserved":false,"is_disabled":false,"rental_uris":{"android":"levelo://app?vid=b6894f60-15c5-4341-885f-959eb47a6977","ios":"levelo://app?vid=b6894f60-15c5-4341-885f-959eb47a6977"},"vehicle_type_id":"4","last_reported":1729001341,"current_range_meters":6400,"station_id":"ce4bhp92rcd13ifvqhag","pricing_plan_id":"cebpf4jnsgd1na2vs0mg"},{"bike_id":"1d1a5305-93eb-48bd-aca5-91c26433821c","system_id":"levelo_inurba_marseille","lat":43.30545,"lon":5.36528,"is_reserved":false,"is_disabled":false,"rental_uris":{"android":"levelo://app?vid=1d1a5305-93eb-48bd-aca5-91c26433821c","ios":"levelo://app?vid=1d1a5305-93eb-48bd-aca5-91c26433821c"},"vehicle_type_id":"4","last_reported":1729001341,"current_range_meters":34800,"station_id":"ce4bgs12rcd13ifvqcag","pricing_plan_id":"cebpf4jnsgd1na2vs0mg"},{"bike_id":"0d2499f0-f957-4ab2-bf8f-dab9d3026610","system_id":"levelo_inurba_marseille","lat":43.26804,"lon":5.4027,"is_reserved":false,"is_disabled":false,"rental_uris":{"android":"levelo://app?vid=0d2499f0-f957-4ab2-bf8f-dab9d3026610","ios":"levelo://app?vid=0d2499f0-f957-4ab2-bf8f-dab9d3026610"},"vehicle_type_id":"4","last_reported":1729001341,"current_range_meters":12000,"station_id":"ce501612rcd8frsf0b60","pricing_plan_id":"cebpf4jnsgd1na2vs0mg"},{"bike_id":"f624f3f4-966f-48d3-a296-a48998195e67","system_id":"levelo_inurba_marseille","lat":43.26781,"lon":5.39417,"is_reserved":false,"is_disabled":false,"rental_uris":{"android":"levelo://app?vid=f624f3f4-966f-48d3-a296-a48998195e67","ios":"levelo://app?vid=f624f3f4-966f-48d3-a296-a48998195e67"},"vehicle_type_id":"4","last_reported":1729001341,"current_range_meters":24400,"station_id":"ce4bhh12rcd13ifvqfg0","pricing_plan_id":"cebpf4jnsgd1na2vs0mg"},{"bike_id":"02e6dafe-a179-4e32-ab0b-1df299df1cda","system_id":"levelo_inurba_marseille","lat":43.32472,"lon":5.36551,"is_reserved":false,"is_disabled":false,"rental_uris":{"android":"levelo://app?vid=02e6dafe-a179-4e32-ab0b-1df299df1cda","ios":"levelo://app?vid=02e6dafe-a179-4e32-ab0b-1df299df1cda"},"vehicle_type_id":"4","last_reported":1729001341,"current_range_meters":38800,"station_id":"ce4bhs12rcd13ifvqhvg","pricing_plan_id":"cebpf4jnsgd1na2vs0mg"},{"bike_id":"62a076c1-0eda-426a-903e-ea7987de399a","system_id":"levelo_inurba_marseille","lat":43.29705,"lon":5.37705,"is_reserved":false,"is_disabled":false,"rental_uris":{"android":"levelo://app?vid=62a076c1-0eda-426a-903e-ea7987de399a","ios":"levelo://app?vid=62a076c1-0eda-426a-903e-ea7987de399a"},"vehicle_type_id":"4","last_reported":1729001341,"current_range_meters":9600,"station_id":"ce4bgkh2rcd13ifvqbl0","pricing_plan_id":"cebpf4jnsgd1na2vs0mg"},{"bike_id":"beea5ce3-6e3b-468e-af4b-c0aef7b7dfd3","system_id":"levelo_inurba_marseille","lat":43.24391,"lon":5.3705,"is_reserved":false,"is_disabled":false,"rental_uris":{"android":"levelo://app?vid=beea5ce3-6e3b-468e-af4b-c0aef7b7dfd3","ios":"levelo://app?vid=beea5ce3-6e3b-468e-af4b-c0aef7b7dfd3"},"vehicle_type_id":"4","last_reported":1729001341,"current_range_meters":28800,"station_id":"ce4bhhh2rcd13ifvqfk0","pricing_plan_id":"cebpf4jnsgd1na2vs0mg"},{"bike_id":"9050e917-a5ab-4d10-9ea2-a8408444984c","system_id":"levelo_inurba_marseille","lat":43.29196,"lon":5.35807,"is_reserved":false,"is_disabled":false,"rental_uris":{"android":"levelo://app?vid=9050e917-a5ab-4d10-9ea2-a8408444984c","ios":"levelo://app?vid=9050e917-a5ab-4d10-9ea2-a8408444984c"},"vehicle_type_id":"4","last_reported":1729001341,"current_range_meters":37600,"station_id":"ce4bhb12rcd13ifvqel0","pricing_plan_id":"cebpf4jnsgd1na2vs0mg"},{"bike_id":"0f7a6318-4f37-4196-bc9a-1556626f0586","system_id":"levelo_inurba_marseille","lat":43.29622,"lon":5.37159,"is_reserved":false,"is_disabled":false,"rental_uris":{"android":"levelo://app?vid=0f7a6318-4f37-4196-bc9a-1556626f0586","ios":"levelo://app?vid=0f7a6318-4f37-4196-bc9a-1556626f0586"},"vehicle_type_id":"4","last_reported":1729001341,"current_range_meters":38800,"station_id":"ce4bgnh2rcd13ifvqc0g","pricing_plan_id":"cebpf4jnsgd1na2vs0mg"},{"bike_id":"4e0fb3d8-657a-4a31-bc7a-b6b6f5d4ebe0","system_id":"levelo_inurba_marseille","lat":43.29623,"lon":5.37149,"is_reserved":false,"is_disabled":false,"rental_uris":{"android":"levelo://app?vid=4e0fb3d8-657a-4a31-bc7a-b6b6f5d4ebe0","ios":"levelo://app?vid=4e0fb3d8-657a-4a31-bc7a-b6b6f5d4ebe0"},"vehicle_type_id":"4","last_reported":1729001341,"current_range_meters":38400,"station_id":"ce4bgnh2rcd13ifvqc0g","pricing_plan_id":"cebpf4jnsgd1na2vs0mg"},{"bike_id":"9e21f6d9-4a73-497d-a7e2-5036db2477bd","system_id":"levelo_inurba_marseille","lat":43.28425,"lon":5.34991,"is_reserved":false,"is_disabled":false,"rental_uris":{"android":"levelo://app?vid=9e21f6d9-4a73-497d-a7e2-5036db2477bd","ios":"levelo://app?vid=9e21f6d9-4a73-497d-a7e2-5036db2477bd"},"vehicle_type_id":"4","last_reported":1729001341,"current_range_meters":16400,"station_id":"ce4bhbh2rcd13ifvqepg","pricing_plan_id":"cebpf4jnsgd1na2vs0mg"},{"bike_id":"72358ece-4187-445f-9954-0b053f59dd58","system_id":"levelo_inurba_marseille","lat":43.28272,"lon":5.35073,"is_reserved":false,"is_disabled":false,"rental_uris":{"android":"levelo://app?vid=72358ece-4187-445f-9954-0b053f59dd58","ios":"levelo://app?vid=72358ece-4187-445f-9954-0b053f59dd58"},"vehicle_type_id":"4","last_reported":1729001341,"current_range_meters":39200,"station_id":"ce4bhbp2rcd13ifvqerg","pricing_plan_id":"cebpf4jnsgd1na2vs0mg"},{"bike_id":"0d709b04-13aa-4fc7-a575-c70a83cf3926","system_id":"levelo_inurba_marseille","lat":43.28418,"lon":5.34986,"is_reserved":false,"is_disabled":false,"rental_uris":{"android":"levelo://app?vid=0d709b04-13aa-4fc7-a575-c70a83cf3926","ios":"levelo://app?vid=0d709b04-13aa-4fc7-a575-c70a83cf3926"},"vehicle_type_id":"4","last_reported":1729001341,"current_range_meters":22000,"station_id":"ce4bhbh2rcd13ifvqepg","pricing_plan_id":"cebpf4jnsgd1na2vs0mg"},{"bike_id":"75c821b1-fabe-4e60-8792-f334dfe96a58","system_id":"levelo_inurba_marseille","lat":43.30558,"lon":5.3653,"is_reserved":false,"is_disabled":false,"rental_uris":{"android":"levelo://app?vid=75c821b1-fabe-4e60-8792-f334dfe96a58","ios":"levelo://app?vid=75c821b1-fabe-4e60-8792-f334dfe96a58"},"vehicle_type_id":"4","last_reported":1729001341,"current_range_meters":27200,"station_id":"ce4bgs12rcd13ifvqcag","pricing_plan_id":"cebpf4jnsgd1na2vs0mg"},{"bike_id":"4cfc7fc9-fc10-4d64-9850-93863908373a","system_id":"levelo_inurba_marseille","lat":43.297203,"lon":5.376934,"is_reserved":false,"is_disabled":false,"rental_uris":{"android":"levelo://app?vid=4cfc7fc9-fc10-4d64-9850-93863908373a","ios":"levelo://app?vid=4cfc7fc9-fc10-4d64-9850-93863908373a"},"vehicle_type_id":"4","last_reported":1729001341,"current_range_meters":39200,"station_id":"ce4bgkh2rcd13ifvqbl0","pricing_plan_id":"cebpf4jnsgd1na2vs0mg"},{"bike_id":"d52ffa24-6f2b-4755-8f1a-39fecd1e8a52","system_id":"levelo_inurba_marseille","lat":43.28614,"lon":5.35106,"is_reserved":false,"is_disabled":false,"rental_uris":{"android":"levelo://app?vid=d52ffa24-6f2b-4755-8f1a-39fecd1e8a52","ios":"levelo://app?vid=d52ffa24-6f2b-4755-8f1a-39fecd1e8a52"},"vehicle_type_id":"4","last_reported":1729001341,"current_range_meters":8800,"station_id":"ce4bhch2rcd13ifvqeug","pricing_plan_id":"cebpf4jnsgd1na2vs0mg"},{"bike_id":"b95394c6-1aae-47f6-8ae4-de2acce96398","system_id":"levelo_inurba_marseille","lat":43.29198,"lon":5.35797,"is_reserved":false,"is_disabled":false,"rental_uris":{"android":"levelo://app?vid=b95394c6-1aae-47f6-8ae4-de2acce96398","ios":"levelo://app?vid=b95394c6-1aae-47f6-8ae4-de2acce96398"},"vehicle_type_id":"4","last_reported":1729001341,"current_range_meters":16000,"station_id":"ce4bhb12rcd13ifvqel0","pricing_plan_id":"cebpf4jnsgd1na2vs0mg"},{"bike_id":"e9a3439c-21c2-4946-8652-a7f8d6098e95","system_id":"levelo_inurba_marseille","lat":43.3048,"lon":5.37909,"is_reserved":false,"is_disabled":false,"rental_uris":{"android":"levelo://app?vid=e9a3439c-21c2-4946-8652-a7f8d6098e95","ios":"levelo://app?vid=e9a3439c-21c2-4946-8652-a7f8d6098e95"},"vehicle_type_id":"4","last_reported":1729001341,"current_range_meters":33200,"station_id":"ce4bgup2rcd13ifvqcn0","pricing_plan_id":"cebpf4jnsgd1na2vs0mg"},{"bike_id":"85e0c597-b58e-4ed1-a673-617dd8815077","system_id":"levelo_inurba_marseille","lat":43.29925,"lon":5.4133,"is_reserved":false,"is_disabled":false,"rental_uris":{"android":"levelo://app?vid=85e0c597-b58e-4ed1-a673-617dd8815077","ios":"levelo://app?vid=85e0c597-b58e-4ed1-a673-617dd8815077"},"vehicle_type_id":"4","last_reported":1729001341,"current_range_meters":9200,"station_id":"ce4bhp12rcd13ifvqh9g","pricing_plan_id":"cebpf4jnsgd1na2vs0mg"},{"bike_id":"129bd5a3-b16d-4d91-9f3e-987eb886d7ce","system_id":"levelo_inurba_marseille","lat":43.32661,"lon":5.40988,"is_reserved":false,"is_disabled":false,"rental_uris":{"android":"levelo://app?vid=129bd5a3-b16d-4d91-9f3e-987eb886d7ce","ios":"levelo://app?vid=129bd5a3-b16d-4d91-9f3e-987eb886d7ce"},"vehicle_type_id":"4","last_reported":1729001341,"current_range_meters":9600,"station_id":"ce4bhpp2rcd13ifvqhgg","pricing_plan_id":"cebpf4jnsgd1na2vs0mg"},{"bike_id":"6f8e9806-e4e4-4c77-8845-e2677180c232","system_id":"levelo_inurba_marseille","lat":43.29275,"lon":5.36844,"is_reserved":false,"is_disabled":false,"rental_uris":{"android":"levelo://app?vid=6f8e9806-e4e4-4c77-8845-e2677180c232","ios":"levelo://app?vid=6f8e9806-e4e4-4c77-8845-e2677180c232"},"vehicle_type_id":"4","last_reported":1729001341,"current_range_meters":36800,"station_id":"ce4bhbp2rcd13ifvqesg","pricing_plan_id":"cebpf4jnsgd1na2vs0mg"},{"bike_id":"c38449c4-3d65-4369-a50a-e07979b2b52a","system_id":"levelo_inurba_marseille","lat":43.27891,"lon":5.3802,"is_reserved":false,"is_disabled":false,"rental_uris":{"android":"levelo://app?vid=c38449c4-3d65-4369-a50a-e07979b2b52a","ios":"levelo://app?vid=c38449c4-3d65-4369-a50a-e07979b2b52a"},"vehicle_type_id":"4","last_reported":1729001341,"current_range_meters":22000,"station_id":"ce4bhf92rcd13ifvqf50","pricing_plan_id":"cebpf4jnsgd1na2vs0mg"},{"bike_id":"00707241-c9a7-4262-a6e1-14ee27f38531","system_id":"levelo_inurba_marseille","lat":43.28275,"lon":5.35074,"is_reserved":false,"is_disabled":false,"rental_uris":{"android":"levelo://app?vid=00707241-c9a7-4262-a6e1-14ee27f38531","ios":"levelo://app?vid=00707241-c9a7-4262-a6e1-14ee27f38531"},"vehicle_type_id":"4","last_reported":1729001341,"current_range_meters":13600,"station_id":"ce4bhbp2rcd13ifvqerg","pricing_plan_id":"cebpf4jnsgd1na2vs0mg"},{"bike_id":"89198ecf-9ad5-429c-84dc-a279ee6e8f88","system_id":"levelo_inurba_marseille","lat":43.33763,"lon":5.37428,"is_reserved":false,"is_disabled":false,"rental_uris":{"android":"levelo://app?vid=89198ecf-9ad5-429c-84dc-a279ee6e8f88","ios":"levelo://app?vid=89198ecf-9ad5-429c-84dc-a279ee6e8f88"},"vehicle_type_id":"4","last_reported":1729001341,"current_range_meters":35200,"station_id":"","pricing_plan_id":"cebpf4jnsgd1na2vs0mg"},{"bike_id":"a66d819a-a7b7-4324-a291-74636149e3ca","system_id":"levelo_inurba_marseille","lat":43.33611,"lon":5.41033,"is_reserved":false,"is_disabled":false,"rental_uris":{"android":"levelo://app?vid=a66d819a-a7b7-4324-a291-74636149e3ca","ios":"levelo://app?vid=a66d819a-a7b7-4324-a291-74636149e3ca"},"vehicle_type_id":"4","last_reported":1729001341,"current_range_meters":38800,"station_id":"ce4bhqh2rcd13ifvqhmg","pricing_plan_id":"cebpf4jnsgd1na2vs0mg"},{"bike_id":"e199a503-d137-4bf2-8aca-fe27073fb3c4","system_id":"levelo_inurba_marseille","lat":43.24653,"lon":5.38891,"is_reserved":false,"is_disabled":false,"rental_uris":{"android":"levelo://app?vid=e199a503-d137-4bf2-8aca-fe27073fb3c4","ios":"levelo://app?vid=e199a503-d137-4bf2-8aca-fe27073fb3c4"},"vehicle_type_id":"4","last_reported":1729001341,"current_range_meters":24800,"station_id":"ce4bhg12rcd13ifvqf60","pricing_plan_id":"cebpf4jnsgd1na2vs0mg"},{"bike_id":"2a0bc9ba-4f95-4e26-87c2-8957f138d3a4","system_id":"levelo_inurba_marseille","lat":43.232,"lon":5.35551,"is_reserved":false,"is_disabled":false,"rental_uris":{"android":"levelo://app?vid=2a0bc9ba-4f95-4e26-87c2-8957f138d3a4","ios":"levelo://app?vid=2a0bc9ba-4f95-4e26-87c2-8957f138d3a4"},"vehicle_type_id":"4","last_reported":1729001341,"current_range_meters":2800,"station_id":"ce4bhu92rcd13ifvqi70","pricing_plan_id":"cebpf4jnsgd1na2vs0mg"},{"bike_id":"48c2e15c-f2d3-453b-9a21-a6cb5369e204","system_id":"levelo_inurba_marseille","lat":43.2894,"lon":5.36379,"is_reserved":false,"is_disabled":false,"rental_uris":{"android":"levelo://app?vid=48c2e15c-f2d3-453b-9a21-a6cb5369e204","ios":"levelo://app?vid=48c2e15c-f2d3-453b-9a21-a6cb5369e204"},"vehicle_type_id":"4","last_reported":1729001341,"current_range_meters":39200,"station_id":"ce4bhc92rcd13ifvqetg","pricing_plan_id":"cebpf4jnsgd1na2vs0mg"},{"bike_id":"994e7509-5c41-473f-8999-a74b5fff6f35","system_id":"levelo_inurba_marseille","lat":43.31342,"lon":5.36706,"is_reserved":false,"is_disabled":false,"rental_uris":{"android":"levelo://app?vid=994e7509-5c41-473f-8999-a74b5fff6f35","ios":"levelo://app?vid=994e7509-5c41-473f-8999-a74b5fff6f35"},"vehicle_type_id":"4","last_reported":1729001341,"current_range_meters":22800,"station_id":"ce4bgr92rcd13ifvqc6g","pricing_plan_id":"cebpf4jnsgd1na2vs0mg"},{"bike_id":"27521189-a10b-488a-82b8-973812fa95e1","system_id":"levelo_inurba_marseille","lat":43.3248,"lon":5.36569,"is_reserved":false,"is_disabled":false,"rental_uris":{"android":"levelo://app?vid=27521189-a10b-488a-82b8-973812fa95e1","ios":"levelo://app?vid=27521189-a10b-488a-82b8-973812fa95e1"},"vehicle_type_id":"4","last_reported":1729001341,"current_range_meters":36800,"station_id":"ce4bhs12rcd13ifvqhvg","pricing_plan_id":"cebpf4jnsgd1na2vs0mg"},{"bike_id":"cbd7d81a-b913-4adf-8a4f-e40c105f9838","system_id":"levelo_inurba_marseille","lat":43.28416,"lon":5.34988,"is_reserved":false,"is_disabled":false,"rental_uris":{"android":"levelo://app?vid=cbd7d81a-b913-4adf-8a4f-e40c105f9838","ios":"levelo://app?vid=cbd7d81a-b913-4adf-8a4f-e40c105f9838"},"vehicle_type_id":"4","last_reported":1729001341,"current_range_meters":36800,"station_id":"ce4bhbh2rcd13ifvqepg","pricing_plan_id":"cebpf4jnsgd1na2vs0mg"},{"bike_id":"68c8a2f3-7ee0-4015-8c32-c2821c13a835","system_id":"levelo_inurba_marseille","lat":43.29516,"lon":5.37506,"is_reserved":false,"is_disabled":false,"rental_uris":{"android":"levelo://app?vid=68c8a2f3-7ee0-4015-8c32-c2821c13a835","ios":"levelo://app?vid=68c8a2f3-7ee0-4015-8c32-c2821c13a835"},"vehicle_type_id":"4","last_reported":1729001341,"current_range_meters":9600,"station_id":"ce4bgkp2rcd13ifvqbmg","pricing_plan_id":"cebpf4jnsgd1na2vs0mg"},{"bike_id":"af72c931-eb8a-4884-9dc9-d800fea8aa26","system_id":"levelo_inurba_marseille","lat":43.24388,"lon":5.37055,"is_reserved":false,"is_disabled":false,"rental_uris":{"android":"levelo://app?vid=af72c931-eb8a-4884-9dc9-d800fea8aa26","ios":"levelo://app?vid=af72c931-eb8a-4884-9dc9-d800fea8aa26"},"vehicle_type_id":"4","last_reported":1729001341,"current_range_meters":40000,"station_id":"ce4bhhh2rcd13ifvqfk0","pricing_plan_id":"cebpf4jnsgd1na2vs0mg"},{"bike_id":"abbffdf3-ff6a-4da1-91df-ef5d1453acc4","system_id":"levelo_inurba_marseille","lat":43.32107,"lon":5.36782,"is_reserved":false,"is_disabled":false,"rental_uris":{"android":"levelo://app?vid=abbffdf3-ff6a-4da1-91df-ef5d1453acc4","ios":"levelo://app?vid=abbffdf3-ff6a-4da1-91df-ef5d1453acc4"},"vehicle_type_id":"4","last_reported":1729001341,"current_range_meters":38800,"station_id":"ce4bhrh2rcd13ifvqhug","pricing_plan_id":"cebpf4jnsgd1na2vs0mg"},{"bike_id":"1b45ea0c-e195-4ff9-89ab-9311713b89dc","system_id":"levelo_inurba_marseille","lat":43.326569,"lon":5.409969,"is_reserved":false,"is_disabled":false,"rental_uris":{"android":"levelo://app?vid=1b45ea0c-e195-4ff9-89ab-9311713b89dc","ios":"levelo://app?vid=1b45ea0c-e195-4ff9-89ab-9311713b89dc"},"vehicle_type_id":"4","last_reported":1729001341,"current_range_meters":2000,"station_id":"ce4bhpp2rcd13ifvqhgg","pricing_plan_id":"cebpf4jnsgd1na2vs0mg"},{"bike_id":"44281451-e119-48ee-81f9-ee956a9d26b7","system_id":"levelo_inurba_marseille","lat":43.230621,"lon":5.354953,"is_reserved":false,"is_disabled":false,"rental_uris":{"android":"levelo://app?vid=44281451-e119-48ee-81f9-ee956a9d26b7","ios":"levelo://app?vid=44281451-e119-48ee-81f9-ee956a9d26b7"},"vehicle_type_id":"4","last_reported":1729001341,"current_range_meters":24000,"station_id":"cpo3342slgdg3j2ifvpg","pricing_plan_id":"cebpf4jnsgd1na2vs0mg"},{"bike_id":"446168c3-e7fa-4444-a966-fa92840076d1","system_id":"levelo_inurba_marseille","lat":43.29624,"lon":5.37152,"is_reserved":false,"is_disabled":false,"rental_uris":{"android":"levelo://app?vid=446168c3-e7fa-4444-a966-fa92840076d1","ios":"levelo://app?vid=446168c3-e7fa-4444-a966-fa92840076d1"},"vehicle_type_id":"4","last_reported":1729001341,"current_range_meters":23200,"station_id":"ce4bgnh2rcd13ifvqc0g","pricing_plan_id":"cebpf4jnsgd1na2vs0mg"},{"bike_id":"a2eb58c6-dd46-4b5a-b81d-fe3714bbcfc9","system_id":"levelo_inurba_marseille","lat":43.23961,"lon":5.36639,"is_reserved":false,"is_disabled":false,"rental_uris":{"android":"levelo://app?vid=a2eb58c6-dd46-4b5a-b81d-fe3714bbcfc9","ios":"levelo://app?vid=a2eb58c6-dd46-4b5a-b81d-fe3714bbcfc9"},"vehicle_type_id":"4","last_reported":1729001341,"current_range_meters":11600,"station_id":"ce4bhi12rcd13ifvqfp0","pricing_plan_id":"cebpf4jnsgd1na2vs0mg"},{"bike_id":"f61f5020-9a98-430b-af24-9548f2ac9198","system_id":"levelo_inurba_marseille","lat":43.24393,"lon":5.3707,"is_reserved":false,"is_disabled":false,"rental_uris":{"android":"levelo://app?vid=f61f5020-9a98-430b-af24-9548f2ac9198","ios":"levelo://app?vid=f61f5020-9a98-430b-af24-9548f2ac9198"},"vehicle_type_id":"4","last_reported":1729001341,"current_range_meters":32000,"station_id":"ce4bhhh2rcd13ifvqfk0","pricing_plan_id":"cebpf4jnsgd1na2vs0mg"},{"bike_id":"fc2d1301-3a60-4a9b-b3e1-a3a2e2ef9469","system_id":"levelo_inurba_marseille","lat":43.30549,"lon":5.36521,"is_reserved":false,"is_disabled":false,"rental_uris":{"android":"levelo://app?vid=fc2d1301-3a60-4a9b-b3e1-a3a2e2ef9469","ios":"levelo://app?vid=fc2d1301-3a60-4a9b-b3e1-a3a2e2ef9469"},"vehicle_type_id":"4","last_reported":1729001341,"current_range_meters":28800,"station_id":"ce4bgs12rcd13ifvqcag","pricing_plan_id":"cebpf4jnsgd1na2vs0mg"},{"bike_id":"396c0a43-09e8-4246-b296-06fb245ac675","system_id":"levelo_inurba_marseille","lat":43.32365,"lon":5.38885,"is_reserved":false,"is_disabled":false,"rental_uris":{"android":"levelo://app?vid=396c0a43-09e8-4246-b296-06fb245ac675","ios":"levelo://app?vid=396c0a43-09e8-4246-b296-06fb245ac675"},"vehicle_type_id":"4","last_reported":1729001341,"current_range_meters":2800,"station_id":"ce4bhqp2rcd13ifvqhog","pricing_plan_id":"cebpf4jnsgd1na2vs0mg"},{"bike_id":"d0baf8b6-8922-483f-86e4-bff2b23f338b","system_id":"levelo_inurba_marseille","lat":43.23193,"lon":5.35554,"is_reserved":false,"is_disabled":false,"rental_uris":{"android":"levelo://app?vid=d0baf8b6-8922-483f-86e4-bff2b23f338b","ios":"levelo://app?vid=d0baf8b6-8922-483f-86e4-bff2b23f338b"},"vehicle_type_id":"4","last_reported":1729001341,"current_range_meters":6400,"station_id":"ce4bhu92rcd13ifvqi70","pricing_plan_id":"cebpf4jnsgd1na2vs0mg"},{"bike_id":"c0670d96-b06e-446b-a07e-6b5eeebc59d7","system_id":"levelo_inurba_marseille","lat":43.274948,"lon":5.424466,"is_reserved":false,"is_disabled":false,"rental_uris":{"android":"levelo://app?vid=c0670d96-b06e-446b-a07e-6b5eeebc59d7","ios":"levelo://app?vid=c0670d96-b06e-446b-a07e-6b5eeebc59d7"},"vehicle_type_id":"4","last_reported":1729001341,"current_range_meters":12000,"station_id":"ce4bhn92rcd13ifvqgrg","pricing_plan_id":"cebpf4jnsgd1na2vs0mg"},{"bike_id":"93be8af3-3e5f-40f7-9f3e-a7e380379e6a","system_id":"levelo_inurba_marseille","lat":43.27175,"lon":5.40992,"is_reserved":false,"is_disabled":false,"rental_uris":{"android":"levelo://app?vid=93be8af3-3e5f-40f7-9f3e-a7e380379e6a","ios":"levelo://app?vid=93be8af3-3e5f-40f7-9f3e-a7e380379e6a"},"vehicle_type_id":"4","last_reported":1729001341,"current_range_meters":8800,"station_id":"ce4bhl12rcd13ifvqgf0","pricing_plan_id":"cebpf4jnsgd1na2vs0mg"},{"bike_id":"f2b45103-96fe-4c76-9a9e-d81100caf560","system_id":"levelo_inurba_marseille","lat":43.29199,"lon":5.39336,"is_reserved":false,"is_disabled":false,"rental_uris":{"android":"levelo://app?vid=f2b45103-96fe-4c76-9a9e-d81100caf560","ios":"levelo://app?vid=f2b45103-96fe-4c76-9a9e-d81100caf560"},"vehicle_type_id":"4","last_reported":1729001341,"current_range_meters":4800,"station_id":"ce4bh192rcd13ifvqdd0","pricing_plan_id":"cebpf4jnsgd1na2vs0mg"},{"bike_id":"02c903ab-53e0-41d9-a4f7-29b840913cfb","system_id":"levelo_inurba_marseille","lat":43.25083,"lon":5.39522,"is_reserved":false,"is_disabled":false,"rental_uris":{"android":"levelo://app?vid=02c903ab-53e0-41d9-a4f7-29b840913cfb","ios":"levelo://app?vid=02c903ab-53e0-41d9-a4f7-29b840913cfb"},"vehicle_type_id":"4","last_reported":1729001341,"current_range_meters":14800,"station_id":"ce4bhm12rcd13ifvqgkg","pricing_plan_id":"cebpf4jnsgd1na2vs0mg"},{"bike_id":"a0d3d324-fa7e-4417-aee7-85012ecab44e","system_id":"levelo_inurba_marseille","lat":43.34188,"lon":5.44506,"is_reserved":false,"is_disabled":false,"rental_uris":{"android":"levelo://app?vid=a0d3d324-fa7e-4417-aee7-85012ecab44e","ios":"levelo://app?vid=a0d3d324-fa7e-4417-aee7-85012ecab44e"},"vehicle_type_id":"4","last_reported":1729001341,"current_range_meters":24000,"station_id":"","pricing_plan_id":"cebpf4jnsgd1na2vs0mg"},{"bike_id":"7c52c1bd-81ac-4954-9333-93ef7570b03f","system_id":"levelo_inurba_marseille","lat":43.309,"lon":5.39651,"is_reserved":false,"is_disabled":false,"rental_uris":{"android":"levelo://app?vid=7c52c1bd-81ac-4954-9333-93ef7570b03f","ios":"levelo://app?vid=7c52c1bd-81ac-4954-9333-93ef7570b03f"},"vehicle_type_id":"4","last_reported":1729001341,"current_range_meters":29600,"station_id":"ce4bh012rcd13ifvqcv0","pricing_plan_id":"cebpf4jnsgd1na2vs0mg"},{"bike_id":"a198423d-577e-44c3-a75d-0c3ecbcc882b","system_id":"levelo_inurba_marseille","lat":43.29811,"lon":5.38096,"is_reserved":false,"is_disabled":false,"rental_uris":{"android":"levelo://app?vid=a198423d-577e-44c3-a75d-0c3ecbcc882b","ios":"levelo://app?vid=a198423d-577e-44c3-a75d-0c3ecbcc882b"},"vehicle_type_id":"4","last_reported":1729001341,"current_range_meters":36400,"station_id":"ce4bgip2rcd13ifvqbb0","pricing_plan_id":"cebpf4jnsgd1na2vs0mg"},{"bike_id":"59ad9c01-1014-4f22-82cb-6532bdd6d4b2","system_id":"levelo_inurba_marseille","lat":43.30788,"lon":5.37646,"is_reserved":false,"is_disabled":false,"rental_uris":{"android":"levelo://app?vid=59ad9c01-1014-4f22-82cb-6532bdd6d4b2","ios":"levelo://app?vid=59ad9c01-1014-4f22-82cb-6532bdd6d4b2"},"vehicle_type_id":"4","last_reported":1729001341,"current_range_meters":25600,"station_id":"ce4bgv92rcd13ifvqcq0","pricing_plan_id":"cebpf4jnsgd1na2vs0mg"},{"bike_id":"720a26da-7f94-4946-8c08-af06a5a9aea3","system_id":"levelo_inurba_marseille","lat":43.28458,"lon":5.35882,"is_reserved":false,"is_disabled":false,"rental_uris":{"android":"levelo://app?vid=720a26da-7f94-4946-8c08-af06a5a9aea3","ios":"levelo://app?vid=720a26da-7f94-4946-8c08-af06a5a9aea3"},"vehicle_type_id":"4","last_reported":1729001341,"current_range_meters":37600,"station_id":"ce4bhah2rcd13ifvqei0","pricing_plan_id":"cebpf4jnsgd1na2vs0mg"},{"bike_id":"52f79488-82a8-4ae8-ad58-27d91d161bf2","system_id":"levelo_inurba_marseille","lat":43.28429,"lon":5.3499,"is_reserved":false,"is_disabled":false,"rental_uris":{"android":"levelo://app?vid=52f79488-82a8-4ae8-ad58-27d91d161bf2","ios":"levelo://app?vid=52f79488-82a8-4ae8-ad58-27d91d161bf2"},"vehicle_type_id":"4","last_reported":1729001341,"current_range_meters":5600,"station_id":"ce4bhbh2rcd13ifvqepg","pricing_plan_id":"cebpf4jnsgd1na2vs0mg"},{"bike_id":"3e4bfa09-b605-4c06-8675-97e396639822","system_id":"levelo_inurba_marseille","lat":43.30806,"lon":5.38156,"is_reserved":false,"is_disabled":false,"rental_uris":{"android":"levelo://app?vid=3e4bfa09-b605-4c06-8675-97e396639822","ios":"levelo://app?vid=3e4bfa09-b605-4c06-8675-97e396639822"},"vehicle_type_id":"4","last_reported":1729001341,"current_range_meters":24400,"station_id":"ce4bgt12rcd13ifvqce0","pricing_plan_id":"cebpf4jnsgd1na2vs0mg"},{"bike_id":"3ae02cff-df96-4ee2-b0ce-80c0f14f35c1","system_id":"levelo_inurba_marseille","lat":43.28423,"lon":5.34991,"is_reserved":false,"is_disabled":false,"rental_uris":{"android":"levelo://app?vid=3ae02cff-df96-4ee2-b0ce-80c0f14f35c1","ios":"levelo://app?vid=3ae02cff-df96-4ee2-b0ce-80c0f14f35c1"},"vehicle_type_id":"4","last_reported":1729001341,"current_range_meters":38800,"station_id":"ce4bhbh2rcd13ifvqepg","pricing_plan_id":"cebpf4jnsgd1na2vs0mg"},{"bike_id":"010e6e1d-e9f5-47cd-a5e0-3e9b3d711e7c","system_id":"levelo_inurba_marseille","lat":43.31118,"lon":5.37774,"is_reserved":false,"is_disabled":false,"rental_uris":{"android":"levelo://app?vid=010e6e1d-e9f5-47cd-a5e0-3e9b3d711e7c","ios":"levelo://app?vid=010e6e1d-e9f5-47cd-a5e0-3e9b3d711e7c"},"vehicle_type_id":"4","last_reported":1729001341,"current_range_meters":20800,"station_id":"ce4bgt92rcd13ifvqcg0","pricing_plan_id":"cebpf4jnsgd1na2vs0mg"},{"bike_id":"0994d7f0-fa2e-480f-b967-2b1e1b476b78","system_id":"levelo_inurba_marseille","lat":43.23193,"lon":5.35544,"is_reserved":false,"is_disabled":false,"rental_uris":{"android":"levelo://app?vid=0994d7f0-fa2e-480f-b967-2b1e1b476b78","ios":"levelo://app?vid=0994d7f0-fa2e-480f-b967-2b1e1b476b78"},"vehicle_type_id":"4","last_reported":1729001341,"current_range_meters":26800,"station_id":"ce4bhu92rcd13ifvqi70","pricing_plan_id":"cebpf4jnsgd1na2vs0mg"},{"bike_id":"88320fcc-dbb2-4ba9-9166-4596f9f52955","system_id":"levelo_inurba_marseille","lat":43.31353,"lon":5.36718,"is_reserved":false,"is_disabled":false,"rental_uris":{"android":"levelo://app?vid=88320fcc-dbb2-4ba9-9166-4596f9f52955","ios":"levelo://app?vid=88320fcc-dbb2-4ba9-9166-4596f9f52955"},"vehicle_type_id":"4","last_reported":1729001341,"current_range_meters":38800,"station_id":"ce4bgr92rcd13ifvqc6g","pricing_plan_id":"cebpf4jnsgd1na2vs0mg"},{"bike_id":"4d423de8-5e22-441a-8848-ae5dc9d8eb39","system_id":"levelo_inurba_marseille","lat":43.33726,"lon":5.37455,"is_reserved":false,"is_disabled":false,"rental_uris":{"android":"levelo://app?vid=4d423de8-5e22-441a-8848-ae5dc9d8eb39","ios":"levelo://app?vid=4d423de8-5e22-441a-8848-ae5dc9d8eb39"},"vehicle_type_id":"4","last_reported":1729001341,"current_range_meters":9600,"station_id":"","pricing_plan_id":"cebpf4jnsgd1na2vs0mg"},{"bike_id":"4797564a-effd-45d2-b2fe-02d1b7f531c1","system_id":"levelo_inurba_marseille","lat":43.24387,"lon":5.37064,"is_reserved":false,"is_disabled":false,"rental_uris":{"android":"levelo://app?vid=4797564a-effd-45d2-b2fe-02d1b7f531c1","ios":"levelo://app?vid=4797564a-effd-45d2-b2fe-02d1b7f531c1"},"vehicle_type_id":"4","last_reported":1729001341,"current_range_meters":37600,"station_id":"ce4bhhh2rcd13ifvqfk0","pricing_plan_id":"cebpf4jnsgd1na2vs0mg"},{"bike_id":"eeb91145-854d-4d83-a084-900eff12569c","system_id":"levelo_inurba_marseille","lat":43.29792,"lon":5.3935,"is_reserved":false,"is_disabled":false,"rental_uris":{"android":"levelo://app?vid=eeb91145-854d-4d83-a084-900eff12569c","ios":"levelo://app?vid=eeb91145-854d-4d83-a084-900eff12569c"},"vehicle_type_id":"4","last_reported":1729001341,"current_range_meters":28800,"station_id":"chh1huq6cuj3fo74tm60","pricing_plan_id":"cebpf4jnsgd1na2vs0mg"},{"bike_id":"9e021871-3209-4d5a-aa7b-6c4c2aba2626","system_id":"levelo_inurba_marseille","lat":43.24648,"lon":5.38892,"is_reserved":false,"is_disabled":false,"rental_uris":{"android":"levelo://app?vid=9e021871-3209-4d5a-aa7b-6c4c2aba2626","ios":"levelo://app?vid=9e021871-3209-4d5a-aa7b-6c4c2aba2626"},"vehicle_type_id":"4","last_reported":1729001341,"current_range_meters":9600,"station_id":"ce4bhg12rcd13ifvqf60","pricing_plan_id":"cebpf4jnsgd1na2vs0mg"},{"bike_id":"8f1473c8-5614-4fe5-9a08-5f8d5d6a0adb","system_id":"levelo_inurba_marseille","lat":43.32108,"lon":5.36778,"is_reserved":false,"is_disabled":false,"rental_uris":{"android":"levelo://app?vid=8f1473c8-5614-4fe5-9a08-5f8d5d6a0adb","ios":"levelo://app?vid=8f1473c8-5614-4fe5-9a08-5f8d5d6a0adb"},"vehicle_type_id":"4","last_reported":1729001341,"current_range_meters":26800,"station_id":"ce4bhrh2rcd13ifvqhug","pricing_plan_id":"cebpf4jnsgd1na2vs0mg"},{"bike_id":"309d8eee-7f02-4317-bce5-0dc624e6b716","system_id":"levelo_inurba_marseille","lat":43.2827,"lon":5.35073,"is_reserved":false,"is_disabled":false,"rental_uris":{"android":"levelo://app?vid=309d8eee-7f02-4317-bce5-0dc624e6b716","ios":"levelo://app?vid=309d8eee-7f02-4317-bce5-0dc624e6b716"},"vehicle_type_id":"4","last_reported":1729001341,"current_range_meters":20000,"station_id":"ce4bhbp2rcd13ifvqerg","pricing_plan_id":"cebpf4jnsgd1na2vs0mg"},{"bike_id":"06bd8e3b-65e1-4389-97a4-35fe24bebce2","system_id":"levelo_inurba_marseille","lat":43.29552,"lon":5.42294,"is_reserved":false,"is_disabled":false,"rental_uris":{"android":"levelo://app?vid=06bd8e3b-65e1-4389-97a4-35fe24bebce2","ios":"levelo://app?vid=06bd8e3b-65e1-4389-97a4-35fe24bebce2"},"vehicle_type_id":"4","last_reported":1729001341,"current_range_meters":14800,"station_id":"ce4bhph2rcd13ifvqhdg","pricing_plan_id":"cebpf4jnsgd1na2vs0mg"},{"bike_id":"a7b9b64a-17b2-4670-870c-5f0257eddadb","system_id":"levelo_inurba_marseille","lat":43.29561,"lon":5.42296,"is_reserved":false,"is_disabled":false,"rental_uris":{"android":"levelo://app?vid=a7b9b64a-17b2-4670-870c-5f0257eddadb","ios":"levelo://app?vid=a7b9b64a-17b2-4670-870c-5f0257eddadb"},"vehicle_type_id":"4","last_reported":1729001341,"current_range_meters":28000,"station_id":"ce4bhph2rcd13ifvqhdg","pricing_plan_id":"cebpf4jnsgd1na2vs0mg"},{"bike_id":"bd391cf2-447e-4a41-af6b-1e995770300a","system_id":"levelo_inurba_marseille","lat":43.23188,"lon":5.35543,"is_reserved":false,"is_disabled":false,"rental_uris":{"android":"levelo://app?vid=bd391cf2-447e-4a41-af6b-1e995770300a","ios":"levelo://app?vid=bd391cf2-447e-4a41-af6b-1e995770300a"},"vehicle_type_id":"4","last_reported":1729001341,"current_range_meters":3200,"station_id":"ce4bhu92rcd13ifvqi70","pricing_plan_id":"cebpf4jnsgd1na2vs0mg"},{"bike_id":"96092fee-06da-45b2-86fa-47241d3901c7","system_id":"levelo_inurba_marseille","lat":43.33776,"lon":5.3747,"is_reserved":false,"is_disabled":false,"rental_uris":{"android":"levelo://app?vid=96092fee-06da-45b2-86fa-47241d3901c7","ios":"levelo://app?vid=96092fee-06da-45b2-86fa-47241d3901c7"},"vehicle_type_id":"4","last_reported":1729001341,"current_range_meters":36800,"station_id":"","pricing_plan_id":"cebpf4jnsgd1na2vs0mg"},{"bike_id":"1158c210-627c-48e4-8610-f1e3d0d2f830","system_id":"levelo_inurba_marseille","lat":43.29737,"lon":5.37682,"is_reserved":false,"is_disabled":false,"rental_uris":{"android":"levelo://app?vid=1158c210-627c-48e4-8610-f1e3d0d2f830","ios":"levelo://app?vid=1158c210-627c-48e4-8610-f1e3d0d2f830"},"vehicle_type_id":"4","last_reported":1729001341,"current_range_meters":24400,"station_id":"ce4bgkh2rcd13ifvqbl0","pricing_plan_id":"cebpf4jnsgd1na2vs0mg"},{"bike_id":"68feb18a-64ff-4a0e-ac27-8530ff76c845","system_id":"levelo_inurba_marseille","lat":43.28281,"lon":5.35088,"is_reserved":false,"is_disabled":false,"rental_uris":{"android":"levelo://app?vid=68feb18a-64ff-4a0e-ac27-8530ff76c845","ios":"levelo://app?vid=68feb18a-64ff-4a0e-ac27-8530ff76c845"},"vehicle_type_id":"4","last_reported":1729001341,"current_range_meters":12400,"station_id":"ce4bhbp2rcd13ifvqerg","pricing_plan_id":"cebpf4jnsgd1na2vs0mg"},{"bike_id":"f1c6f955-67d3-491c-99b3-558295f0c181","system_id":"levelo_inurba_marseille","lat":43.30784,"lon":5.37649,"is_reserved":false,"is_disabled":false,"rental_uris":{"android":"levelo://app?vid=f1c6f955-67d3-491c-99b3-558295f0c181","ios":"levelo://app?vid=f1c6f955-67d3-491c-99b3-558295f0c181"},"vehicle_type_id":"4","last_reported":1729001341,"current_range_meters":18800,"station_id":"ce4bgv92rcd13ifvqcq0","pricing_plan_id":"cebpf4jnsgd1na2vs0mg"},{"bike_id":"d139c07a-8d8b-4891-aee2-6827971e3bb4","system_id":"levelo_inurba_marseille","lat":43.29918,"lon":5.37471,"is_reserved":false,"is_disabled":false,"rental_uris":{"android":"levelo://app?vid=d139c07a-8d8b-4891-aee2-6827971e3bb4","ios":"levelo://app?vid=d139c07a-8d8b-4891-aee2-6827971e3bb4"},"vehicle_type_id":"4","last_reported":1729001341,"current_range_meters":7200,"station_id":"ce4bgjh2rcd13ifvqbg0","pricing_plan_id":"cebpf4jnsgd1na2vs0mg"},{"bike_id":"b9f6e33b-3482-4cc5-bf76-a24945aed3b0","system_id":"levelo_inurba_marseille","lat":43.296,"lon":5.38111,"is_reserved":false,"is_disabled":false,"rental_uris":{"android":"levelo://app?vid=b9f6e33b-3482-4cc5-bf76-a24945aed3b0","ios":"levelo://app?vid=b9f6e33b-3482-4cc5-bf76-a24945aed3b0"},"vehicle_type_id":"4","last_reported":1729001341,"current_range_meters":26800,"station_id":"ce4bgl12rcd13ifvqbo0","pricing_plan_id":"cebpf4jnsgd1na2vs0mg"},{"bike_id":"d59793ea-4f0b-4c3b-b012-5747209e9db3","system_id":"levelo_inurba_marseille","lat":43.32069,"lon":5.41562,"is_reserved":false,"is_disabled":false,"rental_uris":{"android":"levelo://app?vid=d59793ea-4f0b-4c3b-b012-5747209e9db3","ios":"levelo://app?vid=d59793ea-4f0b-4c3b-b012-5747209e9db3"},"vehicle_type_id":"4","last_reported":1729001341,"current_range_meters":36000,"station_id":"ce4bhq92rcd13ifvqhkg","pricing_plan_id":"cebpf4jnsgd1na2vs0mg"},{"bike_id":"713541e7-f794-4e2a-9a72-fabc8d0251ae","system_id":"levelo_inurba_marseille","lat":43.29799,"lon":5.38097,"is_reserved":false,"is_disabled":false,"rental_uris":{"android":"levelo://app?vid=713541e7-f794-4e2a-9a72-fabc8d0251ae","ios":"levelo://app?vid=713541e7-f794-4e2a-9a72-fabc8d0251ae"},"vehicle_type_id":"4","last_reported":1729001341,"current_range_meters":28000,"station_id":"ce4bgip2rcd13ifvqbb0","pricing_plan_id":"cebpf4jnsgd1na2vs0mg"},{"bike_id":"1d2de331-45a5-4f1b-b346-50cb6f45db1a","system_id":"levelo_inurba_marseille","lat":43.23071,"lon":5.35492,"is_reserved":false,"is_disabled":false,"rental_uris":{"android":"levelo://app?vid=1d2de331-45a5-4f1b-b346-50cb6f45db1a","ios":"levelo://app?vid=1d2de331-45a5-4f1b-b346-50cb6f45db1a"},"vehicle_type_id":"4","last_reported":1729001341,"current_range_meters":5600,"station_id":"cpo3342slgdg3j2ifvpg","pricing_plan_id":"cebpf4jnsgd1na2vs0mg"},{"bike_id":"d03a7031-6541-409c-8f5e-f8995614bb65","system_id":"levelo_inurba_marseille","lat":43.27996,"lon":5.40012,"is_reserved":false,"is_disabled":false,"rental_uris":{"android":"levelo://app?vid=d03a7031-6541-409c-8f5e-f8995614bb65","ios":"levelo://app?vid=d03a7031-6541-409c-8f5e-f8995614bb65"},"vehicle_type_id":"4","last_reported":1729001341,"current_range_meters":10800,"station_id":"ce4bho92rcd13ifvqh4g","pricing_plan_id":"cebpf4jnsgd1na2vs0mg"},{"bike_id":"5cc92726-a09d-4ddd-b1df-d12c813888b5","system_id":"levelo_inurba_marseille","lat":43.31692,"lon":5.40474,"is_reserved":false,"is_disabled":false,"rental_uris":{"android":"levelo://app?vid=5cc92726-a09d-4ddd-b1df-d12c813888b5","ios":"levelo://app?vid=5cc92726-a09d-4ddd-b1df-d12c813888b5"},"vehicle_type_id":"4","last_reported":1729001341,"current_range_meters":38800,"station_id":"ce4bh012rcd13ifvqd00","pricing_plan_id":"cebpf4jnsgd1na2vs0mg"},{"bike_id":"2140b6a3-5118-4150-823e-9225aeb56201","system_id":"levelo_inurba_marseille","lat":43.23187,"lon":5.35546,"is_reserved":false,"is_disabled":false,"rental_uris":{"android":"levelo://app?vid=2140b6a3-5118-4150-823e-9225aeb56201","ios":"levelo://app?vid=2140b6a3-5118-4150-823e-9225aeb56201"},"vehicle_type_id":"4","last_reported":1729001341,"current_range_meters":8400,"station_id":"ce4bhu92rcd13ifvqi70","pricing_plan_id":"cebpf4jnsgd1na2vs0mg"},{"bike_id":"7dc34d45-c627-4fb7-aac2-dc8d04d57bf2","system_id":"levelo_inurba_marseille","lat":43.296399,"lon":5.406016,"is_reserved":false,"is_disabled":false,"rental_uris":{"android":"levelo://app?vid=7dc34d45-c627-4fb7-aac2-dc8d04d57bf2","ios":"levelo://app?vid=7dc34d45-c627-4fb7-aac2-dc8d04d57bf2"},"vehicle_type_id":"4","last_reported":1729001341,"current_range_meters":38400,"station_id":"ce4bh0h2rcd13ifvqd60","pricing_plan_id":"cebpf4jnsgd1na2vs0mg"},{"bike_id":"0d8bd227-6461-4af4-a8b3-bad4837d9899","system_id":"levelo_inurba_marseille","lat":43.30542,"lon":5.36534,"is_reserved":false,"is_disabled":false,"rental_uris":{"android":"levelo://app?vid=0d8bd227-6461-4af4-a8b3-bad4837d9899","ios":"levelo://app?vid=0d8bd227-6461-4af4-a8b3-bad4837d9899"},"vehicle_type_id":"4","last_reported":1729001341,"current_range_meters":8400,"station_id":"ce4bgs12rcd13ifvqcag","pricing_plan_id":"cebpf4jnsgd1na2vs0mg"},{"bike_id":"b9aafc66-3c0e-4261-a303-2fa90f872e20","system_id":"levelo_inurba_marseille","lat":43.28272,"lon":5.35063,"is_reserved":false,"is_disabled":false,"rental_uris":{"android":"levelo://app?vid=b9aafc66-3c0e-4261-a303-2fa90f872e20","ios":"levelo://app?vid=b9aafc66-3c0e-4261-a303-2fa90f872e20"},"vehicle_type_id":"4","last_reported":1729001341,"current_range_meters":36000,"station_id":"ce4bhbp2rcd13ifvqerg","pricing_plan_id":"cebpf4jnsgd1na2vs0mg"},{"bike_id":"d7f3bb51-8a06-4b74-80e1-99e6938c3f55","system_id":"levelo_inurba_marseille","lat":43.30559,"lon":5.36556,"is_reserved":false,"is_disabled":false,"rental_uris":{"android":"levelo://app?vid=d7f3bb51-8a06-4b74-80e1-99e6938c3f55","ios":"levelo://app?vid=d7f3bb51-8a06-4b74-80e1-99e6938c3f55"},"vehicle_type_id":"4","last_reported":1729001341,"current_range_meters":16400,"station_id":"ce4bgs12rcd13ifvqcag","pricing_plan_id":"cebpf4jnsgd1na2vs0mg"},{"bike_id":"3535e9f5-f9fb-49dd-9c21-f549edafad0d","system_id":"levelo_inurba_marseille","lat":43.2481,"lon":5.37459,"is_reserved":false,"is_disabled":false,"rental_uris":{"android":"levelo://app?vid=3535e9f5-f9fb-49dd-9c21-f549edafad0d","ios":"levelo://app?vid=3535e9f5-f9fb-49dd-9c21-f549edafad0d"},"vehicle_type_id":"4","last_reported":1729001341,"current_range_meters":12000,"station_id":"ce4bhgh2rcd13ifvqfb0","pricing_plan_id":"cebpf4jnsgd1na2vs0mg"},{"bike_id":"32f57965-98a3-4347-b445-344deea3b5b5","system_id":"levelo_inurba_marseille","lat":43.28276,"lon":5.35073,"is_reserved":false,"is_disabled":false,"rental_uris":{"android":"levelo://app?vid=32f57965-98a3-4347-b445-344deea3b5b5","ios":"levelo://app?vid=32f57965-98a3-4347-b445-344deea3b5b5"},"vehicle_type_id":"4","last_reported":1729001341,"current_range_meters":13600,"station_id":"ce4bhbp2rcd13ifvqerg","pricing_plan_id":"cebpf4jnsgd1na2vs0mg"},{"bike_id":"3cae6dbf-2f90-4eb1-a647-739d29c4291d","system_id":"levelo_inurba_marseille","lat":43.27057,"lon":5.40263,"is_reserved":false,"is_disabled":false,"rental_uris":{"android":"levelo://app?vid=3cae6dbf-2f90-4eb1-a647-739d29c4291d","ios":"levelo://app?vid=3cae6dbf-2f90-4eb1-a647-739d29c4291d"},"vehicle_type_id":"4","last_reported":1729001341,"current_range_meters":37600,"station_id":"ce4bhk92rcd13ifvqgc0","pricing_plan_id":"cebpf4jnsgd1na2vs0mg"},{"bike_id":"aff27e9c-648d-4247-9acf-966cdaacff0d","system_id":"levelo_inurba_marseille","lat":43.28943,"lon":5.36642,"is_reserved":false,"is_disabled":false,"rental_uris":{"android":"levelo://app?vid=aff27e9c-648d-4247-9acf-966cdaacff0d","ios":"levelo://app?vid=aff27e9c-648d-4247-9acf-966cdaacff0d"},"vehicle_type_id":"4","last_reported":1729001341,"current_range_meters":24400,"station_id":"ce4bgs12rcd13ifvqcag","pricing_plan_id":"cebpf4jnsgd1na2vs0mg"},{"bike_id":"c41c4bd6-4e68-420e-b205-f8c962247a74","system_id":"levelo_inurba_marseille","lat":43.24387,"lon":5.37052,"is_reserved":false,"is_disabled":false,"rental_uris":{"android":"levelo://app?vid=c41c4bd6-4e68-420e-b205-f8c962247a74","ios":"levelo://app?vid=c41c4bd6-4e68-420e-b205-f8c962247a74"},"vehicle_type_id":"4","last_reported":1729001341,"current_range_meters":12800,"station_id":"ce4bhhh2rcd13ifvqfk0","pricing_plan_id":"cebpf4jnsgd1na2vs0mg"},{"bike_id":"7c5cd746-44c0-497e-b686-cbca047f431d","system_id":"levelo_inurba_marseille","lat":43.28265,"lon":5.35062,"is_reserved":false,"is_disabled":false,"rental_uris":{"android":"levelo://app?vid=7c5cd746-44c0-497e-b686-cbca047f431d","ios":"levelo://app?vid=7c5cd746-44c0-497e-b686-cbca047f431d"},"vehicle_type_id":"4","last_reported":1729001341,"current_range_meters":8000,"station_id":"ce4bhbp2rcd13ifvqerg","pricing_plan_id":"cebpf4jnsgd1na2vs0mg"},{"bike_id":"ec598cff-243b-4c94-9409-7d258969b977","system_id":"levelo_inurba_marseille","lat":43.31277,"lon":5.40179,"is_reserved":false,"is_disabled":false,"rental_uris":{"android":"levelo://app?vid=ec598cff-243b-4c94-9409-7d258969b977","ios":"levelo://app?vid=ec598cff-243b-4c94-9409-7d258969b977"},"vehicle_type_id":"4","last_reported":1729001341,"current_range_meters":30800,"station_id":"ce4bh092rcd13ifvqd30","pricing_plan_id":"cebpf4jnsgd1na2vs0mg"},{"bike_id":"e9d42937-a4b2-4a84-a233-384773796211","system_id":"levelo_inurba_marseille","lat":43.25939,"lon":5.4091,"is_reserved":false,"is_disabled":false,"rental_uris":{"android":"levelo://app?vid=e9d42937-a4b2-4a84-a233-384773796211","ios":"levelo://app?vid=e9d42937-a4b2-4a84-a233-384773796211"},"vehicle_type_id":"4","last_reported":1729001341,"current_range_meters":19600,"station_id":"ce4bhm92rcd13ifvqglg","pricing_plan_id":"cebpf4jnsgd1na2vs0mg"},{"bike_id":"728973a7-fffc-4dcb-a566-e76afa5087d5","system_id":"levelo_inurba_marseille","lat":43.24385,"lon":5.37059,"is_reserved":false,"is_disabled":false,"rental_uris":{"android":"levelo://app?vid=728973a7-fffc-4dcb-a566-e76afa5087d5","ios":"levelo://app?vid=728973a7-fffc-4dcb-a566-e76afa5087d5"},"vehicle_type_id":"4","last_reported":1729001341,"current_range_meters":39200,"station_id":"ce4bhhh2rcd13ifvqfk0","pricing_plan_id":"cebpf4jnsgd1na2vs0mg"},{"bike_id":"e01e41b6-906b-4d38-bd47-8409331ef9cb","system_id":"levelo_inurba_marseille","lat":43.24168,"lon":5.36388,"is_reserved":false,"is_disabled":false,"rental_uris":{"android":"levelo://app?vid=e01e41b6-906b-4d38-bd47-8409331ef9cb","ios":"levelo://app?vid=e01e41b6-906b-4d38-bd47-8409331ef9cb"},"vehicle_type_id":"4","last_reported":1729001341,"current_range_meters":32400,"station_id":"cpo36qri1sfpv3e86is0","pricing_plan_id":"cebpf4jnsgd1na2vs0mg"},{"bike_id":"89211ee2-076f-4df3-92bd-cd8885f2e76d","system_id":"levelo_inurba_marseille","lat":43.23194,"lon":5.35557,"is_reserved":false,"is_disabled":false,"rental_uris":{"android":"levelo://app?vid=89211ee2-076f-4df3-92bd-cd8885f2e76d","ios":"levelo://app?vid=89211ee2-076f-4df3-92bd-cd8885f2e76d"},"vehicle_type_id":"4","last_reported":1729001341,"current_range_meters":38800,"station_id":"ce4bhu92rcd13ifvqi70","pricing_plan_id":"cebpf4jnsgd1na2vs0mg"},{"bike_id":"174c21c7-8d74-4b8b-8600-dbf70f4125ee","system_id":"levelo_inurba_marseille","lat":43.24566,"lon":5.41608,"is_reserved":false,"is_disabled":false,"rental_uris":{"android":"levelo://app?vid=174c21c7-8d74-4b8b-8600-dbf70f4125ee","ios":"levelo://app?vid=174c21c7-8d74-4b8b-8600-dbf70f4125ee"},"vehicle_type_id":"4","last_reported":1729001341,"current_range_meters":3600,"station_id":"","pricing_plan_id":"cebpf4jnsgd1na2vs0mg"},{"bike_id":"9dabbb9f-2820-49db-acc7-73662a324005","system_id":"levelo_inurba_marseille","lat":43.33722,"lon":5.3919,"is_reserved":false,"is_disabled":false,"rental_uris":{"android":"levelo://app?vid=9dabbb9f-2820-49db-acc7-73662a324005","ios":"levelo://app?vid=9dabbb9f-2820-49db-acc7-73662a324005"},"vehicle_type_id":"4","last_reported":1729001341,"current_range_meters":36800,"station_id":"ce4bhr92rcd13ifvqhsg","pricing_plan_id":"cebpf4jnsgd1na2vs0mg"},{"bike_id":"73283340-02aa-496c-b441-f680214d865b","system_id":"levelo_inurba_marseille","lat":43.29001,"lon":5.3561,"is_reserved":false,"is_disabled":false,"rental_uris":{"android":"levelo://app?vid=73283340-02aa-496c-b441-f680214d865b","ios":"levelo://app?vid=73283340-02aa-496c-b441-f680214d865b"},"vehicle_type_id":"4","last_reported":1729001341,"current_range_meters":18800,"station_id":"ce4bhb92rcd13ifvqen0","pricing_plan_id":"cebpf4jnsgd1na2vs0mg"},{"bike_id":"3ec1f88a-d5cc-46ce-a14a-989089531e8a","system_id":"levelo_inurba_marseille","lat":43.2808,"lon":5.39662,"is_reserved":false,"is_disabled":false,"rental_uris":{"android":"levelo://app?vid=3ec1f88a-d5cc-46ce-a14a-989089531e8a","ios":"levelo://app?vid=3ec1f88a-d5cc-46ce-a14a-989089531e8a"},"vehicle_type_id":"4","last_reported":1729001341,"current_range_meters":38800,"station_id":"ce4bho12rcd13ifvqh2g","pricing_plan_id":"cebpf4jnsgd1na2vs0mg"},{"bike_id":"761bba0a-c900-414d-ad30-1f6ff2ff0b3c","system_id":"levelo_inurba_marseille","lat":43.30891,"lon":5.39663,"is_reserved":false,"is_disabled":false,"rental_uris":{"android":"levelo://app?vid=761bba0a-c900-414d-ad30-1f6ff2ff0b3c","ios":"levelo://app?vid=761bba0a-c900-414d-ad30-1f6ff2ff0b3c"},"vehicle_type_id":"4","last_reported":1729001341,"current_range_meters":30800,"station_id":"ce4bh012rcd13ifvqcv0","pricing_plan_id":"cebpf4jnsgd1na2vs0mg"},{"bike_id":"1245a9ed-9e7b-4303-9e5f-30b096da5e49","system_id":"levelo_inurba_marseille","lat":43.27676,"lon":5.38861,"is_reserved":false,"is_disabled":false,"rental_uris":{"android":"levelo://app?vid=1245a9ed-9e7b-4303-9e5f-30b096da5e49","ios":"levelo://app?vid=1245a9ed-9e7b-4303-9e5f-30b096da5e49"},"vehicle_type_id":"4","last_reported":1729001341,"current_range_meters":24800,"station_id":"ce4bhi12rcd13ifvqfo0","pricing_plan_id":"cebpf4jnsgd1na2vs0mg"},{"bike_id":"297bf2f9-5164-48df-9774-3dd03206335c","system_id":"levelo_inurba_marseille","lat":43.27921,"lon":5.395703,"is_reserved":false,"is_disabled":false,"rental_uris":{"android":"levelo://app?vid=297bf2f9-5164-48df-9774-3dd03206335c","ios":"levelo://app?vid=297bf2f9-5164-48df-9774-3dd03206335c"},"vehicle_type_id":"4","last_reported":1729001341,"current_range_meters":14000,"station_id":"ce4bhf92rcd13ifvqf40","pricing_plan_id":"cebpf4jnsgd1na2vs0mg"},{"bike_id":"efccc900-ae8e-4118-8cf2-27ba7ca4f0b8","system_id":"levelo_inurba_marseille","lat":43.264917,"lon":5.395433,"is_reserved":false,"is_disabled":false,"rental_uris":{"android":"levelo://app?vid=efccc900-ae8e-4118-8cf2-27ba7ca4f0b8","ios":"levelo://app?vid=efccc900-ae8e-4118-8cf2-27ba7ca4f0b8"},"vehicle_type_id":"4","last_reported":1729001341,"current_range_meters":25200,"station_id":"ce4bhi12rcd13ifvqfq0","pricing_plan_id":"cebpf4jnsgd1na2vs0mg"},{"bike_id":"0eb49119-532c-4336-9f69-77d724895ef1","system_id":"levelo_inurba_marseille","lat":43.29193,"lon":5.358,"is_reserved":false,"is_disabled":false,"rental_uris":{"android":"levelo://app?vid=0eb49119-532c-4336-9f69-77d724895ef1","ios":"levelo://app?vid=0eb49119-532c-4336-9f69-77d724895ef1"},"vehicle_type_id":"4","last_reported":1729001341,"current_range_meters":24400,"station_id":"ce4bhb12rcd13ifvqel0","pricing_plan_id":"cebpf4jnsgd1na2vs0mg"},{"bike_id":"6805e279-dd49-41bf-b594-46922953a007","system_id":"levelo_inurba_marseille","lat":43.28275,"lon":5.35084,"is_reserved":false,"is_disabled":false,"rental_uris":{"android":"levelo://app?vid=6805e279-dd49-41bf-b594-46922953a007","ios":"levelo://app?vid=6805e279-dd49-41bf-b594-46922953a007"},"vehicle_type_id":"4","last_reported":1729001341,"current_range_meters":17200,"station_id":"ce4bhbp2rcd13ifvqerg","pricing_plan_id":"cebpf4jnsgd1na2vs0mg"},{"bike_id":"7a4a2c7a-5bc9-4d88-96fe-66428cd6e2fb","system_id":"levelo_inurba_marseille","lat":43.27813,"lon":5.40713,"is_reserved":false,"is_disabled":false,"rental_uris":{"android":"levelo://app?vid=7a4a2c7a-5bc9-4d88-96fe-66428cd6e2fb","ios":"levelo://app?vid=7a4a2c7a-5bc9-4d88-96fe-66428cd6e2fb"},"vehicle_type_id":"4","last_reported":1729001341,"current_range_meters":37600,"station_id":"ce4bhnh2rcd13ifvqgtg","pricing_plan_id":"cebpf4jnsgd1na2vs0mg"},{"bike_id":"246a2644-90db-451b-919c-cf0ebdd93883","system_id":"levelo_inurba_marseille","lat":43.24387,"lon":5.37088,"is_reserved":false,"is_disabled":false,"rental_uris":{"android":"levelo://app?vid=246a2644-90db-451b-919c-cf0ebdd93883","ios":"levelo://app?vid=246a2644-90db-451b-919c-cf0ebdd93883"},"vehicle_type_id":"4","last_reported":1729001341,"current_range_meters":14000,"station_id":"ce4bhhh2rcd13ifvqfk0","pricing_plan_id":"cebpf4jnsgd1na2vs0mg"},{"bike_id":"9c4870ef-8189-49c9-8051-0aef7043e5cd","system_id":"levelo_inurba_marseille","lat":43.25938,"lon":5.40906,"is_reserved":false,"is_disabled":false,"rental_uris":{"android":"levelo://app?vid=9c4870ef-8189-49c9-8051-0aef7043e5cd","ios":"levelo://app?vid=9c4870ef-8189-49c9-8051-0aef7043e5cd"},"vehicle_type_id":"4","last_reported":1729001341,"current_range_meters":3600,"station_id":"ce4bhm92rcd13ifvqglg","pricing_plan_id":"cebpf4jnsgd1na2vs0mg"},{"bike_id":"70fc60a6-b8a1-49de-8a6e-1b532dfb0edc","system_id":"levelo_inurba_marseille","lat":43.3248,"lon":5.3657,"is_reserved":false,"is_disabled":false,"rental_uris":{"android":"levelo://app?vid=70fc60a6-b8a1-49de-8a6e-1b532dfb0edc","ios":"levelo://app?vid=70fc60a6-b8a1-49de-8a6e-1b532dfb0edc"},"vehicle_type_id":"4","last_reported":1729001341,"current_range_meters":11200,"station_id":"ce4bhs12rcd13ifvqhvg","pricing_plan_id":"cebpf4jnsgd1na2vs0mg"},{"bike_id":"bd3b69a7-a008-46cc-9a96-7324ca326d58","system_id":"levelo_inurba_marseille","lat":43.31758,"lon":5.39015,"is_reserved":false,"is_disabled":false,"rental_uris":{"android":"levelo://app?vid=bd3b69a7-a008-46cc-9a96-7324ca326d58","ios":"levelo://app?vid=bd3b69a7-a008-46cc-9a96-7324ca326d58"},"vehicle_type_id":"4","last_reported":1729001341,"current_range_meters":38800,"station_id":"ce4bhqp2rcd13ifvqhng","pricing_plan_id":"cebpf4jnsgd1na2vs0mg"},{"bike_id":"b6761712-cd33-437e-83c8-811ce3c1e59f","system_id":"levelo_inurba_marseille","lat":43.23959,"lon":5.36641,"is_reserved":false,"is_disabled":false,"rental_uris":{"android":"levelo://app?vid=b6761712-cd33-437e-83c8-811ce3c1e59f","ios":"levelo://app?vid=b6761712-cd33-437e-83c8-811ce3c1e59f"},"vehicle_type_id":"4","last_reported":1729001341,"current_range_meters":30400,"station_id":"ce4bhi12rcd13ifvqfp0","pricing_plan_id":"cebpf4jnsgd1na2vs0mg"},{"bike_id":"6f47d289-9895-46aa-a611-f5456497740e","system_id":"levelo_inurba_marseille","lat":43.29618,"lon":5.37149,"is_reserved":false,"is_disabled":false,"rental_uris":{"android":"levelo://app?vid=6f47d289-9895-46aa-a611-f5456497740e","ios":"levelo://app?vid=6f47d289-9895-46aa-a611-f5456497740e"},"vehicle_type_id":"4","last_reported":1729001341,"current_range_meters":38800,"station_id":"ce4bgnh2rcd13ifvqc0g","pricing_plan_id":"cebpf4jnsgd1na2vs0mg"},{"bike_id":"ff96eee3-1ac8-4888-9ae7-e4b6cc8154af","system_id":"levelo_inurba_marseille","lat":43.33739,"lon":5.3746,"is_reserved":false,"is_disabled":false,"rental_uris":{"android":"levelo://app?vid=ff96eee3-1ac8-4888-9ae7-e4b6cc8154af","ios":"levelo://app?vid=ff96eee3-1ac8-4888-9ae7-e4b6cc8154af"},"vehicle_type_id":"4","last_reported":1729001341,"current_range_meters":33600,"station_id":"","pricing_plan_id":"cebpf4jnsgd1na2vs0mg"},{"bike_id":"ddd5af8a-0f19-49e8-b291-d1408413b89e","system_id":"levelo_inurba_marseille","lat":43.24183,"lon":5.3973,"is_reserved":false,"is_disabled":false,"rental_uris":{"android":"levelo://app?vid=ddd5af8a-0f19-49e8-b291-d1408413b89e","ios":"levelo://app?vid=ddd5af8a-0f19-49e8-b291-d1408413b89e"},"vehicle_type_id":"4","last_reported":1729001341,"current_range_meters":16800,"station_id":"ce4bhn12rcd13ifvqgpg","pricing_plan_id":"cebpf4jnsgd1na2vs0mg"},{"bike_id":"6fd011cd-9bc9-4cd6-bd8c-523d97b5ad24","system_id":"levelo_inurba_marseille","lat":43.3091,"lon":5.36859,"is_reserved":false,"is_disabled":false,"rental_uris":{"android":"levelo://app?vid=6fd011cd-9bc9-4cd6-bd8c-523d97b5ad24","ios":"levelo://app?vid=6fd011cd-9bc9-4cd6-bd8c-523d97b5ad24"},"vehicle_type_id":"4","last_reported":1729001341,"current_range_meters":37600,"station_id":"ce4bgn92rcd13ifvqbvg","pricing_plan_id":"cebpf4jnsgd1na2vs0mg"},{"bike_id":"b12eb05d-abfa-4a30-bbad-9e31b12be630","system_id":"levelo_inurba_marseille","lat":43.33754,"lon":5.37456,"is_reserved":false,"is_disabled":false,"rental_uris":{"android":"levelo://app?vid=b12eb05d-abfa-4a30-bbad-9e31b12be630","ios":"levelo://app?vid=b12eb05d-abfa-4a30-bbad-9e31b12be630"},"vehicle_type_id":"4","last_reported":1729001341,"current_range_meters":30400,"station_id":"","pricing_plan_id":"cebpf4jnsgd1na2vs0mg"},{"bike_id":"343adb05-5a78-4209-b09d-bfa2e9bd7c61","system_id":"levelo_inurba_marseille","lat":43.30563,"lon":5.36533,"is_reserved":false,"is_disabled":false,"rental_uris":{"android":"levelo://app?vid=343adb05-5a78-4209-b09d-bfa2e9bd7c61","ios":"levelo://app?vid=343adb05-5a78-4209-b09d-bfa2e9bd7c61"},"vehicle_type_id":"4","last_reported":1729001341,"current_range_meters":29600,"station_id":"ce4bgs12rcd13ifvqcag","pricing_plan_id":"cebpf4jnsgd1na2vs0mg"},{"bike_id":"acf5376f-aa68-4f4e-ba04-752434237ed2","system_id":"levelo_inurba_marseille","lat":43.29623,"lon":5.37167,"is_reserved":false,"is_disabled":false,"rental_uris":{"android":"levelo://app?vid=acf5376f-aa68-4f4e-ba04-752434237ed2","ios":"levelo://app?vid=acf5376f-aa68-4f4e-ba04-752434237ed2"},"vehicle_type_id":"4","last_reported":1729001341,"current_range_meters":29600,"station_id":"ce4bgnh2rcd13ifvqc0g","pricing_plan_id":"cebpf4jnsgd1na2vs0mg"},{"bike_id":"be09a37c-0191-4dec-b9e6-7bc53f5a0924","system_id":"levelo_inurba_marseille","lat":43.289405,"lon":5.396319,"is_reserved":false,"is_disabled":false,"rental_uris":{"android":"levelo://app?vid=be09a37c-0191-4dec-b9e6-7bc53f5a0924","ios":"levelo://app?vid=be09a37c-0191-4dec-b9e6-7bc53f5a0924"},"vehicle_type_id":"4","last_reported":1729001341,"current_range_meters":6800,"station_id":"ce4bh3h2rcd13ifvqdn0","pricing_plan_id":"cebpf4jnsgd1na2vs0mg"},{"bike_id":"292b9425-1372-40d4-bf0a-fe57aa779a41","system_id":"levelo_inurba_marseille","lat":43.23063,"lon":5.35495,"is_reserved":false,"is_disabled":false,"rental_uris":{"android":"levelo://app?vid=292b9425-1372-40d4-bf0a-fe57aa779a41","ios":"levelo://app?vid=292b9425-1372-40d4-bf0a-fe57aa779a41"},"vehicle_type_id":"4","last_reported":1729001341,"current_range_meters":33200,"station_id":"cpo3342slgdg3j2ifvpg","pricing_plan_id":"cebpf4jnsgd1na2vs0mg"},{"bike_id":"f1baba50-f384-4335-a052-af9eda4a52f0","system_id":"levelo_inurba_marseille","lat":43.24391,"lon":5.37053,"is_reserved":false,"is_disabled":false,"rental_uris":{"android":"levelo://app?vid=f1baba50-f384-4335-a052-af9eda4a52f0","ios":"levelo://app?vid=f1baba50-f384-4335-a052-af9eda4a52f0"},"vehicle_type_id":"4","last_reported":1729001341,"current_range_meters":40000,"station_id":"ce4bhhh2rcd13ifvqfk0","pricing_plan_id":"cebpf4jnsgd1na2vs0mg"},{"bike_id":"3942aef3-1f96-4eb1-a997-8794f0ede730","system_id":"levelo_inurba_marseille","lat":43.32658,"lon":5.40992,"is_reserved":false,"is_disabled":false,"rental_uris":{"android":"levelo://app?vid=3942aef3-1f96-4eb1-a997-8794f0ede730","ios":"levelo://app?vid=3942aef3-1f96-4eb1-a997-8794f0ede730"},"vehicle_type_id":"4","last_reported":1729001341,"current_range_meters":2800,"station_id":"ce4bhpp2rcd13ifvqhgg","pricing_plan_id":"cebpf4jnsgd1na2vs0mg"},{"bike_id":"e1d315a9-818f-42ee-a1ff-f0147df88741","system_id":"levelo_inurba_marseille","lat":43.25931,"lon":5.40909,"is_reserved":false,"is_disabled":false,"rental_uris":{"android":"levelo://app?vid=e1d315a9-818f-42ee-a1ff-f0147df88741","ios":"levelo://app?vid=e1d315a9-818f-42ee-a1ff-f0147df88741"},"vehicle_type_id":"4","last_reported":1729001341,"current_range_meters":5600,"station_id":"ce4bhm92rcd13ifvqglg","pricing_plan_id":"cebpf4jnsgd1na2vs0mg"},{"bike_id":"c4298285-757d-43d2-a4b0-257d5094266a","system_id":"levelo_inurba_marseille","lat":43.27987,"lon":5.41655,"is_reserved":false,"is_disabled":false,"rental_uris":{"android":"levelo://app?vid=c4298285-757d-43d2-a4b0-257d5094266a","ios":"levelo://app?vid=c4298285-757d-43d2-a4b0-257d5094266a"},"vehicle_type_id":"4","last_reported":1729001341,"current_range_meters":34000,"station_id":"ce4bho12rcd13ifvqh1g","pricing_plan_id":"cebpf4jnsgd1na2vs0mg"},{"bike_id":"1de5ea6e-ee74-413b-ba8f-6a925929ee87","system_id":"levelo_inurba_marseille","lat":43.2655,"lon":5.37286,"is_reserved":false,"is_disabled":false,"rental_uris":{"android":"levelo://app?vid=1de5ea6e-ee74-413b-ba8f-6a925929ee87","ios":"levelo://app?vid=1de5ea6e-ee74-413b-ba8f-6a925929ee87"},"vehicle_type_id":"4","last_reported":1729001341,"current_range_meters":24000,"station_id":"ce4bhg12rcd13ifvqf70","pricing_plan_id":"cebpf4jnsgd1na2vs0mg"},{"bike_id":"d8597bf4-185f-46b0-9306-434905261110","system_id":"levelo_inurba_marseille","lat":43.28273,"lon":5.35066,"is_reserved":false,"is_disabled":false,"rental_uris":{"android":"levelo://app?vid=d8597bf4-185f-46b0-9306-434905261110","ios":"levelo://app?vid=d8597bf4-185f-46b0-9306-434905261110"},"vehicle_type_id":"4","last_reported":1729001341,"current_range_meters":38800,"station_id":"ce4bhbp2rcd13ifvqerg","pricing_plan_id":"cebpf4jnsgd1na2vs0mg"},{"bike_id":"9c0b0f8e-9baa-4c85-8415-00af32184222","system_id":"levelo_inurba_marseille","lat":43.30542,"lon":5.36537,"is_reserved":false,"is_disabled":false,"rental_uris":{"android":"levelo://app?vid=9c0b0f8e-9baa-4c85-8415-00af32184222","ios":"levelo://app?vid=9c0b0f8e-9baa-4c85-8415-00af32184222"},"vehicle_type_id":"4","last_reported":1729001341,"current_range_meters":24000,"station_id":"ce4bgs12rcd13ifvqcag","pricing_plan_id":"cebpf4jnsgd1na2vs0mg"},{"bike_id":"40a459d4-edc3-48fa-b999-bbea4d628a0a","system_id":"levelo_inurba_marseille","lat":43.28263,"lon":5.35067,"is_reserved":false,"is_disabled":false,"rental_uris":{"android":"levelo://app?vid=40a459d4-edc3-48fa-b999-bbea4d628a0a","ios":"levelo://app?vid=40a459d4-edc3-48fa-b999-bbea4d628a0a"},"vehicle_type_id":"4","last_reported":1729001341,"current_range_meters":28800,"station_id":"ce4bhbp2rcd13ifvqerg","pricing_plan_id":"cebpf4jnsgd1na2vs0mg"},{"bike_id":"9cd1e99e-2c98-48a1-ac8b-5e948f0b8848","system_id":"levelo_inurba_marseille","lat":43.31356,"lon":5.36711,"is_reserved":false,"is_disabled":false,"rental_uris":{"android":"levelo://app?vid=9cd1e99e-2c98-48a1-ac8b-5e948f0b8848","ios":"levelo://app?vid=9cd1e99e-2c98-48a1-ac8b-5e948f0b8848"},"vehicle_type_id":"4","last_reported":1729001341,"current_range_meters":27200,"station_id":"ce4bgr92rcd13ifvqc6g","pricing_plan_id":"cebpf4jnsgd1na2vs0mg"},{"bike_id":"e42a5c5b-19d2-48bc-8dfc-c8514ef28621","system_id":"levelo_inurba_marseille","lat":43.24169,"lon":5.36399,"is_reserved":false,"is_disabled":false,"rental_uris":{"android":"levelo://app?vid=e42a5c5b-19d2-48bc-8dfc-c8514ef28621","ios":"levelo://app?vid=e42a5c5b-19d2-48bc-8dfc-c8514ef28621"},"vehicle_type_id":"4","last_reported":1729001341,"current_range_meters":25600,"station_id":"cpo36qri1sfpv3e86is0","pricing_plan_id":"cebpf4jnsgd1na2vs0mg"},{"bike_id":"10d82534-a77c-4708-9dcc-66ad19dddabb","system_id":"levelo_inurba_marseille","lat":43.30537,"lon":5.36535,"is_reserved":false,"is_disabled":false,"rental_uris":{"android":"levelo://app?vid=10d82534-a77c-4708-9dcc-66ad19dddabb","ios":"levelo://app?vid=10d82534-a77c-4708-9dcc-66ad19dddabb"},"vehicle_type_id":"4","last_reported":1729001341,"current_range_meters":10000,"station_id":"ce4bgs12rcd13ifvqcag","pricing_plan_id":"cebpf4jnsgd1na2vs0mg"},{"bike_id":"645e4b42-f60d-4e4b-8e68-178d3ce2bc93","system_id":"levelo_inurba_marseille","lat":43.30428,"lon":5.39761,"is_reserved":false,"is_disabled":false,"rental_uris":{"android":"levelo://app?vid=645e4b42-f60d-4e4b-8e68-178d3ce2bc93","ios":"levelo://app?vid=645e4b42-f60d-4e4b-8e68-178d3ce2bc93"},"vehicle_type_id":"4","last_reported":1729001341,"current_range_meters":36800,"station_id":"ce4bh092rcd13ifvqd20","pricing_plan_id":"cebpf4jnsgd1na2vs0mg"},{"bike_id":"bdf2a4d4-e8c9-49b5-8fef-9e8342b09fe7","system_id":"levelo_inurba_marseille","lat":43.23966,"lon":5.36643,"is_reserved":false,"is_disabled":false,"rental_uris":{"android":"levelo://app?vid=bdf2a4d4-e8c9-49b5-8fef-9e8342b09fe7","ios":"levelo://app?vid=bdf2a4d4-e8c9-49b5-8fef-9e8342b09fe7"},"vehicle_type_id":"4","last_reported":1729001341,"current_range_meters":12400,"station_id":"ce4bhi12rcd13ifvqfp0","pricing_plan_id":"cebpf4jnsgd1na2vs0mg"},{"bike_id":"1989161d-8386-47b1-87a5-b86d93dc477e","system_id":"levelo_inurba_marseille","lat":43.25936,"lon":5.40915,"is_reserved":false,"is_disabled":false,"rental_uris":{"android":"levelo://app?vid=1989161d-8386-47b1-87a5-b86d93dc477e","ios":"levelo://app?vid=1989161d-8386-47b1-87a5-b86d93dc477e"},"vehicle_type_id":"4","last_reported":1729001341,"current_range_meters":33200,"station_id":"ce4bhm92rcd13ifvqglg","pricing_plan_id":"cebpf4jnsgd1na2vs0mg"},{"bike_id":"53de84a3-7acb-4e43-90fa-76a05c8a8125","system_id":"levelo_inurba_marseille","lat":43.2922,"lon":5.36068,"is_reserved":false,"is_disabled":false,"rental_uris":{"android":"levelo://app?vid=53de84a3-7acb-4e43-90fa-76a05c8a8125","ios":"levelo://app?vid=53de84a3-7acb-4e43-90fa-76a05c8a8125"},"vehicle_type_id":"4","last_reported":1729001341,"current_range_meters":38400,"station_id":"ce4bhbh2rcd13ifvqeqg","pricing_plan_id":"cebpf4jnsgd1na2vs0mg"},{"bike_id":"f82cbb7c-3282-4aec-9d86-63dce352f143","system_id":"levelo_inurba_marseille","lat":43.30248,"lon":5.40079,"is_reserved":false,"is_disabled":false,"rental_uris":{"android":"levelo://app?vid=f82cbb7c-3282-4aec-9d86-63dce352f143","ios":"levelo://app?vid=f82cbb7c-3282-4aec-9d86-63dce352f143"},"vehicle_type_id":"4","last_reported":1729001341,"current_range_meters":25600,"station_id":"ce4bgvh2rcd13ifvqcs0","pricing_plan_id":"cebpf4jnsgd1na2vs0mg"},{"bike_id":"4a077670-5b40-4488-970c-181b2297645a","system_id":"levelo_inurba_marseille","lat":43.27952,"lon":5.41055,"is_reserved":false,"is_disabled":false,"rental_uris":{"android":"levelo://app?vid=4a077670-5b40-4488-970c-181b2297645a","ios":"levelo://app?vid=4a077670-5b40-4488-970c-181b2297645a"},"vehicle_type_id":"4","last_reported":1729001341,"current_range_meters":10000,"station_id":"ce4bhnp2rcd13ifvqh0g","pricing_plan_id":"cebpf4jnsgd1na2vs0mg"},{"bike_id":"d06f24f3-1961-4c39-8b26-c72733863fe9","system_id":"levelo_inurba_marseille","lat":43.33781,"lon":5.37443,"is_reserved":false,"is_disabled":false,"rental_uris":{"android":"levelo://app?vid=d06f24f3-1961-4c39-8b26-c72733863fe9","ios":"levelo://app?vid=d06f24f3-1961-4c39-8b26-c72733863fe9"},"vehicle_type_id":"4","last_reported":1729001341,"current_range_meters":24400,"station_id":"","pricing_plan_id":"cebpf4jnsgd1na2vs0mg"},{"bike_id":"9c884a12-b9d1-428e-8dab-39fc3bba2bcf","system_id":"levelo_inurba_marseille","lat":43.29711,"lon":5.36608,"is_reserved":false,"is_disabled":false,"rental_uris":{"android":"levelo://app?vid=9c884a12-b9d1-428e-8dab-39fc3bba2bcf","ios":"levelo://app?vid=9c884a12-b9d1-428e-8dab-39fc3bba2bcf"},"vehicle_type_id":"4","last_reported":1729001341,"current_range_meters":28000,"station_id":"ce4bgn12rcd13ifvqbt0","pricing_plan_id":"cebpf4jnsgd1na2vs0mg"},{"bike_id":"8caf28d8-bc7f-4a9e-8bc0-53ce1f22c111","system_id":"levelo_inurba_marseille","lat":43.31757,"lon":5.39014,"is_reserved":false,"is_disabled":false,"rental_uris":{"android":"levelo://app?vid=8caf28d8-bc7f-4a9e-8bc0-53ce1f22c111","ios":"levelo://app?vid=8caf28d8-bc7f-4a9e-8bc0-53ce1f22c111"},"vehicle_type_id":"4","last_reported":1729001341,"current_range_meters":2800,"station_id":"ce4bhqp2rcd13ifvqhng","pricing_plan_id":"cebpf4jnsgd1na2vs0mg"},{"bike_id":"b3540a48-b930-4f1f-8764-644ac9839ef9","system_id":"levelo_inurba_marseille","lat":43.27618,"lon":5.3612,"is_reserved":false,"is_disabled":false,"rental_uris":{"android":"levelo://app?vid=b3540a48-b930-4f1f-8764-644ac9839ef9","ios":"levelo://app?vid=b3540a48-b930-4f1f-8764-644ac9839ef9"},"vehicle_type_id":"4","last_reported":1729001341,"current_range_meters":38800,"station_id":"ce4bgj92rcd13ifvqbe0","pricing_plan_id":"cebpf4jnsgd1na2vs0mg"},{"bike_id":"d41309ab-1a1f-4395-acaa-455483c3f8e1","system_id":"levelo_inurba_marseille","lat":43.23195,"lon":5.3555,"is_reserved":false,"is_disabled":false,"rental_uris":{"android":"levelo://app?vid=d41309ab-1a1f-4395-acaa-455483c3f8e1","ios":"levelo://app?vid=d41309ab-1a1f-4395-acaa-455483c3f8e1"},"vehicle_type_id":"4","last_reported":1729001341,"current_range_meters":32400,"station_id":"ce4bhu92rcd13ifvqi70","pricing_plan_id":"cebpf4jnsgd1na2vs0mg"},{"bike_id":"2d0470e6-47ed-4271-ad29-f6eb893e18eb","system_id":"levelo_inurba_marseille","lat":43.29276,"lon":5.36853,"is_reserved":false,"is_disabled":false,"rental_uris":{"android":"levelo://app?vid=2d0470e6-47ed-4271-ad29-f6eb893e18eb","ios":"levelo://app?vid=2d0470e6-47ed-4271-ad29-f6eb893e18eb"},"vehicle_type_id":"4","last_reported":1729001341,"current_range_meters":35200,"station_id":"ce4bhbp2rcd13ifvqesg","pricing_plan_id":"cebpf4jnsgd1na2vs0mg"},{"bike_id":"534da4d6-ebd3-4630-a6ef-5ffd78513fc0","system_id":"levelo_inurba_marseille","lat":43.24389,"lon":5.37065,"is_reserved":false,"is_disabled":false,"rental_uris":{"android":"levelo://app?vid=534da4d6-ebd3-4630-a6ef-5ffd78513fc0","ios":"levelo://app?vid=534da4d6-ebd3-4630-a6ef-5ffd78513fc0"},"vehicle_type_id":"4","last_reported":1729001341,"current_range_meters":5600,"station_id":"ce4bhhh2rcd13ifvqfk0","pricing_plan_id":"cebpf4jnsgd1na2vs0mg"},{"bike_id":"918ad075-292f-4fdb-b69a-fe25b26ff2fa","system_id":"levelo_inurba_marseille","lat":43.27939,"lon":5.41048,"is_reserved":false,"is_disabled":false,"rental_uris":{"android":"levelo://app?vid=918ad075-292f-4fdb-b69a-fe25b26ff2fa","ios":"levelo://app?vid=918ad075-292f-4fdb-b69a-fe25b26ff2fa"},"vehicle_type_id":"4","last_reported":1729001341,"current_range_meters":11600,"station_id":"ce4bhnp2rcd13ifvqh0g","pricing_plan_id":"cebpf4jnsgd1na2vs0mg"},{"bike_id":"bfcd63a7-dea4-4916-854a-f8e4c4729e5a","system_id":"levelo_inurba_marseille","lat":43.29793,"lon":5.38112,"is_reserved":false,"is_disabled":false,"rental_uris":{"android":"levelo://app?vid=bfcd63a7-dea4-4916-854a-f8e4c4729e5a","ios":"levelo://app?vid=bfcd63a7-dea4-4916-854a-f8e4c4729e5a"},"vehicle_type_id":"4","last_reported":1729001341,"current_range_meters":36000,"station_id":"ce4bgip2rcd13ifvqbb0","pricing_plan_id":"cebpf4jnsgd1na2vs0mg"},{"bike_id":"1236bbf7-ed03-4263-9ab4-884e4d68a5c4","system_id":"levelo_inurba_marseille","lat":43.32475,"lon":5.3656,"is_reserved":false,"is_disabled":false,"rental_uris":{"android":"levelo://app?vid=1236bbf7-ed03-4263-9ab4-884e4d68a5c4","ios":"levelo://app?vid=1236bbf7-ed03-4263-9ab4-884e4d68a5c4"},"vehicle_type_id":"4","last_reported":1729001341,"current_range_meters":39200,"station_id":"ce4bhs12rcd13ifvqhvg","pricing_plan_id":"cebpf4jnsgd1na2vs0mg"},{"bike_id":"00580030-e939-4f91-a036-9143e8555b37","system_id":"levelo_inurba_marseille","lat":43.27059,"lon":5.40266,"is_reserved":false,"is_disabled":false,"rental_uris":{"android":"levelo://app?vid=00580030-e939-4f91-a036-9143e8555b37","ios":"levelo://app?vid=00580030-e939-4f91-a036-9143e8555b37"},"vehicle_type_id":"4","last_reported":1729001341,"current_range_meters":23200,"station_id":"ce4bhk92rcd13ifvqgc0","pricing_plan_id":"cebpf4jnsgd1na2vs0mg"},{"bike_id":"63d5a6c4-c567-4fa2-9a2e-cabef81cba30","system_id":"levelo_inurba_marseille","lat":43.31758,"lon":5.39014,"is_reserved":false,"is_disabled":false,"rental_uris":{"android":"levelo://app?vid=63d5a6c4-c567-4fa2-9a2e-cabef81cba30","ios":"levelo://app?vid=63d5a6c4-c567-4fa2-9a2e-cabef81cba30"},"vehicle_type_id":"4","last_reported":1729001341,"current_range_meters":23200,"station_id":"ce4bhqp2rcd13ifvqhng","pricing_plan_id":"cebpf4jnsgd1na2vs0mg"},{"bike_id":"b14050b5-4a12-462e-bb78-8c26dafe4a33","system_id":"levelo_inurba_marseille","lat":43.29909,"lon":5.38136,"is_reserved":false,"is_disabled":false,"rental_uris":{"android":"levelo://app?vid=b14050b5-4a12-462e-bb78-8c26dafe4a33","ios":"levelo://app?vid=b14050b5-4a12-462e-bb78-8c26dafe4a33"},"vehicle_type_id":"4","last_reported":1729001341,"current_range_meters":32400,"station_id":"ce4bgj12rcd13ifvqbc0","pricing_plan_id":"cebpf4jnsgd1na2vs0mg"},{"bike_id":"42ddf1a3-c9fa-4405-9d7e-8b919329a107","system_id":"levelo_inurba_marseille","lat":43.30552,"lon":5.365287,"is_reserved":false,"is_disabled":false,"rental_uris":{"android":"levelo://app?vid=42ddf1a3-c9fa-4405-9d7e-8b919329a107","ios":"levelo://app?vid=42ddf1a3-c9fa-4405-9d7e-8b919329a107"},"vehicle_type_id":"4","last_reported":1729001341,"current_range_meters":39200,"station_id":"ce4bgs12rcd13ifvqcag","pricing_plan_id":"cebpf4jnsgd1na2vs0mg"},{"bike_id":"36305db5-5383-4724-a84f-9618a3d5c3db","system_id":"levelo_inurba_marseille","lat":43.27649,"lon":5.41268,"is_reserved":false,"is_disabled":false,"rental_uris":{"android":"levelo://app?vid=36305db5-5383-4724-a84f-9618a3d5c3db","ios":"levelo://app?vid=36305db5-5383-4724-a84f-9618a3d5c3db"},"vehicle_type_id":"4","last_reported":1729001341,"current_range_meters":17600,"station_id":"","pricing_plan_id":"cebpf4jnsgd1na2vs0mg"},{"bike_id":"5ac4b365-d20a-45e0-acfe-e7e86ca60b8f","system_id":"levelo_inurba_marseille","lat":43.25931,"lon":5.40903,"is_reserved":false,"is_disabled":false,"rental_uris":{"android":"levelo://app?vid=5ac4b365-d20a-45e0-acfe-e7e86ca60b8f","ios":"levelo://app?vid=5ac4b365-d20a-45e0-acfe-e7e86ca60b8f"},"vehicle_type_id":"4","last_reported":1729001341,"current_range_meters":36000,"station_id":"ce4bhm92rcd13ifvqglg","pricing_plan_id":"cebpf4jnsgd1na2vs0mg"},{"bike_id":"0e3035f1-bcc8-4a12-b8e6-c44d4fed5489","system_id":"levelo_inurba_marseille","lat":43.29037,"lon":5.38651,"is_reserved":false,"is_disabled":false,"rental_uris":{"android":"levelo://app?vid=0e3035f1-bcc8-4a12-b8e6-c44d4fed5489","ios":"levelo://app?vid=0e3035f1-bcc8-4a12-b8e6-c44d4fed5489"},"vehicle_type_id":"4","last_reported":1729001341,"current_range_meters":4000,"station_id":"ce4bh4p2rcd13ifvqe0g","pricing_plan_id":"cebpf4jnsgd1na2vs0mg"},{"bike_id":"1af2813b-98a0-4b62-aaf8-89652b30f639","system_id":"levelo_inurba_marseille","lat":43.22933,"lon":5.35381,"is_reserved":false,"is_disabled":false,"rental_uris":{"android":"levelo://app?vid=1af2813b-98a0-4b62-aaf8-89652b30f639","ios":"levelo://app?vid=1af2813b-98a0-4b62-aaf8-89652b30f639"},"vehicle_type_id":"4","last_reported":1729001341,"current_range_meters":30000,"station_id":"cpo3532slgdg3j2ikp40","pricing_plan_id":"cebpf4jnsgd1na2vs0mg"},{"bike_id":"e9fd0602-5b6f-4fb3-8ddf-cffef75a3eff","system_id":"levelo_inurba_marseille","lat":43.29905,"lon":5.38156,"is_reserved":false,"is_disabled":false,"rental_uris":{"android":"levelo://app?vid=e9fd0602-5b6f-4fb3-8ddf-cffef75a3eff","ios":"levelo://app?vid=e9fd0602-5b6f-4fb3-8ddf-cffef75a3eff"},"vehicle_type_id":"4","last_reported":1729001341,"current_range_meters":37600,"station_id":"ce4bgj12rcd13ifvqbc0","pricing_plan_id":"cebpf4jnsgd1na2vs0mg"},{"bike_id":"e933622d-50e9-4399-b2c7-6b78123dd26c","system_id":"levelo_inurba_marseille","lat":43.25936,"lon":5.40895,"is_reserved":false,"is_disabled":false,"rental_uris":{"android":"levelo://app?vid=e933622d-50e9-4399-b2c7-6b78123dd26c","ios":"levelo://app?vid=e933622d-50e9-4399-b2c7-6b78123dd26c"},"vehicle_type_id":"4","last_reported":1729001341,"current_range_meters":3600,"station_id":"ce4bhm92rcd13ifvqglg","pricing_plan_id":"cebpf4jnsgd1na2vs0mg"},{"bike_id":"c518c0ad-ff11-4118-99a7-cda4d00057bb","system_id":"levelo_inurba_marseille","lat":43.29625,"lon":5.37155,"is_reserved":false,"is_disabled":false,"rental_uris":{"android":"levelo://app?vid=c518c0ad-ff11-4118-99a7-cda4d00057bb","ios":"levelo://app?vid=c518c0ad-ff11-4118-99a7-cda4d00057bb"},"vehicle_type_id":"4","last_reported":1729001341,"current_range_meters":38800,"station_id":"ce4bgnh2rcd13ifvqc0g","pricing_plan_id":"cebpf4jnsgd1na2vs0mg"},{"bike_id":"f93454e1-a669-4c63-a4ca-b572042c7971","system_id":"levelo_inurba_marseille","lat":43.23192,"lon":5.35558,"is_reserved":false,"is_disabled":false,"rental_uris":{"android":"levelo://app?vid=f93454e1-a669-4c63-a4ca-b572042c7971","ios":"levelo://app?vid=f93454e1-a669-4c63-a4ca-b572042c7971"},"vehicle_type_id":"4","last_reported":1729001341,"current_range_meters":25200,"station_id":"ce4bhu92rcd13ifvqi70","pricing_plan_id":"cebpf4jnsgd1na2vs0mg"},{"bike_id":"5669a460-910a-4d58-83f6-c6f594db9d43","system_id":"levelo_inurba_marseille","lat":43.289001,"lon":5.384259,"is_reserved":false,"is_disabled":false,"rental_uris":{"android":"levelo://app?vid=5669a460-910a-4d58-83f6-c6f594db9d43","ios":"levelo://app?vid=5669a460-910a-4d58-83f6-c6f594db9d43"},"vehicle_type_id":"4","last_reported":1729001341,"current_range_meters":27200,"station_id":"ce4bh612rcd13ifvqe6g","pricing_plan_id":"cebpf4jnsgd1na2vs0mg"},{"bike_id":"79ddf1f5-186b-4457-a77e-9d424f43d6e3","system_id":"levelo_inurba_marseille","lat":43.24075,"lon":5.3775,"is_reserved":false,"is_disabled":false,"rental_uris":{"android":"levelo://app?vid=79ddf1f5-186b-4457-a77e-9d424f43d6e3","ios":"levelo://app?vid=79ddf1f5-186b-4457-a77e-9d424f43d6e3"},"vehicle_type_id":"4","last_reported":1729001341,"current_range_meters":14400,"station_id":"ce4bhnp2rcd13ifvqgvg","pricing_plan_id":"cebpf4jnsgd1na2vs0mg"},{"bike_id":"7cc183be-297a-4f62-9e02-f9f0b2ca739b","system_id":"levelo_inurba_marseille","lat":43.28152,"lon":5.42647,"is_reserved":false,"is_disabled":false,"rental_uris":{"android":"levelo://app?vid=7cc183be-297a-4f62-9e02-f9f0b2ca739b","ios":"levelo://app?vid=7cc183be-297a-4f62-9e02-f9f0b2ca739b"},"vehicle_type_id":"4","last_reported":1729001341,"current_range_meters":3200,"station_id":"ce4bhnh2rcd13ifvqgug","pricing_plan_id":"cebpf4jnsgd1na2vs0mg"},{"bike_id":"167a3dcd-afcd-457e-8998-67360ace43c0","system_id":"levelo_inurba_marseille","lat":43.3375,"lon":5.37436,"is_reserved":false,"is_disabled":false,"rental_uris":{"android":"levelo://app?vid=167a3dcd-afcd-457e-8998-67360ace43c0","ios":"levelo://app?vid=167a3dcd-afcd-457e-8998-67360ace43c0"},"vehicle_type_id":"4","last_reported":1729001341,"current_range_meters":34000,"station_id":"","pricing_plan_id":"cebpf4jnsgd1na2vs0mg"},{"bike_id":"80940012-7788-425e-8e87-ada2e60a186b","system_id":"levelo_inurba_marseille","lat":43.29305,"lon":5.37178,"is_reserved":false,"is_disabled":false,"rental_uris":{"android":"levelo://app?vid=80940012-7788-425e-8e87-ada2e60a186b","ios":"levelo://app?vid=80940012-7788-425e-8e87-ada2e60a186b"},"vehicle_type_id":"4","last_reported":1729001341,"current_range_meters":36800,"station_id":"ce4bgh92rcd13ifvqb40","pricing_plan_id":"cebpf4jnsgd1na2vs0mg"},{"bike_id":"e890e235-e2ff-4a16-a8bd-4258b9a5605c","system_id":"levelo_inurba_marseille","lat":43.28262,"lon":5.35059,"is_reserved":false,"is_disabled":false,"rental_uris":{"android":"levelo://app?vid=e890e235-e2ff-4a16-a8bd-4258b9a5605c","ios":"levelo://app?vid=e890e235-e2ff-4a16-a8bd-4258b9a5605c"},"vehicle_type_id":"4","last_reported":1729001341,"current_range_meters":27200,"station_id":"ce4bhbp2rcd13ifvqerg","pricing_plan_id":"cebpf4jnsgd1na2vs0mg"},{"bike_id":"11af4c56-3918-45fe-865d-9cf9acc3a4ad","system_id":"levelo_inurba_marseille","lat":43.29585,"lon":5.36742,"is_reserved":false,"is_disabled":false,"rental_uris":{"android":"levelo://app?vid=11af4c56-3918-45fe-865d-9cf9acc3a4ad","ios":"levelo://app?vid=11af4c56-3918-45fe-865d-9cf9acc3a4ad"},"vehicle_type_id":"4","last_reported":1729001341,"current_range_meters":28000,"station_id":"ce4bgph2rcd13ifvqc2g","pricing_plan_id":"cebpf4jnsgd1na2vs0mg"},{"bike_id":"e6befd2e-de68-4df5-8309-09d49f9aa880","system_id":"levelo_inurba_marseille","lat":43.32334,"lon":5.40623,"is_reserved":false,"is_disabled":false,"rental_uris":{"android":"levelo://app?vid=e6befd2e-de68-4df5-8309-09d49f9aa880","ios":"levelo://app?vid=e6befd2e-de68-4df5-8309-09d49f9aa880"},"vehicle_type_id":"4","last_reported":1729001341,"current_range_meters":38000,"station_id":"ce4bhq92rcd13ifvqhjg","pricing_plan_id":"cebpf4jnsgd1na2vs0mg"},{"bike_id":"982702e0-e3ed-4c76-9014-7f4427361df7","system_id":"levelo_inurba_marseille","lat":43.25714,"lon":5.41112,"is_reserved":false,"is_disabled":false,"rental_uris":{"android":"levelo://app?vid=982702e0-e3ed-4c76-9014-7f4427361df7","ios":"levelo://app?vid=982702e0-e3ed-4c76-9014-7f4427361df7"},"vehicle_type_id":"4","last_reported":1729001341,"current_range_meters":16000,"station_id":"ce4bhkp2rcd13ifvqgd0","pricing_plan_id":"cebpf4jnsgd1na2vs0mg"},{"bike_id":"dde86e9c-08ab-447e-8977-98fcc15ceb96","system_id":"levelo_inurba_marseille","lat":43.24081,"lon":5.37742,"is_reserved":false,"is_disabled":false,"rental_uris":{"android":"levelo://app?vid=dde86e9c-08ab-447e-8977-98fcc15ceb96","ios":"levelo://app?vid=dde86e9c-08ab-447e-8977-98fcc15ceb96"},"vehicle_type_id":"4","last_reported":1729001341,"current_range_meters":12400,"station_id":"ce4bhnp2rcd13ifvqgvg","pricing_plan_id":"cebpf4jnsgd1na2vs0mg"},{"bike_id":"3f9ee4c6-9958-4abb-85a5-f462e8b48220","system_id":"levelo_inurba_marseille","lat":43.25102,"lon":5.40321,"is_reserved":false,"is_disabled":false,"rental_uris":{"android":"levelo://app?vid=3f9ee4c6-9958-4abb-85a5-f462e8b48220","ios":"levelo://app?vid=3f9ee4c6-9958-4abb-85a5-f462e8b48220"},"vehicle_type_id":"4","last_reported":1729001341,"current_range_meters":25600,"station_id":"ce4bhlh2rcd13ifvqgig","pricing_plan_id":"cebpf4jnsgd1na2vs0mg"},{"bike_id":"bda65524-aefd-425d-9ab8-3cffa107b208","system_id":"levelo_inurba_marseille","lat":43.30884,"lon":5.39642,"is_reserved":false,"is_disabled":false,"rental_uris":{"android":"levelo://app?vid=bda65524-aefd-425d-9ab8-3cffa107b208","ios":"levelo://app?vid=bda65524-aefd-425d-9ab8-3cffa107b208"},"vehicle_type_id":"4","last_reported":1729001341,"current_range_meters":38800,"station_id":"ce4bh012rcd13ifvqcv0","pricing_plan_id":"cebpf4jnsgd1na2vs0mg"},{"bike_id":"19164765-f747-4dce-910d-ab1a12f25d6e","system_id":"levelo_inurba_marseille","lat":43.29973,"lon":5.37167,"is_reserved":false,"is_disabled":false,"rental_uris":{"android":"levelo://app?vid=19164765-f747-4dce-910d-ab1a12f25d6e","ios":"levelo://app?vid=19164765-f747-4dce-910d-ab1a12f25d6e"},"vehicle_type_id":"4","last_reported":1729001341,"current_range_meters":37600,"station_id":"ce4bgr92rcd13ifvqc7g","pricing_plan_id":"cebpf4jnsgd1na2vs0mg"},{"bike_id":"1b87c42d-7c50-4b92-8a66-53344aea6fcd","system_id":"levelo_inurba_marseille","lat":43.29896,"lon":5.4367,"is_reserved":false,"is_disabled":false,"rental_uris":{"android":"levelo://app?vid=1b87c42d-7c50-4b92-8a66-53344aea6fcd","ios":"levelo://app?vid=1b87c42d-7c50-4b92-8a66-53344aea6fcd"},"vehicle_type_id":"4","last_reported":1729001341,"current_range_meters":27600,"station_id":"ce4bhpp2rcd13ifvqhfg","pricing_plan_id":"cebpf4jnsgd1na2vs0mg"},{"bike_id":"882a5bb6-5c40-44c8-823a-b385f54dd84b","system_id":"levelo_inurba_marseille","lat":43.31712,"lon":5.37742,"is_reserved":false,"is_disabled":false,"rental_uris":{"android":"levelo://app?vid=882a5bb6-5c40-44c8-823a-b385f54dd84b","ios":"levelo://app?vid=882a5bb6-5c40-44c8-823a-b385f54dd84b"},"vehicle_type_id":"4","last_reported":1729001341,"current_range_meters":24400,"station_id":"ce4bgth2rcd13ifvqch0","pricing_plan_id":"cebpf4jnsgd1na2vs0mg"},{"bike_id":"7dcb3bba-20f4-44c1-b614-f92b714c7908","system_id":"levelo_inurba_marseille","lat":43.28274,"lon":5.35071,"is_reserved":false,"is_disabled":false,"rental_uris":{"android":"levelo://app?vid=7dcb3bba-20f4-44c1-b614-f92b714c7908","ios":"levelo://app?vid=7dcb3bba-20f4-44c1-b614-f92b714c7908"},"vehicle_type_id":"4","last_reported":1729001341,"current_range_meters":8800,"station_id":"ce4bhbp2rcd13ifvqerg","pricing_plan_id":"cebpf4jnsgd1na2vs0mg"},{"bike_id":"6357a601-fc70-4c71-8492-bd589ba44f1d","system_id":"levelo_inurba_marseille","lat":43.29618,"lon":5.37164,"is_reserved":false,"is_disabled":false,"rental_uris":{"android":"levelo://app?vid=6357a601-fc70-4c71-8492-bd589ba44f1d","ios":"levelo://app?vid=6357a601-fc70-4c71-8492-bd589ba44f1d"},"vehicle_type_id":"4","last_reported":1729001341,"current_range_meters":22800,"station_id":"ce4bgnh2rcd13ifvqc0g","pricing_plan_id":"cebpf4jnsgd1na2vs0mg"},{"bike_id":"7ae05b75-3c9b-4b58-bf00-e7cc03e8a549","system_id":"levelo_inurba_marseille","lat":43.25932,"lon":5.40913,"is_reserved":false,"is_disabled":false,"rental_uris":{"android":"levelo://app?vid=7ae05b75-3c9b-4b58-bf00-e7cc03e8a549","ios":"levelo://app?vid=7ae05b75-3c9b-4b58-bf00-e7cc03e8a549"},"vehicle_type_id":"4","last_reported":1729001341,"current_range_meters":7200,"station_id":"ce4bhm92rcd13ifvqglg","pricing_plan_id":"cebpf4jnsgd1na2vs0mg"},{"bike_id":"6e9fdcb4-2620-495d-8b24-730920d91370","system_id":"levelo_inurba_marseille","lat":43.29189,"lon":5.35798,"is_reserved":false,"is_disabled":false,"rental_uris":{"android":"levelo://app?vid=6e9fdcb4-2620-495d-8b24-730920d91370","ios":"levelo://app?vid=6e9fdcb4-2620-495d-8b24-730920d91370"},"vehicle_type_id":"4","last_reported":1729001341,"current_range_meters":20000,"station_id":"ce4bhb12rcd13ifvqel0","pricing_plan_id":"cebpf4jnsgd1na2vs0mg"},{"bike_id":"654078bf-52ce-4cd7-9fb8-b05f8c2ddc6f","system_id":"levelo_inurba_marseille","lat":43.27056,"lon":5.40269,"is_reserved":false,"is_disabled":false,"rental_uris":{"android":"levelo://app?vid=654078bf-52ce-4cd7-9fb8-b05f8c2ddc6f","ios":"levelo://app?vid=654078bf-52ce-4cd7-9fb8-b05f8c2ddc6f"},"vehicle_type_id":"4","last_reported":1729001341,"current_range_meters":17200,"station_id":"ce4bhk92rcd13ifvqgc0","pricing_plan_id":"cebpf4jnsgd1na2vs0mg"},{"bike_id":"bcc45472-a91a-45cf-b939-cb2efdfd3ca4","system_id":"levelo_inurba_marseille","lat":43.2885,"lon":5.35848,"is_reserved":false,"is_disabled":false,"rental_uris":{"android":"levelo://app?vid=bcc45472-a91a-45cf-b939-cb2efdfd3ca4","ios":"levelo://app?vid=bcc45472-a91a-45cf-b939-cb2efdfd3ca4"},"vehicle_type_id":"4","last_reported":1729001341,"current_range_meters":8400,"station_id":"ce4bhb12rcd13ifvqem0","pricing_plan_id":"cebpf4jnsgd1na2vs0mg"},{"bike_id":"35079bfa-9f11-43bd-97f8-36d54bf92833","system_id":"levelo_inurba_marseille","lat":43.33756,"lon":5.3744,"is_reserved":false,"is_disabled":false,"rental_uris":{"android":"levelo://app?vid=35079bfa-9f11-43bd-97f8-36d54bf92833","ios":"levelo://app?vid=35079bfa-9f11-43bd-97f8-36d54bf92833"},"vehicle_type_id":"4","last_reported":1729001341,"current_range_meters":36400,"station_id":"","pricing_plan_id":"cebpf4jnsgd1na2vs0mg"},{"bike_id":"f89d27eb-34ff-4c5e-a463-4b44dea93d4e","system_id":"levelo_inurba_marseille","lat":43.229279,"lon":5.3538,"is_reserved":false,"is_disabled":false,"rental_uris":{"android":"levelo://app?vid=f89d27eb-34ff-4c5e-a463-4b44dea93d4e","ios":"levelo://app?vid=f89d27eb-34ff-4c5e-a463-4b44dea93d4e"},"vehicle_type_id":"4","last_reported":1729001341,"current_range_meters":20000,"station_id":"cpo3532slgdg3j2ikp40","pricing_plan_id":"cebpf4jnsgd1na2vs0mg"},{"bike_id":"bc1cccbc-d9f5-48e2-8404-e65337ad61e4","system_id":"levelo_inurba_marseille","lat":43.28277,"lon":5.3507,"is_reserved":false,"is_disabled":false,"rental_uris":{"android":"levelo://app?vid=bc1cccbc-d9f5-48e2-8404-e65337ad61e4","ios":"levelo://app?vid=bc1cccbc-d9f5-48e2-8404-e65337ad61e4"},"vehicle_type_id":"4","last_reported":1729001341,"current_range_meters":16000,"station_id":"ce4bhbp2rcd13ifvqerg","pricing_plan_id":"cebpf4jnsgd1na2vs0mg"},{"bike_id":"98de3cae-4984-4435-bbd9-3f7502c7c48b","system_id":"levelo_inurba_marseille","lat":43.27059,"lon":5.40255,"is_reserved":false,"is_disabled":false,"rental_uris":{"android":"levelo://app?vid=98de3cae-4984-4435-bbd9-3f7502c7c48b","ios":"levelo://app?vid=98de3cae-4984-4435-bbd9-3f7502c7c48b"},"vehicle_type_id":"4","last_reported":1729001341,"current_range_meters":10800,"station_id":"ce4bhk92rcd13ifvqgc0","pricing_plan_id":"cebpf4jnsgd1na2vs0mg"},{"bike_id":"11379aa6-17d9-45c7-8539-abb4d1c50ddc","system_id":"levelo_inurba_marseille","lat":43.2844,"lon":5.39205,"is_reserved":false,"is_disabled":false,"rental_uris":{"android":"levelo://app?vid=11379aa6-17d9-45c7-8539-abb4d1c50ddc","ios":"levelo://app?vid=11379aa6-17d9-45c7-8539-abb4d1c50ddc"},"vehicle_type_id":"4","last_reported":1729001341,"current_range_meters":38800,"station_id":"ce4bh292rcd13ifvqdg0","pricing_plan_id":"cebpf4jnsgd1na2vs0mg"},{"bike_id":"f269126c-1b0b-4a1a-a1d6-f8c3716f5336","system_id":"levelo_inurba_marseille","lat":43.23197,"lon":5.35554,"is_reserved":false,"is_disabled":false,"rental_uris":{"android":"levelo://app?vid=f269126c-1b0b-4a1a-a1d6-f8c3716f5336","ios":"levelo://app?vid=f269126c-1b0b-4a1a-a1d6-f8c3716f5336"},"vehicle_type_id":"4","last_reported":1729001341,"current_range_meters":32800,"station_id":"ce4bhu92rcd13ifvqi70","pricing_plan_id":"cebpf4jnsgd1na2vs0mg"},{"bike_id":"a2cb162a-1345-464a-b9aa-a7cc03f752f5","system_id":"levelo_inurba_marseille","lat":43.28938,"lon":5.36642,"is_reserved":false,"is_disabled":false,"rental_uris":{"android":"levelo://app?vid=a2cb162a-1345-464a-b9aa-a7cc03f752f5","ios":"levelo://app?vid=a2cb162a-1345-464a-b9aa-a7cc03f752f5"},"vehicle_type_id":"4","last_reported":1729001341,"current_range_meters":26000,"station_id":"ce4bhap2rcd13ifvqek0","pricing_plan_id":"cebpf4jnsgd1na2vs0mg"},{"bike_id":"73828453-8581-47d2-8f0c-9e97f162aae7","system_id":"levelo_inurba_marseille","lat":43.29796,"lon":5.38101,"is_reserved":false,"is_disabled":false,"rental_uris":{"android":"levelo://app?vid=73828453-8581-47d2-8f0c-9e97f162aae7","ios":"levelo://app?vid=73828453-8581-47d2-8f0c-9e97f162aae7"},"vehicle_type_id":"4","last_reported":1729001341,"current_range_meters":11200,"station_id":"ce4bgip2rcd13ifvqbb0","pricing_plan_id":"cebpf4jnsgd1na2vs0mg"},{"bike_id":"65c27d5f-deaf-4135-8449-c6b9e59d02c5","system_id":"levelo_inurba_marseille","lat":43.29538,"lon":5.39391,"is_reserved":false,"is_disabled":false,"rental_uris":{"android":"levelo://app?vid=65c27d5f-deaf-4135-8449-c6b9e59d02c5","ios":"levelo://app?vid=65c27d5f-deaf-4135-8449-c6b9e59d02c5"},"vehicle_type_id":"4","last_reported":1729001341,"current_range_meters":14800,"station_id":"ce4bh292rcd13ifvqdf0","pricing_plan_id":"cebpf4jnsgd1na2vs0mg"},{"bike_id":"eaae64e1-c768-4204-8a79-b798710a6c3a","system_id":"levelo_inurba_marseille","lat":43.2906,"lon":5.37157,"is_reserved":false,"is_disabled":false,"rental_uris":{"android":"levelo://app?vid=eaae64e1-c768-4204-8a79-b798710a6c3a","ios":"levelo://app?vid=eaae64e1-c768-4204-8a79-b798710a6c3a"},"vehicle_type_id":"4","last_reported":1729001341,"current_range_meters":10000,"station_id":"ce4bh5p2rcd13ifvqe4g","pricing_plan_id":"cebpf4jnsgd1na2vs0mg"},{"bike_id":"48020f3e-325b-4a66-a8f5-6015735bf72a","system_id":"levelo_inurba_marseille","lat":43.30547,"lon":5.36541,"is_reserved":false,"is_disabled":false,"rental_uris":{"android":"levelo://app?vid=48020f3e-325b-4a66-a8f5-6015735bf72a","ios":"levelo://app?vid=48020f3e-325b-4a66-a8f5-6015735bf72a"},"vehicle_type_id":"4","last_reported":1729001341,"current_range_meters":30000,"station_id":"ce4bgs12rcd13ifvqcag","pricing_plan_id":"cebpf4jnsgd1na2vs0mg"},{"bike_id":"d9200838-259f-4318-b9f7-5065548e4415","system_id":"levelo_inurba_marseille","lat":43.27989,"lon":5.41657,"is_reserved":false,"is_disabled":false,"rental_uris":{"android":"levelo://app?vid=d9200838-259f-4318-b9f7-5065548e4415","ios":"levelo://app?vid=d9200838-259f-4318-b9f7-5065548e4415"},"vehicle_type_id":"4","last_reported":1729001341,"current_range_meters":9600,"station_id":"ce4bho12rcd13ifvqh1g","pricing_plan_id":"cebpf4jnsgd1na2vs0mg"},{"bike_id":"94d48054-be54-488d-a425-2deb433f452c","system_id":"levelo_inurba_marseille","lat":43.29804,"lon":5.36433,"is_reserved":false,"is_disabled":false,"rental_uris":{"android":"levelo://app?vid=94d48054-be54-488d-a425-2deb433f452c","ios":"levelo://app?vid=94d48054-be54-488d-a425-2deb433f452c"},"vehicle_type_id":"4","last_reported":1729001341,"current_range_meters":24800,"station_id":"ce4bgnh2rcd13ifvqc0g","pricing_plan_id":"cebpf4jnsgd1na2vs0mg"},{"bike_id":"471de501-211a-4081-b66d-5372387f1a47","system_id":"levelo_inurba_marseille","lat":43.292,"lon":5.35807,"is_reserved":false,"is_disabled":false,"rental_uris":{"android":"levelo://app?vid=471de501-211a-4081-b66d-5372387f1a47","ios":"levelo://app?vid=471de501-211a-4081-b66d-5372387f1a47"},"vehicle_type_id":"4","last_reported":1729001341,"current_range_meters":26800,"station_id":"ce4bhb12rcd13ifvqel0","pricing_plan_id":"cebpf4jnsgd1na2vs0mg"},{"bike_id":"14ec08ed-3803-4409-89e3-ad9283233d7d","system_id":"levelo_inurba_marseille","lat":43.25725,"lon":5.41106,"is_reserved":false,"is_disabled":false,"rental_uris":{"android":"levelo://app?vid=14ec08ed-3803-4409-89e3-ad9283233d7d","ios":"levelo://app?vid=14ec08ed-3803-4409-89e3-ad9283233d7d"},"vehicle_type_id":"4","last_reported":1729001341,"current_range_meters":29600,"station_id":"ce4bhkp2rcd13ifvqgd0","pricing_plan_id":"cebpf4jnsgd1na2vs0mg"},{"bike_id":"a6a9066f-7878-4bb7-afea-49d582888e42","system_id":"levelo_inurba_marseille","lat":43.25002,"lon":5.38923,"is_reserved":false,"is_disabled":false,"rental_uris":{"android":"levelo://app?vid=a6a9066f-7878-4bb7-afea-49d582888e42","ios":"levelo://app?vid=a6a9066f-7878-4bb7-afea-49d582888e42"},"vehicle_type_id":"4","last_reported":1729001341,"current_range_meters":25200,"station_id":"ce4bhgp2rcd13ifvqfd0","pricing_plan_id":"cebpf4jnsgd1na2vs0mg"},{"bike_id":"1616c9ce-4d58-4b41-a0ce-686df9d6f698","system_id":"levelo_inurba_marseille","lat":43.27811,"lon":5.40718,"is_reserved":false,"is_disabled":false,"rental_uris":{"android":"levelo://app?vid=1616c9ce-4d58-4b41-a0ce-686df9d6f698","ios":"levelo://app?vid=1616c9ce-4d58-4b41-a0ce-686df9d6f698"},"vehicle_type_id":"4","last_reported":1729001341,"current_range_meters":19200,"station_id":"ce4bhnh2rcd13ifvqgtg","pricing_plan_id":"cebpf4jnsgd1na2vs0mg"},{"bike_id":"33708869-c44a-4453-a0af-f4a6d0851ea1","system_id":"levelo_inurba_marseille","lat":43.2958,"lon":5.36742,"is_reserved":false,"is_disabled":false,"rental_uris":{"android":"levelo://app?vid=33708869-c44a-4453-a0af-f4a6d0851ea1","ios":"levelo://app?vid=33708869-c44a-4453-a0af-f4a6d0851ea1"},"vehicle_type_id":"4","last_reported":1729001341,"current_range_meters":25600,"station_id":"ce4bgph2rcd13ifvqc2g","pricing_plan_id":"cebpf4jnsgd1na2vs0mg"},{"bike_id":"a166532c-b44a-4c20-8d5e-e7f6fe91c462","system_id":"levelo_inurba_marseille","lat":43.28272,"lon":5.35072,"is_reserved":false,"is_disabled":false,"rental_uris":{"android":"levelo://app?vid=a166532c-b44a-4c20-8d5e-e7f6fe91c462","ios":"levelo://app?vid=a166532c-b44a-4c20-8d5e-e7f6fe91c462"},"vehicle_type_id":"4","last_reported":1729001341,"current_range_meters":12000,"station_id":"ce4bhbp2rcd13ifvqerg","pricing_plan_id":"cebpf4jnsgd1na2vs0mg"},{"bike_id":"6e5c46e3-b28c-43fc-a8d5-1f3cb78768d4","system_id":"levelo_inurba_marseille","lat":43.30539,"lon":5.36548,"is_reserved":false,"is_disabled":false,"rental_uris":{"android":"levelo://app?vid=6e5c46e3-b28c-43fc-a8d5-1f3cb78768d4","ios":"levelo://app?vid=6e5c46e3-b28c-43fc-a8d5-1f3cb78768d4"},"vehicle_type_id":"4","last_reported":1729001341,"current_range_meters":38000,"station_id":"ce4bgs12rcd13ifvqcag","pricing_plan_id":"cebpf4jnsgd1na2vs0mg"},{"bike_id":"077063d5-0af0-4158-a3ae-505784050f21","system_id":"levelo_inurba_marseille","lat":43.28705,"lon":5.39986,"is_reserved":false,"is_disabled":false,"rental_uris":{"android":"levelo://app?vid=077063d5-0af0-4158-a3ae-505784050f21","ios":"levelo://app?vid=077063d5-0af0-4158-a3ae-505784050f21"},"vehicle_type_id":"4","last_reported":1729001341,"current_range_meters":19600,"station_id":"ce4bho92rcd13ifvqh3g","pricing_plan_id":"cebpf4jnsgd1na2vs0mg"},{"bike_id":"f1fb6911-6662-4e20-a038-c35ec3de9cc8","system_id":"levelo_inurba_marseille","lat":43.242264,"lon":5.397035,"is_reserved":false,"is_disabled":false,"rental_uris":{"android":"levelo://app?vid=f1fb6911-6662-4e20-a038-c35ec3de9cc8","ios":"levelo://app?vid=f1fb6911-6662-4e20-a038-c35ec3de9cc8"},"vehicle_type_id":"4","last_reported":1729001341,"current_range_meters":4800,"station_id":"ce4bhn12rcd13ifvqgpg","pricing_plan_id":"cebpf4jnsgd1na2vs0mg"},{"bike_id":"88d4cbb3-08b8-4a35-9de7-2d7ba89796b1","system_id":"levelo_inurba_marseille","lat":43.29003,"lon":5.35617,"is_reserved":false,"is_disabled":false,"rental_uris":{"android":"levelo://app?vid=88d4cbb3-08b8-4a35-9de7-2d7ba89796b1","ios":"levelo://app?vid=88d4cbb3-08b8-4a35-9de7-2d7ba89796b1"},"vehicle_type_id":"4","last_reported":1729001341,"current_range_meters":32800,"station_id":"ce4bhb92rcd13ifvqen0","pricing_plan_id":"cebpf4jnsgd1na2vs0mg"},{"bike_id":"7681f900-cf6b-4956-b83c-b2cbf978ea48","system_id":"levelo_inurba_marseille","lat":43.32483,"lon":5.36564,"is_reserved":false,"is_disabled":false,"rental_uris":{"android":"levelo://app?vid=7681f900-cf6b-4956-b83c-b2cbf978ea48","ios":"levelo://app?vid=7681f900-cf6b-4956-b83c-b2cbf978ea48"},"vehicle_type_id":"4","last_reported":1729001341,"current_range_meters":32400,"station_id":"ce4bhs12rcd13ifvqhvg","pricing_plan_id":"cebpf4jnsgd1na2vs0mg"},{"bike_id":"0c370cb2-99b0-468e-91e1-f9f904071bd4","system_id":"levelo_inurba_marseille","lat":43.267792,"lon":5.393963,"is_reserved":false,"is_disabled":false,"rental_uris":{"android":"levelo://app?vid=0c370cb2-99b0-468e-91e1-f9f904071bd4","ios":"levelo://app?vid=0c370cb2-99b0-468e-91e1-f9f904071bd4"},"vehicle_type_id":"4","last_reported":1729001341,"current_range_meters":27600,"station_id":"ce4bhh12rcd13ifvqfg0","pricing_plan_id":"cebpf4jnsgd1na2vs0mg"},