{"last_updated":1707156537,"ttl":30,"version":"2.2","data":{"bikes":[{"bike_id":"71e15081-c5d0-4d05-8a2a-1589a460bcca","system_id":"levelo_inurba_marseille","lat":43.309076,"lon":5.368465,"is_reserved":false,"is_disabled":false,"rental_uris":{"android":"levelo://app?vid=71e15081-c5d0-4d05-8a2a-1589a460bcca","ios":"levelo://app?vid=71e15081-c5d0-4d05-8a2a-1589a460bcca"},"vehicle_type_id":"4","last_reported":1707156537,"current_range_meters":2000,"station_id":"ce4bgn92rcd13ifvqbvg","pricing_plan_id":"free"},{"bike_id":"816516e6-6c73-4669-a5fa-0376e2acaffb","system_id":"levelo_inurba_marseille","lat":43.314811,"lon":5.373103,"is_reserved":false,"is_disabled":false,"rental_uris":{"android":"levelo://app?vid=816516e6-6c73-4669-a5fa-0376e2acaffb","ios":"levelo://app?vid=816516e6-6c73-4669-a5fa-0376e2acaffb"},"vehicle_type_id":"4","last_reported":1707156537,"current_range_meters":18800,"station_id":"ce4bgt12rcd13ifvqcd0","pricing_plan_id":"free"},{"bike_id":"b40bde62-4018-4e4c-811a-9b5f1e25dfc5","system_id":"levelo_inurba_marseille","lat":43.314811,"lon":5.373103,"is_reserved":false,"is_disabled":false,"rental_uris":{"android":"levelo://app?vid=b40bde62-4018-4e4c-811a-9b5f1e25dfc5","ios":"levelo://app?vid=b40bde62-4018-4e4c-811a-9b5f1e25dfc5"},"vehicle_type_id":"4","last_reported":1707156537,"current_range_meters":18000,"station_id":"ce4bgt12rcd13ifvqcd0","pricing_plan_id":"free"},{"bike_id":"2dab99b4-f7ed-47d5-aeb0-930d743f35c5","system_id":"levelo_inurba_marseille","lat":43.309039,"lon":5.371797,"is_reserved":false,"is_disabled":false,"rental_uris":{"android":"levelo://app?vid=2dab99b4-f7ed-47d5-aeb0-930d743f35c5","ios":"levelo://app?vid=2dab99b4-f7ed-47d5-aeb0-930d743f35c5"},"vehicle_type_id":"4","last_reported":1707156537,"current_range_meters":4800,"station_id":"ce4bguh2rcd13ifvqckg","pricing_plan_id":"free"},{"bike_id":"931d592b-db93-4cf3-b5f4-ff651b48c72c","system_id":"levelo_inurba_marseille","lat":43.309039,"lon":5.371797,"is_reserved":false,"is_disabled":false,"rental_uris":{"android":"levelo://app?vid=931d592b-db93-4cf3-b5f4-ff651b48c72c","ios":"levelo://app?vid=931d592b-db93-4cf3-b5f4-ff651b48c72c"},"vehicle_type_id":"4","last_reported":1707156537,"current_range_meters":28400,"station_id":"ce4bguh2rcd13ifvqckg","pricing_plan_id":"free"},{"bike_id":"18c378d2-816b-442f-bf67-308d573637d4","system_id":"levelo_inurba_marseille","lat":43.309039,"lon":5.371797,"is_reserved":false,"is_disabled":false,"rental_uris":{"android":"levelo://app?vid=18c378d2-816b-442f-bf67-308d573637d4","ios":"levelo://app?vid=18c378d2-816b-442f-bf67-308d573637d4"},"vehicle_type_id":"4","last_reported":1707156537,"current_range_meters":27600,"station_id":"ce4bguh2rcd13ifvqckg","pricing_plan_id":"free"},{"bike_id":"65e7e5e4-e984-4573-a311-4b70b2ce6ac5","system_id":"levelo_inurba_marseille","lat":43.31033,"lon":5.37644,"is_reserved":false,"is_disabled":false,"rental_uris":{"android":"levelo://app?vid=65e7e5e4-e984-4573-a311-4b70b2ce6ac5","ios":"levelo://app?vid=65e7e5e4-e984-4573-a311-4b70b2ce6ac5"},"vehicle_type_id":"4","last_reported":1707156537,"current_range_meters":24400,"station_id":"","pricing_plan_id":"free"},{"bike_id":"c95f0f32-b61a-44b5-a48a-7f315a6ec278","system_id":"levelo_inurba_marseille","lat":43.30542,"lon":5.36552,"is_reserved":false,"is_disabled":false,"rental_uris":{"android":"levelo://app?vid=c95f0f32-b61a-44b5-a48a-7f315a6ec278","ios":"levelo://app?vid=c95f0f32-b61a-44b5-a48a-7f315a6ec278"},"vehicle_type_id":"4","last_reported":1707156537,"current_range_meters":0,"station_id":"ce4bgs12rcd13ifvqcag","pricing_plan_id":"free"},{"bike_id":"da424f71-a0b5-4298-8a1b-548b722215db","system_id":"levelo_inurba_marseille","lat":43.30538,"lon":5.36551,"is_reserved":false,"is_disabled":false,"rental_uris":{"android":"levelo://app?vid=da424f71-a0b5-4298-8a1b-548b722215db","ios":"levelo://app?vid=da424f71-a0b5-4298-8a1b-548b722215db"},"vehicle_type_id":"4","last_reported":1707156537,"current_range_meters":0,"station_id":"ce4bgs12rcd13ifvqcag","pricing_plan_id":"free"},{"bike_id":"85af6a9a-3a07-42d0-b7fd-5e223d9297bb","system_id":"levelo_inurba_marseille","lat":43.30538,"lon":5.36549,"is_reserved":false,"is_disabled":false,"rental_uris":{"android":"levelo://app?vid=85af6a9a-3a07-42d0-b7fd-5e223d9297bb","ios":"levelo://app?vid=85af6a9a-3a07-42d0-b7fd-5e223d9297bb"},"vehicle_type_id":"4","last_reported":1707156537,"current_range_meters":11600,"station_id":"ce4bgs12rcd13ifvqcag","pricing_plan_id":"free"},{"bike_id":"92c314a0-3c14-4f7f-aaeb-5bf0a048d2a1","system_id":"levelo_inurba_marseille","lat":43.305706,"lon":5.365654,"is_reserved":false,"is_disabled":false,"rental_uris":{"android":"levelo://app?vid=92c314a0-3c14-4f7f-aaeb-5bf0a048d2a1","ios":"levelo://app?vid=92c314a0-3c14-4f7f-aaeb-5bf0a048d2a1"},"vehicle_type_id":"4","last_reported":1707156537,"current_range_meters":16400,"station_id":"ce4bgs12rcd13ifvqcag","pricing_plan_id":"free"},{"bike_id":"0940f8e9-0e29-491e-b69b-00a1f0a14f4f","system_id":"levelo_inurba_marseille","lat":43.304997,"lon":5.366873,"is_reserved":false,"is_disabled":false,"rental_uris":{"android":"levelo://app?vid=0940f8e9-0e29-491e-b69b-00a1f0a14f4f","ios":"levelo://app?vid=0940f8e9-0e29-491e-b69b-00a1f0a14f4f"},"vehicle_type_id":"4","last_reported":1707156537,"current_range_meters":0,"station_id":"ce4bgrp2rcd13ifvqc9g","pricing_plan_id":"free"},{"bike_id":"acfa8085-d09f-4488-8f13-f023023c8b73","system_id":"levelo_inurba_marseille","lat":43.311131,"lon":5.377651,"is_reserved":false,"is_disabled":false,"rental_uris":{"android":"levelo://app?vid=acfa8085-d09f-4488-8f13-f023023c8b73","ios":"levelo://app?vid=acfa8085-d09f-4488-8f13-f023023c8b73"},"vehicle_type_id":"4","last_reported":1707156537,"current_range_meters":24000,"station_id":"ce4bgt92rcd13ifvqcg0","pricing_plan_id":"free"},{"bike_id":"9f627477-7ccf-4709-b6be-75724d7504d3","system_id":"levelo_inurba_marseille","lat":43.31129,"lon":5.37772,"is_reserved":false,"is_disabled":false,"rental_uris":{"android":"levelo://app?vid=9f627477-7ccf-4709-b6be-75724d7504d3","ios":"levelo://app?vid=9f627477-7ccf-4709-b6be-75724d7504d3"},"vehicle_type_id":"4","last_reported":1707156537,"current_range_meters":30800,"station_id":"ce4bgt92rcd13ifvqcg0","pricing_plan_id":"free"},{"bike_id":"502eb146-ad73-4c2c-8c7c-5cacb12094eb","system_id":"levelo_inurba_marseille","lat":43.311131,"lon":5.377651,"is_reserved":false,"is_disabled":false,"rental_uris":{"android":"levelo://app?vid=502eb146-ad73-4c2c-8c7c-5cacb12094eb","ios":"levelo://app?vid=502eb146-ad73-4c2c-8c7c-5cacb12094eb"},"vehicle_type_id":"4","last_reported":1707156537,"current_range_meters":4800,"station_id":"ce4bgt92rcd13ifvqcg0","pricing_plan_id":"free"},{"bike_id":"5d15c898-e361-4437-86f7-777ef21c6dcc","system_id":"levelo_inurba_marseille","lat":43.311131,"lon":5.377651,"is_reserved":false,"is_disabled":false,"rental_uris":{"android":"levelo://app?vid=5d15c898-e361-4437-86f7-777ef21c6dcc","ios":"levelo://app?vid=5d15c898-e361-4437-86f7-777ef21c6dcc"},"vehicle_type_id":"4","last_reported":1707156537,"current_range_meters":19200,"station_id":"ce4bgt92rcd13ifvqcg0","pricing_plan_id":"free"},{"bike_id":"4f23887c-572a-4efe-8029-5e1b6cdbc4af","system_id":"levelo_inurba_marseille","lat":43.311131,"lon":5.377651,"is_reserved":false,"is_disabled":false,"rental_uris":{"android":"levelo://app?vid=4f23887c-572a-4efe-8029-5e1b6cdbc4af","ios":"levelo://app?vid=4f23887c-572a-4efe-8029-5e1b6cdbc4af"},"vehicle_type_id":"4","last_reported":1707156537,"current_range_meters":800,"station_id":"ce4bgt92rcd13ifvqcg0","pricing_plan_id":"free"},{"bike_id":"ba0d1443-55ba-44c1-a7ee-9cdcb81b199c","system_id":"levelo_inurba_marseille","lat":43.307945,"lon":5.376487,"is_reserved":false,"is_disabled":false,"rental_uris":{"android":"levelo://app?vid=ba0d1443-55ba-44c1-a7ee-9cdcb81b199c","ios":"levelo://app?vid=ba0d1443-55ba-44c1-a7ee-9cdcb81b199c"},"vehicle_type_id":"4","last_reported":1707156537,"current_range_meters":6800,"station_id":"ce4bgv92rcd13ifvqcq0","pricing_plan_id":"free"},{"bike_id":"929beef4-557d-4b94-b906-93bdb251d0fc","system_id":"levelo_inurba_marseille","lat":43.30789,"lon":5.37645,"is_reserved":false,"is_disabled":false,"rental_uris":{"android":"levelo://app?vid=929beef4-557d-4b94-b906-93bdb251d0fc","ios":"levelo://app?vid=929beef4-557d-4b94-b906-93bdb251d0fc"},"vehicle_type_id":"4","last_reported":1707156537,"current_range_meters":4400,"station_id":"ce4bgv92rcd13ifvqcq0","pricing_plan_id":"free"},{"bike_id":"061fa744-fcc9-4541-9209-21fbcda1f72d","system_id":"levelo_inurba_marseille","lat":43.317075,"lon":5.377367,"is_reserved":false,"is_disabled":false,"rental_uris":{"android":"levelo://app?vid=061fa744-fcc9-4541-9209-21fbcda1f72d","ios":"levelo://app?vid=061fa744-fcc9-4541-9209-21fbcda1f72d"},"vehicle_type_id":"4","last_reported":1707156537,"current_range_meters":30400,"station_id":"ce4bgth2rcd13ifvqch0","pricing_plan_id":"free"},{"bike_id":"720e0343-79e1-4a7f-b67b-a5e9e8907370","system_id":"levelo_inurba_marseille","lat":43.31712,"lon":5.37766,"is_reserved":false,"is_disabled":false,"rental_uris":{"android":"levelo://app?vid=720e0343-79e1-4a7f-b67b-a5e9e8907370","ios":"levelo://app?vid=720e0343-79e1-4a7f-b67b-a5e9e8907370"},"vehicle_type_id":"4","last_reported":1707156537,"current_range_meters":0,"station_id":"ce4bgth2rcd13ifvqch0","pricing_plan_id":"free"},{"bike_id":"09e8e643-54be-43e0-8ece-0fcf23ec3a08","system_id":"levelo_inurba_marseille","lat":43.30304,"lon":5.368987,"is_reserved":false,"is_disabled":false,"rental_uris":{"android":"levelo://app?vid=09e8e643-54be-43e0-8ece-0fcf23ec3a08","ios":"levelo://app?vid=09e8e643-54be-43e0-8ece-0fcf23ec3a08"},"vehicle_type_id":"4","last_reported":1707156537,"current_range_meters":0,"station_id":"ce4bgqh2rcd13ifvqc5g","pricing_plan_id":"free"},{"bike_id":"c23083ef-568b-425b-b79d-374ce60c31bd","system_id":"levelo_inurba_marseille","lat":43.308126,"lon":5.381348,"is_reserved":false,"is_disabled":false,"rental_uris":{"android":"levelo://app?vid=c23083ef-568b-425b-b79d-374ce60c31bd","ios":"levelo://app?vid=c23083ef-568b-425b-b79d-374ce60c31bd"},"vehicle_type_id":"4","last_reported":1707156537,"current_range_meters":0,"station_id":"ce4bgt12rcd13ifvqce0","pricing_plan_id":"free"},{"bike_id":"7bff2d43-e1ab-4f6b-ba4c-599f68638097","system_id":"levelo_inurba_marseille","lat":43.308025,"lon":5.381445,"is_reserved":false,"is_disabled":false,"rental_uris":{"android":"levelo://app?vid=7bff2d43-e1ab-4f6b-ba4c-599f68638097","ios":"levelo://app?vid=7bff2d43-e1ab-4f6b-ba4c-599f68638097"},"vehicle_type_id":"4","last_reported":1707156537,"current_range_meters":0,"station_id":"ce4bgt12rcd13ifvqce0","pricing_plan_id":"free"},{"bike_id":"81c8fdb5-3f94-422f-811a-1baf36569011","system_id":"levelo_inurba_marseille","lat":43.30801,"lon":5.38153,"is_reserved":false,"is_disabled":false,"rental_uris":{"android":"levelo://app?vid=81c8fdb5-3f94-422f-811a-1baf36569011","ios":"levelo://app?vid=81c8fdb5-3f94-422f-811a-1baf36569011"},"vehicle_type_id":"4","last_reported":1707156537,"current_range_meters":20400,"station_id":"ce4bgt12rcd13ifvqce0","pricing_plan_id":"free"},{"bike_id":"dd1399d0-e3e4-4425-b797-f6e3caf3a369","system_id":"levelo_inurba_marseille","lat":43.308012,"lon":5.381511,"is_reserved":false,"is_disabled":false,"rental_uris":{"android":"levelo://app?vid=dd1399d0-e3e4-4425-b797-f6e3caf3a369","ios":"levelo://app?vid=dd1399d0-e3e4-4425-b797-f6e3caf3a369"},"vehicle_type_id":"4","last_reported":1707156537,"current_range_meters":12400,"station_id":"ce4bgt12rcd13ifvqce0","pricing_plan_id":"free"},{"bike_id":"685e70ec-aeac-4f9e-994e-2ef58a19a9d0","system_id":"levelo_inurba_marseille","lat":43.308012,"lon":5.381511,"is_reserved":false,"is_disabled":false,"rental_uris":{"android":"levelo://app?vid=685e70ec-aeac-4f9e-994e-2ef58a19a9d0","ios":"levelo://app?vid=685e70ec-aeac-4f9e-994e-2ef58a19a9d0"},"vehicle_type_id":"4","last_reported":1707156537,"current_range_meters":14400,"station_id":"ce4bgt12rcd13ifvqce0","pricing_plan_id":"free"},{"bike_id":"f6351ead-dd8e-42b3-a307-88dc1e8c48a7","system_id":"levelo_inurba_marseille","lat":43.304606,"lon":5.379026,"is_reserved":false,"is_disabled":false,"rental_uris":{"android":"levelo://app?vid=f6351ead-dd8e-42b3-a307-88dc1e8c48a7","ios":"levelo://app?vid=f6351ead-dd8e-42b3-a307-88dc1e8c48a7"},"vehicle_type_id":"4","last_reported":1707156537,"current_range_meters":12000,"station_id":"ce4bgup2rcd13ifvqcn0","pricing_plan_id":"free"},{"bike_id":"af194b2f-e009-4732-aa23-9b2c04ad31e7","system_id":"levelo_inurba_marseille","lat":43.324771,"lon":5.36557,"is_reserved":false,"is_disabled":false,"rental_uris":{"android":"levelo://app?vid=af194b2f-e009-4732-aa23-9b2c04ad31e7","ios":"levelo://app?vid=af194b2f-e009-4732-aa23-9b2c04ad31e7"},"vehicle_type_id":"4","last_reported":1707156537,"current_range_meters":17600,"station_id":"ce4bhs12rcd13ifvqhvg","pricing_plan_id":"free"},{"bike_id":"f0f691b9-dd6f-468d-81e7-9c4554e92ec8","system_id":"levelo_inurba_marseille","lat":43.301429,"lon":5.37413,"is_reserved":false,"is_disabled":false,"rental_uris":{"android":"levelo://app?vid=f0f691b9-dd6f-468d-81e7-9c4554e92ec8","ios":"levelo://app?vid=f0f691b9-dd6f-468d-81e7-9c4554e92ec8"},"vehicle_type_id":"4","last_reported":1707156537,"current_range_meters":16400,"station_id":"ce4bgs92rcd13ifvqcc0","pricing_plan_id":"free"},{"bike_id":"1cdc8df9-000e-4e0e-a6f3-f37b19fd07b2","system_id":"levelo_inurba_marseille","lat":43.31991,"lon":5.38156,"is_reserved":false,"is_disabled":false,"rental_uris":{"android":"levelo://app?vid=1cdc8df9-000e-4e0e-a6f3-f37b19fd07b2","ios":"levelo://app?vid=1cdc8df9-000e-4e0e-a6f3-f37b19fd07b2"},"vehicle_type_id":"4","last_reported":1707156537,"current_range_meters":1600,"station_id":"ce4bhr12rcd13ifvqhpg","pricing_plan_id":"free"},{"bike_id":"12ce1b51-e513-48d4-8826-d38689553faa","system_id":"levelo_inurba_marseille","lat":43.31998,"lon":5.38152,"is_reserved":false,"is_disabled":false,"rental_uris":{"android":"levelo://app?vid=12ce1b51-e513-48d4-8826-d38689553faa","ios":"levelo://app?vid=12ce1b51-e513-48d4-8826-d38689553faa"},"vehicle_type_id":"4","last_reported":1707156537,"current_range_meters":2400,"station_id":"ce4bhr12rcd13ifvqhpg","pricing_plan_id":"free"},{"bike_id":"d91ddaaf-996a-434e-b562-f2ffb54f2299","system_id":"levelo_inurba_marseille","lat":43.31997,"lon":5.38167,"is_reserved":false,"is_disabled":false,"rental_uris":{"android":"levelo://app?vid=d91ddaaf-996a-434e-b562-f2ffb54f2299","ios":"levelo://app?vid=d91ddaaf-996a-434e-b562-f2ffb54f2299"},"vehicle_type_id":"4","last_reported":1707156537,"current_range_meters":4400,"station_id":"ce4bhr12rcd13ifvqhpg","pricing_plan_id":"free"},{"bike_id":"736ca302-38a9-4242-9da2-bc3d7a459068","system_id":"levelo_inurba_marseille","lat":43.31368,"lon":5.38488,"is_reserved":false,"is_disabled":false,"rental_uris":{"android":"levelo://app?vid=736ca302-38a9-4242-9da2-bc3d7a459068","ios":"levelo://app?vid=736ca302-38a9-4242-9da2-bc3d7a459068"},"vehicle_type_id":"4","last_reported":1707156537,"current_range_meters":18400,"station_id":"ce4bgt92rcd13ifvqcf0","pricing_plan_id":"free"},{"bike_id":"3a073ec4-9b86-425b-83fd-9731bccea806","system_id":"levelo_inurba_marseille","lat":43.313697,"lon":5.384903,"is_reserved":false,"is_disabled":false,"rental_uris":{"android":"levelo://app?vid=3a073ec4-9b86-425b-83fd-9731bccea806","ios":"levelo://app?vid=3a073ec4-9b86-425b-83fd-9731bccea806"},"vehicle_type_id":"4","last_reported":1707156537,"current_range_meters":1600,"station_id":"ce4bgt92rcd13ifvqcf0","pricing_plan_id":"free"},{"bike_id":"8d144736-a616-479a-b5cf-a494bab6ac53","system_id":"levelo_inurba_marseille","lat":43.31357,"lon":5.384927,"is_reserved":false,"is_disabled":false,"rental_uris":{"android":"levelo://app?vid=8d144736-a616-479a-b5cf-a494bab6ac53","ios":"levelo://app?vid=8d144736-a616-479a-b5cf-a494bab6ac53"},"vehicle_type_id":"4","last_reported":1707156537,"current_range_meters":10800,"station_id":"ce4bgt92rcd13ifvqcf0","pricing_plan_id":"free"},{"bike_id":"bc83dec7-d222-4534-892e-16c51d335e08","system_id":"levelo_inurba_marseille","lat":43.31366,"lon":5.38492,"is_reserved":false,"is_disabled":false,"rental_uris":{"android":"levelo://app?vid=bc83dec7-d222-4534-892e-16c51d335e08","ios":"levelo://app?vid=bc83dec7-d222-4534-892e-16c51d335e08"},"vehicle_type_id":"4","last_reported":1707156537,"current_range_meters":20000,"station_id":"ce4bgt92rcd13ifvqcf0","pricing_plan_id":"free"},{"bike_id":"32eda076-1786-42f4-afe0-bfb813c4e2a1","system_id":"levelo_inurba_marseille","lat":43.31362,"lon":5.38497,"is_reserved":false,"is_disabled":false,"rental_uris":{"android":"levelo://app?vid=32eda076-1786-42f4-afe0-bfb813c4e2a1","ios":"levelo://app?vid=32eda076-1786-42f4-afe0-bfb813c4e2a1"},"vehicle_type_id":"4","last_reported":1707156537,"current_range_meters":26800,"station_id":"ce4bgt92rcd13ifvqcf0","pricing_plan_id":"free"},{"bike_id":"a75001a3-5253-4ba1-a591-ffce6b2ea3a3","system_id":"levelo_inurba_marseille","lat":43.31363,"lon":5.38497,"is_reserved":false,"is_disabled":false,"rental_uris":{"android":"levelo://app?vid=a75001a3-5253-4ba1-a591-ffce6b2ea3a3","ios":"levelo://app?vid=a75001a3-5253-4ba1-a591-ffce6b2ea3a3"},"vehicle_type_id":"4","last_reported":1707156537,"current_range_meters":26400,"station_id":"ce4bgt92rcd13ifvqcf0","pricing_plan_id":"free"},{"bike_id":"e3931dd9-f57b-489f-9d3a-8c23acec9d78","system_id":"levelo_inurba_marseille","lat":43.299724,"lon":5.371829,"is_reserved":false,"is_disabled":false,"rental_uris":{"android":"levelo://app?vid=e3931dd9-f57b-489f-9d3a-8c23acec9d78","ios":"levelo://app?vid=e3931dd9-f57b-489f-9d3a-8c23acec9d78"},"vehicle_type_id":"4","last_reported":1707156537,"current_range_meters":2400,"station_id":"ce4bgr92rcd13ifvqc7g","pricing_plan_id":"free"},{"bike_id":"754cbec5-365d-4243-a53a-1ff406a093b7","system_id":"levelo_inurba_marseille","lat":43.299724,"lon":5.371829,"is_reserved":false,"is_disabled":false,"rental_uris":{"android":"levelo://app?vid=754cbec5-365d-4243-a53a-1ff406a093b7","ios":"levelo://app?vid=754cbec5-365d-4243-a53a-1ff406a093b7"},"vehicle_type_id":"4","last_reported":1707156537,"current_range_meters":0,"station_id":"ce4bgr92rcd13ifvqc7g","pricing_plan_id":"free"},{"bike_id":"d73908e2-2bfd-489b-804e-d4e95fac72d2","system_id":"levelo_inurba_marseille","lat":43.326525,"lon":5.36078,"is_reserved":false,"is_disabled":false,"rental_uris":{"android":"levelo://app?vid=d73908e2-2bfd-489b-804e-d4e95fac72d2","ios":"levelo://app?vid=d73908e2-2bfd-489b-804e-d4e95fac72d2"},"vehicle_type_id":"4","last_reported":1707156537,"current_range_meters":17600,"station_id":"","pricing_plan_id":"free"},{"bike_id":"50ef4410-4669-4490-9944-823e5450d96b","system_id":"levelo_inurba_marseille","lat":43.305364,"lon":5.384119,"is_reserved":false,"is_disabled":false,"rental_uris":{"android":"levelo://app?vid=50ef4410-4669-4490-9944-823e5450d96b","ios":"levelo://app?vid=50ef4410-4669-4490-9944-823e5450d96b"},"vehicle_type_id":"4","last_reported":1707156537,"current_range_meters":4800,"station_id":"ce4bgg92rcd13ifvqb30","pricing_plan_id":"free"},{"bike_id":"f26c9018-a6ec-4bf0-93ef-abc2b01da1f1","system_id":"levelo_inurba_marseille","lat":43.305364,"lon":5.384119,"is_reserved":false,"is_disabled":false,"rental_uris":{"android":"levelo://app?vid=f26c9018-a6ec-4bf0-93ef-abc2b01da1f1","ios":"levelo://app?vid=f26c9018-a6ec-4bf0-93ef-abc2b01da1f1"},"vehicle_type_id":"4","last_reported":1707156537,"current_range_meters":6000,"station_id":"ce4bgg92rcd13ifvqb30","pricing_plan_id":"free"},{"bike_id":"7b27762a-d7a9-40bd-8994-c4940af303f7","system_id":"levelo_inurba_marseille","lat":43.298433,"lon":5.362774,"is_reserved":false,"is_disabled":false,"rental_uris":{"android":"levelo://app?vid=7b27762a-d7a9-40bd-8994-c4940af303f7","ios":"levelo://app?vid=7b27762a-d7a9-40bd-8994-c4940af303f7"},"vehicle_type_id":"4","last_reported":1707156537,"current_range_meters":26000,"station_id":"ce4bgpp2rcd13ifvqc3g","pricing_plan_id":"free"},{"bike_id":"ee09fc1a-20b7-448e-8b37-c573197c4be7","system_id":"levelo_inurba_marseille","lat":43.298433,"lon":5.362774,"is_reserved":false,"is_disabled":false,"rental_uris":{"android":"levelo://app?vid=ee09fc1a-20b7-448e-8b37-c573197c4be7","ios":"levelo://app?vid=ee09fc1a-20b7-448e-8b37-c573197c4be7"},"vehicle_type_id":"4","last_reported":1707156537,"current_range_meters":5200,"station_id":"ce4bgpp2rcd13ifvqc3g","pricing_plan_id":"free"},{"bike_id":"97dafb9f-4283-4486-947c-290464eb155a","system_id":"levelo_inurba_marseille","lat":43.298433,"lon":5.362774,"is_reserved":false,"is_disabled":false,"rental_uris":{"android":"levelo://app?vid=97dafb9f-4283-4486-947c-290464eb155a","ios":"levelo://app?vid=97dafb9f-4283-4486-947c-290464eb155a"},"vehicle_type_id":"4","last_reported":1707156537,"current_range_meters":9200,"station_id":"ce4bgpp2rcd13ifvqc3g","pricing_plan_id":"free"},{"bike_id":"445b30ae-c7d5-4458-8b5b-722ca5fd8a2d","system_id":"levelo_inurba_marseille","lat":43.298433,"lon":5.362774,"is_reserved":false,"is_disabled":false,"rental_uris":{"android":"levelo://app?vid=445b30ae-c7d5-4458-8b5b-722ca5fd8a2d","ios":"levelo://app?vid=445b30ae-c7d5-4458-8b5b-722ca5fd8a2d"},"vehicle_type_id":"4","last_reported":1707156537,"current_range_meters":1200,"station_id":"ce4bgpp2rcd13ifvqc3g","pricing_plan_id":"free"},{"bike_id":"93b89294-4162-4c6c-ad08-e16c01d17176","system_id":"levelo_inurba_marseille","lat":43.298433,"lon":5.362774,"is_reserved":false,"is_disabled":false,"rental_uris":{"android":"levelo://app?vid=93b89294-4162-4c6c-ad08-e16c01d17176","ios":"levelo://app?vid=93b89294-4162-4c6c-ad08-e16c01d17176"},"vehicle_type_id":"4","last_reported":1707156537,"current_range_meters":22800,"station_id":"ce4bgpp2rcd13ifvqc3g","pricing_plan_id":"free"},{"bike_id":"d88d121f-aea7-45b6-ab95-8fa1089fc00f","system_id":"levelo_inurba_marseille","lat":43.29838,"lon":5.36269,"is_reserved":false,"is_disabled":false,"rental_uris":{"android":"levelo://app?vid=d88d121f-aea7-45b6-ab95-8fa1089fc00f","ios":"levelo://app?vid=d88d121f-aea7-45b6-ab95-8fa1089fc00f"},"vehicle_type_id":"4","last_reported":1707156537,"current_range_meters":3600,"station_id":"ce4bgpp2rcd13ifvqc3g","pricing_plan_id":"free"},{"bike_id":"9f27ae4b-e816-4af3-995c-d587809c7376","system_id":"levelo_inurba_marseille","lat":43.29838,"lon":5.36267,"is_reserved":false,"is_disabled":false,"rental_uris":{"android":"levelo://app?vid=9f27ae4b-e816-4af3-995c-d587809c7376","ios":"levelo://app?vid=9f27ae4b-e816-4af3-995c-d587809c7376"},"vehicle_type_id":"4","last_reported":1707156537,"current_range_meters":21600,"station_id":"ce4bgpp2rcd13ifvqc3g","pricing_plan_id":"free"},{"bike_id":"13f5818c-1316-4e1a-9b1d-028fcd492b8c","system_id":"levelo_inurba_marseille","lat":43.299243,"lon":5.374807,"is_reserved":false,"is_disabled":false,"rental_uris":{"android":"levelo://app?vid=13f5818c-1316-4e1a-9b1d-028fcd492b8c","ios":"levelo://app?vid=13f5818c-1316-4e1a-9b1d-028fcd492b8c"},"vehicle_type_id":"4","last_reported":1707156537,"current_range_meters":6000,"station_id":"ce4bgjh2rcd13ifvqbg0","pricing_plan_id":"free"},{"bike_id":"956f43c6-789d-4861-b081-bb40d4b613a9","system_id":"levelo_inurba_marseille","lat":43.311722,"lon":5.387247,"is_reserved":false,"is_disabled":false,"rental_uris":{"android":"levelo://app?vid=956f43c6-789d-4861-b081-bb40d4b613a9","ios":"levelo://app?vid=956f43c6-789d-4861-b081-bb40d4b613a9"},"vehicle_type_id":"4","last_reported":1707156537,"current_range_meters":17600,"station_id":"ce4bgv12rcd13ifvqcp0","pricing_plan_id":"free"},{"bike_id":"0210949c-3f39-45fb-9d4d-ff3a27e7b63b","system_id":"levelo_inurba_marseille","lat":43.29782,"lon":5.37099,"is_reserved":false,"is_disabled":false,"rental_uris":{"android":"levelo://app?vid=0210949c-3f39-45fb-9d4d-ff3a27e7b63b","ios":"levelo://app?vid=0210949c-3f39-45fb-9d4d-ff3a27e7b63b"},"vehicle_type_id":"4","last_reported":1707156537,"current_range_meters":0,"station_id":"ce4bgop2rcd13ifvqc1g","pricing_plan_id":"free"},{"bike_id":"0d782434-9d1b-4306-8596-c875f020f888","system_id":"levelo_inurba_marseille","lat":43.297774,"lon":5.370875,"is_reserved":false,"is_disabled":false,"rental_uris":{"android":"levelo://app?vid=0d782434-9d1b-4306-8596-c875f020f888","ios":"levelo://app?vid=0d782434-9d1b-4306-8596-c875f020f888"},"vehicle_type_id":"4","last_reported":1707156537,"current_range_meters":16000,"station_id":"ce4bgop2rcd13ifvqc1g","pricing_plan_id":"free"},{"bike_id":"642b6707-55dc-499a-96df-e1892771c3ea","system_id":"levelo_inurba_marseille","lat":43.322872,"lon":5.382756,"is_reserved":false,"is_disabled":false,"rental_uris":{"android":"levelo://app?vid=642b6707-55dc-499a-96df-e1892771c3ea","ios":"levelo://app?vid=642b6707-55dc-499a-96df-e1892771c3ea"},"vehicle_type_id":"4","last_reported":1707156537,"current_range_meters":20000,"station_id":"ce4bhr12rcd13ifvqhqg","pricing_plan_id":"free"},{"bike_id":"067f66e1-9b81-4458-bb45-5c10a4329356","system_id":"levelo_inurba_marseille","lat":43.322872,"lon":5.382756,"is_reserved":false,"is_disabled":false,"rental_uris":{"android":"levelo://app?vid=067f66e1-9b81-4458-bb45-5c10a4329356","ios":"levelo://app?vid=067f66e1-9b81-4458-bb45-5c10a4329356"},"vehicle_type_id":"4","last_reported":1707156537,"current_range_meters":31200,"station_id":"ce4bhr12rcd13ifvqhqg","pricing_plan_id":"free"},{"bike_id":"acb0b184-9bf5-46e1-94e9-e996216dd8a0","system_id":"levelo_inurba_marseille","lat":43.322872,"lon":5.382756,"is_reserved":false,"is_disabled":false,"rental_uris":{"android":"levelo://app?vid=acb0b184-9bf5-46e1-94e9-e996216dd8a0","ios":"levelo://app?vid=acb0b184-9bf5-46e1-94e9-e996216dd8a0"},"vehicle_type_id":"4","last_reported":1707156537,"current_range_meters":30000,"station_id":"ce4bhr12rcd13ifvqhqg","pricing_plan_id":"free"},{"bike_id":"1900e2ea-9239-49b1-933e-57903fa99707","system_id":"levelo_inurba_marseille","lat":43.32826,"lon":5.36695,"is_reserved":false,"is_disabled":false,"rental_uris":{"android":"levelo://app?vid=1900e2ea-9239-49b1-933e-57903fa99707","ios":"levelo://app?vid=1900e2ea-9239-49b1-933e-57903fa99707"},"vehicle_type_id":"4","last_reported":1707156537,"current_range_meters":6400,"station_id":"ce4bhs92rcd13ifvqi0g","pricing_plan_id":"free"},{"bike_id":"068825c3-0e30-4039-9991-0f25d2c61d15","system_id":"levelo_inurba_marseille","lat":43.32827,"lon":5.36691,"is_reserved":false,"is_disabled":false,"rental_uris":{"android":"levelo://app?vid=068825c3-0e30-4039-9991-0f25d2c61d15","ios":"levelo://app?vid=068825c3-0e30-4039-9991-0f25d2c61d15"},"vehicle_type_id":"4","last_reported":1707156537,"current_range_meters":18400,"station_id":"ce4bhs92rcd13ifvqi0g","pricing_plan_id":"free"},{"bike_id":"dc2c4b60-6a40-4be4-a20a-86dccc5b5789","system_id":"levelo_inurba_marseille","lat":43.32827,"lon":5.36689,"is_reserved":false,"is_disabled":false,"rental_uris":{"android":"levelo://app?vid=dc2c4b60-6a40-4be4-a20a-86dccc5b5789","ios":"levelo://app?vid=dc2c4b60-6a40-4be4-a20a-86dccc5b5789"},"vehicle_type_id":"4","last_reported":1707156537,"current_range_meters":12000,"station_id":"ce4bhs92rcd13ifvqi0g","pricing_plan_id":"free"},{"bike_id":"36243836-0b62-45d5-b00e-078a5c9e3add","system_id":"levelo_inurba_marseille","lat":43.32829,"lon":5.36677,"is_reserved":false,"is_disabled":false,"rental_uris":{"android":"levelo://app?vid=36243836-0b62-45d5-b00e-078a5c9e3add","ios":"levelo://app?vid=36243836-0b62-45d5-b00e-078a5c9e3add"},"vehicle_type_id":"4","last_reported":1707156537,"current_range_meters":10000,"station_id":"ce4bhs92rcd13ifvqi0g","pricing_plan_id":"free"},{"bike_id":"c0254b53-a0d3-4467-8082-e6eba7ae8ab8","system_id":"levelo_inurba_marseille","lat":43.32831,"lon":5.36684,"is_reserved":false,"is_disabled":false,"rental_uris":{"android":"levelo://app?vid=c0254b53-a0d3-4467-8082-e6eba7ae8ab8","ios":"levelo://app?vid=c0254b53-a0d3-4467-8082-e6eba7ae8ab8"},"vehicle_type_id":"4","last_reported":1707156537,"current_range_meters":15200,"station_id":"ce4bhs92rcd13ifvqi0g","pricing_plan_id":"free"},{"bike_id":"62aabb2b-c9f9-48ea-a3a4-e4eb79305b81","system_id":"levelo_inurba_marseille","lat":43.328371,"lon":5.366909,"is_reserved":false,"is_disabled":false,"rental_uris":{"android":"levelo://app?vid=62aabb2b-c9f9-48ea-a3a4-e4eb79305b81","ios":"levelo://app?vid=62aabb2b-c9f9-48ea-a3a4-e4eb79305b81"},"vehicle_type_id":"4","last_reported":1707156537,"current_range_meters":8400,"station_id":"ce4bhs92rcd13ifvqi0g","pricing_plan_id":"free"},{"bike_id":"98fb478c-2c90-4367-b2fe-e3ba20dfacae","system_id":"levelo_inurba_marseille","lat":43.3149,"lon":5.388925,"is_reserved":false,"is_disabled":false,"rental_uris":{"android":"levelo://app?vid=98fb478c-2c90-4367-b2fe-e3ba20dfacae","ios":"levelo://app?vid=98fb478c-2c90-4367-b2fe-e3ba20dfacae"},"vehicle_type_id":"4","last_reported":1707156537,"current_range_meters":26000,"station_id":"","pricing_plan_id":"free"},{"bike_id":"50b08a96-15dc-4a5d-9d6a-a831c874af68","system_id":"levelo_inurba_marseille","lat":43.297781,"lon":5.375384,"is_reserved":false,"is_disabled":false,"rental_uris":{"android":"levelo://app?vid=50b08a96-15dc-4a5d-9d6a-a831c874af68","ios":"levelo://app?vid=50b08a96-15dc-4a5d-9d6a-a831c874af68"},"vehicle_type_id":"4","last_reported":1707156537,"current_range_meters":15600,"station_id":"","pricing_plan_id":"free"},{"bike_id":"79d14bfc-06e9-4997-bbc0-831f3a1a5fef","system_id":"levelo_inurba_marseille","lat":43.312857,"lon":5.38955,"is_reserved":false,"is_disabled":false,"rental_uris":{"android":"levelo://app?vid=79d14bfc-06e9-4997-bbc0-831f3a1a5fef","ios":"levelo://app?vid=79d14bfc-06e9-4997-bbc0-831f3a1a5fef"},"vehicle_type_id":"4","last_reported":1707156537,"current_range_meters":0,"station_id":"ce4bhqp2rcd13ifvqhng","pricing_plan_id":"free"},{"bike_id":"3c536a0c-315a-4d0a-9117-2fb6cf6a638d","system_id":"levelo_inurba_marseille","lat":43.296935,"lon":5.376544,"is_reserved":false,"is_disabled":false,"rental_uris":{"android":"levelo://app?vid=3c536a0c-315a-4d0a-9117-2fb6cf6a638d","ios":"levelo://app?vid=3c536a0c-315a-4d0a-9117-2fb6cf6a638d"},"vehicle_type_id":"4","last_reported":1707156537,"current_range_meters":400,"station_id":"ce4bgkh2rcd13ifvqbl0","pricing_plan_id":"free"},{"bike_id":"1bc78bdb-08e8-487d-8038-8cc54ccf1719","system_id":"levelo_inurba_marseille","lat":43.297011,"lon":5.377016,"is_reserved":false,"is_disabled":false,"rental_uris":{"android":"levelo://app?vid=1bc78bdb-08e8-487d-8038-8cc54ccf1719","ios":"levelo://app?vid=1bc78bdb-08e8-487d-8038-8cc54ccf1719"},"vehicle_type_id":"4","last_reported":1707156537,"current_range_meters":0,"station_id":"","pricing_plan_id":"free"},{"bike_id":"753cae36-89b1-4c43-a560-b84a52a8dd62","system_id":"levelo_inurba_marseille","lat":43.317557,"lon":5.390173,"is_reserved":false,"is_disabled":false,"rental_uris":{"android":"levelo://app?vid=753cae36-89b1-4c43-a560-b84a52a8dd62","ios":"levelo://app?vid=753cae36-89b1-4c43-a560-b84a52a8dd62"},"vehicle_type_id":"4","last_reported":1707156537,"current_range_meters":14000,"station_id":"ce4bhqp2rcd13ifvqhng","pricing_plan_id":"free"},{"bike_id":"b304c0bf-1f02-4c45-9b7f-29b560e48804","system_id":"levelo_inurba_marseille","lat":43.29702,"lon":5.3776,"is_reserved":false,"is_disabled":false,"rental_uris":{"android":"levelo://app?vid=b304c0bf-1f02-4c45-9b7f-29b560e48804","ios":"levelo://app?vid=b304c0bf-1f02-4c45-9b7f-29b560e48804"},"vehicle_type_id":"4","last_reported":1707156537,"current_range_meters":17200,"station_id":"","pricing_plan_id":"free"},{"bike_id":"ef135cbb-e1f8-4db9-b6ad-6590e964c357","system_id":"levelo_inurba_marseille","lat":43.317557,"lon":5.390173,"is_reserved":false,"is_disabled":false,"rental_uris":{"android":"levelo://app?vid=ef135cbb-e1f8-4db9-b6ad-6590e964c357","ios":"levelo://app?vid=ef135cbb-e1f8-4db9-b6ad-6590e964c357"},"vehicle_type_id":"4","last_reported":1707156537,"current_range_meters":20400,"station_id":"ce4bhqp2rcd13ifvqhng","pricing_plan_id":"free"},{"bike_id":"bf5596bb-afb2-46d3-93c4-a5572d7667f8","system_id":"levelo_inurba_marseille","lat":43.317557,"lon":5.390173,"is_reserved":false,"is_disabled":false,"rental_uris":{"android":"levelo://app?vid=bf5596bb-afb2-46d3-93c4-a5572d7667f8","ios":"levelo://app?vid=bf5596bb-afb2-46d3-93c4-a5572d7667f8"},"vehicle_type_id":"4","last_reported":1707156537,"current_range_meters":31200,"station_id":"ce4bhqp2rcd13ifvqhng","pricing_plan_id":"free"},{"bike_id":"5f4bbffd-645d-4394-9713-b7d56fa1e800","system_id":"levelo_inurba_marseille","lat":43.31758,"lon":5.3902,"is_reserved":false,"is_disabled":false,"rental_uris":{"android":"levelo://app?vid=5f4bbffd-645d-4394-9713-b7d56fa1e800","ios":"levelo://app?vid=5f4bbffd-645d-4394-9713-b7d56fa1e800"},"vehicle_type_id":"4","last_reported":1707156537,"current_range_meters":10400,"station_id":"ce4bhqp2rcd13ifvqhng","pricing_plan_id":"free"},{"bike_id":"40a85205-af79-43c2-bdc9-257280312aae","system_id":"levelo_inurba_marseille","lat":43.31758,"lon":5.390238,"is_reserved":false,"is_disabled":false,"rental_uris":{"android":"levelo://app?vid=40a85205-af79-43c2-bdc9-257280312aae","ios":"levelo://app?vid=40a85205-af79-43c2-bdc9-257280312aae"},"vehicle_type_id":"4","last_reported":1707156537,"current_range_meters":23600,"station_id":"ce4bhqp2rcd13ifvqhng","pricing_plan_id":"free"},{"bike_id":"1033b78d-f901-4cfa-8cae-54cb1e173be4","system_id":"levelo_inurba_marseille","lat":43.31757,"lon":5.39026,"is_reserved":false,"is_disabled":false,"rental_uris":{"android":"levelo://app?vid=1033b78d-f901-4cfa-8cae-54cb1e173be4","ios":"levelo://app?vid=1033b78d-f901-4cfa-8cae-54cb1e173be4"},"vehicle_type_id":"4","last_reported":1707156537,"current_range_meters":25600,"station_id":"ce4bhqp2rcd13ifvqhng","pricing_plan_id":"free"},{"bike_id":"dfad30f6-c190-4f80-8b09-e116c509a563","system_id":"levelo_inurba_marseille","lat":43.298037,"lon":5.381066,"is_reserved":false,"is_disabled":false,"rental_uris":{"android":"levelo://app?vid=dfad30f6-c190-4f80-8b09-e116c509a563","ios":"levelo://app?vid=dfad30f6-c190-4f80-8b09-e116c509a563"},"vehicle_type_id":"4","last_reported":1707156537,"current_range_meters":0,"station_id":"ce4bgip2rcd13ifvqbb0","pricing_plan_id":"free"},{"bike_id":"c1c37462-ea92-49bf-a552-06e5297e5d2b","system_id":"levelo_inurba_marseille","lat":43.298,"lon":5.38088,"is_reserved":false,"is_disabled":false,"rental_uris":{"android":"levelo://app?vid=c1c37462-ea92-49bf-a552-06e5297e5d2b","ios":"levelo://app?vid=c1c37462-ea92-49bf-a552-06e5297e5d2b"},"vehicle_type_id":"4","last_reported":1707156537,"current_range_meters":10400,"station_id":"ce4bgip2rcd13ifvqbb0","pricing_plan_id":"free"},{"bike_id":"f7d81f36-82c2-4fe1-8236-4dd025a7af64","system_id":"levelo_inurba_marseille","lat":43.29793,"lon":5.38103,"is_reserved":false,"is_disabled":false,"rental_uris":{"android":"levelo://app?vid=f7d81f36-82c2-4fe1-8236-4dd025a7af64","ios":"levelo://app?vid=f7d81f36-82c2-4fe1-8236-4dd025a7af64"},"vehicle_type_id":"4","last_reported":1707156537,"current_range_meters":1200,"station_id":"ce4bgip2rcd13ifvqbb0","pricing_plan_id":"free"},{"bike_id":"e0ad2a86-5883-41e5-8e72-ef14b0eb03c7","system_id":"levelo_inurba_marseille","lat":43.304274,"lon":5.388873,"is_reserved":false,"is_disabled":false,"rental_uris":{"android":"levelo://app?vid=e0ad2a86-5883-41e5-8e72-ef14b0eb03c7","ios":"levelo://app?vid=e0ad2a86-5883-41e5-8e72-ef14b0eb03c7"},"vehicle_type_id":"4","last_reported":1707156537,"current_range_meters":7600,"station_id":"ce4bgk12rcd13ifvqbi0","pricing_plan_id":"free"},{"bike_id":"dcf6dbda-38cb-48c6-857f-b66e7c3e9747","system_id":"levelo_inurba_marseille","lat":43.304274,"lon":5.388873,"is_reserved":false,"is_disabled":false,"rental_uris":{"android":"levelo://app?vid=dcf6dbda-38cb-48c6-857f-b66e7c3e9747","ios":"levelo://app?vid=dcf6dbda-38cb-48c6-857f-b66e7c3e9747"},"vehicle_type_id":"4","last_reported":1707156537,"current_range_meters":8400,"station_id":"ce4bgk12rcd13ifvqbi0","pricing_plan_id":"free"},{"bike_id":"51232779-b1b8-421f-9dfe-8e8c597a0b12","system_id":"levelo_inurba_marseille","lat":43.304274,"lon":5.388873,"is_reserved":false,"is_disabled":false,"rental_uris":{"android":"levelo://app?vid=51232779-b1b8-421f-9dfe-8e8c597a0b12","ios":"levelo://app?vid=51232779-b1b8-421f-9dfe-8e8c597a0b12"},"vehicle_type_id":"4","last_reported":1707156537,"current_range_meters":2000,"station_id":"ce4bgk12rcd13ifvqbi0","pricing_plan_id":"free"},{"bike_id":"5738bb8b-98b4-4a4f-97e7-55dd8cbbaa08","system_id":"levelo_inurba_marseille","lat":43.304274,"lon":5.388873,"is_reserved":false,"is_disabled":false,"rental_uris":{"android":"levelo://app?vid=5738bb8b-98b4-4a4f-97e7-55dd8cbbaa08","ios":"levelo://app?vid=5738bb8b-98b4-4a4f-97e7-55dd8cbbaa08"},"vehicle_type_id":"4","last_reported":1707156537,"current_range_meters":2000,"station_id":"ce4bgk12rcd13ifvqbi0","pricing_plan_id":"free"},{"bike_id":"f2d15d64-76ad-4bff-868b-d7ce7b8a24e5","system_id":"levelo_inurba_marseille","lat":43.295748,"lon":5.37522,"is_reserved":false,"is_disabled":false,"rental_uris":{"android":"levelo://app?vid=f2d15d64-76ad-4bff-868b-d7ce7b8a24e5","ios":"levelo://app?vid=f2d15d64-76ad-4bff-868b-d7ce7b8a24e5"},"vehicle_type_id":"4","last_reported":1707156537,"current_range_meters":17600,"station_id":"ce4bgh92rcd13ifvqb50","pricing_plan_id":"free"},{"bike_id":"09360488-288f-4ee2-90e1-97cb78df1e0a","system_id":"levelo_inurba_marseille","lat":43.304278,"lon":5.388868,"is_reserved":false,"is_disabled":false,"rental_uris":{"android":"levelo://app?vid=09360488-288f-4ee2-90e1-97cb78df1e0a","ios":"levelo://app?vid=09360488-288f-4ee2-90e1-97cb78df1e0a"},"vehicle_type_id":"4","last_reported":1707156537,"current_range_meters":14400,"station_id":"ce4bgk12rcd13ifvqbi0","pricing_plan_id":"free"},{"bike_id":"6f048eef-1e47-4482-a485-35ac21024e49","system_id":"levelo_inurba_marseille","lat":43.295748,"lon":5.37522,"is_reserved":false,"is_disabled":false,"rental_uris":{"android":"levelo://app?vid=6f048eef-1e47-4482-a485-35ac21024e49","ios":"levelo://app?vid=6f048eef-1e47-4482-a485-35ac21024e49"},"vehicle_type_id":"4","last_reported":1707156537,"current_range_meters":24000,"station_id":"ce4bgh92rcd13ifvqb50","pricing_plan_id":"free"},{"bike_id":"56eff4f9-4a1f-4c24-b8c4-1b4c5fe97096","system_id":"levelo_inurba_marseille","lat":43.29978,"lon":5.38493,"is_reserved":false,"is_disabled":false,"rental_uris":{"android":"levelo://app?vid=56eff4f9-4a1f-4c24-b8c4-1b4c5fe97096","ios":"levelo://app?vid=56eff4f9-4a1f-4c24-b8c4-1b4c5fe97096"},"vehicle_type_id":"4","last_reported":1707156537,"current_range_meters":0,"station_id":"ce4bgj92rcd13ifvqbd0","pricing_plan_id":"free"},{"bike_id":"38d9c84d-baf3-4d1c-8154-970a0cf8bf24","system_id":"levelo_inurba_marseille","lat":43.307945,"lon":5.376487,"is_reserved":false,"is_disabled":false,"rental_uris":{"android":"levelo://app?vid=38d9c84d-baf3-4d1c-8154-970a0cf8bf24","ios":"levelo://app?vid=38d9c84d-baf3-4d1c-8154-970a0cf8bf24"},"vehicle_type_id":"4","last_reported":1707156537,"current_range_meters":20400,"station_id":"ce4bgv92rcd13ifvqcq0","pricing_plan_id":"free"},{"bike_id":"dc52d64f-3100-46eb-a48f-a52739fe7bf1","system_id":"levelo_inurba_marseille","lat":43.32367,"lon":5.388836,"is_reserved":false,"is_disabled":false,"rental_uris":{"android":"levelo://app?vid=dc52d64f-3100-46eb-a48f-a52739fe7bf1","ios":"levelo://app?vid=dc52d64f-3100-46eb-a48f-a52739fe7bf1"},"vehicle_type_id":"4","last_reported":1707156537,"current_range_meters":24400,"station_id":"ce4bhqp2rcd13ifvqhog","pricing_plan_id":"free"},{"bike_id":"056ad05f-d0de-4fbd-b98f-5dd1a557e184","system_id":"levelo_inurba_marseille","lat":43.29602,"lon":5.381084,"is_reserved":false,"is_disabled":false,"rental_uris":{"android":"levelo://app?vid=056ad05f-d0de-4fbd-b98f-5dd1a557e184","ios":"levelo://app?vid=056ad05f-d0de-4fbd-b98f-5dd1a557e184"},"vehicle_type_id":"4","last_reported":1707156537,"current_range_meters":14400,"station_id":"ce4bgl12rcd13ifvqbo0","pricing_plan_id":"free"},{"bike_id":"ddce2f49-6e8c-467c-ae4a-7f0b47048fe7","system_id":"levelo_inurba_marseille","lat":43.293259,"lon":5.371586,"is_reserved":false,"is_disabled":false,"rental_uris":{"android":"levelo://app?vid=ddce2f49-6e8c-467c-ae4a-7f0b47048fe7","ios":"levelo://app?vid=ddce2f49-6e8c-467c-ae4a-7f0b47048fe7"},"vehicle_type_id":"4","last_reported":1707156537,"current_range_meters":16800,"station_id":"ce4bgh92rcd13ifvqb40","pricing_plan_id":"free"},{"bike_id":"8ef9e69b-949b-4fa9-adc6-9a42c67d227e","system_id":"levelo_inurba_marseille","lat":43.286595,"lon":5.386795,"is_reserved":false,"is_disabled":false,"rental_uris":{"android":"levelo://app?vid=8ef9e69b-949b-4fa9-adc6-9a42c67d227e","ios":"levelo://app?vid=8ef9e69b-949b-4fa9-adc6-9a42c67d227e"},"vehicle_type_id":"4","last_reported":1707156537,"current_range_meters":1600,"station_id":"ce4bh492rcd13ifvqdug","pricing_plan_id":"free"},{"bike_id":"f1f46d04-5159-4443-b527-5f82d6c3f8ff","system_id":"levelo_inurba_marseille","lat":43.292749,"lon":5.368402,"is_reserved":false,"is_disabled":false,"rental_uris":{"android":"levelo://app?vid=f1f46d04-5159-4443-b527-5f82d6c3f8ff","ios":"levelo://app?vid=f1f46d04-5159-4443-b527-5f82d6c3f8ff"},"vehicle_type_id":"4","last_reported":1707156537,"current_range_meters":2000,"station_id":"ce4bhbp2rcd13ifvqesg","pricing_plan_id":"free"},{"bike_id":"2516b81f-549c-43a4-9b9b-b492f4f62048","system_id":"levelo_inurba_marseille","lat":43.305994,"lon":5.393687,"is_reserved":false,"is_disabled":false,"rental_uris":{"android":"levelo://app?vid=2516b81f-549c-43a4-9b9b-b492f4f62048","ios":"levelo://app?vid=2516b81f-549c-43a4-9b9b-b492f4f62048"},"vehicle_type_id":"4","last_reported":1707156537,"current_range_meters":12400,"station_id":"ce4bh0p2rcd13ifvqd80","pricing_plan_id":"free"},{"bike_id":"0ba92ef9-8023-4a9d-a949-6fe28c7241ce","system_id":"levelo_inurba_marseille","lat":43.305994,"lon":5.393687,"is_reserved":false,"is_disabled":false,"rental_uris":{"android":"levelo://app?vid=0ba92ef9-8023-4a9d-a949-6fe28c7241ce","ios":"levelo://app?vid=0ba92ef9-8023-4a9d-a949-6fe28c7241ce"},"vehicle_type_id":"4","last_reported":1707156537,"current_range_meters":22000,"station_id":"ce4bh0p2rcd13ifvqd80","pricing_plan_id":"free"},{"bike_id":"2b5692c1-2b49-4516-874b-0de566877d0b","system_id":"levelo_inurba_marseille","lat":43.305994,"lon":5.393687,"is_reserved":false,"is_disabled":false,"rental_uris":{"android":"levelo://app?vid=2b5692c1-2b49-4516-874b-0de566877d0b","ios":"levelo://app?vid=2b5692c1-2b49-4516-874b-0de566877d0b"},"vehicle_type_id":"4","last_reported":1707156537,"current_range_meters":4400,"station_id":"ce4bh0p2rcd13ifvqd80","pricing_plan_id":"free"},{"bike_id":"e6077ac1-9030-4a97-94b5-300c7f7a6a97","system_id":"levelo_inurba_marseille","lat":43.305994,"lon":5.393687,"is_reserved":false,"is_disabled":false,"rental_uris":{"android":"levelo://app?vid=e6077ac1-9030-4a97-94b5-300c7f7a6a97","ios":"levelo://app?vid=e6077ac1-9030-4a97-94b5-300c7f7a6a97"},"vehicle_type_id":"4","last_reported":1707156537,"current_range_meters":22000,"station_id":"ce4bh0p2rcd13ifvqd80","pricing_plan_id":"free"},{"bike_id":"b6c934a2-0339-463f-a816-d17a269a4ca9","system_id":"levelo_inurba_marseille","lat":43.303002,"lon":5.392142,"is_reserved":false,"is_disabled":false,"rental_uris":{"android":"levelo://app?vid=b6c934a2-0339-463f-a816-d17a269a4ca9","ios":"levelo://app?vid=b6c934a2-0339-463f-a816-d17a269a4ca9"},"vehicle_type_id":"4","last_reported":1707156537,"current_range_meters":8000,"station_id":"ce4bgkh2rcd13ifvqbk0","pricing_plan_id":"free"},{"bike_id":"0da67191-8c67-4088-8ce6-0e463aab9a2a","system_id":"levelo_inurba_marseille","lat":43.2936,"lon":5.37835,"is_reserved":false,"is_disabled":false,"rental_uris":{"android":"levelo://app?vid=0da67191-8c67-4088-8ce6-0e463aab9a2a","ios":"levelo://app?vid=0da67191-8c67-4088-8ce6-0e463aab9a2a"},"vehicle_type_id":"4","last_reported":1707156537,"current_range_meters":0,"station_id":"ce4bgjh2rcd13ifvqbf0","pricing_plan_id":"free"},{"bike_id":"f519cbde-71af-4ef3-85cb-c7cff669ad13","system_id":"levelo_inurba_marseille","lat":43.292311,"lon":5.360731,"is_reserved":false,"is_disabled":false,"rental_uris":{"android":"levelo://app?vid=f519cbde-71af-4ef3-85cb-c7cff669ad13","ios":"levelo://app?vid=f519cbde-71af-4ef3-85cb-c7cff669ad13"},"vehicle_type_id":"4","last_reported":1707156537,"current_range_meters":0,"station_id":"ce4bhbh2rcd13ifvqeqg","pricing_plan_id":"free"},{"bike_id":"437d6ed4-0126-486e-808b-f22f77f05aff","system_id":"levelo_inurba_marseille","lat":43.300852,"lon":5.390859,"is_reserved":false,"is_disabled":false,"rental_uris":{"android":"levelo://app?vid=437d6ed4-0126-486e-808b-f22f77f05aff","ios":"levelo://app?vid=437d6ed4-0126-486e-808b-f22f77f05aff"},"vehicle_type_id":"4","last_reported":1707156537,"current_range_meters":11600,"station_id":"ce4bh192rcd13ifvqdb0","pricing_plan_id":"free"},{"bike_id":"84de0b81-7f4f-49b3-9d37-dc2186dbfc3f","system_id":"levelo_inurba_marseille","lat":43.292311,"lon":5.360731,"is_reserved":false,"is_disabled":false,"rental_uris":{"android":"levelo://app?vid=84de0b81-7f4f-49b3-9d37-dc2186dbfc3f","ios":"levelo://app?vid=84de0b81-7f4f-49b3-9d37-dc2186dbfc3f"},"vehicle_type_id":"4","last_reported":1707156537,"current_range_meters":21600,"station_id":"ce4bhbh2rcd13ifvqeqg","pricing_plan_id":"free"},{"bike_id":"96177b39-75a9-4844-97b6-487517af7628","system_id":"levelo_inurba_marseille","lat":43.300852,"lon":5.390859,"is_reserved":false,"is_disabled":false,"rental_uris":{"android":"levelo://app?vid=96177b39-75a9-4844-97b6-487517af7628","ios":"levelo://app?vid=96177b39-75a9-4844-97b6-487517af7628"},"vehicle_type_id":"4","last_reported":1707156537,"current_range_meters":400,"station_id":"ce4bh192rcd13ifvqdb0","pricing_plan_id":"free"},{"bike_id":"d579be9d-d932-46d7-9995-ebb9bb199311","system_id":"levelo_inurba_marseille","lat":43.292311,"lon":5.360731,"is_reserved":false,"is_disabled":false,"rental_uris":{"android":"levelo://app?vid=d579be9d-d932-46d7-9995-ebb9bb199311","ios":"levelo://app?vid=d579be9d-d932-46d7-9995-ebb9bb199311"},"vehicle_type_id":"4","last_reported":1707156537,"current_range_meters":0,"station_id":"ce4bhbh2rcd13ifvqeqg","pricing_plan_id":"free"},{"bike_id":"9875e9fa-6a32-4be8-9ceb-5d56c682cf6a","system_id":"levelo_inurba_marseille","lat":43.298764,"lon":5.388973,"is_reserved":false,"is_disabled":false,"rental_uris":{"android":"levelo://app?vid=9875e9fa-6a32-4be8-9ceb-5d56c682cf6a","ios":"levelo://app?vid=9875e9fa-6a32-4be8-9ceb-5d56c682cf6a"},"vehicle_type_id":"4","last_reported":1707156537,"current_range_meters":10000,"station_id":"ce4bh392rcd13ifvqdl0","pricing_plan_id":"free"},{"bike_id":"e79786c8-5010-4664-953b-ac259de1be17","system_id":"levelo_inurba_marseille","lat":43.298764,"lon":5.388973,"is_reserved":false,"is_disabled":false,"rental_uris":{"android":"levelo://app?vid=e79786c8-5010-4664-953b-ac259de1be17","ios":"levelo://app?vid=e79786c8-5010-4664-953b-ac259de1be17"},"vehicle_type_id":"4","last_reported":1707156537,"current_range_meters":21600,"station_id":"ce4bh392rcd13ifvqdl0","pricing_plan_id":"free"},{"bike_id":"263290b7-3f5f-4422-9b7a-33f2739d74f4","system_id":"levelo_inurba_marseille","lat":43.29199,"lon":5.35805,"is_reserved":false,"is_disabled":false,"rental_uris":{"android":"levelo://app?vid=263290b7-3f5f-4422-9b7a-33f2739d74f4","ios":"levelo://app?vid=263290b7-3f5f-4422-9b7a-33f2739d74f4"},"vehicle_type_id":"4","last_reported":1707156537,"current_range_meters":0,"station_id":"ce4bhb12rcd13ifvqel0","pricing_plan_id":"free"},{"bike_id":"1314d02d-b4ef-44a9-8df3-0308c86e0c69","system_id":"levelo_inurba_marseille","lat":43.291994,"lon":5.357886,"is_reserved":false,"is_disabled":false,"rental_uris":{"android":"levelo://app?vid=1314d02d-b4ef-44a9-8df3-0308c86e0c69","ios":"levelo://app?vid=1314d02d-b4ef-44a9-8df3-0308c86e0c69"},"vehicle_type_id":"4","last_reported":1707156537,"current_range_meters":30400,"station_id":"ce4bhb12rcd13ifvqel0","pricing_plan_id":"free"},{"bike_id":"6a09dc80-7eb1-4ddd-8d94-06f0801c356c","system_id":"levelo_inurba_marseille","lat":43.313291,"lon":5.396838,"is_reserved":false,"is_disabled":false,"rental_uris":{"android":"levelo://app?vid=6a09dc80-7eb1-4ddd-8d94-06f0801c356c","ios":"levelo://app?vid=6a09dc80-7eb1-4ddd-8d94-06f0801c356c"},"vehicle_type_id":"4","last_reported":1707156537,"current_range_meters":0,"station_id":"ce4bgvp2rcd13ifvqcu0","pricing_plan_id":"free"},{"bike_id":"a308fa7e-cfac-4908-a9b8-68902fdf16fb","system_id":"levelo_inurba_marseille","lat":43.313291,"lon":5.396838,"is_reserved":false,"is_disabled":false,"rental_uris":{"android":"levelo://app?vid=a308fa7e-cfac-4908-a9b8-68902fdf16fb","ios":"levelo://app?vid=a308fa7e-cfac-4908-a9b8-68902fdf16fb"},"vehicle_type_id":"4","last_reported":1707156537,"current_range_meters":3600,"station_id":"ce4bgvp2rcd13ifvqcu0","pricing_plan_id":"free"},{"bike_id":"ff0b2937-db5e-461e-b998-b08c472342eb","system_id":"levelo_inurba_marseille","lat":43.31328,"lon":5.39689,"is_reserved":false,"is_disabled":false,"rental_uris":{"android":"levelo://app?vid=ff0b2937-db5e-461e-b998-b08c472342eb","ios":"levelo://app?vid=ff0b2937-db5e-461e-b998-b08c472342eb"},"vehicle_type_id":"4","last_reported":1707156537,"current_range_meters":2000,"station_id":"ce4bgvp2rcd13ifvqcu0","pricing_plan_id":"free"},{"bike_id":"00b2ceb5-080f-4b6b-8f11-43ff114ce4a8","system_id":"levelo_inurba_marseille","lat":43.313291,"lon":5.396838,"is_reserved":false,"is_disabled":false,"rental_uris":{"android":"levelo://app?vid=00b2ceb5-080f-4b6b-8f11-43ff114ce4a8","ios":"levelo://app?vid=00b2ceb5-080f-4b6b-8f11-43ff114ce4a8"},"vehicle_type_id":"4","last_reported":1707156537,"current_range_meters":18400,"station_id":"ce4bgvp2rcd13ifvqcu0","pricing_plan_id":"free"},{"bike_id":"f4d15483-84ae-4056-87a1-e709636e15eb","system_id":"levelo_inurba_marseille","lat":43.2919,"lon":5.35804,"is_reserved":false,"is_disabled":false,"rental_uris":{"android":"levelo://app?vid=f4d15483-84ae-4056-87a1-e709636e15eb","ios":"levelo://app?vid=f4d15483-84ae-4056-87a1-e709636e15eb"},"vehicle_type_id":"4","last_reported":1707156537,"current_range_meters":0,"station_id":"ce4bhb12rcd13ifvqel0","pricing_plan_id":"free"},{"bike_id":"24acd523-dffc-4e9d-bdb3-17e5be54ba12","system_id":"levelo_inurba_marseille","lat":43.313291,"lon":5.396838,"is_reserved":false,"is_disabled":false,"rental_uris":{"android":"levelo://app?vid=24acd523-dffc-4e9d-bdb3-17e5be54ba12","ios":"levelo://app?vid=24acd523-dffc-4e9d-bdb3-17e5be54ba12"},"vehicle_type_id":"4","last_reported":1707156537,"current_range_meters":5600,"station_id":"ce4bgvp2rcd13ifvqcu0","pricing_plan_id":"free"},{"bike_id":"0631623c-4a9e-4247-bdad-cc5d5cc2457f","system_id":"levelo_inurba_marseille","lat":43.31328,"lon":5.39692,"is_reserved":false,"is_disabled":false,"rental_uris":{"android":"levelo://app?vid=0631623c-4a9e-4247-bdad-cc5d5cc2457f","ios":"levelo://app?vid=0631623c-4a9e-4247-bdad-cc5d5cc2457f"},"vehicle_type_id":"4","last_reported":1707156537,"current_range_meters":4000,"station_id":"ce4bgvp2rcd13ifvqcu0","pricing_plan_id":"free"},{"bike_id":"6fabbd6a-1f02-4dba-a989-cba1ce6cb592","system_id":"levelo_inurba_marseille","lat":43.313291,"lon":5.396838,"is_reserved":false,"is_disabled":false,"rental_uris":{"android":"levelo://app?vid=6fabbd6a-1f02-4dba-a989-cba1ce6cb592","ios":"levelo://app?vid=6fabbd6a-1f02-4dba-a989-cba1ce6cb592"},"vehicle_type_id":"4","last_reported":1707156537,"current_range_meters":24000,"station_id":"ce4bgvp2rcd13ifvqcu0","pricing_plan_id":"free"},{"bike_id":"7189e1db-2648-4106-8cc0-ca80993b8e39","system_id":"levelo_inurba_marseille","lat":43.313291,"lon":5.396838,"is_reserved":false,"is_disabled":false,"rental_uris":{"android":"levelo://app?vid=7189e1db-2648-4106-8cc0-ca80993b8e39","ios":"levelo://app?vid=7189e1db-2648-4106-8cc0-ca80993b8e39"},"vehicle_type_id":"4","last_reported":1707156537,"current_range_meters":13200,"station_id":"ce4bgvp2rcd13ifvqcu0","pricing_plan_id":"free"},{"bike_id":"bd0334eb-789b-4ae2-b843-6a42e0c0f9a4","system_id":"levelo_inurba_marseille","lat":43.313291,"lon":5.396838,"is_reserved":false,"is_disabled":false,"rental_uris":{"android":"levelo://app?vid=bd0334eb-789b-4ae2-b843-6a42e0c0f9a4","ios":"levelo://app?vid=bd0334eb-789b-4ae2-b843-6a42e0c0f9a4"},"vehicle_type_id":"4","last_reported":1707156537,"current_range_meters":26000,"station_id":"ce4bgvp2rcd13ifvqcu0","pricing_plan_id":"free"},{"bike_id":"aff7b945-31be-4f2c-bc30-c744e348bb62","system_id":"levelo_inurba_marseille","lat":43.313291,"lon":5.396838,"is_reserved":false,"is_disabled":false,"rental_uris":{"android":"levelo://app?vid=aff7b945-31be-4f2c-bc30-c744e348bb62","ios":"levelo://app?vid=aff7b945-31be-4f2c-bc30-c744e348bb62"},"vehicle_type_id":"4","last_reported":1707156537,"current_range_meters":12400,"station_id":"ce4bgvp2rcd13ifvqcu0","pricing_plan_id":"free"},{"bike_id":"a4e2a607-4e82-473d-8f73-ac246d59fce7","system_id":"levelo_inurba_marseille","lat":43.30891,"lon":5.39649,"is_reserved":false,"is_disabled":false,"rental_uris":{"android":"levelo://app?vid=a4e2a607-4e82-473d-8f73-ac246d59fce7","ios":"levelo://app?vid=a4e2a607-4e82-473d-8f73-ac246d59fce7"},"vehicle_type_id":"4","last_reported":1707156537,"current_range_meters":0,"station_id":"ce4bh012rcd13ifvqcv0","pricing_plan_id":"free"},{"bike_id":"7447e538-93ea-496b-9139-de1f49c84e8d","system_id":"levelo_inurba_marseille","lat":43.313337,"lon":5.396964,"is_reserved":false,"is_disabled":false,"rental_uris":{"android":"levelo://app?vid=7447e538-93ea-496b-9139-de1f49c84e8d","ios":"levelo://app?vid=7447e538-93ea-496b-9139-de1f49c84e8d"},"vehicle_type_id":"4","last_reported":1707156537,"current_range_meters":30800,"station_id":"ce4bgvp2rcd13ifvqcu0","pricing_plan_id":"free"},{"bike_id":"e3ce010b-9cae-4639-95a5-e8ba0c545a2e","system_id":"levelo_inurba_marseille","lat":43.31323,"lon":5.39697,"is_reserved":false,"is_disabled":false,"rental_uris":{"android":"levelo://app?vid=e3ce010b-9cae-4639-95a5-e8ba0c545a2e","ios":"levelo://app?vid=e3ce010b-9cae-4639-95a5-e8ba0c545a2e"},"vehicle_type_id":"4","last_reported":1707156537,"current_range_meters":26400,"station_id":"ce4bgvp2rcd13ifvqcu0","pricing_plan_id":"free"},{"bike_id":"028b69b2-5e8e-4463-8efe-bc9cb2f47340","system_id":"levelo_inurba_marseille","lat":43.31332,"lon":5.39697,"is_reserved":false,"is_disabled":false,"rental_uris":{"android":"levelo://app?vid=028b69b2-5e8e-4463-8efe-bc9cb2f47340","ios":"levelo://app?vid=028b69b2-5e8e-4463-8efe-bc9cb2f47340"},"vehicle_type_id":"4","last_reported":1707156537,"current_range_meters":22800,"station_id":"ce4bgvp2rcd13ifvqcu0","pricing_plan_id":"free"},{"bike_id":"3f1adaa1-f082-4b01-b176-05fce19e59a0","system_id":"levelo_inurba_marseille","lat":43.31326,"lon":5.39698,"is_reserved":false,"is_disabled":false,"rental_uris":{"android":"levelo://app?vid=3f1adaa1-f082-4b01-b176-05fce19e59a0","ios":"levelo://app?vid=3f1adaa1-f082-4b01-b176-05fce19e59a0"},"vehicle_type_id":"4","last_reported":1707156537,"current_range_meters":22800,"station_id":"ce4bgvp2rcd13ifvqcu0","pricing_plan_id":"free"},{"bike_id":"27deed44-f573-4aee-bff4-4f08db4116f6","system_id":"levelo_inurba_marseille","lat":43.309047,"lon":5.396551,"is_reserved":false,"is_disabled":false,"rental_uris":{"android":"levelo://app?vid=27deed44-f573-4aee-bff4-4f08db4116f6","ios":"levelo://app?vid=27deed44-f573-4aee-bff4-4f08db4116f6"},"vehicle_type_id":"4","last_reported":1707156537,"current_range_meters":800,"station_id":"ce4bh012rcd13ifvqcv0","pricing_plan_id":"free"},{"bike_id":"42a5b335-1728-46f3-a025-984a248c6c6f","system_id":"levelo_inurba_marseille","lat":43.3133,"lon":5.39701,"is_reserved":false,"is_disabled":false,"rental_uris":{"android":"levelo://app?vid=42a5b335-1728-46f3-a025-984a248c6c6f","ios":"levelo://app?vid=42a5b335-1728-46f3-a025-984a248c6c6f"},"vehicle_type_id":"4","last_reported":1707156537,"current_range_meters":12400,"station_id":"ce4bgvp2rcd13ifvqcu0","pricing_plan_id":"free"},{"bike_id":"fe9a8a76-eac5-40c7-a1d5-daf22af3c9d2","system_id":"levelo_inurba_marseille","lat":43.313291,"lon":5.396838,"is_reserved":false,"is_disabled":false,"rental_uris":{"android":"levelo://app?vid=fe9a8a76-eac5-40c7-a1d5-daf22af3c9d2","ios":"levelo://app?vid=fe9a8a76-eac5-40c7-a1d5-daf22af3c9d2"},"vehicle_type_id":"4","last_reported":1707156537,"current_range_meters":400,"station_id":"ce4bgvp2rcd13ifvqcu0","pricing_plan_id":"free"},{"bike_id":"762caa4f-74e6-47aa-bc94-51ce2e1c78bb","system_id":"levelo_inurba_marseille","lat":43.309038,"lon":5.396546,"is_reserved":false,"is_disabled":false,"rental_uris":{"android":"levelo://app?vid=762caa4f-74e6-47aa-bc94-51ce2e1c78bb","ios":"levelo://app?vid=762caa4f-74e6-47aa-bc94-51ce2e1c78bb"},"vehicle_type_id":"4","last_reported":1707156537,"current_range_meters":4000,"station_id":"ce4bh012rcd13ifvqcv0","pricing_plan_id":"free"},{"bike_id":"3d78babf-b6b5-494b-8319-25c9c350bed9","system_id":"levelo_inurba_marseille","lat":43.313291,"lon":5.396838,"is_reserved":false,"is_disabled":false,"rental_uris":{"android":"levelo://app?vid=3d78babf-b6b5-494b-8319-25c9c350bed9","ios":"levelo://app?vid=3d78babf-b6b5-494b-8319-25c9c350bed9"},"vehicle_type_id":"4","last_reported":1707156537,"current_range_meters":31200,"station_id":"ce4bgvp2rcd13ifvqcu0","pricing_plan_id":"free"},{"bike_id":"cb48cac4-f5cb-4f97-b74d-e6992b401f82","system_id":"levelo_inurba_marseille","lat":43.29529,"lon":5.385581,"is_reserved":false,"is_disabled":false,"rental_uris":{"android":"levelo://app?vid=cb48cac4-f5cb-4f97-b74d-e6992b401f82","ios":"levelo://app?vid=cb48cac4-f5cb-4f97-b74d-e6992b401f82"},"vehicle_type_id":"4","last_reported":1707156537,"current_range_meters":5200,"station_id":"ce4bgih2rcd13ifvqba0","pricing_plan_id":"free"},{"bike_id":"05fca8ed-c058-43c3-b170-8b6d3f9552ac","system_id":"levelo_inurba_marseille","lat":43.309038,"lon":5.396546,"is_reserved":false,"is_disabled":false,"rental_uris":{"android":"levelo://app?vid=05fca8ed-c058-43c3-b170-8b6d3f9552ac","ios":"levelo://app?vid=05fca8ed-c058-43c3-b170-8b6d3f9552ac"},"vehicle_type_id":"4","last_reported":1707156537,"current_range_meters":7600,"station_id":"ce4bh012rcd13ifvqcv0","pricing_plan_id":"free"},{"bike_id":"6ec9dce3-f0ab-4a76-9c72-e6d0232da4bc","system_id":"levelo_inurba_marseille","lat":43.29529,"lon":5.385581,"is_reserved":false,"is_disabled":false,"rental_uris":{"android":"levelo://app?vid=6ec9dce3-f0ab-4a76-9c72-e6d0232da4bc","ios":"levelo://app?vid=6ec9dce3-f0ab-4a76-9c72-e6d0232da4bc"},"vehicle_type_id":"4","last_reported":1707156537,"current_range_meters":400,"station_id":"ce4bgih2rcd13ifvqba0","pricing_plan_id":"free"},{"bike_id":"4419a724-5255-4916-9ab6-08c2c5ae2fc3","system_id":"levelo_inurba_marseille","lat":43.316322,"lon":5.396769,"is_reserved":false,"is_disabled":false,"rental_uris":{"android":"levelo://app?vid=4419a724-5255-4916-9ab6-08c2c5ae2fc3","ios":"levelo://app?vid=4419a724-5255-4916-9ab6-08c2c5ae2fc3"},"vehicle_type_id":"4","last_reported":1707156537,"current_range_meters":23600,"station_id":"","pricing_plan_id":"free"},{"bike_id":"a940b6b7-7049-4df5-a804-f66604315b90","system_id":"levelo_inurba_marseille","lat":43.29532,"lon":5.38548,"is_reserved":false,"is_disabled":false,"rental_uris":{"android":"levelo://app?vid=a940b6b7-7049-4df5-a804-f66604315b90","ios":"levelo://app?vid=a940b6b7-7049-4df5-a804-f66604315b90"},"vehicle_type_id":"4","last_reported":1707156537,"current_range_meters":0,"station_id":"ce4bgih2rcd13ifvqba0","pricing_plan_id":"free"},{"bike_id":"5ff25d63-b766-4b23-83da-9900b5dc7dc0","system_id":"levelo_inurba_marseille","lat":43.290779,"lon":5.371482,"is_reserved":false,"is_disabled":false,"rental_uris":{"android":"levelo://app?vid=5ff25d63-b766-4b23-83da-9900b5dc7dc0","ios":"levelo://app?vid=5ff25d63-b766-4b23-83da-9900b5dc7dc0"},"vehicle_type_id":"4","last_reported":1707156537,"current_range_meters":31200,"station_id":"ce4bh5p2rcd13ifvqe4g","pricing_plan_id":"free"},{"bike_id":"8f395e23-de65-48e0-a630-04b09fe336c6","system_id":"levelo_inurba_marseille","lat":43.290779,"lon":5.371482,"is_reserved":false,"is_disabled":false,"rental_uris":{"android":"levelo://app?vid=8f395e23-de65-48e0-a630-04b09fe336c6","ios":"levelo://app?vid=8f395e23-de65-48e0-a630-04b09fe336c6"},"vehicle_type_id":"4","last_reported":1707156537,"current_range_meters":0,"station_id":"ce4bh5p2rcd13ifvqe4g","pricing_plan_id":"free"},{"bike_id":"73217248-5a2a-4216-a5c9-6f2f39802334","system_id":"levelo_inurba_marseille","lat":43.290779,"lon":5.371482,"is_reserved":false,"is_disabled":false,"rental_uris":{"android":"levelo://app?vid=73217248-5a2a-4216-a5c9-6f2f39802334","ios":"levelo://app?vid=73217248-5a2a-4216-a5c9-6f2f39802334"},"vehicle_type_id":"4","last_reported":1707156537,"current_range_meters":7200,"station_id":"ce4bh5p2rcd13ifvqe4g","pricing_plan_id":"free"},{"bike_id":"b41dca81-6f50-4422-91ac-e33b4050d186","system_id":"levelo_inurba_marseille","lat":43.290779,"lon":5.371482,"is_reserved":false,"is_disabled":false,"rental_uris":{"android":"levelo://app?vid=b41dca81-6f50-4422-91ac-e33b4050d186","ios":"levelo://app?vid=b41dca81-6f50-4422-91ac-e33b4050d186"},"vehicle_type_id":"4","last_reported":1707156537,"current_range_meters":1200,"station_id":"ce4bh5p2rcd13ifvqe4g","pricing_plan_id":"free"},{"bike_id":"7c82175f-0f4b-4b1a-9dd2-7c703d158671","system_id":"levelo_inurba_marseille","lat":43.290779,"lon":5.371482,"is_reserved":false,"is_disabled":false,"rental_uris":{"android":"levelo://app?vid=7c82175f-0f4b-4b1a-9dd2-7c703d158671","ios":"levelo://app?vid=7c82175f-0f4b-4b1a-9dd2-7c703d158671"},"vehicle_type_id":"4","last_reported":1707156537,"current_range_meters":29600,"station_id":"ce4bh5p2rcd13ifvqe4g","pricing_plan_id":"free"},{"bike_id":"eb1f270f-fdaa-4c52-9be0-a28699ec628b","system_id":"levelo_inurba_marseille","lat":43.302008,"lon":5.394694,"is_reserved":false,"is_disabled":false,"rental_uris":{"android":"levelo://app?vid=eb1f270f-fdaa-4c52-9be0-a28699ec628b","ios":"levelo://app?vid=eb1f270f-fdaa-4c52-9be0-a28699ec628b"},"vehicle_type_id":"4","last_reported":1707156537,"current_range_meters":26400,"station_id":"ce4bh0p2rcd13ifvqd70","pricing_plan_id":"free"},{"bike_id":"ce65aef7-93d0-4da8-b418-27362a311721","system_id":"levelo_inurba_marseille","lat":43.289184,"lon":5.366408,"is_reserved":false,"is_disabled":false,"rental_uris":{"android":"levelo://app?vid=ce65aef7-93d0-4da8-b418-27362a311721","ios":"levelo://app?vid=ce65aef7-93d0-4da8-b418-27362a311721"},"vehicle_type_id":"4","last_reported":1707156537,"current_range_meters":18000,"station_id":"ce4bhap2rcd13ifvqek0","pricing_plan_id":"free"},{"bike_id":"cd5ce330-c20d-4f8f-bc84-450f1a5bfabc","system_id":"levelo_inurba_marseille","lat":43.302008,"lon":5.394694,"is_reserved":false,"is_disabled":false,"rental_uris":{"android":"levelo://app?vid=cd5ce330-c20d-4f8f-bc84-450f1a5bfabc","ios":"levelo://app?vid=cd5ce330-c20d-4f8f-bc84-450f1a5bfabc"},"vehicle_type_id":"4","last_reported":1707156537,"current_range_meters":2800,"station_id":"ce4bh0p2rcd13ifvqd70","pricing_plan_id":"free"},{"bike_id":"038ae911-0000-4f0f-8616-c23e7a1132f1","system_id":"levelo_inurba_marseille","lat":43.290624,"lon":5.359245,"is_reserved":false,"is_disabled":false,"rental_uris":{"android":"levelo://app?vid=038ae911-0000-4f0f-8616-c23e7a1132f1","ios":"levelo://app?vid=038ae911-0000-4f0f-8616-c23e7a1132f1"},"vehicle_type_id":"4","last_reported":1707156537,"current_range_meters":11600,"station_id":"ce4bha92rcd13ifvqeg0","pricing_plan_id":"free"},{"bike_id":"3a8f75cf-aaef-471e-a21a-69841e5f0e7f","system_id":"levelo_inurba_marseille","lat":43.302008,"lon":5.394694,"is_reserved":false,"is_disabled":false,"rental_uris":{"android":"levelo://app?vid=3a8f75cf-aaef-471e-a21a-69841e5f0e7f","ios":"levelo://app?vid=3a8f75cf-aaef-471e-a21a-69841e5f0e7f"},"vehicle_type_id":"4","last_reported":1707156537,"current_range_meters":15200,"station_id":"ce4bh0p2rcd13ifvqd70","pricing_plan_id":"free"},{"bike_id":"293930f5-c2a3-4dd4-92f8-4c1f3092795d","system_id":"levelo_inurba_marseille","lat":43.29422,"lon":5.38622,"is_reserved":false,"is_disabled":false,"rental_uris":{"android":"levelo://app?vid=293930f5-c2a3-4dd4-92f8-4c1f3092795d","ios":"levelo://app?vid=293930f5-c2a3-4dd4-92f8-4c1f3092795d"},"vehicle_type_id":"4","last_reported":1707156537,"current_range_meters":0,"station_id":"ce4bh2h2rcd13ifvqdh0","pricing_plan_id":"free"},{"bike_id":"82020baf-298e-4f3c-b726-4959be8b7601","system_id":"levelo_inurba_marseille","lat":43.289184,"lon":5.366408,"is_reserved":false,"is_disabled":false,"rental_uris":{"android":"levelo://app?vid=82020baf-298e-4f3c-b726-4959be8b7601","ios":"levelo://app?vid=82020baf-298e-4f3c-b726-4959be8b7601"},"vehicle_type_id":"4","last_reported":1707156537,"current_range_meters":11200,"station_id":"ce4bhap2rcd13ifvqek0","pricing_plan_id":"free"},{"bike_id":"01f890f7-dfef-4aa9-9703-07e77d28e7f2","system_id":"levelo_inurba_marseille","lat":43.28941,"lon":5.36638,"is_reserved":false,"is_disabled":false,"rental_uris":{"android":"levelo://app?vid=01f890f7-dfef-4aa9-9703-07e77d28e7f2","ios":"levelo://app?vid=01f890f7-dfef-4aa9-9703-07e77d28e7f2"},"vehicle_type_id":"4","last_reported":1707156537,"current_range_meters":7600,"station_id":"ce4bhap2rcd13ifvqek0","pricing_plan_id":"free"},{"bike_id":"bda46709-d167-413b-b592-a6c1898a91a9","system_id":"levelo_inurba_marseille","lat":43.289468,"lon":5.363719,"is_reserved":false,"is_disabled":false,"rental_uris":{"android":"levelo://app?vid=bda46709-d167-413b-b592-a6c1898a91a9","ios":"levelo://app?vid=bda46709-d167-413b-b592-a6c1898a91a9"},"vehicle_type_id":"4","last_reported":1707156537,"current_range_meters":10400,"station_id":"ce4bhc92rcd13ifvqetg","pricing_plan_id":"free"},{"bike_id":"c343f3fe-ab42-49e3-8f91-565e26a752f5","system_id":"levelo_inurba_marseille","lat":43.289488,"lon":5.363983,"is_reserved":false,"is_disabled":false,"rental_uris":{"android":"levelo://app?vid=c343f3fe-ab42-49e3-8f91-565e26a752f5","ios":"levelo://app?vid=c343f3fe-ab42-49e3-8f91-565e26a752f5"},"vehicle_type_id":"4","last_reported":1707156537,"current_range_meters":2800,"station_id":"ce4bhc92rcd13ifvqetg","pricing_plan_id":"free"},{"bike_id":"f4a70ade-789b-4422-8de5-b8540d89a4ee","system_id":"levelo_inurba_marseille","lat":43.29281,"lon":5.38455,"is_reserved":false,"is_disabled":false,"rental_uris":{"android":"levelo://app?vid=f4a70ade-789b-4422-8de5-b8540d89a4ee","ios":"levelo://app?vid=f4a70ade-789b-4422-8de5-b8540d89a4ee"},"vehicle_type_id":"4","last_reported":1707156537,"current_range_meters":0,"station_id":"ce4bh692rcd13ifvqea0","pricing_plan_id":"free"},{"bike_id":"1ab4c7dd-fe68-4704-a4be-a304fd0fb638","system_id":"levelo_inurba_marseille","lat":43.305994,"lon":5.393687,"is_reserved":false,"is_disabled":false,"rental_uris":{"android":"levelo://app?vid=1ab4c7dd-fe68-4704-a4be-a304fd0fb638","ios":"levelo://app?vid=1ab4c7dd-fe68-4704-a4be-a304fd0fb638"},"vehicle_type_id":"4","last_reported":1707156537,"current_range_meters":7200,"station_id":"ce4bh0p2rcd13ifvqd80","pricing_plan_id":"free"},{"bike_id":"357d7569-a77d-4fbb-9bff-f4c972ea0485","system_id":"levelo_inurba_marseille","lat":43.292642,"lon":5.384254,"is_reserved":false,"is_disabled":false,"rental_uris":{"android":"levelo://app?vid=357d7569-a77d-4fbb-9bff-f4c972ea0485","ios":"levelo://app?vid=357d7569-a77d-4fbb-9bff-f4c972ea0485"},"vehicle_type_id":"4","last_reported":1707156537,"current_range_meters":25600,"station_id":"ce4bh692rcd13ifvqea0","pricing_plan_id":"free"},{"bike_id":"9e91044d-c406-4dcf-b6a0-26a8255c30d6","system_id":"levelo_inurba_marseille","lat":43.29272,"lon":5.38456,"is_reserved":false,"is_disabled":false,"rental_uris":{"android":"levelo://app?vid=9e91044d-c406-4dcf-b6a0-26a8255c30d6","ios":"levelo://app?vid=9e91044d-c406-4dcf-b6a0-26a8255c30d6"},"vehicle_type_id":"4","last_reported":1707156537,"current_range_meters":0,"station_id":"ce4bh692rcd13ifvqea0","pricing_plan_id":"free"},{"bike_id":"9d3eb836-75ac-49d6-bc80-d27770c21cdc","system_id":"levelo_inurba_marseille","lat":43.292644,"lon":5.384257,"is_reserved":false,"is_disabled":false,"rental_uris":{"android":"levelo://app?vid=9d3eb836-75ac-49d6-bc80-d27770c21cdc","ios":"levelo://app?vid=9d3eb836-75ac-49d6-bc80-d27770c21cdc"},"vehicle_type_id":"4","last_reported":1707156537,"current_range_meters":19600,"station_id":"ce4bh692rcd13ifvqea0","pricing_plan_id":"free"},{"bike_id":"4baf76ce-f704-40f8-a0e8-2b0738b89270","system_id":"levelo_inurba_marseille","lat":43.29251,"lon":5.38434,"is_reserved":false,"is_disabled":false,"rental_uris":{"android":"levelo://app?vid=4baf76ce-f704-40f8-a0e8-2b0738b89270","ios":"levelo://app?vid=4baf76ce-f704-40f8-a0e8-2b0738b89270"},"vehicle_type_id":"4","last_reported":1707156537,"current_range_meters":0,"station_id":"ce4bh692rcd13ifvqea0","pricing_plan_id":"free"},{"bike_id":"4184b14e-8b3e-406d-a783-b476af9c7d3b","system_id":"levelo_inurba_marseille","lat":43.290183,"lon":5.356173,"is_reserved":false,"is_disabled":false,"rental_uris":{"android":"levelo://app?vid=4184b14e-8b3e-406d-a783-b476af9c7d3b","ios":"levelo://app?vid=4184b14e-8b3e-406d-a783-b476af9c7d3b"},"vehicle_type_id":"4","last_reported":1707156537,"current_range_meters":0,"station_id":"ce4bhb92rcd13ifvqen0","pricing_plan_id":"free"},{"bike_id":"741facdc-8fcd-44ae-9f92-79f81d7749f8","system_id":"levelo_inurba_marseille","lat":43.290103,"lon":5.356114,"is_reserved":false,"is_disabled":false,"rental_uris":{"android":"levelo://app?vid=741facdc-8fcd-44ae-9f92-79f81d7749f8","ios":"levelo://app?vid=741facdc-8fcd-44ae-9f92-79f81d7749f8"},"vehicle_type_id":"4","last_reported":1707156537,"current_range_meters":12400,"station_id":"ce4bhb92rcd13ifvqen0","pricing_plan_id":"free"},{"bike_id":"7ddfa805-695a-4a36-bfc3-18fece375819","system_id":"levelo_inurba_marseille","lat":43.290103,"lon":5.356114,"is_reserved":false,"is_disabled":false,"rental_uris":{"android":"levelo://app?vid=7ddfa805-695a-4a36-bfc3-18fece375819","ios":"levelo://app?vid=7ddfa805-695a-4a36-bfc3-18fece375819"},"vehicle_type_id":"4","last_reported":1707156537,"current_range_meters":800,"station_id":"ce4bhb92rcd13ifvqen0","pricing_plan_id":"free"},{"bike_id":"50fd6cc6-14e9-4a65-828a-efbf999b0fb1","system_id":"levelo_inurba_marseille","lat":43.29006,"lon":5.35609,"is_reserved":false,"is_disabled":false,"rental_uris":{"android":"levelo://app?vid=50fd6cc6-14e9-4a65-828a-efbf999b0fb1","ios":"levelo://app?vid=50fd6cc6-14e9-4a65-828a-efbf999b0fb1"},"vehicle_type_id":"4","last_reported":1707156537,"current_range_meters":0,"station_id":"ce4bhb92rcd13ifvqen0","pricing_plan_id":"free"},{"bike_id":"e094678a-829e-4eb4-ad1e-4f8cb38cf3ec","system_id":"levelo_inurba_marseille","lat":43.290103,"lon":5.356114,"is_reserved":false,"is_disabled":false,"rental_uris":{"android":"levelo://app?vid=e094678a-829e-4eb4-ad1e-4f8cb38cf3ec","ios":"levelo://app?vid=e094678a-829e-4eb4-ad1e-4f8cb38cf3ec"},"vehicle_type_id":"4","last_reported":1707156537,"current_range_meters":24400,"station_id":"ce4bhb92rcd13ifvqen0","pricing_plan_id":"free"},{"bike_id":"0b6308e7-7961-4830-8f84-09475130c71f","system_id":"levelo_inurba_marseille","lat":43.30238,"lon":5.39697,"is_reserved":false,"is_disabled":false,"rental_uris":{"android":"levelo://app?vid=0b6308e7-7961-4830-8f84-09475130c71f","ios":"levelo://app?vid=0b6308e7-7961-4830-8f84-09475130c71f"},"vehicle_type_id":"4","last_reported":1707156537,"current_range_meters":0,"station_id":"","pricing_plan_id":"free"},{"bike_id":"d87a43d2-eb7a-423c-9add-572b788dd305","system_id":"levelo_inurba_marseille","lat":43.29796,"lon":5.39342,"is_reserved":false,"is_disabled":false,"rental_uris":{"android":"levelo://app?vid=d87a43d2-eb7a-423c-9add-572b788dd305","ios":"levelo://app?vid=d87a43d2-eb7a-423c-9add-572b788dd305"},"vehicle_type_id":"4","last_reported":1707156537,"current_range_meters":8400,"station_id":"chh1huq6cuj3fo74tm60","pricing_plan_id":"free"},{"bike_id":"383fecf4-c283-4ff2-a945-f97c814fb9e5","system_id":"levelo_inurba_marseille","lat":43.297815,"lon":5.393548,"is_reserved":false,"is_disabled":false,"rental_uris":{"android":"levelo://app?vid=383fecf4-c283-4ff2-a945-f97c814fb9e5","ios":"levelo://app?vid=383fecf4-c283-4ff2-a945-f97c814fb9e5"},"vehicle_type_id":"4","last_reported":1707156537,"current_range_meters":3200,"station_id":"chh1huq6cuj3fo74tm60","pricing_plan_id":"free"},{"bike_id":"b7a7d7af-765d-4977-bfad-5a7575380362","system_id":"levelo_inurba_marseille","lat":43.297815,"lon":5.393548,"is_reserved":false,"is_disabled":false,"rental_uris":{"android":"levelo://app?vid=b7a7d7af-765d-4977-bfad-5a7575380362","ios":"levelo://app?vid=b7a7d7af-765d-4977-bfad-5a7575380362"},"vehicle_type_id":"4","last_reported":1707156537,"current_range_meters":2400,"station_id":"chh1huq6cuj3fo74tm60","pricing_plan_id":"free"},{"bike_id":"116a02d1-3c76-4ae4-9e6a-6e131423ba84","system_id":"levelo_inurba_marseille","lat":43.295169,"lon":5.390426,"is_reserved":false,"is_disabled":false,"rental_uris":{"android":"levelo://app?vid=116a02d1-3c76-4ae4-9e6a-6e131423ba84","ios":"levelo://app?vid=116a02d1-3c76-4ae4-9e6a-6e131423ba84"},"vehicle_type_id":"4","last_reported":1707156537,"current_range_meters":22800,"station_id":"ce4bh3p2rcd13ifvqdp0","pricing_plan_id":"free"},{"bike_id":"bd15f08c-0230-4205-91c5-ac6317d7fdf3","system_id":"levelo_inurba_marseille","lat":43.29769,"lon":5.39328,"is_reserved":false,"is_disabled":false,"rental_uris":{"android":"levelo://app?vid=bd15f08c-0230-4205-91c5-ac6317d7fdf3","ios":"levelo://app?vid=bd15f08c-0230-4205-91c5-ac6317d7fdf3"},"vehicle_type_id":"4","last_reported":1707156537,"current_range_meters":6000,"station_id":"chh1huq6cuj3fo74tm60","pricing_plan_id":"free"},{"bike_id":"b5772277-1e5a-490d-974c-370957e07eed","system_id":"levelo_inurba_marseille","lat":43.33021,"lon":5.39037,"is_reserved":false,"is_disabled":false,"rental_uris":{"android":"levelo://app?vid=b5772277-1e5a-490d-974c-370957e07eed","ios":"levelo://app?vid=b5772277-1e5a-490d-974c-370957e07eed"},"vehicle_type_id":"4","last_reported":1707156537,"current_range_meters":6000,"station_id":"ce4bhr92rcd13ifvqhrg","pricing_plan_id":"free"},{"bike_id":"2f126c3e-a0a0-4f01-b848-9fd7c377133b","system_id":"levelo_inurba_marseille","lat":43.295169,"lon":5.390426,"is_reserved":false,"is_disabled":false,"rental_uris":{"android":"levelo://app?vid=2f126c3e-a0a0-4f01-b848-9fd7c377133b","ios":"levelo://app?vid=2f126c3e-a0a0-4f01-b848-9fd7c377133b"},"vehicle_type_id":"4","last_reported":1707156537,"current_range_meters":9600,"station_id":"ce4bh3p2rcd13ifvqdp0","pricing_plan_id":"free"},{"bike_id":"d17bffba-c37f-40fa-ab16-34696ce5dced","system_id":"levelo_inurba_marseille","lat":43.295169,"lon":5.390426,"is_reserved":false,"is_disabled":false,"rental_uris":{"android":"levelo://app?vid=d17bffba-c37f-40fa-ab16-34696ce5dced","ios":"levelo://app?vid=d17bffba-c37f-40fa-ab16-34696ce5dced"},"vehicle_type_id":"4","last_reported":1707156537,"current_range_meters":1600,"station_id":"ce4bh3p2rcd13ifvqdp0","pricing_plan_id":"free"},{"bike_id":"06a6414e-78e8-4b3b-bfa1-ad46a2ffb5b6","system_id":"levelo_inurba_marseille","lat":43.29523,"lon":5.39039,"is_reserved":false,"is_disabled":false,"rental_uris":{"android":"levelo://app?vid=06a6414e-78e8-4b3b-bfa1-ad46a2ffb5b6","ios":"levelo://app?vid=06a6414e-78e8-4b3b-bfa1-ad46a2ffb5b6"},"vehicle_type_id":"4","last_reported":1707156537,"current_range_meters":20800,"station_id":"ce4bh3p2rcd13ifvqdp0","pricing_plan_id":"free"},{"bike_id":"baa26e4d-1d69-4d44-9c43-7fa7bc9a94af","system_id":"levelo_inurba_marseille","lat":43.330442,"lon":5.389148,"is_reserved":false,"is_disabled":false,"rental_uris":{"android":"levelo://app?vid=baa26e4d-1d69-4d44-9c43-7fa7bc9a94af","ios":"levelo://app?vid=baa26e4d-1d69-4d44-9c43-7fa7bc9a94af"},"vehicle_type_id":"4","last_reported":1707156537,"current_range_meters":25600,"station_id":"ce4bhr92rcd13ifvqhrg","pricing_plan_id":"free"},{"bike_id":"ef1c92eb-56fe-4235-90a8-433de86b3d8e","system_id":"levelo_inurba_marseille","lat":43.295169,"lon":5.390426,"is_reserved":false,"is_disabled":false,"rental_uris":{"android":"levelo://app?vid=ef1c92eb-56fe-4235-90a8-433de86b3d8e","ios":"levelo://app?vid=ef1c92eb-56fe-4235-90a8-433de86b3d8e"},"vehicle_type_id":"4","last_reported":1707156537,"current_range_meters":7600,"station_id":"ce4bh3p2rcd13ifvqdp0","pricing_plan_id":"free"},{"bike_id":"49971638-8d60-4cfd-b5c1-33f88c51cffc","system_id":"levelo_inurba_marseille","lat":43.330442,"lon":5.389148,"is_reserved":false,"is_disabled":false,"rental_uris":{"android":"levelo://app?vid=49971638-8d60-4cfd-b5c1-33f88c51cffc","ios":"levelo://app?vid=49971638-8d60-4cfd-b5c1-33f88c51cffc"},"vehicle_type_id":"4","last_reported":1707156537,"current_range_meters":24000,"station_id":"ce4bhr92rcd13ifvqhrg","pricing_plan_id":"free"},{"bike_id":"32c118b0-c898-48d6-ae3e-91767397bede","system_id":"levelo_inurba_marseille","lat":43.330442,"lon":5.389148,"is_reserved":false,"is_disabled":false,"rental_uris":{"android":"levelo://app?vid=32c118b0-c898-48d6-ae3e-91767397bede","ios":"levelo://app?vid=32c118b0-c898-48d6-ae3e-91767397bede"},"vehicle_type_id":"4","last_reported":1707156537,"current_range_meters":0,"station_id":"ce4bhr92rcd13ifvqhrg","pricing_plan_id":"free"},{"bike_id":"0d070698-ef1a-46e8-b5cc-6ea7df8227c3","system_id":"levelo_inurba_marseille","lat":43.28856,"lon":5.358371,"is_reserved":false,"is_disabled":false,"rental_uris":{"android":"levelo://app?vid=0d070698-ef1a-46e8-b5cc-6ea7df8227c3","ios":"levelo://app?vid=0d070698-ef1a-46e8-b5cc-6ea7df8227c3"},"vehicle_type_id":"4","last_reported":1707156537,"current_range_meters":14400,"station_id":"ce4bhb12rcd13ifvqem0","pricing_plan_id":"free"},{"bike_id":"a0030783-d023-46f3-a2d5-8050a5b4ca9d","system_id":"levelo_inurba_marseille","lat":43.288498,"lon":5.3584,"is_reserved":false,"is_disabled":false,"rental_uris":{"android":"levelo://app?vid=a0030783-d023-46f3-a2d5-8050a5b4ca9d","ios":"levelo://app?vid=a0030783-d023-46f3-a2d5-8050a5b4ca9d"},"vehicle_type_id":"4","last_reported":1707156537,"current_range_meters":0,"station_id":"ce4bhb12rcd13ifvqem0","pricing_plan_id":"free"},{"bike_id":"c623ed3b-c03c-4636-8716-7e9b14d1c7e9","system_id":"levelo_inurba_marseille","lat":43.337405,"lon":5.374496,"is_reserved":false,"is_disabled":false,"rental_uris":{"android":"levelo://app?vid=c623ed3b-c03c-4636-8716-7e9b14d1c7e9","ios":"levelo://app?vid=c623ed3b-c03c-4636-8716-7e9b14d1c7e9"},"vehicle_type_id":"4","last_reported":1707156537,"current_range_meters":30800,"station_id":"","pricing_plan_id":"free"},{"bike_id":"0676fb06-fd4c-483b-83c0-0b6d30d1280b","system_id":"levelo_inurba_marseille","lat":43.312609,"lon":5.401662,"is_reserved":false,"is_disabled":false,"rental_uris":{"android":"levelo://app?vid=0676fb06-fd4c-483b-83c0-0b6d30d1280b","ios":"levelo://app?vid=0676fb06-fd4c-483b-83c0-0b6d30d1280b"},"vehicle_type_id":"4","last_reported":1707156537,"current_range_meters":1600,"station_id":"ce4bh092rcd13ifvqd30","pricing_plan_id":"free"},{"bike_id":"0cbb4923-9753-46b2-802c-fc001737c530","system_id":"levelo_inurba_marseille","lat":43.337456,"lon":5.374561,"is_reserved":false,"is_disabled":false,"rental_uris":{"android":"levelo://app?vid=0cbb4923-9753-46b2-802c-fc001737c530","ios":"levelo://app?vid=0cbb4923-9753-46b2-802c-fc001737c530"},"vehicle_type_id":"4","last_reported":1707156537,"current_range_meters":30000,"station_id":"","pricing_plan_id":"free"},{"bike_id":"c88b544a-7d5f-44cd-9e90-26ffcf31651a","system_id":"levelo_inurba_marseille","lat":43.32686,"lon":5.39586,"is_reserved":false,"is_disabled":false,"rental_uris":{"android":"levelo://app?vid=c88b544a-7d5f-44cd-9e90-26ffcf31651a","ios":"levelo://app?vid=c88b544a-7d5f-44cd-9e90-26ffcf31651a"},"vehicle_type_id":"4","last_reported":1707156537,"current_range_meters":9200,"station_id":"","pricing_plan_id":"free"},{"bike_id":"a330071c-2da9-4b64-9bc3-5446b815df8b","system_id":"levelo_inurba_marseille","lat":43.3093,"lon":5.40146,"is_reserved":false,"is_disabled":false,"rental_uris":{"android":"levelo://app?vid=a330071c-2da9-4b64-9bc3-5446b815df8b","ios":"levelo://app?vid=a330071c-2da9-4b64-9bc3-5446b815df8b"},"vehicle_type_id":"4","last_reported":1707156537,"current_range_meters":400,"station_id":"ce4bgvp2rcd13ifvqct0","pricing_plan_id":"free"},{"bike_id":"8ae7335a-745c-47ce-bae3-f7137c433657","system_id":"levelo_inurba_marseille","lat":43.30924,"lon":5.40147,"is_reserved":false,"is_disabled":false,"rental_uris":{"android":"levelo://app?vid=8ae7335a-745c-47ce-bae3-f7137c433657","ios":"levelo://app?vid=8ae7335a-745c-47ce-bae3-f7137c433657"},"vehicle_type_id":"4","last_reported":1707156537,"current_range_meters":4400,"station_id":"ce4bgvp2rcd13ifvqct0","pricing_plan_id":"free"},{"bike_id":"51d2b538-b175-4d78-a9aa-5457907f7427","system_id":"levelo_inurba_marseille","lat":43.33747,"lon":5.37477,"is_reserved":false,"is_disabled":false,"rental_uris":{"android":"levelo://app?vid=51d2b538-b175-4d78-a9aa-5457907f7427","ios":"levelo://app?vid=51d2b538-b175-4d78-a9aa-5457907f7427"},"vehicle_type_id":"4","last_reported":1707156537,"current_range_meters":13200,"station_id":"","pricing_plan_id":"free"},{"bike_id":"0aa79d23-6057-4b61-bee9-0c9ae05037db","system_id":"levelo_inurba_marseille","lat":43.30936,"lon":5.40151,"is_reserved":false,"is_disabled":false,"rental_uris":{"android":"levelo://app?vid=0aa79d23-6057-4b61-bee9-0c9ae05037db","ios":"levelo://app?vid=0aa79d23-6057-4b61-bee9-0c9ae05037db"},"vehicle_type_id":"4","last_reported":1707156537,"current_range_meters":13600,"station_id":"","pricing_plan_id":"free"},{"bike_id":"ac21f043-cb93-421a-80a2-4b0c0be3b007","system_id":"levelo_inurba_marseille","lat":43.309371,"lon":5.401449,"is_reserved":false,"is_disabled":false,"rental_uris":{"android":"levelo://app?vid=ac21f043-cb93-421a-80a2-4b0c0be3b007","ios":"levelo://app?vid=ac21f043-cb93-421a-80a2-4b0c0be3b007"},"vehicle_type_id":"4","last_reported":1707156537,"current_range_meters":4400,"station_id":"ce4bgvp2rcd13ifvqct0","pricing_plan_id":"free"},{"bike_id":"e5cd9ba0-809c-457b-b079-012319951636","system_id":"levelo_inurba_marseille","lat":43.33748,"lon":5.37491,"is_reserved":false,"is_disabled":false,"rental_uris":{"android":"levelo://app?vid=e5cd9ba0-809c-457b-b079-012319951636","ios":"levelo://app?vid=e5cd9ba0-809c-457b-b079-012319951636"},"vehicle_type_id":"4","last_reported":1707156537,"current_range_meters":25200,"station_id":"","pricing_plan_id":"free"},{"bike_id":"af682de8-24bd-4545-8207-25d4574c532e","system_id":"levelo_inurba_marseille","lat":43.30642,"lon":5.401031,"is_reserved":false,"is_disabled":false,"rental_uris":{"android":"levelo://app?vid=af682de8-24bd-4545-8207-25d4574c532e","ios":"levelo://app?vid=af682de8-24bd-4545-8207-25d4574c532e"},"vehicle_type_id":"4","last_reported":1707156537,"current_range_meters":6400,"station_id":"ce4bh112rcd13ifvqda0","pricing_plan_id":"free"},{"bike_id":"eaae03a2-ed37-4ff3-b6c1-696f5dfb9726","system_id":"levelo_inurba_marseille","lat":43.337582,"lon":5.374607,"is_reserved":false,"is_disabled":false,"rental_uris":{"android":"levelo://app?vid=eaae03a2-ed37-4ff3-b6c1-696f5dfb9726","ios":"levelo://app?vid=eaae03a2-ed37-4ff3-b6c1-696f5dfb9726"},"vehicle_type_id":"4","last_reported":1707156537,"current_range_meters":27200,"station_id":"","pricing_plan_id":"free"},{"bike_id":"10074680-019e-4025-a9b6-96cd525dd3bb","system_id":"levelo_inurba_marseille","lat":43.337573,"lon":5.374733,"is_reserved":false,"is_disabled":false,"rental_uris":{"android":"levelo://app?vid=10074680-019e-4025-a9b6-96cd525dd3bb","ios":"levelo://app?vid=10074680-019e-4025-a9b6-96cd525dd3bb"},"vehicle_type_id":"4","last_reported":1707156537,"current_range_meters":7600,"station_id":"","pricing_plan_id":"free"},{"bike_id":"ce287119-2f67-4a69-accd-39615d1d1ffd","system_id":"levelo_inurba_marseille","lat":43.306412,"lon":5.401035,"is_reserved":false,"is_disabled":false,"rental_uris":{"android":"levelo://app?vid=ce287119-2f67-4a69-accd-39615d1d1ffd","ios":"levelo://app?vid=ce287119-2f67-4a69-accd-39615d1d1ffd"},"vehicle_type_id":"4","last_reported":1707156537,"current_range_meters":11200,"station_id":"ce4bh112rcd13ifvqda0","pricing_plan_id":"free"},{"bike_id":"b5c8cd35-34dd-45ee-b3e7-3050ef3cbe6a","system_id":"levelo_inurba_marseille","lat":43.337673,"lon":5.374918,"is_reserved":false,"is_disabled":false,"rental_uris":{"android":"levelo://app?vid=b5c8cd35-34dd-45ee-b3e7-3050ef3cbe6a","ios":"levelo://app?vid=b5c8cd35-34dd-45ee-b3e7-3050ef3cbe6a"},"vehicle_type_id":"4","last_reported":1707156537,"current_range_meters":7600,"station_id":"","pricing_plan_id":"free"},{"bike_id":"1669dc4d-b4e8-4463-a13b-8549532ad020","system_id":"levelo_inurba_marseille","lat":43.30133,"lon":5.39867,"is_reserved":false,"is_disabled":false,"rental_uris":{"android":"levelo://app?vid=1669dc4d-b4e8-4463-a13b-8549532ad020","ios":"levelo://app?vid=1669dc4d-b4e8-4463-a13b-8549532ad020"},"vehicle_type_id":"4","last_reported":1707156537,"current_range_meters":1200,"station_id":"ce4bh0h2rcd13ifvqd40","pricing_plan_id":"free"},{"bike_id":"b2b0fc82-637a-4be0-bf42-9fd27664a1e0","system_id":"levelo_inurba_marseille","lat":43.28727,"lon":5.36078,"is_reserved":false,"is_disabled":false,"rental_uris":{"android":"levelo://app?vid=b2b0fc82-637a-4be0-bf42-9fd27664a1e0","ios":"levelo://app?vid=b2b0fc82-637a-4be0-bf42-9fd27664a1e0"},"vehicle_type_id":"4","last_reported":1707156537,"current_range_meters":7200,"station_id":"cki0cbj6b192h4jlfktg","pricing_plan_id":"free"},{"bike_id":"4cedcf62-5b2b-482e-9d49-1ab31025ea06","system_id":"levelo_inurba_marseille","lat":43.286593,"lon":5.363346,"is_reserved":false,"is_disabled":false,"rental_uris":{"android":"levelo://app?vid=4cedcf62-5b2b-482e-9d49-1ab31025ea06","ios":"levelo://app?vid=4cedcf62-5b2b-482e-9d49-1ab31025ea06"},"vehicle_type_id":"4","last_reported":1707156537,"current_range_meters":18000,"station_id":"ce4bhah2rcd13ifvqej0","pricing_plan_id":"free"},{"bike_id":"15bb5fd2-a440-40e9-be8b-e7512549769f","system_id":"levelo_inurba_marseille","lat":43.286591,"lon":5.363346,"is_reserved":false,"is_disabled":false,"rental_uris":{"android":"levelo://app?vid=15bb5fd2-a440-40e9-be8b-e7512549769f","ios":"levelo://app?vid=15bb5fd2-a440-40e9-be8b-e7512549769f"},"vehicle_type_id":"4","last_reported":1707156537,"current_range_meters":23200,"station_id":"ce4bhah2rcd13ifvqej0","pricing_plan_id":"free"},{"bike_id":"5244238b-66bf-467a-bfe5-0b1210cca314","system_id":"levelo_inurba_marseille","lat":43.298681,"lon":5.397225,"is_reserved":false,"is_disabled":false,"rental_uris":{"android":"levelo://app?vid=5244238b-66bf-467a-bfe5-0b1210cca314","ios":"levelo://app?vid=5244238b-66bf-467a-bfe5-0b1210cca314"},"vehicle_type_id":"4","last_reported":1707156537,"current_range_meters":0,"station_id":"ce4bh0h2rcd13ifvqd50","pricing_plan_id":"free"},{"bike_id":"5c72941a-faac-4bc4-b63a-f3f407cb256a","system_id":"levelo_inurba_marseille","lat":43.286591,"lon":5.363346,"is_reserved":false,"is_disabled":false,"rental_uris":{"android":"levelo://app?vid=5c72941a-faac-4bc4-b63a-f3f407cb256a","ios":"levelo://app?vid=5c72941a-faac-4bc4-b63a-f3f407cb256a"},"vehicle_type_id":"4","last_reported":1707156537,"current_range_meters":23200,"station_id":"ce4bhah2rcd13ifvqej0","pricing_plan_id":"free"},{"bike_id":"1578b6bd-5c33-458d-ac7e-e12324daa65d","system_id":"levelo_inurba_marseille","lat":43.286961,"lon":5.373785,"is_reserved":false,"is_disabled":false,"rental_uris":{"android":"levelo://app?vid=1578b6bd-5c33-458d-ac7e-e12324daa65d","ios":"levelo://app?vid=1578b6bd-5c33-458d-ac7e-e12324daa65d"},"vehicle_type_id":"4","last_reported":1707156537,"current_range_meters":5200,"station_id":"ce4bh3p2rcd13ifvqdq0","pricing_plan_id":"free"},{"bike_id":"744693f8-1177-4c0a-bf61-6cc687353819","system_id":"levelo_inurba_marseille","lat":43.286961,"lon":5.373785,"is_reserved":false,"is_disabled":false,"rental_uris":{"android":"levelo://app?vid=744693f8-1177-4c0a-bf61-6cc687353819","ios":"levelo://app?vid=744693f8-1177-4c0a-bf61-6cc687353819"},"vehicle_type_id":"4","last_reported":1707156537,"current_range_meters":14800,"station_id":"ce4bh3p2rcd13ifvqdq0","pricing_plan_id":"free"},{"bike_id":"553b2083-2c26-480f-a8de-9b5ebea81d6f","system_id":"levelo_inurba_marseille","lat":43.286961,"lon":5.373785,"is_reserved":false,"is_disabled":false,"rental_uris":{"android":"levelo://app?vid=553b2083-2c26-480f-a8de-9b5ebea81d6f","ios":"levelo://app?vid=553b2083-2c26-480f-a8de-9b5ebea81d6f"},"vehicle_type_id":"4","last_reported":1707156537,"current_range_meters":15600,"station_id":"ce4bh3p2rcd13ifvqdq0","pricing_plan_id":"free"},{"bike_id":"0433629c-a2d7-47a8-9b7b-04b78e6974a7","system_id":"levelo_inurba_marseille","lat":43.286961,"lon":5.373785,"is_reserved":false,"is_disabled":false,"rental_uris":{"android":"levelo://app?vid=0433629c-a2d7-47a8-9b7b-04b78e6974a7","ios":"levelo://app?vid=0433629c-a2d7-47a8-9b7b-04b78e6974a7"},"vehicle_type_id":"4","last_reported":1707156537,"current_range_meters":11600,"station_id":"ce4bh3p2rcd13ifvqdq0","pricing_plan_id":"free"},{"bike_id":"95ea24a0-62bd-41f7-9ce6-fa51dfd97365","system_id":"levelo_inurba_marseille","lat":43.286961,"lon":5.373785,"is_reserved":false,"is_disabled":false,"rental_uris":{"android":"levelo://app?vid=95ea24a0-62bd-41f7-9ce6-fa51dfd97365","ios":"levelo://app?vid=95ea24a0-62bd-41f7-9ce6-fa51dfd97365"},"vehicle_type_id":"4","last_reported":1707156537,"current_range_meters":0,"station_id":"ce4bh3p2rcd13ifvqdq0","pricing_plan_id":"free"},{"bike_id":"3de355f6-8486-418c-8a25-fe510197c6b3","system_id":"levelo_inurba_marseille","lat":43.295196,"lon":5.39397,"is_reserved":false,"is_disabled":false,"rental_uris":{"android":"levelo://app?vid=3de355f6-8486-418c-8a25-fe510197c6b3","ios":"levelo://app?vid=3de355f6-8486-418c-8a25-fe510197c6b3"},"vehicle_type_id":"4","last_reported":1707156537,"current_range_meters":5600,"station_id":"ce4bh292rcd13ifvqdf0","pricing_plan_id":"free"},{"bike_id":"1b5b42ad-b0d0-438f-ab37-f041275f586d","system_id":"levelo_inurba_marseille","lat":43.2954,"lon":5.39403,"is_reserved":false,"is_disabled":false,"rental_uris":{"android":"levelo://app?vid=1b5b42ad-b0d0-438f-ab37-f041275f586d","ios":"levelo://app?vid=1b5b42ad-b0d0-438f-ab37-f041275f586d"},"vehicle_type_id":"4","last_reported":1707156537,"current_range_meters":0,"station_id":"ce4bh292rcd13ifvqdf0","pricing_plan_id":"free"},{"bike_id":"744d42f1-23ea-4751-8e2f-610d8fa654fe","system_id":"levelo_inurba_marseille","lat":43.286593,"lon":5.363346,"is_reserved":false,"is_disabled":false,"rental_uris":{"android":"levelo://app?vid=744d42f1-23ea-4751-8e2f-610d8fa654fe","ios":"levelo://app?vid=744d42f1-23ea-4751-8e2f-610d8fa654fe"},"vehicle_type_id":"4","last_reported":1707156537,"current_range_meters":5200,"station_id":"ce4bhah2rcd13ifvqej0","pricing_plan_id":"free"},{"bike_id":"e50744ef-94b6-4806-99c4-b17747ae1cf2","system_id":"levelo_inurba_marseille","lat":43.29526,"lon":5.39399,"is_reserved":false,"is_disabled":false,"rental_uris":{"android":"levelo://app?vid=e50744ef-94b6-4806-99c4-b17747ae1cf2","ios":"levelo://app?vid=e50744ef-94b6-4806-99c4-b17747ae1cf2"},"vehicle_type_id":"4","last_reported":1707156537,"current_range_meters":4800,"station_id":"ce4bh292rcd13ifvqdf0","pricing_plan_id":"free"},{"bike_id":"7ac9b060-817c-4499-b295-984cc26e40a3","system_id":"levelo_inurba_marseille","lat":43.286961,"lon":5.373785,"is_reserved":false,"is_disabled":false,"rental_uris":{"android":"levelo://app?vid=7ac9b060-817c-4499-b295-984cc26e40a3","ios":"levelo://app?vid=7ac9b060-817c-4499-b295-984cc26e40a3"},"vehicle_type_id":"4","last_reported":1707156537,"current_range_meters":6000,"station_id":"ce4bh3p2rcd13ifvqdq0","pricing_plan_id":"free"},{"bike_id":"9e6f47ec-4f23-4cad-838b-fb842ebced53","system_id":"levelo_inurba_marseille","lat":43.295194,"lon":5.39397,"is_reserved":false,"is_disabled":false,"rental_uris":{"android":"levelo://app?vid=9e6f47ec-4f23-4cad-838b-fb842ebced53","ios":"levelo://app?vid=9e6f47ec-4f23-4cad-838b-fb842ebced53"},"vehicle_type_id":"4","last_reported":1707156537,"current_range_meters":3200,"station_id":"ce4bh292rcd13ifvqdf0","pricing_plan_id":"free"},{"bike_id":"dcd9bcff-79ac-47ad-b43c-394bb3473549","system_id":"levelo_inurba_marseille","lat":43.290345,"lon":5.38646,"is_reserved":false,"is_disabled":false,"rental_uris":{"android":"levelo://app?vid=dcd9bcff-79ac-47ad-b43c-394bb3473549","ios":"levelo://app?vid=dcd9bcff-79ac-47ad-b43c-394bb3473549"},"vehicle_type_id":"4","last_reported":1707156537,"current_range_meters":10000,"station_id":"ce4bh4p2rcd13ifvqe0g","pricing_plan_id":"free"},{"bike_id":"7137f8a3-3130-449f-b1d5-b7de078a7b2c","system_id":"levelo_inurba_marseille","lat":43.289307,"lon":5.38406,"is_reserved":false,"is_disabled":false,"rental_uris":{"android":"levelo://app?vid=7137f8a3-3130-449f-b1d5-b7de078a7b2c","ios":"levelo://app?vid=7137f8a3-3130-449f-b1d5-b7de078a7b2c"},"vehicle_type_id":"4","last_reported":1707156537,"current_range_meters":0,"station_id":"ce4bh612rcd13ifvqe6g","pricing_plan_id":"free"},{"bike_id":"b2f73fa1-feeb-45ef-9699-ec5d602148c0","system_id":"levelo_inurba_marseille","lat":43.302759,"lon":5.400793,"is_reserved":false,"is_disabled":false,"rental_uris":{"android":"levelo://app?vid=b2f73fa1-feeb-45ef-9699-ec5d602148c0","ios":"levelo://app?vid=b2f73fa1-feeb-45ef-9699-ec5d602148c0"},"vehicle_type_id":"4","last_reported":1707156537,"current_range_meters":10000,"station_id":"ce4bgvh2rcd13ifvqcs0","pricing_plan_id":"free"},{"bike_id":"3e36114b-fb74-4169-804d-94b8c37e8d2b","system_id":"levelo_inurba_marseille","lat":43.289307,"lon":5.38406,"is_reserved":false,"is_disabled":false,"rental_uris":{"android":"levelo://app?vid=3e36114b-fb74-4169-804d-94b8c37e8d2b","ios":"levelo://app?vid=3e36114b-fb74-4169-804d-94b8c37e8d2b"},"vehicle_type_id":"4","last_reported":1707156537,"current_range_meters":20400,"station_id":"ce4bh612rcd13ifvqe6g","pricing_plan_id":"free"},{"bike_id":"539432de-1a51-4e32-92df-e0312490bef2","system_id":"levelo_inurba_marseille","lat":43.290336,"lon":5.386425,"is_reserved":false,"is_disabled":false,"rental_uris":{"android":"levelo://app?vid=539432de-1a51-4e32-92df-e0312490bef2","ios":"levelo://app?vid=539432de-1a51-4e32-92df-e0312490bef2"},"vehicle_type_id":"4","last_reported":1707156537,"current_range_meters":16400,"station_id":"ce4bh4p2rcd13ifvqe0g","pricing_plan_id":"free"},{"bike_id":"0b467a11-28c5-4b62-8802-c131ee90e5ba","system_id":"levelo_inurba_marseille","lat":43.29545,"lon":5.3948,"is_reserved":false,"is_disabled":false,"rental_uris":{"android":"levelo://app?vid=0b467a11-28c5-4b62-8802-c131ee90e5ba","ios":"levelo://app?vid=0b467a11-28c5-4b62-8802-c131ee90e5ba"},"vehicle_type_id":"4","last_reported":1707156537,"current_range_meters":22000,"station_id":"","pricing_plan_id":"free"},{"bike_id":"3e1247a1-37cc-4a00-8a6d-16f4a5adb3c5","system_id":"levelo_inurba_marseille","lat":43.286593,"lon":5.363346,"is_reserved":false,"is_disabled":false,"rental_uris":{"android":"levelo://app?vid=3e1247a1-37cc-4a00-8a6d-16f4a5adb3c5","ios":"levelo://app?vid=3e1247a1-37cc-4a00-8a6d-16f4a5adb3c5"},"vehicle_type_id":"4","last_reported":1707156537,"current_range_meters":4400,"station_id":"ce4bhah2rcd13ifvqej0","pricing_plan_id":"free"},{"bike_id":"7b4d0faa-5477-4a3b-bc8e-10cfa86c0f6d","system_id":"levelo_inurba_marseille","lat":43.287184,"lon":5.37937,"is_reserved":false,"is_disabled":false,"rental_uris":{"android":"levelo://app?vid=7b4d0faa-5477-4a3b-bc8e-10cfa86c0f6d","ios":"levelo://app?vid=7b4d0faa-5477-4a3b-bc8e-10cfa86c0f6d"},"vehicle_type_id":"4","last_reported":1707156537,"current_range_meters":16000,"station_id":"ce4bh9p2rcd13ifvqec0","pricing_plan_id":"free"},{"bike_id":"fe44edf2-db7e-4537-9b58-4f4dc91cd007","system_id":"levelo_inurba_marseille","lat":43.287184,"lon":5.37937,"is_reserved":false,"is_disabled":false,"rental_uris":{"android":"levelo://app?vid=fe44edf2-db7e-4537-9b58-4f4dc91cd007","ios":"levelo://app?vid=fe44edf2-db7e-4537-9b58-4f4dc91cd007"},"vehicle_type_id":"4","last_reported":1707156537,"current_range_meters":0,"station_id":"ce4bh9p2rcd13ifvqec0","pricing_plan_id":"free"},{"bike_id":"3b0d285d-0ef6-49fe-af2b-07fe8f0dab85","system_id":"levelo_inurba_marseille","lat":43.287185,"lon":5.379373,"is_reserved":false,"is_disabled":false,"rental_uris":{"android":"levelo://app?vid=3b0d285d-0ef6-49fe-af2b-07fe8f0dab85","ios":"levelo://app?vid=3b0d285d-0ef6-49fe-af2b-07fe8f0dab85"},"vehicle_type_id":"4","last_reported":1707156537,"current_range_meters":0,"station_id":"ce4bh9p2rcd13ifvqec0","pricing_plan_id":"free"},{"bike_id":"78737350-eff4-4286-99a0-8078a811f4a1","system_id":"levelo_inurba_marseille","lat":43.287185,"lon":5.379373,"is_reserved":false,"is_disabled":false,"rental_uris":{"android":"levelo://app?vid=78737350-eff4-4286-99a0-8078a811f4a1","ios":"levelo://app?vid=78737350-eff4-4286-99a0-8078a811f4a1"},"vehicle_type_id":"4","last_reported":1707156537,"current_range_meters":2800,"station_id":"ce4bh9p2rcd13ifvqec0","pricing_plan_id":"free"},{"bike_id":"60e56cd7-981f-4656-a151-b6c20d3ca45a","system_id":"levelo_inurba_marseille","lat":43.287185,"lon":5.379373,"is_reserved":false,"is_disabled":false,"rental_uris":{"android":"levelo://app?vid=60e56cd7-981f-4656-a151-b6c20d3ca45a","ios":"levelo://app?vid=60e56cd7-981f-4656-a151-b6c20d3ca45a"},"vehicle_type_id":"4","last_reported":1707156537,"current_range_meters":27200,"station_id":"ce4bh9p2rcd13ifvqec0","pricing_plan_id":"free"},{"bike_id":"bc787c1a-f6a8-4795-ac6a-4ff538c405c4","system_id":"levelo_inurba_marseille","lat":43.316828,"lon":5.404723,"is_reserved":false,"is_disabled":false,"rental_uris":{"android":"levelo://app?vid=bc787c1a-f6a8-4795-ac6a-4ff538c405c4","ios":"levelo://app?vid=bc787c1a-f6a8-4795-ac6a-4ff538c405c4"},"vehicle_type_id":"4","last_reported":1707156537,"current_range_meters":0,"station_id":"ce4bh012rcd13ifvqd00","pricing_plan_id":"free"},{"bike_id":"7f2b0fd6-1023-4240-a3e8-9c969b1ae31a","system_id":"levelo_inurba_marseille","lat":43.291994,"lon":5.392907,"is_reserved":false,"is_disabled":false,"rental_uris":{"android":"levelo://app?vid=7f2b0fd6-1023-4240-a3e8-9c969b1ae31a","ios":"levelo://app?vid=7f2b0fd6-1023-4240-a3e8-9c969b1ae31a"},"vehicle_type_id":"4","last_reported":1707156537,"current_range_meters":12400,"station_id":"ce4bh192rcd13ifvqdd0","pricing_plan_id":"free"},{"bike_id":"6e46f40c-a63b-4565-9ee4-41dd5d1cd6d8","system_id":"levelo_inurba_marseille","lat":43.291994,"lon":5.392907,"is_reserved":false,"is_disabled":false,"rental_uris":{"android":"levelo://app?vid=6e46f40c-a63b-4565-9ee4-41dd5d1cd6d8","ios":"levelo://app?vid=6e46f40c-a63b-4565-9ee4-41dd5d1cd6d8"},"vehicle_type_id":"4","last_reported":1707156537,"current_range_meters":9200,"station_id":"ce4bh192rcd13ifvqdd0","pricing_plan_id":"free"},{"bike_id":"e3829f45-8324-4a51-8112-2c53e704a5b4","system_id":"levelo_inurba_marseille","lat":43.291994,"lon":5.392907,"is_reserved":false,"is_disabled":false,"rental_uris":{"android":"levelo://app?vid=e3829f45-8324-4a51-8112-2c53e704a5b4","ios":"levelo://app?vid=e3829f45-8324-4a51-8112-2c53e704a5b4"},"vehicle_type_id":"4","last_reported":1707156537,"current_range_meters":20800,"station_id":"ce4bh192rcd13ifvqdd0","pricing_plan_id":"free"},{"bike_id":"11efc4c1-c948-47c3-bc9c-1f3c1aa7039b","system_id":"levelo_inurba_marseille","lat":43.284534,"lon":5.358662,"is_reserved":false,"is_disabled":false,"rental_uris":{"android":"levelo://app?vid=11efc4c1-c948-47c3-bc9c-1f3c1aa7039b","ios":"levelo://app?vid=11efc4c1-c948-47c3-bc9c-1f3c1aa7039b"},"vehicle_type_id":"4","last_reported":1707156537,"current_range_meters":18800,"station_id":"ce4bhah2rcd13ifvqei0","pricing_plan_id":"free"},{"bike_id":"faf666c1-75e4-43ac-94c4-a8c530988b04","system_id":"levelo_inurba_marseille","lat":43.284538,"lon":5.358657,"is_reserved":false,"is_disabled":false,"rental_uris":{"android":"levelo://app?vid=faf666c1-75e4-43ac-94c4-a8c530988b04","ios":"levelo://app?vid=faf666c1-75e4-43ac-94c4-a8c530988b04"},"vehicle_type_id":"4","last_reported":1707156537,"current_range_meters":13200,"station_id":"ce4bhah2rcd13ifvqei0","pricing_plan_id":"free"},{"bike_id":"0faf3e69-b74c-4c6a-8a37-fc9a625f1ec7","system_id":"levelo_inurba_marseille","lat":43.284538,"lon":5.358657,"is_reserved":false,"is_disabled":false,"rental_uris":{"android":"levelo://app?vid=0faf3e69-b74c-4c6a-8a37-fc9a625f1ec7","ios":"levelo://app?vid=0faf3e69-b74c-4c6a-8a37-fc9a625f1ec7"},"vehicle_type_id":"4","last_reported":1707156537,"current_range_meters":5600,"station_id":"ce4bhah2rcd13ifvqei0","pricing_plan_id":"free"},