{"last_updated":1700399260,"ttl":30,"version":"2.2","data":{"bikes":[{"bike_id":"65d12668-f672-46b1-84b3-0821fc6bb435","system_id":"levelo_inurba_marseille","lat":43.312239,"lon":5.368562,"is_reserved":false,"is_disabled":false,"rental_uris":{"android":"levelo://app?vid=65d12668-f672-46b1-84b3-0821fc6bb435","ios":"levelo://app?vid=65d12668-f672-46b1-84b3-0821fc6bb435"},"vehicle_type_id":"4","last_reported":1700399260,"current_range_meters":16800,"station_id":"ce4bgl92rcd13ifvqbq0","pricing_plan_id":"free"},{"bike_id":"3475d204-43b6-43d9-b615-ca1d0d58200e","system_id":"levelo_inurba_marseille","lat":43.30679,"lon":5.3679,"is_reserved":false,"is_disabled":false,"rental_uris":{"android":"levelo://app?vid=3475d204-43b6-43d9-b615-ca1d0d58200e","ios":"levelo://app?vid=3475d204-43b6-43d9-b615-ca1d0d58200e"},"vehicle_type_id":"4","last_reported":1700399260,"current_range_meters":10800,"station_id":"","pricing_plan_id":"free"},{"bike_id":"ee7dd32c-3275-48a3-83b4-2188b91b5e0d","system_id":"levelo_inurba_marseille","lat":43.305712,"lon":5.365641,"is_reserved":false,"is_disabled":false,"rental_uris":{"android":"levelo://app?vid=ee7dd32c-3275-48a3-83b4-2188b91b5e0d","ios":"levelo://app?vid=ee7dd32c-3275-48a3-83b4-2188b91b5e0d"},"vehicle_type_id":"4","last_reported":1700399260,"current_range_meters":4000,"station_id":"ce4bgs12rcd13ifvqcag","pricing_plan_id":"free"},{"bike_id":"607819cf-a4fa-4b55-885d-29b97af7d346","system_id":"levelo_inurba_marseille","lat":43.305528,"lon":5.366987,"is_reserved":false,"is_disabled":false,"rental_uris":{"android":"levelo://app?vid=607819cf-a4fa-4b55-885d-29b97af7d346","ios":"levelo://app?vid=607819cf-a4fa-4b55-885d-29b97af7d346"},"vehicle_type_id":"4","last_reported":1700399260,"current_range_meters":0,"station_id":"ce4bgrp2rcd13ifvqc9g","pricing_plan_id":"free"},{"bike_id":"09ccbac6-0f01-4cfb-8bb8-da5484277d5c","system_id":"levelo_inurba_marseille","lat":43.319513,"lon":5.371007,"is_reserved":false,"is_disabled":false,"rental_uris":{"android":"levelo://app?vid=09ccbac6-0f01-4cfb-8bb8-da5484277d5c","ios":"levelo://app?vid=09ccbac6-0f01-4cfb-8bb8-da5484277d5c"},"vehicle_type_id":"4","last_reported":1700399260,"current_range_meters":400,"station_id":"","pricing_plan_id":"free"},{"bike_id":"dcbf9c93-0758-41cf-8699-4ede01d69428","system_id":"levelo_inurba_marseille","lat":43.308208,"lon":5.376559,"is_reserved":false,"is_disabled":false,"rental_uris":{"android":"levelo://app?vid=dcbf9c93-0758-41cf-8699-4ede01d69428","ios":"levelo://app?vid=dcbf9c93-0758-41cf-8699-4ede01d69428"},"vehicle_type_id":"4","last_reported":1700399260,"current_range_meters":11200,"station_id":"ce4bgv92rcd13ifvqcq0","pricing_plan_id":"free"},{"bike_id":"c1b6f7bd-7ece-4b07-acb1-5c9f9e2474c0","system_id":"levelo_inurba_marseille","lat":43.321792,"lon":5.374912,"is_reserved":false,"is_disabled":false,"rental_uris":{"android":"levelo://app?vid=c1b6f7bd-7ece-4b07-acb1-5c9f9e2474c0","ios":"levelo://app?vid=c1b6f7bd-7ece-4b07-acb1-5c9f9e2474c0"},"vehicle_type_id":"4","last_reported":1700399260,"current_range_meters":28000,"station_id":"","pricing_plan_id":"free"},{"bike_id":"fef619ab-f2dd-4fef-8b61-dd2af1ec8342","system_id":"levelo_inurba_marseille","lat":43.301939,"lon":5.366286,"is_reserved":false,"is_disabled":false,"rental_uris":{"android":"levelo://app?vid=fef619ab-f2dd-4fef-8b61-dd2af1ec8342","ios":"levelo://app?vid=fef619ab-f2dd-4fef-8b61-dd2af1ec8342"},"vehicle_type_id":"4","last_reported":1700399260,"current_range_meters":18400,"station_id":"ce4bgrh2rcd13ifvqc8g","pricing_plan_id":"free"},{"bike_id":"3a722b20-8d9a-4ed7-bed2-82edca53ad10","system_id":"levelo_inurba_marseille","lat":43.324778,"lon":5.365549,"is_reserved":false,"is_disabled":false,"rental_uris":{"android":"levelo://app?vid=3a722b20-8d9a-4ed7-bed2-82edca53ad10","ios":"levelo://app?vid=3a722b20-8d9a-4ed7-bed2-82edca53ad10"},"vehicle_type_id":"4","last_reported":1700399260,"current_range_meters":16800,"station_id":"ce4bhs12rcd13ifvqhvg","pricing_plan_id":"free"},{"bike_id":"8c6b9948-2f23-41f5-967e-cd18cc963390","system_id":"levelo_inurba_marseille","lat":43.324771,"lon":5.36557,"is_reserved":false,"is_disabled":false,"rental_uris":{"android":"levelo://app?vid=8c6b9948-2f23-41f5-967e-cd18cc963390","ios":"levelo://app?vid=8c6b9948-2f23-41f5-967e-cd18cc963390"},"vehicle_type_id":"4","last_reported":1700399260,"current_range_meters":15200,"station_id":"ce4bhs12rcd13ifvqhvg","pricing_plan_id":"free"},{"bike_id":"80aa2afa-97fa-4924-bdce-8c8516f416e1","system_id":"levelo_inurba_marseille","lat":43.32482,"lon":5.36577,"is_reserved":false,"is_disabled":false,"rental_uris":{"android":"levelo://app?vid=80aa2afa-97fa-4924-bdce-8c8516f416e1","ios":"levelo://app?vid=80aa2afa-97fa-4924-bdce-8c8516f416e1"},"vehicle_type_id":"4","last_reported":1700399260,"current_range_meters":22800,"station_id":"ce4bhs12rcd13ifvqhvg","pricing_plan_id":"free"},{"bike_id":"3a291900-3ce4-4ad0-8ee0-05d92768168e","system_id":"levelo_inurba_marseille","lat":43.302784,"lon":5.377158,"is_reserved":false,"is_disabled":false,"rental_uris":{"android":"levelo://app?vid=3a291900-3ce4-4ad0-8ee0-05d92768168e","ios":"levelo://app?vid=3a291900-3ce4-4ad0-8ee0-05d92768168e"},"vehicle_type_id":"4","last_reported":1700399260,"current_range_meters":7600,"station_id":"ce4bguh2rcd13ifvqcj0","pricing_plan_id":"free"},{"bike_id":"044bea8f-a824-4df2-8f61-0bb25a93bc76","system_id":"levelo_inurba_marseille","lat":43.313571,"lon":5.384829,"is_reserved":false,"is_disabled":false,"rental_uris":{"android":"levelo://app?vid=044bea8f-a824-4df2-8f61-0bb25a93bc76","ios":"levelo://app?vid=044bea8f-a824-4df2-8f61-0bb25a93bc76"},"vehicle_type_id":"4","last_reported":1700399260,"current_range_meters":10000,"station_id":"ce4bgt92rcd13ifvqcf0","pricing_plan_id":"free"},{"bike_id":"5da9dea2-bd9f-4746-b637-56e44ea9e587","system_id":"levelo_inurba_marseille","lat":43.298489,"lon":5.362942,"is_reserved":false,"is_disabled":false,"rental_uris":{"android":"levelo://app?vid=5da9dea2-bd9f-4746-b637-56e44ea9e587","ios":"levelo://app?vid=5da9dea2-bd9f-4746-b637-56e44ea9e587"},"vehicle_type_id":"4","last_reported":1700399260,"current_range_meters":0,"station_id":"","pricing_plan_id":"free"},{"bike_id":"6c5d7580-0af2-4711-aac6-b10b4ab61119","system_id":"levelo_inurba_marseille","lat":43.297847,"lon":5.372297,"is_reserved":false,"is_disabled":false,"rental_uris":{"android":"levelo://app?vid=6c5d7580-0af2-4711-aac6-b10b4ab61119","ios":"levelo://app?vid=6c5d7580-0af2-4711-aac6-b10b4ab61119"},"vehicle_type_id":"4","last_reported":1700399260,"current_range_meters":0,"station_id":"","pricing_plan_id":"free"},{"bike_id":"f1823e1a-4a1c-465c-a3d5-b3d8c07ce2f2","system_id":"levelo_inurba_marseille","lat":43.32823,"lon":5.36682,"is_reserved":false,"is_disabled":false,"rental_uris":{"android":"levelo://app?vid=f1823e1a-4a1c-465c-a3d5-b3d8c07ce2f2","ios":"levelo://app?vid=f1823e1a-4a1c-465c-a3d5-b3d8c07ce2f2"},"vehicle_type_id":"4","last_reported":1700399260,"current_range_meters":14000,"station_id":"ce4bhs92rcd13ifvqi0g","pricing_plan_id":"free"},{"bike_id":"400f50f1-8856-47a5-98cc-d6af2c8bca12","system_id":"levelo_inurba_marseille","lat":43.32824,"lon":5.36678,"is_reserved":false,"is_disabled":false,"rental_uris":{"android":"levelo://app?vid=400f50f1-8856-47a5-98cc-d6af2c8bca12","ios":"levelo://app?vid=400f50f1-8856-47a5-98cc-d6af2c8bca12"},"vehicle_type_id":"4","last_reported":1700399260,"current_range_meters":10400,"station_id":"ce4bhs92rcd13ifvqi0g","pricing_plan_id":"free"},{"bike_id":"a1bfef67-e787-4496-8e54-575847ffa6ab","system_id":"levelo_inurba_marseille","lat":43.3283,"lon":5.36681,"is_reserved":false,"is_disabled":false,"rental_uris":{"android":"levelo://app?vid=a1bfef67-e787-4496-8e54-575847ffa6ab","ios":"levelo://app?vid=a1bfef67-e787-4496-8e54-575847ffa6ab"},"vehicle_type_id":"4","last_reported":1700399260,"current_range_meters":16400,"station_id":"ce4bhs92rcd13ifvqi0g","pricing_plan_id":"free"},{"bike_id":"2b484e59-19eb-437e-9314-3ae7072288ee","system_id":"levelo_inurba_marseille","lat":43.29702,"lon":5.36613,"is_reserved":false,"is_disabled":false,"rental_uris":{"android":"levelo://app?vid=2b484e59-19eb-437e-9314-3ae7072288ee","ios":"levelo://app?vid=2b484e59-19eb-437e-9314-3ae7072288ee"},"vehicle_type_id":"4","last_reported":1700399260,"current_range_meters":10800,"station_id":"ce4bgn12rcd13ifvqbt0","pricing_plan_id":"free"},{"bike_id":"2a07802c-16d5-4104-9ab3-93ca6dd62601","system_id":"levelo_inurba_marseille","lat":43.29601,"lon":5.368027,"is_reserved":false,"is_disabled":false,"rental_uris":{"android":"levelo://app?vid=2a07802c-16d5-4104-9ab3-93ca6dd62601","ios":"levelo://app?vid=2a07802c-16d5-4104-9ab3-93ca6dd62601"},"vehicle_type_id":"4","last_reported":1700399260,"current_range_meters":26400,"station_id":"","pricing_plan_id":"free"},{"bike_id":"f20ee9a8-0355-4b49-b76a-870ff3e819ed","system_id":"levelo_inurba_marseille","lat":43.29573,"lon":5.367355,"is_reserved":false,"is_disabled":false,"rental_uris":{"android":"levelo://app?vid=f20ee9a8-0355-4b49-b76a-870ff3e819ed","ios":"levelo://app?vid=f20ee9a8-0355-4b49-b76a-870ff3e819ed"},"vehicle_type_id":"4","last_reported":1700399260,"current_range_meters":4000,"station_id":"ce4bgph2rcd13ifvqc2g","pricing_plan_id":"free"},{"bike_id":"a6542b7f-bfd1-43f0-ad9d-59832e00f4eb","system_id":"levelo_inurba_marseille","lat":43.29573,"lon":5.367355,"is_reserved":false,"is_disabled":false,"rental_uris":{"android":"levelo://app?vid=a6542b7f-bfd1-43f0-ad9d-59832e00f4eb","ios":"levelo://app?vid=a6542b7f-bfd1-43f0-ad9d-59832e00f4eb"},"vehicle_type_id":"4","last_reported":1700399260,"current_range_meters":0,"station_id":"ce4bgph2rcd13ifvqc2g","pricing_plan_id":"free"},{"bike_id":"67ffd28a-0325-489b-a10f-d90500122751","system_id":"levelo_inurba_marseille","lat":43.295748,"lon":5.37522,"is_reserved":false,"is_disabled":false,"rental_uris":{"android":"levelo://app?vid=67ffd28a-0325-489b-a10f-d90500122751","ios":"levelo://app?vid=67ffd28a-0325-489b-a10f-d90500122751"},"vehicle_type_id":"4","last_reported":1700399260,"current_range_meters":30000,"station_id":"ce4bgh92rcd13ifvqb50","pricing_plan_id":"free"},{"bike_id":"5940f489-1ea4-45d5-ad29-38e104935db5","system_id":"levelo_inurba_marseille","lat":43.304278,"lon":5.388868,"is_reserved":false,"is_disabled":false,"rental_uris":{"android":"levelo://app?vid=5940f489-1ea4-45d5-ad29-38e104935db5","ios":"levelo://app?vid=5940f489-1ea4-45d5-ad29-38e104935db5"},"vehicle_type_id":"4","last_reported":1700399260,"current_range_meters":30000,"station_id":"ce4bgk12rcd13ifvqbi0","pricing_plan_id":"free"},{"bike_id":"3e3e92fe-39b7-4933-99ff-3747b28b5d69","system_id":"levelo_inurba_marseille","lat":43.328154,"lon":5.380034,"is_reserved":false,"is_disabled":false,"rental_uris":{"android":"levelo://app?vid=3e3e92fe-39b7-4933-99ff-3747b28b5d69","ios":"levelo://app?vid=3e3e92fe-39b7-4933-99ff-3747b28b5d69"},"vehicle_type_id":"4","last_reported":1700399260,"current_range_meters":6000,"station_id":"","pricing_plan_id":"free"},{"bike_id":"d28adcae-53c4-4533-b2be-357a0d11b08b","system_id":"levelo_inurba_marseille","lat":43.296053,"lon":5.37716,"is_reserved":false,"is_disabled":false,"rental_uris":{"android":"levelo://app?vid=d28adcae-53c4-4533-b2be-357a0d11b08b","ios":"levelo://app?vid=d28adcae-53c4-4533-b2be-357a0d11b08b"},"vehicle_type_id":"4","last_reported":1700399260,"current_range_meters":0,"station_id":"ce4bgi92rcd13ifvqb90","pricing_plan_id":"free"},{"bike_id":"e145a3f7-00ac-4f8f-bfe5-435bc38ccaf7","system_id":"levelo_inurba_marseille","lat":43.293801,"lon":5.363066,"is_reserved":false,"is_disabled":false,"rental_uris":{"android":"levelo://app?vid=e145a3f7-00ac-4f8f-bfe5-435bc38ccaf7","ios":"levelo://app?vid=e145a3f7-00ac-4f8f-bfe5-435bc38ccaf7"},"vehicle_type_id":"4","last_reported":1700399260,"current_range_meters":23600,"station_id":"","pricing_plan_id":"free"},{"bike_id":"40e03230-2f67-4fe2-8fb4-f021e01e53c8","system_id":"levelo_inurba_marseille","lat":43.32367,"lon":5.388836,"is_reserved":false,"is_disabled":false,"rental_uris":{"android":"levelo://app?vid=40e03230-2f67-4fe2-8fb4-f021e01e53c8","ios":"levelo://app?vid=40e03230-2f67-4fe2-8fb4-f021e01e53c8"},"vehicle_type_id":"4","last_reported":1700399260,"current_range_meters":15600,"station_id":"ce4bhqp2rcd13ifvqhog","pricing_plan_id":"free"},{"bike_id":"4eef38cc-64cf-4f4d-8d5b-99bd9d3b1b37","system_id":"levelo_inurba_marseille","lat":43.293214,"lon":5.371116,"is_reserved":false,"is_disabled":false,"rental_uris":{"android":"levelo://app?vid=4eef38cc-64cf-4f4d-8d5b-99bd9d3b1b37","ios":"levelo://app?vid=4eef38cc-64cf-4f4d-8d5b-99bd9d3b1b37"},"vehicle_type_id":"4","last_reported":1700399260,"current_range_meters":24400,"station_id":"","pricing_plan_id":"free"},{"bike_id":"dc46affe-53c5-4869-9a65-bc5ad5d0e2c4","system_id":"levelo_inurba_marseille","lat":43.303002,"lon":5.392142,"is_reserved":false,"is_disabled":false,"rental_uris":{"android":"levelo://app?vid=dc46affe-53c5-4869-9a65-bc5ad5d0e2c4","ios":"levelo://app?vid=dc46affe-53c5-4869-9a65-bc5ad5d0e2c4"},"vehicle_type_id":"4","last_reported":1700399260,"current_range_meters":28800,"station_id":"ce4bgkh2rcd13ifvqbk0","pricing_plan_id":"free"},{"bike_id":"5006f696-96dd-45aa-9a69-5bb7298f44fc","system_id":"levelo_inurba_marseille","lat":43.303002,"lon":5.392142,"is_reserved":false,"is_disabled":false,"rental_uris":{"android":"levelo://app?vid=5006f696-96dd-45aa-9a69-5bb7298f44fc","ios":"levelo://app?vid=5006f696-96dd-45aa-9a69-5bb7298f44fc"},"vehicle_type_id":"4","last_reported":1700399260,"current_range_meters":24000,"station_id":"ce4bgkh2rcd13ifvqbk0","pricing_plan_id":"free"},{"bike_id":"2474d823-7e00-4d15-b58f-839e2c1af5b0","system_id":"levelo_inurba_marseille","lat":43.29365,"lon":5.378585,"is_reserved":false,"is_disabled":false,"rental_uris":{"android":"levelo://app?vid=2474d823-7e00-4d15-b58f-839e2c1af5b0","ios":"levelo://app?vid=2474d823-7e00-4d15-b58f-839e2c1af5b0"},"vehicle_type_id":"4","last_reported":1700399260,"current_range_meters":0,"station_id":"ce4bgjh2rcd13ifvqbf0","pricing_plan_id":"free"},{"bike_id":"6b51fb3a-b8e1-4825-9a57-b017e40b4fb7","system_id":"levelo_inurba_marseille","lat":43.29529,"lon":5.38545,"is_reserved":false,"is_disabled":false,"rental_uris":{"android":"levelo://app?vid=6b51fb3a-b8e1-4825-9a57-b017e40b4fb7","ios":"levelo://app?vid=6b51fb3a-b8e1-4825-9a57-b017e40b4fb7"},"vehicle_type_id":"4","last_reported":1700399260,"current_range_meters":14400,"station_id":"ce4bgih2rcd13ifvqba0","pricing_plan_id":"free"},{"bike_id":"19e3dd94-6ef7-4a81-a6ac-14b72304b8cc","system_id":"levelo_inurba_marseille","lat":43.290104,"lon":5.356111,"is_reserved":false,"is_disabled":false,"rental_uris":{"android":"levelo://app?vid=19e3dd94-6ef7-4a81-a6ac-14b72304b8cc","ios":"levelo://app?vid=19e3dd94-6ef7-4a81-a6ac-14b72304b8cc"},"vehicle_type_id":"4","last_reported":1700399260,"current_range_meters":14800,"station_id":"ce4bhb92rcd13ifvqen0","pricing_plan_id":"free"},{"bike_id":"83a7558d-28d3-4a53-b35d-a57082c16a3f","system_id":"levelo_inurba_marseille","lat":43.29778,"lon":5.39338,"is_reserved":false,"is_disabled":false,"rental_uris":{"android":"levelo://app?vid=83a7558d-28d3-4a53-b35d-a57082c16a3f","ios":"levelo://app?vid=83a7558d-28d3-4a53-b35d-a57082c16a3f"},"vehicle_type_id":"4","last_reported":1700399260,"current_range_meters":16400,"station_id":"chh1huq6cuj3fo74tm60","pricing_plan_id":"free"},{"bike_id":"6fcdd49b-9b2d-4d46-9c14-07425c8eab04","system_id":"levelo_inurba_marseille","lat":43.290094,"lon":5.381264,"is_reserved":false,"is_disabled":false,"rental_uris":{"android":"levelo://app?vid=6fcdd49b-9b2d-4d46-9c14-07425c8eab04","ios":"levelo://app?vid=6fcdd49b-9b2d-4d46-9c14-07425c8eab04"},"vehicle_type_id":"4","last_reported":1700399260,"current_range_meters":24000,"station_id":"ce4bh4p2rcd13ifvqe1g","pricing_plan_id":"free"},{"bike_id":"74ac0789-d4fe-47cb-a7a5-b9db172e6511","system_id":"levelo_inurba_marseille","lat":43.2901,"lon":5.381269,"is_reserved":false,"is_disabled":false,"rental_uris":{"android":"levelo://app?vid=74ac0789-d4fe-47cb-a7a5-b9db172e6511","ios":"levelo://app?vid=74ac0789-d4fe-47cb-a7a5-b9db172e6511"},"vehicle_type_id":"4","last_reported":1700399260,"current_range_meters":0,"station_id":"ce4bh4p2rcd13ifvqe1g","pricing_plan_id":"free"},{"bike_id":"07202f70-50d7-46f0-a5bd-59712659d6a0","system_id":"levelo_inurba_marseille","lat":43.31251,"lon":5.40162,"is_reserved":false,"is_disabled":false,"rental_uris":{"android":"levelo://app?vid=07202f70-50d7-46f0-a5bd-59712659d6a0","ios":"levelo://app?vid=07202f70-50d7-46f0-a5bd-59712659d6a0"},"vehicle_type_id":"4","last_reported":1700399260,"current_range_meters":10800,"station_id":"","pricing_plan_id":"free"},{"bike_id":"4b839fc0-878b-4eed-9fc2-f5225b4f213c","system_id":"levelo_inurba_marseille","lat":43.3128,"lon":5.40168,"is_reserved":false,"is_disabled":false,"rental_uris":{"android":"levelo://app?vid=4b839fc0-878b-4eed-9fc2-f5225b4f213c","ios":"levelo://app?vid=4b839fc0-878b-4eed-9fc2-f5225b4f213c"},"vehicle_type_id":"4","last_reported":1700399260,"current_range_meters":0,"station_id":"ce4bh092rcd13ifvqd30","pricing_plan_id":"free"},{"bike_id":"210f2de6-7665-44ec-8c07-2928b24b9cc6","system_id":"levelo_inurba_marseille","lat":43.33758,"lon":5.37457,"is_reserved":false,"is_disabled":false,"rental_uris":{"android":"levelo://app?vid=210f2de6-7665-44ec-8c07-2928b24b9cc6","ios":"levelo://app?vid=210f2de6-7665-44ec-8c07-2928b24b9cc6"},"vehicle_type_id":"4","last_reported":1700399260,"current_range_meters":24800,"station_id":"","pricing_plan_id":"free"},{"bike_id":"46509513-12f0-4bae-91ab-3b5bb7ed22cf","system_id":"levelo_inurba_marseille","lat":43.337749,"lon":5.374257,"is_reserved":false,"is_disabled":false,"rental_uris":{"android":"levelo://app?vid=46509513-12f0-4bae-91ab-3b5bb7ed22cf","ios":"levelo://app?vid=46509513-12f0-4bae-91ab-3b5bb7ed22cf"},"vehicle_type_id":"4","last_reported":1700399260,"current_range_meters":19200,"station_id":"","pricing_plan_id":"free"},{"bike_id":"eecbc4a1-b420-4ad4-b4c3-44f0a50a2497","system_id":"levelo_inurba_marseille","lat":43.306412,"lon":5.401035,"is_reserved":false,"is_disabled":false,"rental_uris":{"android":"levelo://app?vid=eecbc4a1-b420-4ad4-b4c3-44f0a50a2497","ios":"levelo://app?vid=eecbc4a1-b420-4ad4-b4c3-44f0a50a2497"},"vehicle_type_id":"4","last_reported":1700399260,"current_range_meters":17200,"station_id":"ce4bh112rcd13ifvqda0","pricing_plan_id":"free"},{"bike_id":"ad2ecf6e-3ec1-4eb3-84a0-13f739325982","system_id":"levelo_inurba_marseille","lat":43.28724,"lon":5.36089,"is_reserved":false,"is_disabled":false,"rental_uris":{"android":"levelo://app?vid=ad2ecf6e-3ec1-4eb3-84a0-13f739325982","ios":"levelo://app?vid=ad2ecf6e-3ec1-4eb3-84a0-13f739325982"},"vehicle_type_id":"4","last_reported":1700399260,"current_range_meters":23200,"station_id":"cki0cbj6b192h4jlfktg","pricing_plan_id":"free"},{"bike_id":"daee28c8-64ab-4705-93f8-50792f277620","system_id":"levelo_inurba_marseille","lat":43.28718,"lon":5.36079,"is_reserved":false,"is_disabled":false,"rental_uris":{"android":"levelo://app?vid=daee28c8-64ab-4705-93f8-50792f277620","ios":"levelo://app?vid=daee28c8-64ab-4705-93f8-50792f277620"},"vehicle_type_id":"4","last_reported":1700399260,"current_range_meters":31200,"station_id":"cki0cbj6b192h4jlfktg","pricing_plan_id":"free"},{"bike_id":"3fa3c064-caf6-4b2b-bcc5-180862512b76","system_id":"levelo_inurba_marseille","lat":43.286591,"lon":5.363346,"is_reserved":false,"is_disabled":false,"rental_uris":{"android":"levelo://app?vid=3fa3c064-caf6-4b2b-bcc5-180862512b76","ios":"levelo://app?vid=3fa3c064-caf6-4b2b-bcc5-180862512b76"},"vehicle_type_id":"4","last_reported":1700399260,"current_range_meters":2800,"station_id":"ce4bhah2rcd13ifvqej0","pricing_plan_id":"free"},{"bike_id":"e1876538-8ec9-47ba-ae5b-6582adf9165f","system_id":"levelo_inurba_marseille","lat":43.286961,"lon":5.373785,"is_reserved":false,"is_disabled":false,"rental_uris":{"android":"levelo://app?vid=e1876538-8ec9-47ba-ae5b-6582adf9165f","ios":"levelo://app?vid=e1876538-8ec9-47ba-ae5b-6582adf9165f"},"vehicle_type_id":"4","last_reported":1700399260,"current_range_meters":0,"station_id":"ce4bh3p2rcd13ifvqdq0","pricing_plan_id":"free"},{"bike_id":"69c66326-aabb-4d04-9db8-de915f53ab9e","system_id":"levelo_inurba_marseille","lat":43.28748,"lon":5.3771,"is_reserved":false,"is_disabled":false,"rental_uris":{"android":"levelo://app?vid=69c66326-aabb-4d04-9db8-de915f53ab9e","ios":"levelo://app?vid=69c66326-aabb-4d04-9db8-de915f53ab9e"},"vehicle_type_id":"4","last_reported":1700399260,"current_range_meters":11600,"station_id":"","pricing_plan_id":"free"},{"bike_id":"44cd08f1-8815-428a-8cbc-378086fc9087","system_id":"levelo_inurba_marseille","lat":43.29034,"lon":5.38648,"is_reserved":false,"is_disabled":false,"rental_uris":{"android":"levelo://app?vid=44cd08f1-8815-428a-8cbc-378086fc9087","ios":"levelo://app?vid=44cd08f1-8815-428a-8cbc-378086fc9087"},"vehicle_type_id":"4","last_reported":1700399260,"current_range_meters":0,"station_id":"ce4bh4p2rcd13ifvqe0g","pricing_plan_id":"free"},{"bike_id":"cfbcb85e-4d7e-4311-930d-80328f9b6910","system_id":"levelo_inurba_marseille","lat":43.316517,"lon":5.404375,"is_reserved":false,"is_disabled":false,"rental_uris":{"android":"levelo://app?vid=cfbcb85e-4d7e-4311-930d-80328f9b6910","ios":"levelo://app?vid=cfbcb85e-4d7e-4311-930d-80328f9b6910"},"vehicle_type_id":"4","last_reported":1700399260,"current_range_meters":20000,"station_id":"ce4bh012rcd13ifvqd00","pricing_plan_id":"free"},{"bike_id":"930958e2-e08c-423b-884d-3d404b15ce5d","system_id":"levelo_inurba_marseille","lat":43.286039,"lon":5.370679,"is_reserved":false,"is_disabled":false,"rental_uris":{"android":"levelo://app?vid=930958e2-e08c-423b-884d-3d404b15ce5d","ios":"levelo://app?vid=930958e2-e08c-423b-884d-3d404b15ce5d"},"vehicle_type_id":"4","last_reported":1700399260,"current_range_meters":4000,"station_id":"ce4bht12rcd13ifvqi60","pricing_plan_id":"free"},{"bike_id":"7dc076e8-da24-483f-935a-40c47f04349c","system_id":"levelo_inurba_marseille","lat":43.28615,"lon":5.35105,"is_reserved":false,"is_disabled":false,"rental_uris":{"android":"levelo://app?vid=7dc076e8-da24-483f-935a-40c47f04349c","ios":"levelo://app?vid=7dc076e8-da24-483f-935a-40c47f04349c"},"vehicle_type_id":"4","last_reported":1700399260,"current_range_meters":0,"station_id":"ce4bhch2rcd13ifvqeug","pricing_plan_id":"free"},{"bike_id":"d5bbd1fd-5a9b-434a-b456-d2ea3ddbcd9c","system_id":"levelo_inurba_marseille","lat":43.283998,"lon":5.375062,"is_reserved":false,"is_disabled":false,"rental_uris":{"android":"levelo://app?vid=d5bbd1fd-5a9b-434a-b456-d2ea3ddbcd9c","ios":"levelo://app?vid=d5bbd1fd-5a9b-434a-b456-d2ea3ddbcd9c"},"vehicle_type_id":"4","last_reported":1700399260,"current_range_meters":20800,"station_id":"ce4bh412rcd13ifvqds0","pricing_plan_id":"free"},{"bike_id":"d38388e9-36d5-4354-a390-e5c38927f612","system_id":"levelo_inurba_marseille","lat":43.286595,"lon":5.386795,"is_reserved":false,"is_disabled":false,"rental_uris":{"android":"levelo://app?vid=d38388e9-36d5-4354-a390-e5c38927f612","ios":"levelo://app?vid=d38388e9-36d5-4354-a390-e5c38927f612"},"vehicle_type_id":"4","last_reported":1700399260,"current_range_meters":0,"station_id":"ce4bh492rcd13ifvqdug","pricing_plan_id":"free"},{"bike_id":"39d57ba8-1c9d-41ba-8ae8-ead2a13492f7","system_id":"levelo_inurba_marseille","lat":43.319179,"lon":5.407725,"is_reserved":false,"is_disabled":false,"rental_uris":{"android":"levelo://app?vid=39d57ba8-1c9d-41ba-8ae8-ead2a13492f7","ios":"levelo://app?vid=39d57ba8-1c9d-41ba-8ae8-ead2a13492f7"},"vehicle_type_id":"4","last_reported":1700399260,"current_range_meters":28400,"station_id":"ce4bhq12rcd13ifvqhig","pricing_plan_id":"free"},{"bike_id":"c89946f3-7b3e-4148-b390-1e91395f37e7","system_id":"levelo_inurba_marseille","lat":43.28521,"lon":5.35036,"is_reserved":false,"is_disabled":false,"rental_uris":{"android":"levelo://app?vid=c89946f3-7b3e-4148-b390-1e91395f37e7","ios":"levelo://app?vid=c89946f3-7b3e-4148-b390-1e91395f37e7"},"vehicle_type_id":"4","last_reported":1700399260,"current_range_meters":5600,"station_id":"","pricing_plan_id":"free"},{"bike_id":"5974ad3b-da81-42ca-a08b-1b3632a47afa","system_id":"levelo_inurba_marseille","lat":43.33237,"lon":5.3985,"is_reserved":false,"is_disabled":false,"rental_uris":{"android":"levelo://app?vid=5974ad3b-da81-42ca-a08b-1b3632a47afa","ios":"levelo://app?vid=5974ad3b-da81-42ca-a08b-1b3632a47afa"},"vehicle_type_id":"4","last_reported":1700399260,"current_range_meters":1600,"station_id":"","pricing_plan_id":"free"},{"bike_id":"837abbdd-05cf-4c5f-b5b5-332fb93e196d","system_id":"levelo_inurba_marseille","lat":43.284787,"lon":5.384116,"is_reserved":false,"is_disabled":false,"rental_uris":{"android":"levelo://app?vid=837abbdd-05cf-4c5f-b5b5-332fb93e196d","ios":"levelo://app?vid=837abbdd-05cf-4c5f-b5b5-332fb93e196d"},"vehicle_type_id":"4","last_reported":1700399260,"current_range_meters":24000,"station_id":"ce4bh512rcd13ifvqe3g","pricing_plan_id":"free"},{"bike_id":"d3dd3e3d-57b0-4c9e-949f-fddd56c2349c","system_id":"levelo_inurba_marseille","lat":43.32521,"lon":5.40575,"is_reserved":false,"is_disabled":false,"rental_uris":{"android":"levelo://app?vid=d3dd3e3d-57b0-4c9e-949f-fddd56c2349c","ios":"levelo://app?vid=d3dd3e3d-57b0-4c9e-949f-fddd56c2349c"},"vehicle_type_id":"4","last_reported":1700399260,"current_range_meters":0,"station_id":"","pricing_plan_id":"free"},{"bike_id":"f85d10bc-adc6-45d1-9170-bbfa5c91df51","system_id":"levelo_inurba_marseille","lat":43.284217,"lon":5.349697,"is_reserved":false,"is_disabled":false,"rental_uris":{"android":"levelo://app?vid=f85d10bc-adc6-45d1-9170-bbfa5c91df51","ios":"levelo://app?vid=f85d10bc-adc6-45d1-9170-bbfa5c91df51"},"vehicle_type_id":"4","last_reported":1700399260,"current_range_meters":0,"station_id":"ce4bhbh2rcd13ifvqepg","pricing_plan_id":"free"},{"bike_id":"8b990d4c-945a-4ae4-94b9-dd17fdf2c036","system_id":"levelo_inurba_marseille","lat":43.28418,"lon":5.34988,"is_reserved":false,"is_disabled":false,"rental_uris":{"android":"levelo://app?vid=8b990d4c-945a-4ae4-94b9-dd17fdf2c036","ios":"levelo://app?vid=8b990d4c-945a-4ae4-94b9-dd17fdf2c036"},"vehicle_type_id":"4","last_reported":1700399260,"current_range_meters":28000,"station_id":"ce4bhbh2rcd13ifvqepg","pricing_plan_id":"free"},{"bike_id":"a4a0d89f-bc79-4126-9922-886caa75eddb","system_id":"levelo_inurba_marseille","lat":43.284462,"lon":5.392121,"is_reserved":false,"is_disabled":false,"rental_uris":{"android":"levelo://app?vid=a4a0d89f-bc79-4126-9922-886caa75eddb","ios":"levelo://app?vid=a4a0d89f-bc79-4126-9922-886caa75eddb"},"vehicle_type_id":"4","last_reported":1700399260,"current_range_meters":21200,"station_id":"ce4bhoh2rcd13ifvqh5g","pricing_plan_id":"free"},{"bike_id":"ccf9b17e-2fb6-47d5-b5cb-73ea08fcb6e5","system_id":"levelo_inurba_marseille","lat":43.28575,"lon":5.39498,"is_reserved":false,"is_disabled":false,"rental_uris":{"android":"levelo://app?vid=ccf9b17e-2fb6-47d5-b5cb-73ea08fcb6e5","ios":"levelo://app?vid=ccf9b17e-2fb6-47d5-b5cb-73ea08fcb6e5"},"vehicle_type_id":"4","last_reported":1700399260,"current_range_meters":0,"station_id":"ce4bh292rcd13ifvqdg0","pricing_plan_id":"free"},{"bike_id":"311d9d2b-0d70-449e-ad6d-fbe38f3c3271","system_id":"levelo_inurba_marseille","lat":43.287154,"lon":5.399979,"is_reserved":false,"is_disabled":false,"rental_uris":{"android":"levelo://app?vid=311d9d2b-0d70-449e-ad6d-fbe38f3c3271","ios":"levelo://app?vid=311d9d2b-0d70-449e-ad6d-fbe38f3c3271"},"vehicle_type_id":"4","last_reported":1700399260,"current_range_meters":5600,"station_id":"ce4bho92rcd13ifvqh3g","pricing_plan_id":"free"},{"bike_id":"6b547704-02a4-4e04-b4d5-d8988aeb2aaf","system_id":"levelo_inurba_marseille","lat":43.299574,"lon":5.413198,"is_reserved":false,"is_disabled":false,"rental_uris":{"android":"levelo://app?vid=6b547704-02a4-4e04-b4d5-d8988aeb2aaf","ios":"levelo://app?vid=6b547704-02a4-4e04-b4d5-d8988aeb2aaf"},"vehicle_type_id":"4","last_reported":1700399260,"current_range_meters":30000,"station_id":"ce4bhp12rcd13ifvqh9g","pricing_plan_id":"free"},{"bike_id":"ec3d5511-e101-462c-b1f5-b72b05193400","system_id":"levelo_inurba_marseille","lat":43.29958,"lon":5.41334,"is_reserved":false,"is_disabled":false,"rental_uris":{"android":"levelo://app?vid=ec3d5511-e101-462c-b1f5-b72b05193400","ios":"levelo://app?vid=ec3d5511-e101-462c-b1f5-b72b05193400"},"vehicle_type_id":"4","last_reported":1700399260,"current_range_meters":30000,"station_id":"ce4bhp12rcd13ifvqh9g","pricing_plan_id":"free"},{"bike_id":"b37ad9eb-800b-42c4-b5e4-b2e1c9d9a757","system_id":"levelo_inurba_marseille","lat":43.279742,"lon":5.38744,"is_reserved":false,"is_disabled":false,"rental_uris":{"android":"levelo://app?vid=b37ad9eb-800b-42c4-b5e4-b2e1c9d9a757","ios":"levelo://app?vid=b37ad9eb-800b-42c4-b5e4-b2e1c9d9a757"},"vehicle_type_id":"4","last_reported":1700399260,"current_range_meters":0,"station_id":"ce4bhg12rcd13ifvqf80","pricing_plan_id":"free"},{"bike_id":"fea3a153-6bfd-4bda-9f66-312e406c914d","system_id":"levelo_inurba_marseille","lat":43.29954,"lon":5.41335,"is_reserved":false,"is_disabled":false,"rental_uris":{"android":"levelo://app?vid=fea3a153-6bfd-4bda-9f66-312e406c914d","ios":"levelo://app?vid=fea3a153-6bfd-4bda-9f66-312e406c914d"},"vehicle_type_id":"4","last_reported":1700399260,"current_range_meters":30400,"station_id":"ce4bhp12rcd13ifvqh9g","pricing_plan_id":"free"},{"bike_id":"9f61dd28-18d7-464d-aece-0e1c600a56ff","system_id":"levelo_inurba_marseille","lat":43.27619,"lon":5.361,"is_reserved":false,"is_disabled":false,"rental_uris":{"android":"levelo://app?vid=9f61dd28-18d7-464d-aece-0e1c600a56ff","ios":"levelo://app?vid=9f61dd28-18d7-464d-aece-0e1c600a56ff"},"vehicle_type_id":"4","last_reported":1700399260,"current_range_meters":25600,"station_id":"ce4bgj92rcd13ifvqbe0","pricing_plan_id":"free"},{"bike_id":"dc1472ac-8870-4dc8-b19c-0c207ed9d26c","system_id":"levelo_inurba_marseille","lat":43.276129,"lon":5.361287,"is_reserved":false,"is_disabled":false,"rental_uris":{"android":"levelo://app?vid=dc1472ac-8870-4dc8-b19c-0c207ed9d26c","ios":"levelo://app?vid=dc1472ac-8870-4dc8-b19c-0c207ed9d26c"},"vehicle_type_id":"4","last_reported":1700399260,"current_range_meters":13200,"station_id":"ce4bgj92rcd13ifvqbe0","pricing_plan_id":"free"},{"bike_id":"91b2f799-d6e7-4f76-b351-c3f25640b079","system_id":"levelo_inurba_marseille","lat":43.276179,"lon":5.361009,"is_reserved":false,"is_disabled":false,"rental_uris":{"android":"levelo://app?vid=91b2f799-d6e7-4f76-b351-c3f25640b079","ios":"levelo://app?vid=91b2f799-d6e7-4f76-b351-c3f25640b079"},"vehicle_type_id":"4","last_reported":1700399260,"current_range_meters":0,"station_id":"ce4bgj92rcd13ifvqbe0","pricing_plan_id":"free"},{"bike_id":"08811cba-a212-4e1c-b510-3996f9aa145c","system_id":"levelo_inurba_marseille","lat":43.27613,"lon":5.36106,"is_reserved":false,"is_disabled":false,"rental_uris":{"android":"levelo://app?vid=08811cba-a212-4e1c-b510-3996f9aa145c","ios":"levelo://app?vid=08811cba-a212-4e1c-b510-3996f9aa145c"},"vehicle_type_id":"4","last_reported":1700399260,"current_range_meters":23600,"station_id":"ce4bgj92rcd13ifvqbe0","pricing_plan_id":"free"},{"bike_id":"72affe37-5a8b-4057-b12b-019ab57e9a98","system_id":"levelo_inurba_marseille","lat":43.27612,"lon":5.36103,"is_reserved":false,"is_disabled":false,"rental_uris":{"android":"levelo://app?vid=72affe37-5a8b-4057-b12b-019ab57e9a98","ios":"levelo://app?vid=72affe37-5a8b-4057-b12b-019ab57e9a98"},"vehicle_type_id":"4","last_reported":1700399260,"current_range_meters":13600,"station_id":"ce4bgj92rcd13ifvqbe0","pricing_plan_id":"free"},{"bike_id":"2cfe0a79-0c2b-489c-b5e6-6d0c2d17a56d","system_id":"levelo_inurba_marseille","lat":43.276113,"lon":5.36109,"is_reserved":false,"is_disabled":false,"rental_uris":{"android":"levelo://app?vid=2cfe0a79-0c2b-489c-b5e6-6d0c2d17a56d","ios":"levelo://app?vid=2cfe0a79-0c2b-489c-b5e6-6d0c2d17a56d"},"vehicle_type_id":"4","last_reported":1700399260,"current_range_meters":10800,"station_id":"ce4bgj92rcd13ifvqbe0","pricing_plan_id":"free"},{"bike_id":"5f153f02-c4c9-456b-aa48-aeca587f3139","system_id":"levelo_inurba_marseille","lat":43.27513,"lon":5.36014,"is_reserved":false,"is_disabled":false,"rental_uris":{"android":"levelo://app?vid=5f153f02-c4c9-456b-aa48-aeca587f3139","ios":"levelo://app?vid=5f153f02-c4c9-456b-aa48-aeca587f3139"},"vehicle_type_id":"4","last_reported":1700399260,"current_range_meters":25200,"station_id":"","pricing_plan_id":"free"},{"bike_id":"b630c217-8f57-4186-b879-62b3ed189953","system_id":"levelo_inurba_marseille","lat":43.278401,"lon":5.392152,"is_reserved":false,"is_disabled":false,"rental_uris":{"android":"levelo://app?vid=b630c217-8f57-4186-b879-62b3ed189953","ios":"levelo://app?vid=b630c217-8f57-4186-b879-62b3ed189953"},"vehicle_type_id":"4","last_reported":1700399260,"current_range_meters":14400,"station_id":"ce4bhjp2rcd13ifvqga0","pricing_plan_id":"free"},{"bike_id":"3f323aff-7c6a-421a-a74e-bdbf814ca731","system_id":"levelo_inurba_marseille","lat":43.27379,"lon":5.36256,"is_reserved":false,"is_disabled":false,"rental_uris":{"android":"levelo://app?vid=3f323aff-7c6a-421a-a74e-bdbf814ca731","ios":"levelo://app?vid=3f323aff-7c6a-421a-a74e-bdbf814ca731"},"vehicle_type_id":"4","last_reported":1700399260,"current_range_meters":13200,"station_id":"ce4bhbh2rcd13ifvqeo0","pricing_plan_id":"free"},{"bike_id":"286eb2d1-5b6c-440c-bf92-5a707a3c9e48","system_id":"levelo_inurba_marseille","lat":43.27373,"lon":5.36255,"is_reserved":false,"is_disabled":false,"rental_uris":{"android":"levelo://app?vid=286eb2d1-5b6c-440c-bf92-5a707a3c9e48","ios":"levelo://app?vid=286eb2d1-5b6c-440c-bf92-5a707a3c9e48"},"vehicle_type_id":"4","last_reported":1700399260,"current_range_meters":13200,"station_id":"ce4bhbh2rcd13ifvqeo0","pricing_plan_id":"free"},{"bike_id":"cc342de7-22d4-4f1d-b8de-efa248efb73c","system_id":"levelo_inurba_marseille","lat":43.27373,"lon":5.36254,"is_reserved":false,"is_disabled":false,"rental_uris":{"android":"levelo://app?vid=cc342de7-22d4-4f1d-b8de-efa248efb73c","ios":"levelo://app?vid=cc342de7-22d4-4f1d-b8de-efa248efb73c"},"vehicle_type_id":"4","last_reported":1700399260,"current_range_meters":3600,"station_id":"ce4bhbh2rcd13ifvqeo0","pricing_plan_id":"free"},{"bike_id":"913b09a3-2316-477f-85e8-71caa40fd351","system_id":"levelo_inurba_marseille","lat":43.27373,"lon":5.36253,"is_reserved":false,"is_disabled":false,"rental_uris":{"android":"levelo://app?vid=913b09a3-2316-477f-85e8-71caa40fd351","ios":"levelo://app?vid=913b09a3-2316-477f-85e8-71caa40fd351"},"vehicle_type_id":"4","last_reported":1700399260,"current_range_meters":18400,"station_id":"ce4bhbh2rcd13ifvqeo0","pricing_plan_id":"free"},{"bike_id":"04a527a2-0933-4743-b658-29cd7f179ad3","system_id":"levelo_inurba_marseille","lat":43.27372,"lon":5.36259,"is_reserved":false,"is_disabled":false,"rental_uris":{"android":"levelo://app?vid=04a527a2-0933-4743-b658-29cd7f179ad3","ios":"levelo://app?vid=04a527a2-0933-4743-b658-29cd7f179ad3"},"vehicle_type_id":"4","last_reported":1700399260,"current_range_meters":8800,"station_id":"ce4bhbh2rcd13ifvqeo0","pricing_plan_id":"free"},{"bike_id":"0af078e8-a207-41f5-86d2-7a0e83241414","system_id":"levelo_inurba_marseille","lat":43.27372,"lon":5.36252,"is_reserved":false,"is_disabled":false,"rental_uris":{"android":"levelo://app?vid=0af078e8-a207-41f5-86d2-7a0e83241414","ios":"levelo://app?vid=0af078e8-a207-41f5-86d2-7a0e83241414"},"vehicle_type_id":"4","last_reported":1700399260,"current_range_meters":14800,"station_id":"ce4bhbh2rcd13ifvqeo0","pricing_plan_id":"free"},{"bike_id":"2b211598-c6f8-4e22-9ff6-5fa6873b8d02","system_id":"levelo_inurba_marseille","lat":43.317121,"lon":5.423936,"is_reserved":false,"is_disabled":false,"rental_uris":{"android":"levelo://app?vid=2b211598-c6f8-4e22-9ff6-5fa6873b8d02","ios":"levelo://app?vid=2b211598-c6f8-4e22-9ff6-5fa6873b8d02"},"vehicle_type_id":"4","last_reported":1700399260,"current_range_meters":28800,"station_id":"ce4bhp92rcd13ifvqhbg","pricing_plan_id":"free"},{"bike_id":"eafeb385-8734-4d6e-872f-817338dfdd8c","system_id":"levelo_inurba_marseille","lat":43.317121,"lon":5.423936,"is_reserved":false,"is_disabled":false,"rental_uris":{"android":"levelo://app?vid=eafeb385-8734-4d6e-872f-817338dfdd8c","ios":"levelo://app?vid=eafeb385-8734-4d6e-872f-817338dfdd8c"},"vehicle_type_id":"4","last_reported":1700399260,"current_range_meters":21200,"station_id":"ce4bhp92rcd13ifvqhbg","pricing_plan_id":"free"},{"bike_id":"5b576cc4-4596-4dca-9de9-0dcf3da99fc3","system_id":"levelo_inurba_marseille","lat":43.310785,"lon":5.424305,"is_reserved":false,"is_disabled":false,"rental_uris":{"android":"levelo://app?vid=5b576cc4-4596-4dca-9de9-0dcf3da99fc3","ios":"levelo://app?vid=5b576cc4-4596-4dca-9de9-0dcf3da99fc3"},"vehicle_type_id":"4","last_reported":1700399260,"current_range_meters":16000,"station_id":"ce4bhp92rcd13ifvqhag","pricing_plan_id":"free"},{"bike_id":"34d8a12f-27bf-4700-b035-28486b86cf27","system_id":"levelo_inurba_marseille","lat":43.304096,"lon":5.425385,"is_reserved":false,"is_disabled":false,"rental_uris":{"android":"levelo://app?vid=34d8a12f-27bf-4700-b035-28486b86cf27","ios":"levelo://app?vid=34d8a12f-27bf-4700-b035-28486b86cf27"},"vehicle_type_id":"4","last_reported":1700399260,"current_range_meters":10800,"station_id":"ce4bhoh2rcd13ifvqh6g","pricing_plan_id":"free"},{"bike_id":"1c38fde2-6f44-4d2f-930c-4a9f5bcd082c","system_id":"levelo_inurba_marseille","lat":43.304139,"lon":5.425422,"is_reserved":false,"is_disabled":false,"rental_uris":{"android":"levelo://app?vid=1c38fde2-6f44-4d2f-930c-4a9f5bcd082c","ios":"levelo://app?vid=1c38fde2-6f44-4d2f-930c-4a9f5bcd082c"},"vehicle_type_id":"4","last_reported":1700399260,"current_range_meters":13600,"station_id":"ce4bhoh2rcd13ifvqh6g","pricing_plan_id":"free"},{"bike_id":"2a7cc644-8f22-4c4c-a64e-ab107532e50a","system_id":"levelo_inurba_marseille","lat":43.295511,"lon":5.422926,"is_reserved":false,"is_disabled":false,"rental_uris":{"android":"levelo://app?vid=2a7cc644-8f22-4c4c-a64e-ab107532e50a","ios":"levelo://app?vid=2a7cc644-8f22-4c4c-a64e-ab107532e50a"},"vehicle_type_id":"4","last_reported":1700399260,"current_range_meters":25600,"station_id":"ce4bhph2rcd13ifvqhdg","pricing_plan_id":"free"},{"bike_id":"f8f5619a-a183-461d-b100-453fb972fcd4","system_id":"levelo_inurba_marseille","lat":43.272118,"lon":5.391758,"is_reserved":false,"is_disabled":false,"rental_uris":{"android":"levelo://app?vid=f8f5619a-a183-461d-b100-453fb972fcd4","ios":"levelo://app?vid=f8f5619a-a183-461d-b100-453fb972fcd4"},"vehicle_type_id":"4","last_reported":1700399260,"current_range_meters":20400,"station_id":"ce4bhhp2rcd13ifvqfm0","pricing_plan_id":"free"},{"bike_id":"150a1751-4ad7-4338-ad28-66fa4a9a72cc","system_id":"levelo_inurba_marseille","lat":43.272124,"lon":5.391768,"is_reserved":false,"is_disabled":false,"rental_uris":{"android":"levelo://app?vid=150a1751-4ad7-4338-ad28-66fa4a9a72cc","ios":"levelo://app?vid=150a1751-4ad7-4338-ad28-66fa4a9a72cc"},"vehicle_type_id":"4","last_reported":1700399260,"current_range_meters":0,"station_id":"ce4bhhp2rcd13ifvqfm0","pricing_plan_id":"free"},{"bike_id":"139753b1-0b83-4c3a-80f1-5052bac15461","system_id":"levelo_inurba_marseille","lat":43.27215,"lon":5.39265,"is_reserved":false,"is_disabled":false,"rental_uris":{"android":"levelo://app?vid=139753b1-0b83-4c3a-80f1-5052bac15461","ios":"levelo://app?vid=139753b1-0b83-4c3a-80f1-5052bac15461"},"vehicle_type_id":"4","last_reported":1700399260,"current_range_meters":8000,"station_id":"","pricing_plan_id":"free"},{"bike_id":"fe139271-7817-4645-9ec4-f7eee743e805","system_id":"levelo_inurba_marseille","lat":43.271896,"lon":5.392307,"is_reserved":false,"is_disabled":false,"rental_uris":{"android":"levelo://app?vid=fe139271-7817-4645-9ec4-f7eee743e805","ios":"levelo://app?vid=fe139271-7817-4645-9ec4-f7eee743e805"},"vehicle_type_id":"4","last_reported":1700399260,"current_range_meters":0,"station_id":"","pricing_plan_id":"free"},{"bike_id":"f0ed4531-078e-42fb-a007-3ed80505eb54","system_id":"levelo_inurba_marseille","lat":43.271891,"lon":5.392412,"is_reserved":false,"is_disabled":false,"rental_uris":{"android":"levelo://app?vid=f0ed4531-078e-42fb-a007-3ed80505eb54","ios":"levelo://app?vid=f0ed4531-078e-42fb-a007-3ed80505eb54"},"vehicle_type_id":"4","last_reported":1700399260,"current_range_meters":3200,"station_id":"","pricing_plan_id":"free"},{"bike_id":"d237de6e-9a14-436d-ab51-f37da55b089d","system_id":"levelo_inurba_marseille","lat":43.26681,"lon":5.382694,"is_reserved":false,"is_disabled":false,"rental_uris":{"android":"levelo://app?vid=d237de6e-9a14-436d-ab51-f37da55b089d","ios":"levelo://app?vid=d237de6e-9a14-436d-ab51-f37da55b089d"},"vehicle_type_id":"4","last_reported":1700399260,"current_range_meters":1600,"station_id":"ce4bhg92rcd13ifvqf90","pricing_plan_id":"free"},{"bike_id":"cf9e1cdd-7cda-4fed-93b6-99fb9b7af417","system_id":"levelo_inurba_marseille","lat":43.26681,"lon":5.382694,"is_reserved":false,"is_disabled":false,"rental_uris":{"android":"levelo://app?vid=cf9e1cdd-7cda-4fed-93b6-99fb9b7af417","ios":"levelo://app?vid=cf9e1cdd-7cda-4fed-93b6-99fb9b7af417"},"vehicle_type_id":"4","last_reported":1700399260,"current_range_meters":400,"station_id":"ce4bhg92rcd13ifvqf90","pricing_plan_id":"free"},{"bike_id":"c7758cb2-2a45-4f89-aa5c-0e391d845c76","system_id":"levelo_inurba_marseille","lat":43.326053,"lon":5.429943,"is_reserved":false,"is_disabled":false,"rental_uris":{"android":"levelo://app?vid=c7758cb2-2a45-4f89-aa5c-0e391d845c76","ios":"levelo://app?vid=c7758cb2-2a45-4f89-aa5c-0e391d845c76"},"vehicle_type_id":"4","last_reported":1700399260,"current_range_meters":400,"station_id":"","pricing_plan_id":"free"},{"bike_id":"42871d3b-8c03-490f-baf1-f4b57c44a331","system_id":"levelo_inurba_marseille","lat":43.326569,"lon":5.430586,"is_reserved":false,"is_disabled":false,"rental_uris":{"android":"levelo://app?vid=42871d3b-8c03-490f-baf1-f4b57c44a331","ios":"levelo://app?vid=42871d3b-8c03-490f-baf1-f4b57c44a331"},"vehicle_type_id":"4","last_reported":1700399260,"current_range_meters":15600,"station_id":"","pricing_plan_id":"free"},{"bike_id":"87be04d4-b68d-4ca4-bc75-5865077b920f","system_id":"levelo_inurba_marseille","lat":43.288467,"lon":5.42633,"is_reserved":false,"is_disabled":false,"rental_uris":{"android":"levelo://app?vid=87be04d4-b68d-4ca4-bc75-5865077b920f","ios":"levelo://app?vid=87be04d4-b68d-4ca4-bc75-5865077b920f"},"vehicle_type_id":"4","last_reported":1700399260,"current_range_meters":2800,"station_id":"","pricing_plan_id":"free"},{"bike_id":"15c5419a-b588-4ae6-90bd-54417c6f6978","system_id":"levelo_inurba_marseille","lat":43.308051,"lon":5.43527,"is_reserved":false,"is_disabled":false,"rental_uris":{"android":"levelo://app?vid=15c5419a-b588-4ae6-90bd-54417c6f6978","ios":"levelo://app?vid=15c5419a-b588-4ae6-90bd-54417c6f6978"},"vehicle_type_id":"4","last_reported":1700399260,"current_range_meters":30000,"station_id":"ce4bhph2rcd13ifvqheg","pricing_plan_id":"free"},{"bike_id":"0fe65d7a-e34b-4f18-a9e6-942b51edd37c","system_id":"levelo_inurba_marseille","lat":43.26949,"lon":5.40262,"is_reserved":false,"is_disabled":false,"rental_uris":{"android":"levelo://app?vid=0fe65d7a-e34b-4f18-a9e6-942b51edd37c","ios":"levelo://app?vid=0fe65d7a-e34b-4f18-a9e6-942b51edd37c"},"vehicle_type_id":"4","last_reported":1700399260,"current_range_meters":1200,"station_id":"cjm6bp8fraef2m0cb0m0","pricing_plan_id":"free"},{"bike_id":"e472b09a-104e-40f6-9da3-ea1f2df80fac","system_id":"levelo_inurba_marseille","lat":43.261782,"lon":5.374515,"is_reserved":false,"is_disabled":false,"rental_uris":{"android":"levelo://app?vid=e472b09a-104e-40f6-9da3-ea1f2df80fac","ios":"levelo://app?vid=e472b09a-104e-40f6-9da3-ea1f2df80fac"},"vehicle_type_id":"4","last_reported":1700399260,"current_range_meters":2800,"station_id":"ce4bhgp2rcd13ifvqfc0","pricing_plan_id":"free"},{"bike_id":"9b85c195-1b99-4ad8-9312-4f38bd751bd3","system_id":"levelo_inurba_marseille","lat":43.261782,"lon":5.374515,"is_reserved":false,"is_disabled":false,"rental_uris":{"android":"levelo://app?vid=9b85c195-1b99-4ad8-9312-4f38bd751bd3","ios":"levelo://app?vid=9b85c195-1b99-4ad8-9312-4f38bd751bd3"},"vehicle_type_id":"4","last_reported":1700399260,"current_range_meters":0,"station_id":"ce4bhgp2rcd13ifvqfc0","pricing_plan_id":"free"},{"bike_id":"5dab2a71-d3f9-4a92-8683-1cbbb75d4782","system_id":"levelo_inurba_marseille","lat":43.26187,"lon":5.37439,"is_reserved":false,"is_disabled":false,"rental_uris":{"android":"levelo://app?vid=5dab2a71-d3f9-4a92-8683-1cbbb75d4782","ios":"levelo://app?vid=5dab2a71-d3f9-4a92-8683-1cbbb75d4782"},"vehicle_type_id":"4","last_reported":1700399260,"current_range_meters":4000,"station_id":"ce4bhgp2rcd13ifvqfc0","pricing_plan_id":"free"},{"bike_id":"27300810-683f-4470-99b8-2f20657a41d2","system_id":"levelo_inurba_marseille","lat":43.261782,"lon":5.374515,"is_reserved":false,"is_disabled":false,"rental_uris":{"android":"levelo://app?vid=27300810-683f-4470-99b8-2f20657a41d2","ios":"levelo://app?vid=27300810-683f-4470-99b8-2f20657a41d2"},"vehicle_type_id":"4","last_reported":1700399260,"current_range_meters":6800,"station_id":"ce4bhgp2rcd13ifvqfc0","pricing_plan_id":"free"},{"bike_id":"a1dd0a3d-d7fa-4afc-823e-15a1796b73e0","system_id":"levelo_inurba_marseille","lat":43.26184,"lon":5.37439,"is_reserved":false,"is_disabled":false,"rental_uris":{"android":"levelo://app?vid=a1dd0a3d-d7fa-4afc-823e-15a1796b73e0","ios":"levelo://app?vid=a1dd0a3d-d7fa-4afc-823e-15a1796b73e0"},"vehicle_type_id":"4","last_reported":1700399260,"current_range_meters":24400,"station_id":"ce4bhgp2rcd13ifvqfc0","pricing_plan_id":"free"},{"bike_id":"b2dadd50-09bf-47cc-af3c-cdacafe125c3","system_id":"levelo_inurba_marseille","lat":43.26183,"lon":5.37445,"is_reserved":false,"is_disabled":false,"rental_uris":{"android":"levelo://app?vid=b2dadd50-09bf-47cc-af3c-cdacafe125c3","ios":"levelo://app?vid=b2dadd50-09bf-47cc-af3c-cdacafe125c3"},"vehicle_type_id":"4","last_reported":1700399260,"current_range_meters":3600,"station_id":"ce4bhgp2rcd13ifvqfc0","pricing_plan_id":"free"},{"bike_id":"0fd410fc-fdce-404b-8c48-bb3f556ee682","system_id":"levelo_inurba_marseille","lat":43.271368,"lon":5.40928,"is_reserved":false,"is_disabled":false,"rental_uris":{"android":"levelo://app?vid=0fd410fc-fdce-404b-8c48-bb3f556ee682","ios":"levelo://app?vid=0fd410fc-fdce-404b-8c48-bb3f556ee682"},"vehicle_type_id":"4","last_reported":1700399260,"current_range_meters":18400,"station_id":"ce4bhl12rcd13ifvqgf0","pricing_plan_id":"free"},{"bike_id":"1941c125-4653-4a9f-94a6-3c250ce612bb","system_id":"levelo_inurba_marseille","lat":43.271368,"lon":5.40928,"is_reserved":false,"is_disabled":false,"rental_uris":{"android":"levelo://app?vid=1941c125-4653-4a9f-94a6-3c250ce612bb","ios":"levelo://app?vid=1941c125-4653-4a9f-94a6-3c250ce612bb"},"vehicle_type_id":"4","last_reported":1700399260,"current_range_meters":2800,"station_id":"ce4bhl12rcd13ifvqgf0","pricing_plan_id":"free"},{"bike_id":"74ce853b-0d8b-42c9-81c8-17a7564a4b34","system_id":"levelo_inurba_marseille","lat":43.31725,"lon":5.43786,"is_reserved":false,"is_disabled":false,"rental_uris":{"android":"levelo://app?vid=74ce853b-0d8b-42c9-81c8-17a7564a4b34","ios":"levelo://app?vid=74ce853b-0d8b-42c9-81c8-17a7564a4b34"},"vehicle_type_id":"4","last_reported":1700399260,"current_range_meters":14800,"station_id":"","pricing_plan_id":"free"},{"bike_id":"fb99a36d-60c6-4bda-a393-aaae15f40aa4","system_id":"levelo_inurba_marseille","lat":43.260225,"lon":5.375455,"is_reserved":false,"is_disabled":false,"rental_uris":{"android":"levelo://app?vid=fb99a36d-60c6-4bda-a393-aaae15f40aa4","ios":"levelo://app?vid=fb99a36d-60c6-4bda-a393-aaae15f40aa4"},"vehicle_type_id":"4","last_reported":1700399260,"current_range_meters":10400,"station_id":"ce4bhgh2rcd13ifvqfa0","pricing_plan_id":"free"},{"bike_id":"0a34fffb-cfd3-48d0-b301-dbe46c187980","system_id":"levelo_inurba_marseille","lat":43.260219,"lon":5.37546,"is_reserved":false,"is_disabled":false,"rental_uris":{"android":"levelo://app?vid=0a34fffb-cfd3-48d0-b301-dbe46c187980","ios":"levelo://app?vid=0a34fffb-cfd3-48d0-b301-dbe46c187980"},"vehicle_type_id":"4","last_reported":1700399260,"current_range_meters":22000,"station_id":"ce4bhgh2rcd13ifvqfa0","pricing_plan_id":"free"},{"bike_id":"eceaa0f3-52ef-4d0d-b422-04c8e585a271","system_id":"levelo_inurba_marseille","lat":43.28149,"lon":5.42642,"is_reserved":false,"is_disabled":false,"rental_uris":{"android":"levelo://app?vid=eceaa0f3-52ef-4d0d-b422-04c8e585a271","ios":"levelo://app?vid=eceaa0f3-52ef-4d0d-b422-04c8e585a271"},"vehicle_type_id":"4","last_reported":1700399260,"current_range_meters":0,"station_id":"ce4bhnh2rcd13ifvqgug","pricing_plan_id":"free"},{"bike_id":"06013c89-356f-4c52-af10-fad3728c5a03","system_id":"levelo_inurba_marseille","lat":43.258414,"lon":5.376452,"is_reserved":false,"is_disabled":false,"rental_uris":{"android":"levelo://app?vid=06013c89-356f-4c52-af10-fad3728c5a03","ios":"levelo://app?vid=06013c89-356f-4c52-af10-fad3728c5a03"},"vehicle_type_id":"4","last_reported":1700399260,"current_range_meters":20000,"station_id":"","pricing_plan_id":"free"},{"bike_id":"0db002b5-dbbf-453b-8ea4-13f11976d873","system_id":"levelo_inurba_marseille","lat":43.272116,"lon":5.391747,"is_reserved":false,"is_disabled":false,"rental_uris":{"android":"levelo://app?vid=0db002b5-dbbf-453b-8ea4-13f11976d873","ios":"levelo://app?vid=0db002b5-dbbf-453b-8ea4-13f11976d873"},"vehicle_type_id":"4","last_reported":1700399260,"current_range_meters":8000,"station_id":"ce4bhhp2rcd13ifvqfm0","pricing_plan_id":"free"},{"bike_id":"96524169-f168-47e4-ba67-00b44b7e0086","system_id":"levelo_inurba_marseille","lat":43.254947,"lon":5.376454,"is_reserved":false,"is_disabled":false,"rental_uris":{"android":"levelo://app?vid=96524169-f168-47e4-ba67-00b44b7e0086","ios":"levelo://app?vid=96524169-f168-47e4-ba67-00b44b7e0086"},"vehicle_type_id":"4","last_reported":1700399260,"current_range_meters":1600,"station_id":"ce4bhh12rcd13ifvqff0","pricing_plan_id":"free"},{"bike_id":"31b3c04c-84ab-4864-86d2-f1cb1ec27c19","system_id":"levelo_inurba_marseille","lat":43.25489,"lon":5.37649,"is_reserved":false,"is_disabled":false,"rental_uris":{"android":"levelo://app?vid=31b3c04c-84ab-4864-86d2-f1cb1ec27c19","ios":"levelo://app?vid=31b3c04c-84ab-4864-86d2-f1cb1ec27c19"},"vehicle_type_id":"4","last_reported":1700399260,"current_range_meters":0,"station_id":"ce4bhh12rcd13ifvqff0","pricing_plan_id":"free"},{"bike_id":"72d80650-69dc-42fa-a524-f303e1437b9a","system_id":"levelo_inurba_marseille","lat":43.25488,"lon":5.37647,"is_reserved":false,"is_disabled":false,"rental_uris":{"android":"levelo://app?vid=72d80650-69dc-42fa-a524-f303e1437b9a","ios":"levelo://app?vid=72d80650-69dc-42fa-a524-f303e1437b9a"},"vehicle_type_id":"4","last_reported":1700399260,"current_range_meters":2000,"station_id":"ce4bhh12rcd13ifvqff0","pricing_plan_id":"free"},{"bike_id":"8c571aec-5856-4235-8432-90a8209d0baf","system_id":"levelo_inurba_marseille","lat":43.270721,"lon":5.422764,"is_reserved":false,"is_disabled":false,"rental_uris":{"android":"levelo://app?vid=8c571aec-5856-4235-8432-90a8209d0baf","ios":"levelo://app?vid=8c571aec-5856-4235-8432-90a8209d0baf"},"vehicle_type_id":"4","last_reported":1700399260,"current_range_meters":30800,"station_id":"ce4bhk92rcd13ifvqgb0","pricing_plan_id":"free"},{"bike_id":"1dfe0e9e-b86e-4908-b6bf-32ce081e3219","system_id":"levelo_inurba_marseille","lat":43.270721,"lon":5.422764,"is_reserved":false,"is_disabled":false,"rental_uris":{"android":"levelo://app?vid=1dfe0e9e-b86e-4908-b6bf-32ce081e3219","ios":"levelo://app?vid=1dfe0e9e-b86e-4908-b6bf-32ce081e3219"},"vehicle_type_id":"4","last_reported":1700399260,"current_range_meters":27200,"station_id":"ce4bhk92rcd13ifvqgb0","pricing_plan_id":"free"},{"bike_id":"653a93dc-fdc8-45b7-9661-c0469e70ba2a","system_id":"levelo_inurba_marseille","lat":43.259009,"lon":5.40929,"is_reserved":false,"is_disabled":false,"rental_uris":{"android":"levelo://app?vid=653a93dc-fdc8-45b7-9661-c0469e70ba2a","ios":"levelo://app?vid=653a93dc-fdc8-45b7-9661-c0469e70ba2a"},"vehicle_type_id":"4","last_reported":1700399260,"current_range_meters":400,"station_id":"ce4bhm92rcd13ifvqglg","pricing_plan_id":"free"},{"bike_id":"a5ff75b4-e698-4972-a762-a37c9f60e4ca","system_id":"levelo_inurba_marseille","lat":43.25035,"lon":5.37431,"is_reserved":false,"is_disabled":false,"rental_uris":{"android":"levelo://app?vid=a5ff75b4-e698-4972-a762-a37c9f60e4ca","ios":"levelo://app?vid=a5ff75b4-e698-4972-a762-a37c9f60e4ca"},"vehicle_type_id":"4","last_reported":1700399260,"current_range_meters":3600,"station_id":"","pricing_plan_id":"free"},{"bike_id":"fa83bdb3-5be8-4b2b-ad9a-d54367d02c28","system_id":"levelo_inurba_marseille","lat":43.257079,"lon":5.411051,"is_reserved":false,"is_disabled":false,"rental_uris":{"android":"levelo://app?vid=fa83bdb3-5be8-4b2b-ad9a-d54367d02c28","ios":"levelo://app?vid=fa83bdb3-5be8-4b2b-ad9a-d54367d02c28"},"vehicle_type_id":"4","last_reported":1700399260,"current_range_meters":0,"station_id":"ce4bhkp2rcd13ifvqgd0","pricing_plan_id":"free"},{"bike_id":"eda73509-5f55-4b2d-95fc-67f3395f85c0","system_id":"levelo_inurba_marseille","lat":43.25723,"lon":5.41108,"is_reserved":false,"is_disabled":false,"rental_uris":{"android":"levelo://app?vid=eda73509-5f55-4b2d-95fc-67f3395f85c0","ios":"levelo://app?vid=eda73509-5f55-4b2d-95fc-67f3395f85c0"},"vehicle_type_id":"4","last_reported":1700399260,"current_range_meters":0,"station_id":"ce4bhkp2rcd13ifvqgd0","pricing_plan_id":"free"},{"bike_id":"b01358e4-6d94-4041-97ee-bd51248ce33b","system_id":"levelo_inurba_marseille","lat":43.257079,"lon":5.411051,"is_reserved":false,"is_disabled":false,"rental_uris":{"android":"levelo://app?vid=b01358e4-6d94-4041-97ee-bd51248ce33b","ios":"levelo://app?vid=b01358e4-6d94-4041-97ee-bd51248ce33b"},"vehicle_type_id":"4","last_reported":1700399260,"current_range_meters":22000,"station_id":"ce4bhkp2rcd13ifvqgd0","pricing_plan_id":"free"},{"bike_id":"636e98fb-c36f-477b-b6a3-9fb164c3e8b9","system_id":"levelo_inurba_marseille","lat":43.2467,"lon":5.38169,"is_reserved":false,"is_disabled":false,"rental_uris":{"android":"levelo://app?vid=636e98fb-c36f-477b-b6a3-9fb164c3e8b9","ios":"levelo://app?vid=636e98fb-c36f-477b-b6a3-9fb164c3e8b9"},"vehicle_type_id":"4","last_reported":1700399260,"current_range_meters":22400,"station_id":"ce4bhih2rcd13ifvqfr0","pricing_plan_id":"free"},{"bike_id":"56e16984-9b19-4dc0-9a08-3eaf83178aa6","system_id":"levelo_inurba_marseille","lat":43.25102,"lon":5.403214,"is_reserved":false,"is_disabled":false,"rental_uris":{"android":"levelo://app?vid=56e16984-9b19-4dc0-9a08-3eaf83178aa6","ios":"levelo://app?vid=56e16984-9b19-4dc0-9a08-3eaf83178aa6"},"vehicle_type_id":"4","last_reported":1700399260,"current_range_meters":2000,"station_id":"ce4bhlh2rcd13ifvqgig","pricing_plan_id":"free"},{"bike_id":"55332525-fd99-4f08-a2a6-f5e51acf01ac","system_id":"levelo_inurba_marseille","lat":43.2439,"lon":5.37064,"is_reserved":false,"is_disabled":false,"rental_uris":{"android":"levelo://app?vid=55332525-fd99-4f08-a2a6-f5e51acf01ac","ios":"levelo://app?vid=55332525-fd99-4f08-a2a6-f5e51acf01ac"},"vehicle_type_id":"4","last_reported":1700399260,"current_range_meters":14400,"station_id":"ce4bhhh2rcd13ifvqfk0","pricing_plan_id":"free"},{"bike_id":"4a60354d-8aa8-491e-89b2-71e19fe7b17f","system_id":"levelo_inurba_marseille","lat":43.24388,"lon":5.3706,"is_reserved":false,"is_disabled":false,"rental_uris":{"android":"levelo://app?vid=4a60354d-8aa8-491e-89b2-71e19fe7b17f","ios":"levelo://app?vid=4a60354d-8aa8-491e-89b2-71e19fe7b17f"},"vehicle_type_id":"4","last_reported":1700399260,"current_range_meters":9200,"station_id":"ce4bhhh2rcd13ifvqfk0","pricing_plan_id":"free"},{"bike_id":"bcb0d86d-c53a-4f31-ac76-42d49c8c3e2a","system_id":"levelo_inurba_marseille","lat":43.24388,"lon":5.3706,"is_reserved":false,"is_disabled":false,"rental_uris":{"android":"levelo://app?vid=bcb0d86d-c53a-4f31-ac76-42d49c8c3e2a","ios":"levelo://app?vid=bcb0d86d-c53a-4f31-ac76-42d49c8c3e2a"},"vehicle_type_id":"4","last_reported":1700399260,"current_range_meters":6400,"station_id":"ce4bhhh2rcd13ifvqfk0","pricing_plan_id":"free"},{"bike_id":"f269e568-e6f3-47ba-99af-2cfb956b4388","system_id":"levelo_inurba_marseille","lat":43.243884,"lon":5.370736,"is_reserved":false,"is_disabled":false,"rental_uris":{"android":"levelo://app?vid=f269e568-e6f3-47ba-99af-2cfb956b4388","ios":"levelo://app?vid=f269e568-e6f3-47ba-99af-2cfb956b4388"},"vehicle_type_id":"4","last_reported":1700399260,"current_range_meters":5600,"station_id":"ce4bhhh2rcd13ifvqfk0","pricing_plan_id":"free"},{"bike_id":"46b77a18-5968-403d-bab9-0b3e6183e888","system_id":"levelo_inurba_marseille","lat":43.245581,"lon":5.395069,"is_reserved":false,"is_disabled":false,"rental_uris":{"android":"levelo://app?vid=46b77a18-5968-403d-bab9-0b3e6183e888","ios":"levelo://app?vid=46b77a18-5968-403d-bab9-0b3e6183e888"},"vehicle_type_id":"4","last_reported":1700399260,"current_range_meters":25600,"station_id":"ce4bhlp2rcd13ifvqgjg","pricing_plan_id":"free"},{"bike_id":"ac4ac7b3-0677-4606-af12-14cbc67eae14","system_id":"levelo_inurba_marseille","lat":43.239588,"lon":5.366238,"is_reserved":false,"is_disabled":false,"rental_uris":{"android":"levelo://app?vid=ac4ac7b3-0677-4606-af12-14cbc67eae14","ios":"levelo://app?vid=ac4ac7b3-0677-4606-af12-14cbc67eae14"},"vehicle_type_id":"4","last_reported":1700399260,"current_range_meters":3200,"station_id":"ce4bhi12rcd13ifvqfp0","pricing_plan_id":"free"},{"bike_id":"c72e95d8-4c82-42c4-9a05-014a75b2f0de","system_id":"levelo_inurba_marseille","lat":43.239588,"lon":5.366238,"is_reserved":false,"is_disabled":false,"rental_uris":{"android":"levelo://app?vid=c72e95d8-4c82-42c4-9a05-014a75b2f0de","ios":"levelo://app?vid=c72e95d8-4c82-42c4-9a05-014a75b2f0de"},"vehicle_type_id":"4","last_reported":1700399260,"current_range_meters":18800,"station_id":"ce4bhi12rcd13ifvqfp0","pricing_plan_id":"free"},{"bike_id":"e4e08e8a-d45b-4ba8-bf1a-f90d159e600c","system_id":"levelo_inurba_marseille","lat":43.2418,"lon":5.39727,"is_reserved":false,"is_disabled":false,"rental_uris":{"android":"levelo://app?vid=e4e08e8a-d45b-4ba8-bf1a-f90d159e600c","ios":"levelo://app?vid=e4e08e8a-d45b-4ba8-bf1a-f90d159e600c"},"vehicle_type_id":"4","last_reported":1700399260,"current_range_meters":18000,"station_id":"ce4bhn12rcd13ifvqgpg","pricing_plan_id":"free"},{"bike_id":"6579e416-2ce8-443d-a73a-886941cc69f8","system_id":"levelo_inurba_marseille","lat":43.241782,"lon":5.397261,"is_reserved":false,"is_disabled":false,"rental_uris":{"android":"levelo://app?vid=6579e416-2ce8-443d-a73a-886941cc69f8","ios":"levelo://app?vid=6579e416-2ce8-443d-a73a-886941cc69f8"},"vehicle_type_id":"4","last_reported":1700399260,"current_range_meters":28000,"station_id":"ce4bhn12rcd13ifvqgpg","pricing_plan_id":"free"},{"bike_id":"4370869b-0c59-4e1b-b4c7-59bf3a7bc50e","system_id":"levelo_inurba_marseille","lat":43.241782,"lon":5.397261,"is_reserved":false,"is_disabled":false,"rental_uris":{"android":"levelo://app?vid=4370869b-0c59-4e1b-b4c7-59bf3a7bc50e","ios":"levelo://app?vid=4370869b-0c59-4e1b-b4c7-59bf3a7bc50e"},"vehicle_type_id":"4","last_reported":1700399260,"current_range_meters":13200,"station_id":"ce4bhn12rcd13ifvqgpg","pricing_plan_id":"free"},{"bike_id":"e34460b8-8bd4-4e6b-98ca-789c44b130aa","system_id":"levelo_inurba_marseille","lat":43.231923,"lon":5.355545,"is_reserved":false,"is_disabled":false,"rental_uris":{"android":"levelo://app?vid=e34460b8-8bd4-4e6b-98ca-789c44b130aa","ios":"levelo://app?vid=e34460b8-8bd4-4e6b-98ca-789c44b130aa"},"vehicle_type_id":"4","last_reported":1700399260,"current_range_meters":22000,"station_id":"ce4bhu92rcd13ifvqi70","pricing_plan_id":"free"},{"bike_id":"4fc7e59d-8508-422c-8560-7d42e117611d","system_id":"levelo_inurba_marseille","lat":43.23196,"lon":5.35562,"is_reserved":false,"is_disabled":false,"rental_uris":{"android":"levelo://app?vid=4fc7e59d-8508-422c-8560-7d42e117611d","ios":"levelo://app?vid=4fc7e59d-8508-422c-8560-7d42e117611d"},"vehicle_type_id":"4","last_reported":1700399260,"current_range_meters":31200,"station_id":"ce4bhu92rcd13ifvqi70","pricing_plan_id":"free"},{"bike_id":"6f9c6135-4182-4dda-937a-c52b38c2d1f6","system_id":"levelo_inurba_marseille","lat":43.231923,"lon":5.355545,"is_reserved":false,"is_disabled":false,"rental_uris":{"android":"levelo://app?vid=6f9c6135-4182-4dda-937a-c52b38c2d1f6","ios":"levelo://app?vid=6f9c6135-4182-4dda-937a-c52b38c2d1f6"},"vehicle_type_id":"4","last_reported":1700399260,"current_range_meters":5600,"station_id":"ce4bhu92rcd13ifvqi70","pricing_plan_id":"free"},{"bike_id":"662f058d-46b1-4787-b52a-d29e98a28779","system_id":"levelo_inurba_marseille","lat":43.231961,"lon":5.355546,"is_reserved":false,"is_disabled":false,"rental_uris":{"android":"levelo://app?vid=662f058d-46b1-4787-b52a-d29e98a28779","ios":"levelo://app?vid=662f058d-46b1-4787-b52a-d29e98a28779"},"vehicle_type_id":"4","last_reported":1700399260,"current_range_meters":31200,"station_id":"ce4bhu92rcd13ifvqi70","pricing_plan_id":"free"},{"bike_id":"8a62ccf4-93c4-408c-8efe-bc9afcdd6a80","system_id":"levelo_inurba_marseille","lat":43.231923,"lon":5.355545,"is_reserved":false,"is_disabled":false,"rental_uris":{"android":"levelo://app?vid=8a62ccf4-93c4-408c-8efe-bc9afcdd6a80","ios":"levelo://app?vid=8a62ccf4-93c4-408c-8efe-bc9afcdd6a80"},"vehicle_type_id":"4","last_reported":1700399260,"current_range_meters":25200,"station_id":"ce4bhu92rcd13ifvqi70","pricing_plan_id":"free"},{"bike_id":"a811d707-b06c-42ef-a870-5ad21f1d49ad","system_id":"levelo_inurba_marseille","lat":43.231923,"lon":5.355545,"is_reserved":false,"is_disabled":false,"rental_uris":{"android":"levelo://app?vid=a811d707-b06c-42ef-a870-5ad21f1d49ad","ios":"levelo://app?vid=a811d707-b06c-42ef-a870-5ad21f1d49ad"},"vehicle_type_id":"4","last_reported":1700399260,"current_range_meters":15600,"station_id":"ce4bhu92rcd13ifvqi70","pricing_plan_id":"free"},{"bike_id":"73825668-897d-4ba7-8138-a1757218e46a","system_id":"levelo_inurba_marseille","lat":43.231923,"lon":5.355545,"is_reserved":false,"is_disabled":false,"rental_uris":{"android":"levelo://app?vid=73825668-897d-4ba7-8138-a1757218e46a","ios":"levelo://app?vid=73825668-897d-4ba7-8138-a1757218e46a"},"vehicle_type_id":"4","last_reported":1700399260,"current_range_meters":20800,"station_id":"ce4bhu92rcd13ifvqi70","pricing_plan_id":"free"},{"bike_id":"d4b8beac-e21d-4a32-bc13-6a5c65e2b33e","system_id":"levelo_inurba_marseille","lat":43.231923,"lon":5.355545,"is_reserved":false,"is_disabled":false,"rental_uris":{"android":"levelo://app?vid=d4b8beac-e21d-4a32-bc13-6a5c65e2b33e","ios":"levelo://app?vid=d4b8beac-e21d-4a32-bc13-6a5c65e2b33e"},"vehicle_type_id":"4","last_reported":1700399260,"current_range_meters":12800,"station_id":"ce4bhu92rcd13ifvqi70","pricing_plan_id":"free"},{"bike_id":"b3f28fa0-47fb-43fd-82e6-2a2ef1ac5db0","system_id":"levelo_inurba_marseille","lat":43.231923,"lon":5.355545,"is_reserved":false,"is_disabled":false,"rental_uris":{"android":"levelo://app?vid=b3f28fa0-47fb-43fd-82e6-2a2ef1ac5db0","ios":"levelo://app?vid=b3f28fa0-47fb-43fd-82e6-2a2ef1ac5db0"},"vehicle_type_id":"4","last_reported":1700399260,"current_range_meters":22000,"station_id":"ce4bhu92rcd13ifvqi70","pricing_plan_id":"free"},{"bike_id":"d8457044-e11e-4159-85e8-e12c29610982","system_id":"levelo_inurba_marseille","lat":43.23195,"lon":5.35559,"is_reserved":false,"is_disabled":false,"rental_uris":{"android":"levelo://app?vid=d8457044-e11e-4159-85e8-e12c29610982","ios":"levelo://app?vid=d8457044-e11e-4159-85e8-e12c29610982"},"vehicle_type_id":"4","last_reported":1700399260,"current_range_meters":10800,"station_id":"ce4bhu92rcd13ifvqi70","pricing_plan_id":"free"},{"bike_id":"21325b80-6608-4cc8-9abf-9d4d0f8ccd45","system_id":"levelo_inurba_marseille","lat":43.23195,"lon":5.35556,"is_reserved":false,"is_disabled":false,"rental_uris":{"android":"levelo://app?vid=21325b80-6608-4cc8-9abf-9d4d0f8ccd45","ios":"levelo://app?vid=21325b80-6608-4cc8-9abf-9d4d0f8ccd45"},"vehicle_type_id":"4","last_reported":1700399260,"current_range_meters":12400,"station_id":"ce4bhu92rcd13ifvqi70","pricing_plan_id":"free"},{"bike_id":"8455f21a-e0e1-4873-89da-72b3d3b154e0","system_id":"levelo_inurba_marseille","lat":43.23195,"lon":5.35556,"is_reserved":false,"is_disabled":false,"rental_uris":{"android":"levelo://app?vid=8455f21a-e0e1-4873-89da-72b3d3b154e0","ios":"levelo://app?vid=8455f21a-e0e1-4873-89da-72b3d3b154e0"},"vehicle_type_id":"4","last_reported":1700399260,"current_range_meters":31200,"station_id":"ce4bhu92rcd13ifvqi70","pricing_plan_id":"free"},{"bike_id":"9c0d77bd-3dbd-475c-a364-7b66f096a80e","system_id":"levelo_inurba_marseille","lat":43.231923,"lon":5.355545,"is_reserved":false,"is_disabled":false,"rental_uris":{"android":"levelo://app?vid=9c0d77bd-3dbd-475c-a364-7b66f096a80e","ios":"levelo://app?vid=9c0d77bd-3dbd-475c-a364-7b66f096a80e"},"vehicle_type_id":"4","last_reported":1700399260,"current_range_meters":1200,"station_id":"ce4bhu92rcd13ifvqi70","pricing_plan_id":"free"},{"bike_id":"3541cd34-4053-41de-80a6-bc28dda6e812","system_id":"levelo_inurba_marseille","lat":43.231923,"lon":5.355545,"is_reserved":false,"is_disabled":false,"rental_uris":{"android":"levelo://app?vid=3541cd34-4053-41de-80a6-bc28dda6e812","ios":"levelo://app?vid=3541cd34-4053-41de-80a6-bc28dda6e812"},"vehicle_type_id":"4","last_reported":1700399260,"current_range_meters":0,"station_id":"ce4bhu92rcd13ifvqi70","pricing_plan_id":"free"},{"bike_id":"e5457ee5-4562-42f5-87e4-f39fc52d5dd8","system_id":"levelo_inurba_marseille","lat":43.23194,"lon":5.35557,"is_reserved":false,"is_disabled":false,"rental_uris":{"android":"levelo://app?vid=e5457ee5-4562-42f5-87e4-f39fc52d5dd8","ios":"levelo://app?vid=e5457ee5-4562-42f5-87e4-f39fc52d5dd8"},"vehicle_type_id":"4","last_reported":1700399260,"current_range_meters":23600,"station_id":"ce4bhu92rcd13ifvqi70","pricing_plan_id":"free"},{"bike_id":"58084edd-aa38-45e0-814b-88dc7d35a228","system_id":"levelo_inurba_marseille","lat":43.23194,"lon":5.35556,"is_reserved":false,"is_disabled":false,"rental_uris":{"android":"levelo://app?vid=58084edd-aa38-45e0-814b-88dc7d35a228","ios":"levelo://app?vid=58084edd-aa38-45e0-814b-88dc7d35a228"},"vehicle_type_id":"4","last_reported":1700399260,"current_range_meters":10000,"station_id":"ce4bhu92rcd13ifvqi70","pricing_plan_id":"free"},{"bike_id":"7a52b81c-52a8-4776-8fd1-69fdad3dee5e","system_id":"levelo_inurba_marseille","lat":43.231923,"lon":5.355545,"is_reserved":false,"is_disabled":false,"rental_uris":{"android":"levelo://app?vid=7a52b81c-52a8-4776-8fd1-69fdad3dee5e","ios":"levelo://app?vid=7a52b81c-52a8-4776-8fd1-69fdad3dee5e"},"vehicle_type_id":"4","last_reported":1700399260,"current_range_meters":6400,"station_id":"ce4bhu92rcd13ifvqi70","pricing_plan_id":"free"},{"bike_id":"6ee4b9c7-9750-49e6-a7a2-47c4a6e1d116","system_id":"levelo_inurba_marseille","lat":43.231923,"lon":5.355545,"is_reserved":false,"is_disabled":false,"rental_uris":{"android":"levelo://app?vid=6ee4b9c7-9750-49e6-a7a2-47c4a6e1d116","ios":"levelo://app?vid=6ee4b9c7-9750-49e6-a7a2-47c4a6e1d116"},"vehicle_type_id":"4","last_reported":1700399260,"current_range_meters":7600,"station_id":"ce4bhu92rcd13ifvqi70","pricing_plan_id":"free"},{"bike_id":"da9c9aea-c3bc-4a71-a581-942883b36e7a","system_id":"levelo_inurba_marseille","lat":43.231923,"lon":5.355545,"is_reserved":false,"is_disabled":false,"rental_uris":{"android":"levelo://app?vid=da9c9aea-c3bc-4a71-a581-942883b36e7a","ios":"levelo://app?vid=da9c9aea-c3bc-4a71-a581-942883b36e7a"},"vehicle_type_id":"4","last_reported":1700399260,"current_range_meters":20800,"station_id":"ce4bhu92rcd13ifvqi70","pricing_plan_id":"free"},{"bike_id":"37416442-308e-4dea-bd51-2ca12166bbc7","system_id":"levelo_inurba_marseille","lat":43.231923,"lon":5.355545,"is_reserved":false,"is_disabled":false,"rental_uris":{"android":"levelo://app?vid=37416442-308e-4dea-bd51-2ca12166bbc7","ios":"levelo://app?vid=37416442-308e-4dea-bd51-2ca12166bbc7"},"vehicle_type_id":"4","last_reported":1700399260,"current_range_meters":24400,"station_id":"ce4bhu92rcd13ifvqi70","pricing_plan_id":"free"},{"bike_id":"d66f08d8-b6e5-4ad9-be4a-5cd3998403dc","system_id":"levelo_inurba_marseille","lat":43.231897,"lon":5.355547,"is_reserved":false,"is_disabled":false,"rental_uris":{"android":"levelo://app?vid=d66f08d8-b6e5-4ad9-be4a-5cd3998403dc","ios":"levelo://app?vid=d66f08d8-b6e5-4ad9-be4a-5cd3998403dc"},"vehicle_type_id":"4","last_reported":1700399260,"current_range_meters":14000,"station_id":"ce4bhu92rcd13ifvqi70","pricing_plan_id":"free"},{"bike_id":"ec62c682-abfa-481a-bb37-e702a24bba76","system_id":"levelo_inurba_marseille","lat":43.231923,"lon":5.355545,"is_reserved":false,"is_disabled":false,"rental_uris":{"android":"levelo://app?vid=ec62c682-abfa-481a-bb37-e702a24bba76","ios":"levelo://app?vid=ec62c682-abfa-481a-bb37-e702a24bba76"},"vehicle_type_id":"4","last_reported":1700399260,"current_range_meters":17200,"station_id":"ce4bhu92rcd13ifvqi70","pricing_plan_id":"free"},{"bike_id":"e90e6dbe-4103-4584-a33a-a878da9cf267","system_id":"levelo_inurba_marseille","lat":43.231923,"lon":5.355545,"is_reserved":false,"is_disabled":false,"rental_uris":{"android":"levelo://app?vid=e90e6dbe-4103-4584-a33a-a878da9cf267","ios":"levelo://app?vid=e90e6dbe-4103-4584-a33a-a878da9cf267"},"vehicle_type_id":"4","last_reported":1700399260,"current_range_meters":22800,"station_id":"ce4bhu92rcd13ifvqi70","pricing_plan_id":"free"},{"bike_id":"18a2742a-f4bf-49a9-9e2a-88eea5110e55","system_id":"levelo_inurba_marseille","lat":43.231923,"lon":5.355545,"is_reserved":false,"is_disabled":false,"rental_uris":{"android":"levelo://app?vid=18a2742a-f4bf-49a9-9e2a-88eea5110e55","ios":"levelo://app?vid=18a2742a-f4bf-49a9-9e2a-88eea5110e55"},"vehicle_type_id":"4","last_reported":1700399260,"current_range_meters":3200,"station_id":"ce4bhu92rcd13ifvqi70","pricing_plan_id":"free"},{"bike_id":"ffa9bbb0-2049-48dc-9860-c3476c934f4b","system_id":"levelo_inurba_marseille","lat":43.231923,"lon":5.355545,"is_reserved":false,"is_disabled":false,"rental_uris":{"android":"levelo://app?vid=ffa9bbb0-2049-48dc-9860-c3476c934f4b","ios":"levelo://app?vid=ffa9bbb0-2049-48dc-9860-c3476c934f4b"},"vehicle_type_id":"4","last_reported":1700399260,"current_range_meters":16800,"station_id":"ce4bhu92rcd13ifvqi70","pricing_plan_id":"free"},{"bike_id":"efe9f44b-467d-42d3-8df0-08df4fdbb017","system_id":"levelo_inurba_marseille","lat":43.231923,"lon":5.355545,"is_reserved":false,"is_disabled":false,"rental_uris":{"android":"levelo://app?vid=efe9f44b-467d-42d3-8df0-08df4fdbb017","ios":"levelo://app?vid=efe9f44b-467d-42d3-8df0-08df4fdbb017"},"vehicle_type_id":"4","last_reported":1700399260,"current_range_meters":24000,"station_id":"ce4bhu92rcd13ifvqi70","pricing_plan_id":"free"},{"bike_id":"d9fd4f8d-322c-45fe-b651-4a9394dd3741","system_id":"levelo_inurba_marseille","lat":43.231923,"lon":5.355545,"is_reserved":false,"is_disabled":false,"rental_uris":{"android":"levelo://app?vid=d9fd4f8d-322c-45fe-b651-4a9394dd3741","ios":"levelo://app?vid=d9fd4f8d-322c-45fe-b651-4a9394dd3741"},"vehicle_type_id":"4","last_reported":1700399260,"current_range_meters":30800,"station_id":"ce4bhu92rcd13ifvqi70","pricing_plan_id":"free"},{"bike_id":"fb647ab6-bdfe-4d43-8021-469b840e3f01","system_id":"levelo_inurba_marseille","lat":43.231794,"lon":5.400052,"is_reserved":false,"is_disabled":false,"rental_uris":{"android":"levelo://app?vid=fb647ab6-bdfe-4d43-8021-469b840e3f01","ios":"levelo://app?vid=fb647ab6-bdfe-4d43-8021-469b840e3f01"},"vehicle_type_id":"4","last_reported":1700399260,"current_range_meters":25600,"station_id":"ce4bhn12rcd13ifvqgqg","pricing_plan_id":"free"},{"bike_id":"7bc95a0e-72f8-4232-b877-46fe8e7f9e0c","system_id":"levelo_inurba_marseille","lat":43.231794,"lon":5.400052,"is_reserved":false,"is_disabled":false,"rental_uris":{"android":"levelo://app?vid=7bc95a0e-72f8-4232-b877-46fe8e7f9e0c","ios":"levelo://app?vid=7bc95a0e-72f8-4232-b877-46fe8e7f9e0c"},"vehicle_type_id":"4","last_reported":1700399260,"current_range_meters":30000,"station_id":"ce4bhn12rcd13ifvqgqg","pricing_plan_id":"free"},{"bike_id":"adac1971-5e73-41e6-9ade-b5ded0f026e7","system_id":"levelo_inurba_marseille","lat":43.231793,"lon":5.400044,"is_reserved":false,"is_disabled":false,"rental_uris":{"android":"levelo://app?vid=adac1971-5e73-41e6-9ade-b5ded0f026e7","ios":"levelo://app?vid=adac1971-5e73-41e6-9ade-b5ded0f026e7"},"vehicle_type_id":"4","last_reported":1700399260,"current_range_meters":30800,"station_id":"ce4bhn12rcd13ifvqgqg","pricing_plan_id":"free"},{"bike_id":"efc139d5-8bb1-4a6b-b437-01d31830d455","system_id":"levelo_inurba_marseille","lat":43.231794,"lon":5.400052,"is_reserved":false,"is_disabled":false,"rental_uris":{"android":"levelo://app?vid=efc139d5-8bb1-4a6b-b437-01d31830d455","ios":"levelo://app?vid=efc139d5-8bb1-4a6b-b437-01d31830d455"},"vehicle_type_id":"4","last_reported":1700399260,"current_range_meters":31200,"station_id":"ce4bhn12rcd13ifvqgqg","pricing_plan_id":"free"},{"bike_id":"486fecf0-765d-4eee-9a85-898f8aa27175","system_id":"levelo_inurba_marseille","lat":43.231793,"lon":5.400044,"is_reserved":false,"is_disabled":false,"rental_uris":{"android":"levelo://app?vid=486fecf0-765d-4eee-9a85-898f8aa27175","ios":"levelo://app?vid=486fecf0-765d-4eee-9a85-898f8aa27175"},"vehicle_type_id":"4","last_reported":1700399260,"current_range_meters":28000,"station_id":"ce4bhn12rcd13ifvqgqg","pricing_plan_id":"free"},{"bike_id":"ad9d26be-fd61-4954-b04a-614ee9d33f7d","system_id":"levelo_inurba_marseille","lat":43.231794,"lon":5.400052,"is_reserved":false,"is_disabled":false,"rental_uris":{"android":"levelo://app?vid=ad9d26be-fd61-4954-b04a-614ee9d33f7d","ios":"levelo://app?vid=ad9d26be-fd61-4954-b04a-614ee9d33f7d"},"vehicle_type_id":"4","last_reported":1700399260,"current_range_meters":31600,"station_id":"ce4bhn12rcd13ifvqgqg","pricing_plan_id":"free"},{"bike_id":"5d8316f4-9b3b-4f22-8b0a-d975b6faa1c0","system_id":"levelo_inurba_marseille","lat":43.231793,"lon":5.400044,"is_reserved":false,"is_disabled":false,"rental_uris":{"android":"levelo://app?vid=5d8316f4-9b3b-4f22-8b0a-d975b6faa1c0","ios":"levelo://app?vid=5d8316f4-9b3b-4f22-8b0a-d975b6faa1c0"},"vehicle_type_id":"4","last_reported":1700399260,"current_range_meters":14400,"station_id":"ce4bhn12rcd13ifvqgqg","pricing_plan_id":"free"},{"bike_id":"196e5037-623a-4cc1-ad44-be0976133a20","system_id":"levelo_inurba_marseille","lat":43.231793,"lon":5.400044,"is_reserved":false,"is_disabled":false,"rental_uris":{"android":"levelo://app?vid=196e5037-623a-4cc1-ad44-be0976133a20","ios":"levelo://app?vid=196e5037-623a-4cc1-ad44-be0976133a20"},"vehicle_type_id":"4","last_reported":1700399260,"current_range_meters":18400,"station_id":"ce4bhn12rcd13ifvqgqg","pricing_plan_id":"free"},{"bike_id":"65f86e4f-3234-4fca-beae-05f04dc8df5f","system_id":"levelo_inurba_marseille","lat":43.23176,"lon":5.39986,"is_reserved":false,"is_disabled":false,"rental_uris":{"android":"levelo://app?vid=65f86e4f-3234-4fca-beae-05f04dc8df5f","ios":"levelo://app?vid=65f86e4f-3234-4fca-beae-05f04dc8df5f"},"vehicle_type_id":"4","last_reported":1700399260,"current_range_meters":30400,"station_id":"ce4bhn12rcd13ifvqgqg","pricing_plan_id":"free"},{"bike_id":"78c7b8b3-4492-4225-8359-c557b6989c3d","system_id":"levelo_inurba_marseille","lat":43.23155,"lon":5.43698,"is_reserved":false,"is_disabled":false,"rental_uris":{"android":"levelo://app?vid=78c7b8b3-4492-4225-8359-c557b6989c3d","ios":"levelo://app?vid=78c7b8b3-4492-4225-8359-c557b6989c3d"},"vehicle_type_id":"4","last_reported":1700399260,"current_range_meters":8400,"station_id":"ce4bhmp2rcd13ifvqgog","pricing_plan_id":"free"},{"bike_id":"49f546c6-5a89-4d62-b0e6-0167a3bea35f","system_id":"levelo_inurba_marseille","lat":43.231562,"lon":5.436933,"is_reserved":false,"is_disabled":false,"rental_uris":{"android":"levelo://app?vid=49f546c6-5a89-4d62-b0e6-0167a3bea35f","ios":"levelo://app?vid=49f546c6-5a89-4d62-b0e6-0167a3bea35f"},"vehicle_type_id":"4","last_reported":1700399260,"current_range_meters":24400,"station_id":"ce4bhmp2rcd13ifvqgog","pricing_plan_id":"free"},{"bike_id":"172b1adb-2ae3-4c1b-b5fe-96e44bf1344e","system_id":"levelo_inurba_marseille","lat":43.231562,"lon":5.436933,"is_reserved":false,"is_disabled":false,"rental_uris":{"android":"levelo://app?vid=172b1adb-2ae3-4c1b-b5fe-96e44bf1344e","ios":"levelo://app?vid=172b1adb-2ae3-4c1b-b5fe-96e44bf1344e"},"vehicle_type_id":"4","last_reported":1700399260,"current_range_meters":30400,"station_id":"ce4bhmp2rcd13ifvqgog","pricing_plan_id":"free"},{"bike_id":"79f0fe2a-828d-4adb-8c21-6c90ec54f44a","system_id":"levelo_inurba_marseille","lat":43.231562,"lon":5.436933,"is_reserved":false,"is_disabled":false,"rental_uris":{"android":"levelo://app?vid=79f0fe2a-828d-4adb-8c21-6c90ec54f44a","ios":"levelo://app?vid=79f0fe2a-828d-4adb-8c21-6c90ec54f44a"},"vehicle_type_id":"4","last_reported":1700399260,"current_range_meters":28800,"station_id":"ce4bhmp2rcd13ifvqgog","pricing_plan_id":"free"},{"bike_id":"ac753338-7ae7-484b-b345-d535336dbb1b","system_id":"levelo_inurba_marseille","lat":43.231562,"lon":5.436933,"is_reserved":false,"is_disabled":false,"rental_uris":{"android":"levelo://app?vid=ac753338-7ae7-484b-b345-d535336dbb1b","ios":"levelo://app?vid=ac753338-7ae7-484b-b345-d535336dbb1b"},"vehicle_type_id":"4","last_reported":1700399260,"current_range_meters":30800,"station_id":"ce4bhmp2rcd13ifvqgog","pricing_plan_id":"free"},{"bike_id":"b5c5cac1-891e-45a9-a9ba-739e2d38d5f8","system_id":"levelo_inurba_marseille","lat":43.231562,"lon":5.436933,"is_reserved":false,"is_disabled":false,"rental_uris":{"android":"levelo://app?vid=b5c5cac1-891e-45a9-a9ba-739e2d38d5f8","ios":"levelo://app?vid=b5c5cac1-891e-45a9-a9ba-739e2d38d5f8"},"vehicle_type_id":"4","last_reported":1700399260,"current_range_meters":17600,"station_id":"ce4bhmp2rcd13ifvqgog","pricing_plan_id":"free"}]}}