{"last_updated":1768036312,"ttl":60,"version":"2.2","data":{"bikes":[{"bike_id":"645210fa-1f8d-4358-8422-5e41d9e4b56c","system_id":"levelo_inurba_marseille","lat":43.2636,"lon":5.41075,"is_reserved":false,"is_disabled":false,"rental_uris":{"android":"levelo://app?vid=645210fa-1f8d-4358-8422-5e41d9e4b56c","ios":"levelo://app?vid=645210fa-1f8d-4358-8422-5e41d9e4b56c"},"vehicle_type_id":"4","last_reported":1768036312,"current_range_meters":2800,"station_id":"st_d4e5ca6na9uc73bfl5fg","pricing_plan_id":"cebpf4jnsgd1na2vs0mg"},{"bike_id":"ccf4abbf-86ec-4ea6-a059-b87c3c2fec08","system_id":"levelo_inurba_marseille","lat":43.31175,"lon":5.38724,"is_reserved":false,"is_disabled":false,"rental_uris":{"android":"levelo://app?vid=ccf4abbf-86ec-4ea6-a059-b87c3c2fec08","ios":"levelo://app?vid=ccf4abbf-86ec-4ea6-a059-b87c3c2fec08"},"vehicle_type_id":"4","last_reported":1768036312,"current_range_meters":2800,"station_id":"ce4bgv12rcd13ifvqcp0","pricing_plan_id":"cebpf4jnsgd1na2vs0mg"},{"bike_id":"38f34c0b-018a-4a87-9b2b-2105aec61656","system_id":"levelo_inurba_marseille","lat":43.24207,"lon":5.39723,"is_reserved":false,"is_disabled":false,"rental_uris":{"android":"levelo://app?vid=38f34c0b-018a-4a87-9b2b-2105aec61656","ios":"levelo://app?vid=38f34c0b-018a-4a87-9b2b-2105aec61656"},"vehicle_type_id":"4","last_reported":1768036312,"current_range_meters":2800,"station_id":"ce4bhn12rcd13ifvqgpg","pricing_plan_id":"cebpf4jnsgd1na2vs0mg"},{"bike_id":"04742994-af96-4c6b-b407-de45538bd09b","system_id":"levelo_inurba_marseille","lat":43.28222,"lon":5.43048,"is_reserved":false,"is_disabled":false,"rental_uris":{"android":"levelo://app?vid=04742994-af96-4c6b-b407-de45538bd09b","ios":"levelo://app?vid=04742994-af96-4c6b-b407-de45538bd09b"},"vehicle_type_id":"4","last_reported":1768036312,"current_range_meters":2800,"station_id":"","pricing_plan_id":"cebpf4jnsgd1na2vs0mg"},{"bike_id":"7e9ff1a4-d3fe-4e60-ab0a-685788d253e8","system_id":"levelo_inurba_marseille","lat":43.30141,"lon":5.38082,"is_reserved":false,"is_disabled":false,"rental_uris":{"android":"levelo://app?vid=7e9ff1a4-d3fe-4e60-ab0a-685788d253e8","ios":"levelo://app?vid=7e9ff1a4-d3fe-4e60-ab0a-685788d253e8"},"vehicle_type_id":"4","last_reported":1768036312,"current_range_meters":2800,"station_id":"ce4bgjp2rcd13ifvqbh0","pricing_plan_id":"cebpf4jnsgd1na2vs0mg"},{"bike_id":"d495d3f4-e1c4-435d-99af-12f3f7a2674e","system_id":"levelo_inurba_marseille","lat":43.241558,"lon":5.364028,"is_reserved":false,"is_disabled":false,"rental_uris":{"android":"levelo://app?vid=d495d3f4-e1c4-435d-99af-12f3f7a2674e","ios":"levelo://app?vid=d495d3f4-e1c4-435d-99af-12f3f7a2674e"},"vehicle_type_id":"4","last_reported":1768036312,"current_range_meters":2800,"station_id":"cpo36qri1sfpv3e86is0","pricing_plan_id":"cebpf4jnsgd1na2vs0mg"},{"bike_id":"b9b662cc-6985-4d88-86a6-9663f97d3827","system_id":"levelo_inurba_marseille","lat":43.26556,"lon":5.37262,"is_reserved":false,"is_disabled":false,"rental_uris":{"android":"levelo://app?vid=b9b662cc-6985-4d88-86a6-9663f97d3827","ios":"levelo://app?vid=b9b662cc-6985-4d88-86a6-9663f97d3827"},"vehicle_type_id":"4","last_reported":1768036312,"current_range_meters":2800,"station_id":"ce4bhg12rcd13ifvqf70","pricing_plan_id":"cebpf4jnsgd1na2vs0mg"},{"bike_id":"4ec5905d-8014-4f7b-a161-75c7c16fe2df","system_id":"levelo_inurba_marseille","lat":43.260757,"lon":5.393877,"is_reserved":false,"is_disabled":false,"rental_uris":{"android":"levelo://app?vid=4ec5905d-8014-4f7b-a161-75c7c16fe2df","ios":"levelo://app?vid=4ec5905d-8014-4f7b-a161-75c7c16fe2df"},"vehicle_type_id":"4","last_reported":1768036312,"current_range_meters":3200,"station_id":"ce4bhh92rcd13ifvqfj0","pricing_plan_id":"cebpf4jnsgd1na2vs0mg"},{"bike_id":"0e7e919c-83a3-45be-90bf-dcf29db4b4ea","system_id":"levelo_inurba_marseille","lat":43.32343,"lon":5.36721,"is_reserved":false,"is_disabled":false,"rental_uris":{"android":"levelo://app?vid=0e7e919c-83a3-45be-90bf-dcf29db4b4ea","ios":"levelo://app?vid=0e7e919c-83a3-45be-90bf-dcf29db4b4ea"},"vehicle_type_id":"4","last_reported":1768036312,"current_range_meters":3200,"station_id":"ce4bhsh2rcd13ifvqi2g","pricing_plan_id":"cebpf4jnsgd1na2vs0mg"},{"bike_id":"0bd696eb-e437-44a6-82de-8fb9cb4dee15","system_id":"levelo_inurba_marseille","lat":43.31261,"lon":5.40199,"is_reserved":false,"is_disabled":false,"rental_uris":{"android":"levelo://app?vid=0bd696eb-e437-44a6-82de-8fb9cb4dee15","ios":"levelo://app?vid=0bd696eb-e437-44a6-82de-8fb9cb4dee15"},"vehicle_type_id":"4","last_reported":1768036312,"current_range_meters":3200,"station_id":"ce4bh092rcd13ifvqd30","pricing_plan_id":"cebpf4jnsgd1na2vs0mg"},{"bike_id":"18afa7e5-a060-43b9-bd3e-ab224bbb7669","system_id":"levelo_inurba_marseille","lat":43.28871,"lon":5.42529,"is_reserved":false,"is_disabled":false,"rental_uris":{"android":"levelo://app?vid=18afa7e5-a060-43b9-bd3e-ab224bbb7669","ios":"levelo://app?vid=18afa7e5-a060-43b9-bd3e-ab224bbb7669"},"vehicle_type_id":"4","last_reported":1768036312,"current_range_meters":3200,"station_id":"st_d3b462108ojc7389ooeg","pricing_plan_id":"cebpf4jnsgd1na2vs0mg"},{"bike_id":"7873a432-75ba-46ba-a34c-4dc6ef756fe4","system_id":"levelo_inurba_marseille","lat":43.31274,"lon":5.40171,"is_reserved":false,"is_disabled":false,"rental_uris":{"android":"levelo://app?vid=7873a432-75ba-46ba-a34c-4dc6ef756fe4","ios":"levelo://app?vid=7873a432-75ba-46ba-a34c-4dc6ef756fe4"},"vehicle_type_id":"4","last_reported":1768036312,"current_range_meters":3200,"station_id":"ce4bh092rcd13ifvqd30","pricing_plan_id":"cebpf4jnsgd1na2vs0mg"},{"bike_id":"262a8fec-bd27-46e9-aad8-6268adcdc681","system_id":"levelo_inurba_marseille","lat":43.21186,"lon":5.35065,"is_reserved":false,"is_disabled":false,"rental_uris":{"android":"levelo://app?vid=262a8fec-bd27-46e9-aad8-6268adcdc681","ios":"levelo://app?vid=262a8fec-bd27-46e9-aad8-6268adcdc681"},"vehicle_type_id":"4","last_reported":1768036312,"current_range_meters":3200,"station_id":"st_cvj6sg6p6f1abm77japg","pricing_plan_id":"cebpf4jnsgd1na2vs0mg"},{"bike_id":"f58d6f7b-cbb0-4399-a343-55040a73d9f6","system_id":"levelo_inurba_marseille","lat":43.2534,"lon":5.42166,"is_reserved":false,"is_disabled":false,"rental_uris":{"android":"levelo://app?vid=f58d6f7b-cbb0-4399-a343-55040a73d9f6","ios":"levelo://app?vid=f58d6f7b-cbb0-4399-a343-55040a73d9f6"},"vehicle_type_id":"4","last_reported":1768036312,"current_range_meters":3200,"station_id":"st_d2m65c5bi1j21697t3ng","pricing_plan_id":"cebpf4jnsgd1na2vs0mg"},{"bike_id":"d62b1dd7-04ea-48f5-a204-d6921ceaf13e","system_id":"levelo_inurba_marseille","lat":43.24159,"lon":5.36417,"is_reserved":false,"is_disabled":false,"rental_uris":{"android":"levelo://app?vid=d62b1dd7-04ea-48f5-a204-d6921ceaf13e","ios":"levelo://app?vid=d62b1dd7-04ea-48f5-a204-d6921ceaf13e"},"vehicle_type_id":"4","last_reported":1768036312,"current_range_meters":3200,"station_id":"cpo36qri1sfpv3e86is0","pricing_plan_id":"cebpf4jnsgd1na2vs0mg"},{"bike_id":"7d50baf1-e702-4bc4-8ad1-ca576e44cfe3","system_id":"levelo_inurba_marseille","lat":43.24619,"lon":5.43133,"is_reserved":false,"is_disabled":false,"rental_uris":{"android":"levelo://app?vid=7d50baf1-e702-4bc4-8ad1-ca576e44cfe3","ios":"levelo://app?vid=7d50baf1-e702-4bc4-8ad1-ca576e44cfe3"},"vehicle_type_id":"4","last_reported":1768036312,"current_range_meters":3200,"station_id":"st_d2m6c4gdas8pm72e190g","pricing_plan_id":"cebpf4jnsgd1na2vs0mg"},{"bike_id":"a661e347-44a8-4dfa-bb37-ce295a45a6bf","system_id":"levelo_inurba_marseille","lat":43.29807,"lon":5.38096,"is_reserved":false,"is_disabled":false,"rental_uris":{"android":"levelo://app?vid=a661e347-44a8-4dfa-bb37-ce295a45a6bf","ios":"levelo://app?vid=a661e347-44a8-4dfa-bb37-ce295a45a6bf"},"vehicle_type_id":"4","last_reported":1768036312,"current_range_meters":3200,"station_id":"ce4bgip2rcd13ifvqbb0","pricing_plan_id":"cebpf4jnsgd1na2vs0mg"},{"bike_id":"77609f6c-a0ae-4a06-a2d6-469590bc28dc","system_id":"levelo_inurba_marseille","lat":43.29301,"lon":5.37176,"is_reserved":false,"is_disabled":false,"rental_uris":{"android":"levelo://app?vid=77609f6c-a0ae-4a06-a2d6-469590bc28dc","ios":"levelo://app?vid=77609f6c-a0ae-4a06-a2d6-469590bc28dc"},"vehicle_type_id":"4","last_reported":1768036312,"current_range_meters":3600,"station_id":"ce4bgh92rcd13ifvqb40","pricing_plan_id":"cebpf4jnsgd1na2vs0mg"},{"bike_id":"569b0032-d7de-4ef5-ac08-24b2ac42db20","system_id":"levelo_inurba_marseille","lat":43.265353,"lon":5.372942,"is_reserved":false,"is_disabled":false,"rental_uris":{"android":"levelo://app?vid=569b0032-d7de-4ef5-ac08-24b2ac42db20","ios":"levelo://app?vid=569b0032-d7de-4ef5-ac08-24b2ac42db20"},"vehicle_type_id":"4","last_reported":1768036312,"current_range_meters":3600,"station_id":"ce4bhg12rcd13ifvqf70","pricing_plan_id":"cebpf4jnsgd1na2vs0mg"},{"bike_id":"e0338060-ce0a-4822-8d71-f2c1872544f8","system_id":"levelo_inurba_marseille","lat":43.28404,"lon":5.34979,"is_reserved":false,"is_disabled":false,"rental_uris":{"android":"levelo://app?vid=e0338060-ce0a-4822-8d71-f2c1872544f8","ios":"levelo://app?vid=e0338060-ce0a-4822-8d71-f2c1872544f8"},"vehicle_type_id":"4","last_reported":1768036312,"current_range_meters":3600,"station_id":"ce4bhbh2rcd13ifvqepg","pricing_plan_id":"cebpf4jnsgd1na2vs0mg"},{"bike_id":"e8237869-6bc1-4aff-8e00-c83ace1ecdfb","system_id":"levelo_inurba_marseille","lat":43.225335,"lon":5.348347,"is_reserved":false,"is_disabled":false,"rental_uris":{"android":"levelo://app?vid=e8237869-6bc1-4aff-8e00-c83ace1ecdfb","ios":"levelo://app?vid=e8237869-6bc1-4aff-8e00-c83ace1ecdfb"},"vehicle_type_id":"4","last_reported":1768036312,"current_range_meters":3600,"station_id":"","pricing_plan_id":"cebpf4jnsgd1na2vs0mg"},{"bike_id":"64dadfcf-9a69-4520-8526-bfde9f3962e1","system_id":"levelo_inurba_marseille","lat":43.24389,"lon":5.37058,"is_reserved":false,"is_disabled":false,"rental_uris":{"android":"levelo://app?vid=64dadfcf-9a69-4520-8526-bfde9f3962e1","ios":"levelo://app?vid=64dadfcf-9a69-4520-8526-bfde9f3962e1"},"vehicle_type_id":"4","last_reported":1768036312,"current_range_meters":3600,"station_id":"ce4bhhh2rcd13ifvqfk0","pricing_plan_id":"cebpf4jnsgd1na2vs0mg"},{"bike_id":"7a59dc88-c855-4639-92cb-3517efabcf0b","system_id":"levelo_inurba_marseille","lat":43.23744,"lon":5.3663,"is_reserved":false,"is_disabled":false,"rental_uris":{"android":"levelo://app?vid=7a59dc88-c855-4639-92cb-3517efabcf0b","ios":"levelo://app?vid=7a59dc88-c855-4639-92cb-3517efabcf0b"},"vehicle_type_id":"4","last_reported":1768036312,"current_range_meters":3600,"station_id":"st_d3nk18o9ro0c73en2l3g","pricing_plan_id":"cebpf4jnsgd1na2vs0mg"},{"bike_id":"2227ec84-c4b4-482c-b829-dab56242fde9","system_id":"levelo_inurba_marseille","lat":43.31064,"lon":5.38356,"is_reserved":false,"is_disabled":false,"rental_uris":{"android":"levelo://app?vid=2227ec84-c4b4-482c-b829-dab56242fde9","ios":"levelo://app?vid=2227ec84-c4b4-482c-b829-dab56242fde9"},"vehicle_type_id":"4","last_reported":1768036312,"current_range_meters":3600,"station_id":"ce4bgv92rcd13ifvqcr0","pricing_plan_id":"cebpf4jnsgd1na2vs0mg"},{"bike_id":"49693813-6422-4c0b-883f-2f9444f40ff2","system_id":"levelo_inurba_marseille","lat":43.25479,"lon":5.37649,"is_reserved":false,"is_disabled":false,"rental_uris":{"android":"levelo://app?vid=49693813-6422-4c0b-883f-2f9444f40ff2","ios":"levelo://app?vid=49693813-6422-4c0b-883f-2f9444f40ff2"},"vehicle_type_id":"4","last_reported":1768036312,"current_range_meters":3600,"station_id":"ce4bhh12rcd13ifvqff0","pricing_plan_id":"cebpf4jnsgd1na2vs0mg"},{"bike_id":"271e9008-09ad-4888-9eb5-ba917a1e4dd6","system_id":"levelo_inurba_marseille","lat":43.25831,"lon":5.39428,"is_reserved":false,"is_disabled":false,"rental_uris":{"android":"levelo://app?vid=271e9008-09ad-4888-9eb5-ba917a1e4dd6","ios":"levelo://app?vid=271e9008-09ad-4888-9eb5-ba917a1e4dd6"},"vehicle_type_id":"4","last_reported":1768036312,"current_range_meters":3600,"station_id":"ce4bhip2rcd13ifvqft0","pricing_plan_id":"cebpf4jnsgd1na2vs0mg"},{"bike_id":"d0d265a1-c3bd-4d94-b629-d97e8755c4d9","system_id":"levelo_inurba_marseille","lat":43.271754,"lon":5.409967,"is_reserved":false,"is_disabled":false,"rental_uris":{"android":"levelo://app?vid=d0d265a1-c3bd-4d94-b629-d97e8755c4d9","ios":"levelo://app?vid=d0d265a1-c3bd-4d94-b629-d97e8755c4d9"},"vehicle_type_id":"4","last_reported":1768036312,"current_range_meters":3600,"station_id":"ce4bhl12rcd13ifvqgf0","pricing_plan_id":"cebpf4jnsgd1na2vs0mg"},{"bike_id":"d849dd67-6c6c-49ff-8890-cba8f9d66595","system_id":"levelo_inurba_marseille","lat":43.248142,"lon":5.374575,"is_reserved":false,"is_disabled":false,"rental_uris":{"android":"levelo://app?vid=d849dd67-6c6c-49ff-8890-cba8f9d66595","ios":"levelo://app?vid=d849dd67-6c6c-49ff-8890-cba8f9d66595"},"vehicle_type_id":"4","last_reported":1768036312,"current_range_meters":3600,"station_id":"ce4bhgh2rcd13ifvqfb0","pricing_plan_id":"cebpf4jnsgd1na2vs0mg"},{"bike_id":"ff14a00b-7523-4e64-a50f-051c3e1f7713","system_id":"levelo_inurba_marseille","lat":43.26218,"lon":5.40437,"is_reserved":false,"is_disabled":false,"rental_uris":{"android":"levelo://app?vid=ff14a00b-7523-4e64-a50f-051c3e1f7713","ios":"levelo://app?vid=ff14a00b-7523-4e64-a50f-051c3e1f7713"},"vehicle_type_id":"4","last_reported":1768036312,"current_range_meters":3600,"station_id":"ce4bhmh2rcd13ifvqgmg","pricing_plan_id":"cebpf4jnsgd1na2vs0mg"},{"bike_id":"a4be4d0a-9cc5-420d-97fc-fb69311a8f04","system_id":"levelo_inurba_marseille","lat":43.29574,"lon":5.39981,"is_reserved":false,"is_disabled":false,"rental_uris":{"android":"levelo://app?vid=a4be4d0a-9cc5-420d-97fc-fb69311a8f04","ios":"levelo://app?vid=a4be4d0a-9cc5-420d-97fc-fb69311a8f04"},"vehicle_type_id":"4","last_reported":1768036312,"current_range_meters":3600,"station_id":"ce4bh312rcd13ifvqdj0","pricing_plan_id":"cebpf4jnsgd1na2vs0mg"},{"bike_id":"84acd35f-eff0-4eb4-9fef-a2e6695dc9e6","system_id":"levelo_inurba_marseille","lat":43.29182,"lon":5.35819,"is_reserved":false,"is_disabled":false,"rental_uris":{"android":"levelo://app?vid=84acd35f-eff0-4eb4-9fef-a2e6695dc9e6","ios":"levelo://app?vid=84acd35f-eff0-4eb4-9fef-a2e6695dc9e6"},"vehicle_type_id":"4","last_reported":1768036312,"current_range_meters":3600,"station_id":"ce4bhb12rcd13ifvqel0","pricing_plan_id":"cebpf4jnsgd1na2vs0mg"},{"bike_id":"e75e2c3e-d799-431c-b611-47c8636c7eba","system_id":"levelo_inurba_marseille","lat":43.30942,"lon":5.38631,"is_reserved":false,"is_disabled":false,"rental_uris":{"android":"levelo://app?vid=e75e2c3e-d799-431c-b611-47c8636c7eba","ios":"levelo://app?vid=e75e2c3e-d799-431c-b611-47c8636c7eba"},"vehicle_type_id":"4","last_reported":1768036312,"current_range_meters":4000,"station_id":"","pricing_plan_id":"cebpf4jnsgd1na2vs0mg"},{"bike_id":"ed27761f-ddf8-4ca6-ad7f-042a477fd7ea","system_id":"levelo_inurba_marseille","lat":43.29531,"lon":5.37388,"is_reserved":false,"is_disabled":false,"rental_uris":{"android":"levelo://app?vid=ed27761f-ddf8-4ca6-ad7f-042a477fd7ea","ios":"levelo://app?vid=ed27761f-ddf8-4ca6-ad7f-042a477fd7ea"},"vehicle_type_id":"4","last_reported":1768036312,"current_range_meters":4000,"station_id":"","pricing_plan_id":"cebpf4jnsgd1na2vs0mg"},{"bike_id":"486e3358-5ad4-47dd-8cf9-949675911464","system_id":"levelo_inurba_marseille","lat":43.25576,"lon":5.382482,"is_reserved":false,"is_disabled":false,"rental_uris":{"android":"levelo://app?vid=486e3358-5ad4-47dd-8cf9-949675911464","ios":"levelo://app?vid=486e3358-5ad4-47dd-8cf9-949675911464"},"vehicle_type_id":"4","last_reported":1768036312,"current_range_meters":4000,"station_id":"ce4bhih2rcd13ifvqfs0","pricing_plan_id":"cebpf4jnsgd1na2vs0mg"},{"bike_id":"3b0c044b-cff7-4737-b3af-017df77671fe","system_id":"levelo_inurba_marseille","lat":43.27984,"lon":5.41691,"is_reserved":false,"is_disabled":false,"rental_uris":{"android":"levelo://app?vid=3b0c044b-cff7-4737-b3af-017df77671fe","ios":"levelo://app?vid=3b0c044b-cff7-4737-b3af-017df77671fe"},"vehicle_type_id":"4","last_reported":1768036312,"current_range_meters":4000,"station_id":"ce4bho12rcd13ifvqh1g","pricing_plan_id":"cebpf4jnsgd1na2vs0mg"},{"bike_id":"47f0b781-042e-4908-9848-051083bc15fd","system_id":"levelo_inurba_marseille","lat":43.265662,"lon":5.390226,"is_reserved":false,"is_disabled":false,"rental_uris":{"android":"levelo://app?vid=47f0b781-042e-4908-9848-051083bc15fd","ios":"levelo://app?vid=47f0b781-042e-4908-9848-051083bc15fd"},"vehicle_type_id":"4","last_reported":1768036312,"current_range_meters":4000,"station_id":"","pricing_plan_id":"cebpf4jnsgd1na2vs0mg"},{"bike_id":"f91d1b0d-f4f2-482b-99bc-248584b00b50","system_id":"levelo_inurba_marseille","lat":43.29575,"lon":5.39982,"is_reserved":false,"is_disabled":false,"rental_uris":{"android":"levelo://app?vid=f91d1b0d-f4f2-482b-99bc-248584b00b50","ios":"levelo://app?vid=f91d1b0d-f4f2-482b-99bc-248584b00b50"},"vehicle_type_id":"4","last_reported":1768036312,"current_range_meters":4000,"station_id":"ce4bh312rcd13ifvqdj0","pricing_plan_id":"cebpf4jnsgd1na2vs0mg"},{"bike_id":"d5b11fb8-6192-47fb-aadc-4bb75715f25d","system_id":"levelo_inurba_marseille","lat":43.26952,"lon":5.39835,"is_reserved":false,"is_disabled":false,"rental_uris":{"android":"levelo://app?vid=d5b11fb8-6192-47fb-aadc-4bb75715f25d","ios":"levelo://app?vid=d5b11fb8-6192-47fb-aadc-4bb75715f25d"},"vehicle_type_id":"4","last_reported":1768036312,"current_range_meters":4000,"station_id":"","pricing_plan_id":"cebpf4jnsgd1na2vs0mg"},{"bike_id":"7556ec87-ee82-453f-8a43-79b64208618a","system_id":"levelo_inurba_marseille","lat":43.211908,"lon":5.350667,"is_reserved":false,"is_disabled":false,"rental_uris":{"android":"levelo://app?vid=7556ec87-ee82-453f-8a43-79b64208618a","ios":"levelo://app?vid=7556ec87-ee82-453f-8a43-79b64208618a"},"vehicle_type_id":"4","last_reported":1768036312,"current_range_meters":4000,"station_id":"st_cvj6sg6p6f1abm77japg","pricing_plan_id":"cebpf4jnsgd1na2vs0mg"},{"bike_id":"07429402-0d1d-4ec3-8e1e-7f0c93177e43","system_id":"levelo_inurba_marseille","lat":43.24811,"lon":5.37458,"is_reserved":false,"is_disabled":false,"rental_uris":{"android":"levelo://app?vid=07429402-0d1d-4ec3-8e1e-7f0c93177e43","ios":"levelo://app?vid=07429402-0d1d-4ec3-8e1e-7f0c93177e43"},"vehicle_type_id":"4","last_reported":1768036312,"current_range_meters":4000,"station_id":"ce4bhgh2rcd13ifvqfb0","pricing_plan_id":"cebpf4jnsgd1na2vs0mg"},{"bike_id":"fd48e571-84d1-4634-93d8-d8ba04b7bdf8","system_id":"levelo_inurba_marseille","lat":43.310761,"lon":5.383582,"is_reserved":false,"is_disabled":false,"rental_uris":{"android":"levelo://app?vid=fd48e571-84d1-4634-93d8-d8ba04b7bdf8","ios":"levelo://app?vid=fd48e571-84d1-4634-93d8-d8ba04b7bdf8"},"vehicle_type_id":"4","last_reported":1768036312,"current_range_meters":4000,"station_id":"ce4bgv92rcd13ifvqcr0","pricing_plan_id":"cebpf4jnsgd1na2vs0mg"},{"bike_id":"3dca468e-6ec0-49db-ae60-bf6cea9fdd64","system_id":"levelo_inurba_marseille","lat":43.32489,"lon":5.4145,"is_reserved":false,"is_disabled":false,"rental_uris":{"android":"levelo://app?vid=3dca468e-6ec0-49db-ae60-bf6cea9fdd64","ios":"levelo://app?vid=3dca468e-6ec0-49db-ae60-bf6cea9fdd64"},"vehicle_type_id":"4","last_reported":1768036312,"current_range_meters":4000,"station_id":"ce4bhq12rcd13ifvqhhg","pricing_plan_id":"cebpf4jnsgd1na2vs0mg"},{"bike_id":"b64e452a-bec0-47a7-9fd3-b6c2486866f5","system_id":"levelo_inurba_marseille","lat":43.28481,"lon":5.48406,"is_reserved":false,"is_disabled":false,"rental_uris":{"android":"levelo://app?vid=b64e452a-bec0-47a7-9fd3-b6c2486866f5","ios":"levelo://app?vid=b64e452a-bec0-47a7-9fd3-b6c2486866f5"},"vehicle_type_id":"4","last_reported":1768036312,"current_range_meters":4400,"station_id":"","pricing_plan_id":"cebpf4jnsgd1na2vs0mg"},{"bike_id":"acf9b465-5657-433f-abd2-b0a7dddb60bc","system_id":"levelo_inurba_marseille","lat":43.26548,"lon":5.373,"is_reserved":false,"is_disabled":false,"rental_uris":{"android":"levelo://app?vid=acf9b465-5657-433f-abd2-b0a7dddb60bc","ios":"levelo://app?vid=acf9b465-5657-433f-abd2-b0a7dddb60bc"},"vehicle_type_id":"4","last_reported":1768036312,"current_range_meters":4400,"station_id":"ce4bhg12rcd13ifvqf70","pricing_plan_id":"cebpf4jnsgd1na2vs0mg"},{"bike_id":"6fad9ca1-61fd-4cab-8c8e-75dda08e921f","system_id":"levelo_inurba_marseille","lat":43.3195,"lon":5.37355,"is_reserved":false,"is_disabled":false,"rental_uris":{"android":"levelo://app?vid=6fad9ca1-61fd-4cab-8c8e-75dda08e921f","ios":"levelo://app?vid=6fad9ca1-61fd-4cab-8c8e-75dda08e921f"},"vehicle_type_id":"4","last_reported":1768036312,"current_range_meters":4400,"station_id":"","pricing_plan_id":"cebpf4jnsgd1na2vs0mg"},{"bike_id":"d336d32f-a9ab-4eb1-9637-d3fa585ead55","system_id":"levelo_inurba_marseille","lat":43.294891,"lon":5.433011,"is_reserved":false,"is_disabled":false,"rental_uris":{"android":"levelo://app?vid=d336d32f-a9ab-4eb1-9637-d3fa585ead55","ios":"levelo://app?vid=d336d32f-a9ab-4eb1-9637-d3fa585ead55"},"vehicle_type_id":"4","last_reported":1768036312,"current_range_meters":4400,"station_id":"st_d3j5ugp08ojc73fj9d10","pricing_plan_id":"cebpf4jnsgd1na2vs0mg"},{"bike_id":"febd96f8-6d0e-45cb-816b-bd02fe05b961","system_id":"levelo_inurba_marseille","lat":43.304509,"lon":5.378989,"is_reserved":false,"is_disabled":false,"rental_uris":{"android":"levelo://app?vid=febd96f8-6d0e-45cb-816b-bd02fe05b961","ios":"levelo://app?vid=febd96f8-6d0e-45cb-816b-bd02fe05b961"},"vehicle_type_id":"4","last_reported":1768036312,"current_range_meters":4400,"station_id":"ce4bgup2rcd13ifvqcn0","pricing_plan_id":"cebpf4jnsgd1na2vs0mg"},{"bike_id":"803b75a8-1115-4454-b3d0-9468a98fc0c6","system_id":"levelo_inurba_marseille","lat":43.29489,"lon":5.40936,"is_reserved":false,"is_disabled":false,"rental_uris":{"android":"levelo://app?vid=803b75a8-1115-4454-b3d0-9468a98fc0c6","ios":"levelo://app?vid=803b75a8-1115-4454-b3d0-9468a98fc0c6"},"vehicle_type_id":"4","last_reported":1768036312,"current_range_meters":4400,"station_id":"","pricing_plan_id":"cebpf4jnsgd1na2vs0mg"},{"bike_id":"8b697a24-51a2-452a-93c9-5c0c040134d0","system_id":"levelo_inurba_marseille","lat":43.32217,"lon":5.3943,"is_reserved":false,"is_disabled":false,"rental_uris":{"android":"levelo://app?vid=8b697a24-51a2-452a-93c9-5c0c040134d0","ios":"levelo://app?vid=8b697a24-51a2-452a-93c9-5c0c040134d0"},"vehicle_type_id":"4","last_reported":1768036312,"current_range_meters":4400,"station_id":"","pricing_plan_id":"cebpf4jnsgd1na2vs0mg"},{"bike_id":"e3201cd7-d8a3-4808-900f-ef372cdf793a","system_id":"levelo_inurba_marseille","lat":43.29617,"lon":5.37695,"is_reserved":false,"is_disabled":false,"rental_uris":{"android":"levelo://app?vid=e3201cd7-d8a3-4808-900f-ef372cdf793a","ios":"levelo://app?vid=e3201cd7-d8a3-4808-900f-ef372cdf793a"},"vehicle_type_id":"4","last_reported":1768036312,"current_range_meters":4400,"station_id":"ce4bgi92rcd13ifvqb90","pricing_plan_id":"cebpf4jnsgd1na2vs0mg"},{"bike_id":"c2fe1391-a7e3-4e41-aa91-4e42f88a58d2","system_id":"levelo_inurba_marseille","lat":43.29558,"lon":5.42279,"is_reserved":false,"is_disabled":false,"rental_uris":{"android":"levelo://app?vid=c2fe1391-a7e3-4e41-aa91-4e42f88a58d2","ios":"levelo://app?vid=c2fe1391-a7e3-4e41-aa91-4e42f88a58d2"},"vehicle_type_id":"4","last_reported":1768036312,"current_range_meters":4400,"station_id":"ce4bhph2rcd13ifvqhdg","pricing_plan_id":"cebpf4jnsgd1na2vs0mg"},{"bike_id":"30e7f41a-5c10-4e1c-aeed-da83a0262221","system_id":"levelo_inurba_marseille","lat":43.27359,"lon":5.36243,"is_reserved":false,"is_disabled":false,"rental_uris":{"android":"levelo://app?vid=30e7f41a-5c10-4e1c-aeed-da83a0262221","ios":"levelo://app?vid=30e7f41a-5c10-4e1c-aeed-da83a0262221"},"vehicle_type_id":"4","last_reported":1768036312,"current_range_meters":4400,"station_id":"ce4bhbh2rcd13ifvqeo0","pricing_plan_id":"cebpf4jnsgd1na2vs0mg"},{"bike_id":"cc6a42bd-dd7c-4c64-b69f-e5073a2adae2","system_id":"levelo_inurba_marseille","lat":43.21756,"lon":5.34614,"is_reserved":false,"is_disabled":false,"rental_uris":{"android":"levelo://app?vid=cc6a42bd-dd7c-4c64-b69f-e5073a2adae2","ios":"levelo://app?vid=cc6a42bd-dd7c-4c64-b69f-e5073a2adae2"},"vehicle_type_id":"4","last_reported":1768036312,"current_range_meters":4800,"station_id":"st_cvj6r9ubvosntc0bgbag","pricing_plan_id":"cebpf4jnsgd1na2vs0mg"},{"bike_id":"3f7468ab-5944-415e-ae52-0d12060acb9e","system_id":"levelo_inurba_marseille","lat":43.28934,"lon":5.39624,"is_reserved":false,"is_disabled":true,"rental_uris":{"android":"levelo://app?vid=3f7468ab-5944-415e-ae52-0d12060acb9e","ios":"levelo://app?vid=3f7468ab-5944-415e-ae52-0d12060acb9e"},"vehicle_type_id":"4","last_reported":1768036312,"current_range_meters":4800,"station_id":"ce4bh3h2rcd13ifvqdn0","pricing_plan_id":"cebpf4jnsgd1na2vs0mg"},{"bike_id":"b01b28d2-3f19-4003-9ec3-2602e6f718f6","system_id":"levelo_inurba_marseille","lat":43.30495,"lon":5.37638,"is_reserved":false,"is_disabled":false,"rental_uris":{"android":"levelo://app?vid=b01b28d2-3f19-4003-9ec3-2602e6f718f6","ios":"levelo://app?vid=b01b28d2-3f19-4003-9ec3-2602e6f718f6"},"vehicle_type_id":"4","last_reported":1768036312,"current_range_meters":4800,"station_id":"","pricing_plan_id":"cebpf4jnsgd1na2vs0mg"},{"bike_id":"2f148a40-08c3-4821-bb26-bd90d7a0c233","system_id":"levelo_inurba_marseille","lat":43.243965,"lon":5.370703,"is_reserved":false,"is_disabled":false,"rental_uris":{"android":"levelo://app?vid=2f148a40-08c3-4821-bb26-bd90d7a0c233","ios":"levelo://app?vid=2f148a40-08c3-4821-bb26-bd90d7a0c233"},"vehicle_type_id":"4","last_reported":1768036312,"current_range_meters":4800,"station_id":"ce4bhhh2rcd13ifvqfk0","pricing_plan_id":"cebpf4jnsgd1na2vs0mg"},{"bike_id":"865555d8-70a3-48c4-b89b-4cd7680516d4","system_id":"levelo_inurba_marseille","lat":43.23177,"lon":5.35562,"is_reserved":false,"is_disabled":false,"rental_uris":{"android":"levelo://app?vid=865555d8-70a3-48c4-b89b-4cd7680516d4","ios":"levelo://app?vid=865555d8-70a3-48c4-b89b-4cd7680516d4"},"vehicle_type_id":"4","last_reported":1768036312,"current_range_meters":4800,"station_id":"ce4bhu92rcd13ifvqi70","pricing_plan_id":"cebpf4jnsgd1na2vs0mg"},{"bike_id":"edf9ef2b-78e7-402e-b2e7-1f5952a3485d","system_id":"levelo_inurba_marseille","lat":43.2551,"lon":5.37664,"is_reserved":false,"is_disabled":false,"rental_uris":{"android":"levelo://app?vid=edf9ef2b-78e7-402e-b2e7-1f5952a3485d","ios":"levelo://app?vid=edf9ef2b-78e7-402e-b2e7-1f5952a3485d"},"vehicle_type_id":"4","last_reported":1768036312,"current_range_meters":4800,"station_id":"ce4bhh12rcd13ifvqff0","pricing_plan_id":"cebpf4jnsgd1na2vs0mg"},{"bike_id":"78e548d8-0265-46e8-a56e-2159545c3d74","system_id":"levelo_inurba_marseille","lat":43.28693,"lon":5.37408,"is_reserved":false,"is_disabled":false,"rental_uris":{"android":"levelo://app?vid=78e548d8-0265-46e8-a56e-2159545c3d74","ios":"levelo://app?vid=78e548d8-0265-46e8-a56e-2159545c3d74"},"vehicle_type_id":"4","last_reported":1768036312,"current_range_meters":4800,"station_id":"ce4bh3p2rcd13ifvqdq0","pricing_plan_id":"cebpf4jnsgd1na2vs0mg"},{"bike_id":"24fd1209-d399-4ee0-89bd-9c6e7402ed28","system_id":"levelo_inurba_marseille","lat":43.280307,"lon":5.369439,"is_reserved":false,"is_disabled":false,"rental_uris":{"android":"levelo://app?vid=24fd1209-d399-4ee0-89bd-9c6e7402ed28","ios":"levelo://app?vid=24fd1209-d399-4ee0-89bd-9c6e7402ed28"},"vehicle_type_id":"4","last_reported":1768036312,"current_range_meters":4800,"station_id":"ce4bha12rcd13ifvqef0","pricing_plan_id":"cebpf4jnsgd1na2vs0mg"},{"bike_id":"2e4bd346-2ef6-4ed8-9714-fdcc0b54b9d0","system_id":"levelo_inurba_marseille","lat":43.24797,"lon":5.37453,"is_reserved":false,"is_disabled":false,"rental_uris":{"android":"levelo://app?vid=2e4bd346-2ef6-4ed8-9714-fdcc0b54b9d0","ios":"levelo://app?vid=2e4bd346-2ef6-4ed8-9714-fdcc0b54b9d0"},"vehicle_type_id":"4","last_reported":1768036312,"current_range_meters":4800,"station_id":"ce4bhgh2rcd13ifvqfb0","pricing_plan_id":"cebpf4jnsgd1na2vs0mg"},{"bike_id":"813744c2-32d8-4783-8fd8-cb01e5ee70e2","system_id":"levelo_inurba_marseille","lat":43.302825,"lon":5.372631,"is_reserved":false,"is_disabled":false,"rental_uris":{"android":"levelo://app?vid=813744c2-32d8-4783-8fd8-cb01e5ee70e2","ios":"levelo://app?vid=813744c2-32d8-4783-8fd8-cb01e5ee70e2"},"vehicle_type_id":"4","last_reported":1768036312,"current_range_meters":4800,"station_id":"","pricing_plan_id":"cebpf4jnsgd1na2vs0mg"},{"bike_id":"341ffd04-9f22-43c9-8a92-b65afe9e6bf5","system_id":"levelo_inurba_marseille","lat":43.29189,"lon":5.39313,"is_reserved":false,"is_disabled":true,"rental_uris":{"android":"levelo://app?vid=341ffd04-9f22-43c9-8a92-b65afe9e6bf5","ios":"levelo://app?vid=341ffd04-9f22-43c9-8a92-b65afe9e6bf5"},"vehicle_type_id":"4","last_reported":1768036312,"current_range_meters":4800,"station_id":"ce4bh192rcd13ifvqdd0","pricing_plan_id":"cebpf4jnsgd1na2vs0mg"},{"bike_id":"0545e863-d76c-4ff3-8e82-b5fc48f3c2f0","system_id":"levelo_inurba_marseille","lat":43.287119,"lon":5.373907,"is_reserved":false,"is_disabled":false,"rental_uris":{"android":"levelo://app?vid=0545e863-d76c-4ff3-8e82-b5fc48f3c2f0","ios":"levelo://app?vid=0545e863-d76c-4ff3-8e82-b5fc48f3c2f0"},"vehicle_type_id":"4","last_reported":1768036312,"current_range_meters":4800,"station_id":"ce4bh3p2rcd13ifvqdq0","pricing_plan_id":"cebpf4jnsgd1na2vs0mg"},{"bike_id":"85264b74-5b04-4dbe-94c6-abdbdfeafcf0","system_id":"levelo_inurba_marseille","lat":43.28486,"lon":5.48382,"is_reserved":false,"is_disabled":false,"rental_uris":{"android":"levelo://app?vid=85264b74-5b04-4dbe-94c6-abdbdfeafcf0","ios":"levelo://app?vid=85264b74-5b04-4dbe-94c6-abdbdfeafcf0"},"vehicle_type_id":"4","last_reported":1768036312,"current_range_meters":4800,"station_id":"","pricing_plan_id":"cebpf4jnsgd1na2vs0mg"},{"bike_id":"44ba5636-cada-4aed-81b4-84b346c45e10","system_id":"levelo_inurba_marseille","lat":43.25587,"lon":5.3824,"is_reserved":false,"is_disabled":false,"rental_uris":{"android":"levelo://app?vid=44ba5636-cada-4aed-81b4-84b346c45e10","ios":"levelo://app?vid=44ba5636-cada-4aed-81b4-84b346c45e10"},"vehicle_type_id":"4","last_reported":1768036312,"current_range_meters":4800,"station_id":"ce4bhih2rcd13ifvqfs0","pricing_plan_id":"cebpf4jnsgd1na2vs0mg"},{"bike_id":"6eb4323a-67a0-4314-ada5-84b4c1d1a5bf","system_id":"levelo_inurba_marseille","lat":43.30386,"lon":5.41308,"is_reserved":false,"is_disabled":false,"rental_uris":{"android":"levelo://app?vid=6eb4323a-67a0-4314-ada5-84b4c1d1a5bf","ios":"levelo://app?vid=6eb4323a-67a0-4314-ada5-84b4c1d1a5bf"},"vehicle_type_id":"4","last_reported":1768036312,"current_range_meters":5600,"station_id":"ce4bhop2rcd13ifvqh8g","pricing_plan_id":"cebpf4jnsgd1na2vs0mg"},{"bike_id":"667ce080-39d1-4488-b051-3094810dd8ad","system_id":"levelo_inurba_marseille","lat":43.29914,"lon":5.4289,"is_reserved":false,"is_disabled":false,"rental_uris":{"android":"levelo://app?vid=667ce080-39d1-4488-b051-3094810dd8ad","ios":"levelo://app?vid=667ce080-39d1-4488-b051-3094810dd8ad"},"vehicle_type_id":"4","last_reported":1768036312,"current_range_meters":5600,"station_id":"","pricing_plan_id":"cebpf4jnsgd1na2vs0mg"},{"bike_id":"791edebb-2b4f-4141-8cb6-d2d1e1b4fb81","system_id":"levelo_inurba_marseille","lat":43.30345,"lon":5.41887,"is_reserved":false,"is_disabled":false,"rental_uris":{"android":"levelo://app?vid=791edebb-2b4f-4141-8cb6-d2d1e1b4fb81","ios":"levelo://app?vid=791edebb-2b4f-4141-8cb6-d2d1e1b4fb81"},"vehicle_type_id":"4","last_reported":1768036312,"current_range_meters":5600,"station_id":"ce4bhop2rcd13ifvqh7g","pricing_plan_id":"cebpf4jnsgd1na2vs0mg"},{"bike_id":"4d1dbbc4-a3c7-40b2-b35d-57af536f6f9a","system_id":"levelo_inurba_marseille","lat":43.28616,"lon":5.35094,"is_reserved":false,"is_disabled":false,"rental_uris":{"android":"levelo://app?vid=4d1dbbc4-a3c7-40b2-b35d-57af536f6f9a","ios":"levelo://app?vid=4d1dbbc4-a3c7-40b2-b35d-57af536f6f9a"},"vehicle_type_id":"4","last_reported":1768036312,"current_range_meters":5600,"station_id":"ce4bhch2rcd13ifvqeug","pricing_plan_id":"cebpf4jnsgd1na2vs0mg"},{"bike_id":"ba2c17c1-c497-488b-ae00-e96360117923","system_id":"levelo_inurba_marseille","lat":43.298738,"lon":5.375641,"is_reserved":false,"is_disabled":false,"rental_uris":{"android":"levelo://app?vid=ba2c17c1-c497-488b-ae00-e96360117923","ios":"levelo://app?vid=ba2c17c1-c497-488b-ae00-e96360117923"},"vehicle_type_id":"4","last_reported":1768036312,"current_range_meters":5600,"station_id":"","pricing_plan_id":"cebpf4jnsgd1na2vs0mg"},{"bike_id":"853263ca-9164-4425-83ed-bd96c0a9b45a","system_id":"levelo_inurba_marseille","lat":43.32714,"lon":5.39265,"is_reserved":false,"is_disabled":false,"rental_uris":{"android":"levelo://app?vid=853263ca-9164-4425-83ed-bd96c0a9b45a","ios":"levelo://app?vid=853263ca-9164-4425-83ed-bd96c0a9b45a"},"vehicle_type_id":"4","last_reported":1768036312,"current_range_meters":5600,"station_id":"","pricing_plan_id":"cebpf4jnsgd1na2vs0mg"},{"bike_id":"eb6bac7c-ea47-4981-b38d-8116727e3c2f","system_id":"levelo_inurba_marseille","lat":43.27841,"lon":5.40701,"is_reserved":false,"is_disabled":false,"rental_uris":{"android":"levelo://app?vid=eb6bac7c-ea47-4981-b38d-8116727e3c2f","ios":"levelo://app?vid=eb6bac7c-ea47-4981-b38d-8116727e3c2f"},"vehicle_type_id":"4","last_reported":1768036312,"current_range_meters":5600,"station_id":"ce4bhnh2rcd13ifvqgtg","pricing_plan_id":"cebpf4jnsgd1na2vs0mg"},{"bike_id":"a6587fc2-d977-4e48-9cf2-37447cd6f5ac","system_id":"levelo_inurba_marseille","lat":43.24167,"lon":5.36408,"is_reserved":false,"is_disabled":false,"rental_uris":{"android":"levelo://app?vid=a6587fc2-d977-4e48-9cf2-37447cd6f5ac","ios":"levelo://app?vid=a6587fc2-d977-4e48-9cf2-37447cd6f5ac"},"vehicle_type_id":"4","last_reported":1768036312,"current_range_meters":5600,"station_id":"cpo36qri1sfpv3e86is0","pricing_plan_id":"cebpf4jnsgd1na2vs0mg"},{"bike_id":"8b74449f-8279-475a-be9f-b63c9831caec","system_id":"levelo_inurba_marseille","lat":43.26938,"lon":5.38628,"is_reserved":false,"is_disabled":false,"rental_uris":{"android":"levelo://app?vid=8b74449f-8279-475a-be9f-b63c9831caec","ios":"levelo://app?vid=8b74449f-8279-475a-be9f-b63c9831caec"},"vehicle_type_id":"4","last_reported":1768036312,"current_range_meters":5600,"station_id":"ce4bhh92rcd13ifvqfh0","pricing_plan_id":"cebpf4jnsgd1na2vs0mg"},{"bike_id":"e984a252-4013-4ecc-97a0-f289f83e28e6","system_id":"levelo_inurba_marseille","lat":43.31153,"lon":5.38743,"is_reserved":false,"is_disabled":false,"rental_uris":{"android":"levelo://app?vid=e984a252-4013-4ecc-97a0-f289f83e28e6","ios":"levelo://app?vid=e984a252-4013-4ecc-97a0-f289f83e28e6"},"vehicle_type_id":"4","last_reported":1768036312,"current_range_meters":5600,"station_id":"ce4bgv12rcd13ifvqcp0","pricing_plan_id":"cebpf4jnsgd1na2vs0mg"},{"bike_id":"afe7603b-8ae5-4773-9c35-715a117e2a15","system_id":"levelo_inurba_marseille","lat":43.29926,"lon":5.36571,"is_reserved":false,"is_disabled":false,"rental_uris":{"android":"levelo://app?vid=afe7603b-8ae5-4773-9c35-715a117e2a15","ios":"levelo://app?vid=afe7603b-8ae5-4773-9c35-715a117e2a15"},"vehicle_type_id":"4","last_reported":1768036312,"current_range_meters":5600,"station_id":"ce4bgm92rcd13ifvqbr0","pricing_plan_id":"cebpf4jnsgd1na2vs0mg"},{"bike_id":"8c9c7d2f-2964-4558-96e9-0e1ea8fcd3c7","system_id":"levelo_inurba_marseille","lat":43.22568,"lon":5.41675,"is_reserved":false,"is_disabled":false,"rental_uris":{"android":"levelo://app?vid=8c9c7d2f-2964-4558-96e9-0e1ea8fcd3c7","ios":"levelo://app?vid=8c9c7d2f-2964-4558-96e9-0e1ea8fcd3c7"},"vehicle_type_id":"4","last_reported":1768036312,"current_range_meters":5600,"station_id":"st_d2o4gvlbi1j2169b742g","pricing_plan_id":"cebpf4jnsgd1na2vs0mg"},{"bike_id":"d2e43a61-8f0d-4394-91f9-14dadf5d2b6f","system_id":"levelo_inurba_marseille","lat":43.29262,"lon":5.4092,"is_reserved":false,"is_disabled":false,"rental_uris":{"android":"levelo://app?vid=d2e43a61-8f0d-4394-91f9-14dadf5d2b6f","ios":"levelo://app?vid=d2e43a61-8f0d-4394-91f9-14dadf5d2b6f"},"vehicle_type_id":"4","last_reported":1768036312,"current_range_meters":5600,"station_id":"ce4bh192rcd13ifvqdc0","pricing_plan_id":"cebpf4jnsgd1na2vs0mg"},{"bike_id":"72c4e195-225f-406f-ba7b-fb6834e7650b","system_id":"levelo_inurba_marseille","lat":43.315724,"lon":5.368967,"is_reserved":false,"is_disabled":false,"rental_uris":{"android":"levelo://app?vid=72c4e195-225f-406f-ba7b-fb6834e7650b","ios":"levelo://app?vid=72c4e195-225f-406f-ba7b-fb6834e7650b"},"vehicle_type_id":"4","last_reported":1768036312,"current_range_meters":5600,"station_id":"","pricing_plan_id":"cebpf4jnsgd1na2vs0mg"},{"bike_id":"3784f2bf-f44f-44f4-a8be-e3b125ce0193","system_id":"levelo_inurba_marseille","lat":43.27095,"lon":5.40475,"is_reserved":false,"is_disabled":false,"rental_uris":{"android":"levelo://app?vid=3784f2bf-f44f-44f4-a8be-e3b125ce0193","ios":"levelo://app?vid=3784f2bf-f44f-44f4-a8be-e3b125ce0193"},"vehicle_type_id":"4","last_reported":1768036312,"current_range_meters":5600,"station_id":"","pricing_plan_id":"cebpf4jnsgd1na2vs0mg"},{"bike_id":"2416829d-3f10-4954-bbb3-bc994a74f29a","system_id":"levelo_inurba_marseille","lat":43.25572,"lon":5.38213,"is_reserved":false,"is_disabled":false,"rental_uris":{"android":"levelo://app?vid=2416829d-3f10-4954-bbb3-bc994a74f29a","ios":"levelo://app?vid=2416829d-3f10-4954-bbb3-bc994a74f29a"},"vehicle_type_id":"4","last_reported":1768036312,"current_range_meters":5600,"station_id":"","pricing_plan_id":"cebpf4jnsgd1na2vs0mg"},{"bike_id":"e288dd09-a719-4af9-97ac-ef72cf8ca56d","system_id":"levelo_inurba_marseille","lat":43.24947,"lon":5.40493,"is_reserved":false,"is_disabled":false,"rental_uris":{"android":"levelo://app?vid=e288dd09-a719-4af9-97ac-ef72cf8ca56d","ios":"levelo://app?vid=e288dd09-a719-4af9-97ac-ef72cf8ca56d"},"vehicle_type_id":"4","last_reported":1768036312,"current_range_meters":5600,"station_id":"st_d2ngiaodas8pm72gd1h0","pricing_plan_id":"cebpf4jnsgd1na2vs0mg"},{"bike_id":"14327f6a-9b8b-4954-93fa-4d0397c2ebf5","system_id":"levelo_inurba_marseille","lat":43.23193,"lon":5.40006,"is_reserved":false,"is_disabled":false,"rental_uris":{"android":"levelo://app?vid=14327f6a-9b8b-4954-93fa-4d0397c2ebf5","ios":"levelo://app?vid=14327f6a-9b8b-4954-93fa-4d0397c2ebf5"},"vehicle_type_id":"4","last_reported":1768036312,"current_range_meters":6000,"station_id":"ce4bhn12rcd13ifvqgqg","pricing_plan_id":"cebpf4jnsgd1na2vs0mg"},{"bike_id":"d498bde7-ef09-475e-9b44-2bd4a3573e92","system_id":"levelo_inurba_marseille","lat":43.27206,"lon":5.39185,"is_reserved":false,"is_disabled":false,"rental_uris":{"android":"levelo://app?vid=d498bde7-ef09-475e-9b44-2bd4a3573e92","ios":"levelo://app?vid=d498bde7-ef09-475e-9b44-2bd4a3573e92"},"vehicle_type_id":"4","last_reported":1768036312,"current_range_meters":6000,"station_id":"ce4bhhp2rcd13ifvqfm0","pricing_plan_id":"cebpf4jnsgd1na2vs0mg"},{"bike_id":"f4049db7-b663-4b74-9659-1609ed0f1a6e","system_id":"levelo_inurba_marseille","lat":43.31292,"lon":5.3973,"is_reserved":false,"is_disabled":false,"rental_uris":{"android":"levelo://app?vid=f4049db7-b663-4b74-9659-1609ed0f1a6e","ios":"levelo://app?vid=f4049db7-b663-4b74-9659-1609ed0f1a6e"},"vehicle_type_id":"4","last_reported":1768036312,"current_range_meters":6000,"station_id":"","pricing_plan_id":"cebpf4jnsgd1na2vs0mg"},{"bike_id":"939c67ce-6377-4aee-8e6c-8ad0908b5630","system_id":"levelo_inurba_marseille","lat":43.253351,"lon":5.421745,"is_reserved":false,"is_disabled":false,"rental_uris":{"android":"levelo://app?vid=939c67ce-6377-4aee-8e6c-8ad0908b5630","ios":"levelo://app?vid=939c67ce-6377-4aee-8e6c-8ad0908b5630"},"vehicle_type_id":"4","last_reported":1768036312,"current_range_meters":6000,"station_id":"st_d2m65c5bi1j21697t3ng","pricing_plan_id":"cebpf4jnsgd1na2vs0mg"},{"bike_id":"e45dd15b-7697-4d10-966c-fe17d7ab819b","system_id":"levelo_inurba_marseille","lat":43.282184,"lon":5.390655,"is_reserved":false,"is_disabled":false,"rental_uris":{"android":"levelo://app?vid=e45dd15b-7697-4d10-966c-fe17d7ab819b","ios":"levelo://app?vid=e45dd15b-7697-4d10-966c-fe17d7ab819b"},"vehicle_type_id":"4","last_reported":1768036312,"current_range_meters":6000,"station_id":"ce4bhn92rcd13ifvqgsg","pricing_plan_id":"cebpf4jnsgd1na2vs0mg"},{"bike_id":"33506a60-d764-46b1-8f22-2ca638ff0ced","system_id":"levelo_inurba_marseille","lat":43.2958,"lon":5.37521,"is_reserved":false,"is_disabled":false,"rental_uris":{"android":"levelo://app?vid=33506a60-d764-46b1-8f22-2ca638ff0ced","ios":"levelo://app?vid=33506a60-d764-46b1-8f22-2ca638ff0ced"},"vehicle_type_id":"4","last_reported":1768036312,"current_range_meters":6000,"station_id":"ce4bgh92rcd13ifvqb50","pricing_plan_id":"cebpf4jnsgd1na2vs0mg"},{"bike_id":"23d25c2f-1713-44f4-812e-c08229251eed","system_id":"levelo_inurba_marseille","lat":43.24397,"lon":5.37061,"is_reserved":false,"is_disabled":false,"rental_uris":{"android":"levelo://app?vid=23d25c2f-1713-44f4-812e-c08229251eed","ios":"levelo://app?vid=23d25c2f-1713-44f4-812e-c08229251eed"},"vehicle_type_id":"4","last_reported":1768036312,"current_range_meters":6000,"station_id":"ce4bhhh2rcd13ifvqfk0","pricing_plan_id":"cebpf4jnsgd1na2vs0mg"},{"bike_id":"4750dde3-1068-4d1c-91ff-e24a2c661d15","system_id":"levelo_inurba_marseille","lat":43.30132,"lon":5.43108,"is_reserved":false,"is_disabled":false,"rental_uris":{"android":"levelo://app?vid=4750dde3-1068-4d1c-91ff-e24a2c661d15","ios":"levelo://app?vid=4750dde3-1068-4d1c-91ff-e24a2c661d15"},"vehicle_type_id":"4","last_reported":1768036312,"current_range_meters":6000,"station_id":"st_d3js3co5814s73ftftug","pricing_plan_id":"cebpf4jnsgd1na2vs0mg"},{"bike_id":"0d766240-8416-4864-ac60-8bf893bba867","system_id":"levelo_inurba_marseille","lat":43.28645,"lon":5.37149,"is_reserved":false,"is_disabled":false,"rental_uris":{"android":"levelo://app?vid=0d766240-8416-4864-ac60-8bf893bba867","ios":"levelo://app?vid=0d766240-8416-4864-ac60-8bf893bba867"},"vehicle_type_id":"4","last_reported":1768036312,"current_range_meters":6000,"station_id":"","pricing_plan_id":"cebpf4jnsgd1na2vs0mg"},{"bike_id":"a35a07e6-7d61-40c1-8140-fe4a15aa048f","system_id":"levelo_inurba_marseille","lat":43.25715,"lon":5.41115,"is_reserved":false,"is_disabled":false,"rental_uris":{"android":"levelo://app?vid=a35a07e6-7d61-40c1-8140-fe4a15aa048f","ios":"levelo://app?vid=a35a07e6-7d61-40c1-8140-fe4a15aa048f"},"vehicle_type_id":"4","last_reported":1768036312,"current_range_meters":6000,"station_id":"ce4bhkp2rcd13ifvqgd0","pricing_plan_id":"cebpf4jnsgd1na2vs0mg"},{"bike_id":"70c77e49-9fa9-46bc-9adc-75c8f10ca9bc","system_id":"levelo_inurba_marseille","lat":43.29876,"lon":5.38136,"is_reserved":false,"is_disabled":false,"rental_uris":{"android":"levelo://app?vid=70c77e49-9fa9-46bc-9adc-75c8f10ca9bc","ios":"levelo://app?vid=70c77e49-9fa9-46bc-9adc-75c8f10ca9bc"},"vehicle_type_id":"4","last_reported":1768036312,"current_range_meters":6000,"station_id":"ce4bgj12rcd13ifvqbc0","pricing_plan_id":"cebpf4jnsgd1na2vs0mg"},{"bike_id":"5524341e-641e-442f-849f-a931fdf72ad1","system_id":"levelo_inurba_marseille","lat":43.28404,"lon":5.37545,"is_reserved":false,"is_disabled":false,"rental_uris":{"android":"levelo://app?vid=5524341e-641e-442f-849f-a931fdf72ad1","ios":"levelo://app?vid=5524341e-641e-442f-849f-a931fdf72ad1"},"vehicle_type_id":"4","last_reported":1768036312,"current_range_meters":6000,"station_id":"ce4bh412rcd13ifvqds0","pricing_plan_id":"cebpf4jnsgd1na2vs0mg"},{"bike_id":"d2e2418d-c3ed-4fd0-88de-90fe98564ba8","system_id":"levelo_inurba_marseille","lat":43.32096,"lon":5.36786,"is_reserved":false,"is_disabled":false,"rental_uris":{"android":"levelo://app?vid=d2e2418d-c3ed-4fd0-88de-90fe98564ba8","ios":"levelo://app?vid=d2e2418d-c3ed-4fd0-88de-90fe98564ba8"},"vehicle_type_id":"4","last_reported":1768036312,"current_range_meters":6000,"station_id":"ce4bhrh2rcd13ifvqhug","pricing_plan_id":"cebpf4jnsgd1na2vs0mg"},{"bike_id":"f582e2e5-a25e-4250-97d6-4e6a824e9461","system_id":"levelo_inurba_marseille","lat":43.30529,"lon":5.36759,"is_reserved":false,"is_disabled":false,"rental_uris":{"android":"levelo://app?vid=f582e2e5-a25e-4250-97d6-4e6a824e9461","ios":"levelo://app?vid=f582e2e5-a25e-4250-97d6-4e6a824e9461"},"vehicle_type_id":"4","last_reported":1768036312,"current_range_meters":6000,"station_id":"ce4bgrp2rcd13ifvqc9g","pricing_plan_id":"cebpf4jnsgd1na2vs0mg"},{"bike_id":"4768e522-465c-471b-83eb-752e8dc1ba4a","system_id":"levelo_inurba_marseille","lat":43.30144,"lon":5.38079,"is_reserved":false,"is_disabled":false,"rental_uris":{"android":"levelo://app?vid=4768e522-465c-471b-83eb-752e8dc1ba4a","ios":"levelo://app?vid=4768e522-465c-471b-83eb-752e8dc1ba4a"},"vehicle_type_id":"4","last_reported":1768036312,"current_range_meters":6000,"station_id":"ce4bgjp2rcd13ifvqbh0","pricing_plan_id":"cebpf4jnsgd1na2vs0mg"},{"bike_id":"f1c45a35-92f2-4bd0-bf90-dce9ddee18cb","system_id":"levelo_inurba_marseille","lat":43.2557,"lon":5.38268,"is_reserved":false,"is_disabled":false,"rental_uris":{"android":"levelo://app?vid=f1c45a35-92f2-4bd0-bf90-dce9ddee18cb","ios":"levelo://app?vid=f1c45a35-92f2-4bd0-bf90-dce9ddee18cb"},"vehicle_type_id":"4","last_reported":1768036312,"current_range_meters":6000,"station_id":"ce4bhih2rcd13ifvqfs0","pricing_plan_id":"cebpf4jnsgd1na2vs0mg"},{"bike_id":"9be47716-b6c4-4f6e-b3d9-238d6399366b","system_id":"levelo_inurba_marseille","lat":43.31399,"lon":5.40421,"is_reserved":false,"is_disabled":false,"rental_uris":{"android":"levelo://app?vid=9be47716-b6c4-4f6e-b3d9-238d6399366b","ios":"levelo://app?vid=9be47716-b6c4-4f6e-b3d9-238d6399366b"},"vehicle_type_id":"4","last_reported":1768036312,"current_range_meters":6000,"station_id":"","pricing_plan_id":"cebpf4jnsgd1na2vs0mg"},{"bike_id":"a9fccba9-b754-4ee7-accb-83ed7cce913f","system_id":"levelo_inurba_marseille","lat":43.23143,"lon":5.4371,"is_reserved":false,"is_disabled":false,"rental_uris":{"android":"levelo://app?vid=a9fccba9-b754-4ee7-accb-83ed7cce913f","ios":"levelo://app?vid=a9fccba9-b754-4ee7-accb-83ed7cce913f"},"vehicle_type_id":"4","last_reported":1768036312,"current_range_meters":6400,"station_id":"ce4bhmp2rcd13ifvqgog","pricing_plan_id":"cebpf4jnsgd1na2vs0mg"},{"bike_id":"18c99692-3ca0-436c-9ab1-5135473130c4","system_id":"levelo_inurba_marseille","lat":43.237875,"lon":5.366274,"is_reserved":false,"is_disabled":false,"rental_uris":{"android":"levelo://app?vid=18c99692-3ca0-436c-9ab1-5135473130c4","ios":"levelo://app?vid=18c99692-3ca0-436c-9ab1-5135473130c4"},"vehicle_type_id":"4","last_reported":1768036312,"current_range_meters":6400,"station_id":"st_d3nk18o9ro0c73en2l3g","pricing_plan_id":"cebpf4jnsgd1na2vs0mg"},{"bike_id":"fa3e977d-1e63-41e7-8315-0d9223984351","system_id":"levelo_inurba_marseille","lat":43.30071,"lon":5.38205,"is_reserved":false,"is_disabled":false,"rental_uris":{"android":"levelo://app?vid=fa3e977d-1e63-41e7-8315-0d9223984351","ios":"levelo://app?vid=fa3e977d-1e63-41e7-8315-0d9223984351"},"vehicle_type_id":"4","last_reported":1768036312,"current_range_meters":6400,"station_id":"","pricing_plan_id":"cebpf4jnsgd1na2vs0mg"},{"bike_id":"76be208d-1c48-440b-b830-1e599a1a2370","system_id":"levelo_inurba_marseille","lat":43.26364,"lon":5.4108,"is_reserved":false,"is_disabled":false,"rental_uris":{"android":"levelo://app?vid=76be208d-1c48-440b-b830-1e599a1a2370","ios":"levelo://app?vid=76be208d-1c48-440b-b830-1e599a1a2370"},"vehicle_type_id":"4","last_reported":1768036312,"current_range_meters":6400,"station_id":"st_d4e5ca6na9uc73bfl5fg","pricing_plan_id":"cebpf4jnsgd1na2vs0mg"},{"bike_id":"8f6c4c1e-e47c-4a1f-a7a0-d3f75a03fcd5","system_id":"levelo_inurba_marseille","lat":43.25034,"lon":5.40315,"is_reserved":false,"is_disabled":false,"rental_uris":{"android":"levelo://app?vid=8f6c4c1e-e47c-4a1f-a7a0-d3f75a03fcd5","ios":"levelo://app?vid=8f6c4c1e-e47c-4a1f-a7a0-d3f75a03fcd5"},"vehicle_type_id":"4","last_reported":1768036312,"current_range_meters":6400,"station_id":"","pricing_plan_id":"cebpf4jnsgd1na2vs0mg"},{"bike_id":"d0b3031b-3e7d-4ed4-9a5b-5beafd20ab49","system_id":"levelo_inurba_marseille","lat":43.29755,"lon":5.42774,"is_reserved":false,"is_disabled":false,"rental_uris":{"android":"levelo://app?vid=d0b3031b-3e7d-4ed4-9a5b-5beafd20ab49","ios":"levelo://app?vid=d0b3031b-3e7d-4ed4-9a5b-5beafd20ab49"},"vehicle_type_id":"4","last_reported":1768036312,"current_range_meters":6400,"station_id":"st_d3md5207bmas73dh9klg","pricing_plan_id":"cebpf4jnsgd1na2vs0mg"},{"bike_id":"50c3ef0e-1a4a-429a-8acc-0df9b73d0d2b","system_id":"levelo_inurba_marseille","lat":43.237779,"lon":5.366233,"is_reserved":false,"is_disabled":false,"rental_uris":{"android":"levelo://app?vid=50c3ef0e-1a4a-429a-8acc-0df9b73d0d2b","ios":"levelo://app?vid=50c3ef0e-1a4a-429a-8acc-0df9b73d0d2b"},"vehicle_type_id":"4","last_reported":1768036312,"current_range_meters":6400,"station_id":"st_d3nk18o9ro0c73en2l3g","pricing_plan_id":"cebpf4jnsgd1na2vs0mg"},{"bike_id":"07a64454-6ccc-4399-bb05-db92d5dab39b","system_id":"levelo_inurba_marseille","lat":43.270574,"lon":5.383057,"is_reserved":false,"is_disabled":false,"rental_uris":{"android":"levelo://app?vid=07a64454-6ccc-4399-bb05-db92d5dab39b","ios":"levelo://app?vid=07a64454-6ccc-4399-bb05-db92d5dab39b"},"vehicle_type_id":"4","last_reported":1768036312,"current_range_meters":6400,"station_id":"st_d3n2fo6cfp8s73cte1j0","pricing_plan_id":"cebpf4jnsgd1na2vs0mg"},{"bike_id":"76e4e42b-ff1f-4fe8-a54e-d42a16767785","system_id":"levelo_inurba_marseille","lat":43.260262,"lon":5.375557,"is_reserved":false,"is_disabled":false,"rental_uris":{"android":"levelo://app?vid=76e4e42b-ff1f-4fe8-a54e-d42a16767785","ios":"levelo://app?vid=76e4e42b-ff1f-4fe8-a54e-d42a16767785"},"vehicle_type_id":"4","last_reported":1768036312,"current_range_meters":6400,"station_id":"ce4bhgh2rcd13ifvqfa0","pricing_plan_id":"cebpf4jnsgd1na2vs0mg"},{"bike_id":"07ddf1b5-bcab-4acd-beb5-2d170db3f9c2","system_id":"levelo_inurba_marseille","lat":43.286695,"lon":5.374192,"is_reserved":false,"is_disabled":false,"rental_uris":{"android":"levelo://app?vid=07ddf1b5-bcab-4acd-beb5-2d170db3f9c2","ios":"levelo://app?vid=07ddf1b5-bcab-4acd-beb5-2d170db3f9c2"},"vehicle_type_id":"4","last_reported":1768036312,"current_range_meters":6400,"station_id":"ce4bh3p2rcd13ifvqdq0","pricing_plan_id":"cebpf4jnsgd1na2vs0mg"},{"bike_id":"ca5a0dc9-01dc-498c-9d75-3d988cf6cbe2","system_id":"levelo_inurba_marseille","lat":43.28479,"lon":5.38419,"is_reserved":false,"is_disabled":false,"rental_uris":{"android":"levelo://app?vid=ca5a0dc9-01dc-498c-9d75-3d988cf6cbe2","ios":"levelo://app?vid=ca5a0dc9-01dc-498c-9d75-3d988cf6cbe2"},"vehicle_type_id":"4","last_reported":1768036312,"current_range_meters":6400,"station_id":"ce4bh512rcd13ifvqe3g","pricing_plan_id":"cebpf4jnsgd1na2vs0mg"},{"bike_id":"ffd0d41d-4a56-4cbd-a28a-b4ddf2d3da3f","system_id":"levelo_inurba_marseille","lat":43.27815,"lon":5.40741,"is_reserved":false,"is_disabled":false,"rental_uris":{"android":"levelo://app?vid=ffd0d41d-4a56-4cbd-a28a-b4ddf2d3da3f","ios":"levelo://app?vid=ffd0d41d-4a56-4cbd-a28a-b4ddf2d3da3f"},"vehicle_type_id":"4","last_reported":1768036312,"current_range_meters":6400,"station_id":"ce4bhnh2rcd13ifvqgtg","pricing_plan_id":"cebpf4jnsgd1na2vs0mg"},{"bike_id":"2c99ca2a-2d34-408f-b3b0-e976a2d316d6","system_id":"levelo_inurba_marseille","lat":43.317338,"lon":5.436981,"is_reserved":false,"is_disabled":false,"rental_uris":{"android":"levelo://app?vid=2c99ca2a-2d34-408f-b3b0-e976a2d316d6","ios":"levelo://app?vid=2c99ca2a-2d34-408f-b3b0-e976a2d316d6"},"vehicle_type_id":"4","last_reported":1768036312,"current_range_meters":6400,"station_id":"ce4bhp92rcd13ifvqhcg","pricing_plan_id":"cebpf4jnsgd1na2vs0mg"},{"bike_id":"95af9029-ab1d-4a4e-b35f-bdff439556a6","system_id":"levelo_inurba_marseille","lat":43.27829,"lon":5.39207,"is_reserved":false,"is_disabled":false,"rental_uris":{"android":"levelo://app?vid=95af9029-ab1d-4a4e-b35f-bdff439556a6","ios":"levelo://app?vid=95af9029-ab1d-4a4e-b35f-bdff439556a6"},"vehicle_type_id":"4","last_reported":1768036312,"current_range_meters":6400,"station_id":"ce4bhjp2rcd13ifvqga0","pricing_plan_id":"cebpf4jnsgd1na2vs0mg"},{"bike_id":"015c40ff-ccdb-43f0-8f4f-c4761b65940c","system_id":"levelo_inurba_marseille","lat":43.2293,"lon":5.35393,"is_reserved":false,"is_disabled":false,"rental_uris":{"android":"levelo://app?vid=015c40ff-ccdb-43f0-8f4f-c4761b65940c","ios":"levelo://app?vid=015c40ff-ccdb-43f0-8f4f-c4761b65940c"},"vehicle_type_id":"4","last_reported":1768036312,"current_range_meters":6400,"station_id":"cpo3532slgdg3j2ikp40","pricing_plan_id":"cebpf4jnsgd1na2vs0mg"},{"bike_id":"c1cef419-075c-4150-989b-bab45b081dcc","system_id":"levelo_inurba_marseille","lat":43.30241,"lon":5.40058,"is_reserved":false,"is_disabled":false,"rental_uris":{"android":"levelo://app?vid=c1cef419-075c-4150-989b-bab45b081dcc","ios":"levelo://app?vid=c1cef419-075c-4150-989b-bab45b081dcc"},"vehicle_type_id":"4","last_reported":1768036312,"current_range_meters":6400,"station_id":"ce4bgvh2rcd13ifvqcs0","pricing_plan_id":"cebpf4jnsgd1na2vs0mg"},{"bike_id":"2a282b80-7b90-4dc8-964e-70060a433be7","system_id":"levelo_inurba_marseille","lat":43.23191,"lon":5.35561,"is_reserved":false,"is_disabled":false,"rental_uris":{"android":"levelo://app?vid=2a282b80-7b90-4dc8-964e-70060a433be7","ios":"levelo://app?vid=2a282b80-7b90-4dc8-964e-70060a433be7"},"vehicle_type_id":"4","last_reported":1768036312,"current_range_meters":6800,"station_id":"ce4bhu92rcd13ifvqi70","pricing_plan_id":"cebpf4jnsgd1na2vs0mg"},{"bike_id":"a31a5e09-760d-4df0-a42c-5ad4c665a29b","system_id":"levelo_inurba_marseille","lat":43.25472,"lon":5.37656,"is_reserved":false,"is_disabled":false,"rental_uris":{"android":"levelo://app?vid=a31a5e09-760d-4df0-a42c-5ad4c665a29b","ios":"levelo://app?vid=a31a5e09-760d-4df0-a42c-5ad4c665a29b"},"vehicle_type_id":"4","last_reported":1768036312,"current_range_meters":6800,"station_id":"ce4bhh12rcd13ifvqff0","pricing_plan_id":"cebpf4jnsgd1na2vs0mg"},{"bike_id":"fb54c922-73a4-4918-a766-b56f627742d6","system_id":"levelo_inurba_marseille","lat":43.243915,"lon":5.370649,"is_reserved":false,"is_disabled":false,"rental_uris":{"android":"levelo://app?vid=fb54c922-73a4-4918-a766-b56f627742d6","ios":"levelo://app?vid=fb54c922-73a4-4918-a766-b56f627742d6"},"vehicle_type_id":"4","last_reported":1768036312,"current_range_meters":6800,"station_id":"ce4bhhh2rcd13ifvqfk0","pricing_plan_id":"cebpf4jnsgd1na2vs0mg"},{"bike_id":"a9a97530-f4ae-45c7-bbe9-02cb7807c19a","system_id":"levelo_inurba_marseille","lat":43.312755,"lon":5.401676,"is_reserved":false,"is_disabled":false,"rental_uris":{"android":"levelo://app?vid=a9a97530-f4ae-45c7-bbe9-02cb7807c19a","ios":"levelo://app?vid=a9a97530-f4ae-45c7-bbe9-02cb7807c19a"},"vehicle_type_id":"4","last_reported":1768036312,"current_range_meters":6800,"station_id":"","pricing_plan_id":"cebpf4jnsgd1na2vs0mg"},{"bike_id":"1444e0da-7b27-4f48-bdfa-30ab980c9925","system_id":"levelo_inurba_marseille","lat":43.25909,"lon":5.40914,"is_reserved":false,"is_disabled":false,"rental_uris":{"android":"levelo://app?vid=1444e0da-7b27-4f48-bdfa-30ab980c9925","ios":"levelo://app?vid=1444e0da-7b27-4f48-bdfa-30ab980c9925"},"vehicle_type_id":"4","last_reported":1768036312,"current_range_meters":6800,"station_id":"ce4bhm92rcd13ifvqglg","pricing_plan_id":"cebpf4jnsgd1na2vs0mg"},{"bike_id":"9ab8ec0b-173e-483a-a609-e947f01d9af1","system_id":"levelo_inurba_marseille","lat":43.29305,"lon":5.37175,"is_reserved":false,"is_disabled":false,"rental_uris":{"android":"levelo://app?vid=9ab8ec0b-173e-483a-a609-e947f01d9af1","ios":"levelo://app?vid=9ab8ec0b-173e-483a-a609-e947f01d9af1"},"vehicle_type_id":"4","last_reported":1768036312,"current_range_meters":6800,"station_id":"ce4bgh92rcd13ifvqb40","pricing_plan_id":"cebpf4jnsgd1na2vs0mg"},{"bike_id":"8b8fcd5b-3bef-4589-b807-3a246b4ee9c4","system_id":"levelo_inurba_marseille","lat":43.27373,"lon":5.36249,"is_reserved":false,"is_disabled":false,"rental_uris":{"android":"levelo://app?vid=8b8fcd5b-3bef-4589-b807-3a246b4ee9c4","ios":"levelo://app?vid=8b8fcd5b-3bef-4589-b807-3a246b4ee9c4"},"vehicle_type_id":"4","last_reported":1768036312,"current_range_meters":6800,"station_id":"ce4bhbh2rcd13ifvqeo0","pricing_plan_id":"cebpf4jnsgd1na2vs0mg"},{"bike_id":"5fcb247a-afaf-4f3a-9951-ba3b1a50553c","system_id":"levelo_inurba_marseille","lat":43.28852,"lon":5.42516,"is_reserved":false,"is_disabled":false,"rental_uris":{"android":"levelo://app?vid=5fcb247a-afaf-4f3a-9951-ba3b1a50553c","ios":"levelo://app?vid=5fcb247a-afaf-4f3a-9951-ba3b1a50553c"},"vehicle_type_id":"4","last_reported":1768036312,"current_range_meters":6800,"station_id":"st_d3b462108ojc7389ooeg","pricing_plan_id":"cebpf4jnsgd1na2vs0mg"},{"bike_id":"a8601da2-2020-4b9c-a126-4ba0f95f13ae","system_id":"levelo_inurba_marseille","lat":43.24064,"lon":5.37737,"is_reserved":false,"is_disabled":false,"rental_uris":{"android":"levelo://app?vid=a8601da2-2020-4b9c-a126-4ba0f95f13ae","ios":"levelo://app?vid=a8601da2-2020-4b9c-a126-4ba0f95f13ae"},"vehicle_type_id":"4","last_reported":1768036312,"current_range_meters":6800,"station_id":"","pricing_plan_id":"cebpf4jnsgd1na2vs0mg"},{"bike_id":"37335263-0ba0-41e1-bf1f-92d8ddde73f2","system_id":"levelo_inurba_marseille","lat":43.2558,"lon":5.38248,"is_reserved":false,"is_disabled":false,"rental_uris":{"android":"levelo://app?vid=37335263-0ba0-41e1-bf1f-92d8ddde73f2","ios":"levelo://app?vid=37335263-0ba0-41e1-bf1f-92d8ddde73f2"},"vehicle_type_id":"4","last_reported":1768036312,"current_range_meters":6800,"station_id":"ce4bhih2rcd13ifvqfs0","pricing_plan_id":"cebpf4jnsgd1na2vs0mg"},{"bike_id":"b583ce7b-2012-4560-b27c-db1eacd9a0e3","system_id":"levelo_inurba_marseille","lat":43.29226,"lon":5.3606,"is_reserved":false,"is_disabled":false,"rental_uris":{"android":"levelo://app?vid=b583ce7b-2012-4560-b27c-db1eacd9a0e3","ios":"levelo://app?vid=b583ce7b-2012-4560-b27c-db1eacd9a0e3"},"vehicle_type_id":"4","last_reported":1768036312,"current_range_meters":6800,"station_id":"ce4bhbh2rcd13ifvqeqg","pricing_plan_id":"cebpf4jnsgd1na2vs0mg"},{"bike_id":"95da510d-8d81-451f-9e9c-645b35fe2028","system_id":"levelo_inurba_marseille","lat":43.260289,"lon":5.375499,"is_reserved":false,"is_disabled":false,"rental_uris":{"android":"levelo://app?vid=95da510d-8d81-451f-9e9c-645b35fe2028","ios":"levelo://app?vid=95da510d-8d81-451f-9e9c-645b35fe2028"},"vehicle_type_id":"4","last_reported":1768036312,"current_range_meters":6800,"station_id":"ce4bhgh2rcd13ifvqfa0","pricing_plan_id":"cebpf4jnsgd1na2vs0mg"},{"bike_id":"8bca3afd-6757-4e17-905d-276c8f7a07bb","system_id":"levelo_inurba_marseille","lat":43.30815,"lon":5.36966,"is_reserved":false,"is_disabled":false,"rental_uris":{"android":"levelo://app?vid=8bca3afd-6757-4e17-905d-276c8f7a07bb","ios":"levelo://app?vid=8bca3afd-6757-4e17-905d-276c8f7a07bb"},"vehicle_type_id":"4","last_reported":1768036312,"current_range_meters":6800,"station_id":"","pricing_plan_id":"cebpf4jnsgd1na2vs0mg"},{"bike_id":"ea58a22a-0b97-41e3-bf6e-9b43aa27f1c8","system_id":"levelo_inurba_marseille","lat":43.27984,"lon":5.4167,"is_reserved":false,"is_disabled":false,"rental_uris":{"android":"levelo://app?vid=ea58a22a-0b97-41e3-bf6e-9b43aa27f1c8","ios":"levelo://app?vid=ea58a22a-0b97-41e3-bf6e-9b43aa27f1c8"},"vehicle_type_id":"4","last_reported":1768036312,"current_range_meters":6800,"station_id":"ce4bho12rcd13ifvqh1g","pricing_plan_id":"cebpf4jnsgd1na2vs0mg"},{"bike_id":"a6075423-41a8-477e-9b1b-2772be097114","system_id":"levelo_inurba_marseille","lat":43.29225,"lon":5.36063,"is_reserved":false,"is_disabled":false,"rental_uris":{"android":"levelo://app?vid=a6075423-41a8-477e-9b1b-2772be097114","ios":"levelo://app?vid=a6075423-41a8-477e-9b1b-2772be097114"},"vehicle_type_id":"4","last_reported":1768036312,"current_range_meters":6800,"station_id":"ce4bhbh2rcd13ifvqeqg","pricing_plan_id":"cebpf4jnsgd1na2vs0mg"},{"bike_id":"7b614eb9-ac4b-4cd3-97d4-d21490e2142a","system_id":"levelo_inurba_marseille","lat":43.297613,"lon":5.427776,"is_reserved":false,"is_disabled":false,"rental_uris":{"android":"levelo://app?vid=7b614eb9-ac4b-4cd3-97d4-d21490e2142a","ios":"levelo://app?vid=7b614eb9-ac4b-4cd3-97d4-d21490e2142a"},"vehicle_type_id":"4","last_reported":1768036312,"current_range_meters":7200,"station_id":"st_d3md5207bmas73dh9klg","pricing_plan_id":"cebpf4jnsgd1na2vs0mg"},{"bike_id":"9a3bcfa8-754c-46dc-9e23-cede3ccc5a9b","system_id":"levelo_inurba_marseille","lat":43.25574,"lon":5.3824,"is_reserved":false,"is_disabled":false,"rental_uris":{"android":"levelo://app?vid=9a3bcfa8-754c-46dc-9e23-cede3ccc5a9b","ios":"levelo://app?vid=9a3bcfa8-754c-46dc-9e23-cede3ccc5a9b"},"vehicle_type_id":"4","last_reported":1768036312,"current_range_meters":7200,"station_id":"ce4bhih2rcd13ifvqfs0","pricing_plan_id":"cebpf4jnsgd1na2vs0mg"},{"bike_id":"536dc866-f2e6-465e-af2c-f7eb1adaaa88","system_id":"levelo_inurba_marseille","lat":43.28854,"lon":5.4251,"is_reserved":false,"is_disabled":false,"rental_uris":{"android":"levelo://app?vid=536dc866-f2e6-465e-af2c-f7eb1adaaa88","ios":"levelo://app?vid=536dc866-f2e6-465e-af2c-f7eb1adaaa88"},"vehicle_type_id":"4","last_reported":1768036312,"current_range_meters":7200,"station_id":"st_d3b462108ojc7389ooeg","pricing_plan_id":"cebpf4jnsgd1na2vs0mg"},{"bike_id":"655a9b99-52a8-4faf-885c-a661e20365be","system_id":"levelo_inurba_marseille","lat":43.260607,"lon":5.393993,"is_reserved":false,"is_disabled":false,"rental_uris":{"android":"levelo://app?vid=655a9b99-52a8-4faf-885c-a661e20365be","ios":"levelo://app?vid=655a9b99-52a8-4faf-885c-a661e20365be"},"vehicle_type_id":"4","last_reported":1768036312,"current_range_meters":7200,"station_id":"ce4bhh92rcd13ifvqfj0","pricing_plan_id":"cebpf4jnsgd1na2vs0mg"},{"bike_id":"968f5650-f7ac-46b6-a51a-97011a0e57d4","system_id":"levelo_inurba_marseille","lat":43.337568,"lon":5.374423,"is_reserved":false,"is_disabled":false,"rental_uris":{"android":"levelo://app?vid=968f5650-f7ac-46b6-a51a-97011a0e57d4","ios":"levelo://app?vid=968f5650-f7ac-46b6-a51a-97011a0e57d4"},"vehicle_type_id":"4","last_reported":1768036312,"current_range_meters":7200,"station_id":"","pricing_plan_id":"cebpf4jnsgd1na2vs0mg"},{"bike_id":"7d98cf31-a440-4cb1-9c1a-925b7cf02ff8","system_id":"levelo_inurba_marseille","lat":43.26559,"lon":5.40331,"is_reserved":false,"is_disabled":false,"rental_uris":{"android":"levelo://app?vid=7d98cf31-a440-4cb1-9c1a-925b7cf02ff8","ios":"levelo://app?vid=7d98cf31-a440-4cb1-9c1a-925b7cf02ff8"},"vehicle_type_id":"4","last_reported":1768036312,"current_range_meters":7200,"station_id":"ce4bhmp2rcd13ifvqgng","pricing_plan_id":"cebpf4jnsgd1na2vs0mg"},{"bike_id":"77ec842d-d920-4ce7-8f6b-45a2f3b882c4","system_id":"levelo_inurba_marseille","lat":43.278097,"lon":5.407127,"is_reserved":false,"is_disabled":false,"rental_uris":{"android":"levelo://app?vid=77ec842d-d920-4ce7-8f6b-45a2f3b882c4","ios":"levelo://app?vid=77ec842d-d920-4ce7-8f6b-45a2f3b882c4"},"vehicle_type_id":"4","last_reported":1768036312,"current_range_meters":7200,"station_id":"ce4bhnh2rcd13ifvqgtg","pricing_plan_id":"cebpf4jnsgd1na2vs0mg"},{"bike_id":"2f94929b-7e6c-4e24-b276-2f585e92f29a","system_id":"levelo_inurba_marseille","lat":43.2977,"lon":5.42741,"is_reserved":false,"is_disabled":false,"rental_uris":{"android":"levelo://app?vid=2f94929b-7e6c-4e24-b276-2f585e92f29a","ios":"levelo://app?vid=2f94929b-7e6c-4e24-b276-2f585e92f29a"},"vehicle_type_id":"4","last_reported":1768036312,"current_range_meters":7200,"station_id":"st_d3md5207bmas73dh9klg","pricing_plan_id":"cebpf4jnsgd1na2vs0mg"},{"bike_id":"3928bd9f-9423-482a-9c34-2516e5f12e2b","system_id":"levelo_inurba_marseille","lat":43.24733,"lon":5.38085,"is_reserved":false,"is_disabled":false,"rental_uris":{"android":"levelo://app?vid=3928bd9f-9423-482a-9c34-2516e5f12e2b","ios":"levelo://app?vid=3928bd9f-9423-482a-9c34-2516e5f12e2b"},"vehicle_type_id":"4","last_reported":1768036312,"current_range_meters":7200,"station_id":"","pricing_plan_id":"cebpf4jnsgd1na2vs0mg"},{"bike_id":"0e7d0498-33e1-45af-be08-dbb5c8f6143b","system_id":"levelo_inurba_marseille","lat":43.22567,"lon":5.41626,"is_reserved":false,"is_disabled":false,"rental_uris":{"android":"levelo://app?vid=0e7d0498-33e1-45af-be08-dbb5c8f6143b","ios":"levelo://app?vid=0e7d0498-33e1-45af-be08-dbb5c8f6143b"},"vehicle_type_id":"4","last_reported":1768036312,"current_range_meters":7200,"station_id":"st_d2o4gvlbi1j2169b742g","pricing_plan_id":"cebpf4jnsgd1na2vs0mg"},{"bike_id":"f4856e1c-998b-4291-afd3-0e616bc24fd1","system_id":"levelo_inurba_marseille","lat":43.2668,"lon":5.38277,"is_reserved":false,"is_disabled":false,"rental_uris":{"android":"levelo://app?vid=f4856e1c-998b-4291-afd3-0e616bc24fd1","ios":"levelo://app?vid=f4856e1c-998b-4291-afd3-0e616bc24fd1"},"vehicle_type_id":"4","last_reported":1768036312,"current_range_meters":7200,"station_id":"ce4bhg92rcd13ifvqf90","pricing_plan_id":"cebpf4jnsgd1na2vs0mg"},{"bike_id":"78533221-0292-46cc-9ec2-a5294797e756","system_id":"levelo_inurba_marseille","lat":43.316918,"lon":5.382036,"is_reserved":false,"is_disabled":false,"rental_uris":{"android":"levelo://app?vid=78533221-0292-46cc-9ec2-a5294797e756","ios":"levelo://app?vid=78533221-0292-46cc-9ec2-a5294797e756"},"vehicle_type_id":"4","last_reported":1768036312,"current_range_meters":7200,"station_id":"","pricing_plan_id":"cebpf4jnsgd1na2vs0mg"},{"bike_id":"07e92a42-5aca-4650-8312-443d35b7174b","system_id":"levelo_inurba_marseille","lat":43.286223,"lon":5.35101,"is_reserved":false,"is_disabled":false,"rental_uris":{"android":"levelo://app?vid=07e92a42-5aca-4650-8312-443d35b7174b","ios":"levelo://app?vid=07e92a42-5aca-4650-8312-443d35b7174b"},"vehicle_type_id":"4","last_reported":1768036312,"current_range_meters":7200,"station_id":"ce4bhch2rcd13ifvqeug","pricing_plan_id":"cebpf4jnsgd1na2vs0mg"},{"bike_id":"629bb7b1-92ae-4796-b556-4f7c0d277790","system_id":"levelo_inurba_marseille","lat":43.26947,"lon":5.40256,"is_reserved":false,"is_disabled":false,"rental_uris":{"android":"levelo://app?vid=629bb7b1-92ae-4796-b556-4f7c0d277790","ios":"levelo://app?vid=629bb7b1-92ae-4796-b556-4f7c0d277790"},"vehicle_type_id":"4","last_reported":1768036312,"current_range_meters":7200,"station_id":"cjm6bp8fraef2m0cb0m0","pricing_plan_id":"cebpf4jnsgd1na2vs0mg"},{"bike_id":"5e6a913b-31c4-440b-b9c9-1f5d556afe78","system_id":"levelo_inurba_marseille","lat":43.27405,"lon":5.39417,"is_reserved":false,"is_disabled":false,"rental_uris":{"android":"levelo://app?vid=5e6a913b-31c4-440b-b9c9-1f5d556afe78","ios":"levelo://app?vid=5e6a913b-31c4-440b-b9c9-1f5d556afe78"},"vehicle_type_id":"4","last_reported":1768036312,"current_range_meters":7200,"station_id":"ce4bhdp2rcd13ifvqf20","pricing_plan_id":"cebpf4jnsgd1na2vs0mg"},{"bike_id":"7eab77dc-295b-42d0-b051-ad5cc6bc99fa","system_id":"levelo_inurba_marseille","lat":43.29054,"lon":5.35919,"is_reserved":false,"is_disabled":false,"rental_uris":{"android":"levelo://app?vid=7eab77dc-295b-42d0-b051-ad5cc6bc99fa","ios":"levelo://app?vid=7eab77dc-295b-42d0-b051-ad5cc6bc99fa"},"vehicle_type_id":"4","last_reported":1768036312,"current_range_meters":7200,"station_id":"ce4bha92rcd13ifvqeg0","pricing_plan_id":"cebpf4jnsgd1na2vs0mg"},{"bike_id":"e94bf1df-85ac-4a34-aa29-c2a137468383","system_id":"levelo_inurba_marseille","lat":43.294896,"lon":5.433085,"is_reserved":false,"is_disabled":false,"rental_uris":{"android":"levelo://app?vid=e94bf1df-85ac-4a34-aa29-c2a137468383","ios":"levelo://app?vid=e94bf1df-85ac-4a34-aa29-c2a137468383"},"vehicle_type_id":"4","last_reported":1768036312,"current_range_meters":7200,"station_id":"st_d3j5ugp08ojc73fj9d10","pricing_plan_id":"cebpf4jnsgd1na2vs0mg"},{"bike_id":"576d3eaa-88df-4569-92e9-05ff04a7918e","system_id":"levelo_inurba_marseille","lat":43.24658,"lon":5.3816,"is_reserved":false,"is_disabled":false,"rental_uris":{"android":"levelo://app?vid=576d3eaa-88df-4569-92e9-05ff04a7918e","ios":"levelo://app?vid=576d3eaa-88df-4569-92e9-05ff04a7918e"},"vehicle_type_id":"4","last_reported":1768036312,"current_range_meters":8000,"station_id":"ce4bhih2rcd13ifvqfr0","pricing_plan_id":"cebpf4jnsgd1na2vs0mg"},{"bike_id":"76de53ab-73ab-40f7-9a0b-c2437c1ffb53","system_id":"levelo_inurba_marseille","lat":43.31358,"lon":5.38498,"is_reserved":false,"is_disabled":false,"rental_uris":{"android":"levelo://app?vid=76de53ab-73ab-40f7-9a0b-c2437c1ffb53","ios":"levelo://app?vid=76de53ab-73ab-40f7-9a0b-c2437c1ffb53"},"vehicle_type_id":"4","last_reported":1768036312,"current_range_meters":8000,"station_id":"ce4bgt92rcd13ifvqcf0","pricing_plan_id":"cebpf4jnsgd1na2vs0mg"},{"bike_id":"e3c49ca2-e14b-41b4-8d76-d429e82933ab","system_id":"levelo_inurba_marseille","lat":43.30923,"lon":5.40182,"is_reserved":false,"is_disabled":false,"rental_uris":{"android":"levelo://app?vid=e3c49ca2-e14b-41b4-8d76-d429e82933ab","ios":"levelo://app?vid=e3c49ca2-e14b-41b4-8d76-d429e82933ab"},"vehicle_type_id":"4","last_reported":1768036312,"current_range_meters":8000,"station_id":"ce4bgvp2rcd13ifvqct0","pricing_plan_id":"cebpf4jnsgd1na2vs0mg"},{"bike_id":"71b36ab2-ce5d-4ce0-89a0-260e828bf57f","system_id":"levelo_inurba_marseille","lat":43.27158,"lon":5.41007,"is_reserved":false,"is_disabled":false,"rental_uris":{"android":"levelo://app?vid=71b36ab2-ce5d-4ce0-89a0-260e828bf57f","ios":"levelo://app?vid=71b36ab2-ce5d-4ce0-89a0-260e828bf57f"},"vehicle_type_id":"4","last_reported":1768036312,"current_range_meters":8000,"station_id":"ce4bhl12rcd13ifvqgf0","pricing_plan_id":"cebpf4jnsgd1na2vs0mg"},{"bike_id":"95382051-2edc-4c1a-ac56-d197c3294bdd","system_id":"levelo_inurba_marseille","lat":43.27988,"lon":5.41654,"is_reserved":false,"is_disabled":false,"rental_uris":{"android":"levelo://app?vid=95382051-2edc-4c1a-ac56-d197c3294bdd","ios":"levelo://app?vid=95382051-2edc-4c1a-ac56-d197c3294bdd"},"vehicle_type_id":"4","last_reported":1768036312,"current_range_meters":8000,"station_id":"ce4bho12rcd13ifvqh1g","pricing_plan_id":"cebpf4jnsgd1na2vs0mg"},{"bike_id":"bc49e5f9-cb3c-4c3a-969f-53e2b27dc0e8","system_id":"levelo_inurba_marseille","lat":43.241672,"lon":5.363993,"is_reserved":false,"is_disabled":false,"rental_uris":{"android":"levelo://app?vid=bc49e5f9-cb3c-4c3a-969f-53e2b27dc0e8","ios":"levelo://app?vid=bc49e5f9-cb3c-4c3a-969f-53e2b27dc0e8"},"vehicle_type_id":"4","last_reported":1768036312,"current_range_meters":8000,"station_id":"cpo36qri1sfpv3e86is0","pricing_plan_id":"cebpf4jnsgd1na2vs0mg"},{"bike_id":"3ae53299-0a4b-41fa-b773-e4f23477e4a0","system_id":"levelo_inurba_marseille","lat":43.274946,"lon":5.424539,"is_reserved":false,"is_disabled":false,"rental_uris":{"android":"levelo://app?vid=3ae53299-0a4b-41fa-b773-e4f23477e4a0","ios":"levelo://app?vid=3ae53299-0a4b-41fa-b773-e4f23477e4a0"},"vehicle_type_id":"4","last_reported":1768036312,"current_range_meters":8000,"station_id":"ce4bhn92rcd13ifvqgrg","pricing_plan_id":"cebpf4jnsgd1na2vs0mg"},{"bike_id":"3a944ff1-8f80-4b3a-87d1-40b3f03c9b0c","system_id":"levelo_inurba_marseille","lat":43.31084,"lon":5.38628,"is_reserved":false,"is_disabled":false,"rental_uris":{"android":"levelo://app?vid=3a944ff1-8f80-4b3a-87d1-40b3f03c9b0c","ios":"levelo://app?vid=3a944ff1-8f80-4b3a-87d1-40b3f03c9b0c"},"vehicle_type_id":"4","last_reported":1768036312,"current_range_meters":8000,"station_id":"","pricing_plan_id":"cebpf4jnsgd1na2vs0mg"},{"bike_id":"1fab4bb8-6c99-4df2-9548-53dd9eaa66e8","system_id":"levelo_inurba_marseille","lat":43.301294,"lon":5.431161,"is_reserved":false,"is_disabled":false,"rental_uris":{"android":"levelo://app?vid=1fab4bb8-6c99-4df2-9548-53dd9eaa66e8","ios":"levelo://app?vid=1fab4bb8-6c99-4df2-9548-53dd9eaa66e8"},"vehicle_type_id":"4","last_reported":1768036312,"current_range_meters":8000,"station_id":"st_d3js3co5814s73ftftug","pricing_plan_id":"cebpf4jnsgd1na2vs0mg"},{"bike_id":"955472a9-f133-46c4-b5ee-028bf709d91e","system_id":"levelo_inurba_marseille","lat":43.284807,"lon":5.483982,"is_reserved":false,"is_disabled":false,"rental_uris":{"android":"levelo://app?vid=955472a9-f133-46c4-b5ee-028bf709d91e","ios":"levelo://app?vid=955472a9-f133-46c4-b5ee-028bf709d91e"},"vehicle_type_id":"4","last_reported":1768036312,"current_range_meters":8000,"station_id":"st_d3svhcjqgbts73a3dn0g","pricing_plan_id":"cebpf4jnsgd1na2vs0mg"},{"bike_id":"0d4e5ddc-b292-4c0e-8986-9cde00922dd9","system_id":"levelo_inurba_marseille","lat":43.30091,"lon":5.43147,"is_reserved":false,"is_disabled":false,"rental_uris":{"android":"levelo://app?vid=0d4e5ddc-b292-4c0e-8986-9cde00922dd9","ios":"levelo://app?vid=0d4e5ddc-b292-4c0e-8986-9cde00922dd9"},"vehicle_type_id":"4","last_reported":1768036312,"current_range_meters":8000,"station_id":"st_d3js3co5814s73ftftug","pricing_plan_id":"cebpf4jnsgd1na2vs0mg"},{"bike_id":"81447faa-78d0-4898-9850-8a36431f7eba","system_id":"levelo_inurba_marseille","lat":43.2378,"lon":5.36632,"is_reserved":false,"is_disabled":false,"rental_uris":{"android":"levelo://app?vid=81447faa-78d0-4898-9850-8a36431f7eba","ios":"levelo://app?vid=81447faa-78d0-4898-9850-8a36431f7eba"},"vehicle_type_id":"4","last_reported":1768036312,"current_range_meters":8000,"station_id":"st_d3nk18o9ro0c73en2l3g","pricing_plan_id":"cebpf4jnsgd1na2vs0mg"},{"bike_id":"3cf6e16e-6543-43fd-9500-4f2682ec6c6f","system_id":"levelo_inurba_marseille","lat":43.2468,"lon":5.38159,"is_reserved":false,"is_disabled":false,"rental_uris":{"android":"levelo://app?vid=3cf6e16e-6543-43fd-9500-4f2682ec6c6f","ios":"levelo://app?vid=3cf6e16e-6543-43fd-9500-4f2682ec6c6f"},"vehicle_type_id":"4","last_reported":1768036312,"current_range_meters":8000,"station_id":"ce4bhih2rcd13ifvqfr0","pricing_plan_id":"cebpf4jnsgd1na2vs0mg"},{"bike_id":"c229e56b-5c32-4976-9507-711e850523df","system_id":"levelo_inurba_marseille","lat":43.28171,"lon":5.42674,"is_reserved":false,"is_disabled":false,"rental_uris":{"android":"levelo://app?vid=c229e56b-5c32-4976-9507-711e850523df","ios":"levelo://app?vid=c229e56b-5c32-4976-9507-711e850523df"},"vehicle_type_id":"4","last_reported":1768036312,"current_range_meters":8400,"station_id":"ce4bhnh2rcd13ifvqgug","pricing_plan_id":"cebpf4jnsgd1na2vs0mg"},{"bike_id":"499b63c7-d47c-4bda-89d6-56b8c0a94a03","system_id":"levelo_inurba_marseille","lat":43.31676,"lon":5.43069,"is_reserved":false,"is_disabled":false,"rental_uris":{"android":"levelo://app?vid=499b63c7-d47c-4bda-89d6-56b8c0a94a03","ios":"levelo://app?vid=499b63c7-d47c-4bda-89d6-56b8c0a94a03"},"vehicle_type_id":"4","last_reported":1768036312,"current_range_meters":8400,"station_id":"","pricing_plan_id":"cebpf4jnsgd1na2vs0mg"},{"bike_id":"39e3b155-7aa1-4926-be58-950a9ce5d299","system_id":"levelo_inurba_marseille","lat":43.31722,"lon":5.37787,"is_reserved":false,"is_disabled":false,"rental_uris":{"android":"levelo://app?vid=39e3b155-7aa1-4926-be58-950a9ce5d299","ios":"levelo://app?vid=39e3b155-7aa1-4926-be58-950a9ce5d299"},"vehicle_type_id":"4","last_reported":1768036312,"current_range_meters":8400,"station_id":"ce4bgth2rcd13ifvqch0","pricing_plan_id":"cebpf4jnsgd1na2vs0mg"},{"bike_id":"5fca6562-fd04-42db-82e3-3b31d41d804c","system_id":"levelo_inurba_marseille","lat":43.24463,"lon":5.42549,"is_reserved":false,"is_disabled":false,"rental_uris":{"android":"levelo://app?vid=5fca6562-fd04-42db-82e3-3b31d41d804c","ios":"levelo://app?vid=5fca6562-fd04-42db-82e3-3b31d41d804c"},"vehicle_type_id":"4","last_reported":1768036312,"current_range_meters":8400,"station_id":"st_d4a3vfp97mjs738cd8kg","pricing_plan_id":"cebpf4jnsgd1na2vs0mg"},{"bike_id":"7292ddd7-68ca-4ea9-a1fa-ff40d222425f","system_id":"levelo_inurba_marseille","lat":43.293057,"lon":5.374723,"is_reserved":false,"is_disabled":false,"rental_uris":{"android":"levelo://app?vid=7292ddd7-68ca-4ea9-a1fa-ff40d222425f","ios":"levelo://app?vid=7292ddd7-68ca-4ea9-a1fa-ff40d222425f"},"vehicle_type_id":"4","last_reported":1768036312,"current_range_meters":8400,"station_id":"ce4bgi12rcd13ifvqb70","pricing_plan_id":"cebpf4jnsgd1na2vs0mg"},{"bike_id":"ec2c36ed-79e6-401c-b68a-6c26524403de","system_id":"levelo_inurba_marseille","lat":43.29479,"lon":5.43309,"is_reserved":false,"is_disabled":false,"rental_uris":{"android":"levelo://app?vid=ec2c36ed-79e6-401c-b68a-6c26524403de","ios":"levelo://app?vid=ec2c36ed-79e6-401c-b68a-6c26524403de"},"vehicle_type_id":"4","last_reported":1768036312,"current_range_meters":8400,"station_id":"st_d3j5ugp08ojc73fj9d10","pricing_plan_id":"cebpf4jnsgd1na2vs0mg"},{"bike_id":"8b8d06b0-9506-4578-ada0-3e289712e635","system_id":"levelo_inurba_marseille","lat":43.28619,"lon":5.35104,"is_reserved":false,"is_disabled":false,"rental_uris":{"android":"levelo://app?vid=8b8d06b0-9506-4578-ada0-3e289712e635","ios":"levelo://app?vid=8b8d06b0-9506-4578-ada0-3e289712e635"},"vehicle_type_id":"4","last_reported":1768036312,"current_range_meters":8400,"station_id":"ce4bhch2rcd13ifvqeug","pricing_plan_id":"cebpf4jnsgd1na2vs0mg"},{"bike_id":"a8e6ec73-45f6-494f-9440-b84f9b239991","system_id":"levelo_inurba_marseille","lat":43.2534,"lon":5.42169,"is_reserved":false,"is_disabled":false,"rental_uris":{"android":"levelo://app?vid=a8e6ec73-45f6-494f-9440-b84f9b239991","ios":"levelo://app?vid=a8e6ec73-45f6-494f-9440-b84f9b239991"},"vehicle_type_id":"4","last_reported":1768036312,"current_range_meters":8400,"station_id":"st_d2m65c5bi1j21697t3ng","pricing_plan_id":"cebpf4jnsgd1na2vs0mg"},{"bike_id":"580bea04-d90e-4377-861c-b90930569d5d","system_id":"levelo_inurba_marseille","lat":43.28156,"lon":5.42638,"is_reserved":false,"is_disabled":false,"rental_uris":{"android":"levelo://app?vid=580bea04-d90e-4377-861c-b90930569d5d","ios":"levelo://app?vid=580bea04-d90e-4377-861c-b90930569d5d"},"vehicle_type_id":"4","last_reported":1768036312,"current_range_meters":8400,"station_id":"ce4bhnh2rcd13ifvqgug","pricing_plan_id":"cebpf4jnsgd1na2vs0mg"},{"bike_id":"9ef5c7cf-da71-4612-9646-f64e3744543c","system_id":"levelo_inurba_marseille","lat":43.22934,"lon":5.35377,"is_reserved":false,"is_disabled":false,"rental_uris":{"android":"levelo://app?vid=9ef5c7cf-da71-4612-9646-f64e3744543c","ios":"levelo://app?vid=9ef5c7cf-da71-4612-9646-f64e3744543c"},"vehicle_type_id":"4","last_reported":1768036312,"current_range_meters":8400,"station_id":"cpo3532slgdg3j2ikp40","pricing_plan_id":"cebpf4jnsgd1na2vs0mg"},{"bike_id":"df548035-cee1-4f4d-b0ba-fa4f5834db8f","system_id":"levelo_inurba_marseille","lat":43.24812,"lon":5.37449,"is_reserved":false,"is_disabled":false,"rental_uris":{"android":"levelo://app?vid=df548035-cee1-4f4d-b0ba-fa4f5834db8f","ios":"levelo://app?vid=df548035-cee1-4f4d-b0ba-fa4f5834db8f"},"vehicle_type_id":"4","last_reported":1768036312,"current_range_meters":8400,"station_id":"ce4bhgh2rcd13ifvqfb0","pricing_plan_id":"cebpf4jnsgd1na2vs0mg"},{"bike_id":"1eae57ab-babf-4626-a8bd-112059971e86","system_id":"levelo_inurba_marseille","lat":43.327205,"lon":5.392381,"is_reserved":false,"is_disabled":false,"rental_uris":{"android":"levelo://app?vid=1eae57ab-babf-4626-a8bd-112059971e86","ios":"levelo://app?vid=1eae57ab-babf-4626-a8bd-112059971e86"},"vehicle_type_id":"4","last_reported":1768036312,"current_range_meters":8400,"station_id":"","pricing_plan_id":"cebpf4jnsgd1na2vs0mg"},{"bike_id":"f6c65d94-9566-4d9b-9ed8-ac0f65ea4da8","system_id":"levelo_inurba_marseille","lat":43.26044,"lon":5.37513,"is_reserved":false,"is_disabled":false,"rental_uris":{"android":"levelo://app?vid=f6c65d94-9566-4d9b-9ed8-ac0f65ea4da8","ios":"levelo://app?vid=f6c65d94-9566-4d9b-9ed8-ac0f65ea4da8"},"vehicle_type_id":"4","last_reported":1768036312,"current_range_meters":8400,"station_id":"ce4bhgh2rcd13ifvqfa0","pricing_plan_id":"cebpf4jnsgd1na2vs0mg"},{"bike_id":"15705fcb-fc6a-4f08-9895-a6a73b2606cb","system_id":"levelo_inurba_marseille","lat":43.26074,"lon":5.39428,"is_reserved":false,"is_disabled":false,"rental_uris":{"android":"levelo://app?vid=15705fcb-fc6a-4f08-9895-a6a73b2606cb","ios":"levelo://app?vid=15705fcb-fc6a-4f08-9895-a6a73b2606cb"},"vehicle_type_id":"4","last_reported":1768036312,"current_range_meters":8400,"station_id":"ce4bhh92rcd13ifvqfj0","pricing_plan_id":"cebpf4jnsgd1na2vs0mg"},{"bike_id":"1b1b65f2-5621-43a3-8721-1a01794caa40","system_id":"levelo_inurba_marseille","lat":43.23952,"lon":5.36673,"is_reserved":false,"is_disabled":false,"rental_uris":{"android":"levelo://app?vid=1b1b65f2-5621-43a3-8721-1a01794caa40","ios":"levelo://app?vid=1b1b65f2-5621-43a3-8721-1a01794caa40"},"vehicle_type_id":"4","last_reported":1768036312,"current_range_meters":8400,"station_id":"ce4bhi12rcd13ifvqfp0","pricing_plan_id":"cebpf4jnsgd1na2vs0mg"},{"bike_id":"e2872435-c4a7-4f19-950e-1afa6f544c66","system_id":"levelo_inurba_marseille","lat":43.24142,"lon":5.36395,"is_reserved":false,"is_disabled":false,"rental_uris":{"android":"levelo://app?vid=e2872435-c4a7-4f19-950e-1afa6f544c66","ios":"levelo://app?vid=e2872435-c4a7-4f19-950e-1afa6f544c66"},"vehicle_type_id":"4","last_reported":1768036312,"current_range_meters":8400,"station_id":"cpo36qri1sfpv3e86is0","pricing_plan_id":"cebpf4jnsgd1na2vs0mg"},{"bike_id":"dbb60bc6-4fb6-45fc-959a-667b177859f9","system_id":"levelo_inurba_marseille","lat":43.24161,"lon":5.36398,"is_reserved":false,"is_disabled":false,"rental_uris":{"android":"levelo://app?vid=dbb60bc6-4fb6-45fc-959a-667b177859f9","ios":"levelo://app?vid=dbb60bc6-4fb6-45fc-959a-667b177859f9"},"vehicle_type_id":"4","last_reported":1768036312,"current_range_meters":8400,"station_id":"cpo36qri1sfpv3e86is0","pricing_plan_id":"cebpf4jnsgd1na2vs0mg"},{"bike_id":"fcbedbae-2964-4c94-9793-f84b5f5df2ff","system_id":"levelo_inurba_marseille","lat":43.25822,"lon":5.3945,"is_reserved":false,"is_disabled":false,"rental_uris":{"android":"levelo://app?vid=fcbedbae-2964-4c94-9793-f84b5f5df2ff","ios":"levelo://app?vid=fcbedbae-2964-4c94-9793-f84b5f5df2ff"},"vehicle_type_id":"4","last_reported":1768036312,"current_range_meters":8400,"station_id":"ce4bhip2rcd13ifvqft0","pricing_plan_id":"cebpf4jnsgd1na2vs0mg"},{"bike_id":"dbe9e179-37a7-4bf6-8958-b4f7e3523bb3","system_id":"levelo_inurba_marseille","lat":43.2829,"lon":5.43057,"is_reserved":false,"is_disabled":false,"rental_uris":{"android":"levelo://app?vid=dbe9e179-37a7-4bf6-8958-b4f7e3523bb3","ios":"levelo://app?vid=dbe9e179-37a7-4bf6-8958-b4f7e3523bb3"},"vehicle_type_id":"4","last_reported":1768036312,"current_range_meters":8400,"station_id":"","pricing_plan_id":"cebpf4jnsgd1na2vs0mg"},{"bike_id":"b2533feb-2a58-4324-b10d-880a053c6128","system_id":"levelo_inurba_marseille","lat":43.27495,"lon":5.42449,"is_reserved":false,"is_disabled":false,"rental_uris":{"android":"levelo://app?vid=b2533feb-2a58-4324-b10d-880a053c6128","ios":"levelo://app?vid=b2533feb-2a58-4324-b10d-880a053c6128"},"vehicle_type_id":"4","last_reported":1768036312,"current_range_meters":8400,"station_id":"ce4bhn92rcd13ifvqgrg","pricing_plan_id":"cebpf4jnsgd1na2vs0mg"},{"bike_id":"4c3bd91d-5b37-464b-8989-7f58124eb9e3","system_id":"levelo_inurba_marseille","lat":43.30267,"lon":5.37289,"is_reserved":false,"is_disabled":false,"rental_uris":{"android":"levelo://app?vid=4c3bd91d-5b37-464b-8989-7f58124eb9e3","ios":"levelo://app?vid=4c3bd91d-5b37-464b-8989-7f58124eb9e3"},"vehicle_type_id":"4","last_reported":1768036312,"current_range_meters":8400,"station_id":"","pricing_plan_id":"cebpf4jnsgd1na2vs0mg"},{"bike_id":"f1fdae71-bc28-42c6-a5b5-bcf1d1990292","system_id":"levelo_inurba_marseille","lat":43.28529,"lon":5.44138,"is_reserved":false,"is_disabled":false,"rental_uris":{"android":"levelo://app?vid=f1fdae71-bc28-42c6-a5b5-bcf1d1990292","ios":"levelo://app?vid=f1fdae71-bc28-42c6-a5b5-bcf1d1990292"},"vehicle_type_id":"4","last_reported":1768036312,"current_range_meters":8400,"station_id":"st_d3j3df2ikq2c7380ej80","pricing_plan_id":"cebpf4jnsgd1na2vs0mg"},{"bike_id":"ce11cc00-b8eb-43d8-9968-c33e528f2f5b","system_id":"levelo_inurba_marseille","lat":43.24538,"lon":5.3953,"is_reserved":false,"is_disabled":false,"rental_uris":{"android":"levelo://app?vid=ce11cc00-b8eb-43d8-9968-c33e528f2f5b","ios":"levelo://app?vid=ce11cc00-b8eb-43d8-9968-c33e528f2f5b"},"vehicle_type_id":"4","last_reported":1768036312,"current_range_meters":8800,"station_id":"ce4bhlp2rcd13ifvqgjg","pricing_plan_id":"cebpf4jnsgd1na2vs0mg"},{"bike_id":"55fcea33-e7aa-4a56-8ac1-e90451a3f1d3","system_id":"levelo_inurba_marseille","lat":43.29166,"lon":5.35812,"is_reserved":false,"is_disabled":false,"rental_uris":{"android":"levelo://app?vid=55fcea33-e7aa-4a56-8ac1-e90451a3f1d3","ios":"levelo://app?vid=55fcea33-e7aa-4a56-8ac1-e90451a3f1d3"},"vehicle_type_id":"4","last_reported":1768036312,"current_range_meters":8800,"station_id":"ce4bhb12rcd13ifvqel0","pricing_plan_id":"cebpf4jnsgd1na2vs0mg"},{"bike_id":"611d5909-481c-4108-a2ce-d73d9b8234f6","system_id":"levelo_inurba_marseille","lat":43.26198,"lon":5.37443,"is_reserved":false,"is_disabled":false,"rental_uris":{"android":"levelo://app?vid=611d5909-481c-4108-a2ce-d73d9b8234f6","ios":"levelo://app?vid=611d5909-481c-4108-a2ce-d73d9b8234f6"},"vehicle_type_id":"4","last_reported":1768036312,"current_range_meters":8800,"station_id":"ce4bhgp2rcd13ifvqfc0","pricing_plan_id":"cebpf4jnsgd1na2vs0mg"},{"bike_id":"0d9a28f3-f2a9-458c-abfb-9d5e6b00a237","system_id":"levelo_inurba_marseille","lat":43.231467,"lon":5.437256,"is_reserved":false,"is_disabled":false,"rental_uris":{"android":"levelo://app?vid=0d9a28f3-f2a9-458c-abfb-9d5e6b00a237","ios":"levelo://app?vid=0d9a28f3-f2a9-458c-abfb-9d5e6b00a237"},"vehicle_type_id":"4","last_reported":1768036312,"current_range_meters":8800,"station_id":"ce4bhmp2rcd13ifvqgog","pricing_plan_id":"cebpf4jnsgd1na2vs0mg"},{"bike_id":"46bff3a0-8e91-4d04-8c7a-f7783191a8a1","system_id":"levelo_inurba_marseille","lat":43.305579,"lon":5.365331,"is_reserved":false,"is_disabled":false,"rental_uris":{"android":"levelo://app?vid=46bff3a0-8e91-4d04-8c7a-f7783191a8a1","ios":"levelo://app?vid=46bff3a0-8e91-4d04-8c7a-f7783191a8a1"},"vehicle_type_id":"4","last_reported":1768036312,"current_range_meters":8800,"station_id":"ce4bgs12rcd13ifvqcag","pricing_plan_id":"cebpf4jnsgd1na2vs0mg"},{"bike_id":"604f78fd-36d7-4821-843f-e68feb228a98","system_id":"levelo_inurba_marseille","lat":43.241607,"lon":5.364217,"is_reserved":false,"is_disabled":false,"rental_uris":{"android":"levelo://app?vid=604f78fd-36d7-4821-843f-e68feb228a98","ios":"levelo://app?vid=604f78fd-36d7-4821-843f-e68feb228a98"},"vehicle_type_id":"4","last_reported":1768036312,"current_range_meters":8800,"station_id":"cpo36qri1sfpv3e86is0","pricing_plan_id":"cebpf4jnsgd1na2vs0mg"},{"bike_id":"5ea8390a-b6bf-4d05-83f0-f449d44bf97e","system_id":"levelo_inurba_marseille","lat":43.25826,"lon":5.3943,"is_reserved":false,"is_disabled":false,"rental_uris":{"android":"levelo://app?vid=5ea8390a-b6bf-4d05-83f0-f449d44bf97e","ios":"levelo://app?vid=5ea8390a-b6bf-4d05-83f0-f449d44bf97e"},"vehicle_type_id":"4","last_reported":1768036312,"current_range_meters":8800,"station_id":"ce4bhip2rcd13ifvqft0","pricing_plan_id":"cebpf4jnsgd1na2vs0mg"},{"bike_id":"7f391882-abdd-4a67-9c14-bc81f5c2dbfb","system_id":"levelo_inurba_marseille","lat":43.24056,"lon":5.37744,"is_reserved":false,"is_disabled":false,"rental_uris":{"android":"levelo://app?vid=7f391882-abdd-4a67-9c14-bc81f5c2dbfb","ios":"levelo://app?vid=7f391882-abdd-4a67-9c14-bc81f5c2dbfb"},"vehicle_type_id":"4","last_reported":1768036312,"current_range_meters":8800,"station_id":"ce4bhnp2rcd13ifvqgvg","pricing_plan_id":"cebpf4jnsgd1na2vs0mg"},{"bike_id":"d55eb297-da62-4208-9a52-27268629cf6f","system_id":"levelo_inurba_marseille","lat":43.30204,"lon":5.37429,"is_reserved":false,"is_disabled":false,"rental_uris":{"android":"levelo://app?vid=d55eb297-da62-4208-9a52-27268629cf6f","ios":"levelo://app?vid=d55eb297-da62-4208-9a52-27268629cf6f"},"vehicle_type_id":"4","last_reported":1768036312,"current_range_meters":8800,"station_id":"","pricing_plan_id":"cebpf4jnsgd1na2vs0mg"},{"bike_id":"ad41c0f7-771d-4855-a9c8-7ed87d5e9445","system_id":"levelo_inurba_marseille","lat":43.29727,"lon":5.38523,"is_reserved":false,"is_disabled":false,"rental_uris":{"android":"levelo://app?vid=ad41c0f7-771d-4855-a9c8-7ed87d5e9445","ios":"levelo://app?vid=ad41c0f7-771d-4855-a9c8-7ed87d5e9445"},"vehicle_type_id":"4","last_reported":1768036312,"current_range_meters":8800,"station_id":"","pricing_plan_id":"cebpf4jnsgd1na2vs0mg"},{"bike_id":"248f666c-97de-43b8-ba33-ea773cc06c95","system_id":"levelo_inurba_marseille","lat":43.2653,"lon":5.39901,"is_reserved":false,"is_disabled":false,"rental_uris":{"android":"levelo://app?vid=248f666c-97de-43b8-ba33-ea773cc06c95","ios":"levelo://app?vid=248f666c-97de-43b8-ba33-ea773cc06c95"},"vehicle_type_id":"4","last_reported":1768036312,"current_range_meters":8800,"station_id":"","pricing_plan_id":"cebpf4jnsgd1na2vs0mg"},{"bike_id":"9ba3abdd-ccf0-4033-8df7-7454ef98b00e","system_id":"levelo_inurba_marseille","lat":43.23795,"lon":5.36634,"is_reserved":false,"is_disabled":false,"rental_uris":{"android":"levelo://app?vid=9ba3abdd-ccf0-4033-8df7-7454ef98b00e","ios":"levelo://app?vid=9ba3abdd-ccf0-4033-8df7-7454ef98b00e"},"vehicle_type_id":"4","last_reported":1768036312,"current_range_meters":8800,"station_id":"st_d3nk18o9ro0c73en2l3g","pricing_plan_id":"cebpf4jnsgd1na2vs0mg"},{"bike_id":"a20e324f-461e-49f1-9758-c1dce453e58f","system_id":"levelo_inurba_marseille","lat":43.22939,"lon":5.35449,"is_reserved":false,"is_disabled":false,"rental_uris":{"android":"levelo://app?vid=a20e324f-461e-49f1-9758-c1dce453e58f","ios":"levelo://app?vid=a20e324f-461e-49f1-9758-c1dce453e58f"},"vehicle_type_id":"4","last_reported":1768036312,"current_range_meters":8800,"station_id":"cpo3532slgdg3j2ikp40","pricing_plan_id":"cebpf4jnsgd1na2vs0mg"},{"bike_id":"c55c0d61-a18c-488b-9b3e-f242de2b2b66","system_id":"levelo_inurba_marseille","lat":43.28763,"lon":5.384,"is_reserved":false,"is_disabled":false,"rental_uris":{"android":"levelo://app?vid=c55c0d61-a18c-488b-9b3e-f242de2b2b66","ios":"levelo://app?vid=c55c0d61-a18c-488b-9b3e-f242de2b2b66"},"vehicle_type_id":"4","last_reported":1768036312,"current_range_meters":8800,"station_id":"","pricing_plan_id":"cebpf4jnsgd1na2vs0mg"},{"bike_id":"c7c2fb25-2812-4554-a688-8c1334dc293c","system_id":"levelo_inurba_marseille","lat":43.33368,"lon":5.41115,"is_reserved":false,"is_disabled":false,"rental_uris":{"android":"levelo://app?vid=c7c2fb25-2812-4554-a688-8c1334dc293c","ios":"levelo://app?vid=c7c2fb25-2812-4554-a688-8c1334dc293c"},"vehicle_type_id":"4","last_reported":1768036312,"current_range_meters":8800,"station_id":"","pricing_plan_id":"cebpf4jnsgd1na2vs0mg"},{"bike_id":"0c79e094-0799-45f4-8ba2-e1bb5fd45fc8","system_id":"levelo_inurba_marseille","lat":43.21172,"lon":5.35088,"is_reserved":false,"is_disabled":false,"rental_uris":{"android":"levelo://app?vid=0c79e094-0799-45f4-8ba2-e1bb5fd45fc8","ios":"levelo://app?vid=0c79e094-0799-45f4-8ba2-e1bb5fd45fc8"},"vehicle_type_id":"4","last_reported":1768036312,"current_range_meters":8800,"station_id":"st_cvj6sg6p6f1abm77japg","pricing_plan_id":"cebpf4jnsgd1na2vs0mg"},{"bike_id":"4493d2bb-ebc1-4dcc-9f61-b68a44407474","system_id":"levelo_inurba_marseille","lat":43.28844,"lon":5.42521,"is_reserved":false,"is_disabled":false,"rental_uris":{"android":"levelo://app?vid=4493d2bb-ebc1-4dcc-9f61-b68a44407474","ios":"levelo://app?vid=4493d2bb-ebc1-4dcc-9f61-b68a44407474"},"vehicle_type_id":"4","last_reported":1768036312,"current_range_meters":8800,"station_id":"st_d3b462108ojc7389ooeg","pricing_plan_id":"cebpf4jnsgd1na2vs0mg"},{"bike_id":"d29147e9-12b9-49d5-9a41-487e37c613b5","system_id":"levelo_inurba_marseille","lat":43.22562,"lon":5.41621,"is_reserved":false,"is_disabled":false,"rental_uris":{"android":"levelo://app?vid=d29147e9-12b9-49d5-9a41-487e37c613b5","ios":"levelo://app?vid=d29147e9-12b9-49d5-9a41-487e37c613b5"},"vehicle_type_id":"4","last_reported":1768036312,"current_range_meters":9200,"station_id":"st_d2o4gvlbi1j2169b742g","pricing_plan_id":"cebpf4jnsgd1na2vs0mg"},{"bike_id":"a1dcd8bf-b300-4092-8c84-5204375249a5","system_id":"levelo_inurba_marseille","lat":43.24808,"lon":5.37458,"is_reserved":false,"is_disabled":false,"rental_uris":{"android":"levelo://app?vid=a1dcd8bf-b300-4092-8c84-5204375249a5","ios":"levelo://app?vid=a1dcd8bf-b300-4092-8c84-5204375249a5"},"vehicle_type_id":"4","last_reported":1768036312,"current_range_meters":9200,"station_id":"ce4bhgh2rcd13ifvqfb0","pricing_plan_id":"cebpf4jnsgd1na2vs0mg"},{"bike_id":"ff43ef99-a2e3-42cb-a87f-e919c3749872","system_id":"levelo_inurba_marseille","lat":43.297258,"lon":5.414714,"is_reserved":false,"is_disabled":false,"rental_uris":{"android":"levelo://app?vid=ff43ef99-a2e3-42cb-a87f-e919c3749872","ios":"levelo://app?vid=ff43ef99-a2e3-42cb-a87f-e919c3749872"},"vehicle_type_id":"4","last_reported":1768036312,"current_range_meters":9200,"station_id":"","pricing_plan_id":"cebpf4jnsgd1na2vs0mg"},{"bike_id":"53b03253-791d-42e1-9bae-3a363017756b","system_id":"levelo_inurba_marseille","lat":43.28595,"lon":5.35082,"is_reserved":false,"is_disabled":false,"rental_uris":{"android":"levelo://app?vid=53b03253-791d-42e1-9bae-3a363017756b","ios":"levelo://app?vid=53b03253-791d-42e1-9bae-3a363017756b"},"vehicle_type_id":"4","last_reported":1768036312,"current_range_meters":9200,"station_id":"ce4bhch2rcd13ifvqeug","pricing_plan_id":"cebpf4jnsgd1na2vs0mg"},{"bike_id":"781279a3-c313-49ed-a6ea-76ea087fc9c3","system_id":"levelo_inurba_marseille","lat":43.29614,"lon":5.37184,"is_reserved":false,"is_disabled":false,"rental_uris":{"android":"levelo://app?vid=781279a3-c313-49ed-a6ea-76ea087fc9c3","ios":"levelo://app?vid=781279a3-c313-49ed-a6ea-76ea087fc9c3"},"vehicle_type_id":"4","last_reported":1768036312,"current_range_meters":9200,"station_id":"ce4bgnh2rcd13ifvqc0g","pricing_plan_id":"cebpf4jnsgd1na2vs0mg"},{"bike_id":"5094aeb9-ac3f-47d1-a484-8aeeb36f0571","system_id":"levelo_inurba_marseille","lat":43.27998,"lon":5.41655,"is_reserved":false,"is_disabled":false,"rental_uris":{"android":"levelo://app?vid=5094aeb9-ac3f-47d1-a484-8aeeb36f0571","ios":"levelo://app?vid=5094aeb9-ac3f-47d1-a484-8aeeb36f0571"},"vehicle_type_id":"4","last_reported":1768036312,"current_range_meters":9200,"station_id":"ce4bho12rcd13ifvqh1g","pricing_plan_id":"cebpf4jnsgd1na2vs0mg"},{"bike_id":"410571dd-dbc1-4e98-824c-da8351a1ebc4","system_id":"levelo_inurba_marseille","lat":43.27809,"lon":5.39221,"is_reserved":false,"is_disabled":false,"rental_uris":{"android":"levelo://app?vid=410571dd-dbc1-4e98-824c-da8351a1ebc4","ios":"levelo://app?vid=410571dd-dbc1-4e98-824c-da8351a1ebc4"},"vehicle_type_id":"4","last_reported":1768036312,"current_range_meters":9200,"station_id":"ce4bhjp2rcd13ifvqga0","pricing_plan_id":"cebpf4jnsgd1na2vs0mg"},{"bike_id":"23cc92d2-17fe-4780-a7b4-917f8a29921b","system_id":"levelo_inurba_marseille","lat":43.284341,"lon":5.391832,"is_reserved":false,"is_disabled":false,"rental_uris":{"android":"levelo://app?vid=23cc92d2-17fe-4780-a7b4-917f8a29921b","ios":"levelo://app?vid=23cc92d2-17fe-4780-a7b4-917f8a29921b"},"vehicle_type_id":"4","last_reported":1768036312,"current_range_meters":9200,"station_id":"ce4bhoh2rcd13ifvqh5g","pricing_plan_id":"cebpf4jnsgd1na2vs0mg"},{"bike_id":"d036b849-3104-46e1-8fb1-f8d5be60e569","system_id":"levelo_inurba_marseille","lat":43.301213,"lon":5.431141,"is_reserved":false,"is_disabled":false,"rental_uris":{"android":"levelo://app?vid=d036b849-3104-46e1-8fb1-f8d5be60e569","ios":"levelo://app?vid=d036b849-3104-46e1-8fb1-f8d5be60e569"},"vehicle_type_id":"4","last_reported":1768036312,"current_range_meters":9200,"station_id":"st_d3js3co5814s73ftftug","pricing_plan_id":"cebpf4jnsgd1na2vs0mg"},{"bike_id":"895787ae-c584-484b-ba64-3f5478caa31d","system_id":"levelo_inurba_marseille","lat":43.26744,"lon":5.39532,"is_reserved":false,"is_disabled":false,"rental_uris":{"android":"levelo://app?vid=895787ae-c584-484b-ba64-3f5478caa31d","ios":"levelo://app?vid=895787ae-c584-484b-ba64-3f5478caa31d"},"vehicle_type_id":"4","last_reported":1768036312,"current_range_meters":9200,"station_id":"","pricing_plan_id":"cebpf4jnsgd1na2vs0mg"},{"bike_id":"1a191896-e870-49a4-94a1-a2b756b8aaf5","system_id":"levelo_inurba_marseille","lat":43.30797,"lon":5.38154,"is_reserved":false,"is_disabled":false,"rental_uris":{"android":"levelo://app?vid=1a191896-e870-49a4-94a1-a2b756b8aaf5","ios":"levelo://app?vid=1a191896-e870-49a4-94a1-a2b756b8aaf5"},"vehicle_type_id":"4","last_reported":1768036312,"current_range_meters":9200,"station_id":"ce4bgt12rcd13ifvqce0","pricing_plan_id":"cebpf4jnsgd1na2vs0mg"},{"bike_id":"c9c9bdd6-7819-4088-b437-1e9e63cd4967","system_id":"levelo_inurba_marseille","lat":43.3089,"lon":5.39638,"is_reserved":false,"is_disabled":false,"rental_uris":{"android":"levelo://app?vid=c9c9bdd6-7819-4088-b437-1e9e63cd4967","ios":"levelo://app?vid=c9c9bdd6-7819-4088-b437-1e9e63cd4967"},"vehicle_type_id":"4","last_reported":1768036312,"current_range_meters":9200,"station_id":"ce4bh012rcd13ifvqcv0","pricing_plan_id":"cebpf4jnsgd1na2vs0mg"},{"bike_id":"6c9e7281-c716-4f93-80ed-b9cad29e485f","system_id":"levelo_inurba_marseille","lat":43.28476,"lon":5.48402,"is_reserved":false,"is_disabled":false,"rental_uris":{"android":"levelo://app?vid=6c9e7281-c716-4f93-80ed-b9cad29e485f","ios":"levelo://app?vid=6c9e7281-c716-4f93-80ed-b9cad29e485f"},"vehicle_type_id":"4","last_reported":1768036312,"current_range_meters":9200,"station_id":"","pricing_plan_id":"cebpf4jnsgd1na2vs0mg"},{"bike_id":"89e9cd83-cfcf-456b-9dc6-6698e380027b","system_id":"levelo_inurba_marseille","lat":43.31325,"lon":5.39693,"is_reserved":false,"is_disabled":false,"rental_uris":{"android":"levelo://app?vid=89e9cd83-cfcf-456b-9dc6-6698e380027b","ios":"levelo://app?vid=89e9cd83-cfcf-456b-9dc6-6698e380027b"},"vehicle_type_id":"4","last_reported":1768036312,"current_range_meters":9200,"station_id":"ce4bgvp2rcd13ifvqcu0","pricing_plan_id":"cebpf4jnsgd1na2vs0mg"},{"bike_id":"6e46e147-530f-4a33-9dc1-612008ffb455","system_id":"levelo_inurba_marseille","lat":43.263682,"lon":5.410797,"is_reserved":false,"is_disabled":false,"rental_uris":{"android":"levelo://app?vid=6e46e147-530f-4a33-9dc1-612008ffb455","ios":"levelo://app?vid=6e46e147-530f-4a33-9dc1-612008ffb455"},"vehicle_type_id":"4","last_reported":1768036312,"current_range_meters":9200,"station_id":"st_d4e5ca6na9uc73bfl5fg","pricing_plan_id":"cebpf4jnsgd1na2vs0mg"},{"bike_id":"b1719ed5-e9e6-461b-9539-894919cacc71","system_id":"levelo_inurba_marseille","lat":43.246749,"lon":5.381592,"is_reserved":false,"is_disabled":false,"rental_uris":{"android":"levelo://app?vid=b1719ed5-e9e6-461b-9539-894919cacc71","ios":"levelo://app?vid=b1719ed5-e9e6-461b-9539-894919cacc71"},"vehicle_type_id":"4","last_reported":1768036312,"current_range_meters":9200,"station_id":"ce4bhih2rcd13ifvqfr0","pricing_plan_id":"cebpf4jnsgd1na2vs0mg"},{"bike_id":"e6db4c6f-37ef-4677-b252-fb7d2cca92be","system_id":"levelo_inurba_marseille","lat":43.278307,"lon":5.392,"is_reserved":false,"is_disabled":false,"rental_uris":{"android":"levelo://app?vid=e6db4c6f-37ef-4677-b252-fb7d2cca92be","ios":"levelo://app?vid=e6db4c6f-37ef-4677-b252-fb7d2cca92be"},"vehicle_type_id":"4","last_reported":1768036312,"current_range_meters":9600,"station_id":"ce4bhjp2rcd13ifvqga0","pricing_plan_id":"cebpf4jnsgd1na2vs0mg"},{"bike_id":"5748a6ce-ed0a-4c5d-b376-8780edf78d40","system_id":"levelo_inurba_marseille","lat":43.290087,"lon":5.356039,"is_reserved":false,"is_disabled":false,"rental_uris":{"android":"levelo://app?vid=5748a6ce-ed0a-4c5d-b376-8780edf78d40","ios":"levelo://app?vid=5748a6ce-ed0a-4c5d-b376-8780edf78d40"},"vehicle_type_id":"4","last_reported":1768036312,"current_range_meters":9600,"station_id":"ce4bhb92rcd13ifvqen0","pricing_plan_id":"cebpf4jnsgd1na2vs0mg"},{"bike_id":"5fcd9661-801a-4412-96dc-5160f9dc8e6e","system_id":"levelo_inurba_marseille","lat":43.26948,"lon":5.3863,"is_reserved":false,"is_disabled":false,"rental_uris":{"android":"levelo://app?vid=5fcd9661-801a-4412-96dc-5160f9dc8e6e","ios":"levelo://app?vid=5fcd9661-801a-4412-96dc-5160f9dc8e6e"},"vehicle_type_id":"4","last_reported":1768036312,"current_range_meters":9600,"station_id":"ce4bhh92rcd13ifvqfh0","pricing_plan_id":"cebpf4jnsgd1na2vs0mg"},{"bike_id":"e8897284-96fa-4c95-b10b-b03b633408cc","system_id":"levelo_inurba_marseille","lat":43.26368,"lon":5.410811,"is_reserved":false,"is_disabled":false,"rental_uris":{"android":"levelo://app?vid=e8897284-96fa-4c95-b10b-b03b633408cc","ios":"levelo://app?vid=e8897284-96fa-4c95-b10b-b03b633408cc"},"vehicle_type_id":"4","last_reported":1768036312,"current_range_meters":9600,"station_id":"st_d4e5ca6na9uc73bfl5fg","pricing_plan_id":"cebpf4jnsgd1na2vs0mg"},