{"last_updated":1747743702,"ttl":60,"version":"2.2","data":{"bikes":[{"bike_id":"8d727e2c-e0aa-4795-be76-6634e4e9614c","system_id":"levelo_inurba_marseille","lat":43.337589,"lon":5.374231,"is_reserved":false,"is_disabled":false,"rental_uris":{"android":"levelo://app?vid=8d727e2c-e0aa-4795-be76-6634e4e9614c","ios":"levelo://app?vid=8d727e2c-e0aa-4795-be76-6634e4e9614c"},"vehicle_type_id":"4","last_reported":1747743702,"current_range_meters":2800,"station_id":"","pricing_plan_id":"cebpf4jnsgd1na2vs0mg"},{"bike_id":"14312a4f-5518-4993-ba17-b9a97fb5ebf1","system_id":"levelo_inurba_marseille","lat":43.28943,"lon":5.39625,"is_reserved":false,"is_disabled":false,"rental_uris":{"android":"levelo://app?vid=14312a4f-5518-4993-ba17-b9a97fb5ebf1","ios":"levelo://app?vid=14312a4f-5518-4993-ba17-b9a97fb5ebf1"},"vehicle_type_id":"4","last_reported":1747743702,"current_range_meters":2800,"station_id":"ce4bh3h2rcd13ifvqdn0","pricing_plan_id":"cebpf4jnsgd1na2vs0mg"},{"bike_id":"b45af9e8-9e30-4649-a53d-0d45714d3785","system_id":"levelo_inurba_marseille","lat":43.29921,"lon":5.37469,"is_reserved":false,"is_disabled":false,"rental_uris":{"android":"levelo://app?vid=b45af9e8-9e30-4649-a53d-0d45714d3785","ios":"levelo://app?vid=b45af9e8-9e30-4649-a53d-0d45714d3785"},"vehicle_type_id":"4","last_reported":1747743702,"current_range_meters":3200,"station_id":"ce4bgjh2rcd13ifvqbg0","pricing_plan_id":"cebpf4jnsgd1na2vs0mg"},{"bike_id":"a2f377fc-ceeb-44c6-b80d-9be882a97936","system_id":"levelo_inurba_marseille","lat":43.31755,"lon":5.39015,"is_reserved":false,"is_disabled":false,"rental_uris":{"android":"levelo://app?vid=a2f377fc-ceeb-44c6-b80d-9be882a97936","ios":"levelo://app?vid=a2f377fc-ceeb-44c6-b80d-9be882a97936"},"vehicle_type_id":"4","last_reported":1747743702,"current_range_meters":3200,"station_id":"ce4bhqp2rcd13ifvqhng","pricing_plan_id":"cebpf4jnsgd1na2vs0mg"},{"bike_id":"14f74a50-9ea7-4243-bdb7-d2b6a0149378","system_id":"levelo_inurba_marseille","lat":43.27826,"lon":5.3921,"is_reserved":false,"is_disabled":false,"rental_uris":{"android":"levelo://app?vid=14f74a50-9ea7-4243-bdb7-d2b6a0149378","ios":"levelo://app?vid=14f74a50-9ea7-4243-bdb7-d2b6a0149378"},"vehicle_type_id":"4","last_reported":1747743702,"current_range_meters":3200,"station_id":"ce4bhjp2rcd13ifvqga0","pricing_plan_id":"cebpf4jnsgd1na2vs0mg"},{"bike_id":"a4c79ab2-5a9c-4722-8926-04f02212c3c7","system_id":"levelo_inurba_marseille","lat":43.29023,"lon":5.38639,"is_reserved":false,"is_disabled":false,"rental_uris":{"android":"levelo://app?vid=a4c79ab2-5a9c-4722-8926-04f02212c3c7","ios":"levelo://app?vid=a4c79ab2-5a9c-4722-8926-04f02212c3c7"},"vehicle_type_id":"4","last_reported":1747743702,"current_range_meters":3600,"station_id":"ce4bh4p2rcd13ifvqe0g","pricing_plan_id":"cebpf4jnsgd1na2vs0mg"},{"bike_id":"3c2e874b-823b-4069-8a4a-aca4fb4238f3","system_id":"levelo_inurba_marseille","lat":43.276303,"lon":5.39737,"is_reserved":false,"is_disabled":false,"rental_uris":{"android":"levelo://app?vid=3c2e874b-823b-4069-8a4a-aca4fb4238f3","ios":"levelo://app?vid=3c2e874b-823b-4069-8a4a-aca4fb4238f3"},"vehicle_type_id":"4","last_reported":1747743702,"current_range_meters":3600,"station_id":"","pricing_plan_id":"cebpf4jnsgd1na2vs0mg"},{"bike_id":"af82fa8b-f021-4773-bf7d-41d2c9b544da","system_id":"levelo_inurba_marseille","lat":43.290253,"lon":5.381231,"is_reserved":false,"is_disabled":false,"rental_uris":{"android":"levelo://app?vid=af82fa8b-f021-4773-bf7d-41d2c9b544da","ios":"levelo://app?vid=af82fa8b-f021-4773-bf7d-41d2c9b544da"},"vehicle_type_id":"4","last_reported":1747743702,"current_range_meters":3200,"station_id":"ce4bh4p2rcd13ifvqe1g","pricing_plan_id":"cebpf4jnsgd1na2vs0mg"},{"bike_id":"99eef7ce-841b-4ac9-abb5-8728364d6889","system_id":"levelo_inurba_marseille","lat":43.30142,"lon":5.38082,"is_reserved":false,"is_disabled":false,"rental_uris":{"android":"levelo://app?vid=99eef7ce-841b-4ac9-abb5-8728364d6889","ios":"levelo://app?vid=99eef7ce-841b-4ac9-abb5-8728364d6889"},"vehicle_type_id":"4","last_reported":1747743702,"current_range_meters":3600,"station_id":"ce4bgjp2rcd13ifvqbh0","pricing_plan_id":"cebpf4jnsgd1na2vs0mg"},{"bike_id":"4e4cb76e-5793-4096-a081-c6ded5e6691a","system_id":"levelo_inurba_marseille","lat":43.24652,"lon":5.38895,"is_reserved":false,"is_disabled":false,"rental_uris":{"android":"levelo://app?vid=4e4cb76e-5793-4096-a081-c6ded5e6691a","ios":"levelo://app?vid=4e4cb76e-5793-4096-a081-c6ded5e6691a"},"vehicle_type_id":"4","last_reported":1747743702,"current_range_meters":3600,"station_id":"ce4bhg12rcd13ifvqf60","pricing_plan_id":"cebpf4jnsgd1na2vs0mg"},{"bike_id":"84f4a57b-5462-48a9-a7f3-e18de1899bc6","system_id":"levelo_inurba_marseille","lat":43.28565,"lon":5.39503,"is_reserved":false,"is_disabled":false,"rental_uris":{"android":"levelo://app?vid=84f4a57b-5462-48a9-a7f3-e18de1899bc6","ios":"levelo://app?vid=84f4a57b-5462-48a9-a7f3-e18de1899bc6"},"vehicle_type_id":"4","last_reported":1747743702,"current_range_meters":4000,"station_id":"ce4bh292rcd13ifvqdg0","pricing_plan_id":"cebpf4jnsgd1na2vs0mg"},{"bike_id":"e200812e-467a-4f62-a447-92f5a5768cab","system_id":"levelo_inurba_marseille","lat":43.23153,"lon":5.43716,"is_reserved":false,"is_disabled":false,"rental_uris":{"android":"levelo://app?vid=e200812e-467a-4f62-a447-92f5a5768cab","ios":"levelo://app?vid=e200812e-467a-4f62-a447-92f5a5768cab"},"vehicle_type_id":"4","last_reported":1747743702,"current_range_meters":4000,"station_id":"ce4bhmp2rcd13ifvqgog","pricing_plan_id":"cebpf4jnsgd1na2vs0mg"},{"bike_id":"74f1796c-0736-4679-9325-098d503b3171","system_id":"levelo_inurba_marseille","lat":43.30429,"lon":5.39751,"is_reserved":false,"is_disabled":false,"rental_uris":{"android":"levelo://app?vid=74f1796c-0736-4679-9325-098d503b3171","ios":"levelo://app?vid=74f1796c-0736-4679-9325-098d503b3171"},"vehicle_type_id":"4","last_reported":1747743702,"current_range_meters":4400,"station_id":"ce4bh092rcd13ifvqd20","pricing_plan_id":"cebpf4jnsgd1na2vs0mg"},{"bike_id":"cf2e5c45-aac0-4784-a8f5-2a28a2e32c91","system_id":"levelo_inurba_marseille","lat":43.27174,"lon":5.40981,"is_reserved":false,"is_disabled":false,"rental_uris":{"android":"levelo://app?vid=cf2e5c45-aac0-4784-a8f5-2a28a2e32c91","ios":"levelo://app?vid=cf2e5c45-aac0-4784-a8f5-2a28a2e32c91"},"vehicle_type_id":"4","last_reported":1747743702,"current_range_meters":4400,"station_id":"ce4bhl12rcd13ifvqgf0","pricing_plan_id":"cebpf4jnsgd1na2vs0mg"},{"bike_id":"d97f5944-f88c-4620-a492-0b23b170460e","system_id":"levelo_inurba_marseille","lat":43.306014,"lon":5.37222,"is_reserved":false,"is_disabled":false,"rental_uris":{"android":"levelo://app?vid=d97f5944-f88c-4620-a492-0b23b170460e","ios":"levelo://app?vid=d97f5944-f88c-4620-a492-0b23b170460e"},"vehicle_type_id":"4","last_reported":1747743702,"current_range_meters":4800,"station_id":"ce4bgqh2rcd13ifvqc4g","pricing_plan_id":"cebpf4jnsgd1na2vs0mg"},{"bike_id":"8123d2c7-2017-49c4-8e9e-f0db8dc3477c","system_id":"levelo_inurba_marseille","lat":43.28734,"lon":5.37931,"is_reserved":false,"is_disabled":false,"rental_uris":{"android":"levelo://app?vid=8123d2c7-2017-49c4-8e9e-f0db8dc3477c","ios":"levelo://app?vid=8123d2c7-2017-49c4-8e9e-f0db8dc3477c"},"vehicle_type_id":"4","last_reported":1747743702,"current_range_meters":4800,"station_id":"ce4bh9p2rcd13ifvqec0","pricing_plan_id":"cebpf4jnsgd1na2vs0mg"},{"bike_id":"5a585b4e-47a9-416c-a173-084754acffd0","system_id":"levelo_inurba_marseille","lat":43.24678,"lon":5.38146,"is_reserved":false,"is_disabled":false,"rental_uris":{"android":"levelo://app?vid=5a585b4e-47a9-416c-a173-084754acffd0","ios":"levelo://app?vid=5a585b4e-47a9-416c-a173-084754acffd0"},"vehicle_type_id":"4","last_reported":1747743702,"current_range_meters":5600,"station_id":"ce4bhih2rcd13ifvqfr0","pricing_plan_id":"cebpf4jnsgd1na2vs0mg"},{"bike_id":"4990ba5a-703f-485b-bcc9-6e3971bfa3db","system_id":"levelo_inurba_marseille","lat":43.24084,"lon":5.37749,"is_reserved":false,"is_disabled":false,"rental_uris":{"android":"levelo://app?vid=4990ba5a-703f-485b-bcc9-6e3971bfa3db","ios":"levelo://app?vid=4990ba5a-703f-485b-bcc9-6e3971bfa3db"},"vehicle_type_id":"4","last_reported":1747743702,"current_range_meters":5600,"station_id":"ce4bhnp2rcd13ifvqgvg","pricing_plan_id":"cebpf4jnsgd1na2vs0mg"},{"bike_id":"93906887-abc0-4e19-ac11-2ff877150c36","system_id":"levelo_inurba_marseille","lat":43.275079,"lon":5.399476,"is_reserved":false,"is_disabled":false,"rental_uris":{"android":"levelo://app?vid=93906887-abc0-4e19-ac11-2ff877150c36","ios":"levelo://app?vid=93906887-abc0-4e19-ac11-2ff877150c36"},"vehicle_type_id":"4","last_reported":1747743702,"current_range_meters":6000,"station_id":"ce501612rcd8frsf0b60","pricing_plan_id":"cebpf4jnsgd1na2vs0mg"},{"bike_id":"dd7c0cde-7eb6-4e64-bf6f-6554154fdaa3","system_id":"levelo_inurba_marseille","lat":43.240675,"lon":5.37759,"is_reserved":false,"is_disabled":false,"rental_uris":{"android":"levelo://app?vid=dd7c0cde-7eb6-4e64-bf6f-6554154fdaa3","ios":"levelo://app?vid=dd7c0cde-7eb6-4e64-bf6f-6554154fdaa3"},"vehicle_type_id":"4","last_reported":1747743702,"current_range_meters":6000,"station_id":"ce4bhnp2rcd13ifvqgvg","pricing_plan_id":"cebpf4jnsgd1na2vs0mg"},{"bike_id":"f03d84a5-28fa-4c07-9f1a-75e8c3d0c293","system_id":"levelo_inurba_marseille","lat":43.271739,"lon":5.422914,"is_reserved":false,"is_disabled":false,"rental_uris":{"android":"levelo://app?vid=f03d84a5-28fa-4c07-9f1a-75e8c3d0c293","ios":"levelo://app?vid=f03d84a5-28fa-4c07-9f1a-75e8c3d0c293"},"vehicle_type_id":"4","last_reported":1747743702,"current_range_meters":6000,"station_id":"ce4bhnp2rcd13ifvqh0g","pricing_plan_id":"cebpf4jnsgd1na2vs0mg"},{"bike_id":"e64e36d1-c3e7-4427-9260-70ac75fa0a1c","system_id":"levelo_inurba_marseille","lat":43.29917,"lon":5.40174,"is_reserved":false,"is_disabled":false,"rental_uris":{"android":"levelo://app?vid=e64e36d1-c3e7-4427-9260-70ac75fa0a1c","ios":"levelo://app?vid=e64e36d1-c3e7-4427-9260-70ac75fa0a1c"},"vehicle_type_id":"4","last_reported":1747743702,"current_range_meters":6400,"station_id":"","pricing_plan_id":"cebpf4jnsgd1na2vs0mg"},{"bike_id":"fd75852b-aa6e-4e0d-81eb-426bc55f475e","system_id":"levelo_inurba_marseille","lat":43.26206,"lon":5.40371,"is_reserved":false,"is_disabled":false,"rental_uris":{"android":"levelo://app?vid=fd75852b-aa6e-4e0d-81eb-426bc55f475e","ios":"levelo://app?vid=fd75852b-aa6e-4e0d-81eb-426bc55f475e"},"vehicle_type_id":"4","last_reported":1747743702,"current_range_meters":6400,"station_id":"","pricing_plan_id":"cebpf4jnsgd1na2vs0mg"},{"bike_id":"3fe9c543-2ea7-4349-add8-f0daffedcc48","system_id":"levelo_inurba_marseille","lat":43.26698,"lon":5.3827,"is_reserved":false,"is_disabled":false,"rental_uris":{"android":"levelo://app?vid=3fe9c543-2ea7-4349-add8-f0daffedcc48","ios":"levelo://app?vid=3fe9c543-2ea7-4349-add8-f0daffedcc48"},"vehicle_type_id":"4","last_reported":1747743702,"current_range_meters":6400,"station_id":"ce4bhg92rcd13ifvqf90","pricing_plan_id":"cebpf4jnsgd1na2vs0mg"},{"bike_id":"f2f0ddbb-e7a9-4c95-80d7-1f67747c833d","system_id":"levelo_inurba_marseille","lat":43.308892,"lon":5.371872,"is_reserved":false,"is_disabled":false,"rental_uris":{"android":"levelo://app?vid=f2f0ddbb-e7a9-4c95-80d7-1f67747c833d","ios":"levelo://app?vid=f2f0ddbb-e7a9-4c95-80d7-1f67747c833d"},"vehicle_type_id":"4","last_reported":1747743702,"current_range_meters":6400,"station_id":"ce4bguh2rcd13ifvqckg","pricing_plan_id":"cebpf4jnsgd1na2vs0mg"},{"bike_id":"20bee342-4a3f-4f34-940d-bb6cf00d52ae","system_id":"levelo_inurba_marseille","lat":43.26662,"lon":5.38574,"is_reserved":false,"is_disabled":false,"rental_uris":{"android":"levelo://app?vid=20bee342-4a3f-4f34-940d-bb6cf00d52ae","ios":"levelo://app?vid=20bee342-4a3f-4f34-940d-bb6cf00d52ae"},"vehicle_type_id":"4","last_reported":1747743702,"current_range_meters":6400,"station_id":"","pricing_plan_id":"cebpf4jnsgd1na2vs0mg"},{"bike_id":"06e452b4-00bd-4194-8cf0-97e51cbae02e","system_id":"levelo_inurba_marseille","lat":43.23193,"lon":5.39981,"is_reserved":false,"is_disabled":false,"rental_uris":{"android":"levelo://app?vid=06e452b4-00bd-4194-8cf0-97e51cbae02e","ios":"levelo://app?vid=06e452b4-00bd-4194-8cf0-97e51cbae02e"},"vehicle_type_id":"4","last_reported":1747743702,"current_range_meters":6800,"station_id":"ce4bhn12rcd13ifvqgqg","pricing_plan_id":"cebpf4jnsgd1na2vs0mg"},{"bike_id":"a648b789-8068-41f8-ae7a-d026298b87b1","system_id":"levelo_inurba_marseille","lat":43.32364,"lon":5.38898,"is_reserved":false,"is_disabled":false,"rental_uris":{"android":"levelo://app?vid=a648b789-8068-41f8-ae7a-d026298b87b1","ios":"levelo://app?vid=a648b789-8068-41f8-ae7a-d026298b87b1"},"vehicle_type_id":"4","last_reported":1747743702,"current_range_meters":6800,"station_id":"ce4bhqp2rcd13ifvqhog","pricing_plan_id":"cebpf4jnsgd1na2vs0mg"},{"bike_id":"601c4748-a787-4259-8b8d-3f44b3a90fac","system_id":"levelo_inurba_marseille","lat":43.29057,"lon":5.35905,"is_reserved":false,"is_disabled":false,"rental_uris":{"android":"levelo://app?vid=601c4748-a787-4259-8b8d-3f44b3a90fac","ios":"levelo://app?vid=601c4748-a787-4259-8b8d-3f44b3a90fac"},"vehicle_type_id":"4","last_reported":1747743702,"current_range_meters":7200,"station_id":"ce4bha92rcd13ifvqeg0","pricing_plan_id":"cebpf4jnsgd1na2vs0mg"},{"bike_id":"6e9fd6c3-275e-4e35-98a9-c8a5f58e37b2","system_id":"levelo_inurba_marseille","lat":43.30145,"lon":5.380838,"is_reserved":false,"is_disabled":false,"rental_uris":{"android":"levelo://app?vid=6e9fd6c3-275e-4e35-98a9-c8a5f58e37b2","ios":"levelo://app?vid=6e9fd6c3-275e-4e35-98a9-c8a5f58e37b2"},"vehicle_type_id":"4","last_reported":1747743702,"current_range_meters":7200,"station_id":"ce4bgjp2rcd13ifvqbh0","pricing_plan_id":"cebpf4jnsgd1na2vs0mg"},{"bike_id":"bcbdbd69-7be8-42f8-a855-a4358565de8f","system_id":"levelo_inurba_marseille","lat":43.27727,"lon":5.41389,"is_reserved":false,"is_disabled":false,"rental_uris":{"android":"levelo://app?vid=bcbdbd69-7be8-42f8-a855-a4358565de8f","ios":"levelo://app?vid=bcbdbd69-7be8-42f8-a855-a4358565de8f"},"vehicle_type_id":"4","last_reported":1747743702,"current_range_meters":8000,"station_id":"","pricing_plan_id":"cebpf4jnsgd1na2vs0mg"},{"bike_id":"e8a35777-0d7b-42f5-9ddd-330aa82bb2e6","system_id":"levelo_inurba_marseille","lat":43.29037,"lon":5.39962,"is_reserved":false,"is_disabled":false,"rental_uris":{"android":"levelo://app?vid=e8a35777-0d7b-42f5-9ddd-330aa82bb2e6","ios":"levelo://app?vid=e8a35777-0d7b-42f5-9ddd-330aa82bb2e6"},"vehicle_type_id":"4","last_reported":1747743702,"current_range_meters":8000,"station_id":"ce4bh392rcd13ifvqdm0","pricing_plan_id":"cebpf4jnsgd1na2vs0mg"},{"bike_id":"604a7e3b-5635-4260-afe2-1e4cdf40ffbb","system_id":"levelo_inurba_marseille","lat":43.29303,"lon":5.37456,"is_reserved":false,"is_disabled":false,"rental_uris":{"android":"levelo://app?vid=604a7e3b-5635-4260-afe2-1e4cdf40ffbb","ios":"levelo://app?vid=604a7e3b-5635-4260-afe2-1e4cdf40ffbb"},"vehicle_type_id":"4","last_reported":1747743702,"current_range_meters":8000,"station_id":"ce4bgi12rcd13ifvqb70","pricing_plan_id":"cebpf4jnsgd1na2vs0mg"},{"bike_id":"44ffd575-5bd8-4f79-a615-dadcf776f47b","system_id":"levelo_inurba_marseille","lat":43.29932,"lon":5.37478,"is_reserved":false,"is_disabled":false,"rental_uris":{"android":"levelo://app?vid=44ffd575-5bd8-4f79-a615-dadcf776f47b","ios":"levelo://app?vid=44ffd575-5bd8-4f79-a615-dadcf776f47b"},"vehicle_type_id":"4","last_reported":1747743702,"current_range_meters":8000,"station_id":"ce4bgjh2rcd13ifvqbg0","pricing_plan_id":"cebpf4jnsgd1na2vs0mg"},{"bike_id":"68ee4767-1abb-4e3c-9f9f-83239c18aa03","system_id":"levelo_inurba_marseille","lat":43.31228,"lon":5.36853,"is_reserved":false,"is_disabled":false,"rental_uris":{"android":"levelo://app?vid=68ee4767-1abb-4e3c-9f9f-83239c18aa03","ios":"levelo://app?vid=68ee4767-1abb-4e3c-9f9f-83239c18aa03"},"vehicle_type_id":"4","last_reported":1747743702,"current_range_meters":8000,"station_id":"ce4bgl92rcd13ifvqbq0","pricing_plan_id":"cebpf4jnsgd1na2vs0mg"},{"bike_id":"78f58fa6-33de-4335-8bdd-21a102c59664","system_id":"levelo_inurba_marseille","lat":43.31762,"lon":5.39008,"is_reserved":false,"is_disabled":false,"rental_uris":{"android":"levelo://app?vid=78f58fa6-33de-4335-8bdd-21a102c59664","ios":"levelo://app?vid=78f58fa6-33de-4335-8bdd-21a102c59664"},"vehicle_type_id":"4","last_reported":1747743702,"current_range_meters":10000,"station_id":"ce4bhqp2rcd13ifvqhng","pricing_plan_id":"cebpf4jnsgd1na2vs0mg"},{"bike_id":"8f0f531d-6a65-4647-8a6f-baa3d982f42f","system_id":"levelo_inurba_marseille","lat":43.28147,"lon":5.42569,"is_reserved":false,"is_disabled":false,"rental_uris":{"android":"levelo://app?vid=8f0f531d-6a65-4647-8a6f-baa3d982f42f","ios":"levelo://app?vid=8f0f531d-6a65-4647-8a6f-baa3d982f42f"},"vehicle_type_id":"4","last_reported":1747743702,"current_range_meters":8400,"station_id":"","pricing_plan_id":"cebpf4jnsgd1na2vs0mg"},{"bike_id":"a5bcf3ab-5daa-4dec-898b-27b2e944e103","system_id":"levelo_inurba_marseille","lat":43.27291,"lon":5.41039,"is_reserved":false,"is_disabled":false,"rental_uris":{"android":"levelo://app?vid=a5bcf3ab-5daa-4dec-898b-27b2e944e103","ios":"levelo://app?vid=a5bcf3ab-5daa-4dec-898b-27b2e944e103"},"vehicle_type_id":"4","last_reported":1747743702,"current_range_meters":8400,"station_id":"","pricing_plan_id":"cebpf4jnsgd1na2vs0mg"},{"bike_id":"c52d52a1-3bde-4afd-a5cb-3d96be253c54","system_id":"levelo_inurba_marseille","lat":43.27949,"lon":5.41034,"is_reserved":false,"is_disabled":false,"rental_uris":{"android":"levelo://app?vid=c52d52a1-3bde-4afd-a5cb-3d96be253c54","ios":"levelo://app?vid=c52d52a1-3bde-4afd-a5cb-3d96be253c54"},"vehicle_type_id":"4","last_reported":1747743702,"current_range_meters":8400,"station_id":"ce4bhnp2rcd13ifvqh0g","pricing_plan_id":"cebpf4jnsgd1na2vs0mg"},{"bike_id":"85eaca89-9437-48d0-9bca-a254337b88db","system_id":"levelo_inurba_marseille","lat":43.27455,"lon":5.40972,"is_reserved":false,"is_disabled":false,"rental_uris":{"android":"levelo://app?vid=85eaca89-9437-48d0-9bca-a254337b88db","ios":"levelo://app?vid=85eaca89-9437-48d0-9bca-a254337b88db"},"vehicle_type_id":"4","last_reported":1747743702,"current_range_meters":8400,"station_id":"","pricing_plan_id":"cebpf4jnsgd1na2vs0mg"},{"bike_id":"5090973c-249d-40c3-a21d-6f838cc88bc7","system_id":"levelo_inurba_marseille","lat":43.288102,"lon":5.392454,"is_reserved":false,"is_disabled":false,"rental_uris":{"android":"levelo://app?vid=5090973c-249d-40c3-a21d-6f838cc88bc7","ios":"levelo://app?vid=5090973c-249d-40c3-a21d-6f838cc88bc7"},"vehicle_type_id":"4","last_reported":1747743702,"current_range_meters":8000,"station_id":"ce4bh2p2rcd13ifvqdi0","pricing_plan_id":"cebpf4jnsgd1na2vs0mg"},{"bike_id":"198cfca6-594a-421c-a7d0-2d546f3339e3","system_id":"levelo_inurba_marseille","lat":43.30176,"lon":5.36613,"is_reserved":false,"is_disabled":false,"rental_uris":{"android":"levelo://app?vid=198cfca6-594a-421c-a7d0-2d546f3339e3","ios":"levelo://app?vid=198cfca6-594a-421c-a7d0-2d546f3339e3"},"vehicle_type_id":"4","last_reported":1747743702,"current_range_meters":8400,"station_id":"ce4bgrh2rcd13ifvqc8g","pricing_plan_id":"cebpf4jnsgd1na2vs0mg"},{"bike_id":"ae92f61d-1120-4f68-9f8d-d0db94492c15","system_id":"levelo_inurba_marseille","lat":43.27225,"lon":5.40986,"is_reserved":false,"is_disabled":false,"rental_uris":{"android":"levelo://app?vid=ae92f61d-1120-4f68-9f8d-d0db94492c15","ios":"levelo://app?vid=ae92f61d-1120-4f68-9f8d-d0db94492c15"},"vehicle_type_id":"4","last_reported":1747743702,"current_range_meters":8400,"station_id":"","pricing_plan_id":"cebpf4jnsgd1na2vs0mg"},{"bike_id":"c076ad54-d589-4eeb-ac51-e1376a33ec39","system_id":"levelo_inurba_marseille","lat":43.29539,"lon":5.42278,"is_reserved":false,"is_disabled":false,"rental_uris":{"android":"levelo://app?vid=c076ad54-d589-4eeb-ac51-e1376a33ec39","ios":"levelo://app?vid=c076ad54-d589-4eeb-ac51-e1376a33ec39"},"vehicle_type_id":"4","last_reported":1747743702,"current_range_meters":8400,"station_id":"ce4bhph2rcd13ifvqhdg","pricing_plan_id":"cebpf4jnsgd1na2vs0mg"},{"bike_id":"b16e2a2f-7b77-425a-aaff-4e8ab168639c","system_id":"levelo_inurba_marseille","lat":43.23194,"lon":5.39973,"is_reserved":false,"is_disabled":false,"rental_uris":{"android":"levelo://app?vid=b16e2a2f-7b77-425a-aaff-4e8ab168639c","ios":"levelo://app?vid=b16e2a2f-7b77-425a-aaff-4e8ab168639c"},"vehicle_type_id":"4","last_reported":1747743702,"current_range_meters":8800,"station_id":"ce4bhn12rcd13ifvqgqg","pricing_plan_id":"cebpf4jnsgd1na2vs0mg"},{"bike_id":"05c63458-b601-4e4e-ab26-7a54ca437048","system_id":"levelo_inurba_marseille","lat":43.29555,"lon":5.42284,"is_reserved":false,"is_disabled":false,"rental_uris":{"android":"levelo://app?vid=05c63458-b601-4e4e-ab26-7a54ca437048","ios":"levelo://app?vid=05c63458-b601-4e4e-ab26-7a54ca437048"},"vehicle_type_id":"4","last_reported":1747743702,"current_range_meters":8800,"station_id":"ce4bhph2rcd13ifvqhdg","pricing_plan_id":"cebpf4jnsgd1na2vs0mg"},{"bike_id":"375074ed-8fc3-49b5-a069-d2f4af313461","system_id":"levelo_inurba_marseille","lat":43.298676,"lon":5.362726,"is_reserved":false,"is_disabled":false,"rental_uris":{"android":"levelo://app?vid=375074ed-8fc3-49b5-a069-d2f4af313461","ios":"levelo://app?vid=375074ed-8fc3-49b5-a069-d2f4af313461"},"vehicle_type_id":"4","last_reported":1747743702,"current_range_meters":9200,"station_id":"ce4bgpp2rcd13ifvqc3g","pricing_plan_id":"cebpf4jnsgd1na2vs0mg"},{"bike_id":"a974a729-7441-46e9-acf8-cb62a24aace2","system_id":"levelo_inurba_marseille","lat":43.24693,"lon":5.38132,"is_reserved":false,"is_disabled":false,"rental_uris":{"android":"levelo://app?vid=a974a729-7441-46e9-acf8-cb62a24aace2","ios":"levelo://app?vid=a974a729-7441-46e9-acf8-cb62a24aace2"},"vehicle_type_id":"4","last_reported":1747743702,"current_range_meters":9200,"station_id":"ce4bhih2rcd13ifvqfr0","pricing_plan_id":"cebpf4jnsgd1na2vs0mg"},{"bike_id":"7a6f320a-8a07-483e-a04d-d58942312e9d","system_id":"levelo_inurba_marseille","lat":43.28727,"lon":5.37933,"is_reserved":false,"is_disabled":false,"rental_uris":{"android":"levelo://app?vid=7a6f320a-8a07-483e-a04d-d58942312e9d","ios":"levelo://app?vid=7a6f320a-8a07-483e-a04d-d58942312e9d"},"vehicle_type_id":"4","last_reported":1747743702,"current_range_meters":8800,"station_id":"ce4bh9p2rcd13ifvqec0","pricing_plan_id":"cebpf4jnsgd1na2vs0mg"},{"bike_id":"c7273d45-4db5-474a-ad80-3e64ddd08970","system_id":"levelo_inurba_marseille","lat":43.28851,"lon":5.39314,"is_reserved":false,"is_disabled":false,"rental_uris":{"android":"levelo://app?vid=c7273d45-4db5-474a-ad80-3e64ddd08970","ios":"levelo://app?vid=c7273d45-4db5-474a-ad80-3e64ddd08970"},"vehicle_type_id":"4","last_reported":1747743702,"current_range_meters":9600,"station_id":"ce4bh2p2rcd13ifvqdi0","pricing_plan_id":"cebpf4jnsgd1na2vs0mg"},{"bike_id":"572c97ee-0da0-4be5-a2ce-28eff65f3ef1","system_id":"levelo_inurba_marseille","lat":43.3376,"lon":5.37445,"is_reserved":false,"is_disabled":false,"rental_uris":{"android":"levelo://app?vid=572c97ee-0da0-4be5-a2ce-28eff65f3ef1","ios":"levelo://app?vid=572c97ee-0da0-4be5-a2ce-28eff65f3ef1"},"vehicle_type_id":"4","last_reported":1747743702,"current_range_meters":9600,"station_id":"","pricing_plan_id":"cebpf4jnsgd1na2vs0mg"},{"bike_id":"bffbaf88-357a-4e87-a68c-a9a27a6e01e6","system_id":"levelo_inurba_marseille","lat":43.26218,"lon":5.42115,"is_reserved":false,"is_disabled":false,"rental_uris":{"android":"levelo://app?vid=bffbaf88-357a-4e87-a68c-a9a27a6e01e6","ios":"levelo://app?vid=bffbaf88-357a-4e87-a68c-a9a27a6e01e6"},"vehicle_type_id":"4","last_reported":1747743702,"current_range_meters":9600,"station_id":"","pricing_plan_id":"cebpf4jnsgd1na2vs0mg"},{"bike_id":"789b2388-d576-4811-9268-b368081d9398","system_id":"levelo_inurba_marseille","lat":43.28946,"lon":5.36392,"is_reserved":false,"is_disabled":false,"rental_uris":{"android":"levelo://app?vid=789b2388-d576-4811-9268-b368081d9398","ios":"levelo://app?vid=789b2388-d576-4811-9268-b368081d9398"},"vehicle_type_id":"4","last_reported":1747743702,"current_range_meters":9600,"station_id":"ce4bhc92rcd13ifvqetg","pricing_plan_id":"cebpf4jnsgd1na2vs0mg"},{"bike_id":"22c23eb9-2b0f-47a2-914d-21b4a047d012","system_id":"levelo_inurba_marseille","lat":43.275,"lon":5.42444,"is_reserved":false,"is_disabled":false,"rental_uris":{"android":"levelo://app?vid=22c23eb9-2b0f-47a2-914d-21b4a047d012","ios":"levelo://app?vid=22c23eb9-2b0f-47a2-914d-21b4a047d012"},"vehicle_type_id":"4","last_reported":1747743702,"current_range_meters":9600,"station_id":"ce4bhn92rcd13ifvqgrg","pricing_plan_id":"cebpf4jnsgd1na2vs0mg"},{"bike_id":"0d741f6e-0162-4372-88b6-0e82658dc85b","system_id":"levelo_inurba_marseille","lat":43.29024,"lon":5.38637,"is_reserved":false,"is_disabled":true,"rental_uris":{"android":"levelo://app?vid=0d741f6e-0162-4372-88b6-0e82658dc85b","ios":"levelo://app?vid=0d741f6e-0162-4372-88b6-0e82658dc85b"},"vehicle_type_id":"4","last_reported":1747743702,"current_range_meters":9600,"station_id":"ce4bh4p2rcd13ifvqe0g","pricing_plan_id":"cebpf4jnsgd1na2vs0mg"},{"bike_id":"e8702d21-c1e4-408e-9a53-df16ad1ca895","system_id":"levelo_inurba_marseille","lat":43.30602,"lon":5.37223,"is_reserved":false,"is_disabled":false,"rental_uris":{"android":"levelo://app?vid=e8702d21-c1e4-408e-9a53-df16ad1ca895","ios":"levelo://app?vid=e8702d21-c1e4-408e-9a53-df16ad1ca895"},"vehicle_type_id":"4","last_reported":1747743702,"current_range_meters":9200,"station_id":"ce4bgqh2rcd13ifvqc4g","pricing_plan_id":"cebpf4jnsgd1na2vs0mg"},{"bike_id":"598900bc-cc96-46f3-b8f9-32958f862dd5","system_id":"levelo_inurba_marseille","lat":43.30401,"lon":5.36775,"is_reserved":false,"is_disabled":false,"rental_uris":{"android":"levelo://app?vid=598900bc-cc96-46f3-b8f9-32958f862dd5","ios":"levelo://app?vid=598900bc-cc96-46f3-b8f9-32958f862dd5"},"vehicle_type_id":"4","last_reported":1747743702,"current_range_meters":10000,"station_id":"","pricing_plan_id":"cebpf4jnsgd1na2vs0mg"},{"bike_id":"ab756091-2c46-457a-8903-1638e5289e41","system_id":"levelo_inurba_marseille","lat":43.23195,"lon":5.39976,"is_reserved":false,"is_disabled":false,"rental_uris":{"android":"levelo://app?vid=ab756091-2c46-457a-8903-1638e5289e41","ios":"levelo://app?vid=ab756091-2c46-457a-8903-1638e5289e41"},"vehicle_type_id":"4","last_reported":1747743702,"current_range_meters":10000,"station_id":"ce4bhn12rcd13ifvqgqg","pricing_plan_id":"cebpf4jnsgd1na2vs0mg"},{"bike_id":"c4bab821-a6a1-4acf-a3a9-36472c47978b","system_id":"levelo_inurba_marseille","lat":43.26959,"lon":5.38631,"is_reserved":false,"is_disabled":false,"rental_uris":{"android":"levelo://app?vid=c4bab821-a6a1-4acf-a3a9-36472c47978b","ios":"levelo://app?vid=c4bab821-a6a1-4acf-a3a9-36472c47978b"},"vehicle_type_id":"4","last_reported":1747743702,"current_range_meters":10000,"station_id":"ce4bhh92rcd13ifvqfh0","pricing_plan_id":"cebpf4jnsgd1na2vs0mg"},{"bike_id":"dd7fba58-2be7-4c3f-a64e-0e0ac913f5ed","system_id":"levelo_inurba_marseille","lat":43.280695,"lon":5.39645,"is_reserved":false,"is_disabled":false,"rental_uris":{"android":"levelo://app?vid=dd7fba58-2be7-4c3f-a64e-0e0ac913f5ed","ios":"levelo://app?vid=dd7fba58-2be7-4c3f-a64e-0e0ac913f5ed"},"vehicle_type_id":"4","last_reported":1747743702,"current_range_meters":10000,"station_id":"ce4bho12rcd13ifvqh2g","pricing_plan_id":"cebpf4jnsgd1na2vs0mg"},{"bike_id":"05b3b560-7490-4d1d-9a33-1918669f2423","system_id":"levelo_inurba_marseille","lat":43.28441,"lon":5.39202,"is_reserved":false,"is_disabled":false,"rental_uris":{"android":"levelo://app?vid=05b3b560-7490-4d1d-9a33-1918669f2423","ios":"levelo://app?vid=05b3b560-7490-4d1d-9a33-1918669f2423"},"vehicle_type_id":"4","last_reported":1747743702,"current_range_meters":10000,"station_id":"ce4bhoh2rcd13ifvqh5g","pricing_plan_id":"cebpf4jnsgd1na2vs0mg"},{"bike_id":"e01a69cc-8db1-424e-ade0-a1f9ec264395","system_id":"levelo_inurba_marseille","lat":43.272465,"lon":5.39958,"is_reserved":false,"is_disabled":false,"rental_uris":{"android":"levelo://app?vid=e01a69cc-8db1-424e-ade0-a1f9ec264395","ios":"levelo://app?vid=e01a69cc-8db1-424e-ade0-a1f9ec264395"},"vehicle_type_id":"4","last_reported":1747743702,"current_range_meters":10000,"station_id":"ce4bhdp2rcd13ifvqf20","pricing_plan_id":"cebpf4jnsgd1na2vs0mg"},{"bike_id":"8e63fbde-3b13-4690-8dd0-95c3c8ea97dd","system_id":"levelo_inurba_marseille","lat":43.29571,"lon":5.37521,"is_reserved":false,"is_disabled":false,"rental_uris":{"android":"levelo://app?vid=8e63fbde-3b13-4690-8dd0-95c3c8ea97dd","ios":"levelo://app?vid=8e63fbde-3b13-4690-8dd0-95c3c8ea97dd"},"vehicle_type_id":"4","last_reported":1747743702,"current_range_meters":10800,"station_id":"ce4bgh92rcd13ifvqb50","pricing_plan_id":"cebpf4jnsgd1na2vs0mg"},{"bike_id":"439e7ab4-f57a-4c4d-9885-d5df8ad4c44e","system_id":"levelo_inurba_marseille","lat":43.286623,"lon":5.386658,"is_reserved":false,"is_disabled":false,"rental_uris":{"android":"levelo://app?vid=439e7ab4-f57a-4c4d-9885-d5df8ad4c44e","ios":"levelo://app?vid=439e7ab4-f57a-4c4d-9885-d5df8ad4c44e"},"vehicle_type_id":"4","last_reported":1747743702,"current_range_meters":10800,"station_id":"","pricing_plan_id":"cebpf4jnsgd1na2vs0mg"},{"bike_id":"1a340bac-8012-4c7c-b50a-247d19f083a9","system_id":"levelo_inurba_marseille","lat":43.21194,"lon":5.35073,"is_reserved":false,"is_disabled":false,"rental_uris":{"android":"levelo://app?vid=1a340bac-8012-4c7c-b50a-247d19f083a9","ios":"levelo://app?vid=1a340bac-8012-4c7c-b50a-247d19f083a9"},"vehicle_type_id":"4","last_reported":1747743702,"current_range_meters":10800,"station_id":"st_cvj6sg6p6f1abm77japg","pricing_plan_id":"cebpf4jnsgd1na2vs0mg"},{"bike_id":"50c489d8-51c9-45f0-b437-d68cc8d425bf","system_id":"levelo_inurba_marseille","lat":43.30469,"lon":5.37908,"is_reserved":false,"is_disabled":false,"rental_uris":{"android":"levelo://app?vid=50c489d8-51c9-45f0-b437-d68cc8d425bf","ios":"levelo://app?vid=50c489d8-51c9-45f0-b437-d68cc8d425bf"},"vehicle_type_id":"4","last_reported":1747743702,"current_range_meters":10000,"station_id":"ce4bgup2rcd13ifvqcn0","pricing_plan_id":"cebpf4jnsgd1na2vs0mg"},{"bike_id":"71e146ad-5169-4dc5-a288-c7c746aad618","system_id":"levelo_inurba_marseille","lat":43.23181,"lon":5.3999,"is_reserved":false,"is_disabled":false,"rental_uris":{"android":"levelo://app?vid=71e146ad-5169-4dc5-a288-c7c746aad618","ios":"levelo://app?vid=71e146ad-5169-4dc5-a288-c7c746aad618"},"vehicle_type_id":"4","last_reported":1747743702,"current_range_meters":10800,"station_id":"ce4bhn12rcd13ifvqgqg","pricing_plan_id":"cebpf4jnsgd1na2vs0mg"},{"bike_id":"a19fbb06-7c42-4627-9f4c-1e589e27dd5c","system_id":"levelo_inurba_marseille","lat":43.29786,"lon":5.38101,"is_reserved":false,"is_disabled":false,"rental_uris":{"android":"levelo://app?vid=a19fbb06-7c42-4627-9f4c-1e589e27dd5c","ios":"levelo://app?vid=a19fbb06-7c42-4627-9f4c-1e589e27dd5c"},"vehicle_type_id":"4","last_reported":1747743702,"current_range_meters":10800,"station_id":"ce4bgip2rcd13ifvqbb0","pricing_plan_id":"cebpf4jnsgd1na2vs0mg"},{"bike_id":"b5ba7563-e4d5-4e06-aa60-5cbc3dd86d9f","system_id":"levelo_inurba_marseille","lat":43.25498,"lon":5.37659,"is_reserved":false,"is_disabled":false,"rental_uris":{"android":"levelo://app?vid=b5ba7563-e4d5-4e06-aa60-5cbc3dd86d9f","ios":"levelo://app?vid=b5ba7563-e4d5-4e06-aa60-5cbc3dd86d9f"},"vehicle_type_id":"4","last_reported":1747743702,"current_range_meters":10800,"station_id":"ce4bhh12rcd13ifvqff0","pricing_plan_id":"cebpf4jnsgd1na2vs0mg"},{"bike_id":"cd560f2f-1317-4b75-8823-e157a5c1ca0e","system_id":"levelo_inurba_marseille","lat":43.28467,"lon":5.3588,"is_reserved":false,"is_disabled":false,"rental_uris":{"android":"levelo://app?vid=cd560f2f-1317-4b75-8823-e157a5c1ca0e","ios":"levelo://app?vid=cd560f2f-1317-4b75-8823-e157a5c1ca0e"},"vehicle_type_id":"4","last_reported":1747743702,"current_range_meters":11200,"station_id":"ce4bhah2rcd13ifvqei0","pricing_plan_id":"cebpf4jnsgd1na2vs0mg"},{"bike_id":"211d782c-93fe-44fc-931b-5c466bfda976","system_id":"levelo_inurba_marseille","lat":43.26946,"lon":5.38637,"is_reserved":false,"is_disabled":false,"rental_uris":{"android":"levelo://app?vid=211d782c-93fe-44fc-931b-5c466bfda976","ios":"levelo://app?vid=211d782c-93fe-44fc-931b-5c466bfda976"},"vehicle_type_id":"4","last_reported":1747743702,"current_range_meters":11200,"station_id":"ce4bhh92rcd13ifvqfh0","pricing_plan_id":"cebpf4jnsgd1na2vs0mg"},{"bike_id":"58edc354-c183-4da4-b527-1ba0f2d395e0","system_id":"levelo_inurba_marseille","lat":43.276753,"lon":5.357361,"is_reserved":false,"is_disabled":false,"rental_uris":{"android":"levelo://app?vid=58edc354-c183-4da4-b527-1ba0f2d395e0","ios":"levelo://app?vid=58edc354-c183-4da4-b527-1ba0f2d395e0"},"vehicle_type_id":"4","last_reported":1747743702,"current_range_meters":11200,"station_id":"","pricing_plan_id":"cebpf4jnsgd1na2vs0mg"},{"bike_id":"e8162579-a5ad-485f-ad83-fec8a2ebe7e1","system_id":"levelo_inurba_marseille","lat":43.26826,"lon":5.39099,"is_reserved":false,"is_disabled":false,"rental_uris":{"android":"levelo://app?vid=e8162579-a5ad-485f-ad83-fec8a2ebe7e1","ios":"levelo://app?vid=e8162579-a5ad-485f-ad83-fec8a2ebe7e1"},"vehicle_type_id":"4","last_reported":1747743702,"current_range_meters":11200,"station_id":"","pricing_plan_id":"cebpf4jnsgd1na2vs0mg"},{"bike_id":"33e5cbd5-31c8-4fa0-9d70-cf685e1c2a15","system_id":"levelo_inurba_marseille","lat":43.25138,"lon":5.40321,"is_reserved":false,"is_disabled":false,"rental_uris":{"android":"levelo://app?vid=33e5cbd5-31c8-4fa0-9d70-cf685e1c2a15","ios":"levelo://app?vid=33e5cbd5-31c8-4fa0-9d70-cf685e1c2a15"},"vehicle_type_id":"4","last_reported":1747743702,"current_range_meters":11200,"station_id":"ce4bhlh2rcd13ifvqgig","pricing_plan_id":"cebpf4jnsgd1na2vs0mg"},{"bike_id":"57c11ae7-b071-4549-ad59-ce0fae2e16fc","system_id":"levelo_inurba_marseille","lat":43.2439,"lon":5.37052,"is_reserved":false,"is_disabled":false,"rental_uris":{"android":"levelo://app?vid=57c11ae7-b071-4549-ad59-ce0fae2e16fc","ios":"levelo://app?vid=57c11ae7-b071-4549-ad59-ce0fae2e16fc"},"vehicle_type_id":"4","last_reported":1747743702,"current_range_meters":10800,"station_id":"ce4bhhh2rcd13ifvqfk0","pricing_plan_id":"cebpf4jnsgd1na2vs0mg"},{"bike_id":"04235778-16c2-40e6-b3f3-9c42140beee8","system_id":"levelo_inurba_marseille","lat":43.31881,"lon":5.40741,"is_reserved":false,"is_disabled":false,"rental_uris":{"android":"levelo://app?vid=04235778-16c2-40e6-b3f3-9c42140beee8","ios":"levelo://app?vid=04235778-16c2-40e6-b3f3-9c42140beee8"},"vehicle_type_id":"4","last_reported":1747743702,"current_range_meters":11200,"station_id":"ce4bhq12rcd13ifvqhig","pricing_plan_id":"cebpf4jnsgd1na2vs0mg"},{"bike_id":"4076f57c-e174-403f-9f44-5d2b2351e2a9","system_id":"levelo_inurba_marseille","lat":43.28363,"lon":5.38643,"is_reserved":false,"is_disabled":false,"rental_uris":{"android":"levelo://app?vid=4076f57c-e174-403f-9f44-5d2b2351e2a9","ios":"levelo://app?vid=4076f57c-e174-403f-9f44-5d2b2351e2a9"},"vehicle_type_id":"4","last_reported":1747743702,"current_range_meters":10800,"station_id":"ce4bh492rcd13ifvqdvg","pricing_plan_id":"cebpf4jnsgd1na2vs0mg"},{"bike_id":"c982456e-9239-418d-bf61-18cb2653c010","system_id":"levelo_inurba_marseille","lat":43.27496,"lon":5.42445,"is_reserved":false,"is_disabled":false,"rental_uris":{"android":"levelo://app?vid=c982456e-9239-418d-bf61-18cb2653c010","ios":"levelo://app?vid=c982456e-9239-418d-bf61-18cb2653c010"},"vehicle_type_id":"4","last_reported":1747743702,"current_range_meters":11600,"station_id":"ce4bhn92rcd13ifvqgrg","pricing_plan_id":"cebpf4jnsgd1na2vs0mg"},{"bike_id":"1e0c8eaa-3584-4d8c-9652-b1f9d2de19bb","system_id":"levelo_inurba_marseille","lat":43.27177,"lon":5.40983,"is_reserved":false,"is_disabled":false,"rental_uris":{"android":"levelo://app?vid=1e0c8eaa-3584-4d8c-9652-b1f9d2de19bb","ios":"levelo://app?vid=1e0c8eaa-3584-4d8c-9652-b1f9d2de19bb"},"vehicle_type_id":"4","last_reported":1747743702,"current_range_meters":11600,"station_id":"ce4bhl12rcd13ifvqgf0","pricing_plan_id":"cebpf4jnsgd1na2vs0mg"},{"bike_id":"9ce9cace-c3c4-41f2-9ceb-59a4bec340a7","system_id":"levelo_inurba_marseille","lat":43.260606,"lon":5.393932,"is_reserved":false,"is_disabled":false,"rental_uris":{"android":"levelo://app?vid=9ce9cace-c3c4-41f2-9ceb-59a4bec340a7","ios":"levelo://app?vid=9ce9cace-c3c4-41f2-9ceb-59a4bec340a7"},"vehicle_type_id":"4","last_reported":1747743702,"current_range_meters":11600,"station_id":"ce4bhh92rcd13ifvqfj0","pricing_plan_id":"cebpf4jnsgd1na2vs0mg"},{"bike_id":"b4cffc18-bb2f-4281-9143-2ebb81e89c43","system_id":"levelo_inurba_marseille","lat":43.26615,"lon":5.39089,"is_reserved":false,"is_disabled":false,"rental_uris":{"android":"levelo://app?vid=b4cffc18-bb2f-4281-9143-2ebb81e89c43","ios":"levelo://app?vid=b4cffc18-bb2f-4281-9143-2ebb81e89c43"},"vehicle_type_id":"4","last_reported":1747743702,"current_range_meters":11600,"station_id":"","pricing_plan_id":"cebpf4jnsgd1na2vs0mg"},{"bike_id":"98a6af6c-4e2f-4f75-b744-fe7062c9d3a4","system_id":"levelo_inurba_marseille","lat":43.259096,"lon":5.408783,"is_reserved":false,"is_disabled":false,"rental_uris":{"android":"levelo://app?vid=98a6af6c-4e2f-4f75-b744-fe7062c9d3a4","ios":"levelo://app?vid=98a6af6c-4e2f-4f75-b744-fe7062c9d3a4"},"vehicle_type_id":"4","last_reported":1747743702,"current_range_meters":11600,"station_id":"ce4bhm92rcd13ifvqglg","pricing_plan_id":"cebpf4jnsgd1na2vs0mg"},{"bike_id":"41961dba-2a13-4bf9-8818-8551feed5678","system_id":"levelo_inurba_marseille","lat":43.2558,"lon":5.38236,"is_reserved":false,"is_disabled":false,"rental_uris":{"android":"levelo://app?vid=41961dba-2a13-4bf9-8818-8551feed5678","ios":"levelo://app?vid=41961dba-2a13-4bf9-8818-8551feed5678"},"vehicle_type_id":"4","last_reported":1747743702,"current_range_meters":11600,"station_id":"ce4bhih2rcd13ifvqfs0","pricing_plan_id":"cebpf4jnsgd1na2vs0mg"},{"bike_id":"4f015a9b-865d-4aba-8593-3bdfd4e687a8","system_id":"levelo_inurba_marseille","lat":43.29907,"lon":5.38139,"is_reserved":false,"is_disabled":false,"rental_uris":{"android":"levelo://app?vid=4f015a9b-865d-4aba-8593-3bdfd4e687a8","ios":"levelo://app?vid=4f015a9b-865d-4aba-8593-3bdfd4e687a8"},"vehicle_type_id":"4","last_reported":1747743702,"current_range_meters":11600,"station_id":"ce4bgj12rcd13ifvqbc0","pricing_plan_id":"cebpf4jnsgd1na2vs0mg"},{"bike_id":"4d73f035-69ad-4b73-971e-92feea20ed3c","system_id":"levelo_inurba_marseille","lat":43.29961,"lon":5.37155,"is_reserved":false,"is_disabled":false,"rental_uris":{"android":"levelo://app?vid=4d73f035-69ad-4b73-971e-92feea20ed3c","ios":"levelo://app?vid=4d73f035-69ad-4b73-971e-92feea20ed3c"},"vehicle_type_id":"4","last_reported":1747743702,"current_range_meters":11600,"station_id":"ce4bgr92rcd13ifvqc7g","pricing_plan_id":"cebpf4jnsgd1na2vs0mg"},{"bike_id":"59b8a132-4666-485c-b6ad-3e889f0d9322","system_id":"levelo_inurba_marseille","lat":43.254944,"lon":5.376619,"is_reserved":false,"is_disabled":false,"rental_uris":{"android":"levelo://app?vid=59b8a132-4666-485c-b6ad-3e889f0d9322","ios":"levelo://app?vid=59b8a132-4666-485c-b6ad-3e889f0d9322"},"vehicle_type_id":"4","last_reported":1747743702,"current_range_meters":11600,"station_id":"ce4bhh12rcd13ifvqff0","pricing_plan_id":"cebpf4jnsgd1na2vs0mg"},{"bike_id":"9fec6f86-017c-4e41-9fe1-6b46d4143900","system_id":"levelo_inurba_marseille","lat":43.29038,"lon":5.37555,"is_reserved":false,"is_disabled":false,"rental_uris":{"android":"levelo://app?vid=9fec6f86-017c-4e41-9fe1-6b46d4143900","ios":"levelo://app?vid=9fec6f86-017c-4e41-9fe1-6b46d4143900"},"vehicle_type_id":"4","last_reported":1747743702,"current_range_meters":11600,"station_id":"ce4bh692rcd13ifvqe90","pricing_plan_id":"cebpf4jnsgd1na2vs0mg"},{"bike_id":"f5343ba4-e228-4861-87d1-df1b6fc8be8a","system_id":"levelo_inurba_marseille","lat":43.2796,"lon":5.41041,"is_reserved":false,"is_disabled":false,"rental_uris":{"android":"levelo://app?vid=f5343ba4-e228-4861-87d1-df1b6fc8be8a","ios":"levelo://app?vid=f5343ba4-e228-4861-87d1-df1b6fc8be8a"},"vehicle_type_id":"4","last_reported":1747743702,"current_range_meters":12000,"station_id":"ce4bhnp2rcd13ifvqh0g","pricing_plan_id":"cebpf4jnsgd1na2vs0mg"},{"bike_id":"251a662c-69b0-4b85-b9a3-83b3f2136d85","system_id":"levelo_inurba_marseille","lat":43.30193,"lon":5.38071,"is_reserved":false,"is_disabled":false,"rental_uris":{"android":"levelo://app?vid=251a662c-69b0-4b85-b9a3-83b3f2136d85","ios":"levelo://app?vid=251a662c-69b0-4b85-b9a3-83b3f2136d85"},"vehicle_type_id":"4","last_reported":1747743702,"current_range_meters":12000,"station_id":"","pricing_plan_id":"cebpf4jnsgd1na2vs0mg"},{"bike_id":"c1167e9b-2a1e-401e-b3a8-82f8d1c62e8d","system_id":"levelo_inurba_marseille","lat":43.30146,"lon":5.37413,"is_reserved":false,"is_disabled":false,"rental_uris":{"android":"levelo://app?vid=c1167e9b-2a1e-401e-b3a8-82f8d1c62e8d","ios":"levelo://app?vid=c1167e9b-2a1e-401e-b3a8-82f8d1c62e8d"},"vehicle_type_id":"4","last_reported":1747743702,"current_range_meters":12400,"station_id":"ce4bgs92rcd13ifvqcc0","pricing_plan_id":"cebpf4jnsgd1na2vs0mg"},{"bike_id":"a6a422d9-bc76-42bd-af58-134484a1f87f","system_id":"levelo_inurba_marseille","lat":43.25005,"lon":5.38916,"is_reserved":false,"is_disabled":false,"rental_uris":{"android":"levelo://app?vid=a6a422d9-bc76-42bd-af58-134484a1f87f","ios":"levelo://app?vid=a6a422d9-bc76-42bd-af58-134484a1f87f"},"vehicle_type_id":"4","last_reported":1747743702,"current_range_meters":12400,"station_id":"ce4bhgp2rcd13ifvqfd0","pricing_plan_id":"cebpf4jnsgd1na2vs0mg"},{"bike_id":"24134b30-f679-4285-a2f7-10efbcb9499b","system_id":"levelo_inurba_marseille","lat":43.31759,"lon":5.39016,"is_reserved":false,"is_disabled":false,"rental_uris":{"android":"levelo://app?vid=24134b30-f679-4285-a2f7-10efbcb9499b","ios":"levelo://app?vid=24134b30-f679-4285-a2f7-10efbcb9499b"},"vehicle_type_id":"4","last_reported":1747743702,"current_range_meters":12400,"station_id":"ce4bhqp2rcd13ifvqhng","pricing_plan_id":"cebpf4jnsgd1na2vs0mg"},{"bike_id":"4abe3068-f7c8-444e-8fca-e2b5a7e7aa1f","system_id":"levelo_inurba_marseille","lat":43.287,"lon":5.37389,"is_reserved":false,"is_disabled":false,"rental_uris":{"android":"levelo://app?vid=4abe3068-f7c8-444e-8fca-e2b5a7e7aa1f","ios":"levelo://app?vid=4abe3068-f7c8-444e-8fca-e2b5a7e7aa1f"},"vehicle_type_id":"4","last_reported":1747743702,"current_range_meters":12000,"station_id":"ce4bh3p2rcd13ifvqdq0","pricing_plan_id":"cebpf4jnsgd1na2vs0mg"},{"bike_id":"a03d5265-da37-4e54-8713-4c8aac46e5e1","system_id":"levelo_inurba_marseille","lat":43.26093,"lon":5.41712,"is_reserved":false,"is_disabled":false,"rental_uris":{"android":"levelo://app?vid=a03d5265-da37-4e54-8713-4c8aac46e5e1","ios":"levelo://app?vid=a03d5265-da37-4e54-8713-4c8aac46e5e1"},"vehicle_type_id":"4","last_reported":1747743702,"current_range_meters":12400,"station_id":"","pricing_plan_id":"cebpf4jnsgd1na2vs0mg"},{"bike_id":"3552fbf2-b43a-446f-93f5-d695fc251b73","system_id":"levelo_inurba_marseille","lat":43.25172,"lon":5.37509,"is_reserved":false,"is_disabled":false,"rental_uris":{"android":"levelo://app?vid=3552fbf2-b43a-446f-93f5-d695fc251b73","ios":"levelo://app?vid=3552fbf2-b43a-446f-93f5-d695fc251b73"},"vehicle_type_id":"4","last_reported":1747743702,"current_range_meters":12400,"station_id":"","pricing_plan_id":"cebpf4jnsgd1na2vs0mg"},{"bike_id":"4d5e5c71-3035-44b4-860c-b51f4bd8d83b","system_id":"levelo_inurba_marseille","lat":43.27501,"lon":5.42457,"is_reserved":false,"is_disabled":false,"rental_uris":{"android":"levelo://app?vid=4d5e5c71-3035-44b4-860c-b51f4bd8d83b","ios":"levelo://app?vid=4d5e5c71-3035-44b4-860c-b51f4bd8d83b"},"vehicle_type_id":"4","last_reported":1747743702,"current_range_meters":12400,"station_id":"ce4bhn92rcd13ifvqgrg","pricing_plan_id":"cebpf4jnsgd1na2vs0mg"},{"bike_id":"132da57c-bc12-4bca-94ab-e48f55d9fa56","system_id":"levelo_inurba_marseille","lat":43.31181,"lon":5.38722,"is_reserved":false,"is_disabled":false,"rental_uris":{"android":"levelo://app?vid=132da57c-bc12-4bca-94ab-e48f55d9fa56","ios":"levelo://app?vid=132da57c-bc12-4bca-94ab-e48f55d9fa56"},"vehicle_type_id":"4","last_reported":1747743702,"current_range_meters":12400,"station_id":"ce4bgv12rcd13ifvqcp0","pricing_plan_id":"cebpf4jnsgd1na2vs0mg"},{"bike_id":"c3c11b11-8507-45b4-bd48-1e3bdd46fbbe","system_id":"levelo_inurba_marseille","lat":43.23181,"lon":5.40012,"is_reserved":false,"is_disabled":false,"rental_uris":{"android":"levelo://app?vid=c3c11b11-8507-45b4-bd48-1e3bdd46fbbe","ios":"levelo://app?vid=c3c11b11-8507-45b4-bd48-1e3bdd46fbbe"},"vehicle_type_id":"4","last_reported":1747743702,"current_range_meters":12400,"station_id":"ce4bhn12rcd13ifvqgqg","pricing_plan_id":"cebpf4jnsgd1na2vs0mg"},{"bike_id":"46c5201f-14be-4d89-a16d-442c40f55d4e","system_id":"levelo_inurba_marseille","lat":43.31119,"lon":5.37784,"is_reserved":false,"is_disabled":false,"rental_uris":{"android":"levelo://app?vid=46c5201f-14be-4d89-a16d-442c40f55d4e","ios":"levelo://app?vid=46c5201f-14be-4d89-a16d-442c40f55d4e"},"vehicle_type_id":"4","last_reported":1747743702,"current_range_meters":12800,"station_id":"ce4bgt92rcd13ifvqcg0","pricing_plan_id":"cebpf4jnsgd1na2vs0mg"},{"bike_id":"b6fb83fb-492d-4a29-bcd6-a56fc475c885","system_id":"levelo_inurba_marseille","lat":43.3042,"lon":5.41276,"is_reserved":false,"is_disabled":false,"rental_uris":{"android":"levelo://app?vid=b6fb83fb-492d-4a29-bcd6-a56fc475c885","ios":"levelo://app?vid=b6fb83fb-492d-4a29-bcd6-a56fc475c885"},"vehicle_type_id":"4","last_reported":1747743702,"current_range_meters":12400,"station_id":"ce4bhop2rcd13ifvqh8g","pricing_plan_id":"cebpf4jnsgd1na2vs0mg"},{"bike_id":"6b9c6797-b018-4b9d-98e6-369106aaa8e3","system_id":"levelo_inurba_marseille","lat":43.30468,"lon":5.37908,"is_reserved":false,"is_disabled":false,"rental_uris":{"android":"levelo://app?vid=6b9c6797-b018-4b9d-98e6-369106aaa8e3","ios":"levelo://app?vid=6b9c6797-b018-4b9d-98e6-369106aaa8e3"},"vehicle_type_id":"4","last_reported":1747743702,"current_range_meters":12400,"station_id":"ce4bgup2rcd13ifvqcn0","pricing_plan_id":"cebpf4jnsgd1na2vs0mg"},{"bike_id":"fae084c9-e362-47bc-916c-7f05dfd26189","system_id":"levelo_inurba_marseille","lat":43.29251,"lon":5.3763,"is_reserved":false,"is_disabled":false,"rental_uris":{"android":"levelo://app?vid=fae084c9-e362-47bc-916c-7f05dfd26189","ios":"levelo://app?vid=fae084c9-e362-47bc-916c-7f05dfd26189"},"vehicle_type_id":"4","last_reported":1747743702,"current_range_meters":12800,"station_id":"ce4bgi12rcd13ifvqb80","pricing_plan_id":"cebpf4jnsgd1na2vs0mg"},{"bike_id":"abddf365-204c-4f8c-83df-344d02d6adef","system_id":"levelo_inurba_marseille","lat":43.30553,"lon":5.36533,"is_reserved":false,"is_disabled":false,"rental_uris":{"android":"levelo://app?vid=abddf365-204c-4f8c-83df-344d02d6adef","ios":"levelo://app?vid=abddf365-204c-4f8c-83df-344d02d6adef"},"vehicle_type_id":"4","last_reported":1747743702,"current_range_meters":12400,"station_id":"ce4bgs12rcd13ifvqcag","pricing_plan_id":"cebpf4jnsgd1na2vs0mg"},{"bike_id":"00370bd9-c924-4d2f-87be-92bbcc0a74f3","system_id":"levelo_inurba_marseille","lat":43.31332,"lon":5.39695,"is_reserved":false,"is_disabled":false,"rental_uris":{"android":"levelo://app?vid=00370bd9-c924-4d2f-87be-92bbcc0a74f3","ios":"levelo://app?vid=00370bd9-c924-4d2f-87be-92bbcc0a74f3"},"vehicle_type_id":"4","last_reported":1747743702,"current_range_meters":12400,"station_id":"ce4bgvp2rcd13ifvqcu0","pricing_plan_id":"cebpf4jnsgd1na2vs0mg"},{"bike_id":"1e0be349-75ac-43ce-a2c7-9ea54df984f0","system_id":"levelo_inurba_marseille","lat":43.30381,"lon":5.42483,"is_reserved":false,"is_disabled":false,"rental_uris":{"android":"levelo://app?vid=1e0be349-75ac-43ce-a2c7-9ea54df984f0","ios":"levelo://app?vid=1e0be349-75ac-43ce-a2c7-9ea54df984f0"},"vehicle_type_id":"4","last_reported":1747743702,"current_range_meters":12800,"station_id":"ce4bhoh2rcd13ifvqh6g","pricing_plan_id":"cebpf4jnsgd1na2vs0mg"},{"bike_id":"6386b301-5c5b-41dc-9be6-064d845d26a2","system_id":"levelo_inurba_marseille","lat":43.28622,"lon":5.40655,"is_reserved":false,"is_disabled":false,"rental_uris":{"android":"levelo://app?vid=6386b301-5c5b-41dc-9be6-064d845d26a2","ios":"levelo://app?vid=6386b301-5c5b-41dc-9be6-064d845d26a2"},"vehicle_type_id":"4","last_reported":1747743702,"current_range_meters":12800,"station_id":"","pricing_plan_id":"cebpf4jnsgd1na2vs0mg"},{"bike_id":"bbb0d533-3931-4ac2-85a2-05b7b806ab02","system_id":"levelo_inurba_marseille","lat":43.29847,"lon":5.36263,"is_reserved":false,"is_disabled":false,"rental_uris":{"android":"levelo://app?vid=bbb0d533-3931-4ac2-85a2-05b7b806ab02","ios":"levelo://app?vid=bbb0d533-3931-4ac2-85a2-05b7b806ab02"},"vehicle_type_id":"4","last_reported":1747743702,"current_range_meters":12800,"station_id":"ce4bgpp2rcd13ifvqc3g","pricing_plan_id":"cebpf4jnsgd1na2vs0mg"},{"bike_id":"f55fbf01-1c31-4c15-9666-f2b1c32ef345","system_id":"levelo_inurba_marseille","lat":43.33758,"lon":5.37424,"is_reserved":false,"is_disabled":false,"rental_uris":{"android":"levelo://app?vid=f55fbf01-1c31-4c15-9666-f2b1c32ef345","ios":"levelo://app?vid=f55fbf01-1c31-4c15-9666-f2b1c32ef345"},"vehicle_type_id":"4","last_reported":1747743702,"current_range_meters":13600,"station_id":"","pricing_plan_id":"cebpf4jnsgd1na2vs0mg"},{"bike_id":"4f13f9f9-16ff-4a15-947b-39be74fa93cd","system_id":"levelo_inurba_marseille","lat":43.259325,"lon":5.408975,"is_reserved":false,"is_disabled":false,"rental_uris":{"android":"levelo://app?vid=4f13f9f9-16ff-4a15-947b-39be74fa93cd","ios":"levelo://app?vid=4f13f9f9-16ff-4a15-947b-39be74fa93cd"},"vehicle_type_id":"4","last_reported":1747743702,"current_range_meters":13600,"station_id":"ce4bhm92rcd13ifvqglg","pricing_plan_id":"cebpf4jnsgd1na2vs0mg"},{"bike_id":"283403a0-596c-4a94-85e1-66d88d547369","system_id":"levelo_inurba_marseille","lat":43.29287,"lon":5.40901,"is_reserved":false,"is_disabled":false,"rental_uris":{"android":"levelo://app?vid=283403a0-596c-4a94-85e1-66d88d547369","ios":"levelo://app?vid=283403a0-596c-4a94-85e1-66d88d547369"},"vehicle_type_id":"4","last_reported":1747743702,"current_range_meters":14000,"station_id":"ce4bh192rcd13ifvqdc0","pricing_plan_id":"cebpf4jnsgd1na2vs0mg"},{"bike_id":"ecfe4cf4-23a7-4569-8359-c804e34e363a","system_id":"levelo_inurba_marseille","lat":43.29593,"lon":5.38107,"is_reserved":false,"is_disabled":false,"rental_uris":{"android":"levelo://app?vid=ecfe4cf4-23a7-4569-8359-c804e34e363a","ios":"levelo://app?vid=ecfe4cf4-23a7-4569-8359-c804e34e363a"},"vehicle_type_id":"4","last_reported":1747743702,"current_range_meters":14000,"station_id":"ce4bgl12rcd13ifvqbo0","pricing_plan_id":"cebpf4jnsgd1na2vs0mg"},{"bike_id":"6abf9179-5919-4aea-b8e3-feb1f3d71154","system_id":"levelo_inurba_marseille","lat":43.32357,"lon":5.36751,"is_reserved":false,"is_disabled":false,"rental_uris":{"android":"levelo://app?vid=6abf9179-5919-4aea-b8e3-feb1f3d71154","ios":"levelo://app?vid=6abf9179-5919-4aea-b8e3-feb1f3d71154"},"vehicle_type_id":"4","last_reported":1747743702,"current_range_meters":14000,"station_id":"ce4bhsh2rcd13ifvqi2g","pricing_plan_id":"cebpf4jnsgd1na2vs0mg"},{"bike_id":"3137d4d1-3c0d-4b87-920b-8c52cc30d468","system_id":"levelo_inurba_marseille","lat":43.29604,"lon":5.38101,"is_reserved":false,"is_disabled":false,"rental_uris":{"android":"levelo://app?vid=3137d4d1-3c0d-4b87-920b-8c52cc30d468","ios":"levelo://app?vid=3137d4d1-3c0d-4b87-920b-8c52cc30d468"},"vehicle_type_id":"4","last_reported":1747743702,"current_range_meters":14400,"station_id":"ce4bgl12rcd13ifvqbo0","pricing_plan_id":"cebpf4jnsgd1na2vs0mg"},{"bike_id":"2c2523e8-9d70-4294-b8f3-d838ee45b253","system_id":"levelo_inurba_marseille","lat":43.217481,"lon":5.345981,"is_reserved":false,"is_disabled":true,"rental_uris":{"android":"levelo://app?vid=2c2523e8-9d70-4294-b8f3-d838ee45b253","ios":"levelo://app?vid=2c2523e8-9d70-4294-b8f3-d838ee45b253"},"vehicle_type_id":"4","last_reported":1747743702,"current_range_meters":14400,"station_id":"st_cvj6r9ubvosntc0bgbag","pricing_plan_id":"cebpf4jnsgd1na2vs0mg"},{"bike_id":"dc80936a-51b4-4ef9-b71e-e259b58f2ac3","system_id":"levelo_inurba_marseille","lat":43.23185,"lon":5.39969,"is_reserved":false,"is_disabled":false,"rental_uris":{"android":"levelo://app?vid=dc80936a-51b4-4ef9-b71e-e259b58f2ac3","ios":"levelo://app?vid=dc80936a-51b4-4ef9-b71e-e259b58f2ac3"},"vehicle_type_id":"4","last_reported":1747743702,"current_range_meters":14400,"station_id":"ce4bhn12rcd13ifvqgqg","pricing_plan_id":"cebpf4jnsgd1na2vs0mg"},{"bike_id":"bfadeaec-216b-47d1-99b4-74d81f9ee763","system_id":"levelo_inurba_marseille","lat":43.321288,"lon":5.367691,"is_reserved":false,"is_disabled":false,"rental_uris":{"android":"levelo://app?vid=bfadeaec-216b-47d1-99b4-74d81f9ee763","ios":"levelo://app?vid=bfadeaec-216b-47d1-99b4-74d81f9ee763"},"vehicle_type_id":"4","last_reported":1747743702,"current_range_meters":14400,"station_id":"ce4bhrh2rcd13ifvqhug","pricing_plan_id":"cebpf4jnsgd1na2vs0mg"},{"bike_id":"675df11d-0326-4b58-a7bb-6254b954e2c1","system_id":"levelo_inurba_marseille","lat":43.27922,"lon":5.39579,"is_reserved":false,"is_disabled":false,"rental_uris":{"android":"levelo://app?vid=675df11d-0326-4b58-a7bb-6254b954e2c1","ios":"levelo://app?vid=675df11d-0326-4b58-a7bb-6254b954e2c1"},"vehicle_type_id":"4","last_reported":1747743702,"current_range_meters":14400,"station_id":"ce4bhf92rcd13ifvqf40","pricing_plan_id":"cebpf4jnsgd1na2vs0mg"},{"bike_id":"da7772d0-8abe-4a43-90ae-fe9e0c0a49bb","system_id":"levelo_inurba_marseille","lat":43.29042,"lon":5.39964,"is_reserved":false,"is_disabled":false,"rental_uris":{"android":"levelo://app?vid=da7772d0-8abe-4a43-90ae-fe9e0c0a49bb","ios":"levelo://app?vid=da7772d0-8abe-4a43-90ae-fe9e0c0a49bb"},"vehicle_type_id":"4","last_reported":1747743702,"current_range_meters":14400,"station_id":"ce4bh392rcd13ifvqdm0","pricing_plan_id":"cebpf4jnsgd1na2vs0mg"},{"bike_id":"28c554a5-7272-45ce-9456-c02948158cfa","system_id":"levelo_inurba_marseille","lat":43.290468,"lon":5.399503,"is_reserved":false,"is_disabled":false,"rental_uris":{"android":"levelo://app?vid=28c554a5-7272-45ce-9456-c02948158cfa","ios":"levelo://app?vid=28c554a5-7272-45ce-9456-c02948158cfa"},"vehicle_type_id":"4","last_reported":1747743702,"current_range_meters":14400,"station_id":"ce4bh392rcd13ifvqdm0","pricing_plan_id":"cebpf4jnsgd1na2vs0mg"},{"bike_id":"311b04b8-1518-49e8-811f-36883a7b7fbc","system_id":"levelo_inurba_marseille","lat":43.29811,"lon":5.38095,"is_reserved":false,"is_disabled":false,"rental_uris":{"android":"levelo://app?vid=311b04b8-1518-49e8-811f-36883a7b7fbc","ios":"levelo://app?vid=311b04b8-1518-49e8-811f-36883a7b7fbc"},"vehicle_type_id":"4","last_reported":1747743702,"current_range_meters":14400,"station_id":"ce4bgip2rcd13ifvqbb0","pricing_plan_id":"cebpf4jnsgd1na2vs0mg"},{"bike_id":"e59e5f45-9513-445e-bc33-b808576c4008","system_id":"levelo_inurba_marseille","lat":43.29052,"lon":5.39998,"is_reserved":false,"is_disabled":false,"rental_uris":{"android":"levelo://app?vid=e59e5f45-9513-445e-bc33-b808576c4008","ios":"levelo://app?vid=e59e5f45-9513-445e-bc33-b808576c4008"},"vehicle_type_id":"4","last_reported":1747743702,"current_range_meters":14800,"station_id":"ce4bh392rcd13ifvqdm0","pricing_plan_id":"cebpf4jnsgd1na2vs0mg"},{"bike_id":"2bc0ac61-689e-4842-b330-ccf42e338a4d","system_id":"levelo_inurba_marseille","lat":43.2739,"lon":5.43412,"is_reserved":false,"is_disabled":false,"rental_uris":{"android":"levelo://app?vid=2bc0ac61-689e-4842-b330-ccf42e338a4d","ios":"levelo://app?vid=2bc0ac61-689e-4842-b330-ccf42e338a4d"},"vehicle_type_id":"4","last_reported":1747743702,"current_range_meters":14800,"station_id":"","pricing_plan_id":"cebpf4jnsgd1na2vs0mg"},{"bike_id":"7c992c65-8b06-4407-8e9a-c46be4063ba2","system_id":"levelo_inurba_marseille","lat":43.30552,"lon":5.36536,"is_reserved":false,"is_disabled":false,"rental_uris":{"android":"levelo://app?vid=7c992c65-8b06-4407-8e9a-c46be4063ba2","ios":"levelo://app?vid=7c992c65-8b06-4407-8e9a-c46be4063ba2"},"vehicle_type_id":"4","last_reported":1747743702,"current_range_meters":15200,"station_id":"ce4bgs12rcd13ifvqcag","pricing_plan_id":"cebpf4jnsgd1na2vs0mg"},{"bike_id":"95bbb5b0-4ebd-4505-a979-31f090674af1","system_id":"levelo_inurba_marseille","lat":43.292727,"lon":5.37623,"is_reserved":false,"is_disabled":false,"rental_uris":{"android":"levelo://app?vid=95bbb5b0-4ebd-4505-a979-31f090674af1","ios":"levelo://app?vid=95bbb5b0-4ebd-4505-a979-31f090674af1"},"vehicle_type_id":"4","last_reported":1747743702,"current_range_meters":15200,"station_id":"ce4bgi12rcd13ifvqb80","pricing_plan_id":"cebpf4jnsgd1na2vs0mg"},{"bike_id":"6926bdc6-426a-46ef-a67f-e5a0f69029a6","system_id":"levelo_inurba_marseille","lat":43.30488,"lon":5.379,"is_reserved":false,"is_disabled":false,"rental_uris":{"android":"levelo://app?vid=6926bdc6-426a-46ef-a67f-e5a0f69029a6","ios":"levelo://app?vid=6926bdc6-426a-46ef-a67f-e5a0f69029a6"},"vehicle_type_id":"4","last_reported":1747743702,"current_range_meters":15200,"station_id":"ce4bgup2rcd13ifvqcn0","pricing_plan_id":"cebpf4jnsgd1na2vs0mg"},{"bike_id":"e4b2a479-d1d0-4f3c-b5d3-67079788c988","system_id":"levelo_inurba_marseille","lat":43.31168,"lon":5.38722,"is_reserved":false,"is_disabled":false,"rental_uris":{"android":"levelo://app?vid=e4b2a479-d1d0-4f3c-b5d3-67079788c988","ios":"levelo://app?vid=e4b2a479-d1d0-4f3c-b5d3-67079788c988"},"vehicle_type_id":"4","last_reported":1747743702,"current_range_meters":15200,"station_id":"ce4bgv12rcd13ifvqcp0","pricing_plan_id":"cebpf4jnsgd1na2vs0mg"},{"bike_id":"a31b5b55-aedc-46b2-a28f-45f947354936","system_id":"levelo_inurba_marseille","lat":43.25741,"lon":5.4112,"is_reserved":false,"is_disabled":false,"rental_uris":{"android":"levelo://app?vid=a31b5b55-aedc-46b2-a28f-45f947354936","ios":"levelo://app?vid=a31b5b55-aedc-46b2-a28f-45f947354936"},"vehicle_type_id":"4","last_reported":1747743702,"current_range_meters":15200,"station_id":"ce4bhkp2rcd13ifvqgd0","pricing_plan_id":"cebpf4jnsgd1na2vs0mg"},{"bike_id":"c64832ea-cbd0-47ba-a7f9-dddb8ed879b4","system_id":"levelo_inurba_marseille","lat":43.305384,"lon":5.365537,"is_reserved":false,"is_disabled":false,"rental_uris":{"android":"levelo://app?vid=c64832ea-cbd0-47ba-a7f9-dddb8ed879b4","ios":"levelo://app?vid=c64832ea-cbd0-47ba-a7f9-dddb8ed879b4"},"vehicle_type_id":"4","last_reported":1747743702,"current_range_meters":16000,"station_id":"ce4bgs12rcd13ifvqcag","pricing_plan_id":"cebpf4jnsgd1na2vs0mg"},{"bike_id":"ffa7265d-7e89-483c-9231-84ce9aca05cd","system_id":"levelo_inurba_marseille","lat":43.32532,"lon":5.4145,"is_reserved":false,"is_disabled":false,"rental_uris":{"android":"levelo://app?vid=ffa7265d-7e89-483c-9231-84ce9aca05cd","ios":"levelo://app?vid=ffa7265d-7e89-483c-9231-84ce9aca05cd"},"vehicle_type_id":"4","last_reported":1747743702,"current_range_meters":16800,"station_id":"","pricing_plan_id":"cebpf4jnsgd1na2vs0mg"},{"bike_id":"10e5120c-1eab-4a5b-856d-d14805609b22","system_id":"levelo_inurba_marseille","lat":43.25902,"lon":5.40907,"is_reserved":false,"is_disabled":false,"rental_uris":{"android":"levelo://app?vid=10e5120c-1eab-4a5b-856d-d14805609b22","ios":"levelo://app?vid=10e5120c-1eab-4a5b-856d-d14805609b22"},"vehicle_type_id":"4","last_reported":1747743702,"current_range_meters":16000,"station_id":"ce4bhm92rcd13ifvqglg","pricing_plan_id":"cebpf4jnsgd1na2vs0mg"},{"bike_id":"e621c705-9e34-4112-9eb7-cbbccd6585c2","system_id":"levelo_inurba_marseille","lat":43.31215,"lon":5.36855,"is_reserved":false,"is_disabled":false,"rental_uris":{"android":"levelo://app?vid=e621c705-9e34-4112-9eb7-cbbccd6585c2","ios":"levelo://app?vid=e621c705-9e34-4112-9eb7-cbbccd6585c2"},"vehicle_type_id":"4","last_reported":1747743702,"current_range_meters":16000,"station_id":"ce4bgl92rcd13ifvqbq0","pricing_plan_id":"cebpf4jnsgd1na2vs0mg"},{"bike_id":"5765434c-77b5-41b5-8b14-b978e4d6dd10","system_id":"levelo_inurba_marseille","lat":43.21204,"lon":5.35084,"is_reserved":false,"is_disabled":false,"rental_uris":{"android":"levelo://app?vid=5765434c-77b5-41b5-8b14-b978e4d6dd10","ios":"levelo://app?vid=5765434c-77b5-41b5-8b14-b978e4d6dd10"},"vehicle_type_id":"4","last_reported":1747743702,"current_range_meters":16400,"station_id":"st_cvj6sg6p6f1abm77japg","pricing_plan_id":"cebpf4jnsgd1na2vs0mg"},{"bike_id":"d22b0fd0-78a6-46fc-aad8-ce2ca2a629e3","system_id":"levelo_inurba_marseille","lat":43.21196,"lon":5.35066,"is_reserved":false,"is_disabled":false,"rental_uris":{"android":"levelo://app?vid=d22b0fd0-78a6-46fc-aad8-ce2ca2a629e3","ios":"levelo://app?vid=d22b0fd0-78a6-46fc-aad8-ce2ca2a629e3"},"vehicle_type_id":"4","last_reported":1747743702,"current_range_meters":16400,"station_id":"st_cvj6sg6p6f1abm77japg","pricing_plan_id":"cebpf4jnsgd1na2vs0mg"},{"bike_id":"e6d94c10-414d-419c-9af8-17c8088cc2de","system_id":"levelo_inurba_marseille","lat":43.28613,"lon":5.37077,"is_reserved":false,"is_disabled":false,"rental_uris":{"android":"levelo://app?vid=e6d94c10-414d-419c-9af8-17c8088cc2de","ios":"levelo://app?vid=e6d94c10-414d-419c-9af8-17c8088cc2de"},"vehicle_type_id":"4","last_reported":1747743702,"current_range_meters":16400,"station_id":"ce4bht12rcd13ifvqi60","pricing_plan_id":"cebpf4jnsgd1na2vs0mg"},{"bike_id":"03012606-d32f-4ef5-b61d-8757920abdf4","system_id":"levelo_inurba_marseille","lat":43.28494,"lon":5.38563,"is_reserved":false,"is_disabled":true,"rental_uris":{"android":"levelo://app?vid=03012606-d32f-4ef5-b61d-8757920abdf4","ios":"levelo://app?vid=03012606-d32f-4ef5-b61d-8757920abdf4"},"vehicle_type_id":"4","last_reported":1747743702,"current_range_meters":16800,"station_id":"ce4bh8p2rcd13ifvqeb0","pricing_plan_id":"cebpf4jnsgd1na2vs0mg"},{"bike_id":"87e7bc5e-db0f-423c-8aff-9df688bbf3bc","system_id":"levelo_inurba_marseille","lat":43.24811,"lon":5.37458,"is_reserved":false,"is_disabled":false,"rental_uris":{"android":"levelo://app?vid=87e7bc5e-db0f-423c-8aff-9df688bbf3bc","ios":"levelo://app?vid=87e7bc5e-db0f-423c-8aff-9df688bbf3bc"},"vehicle_type_id":"4","last_reported":1747743702,"current_range_meters":16800,"station_id":"ce4bhgh2rcd13ifvqfb0","pricing_plan_id":"cebpf4jnsgd1na2vs0mg"},{"bike_id":"18459272-d98d-407f-be11-278b314e93a6","system_id":"levelo_inurba_marseille","lat":43.25869,"lon":5.39891,"is_reserved":false,"is_disabled":false,"rental_uris":{"android":"levelo://app?vid=18459272-d98d-407f-be11-278b314e93a6","ios":"levelo://app?vid=18459272-d98d-407f-be11-278b314e93a6"},"vehicle_type_id":"4","last_reported":1747743702,"current_range_meters":16800,"station_id":"ce4bhl92rcd13ifvqghg","pricing_plan_id":"cebpf4jnsgd1na2vs0mg"},{"bike_id":"0075e413-4d39-43ef-9c6d-237796e8dac1","system_id":"levelo_inurba_marseille","lat":43.29897,"lon":5.4367,"is_reserved":false,"is_disabled":false,"rental_uris":{"android":"levelo://app?vid=0075e413-4d39-43ef-9c6d-237796e8dac1","ios":"levelo://app?vid=0075e413-4d39-43ef-9c6d-237796e8dac1"},"vehicle_type_id":"4","last_reported":1747743702,"current_range_meters":16400,"station_id":"ce4bhpp2rcd13ifvqhfg","pricing_plan_id":"cebpf4jnsgd1na2vs0mg"},{"bike_id":"a253706b-1cb9-4ca4-9560-173eeb92ac1f","system_id":"levelo_inurba_marseille","lat":43.30793,"lon":5.435299,"is_reserved":false,"is_disabled":false,"rental_uris":{"android":"levelo://app?vid=a253706b-1cb9-4ca4-9560-173eeb92ac1f","ios":"levelo://app?vid=a253706b-1cb9-4ca4-9560-173eeb92ac1f"},"vehicle_type_id":"4","last_reported":1747743702,"current_range_meters":16800,"station_id":"ce4bhph2rcd13ifvqheg","pricing_plan_id":"cebpf4jnsgd1na2vs0mg"},{"bike_id":"a92c8cb3-1976-4021-a5ea-297c102ff4dd","system_id":"levelo_inurba_marseille","lat":43.31489,"lon":5.37304,"is_reserved":false,"is_disabled":false,"rental_uris":{"android":"levelo://app?vid=a92c8cb3-1976-4021-a5ea-297c102ff4dd","ios":"levelo://app?vid=a92c8cb3-1976-4021-a5ea-297c102ff4dd"},"vehicle_type_id":"4","last_reported":1747743702,"current_range_meters":17200,"station_id":"ce4bgt12rcd13ifvqcd0","pricing_plan_id":"cebpf4jnsgd1na2vs0mg"},{"bike_id":"bb6951b8-fb64-4e2b-9ccf-3c57238e0ee2","system_id":"levelo_inurba_marseille","lat":43.292643,"lon":5.376157,"is_reserved":false,"is_disabled":false,"rental_uris":{"android":"levelo://app?vid=bb6951b8-fb64-4e2b-9ccf-3c57238e0ee2","ios":"levelo://app?vid=bb6951b8-fb64-4e2b-9ccf-3c57238e0ee2"},"vehicle_type_id":"4","last_reported":1747743702,"current_range_meters":17200,"station_id":"ce4bgi12rcd13ifvqb80","pricing_plan_id":"cebpf4jnsgd1na2vs0mg"},{"bike_id":"b5b373f5-5d7f-4a94-92f7-1a9306feb36e","system_id":"levelo_inurba_marseille","lat":43.260264,"lon":5.40726,"is_reserved":false,"is_disabled":false,"rental_uris":{"android":"levelo://app?vid=b5b373f5-5d7f-4a94-92f7-1a9306feb36e","ios":"levelo://app?vid=b5b373f5-5d7f-4a94-92f7-1a9306feb36e"},"vehicle_type_id":"4","last_reported":1747743702,"current_range_meters":17200,"station_id":"ce4bhm92rcd13ifvqglg","pricing_plan_id":"cebpf4jnsgd1na2vs0mg"},{"bike_id":"5f670b2c-f3ff-4f35-8f16-84ecc20640d8","system_id":"levelo_inurba_marseille","lat":43.28938,"lon":5.39626,"is_reserved":false,"is_disabled":false,"rental_uris":{"android":"levelo://app?vid=5f670b2c-f3ff-4f35-8f16-84ecc20640d8","ios":"levelo://app?vid=5f670b2c-f3ff-4f35-8f16-84ecc20640d8"},"vehicle_type_id":"4","last_reported":1747743702,"current_range_meters":17200,"station_id":"","pricing_plan_id":"cebpf4jnsgd1na2vs0mg"},{"bike_id":"8feb19cf-daa7-43e4-a212-a7242dc82e08","system_id":"levelo_inurba_marseille","lat":43.24072,"lon":5.377287,"is_reserved":false,"is_disabled":false,"rental_uris":{"android":"levelo://app?vid=8feb19cf-daa7-43e4-a212-a7242dc82e08","ios":"levelo://app?vid=8feb19cf-daa7-43e4-a212-a7242dc82e08"},"vehicle_type_id":"4","last_reported":1747743702,"current_range_meters":17200,"station_id":"ce4bhnp2rcd13ifvqgvg","pricing_plan_id":"cebpf4jnsgd1na2vs0mg"},{"bike_id":"3c27fe26-7740-4beb-aa25-34485aac3cb1","system_id":"levelo_inurba_marseille","lat":43.29192,"lon":5.35808,"is_reserved":false,"is_disabled":false,"rental_uris":{"android":"levelo://app?vid=3c27fe26-7740-4beb-aa25-34485aac3cb1","ios":"levelo://app?vid=3c27fe26-7740-4beb-aa25-34485aac3cb1"},"vehicle_type_id":"4","last_reported":1747743702,"current_range_meters":17200,"station_id":"ce4bhb12rcd13ifvqel0","pricing_plan_id":"cebpf4jnsgd1na2vs0mg"},{"bike_id":"92cae85f-aab4-4a45-a554-81f816d37b95","system_id":"levelo_inurba_marseille","lat":43.2319,"lon":5.39976,"is_reserved":false,"is_disabled":false,"rental_uris":{"android":"levelo://app?vid=92cae85f-aab4-4a45-a554-81f816d37b95","ios":"levelo://app?vid=92cae85f-aab4-4a45-a554-81f816d37b95"},"vehicle_type_id":"4","last_reported":1747743702,"current_range_meters":17200,"station_id":"ce4bhn12rcd13ifvqgqg","pricing_plan_id":"cebpf4jnsgd1na2vs0mg"},{"bike_id":"7132e5b7-cb3b-492f-ab88-0f75ae7d45a3","system_id":"levelo_inurba_marseille","lat":43.30793,"lon":5.37645,"is_reserved":false,"is_disabled":false,"rental_uris":{"android":"levelo://app?vid=7132e5b7-cb3b-492f-ab88-0f75ae7d45a3","ios":"levelo://app?vid=7132e5b7-cb3b-492f-ab88-0f75ae7d45a3"},"vehicle_type_id":"4","last_reported":1747743702,"current_range_meters":17200,"station_id":"ce4bgv92rcd13ifvqcq0","pricing_plan_id":"cebpf4jnsgd1na2vs0mg"},{"bike_id":"992a7417-87c6-49b2-83b9-3b6a9b17f1f0","system_id":"levelo_inurba_marseille","lat":43.292618,"lon":5.384195,"is_reserved":false,"is_disabled":false,"rental_uris":{"android":"levelo://app?vid=992a7417-87c6-49b2-83b9-3b6a9b17f1f0","ios":"levelo://app?vid=992a7417-87c6-49b2-83b9-3b6a9b17f1f0"},"vehicle_type_id":"4","last_reported":1747743702,"current_range_meters":17200,"station_id":"ce4bh692rcd13ifvqea0","pricing_plan_id":"cebpf4jnsgd1na2vs0mg"},{"bike_id":"ad137882-3dda-426b-a055-3792c4184664","system_id":"levelo_inurba_marseille","lat":43.27926,"lon":5.39582,"is_reserved":false,"is_disabled":false,"rental_uris":{"android":"levelo://app?vid=ad137882-3dda-426b-a055-3792c4184664","ios":"levelo://app?vid=ad137882-3dda-426b-a055-3792c4184664"},"vehicle_type_id":"4","last_reported":1747743702,"current_range_meters":17200,"station_id":"ce4bhf92rcd13ifvqf40","pricing_plan_id":"cebpf4jnsgd1na2vs0mg"},{"bike_id":"b2812a3f-2332-493f-85e4-6bc85b95ec70","system_id":"levelo_inurba_marseille","lat":43.26217,"lon":5.40446,"is_reserved":false,"is_disabled":false,"rental_uris":{"android":"levelo://app?vid=b2812a3f-2332-493f-85e4-6bc85b95ec70","ios":"levelo://app?vid=b2812a3f-2332-493f-85e4-6bc85b95ec70"},"vehicle_type_id":"4","last_reported":1747743702,"current_range_meters":17600,"station_id":"ce4bhmh2rcd13ifvqgmg","pricing_plan_id":"cebpf4jnsgd1na2vs0mg"},{"bike_id":"627d0453-eec4-45d3-829f-f752a240a95a","system_id":"levelo_inurba_marseille","lat":43.28619,"lon":5.35104,"is_reserved":false,"is_disabled":false,"rental_uris":{"android":"levelo://app?vid=627d0453-eec4-45d3-829f-f752a240a95a","ios":"levelo://app?vid=627d0453-eec4-45d3-829f-f752a240a95a"},"vehicle_type_id":"4","last_reported":1747743702,"current_range_meters":17600,"station_id":"ce4bhch2rcd13ifvqeug","pricing_plan_id":"cebpf4jnsgd1na2vs0mg"},{"bike_id":"e87639c0-6e11-42d9-ac16-a3c43364a7b4","system_id":"levelo_inurba_marseille","lat":43.29862,"lon":5.36281,"is_reserved":false,"is_disabled":false,"rental_uris":{"android":"levelo://app?vid=e87639c0-6e11-42d9-ac16-a3c43364a7b4","ios":"levelo://app?vid=e87639c0-6e11-42d9-ac16-a3c43364a7b4"},"vehicle_type_id":"4","last_reported":1747743702,"current_range_meters":17600,"station_id":"ce4bgpp2rcd13ifvqc3g","pricing_plan_id":"cebpf4jnsgd1na2vs0mg"},{"bike_id":"5e2cfc1b-c3bc-42cb-8243-c343fc97bed6","system_id":"levelo_inurba_marseille","lat":43.31328,"lon":5.39686,"is_reserved":false,"is_disabled":false,"rental_uris":{"android":"levelo://app?vid=5e2cfc1b-c3bc-42cb-8243-c343fc97bed6","ios":"levelo://app?vid=5e2cfc1b-c3bc-42cb-8243-c343fc97bed6"},"vehicle_type_id":"4","last_reported":1747743702,"current_range_meters":17600,"station_id":"ce4bgvp2rcd13ifvqcu0","pricing_plan_id":"cebpf4jnsgd1na2vs0mg"},{"bike_id":"24dc12dd-e0a1-4ccc-b473-486d35ddca69","system_id":"levelo_inurba_marseille","lat":43.31717,"lon":5.43709,"is_reserved":false,"is_disabled":false,"rental_uris":{"android":"levelo://app?vid=24dc12dd-e0a1-4ccc-b473-486d35ddca69","ios":"levelo://app?vid=24dc12dd-e0a1-4ccc-b473-486d35ddca69"},"vehicle_type_id":"4","last_reported":1747743702,"current_range_meters":17600,"station_id":"ce4bhp92rcd13ifvqhcg","pricing_plan_id":"cebpf4jnsgd1na2vs0mg"},{"bike_id":"fe655b51-3d45-49ff-8d54-9da74e88161c","system_id":"levelo_inurba_marseille","lat":43.24549,"lon":5.39524,"is_reserved":false,"is_disabled":false,"rental_uris":{"android":"levelo://app?vid=fe655b51-3d45-49ff-8d54-9da74e88161c","ios":"levelo://app?vid=fe655b51-3d45-49ff-8d54-9da74e88161c"},"vehicle_type_id":"4","last_reported":1747743702,"current_range_meters":17200,"station_id":"ce4bhlp2rcd13ifvqgjg","pricing_plan_id":"cebpf4jnsgd1na2vs0mg"},{"bike_id":"48a5de71-8e2d-402b-83b3-d8a3a18ddbb9","system_id":"levelo_inurba_marseille","lat":43.305481,"lon":5.365668,"is_reserved":false,"is_disabled":true,"rental_uris":{"android":"levelo://app?vid=48a5de71-8e2d-402b-83b3-d8a3a18ddbb9","ios":"levelo://app?vid=48a5de71-8e2d-402b-83b3-d8a3a18ddbb9"},"vehicle_type_id":"4","last_reported":1747743702,"current_range_meters":17600,"station_id":"ce4bgs12rcd13ifvqcag","pricing_plan_id":"cebpf4jnsgd1na2vs0mg"},{"bike_id":"dcdd1230-b367-4c95-b902-7d72ba080b7b","system_id":"levelo_inurba_marseille","lat":43.30462,"lon":5.37904,"is_reserved":false,"is_disabled":false,"rental_uris":{"android":"levelo://app?vid=dcdd1230-b367-4c95-b902-7d72ba080b7b","ios":"levelo://app?vid=dcdd1230-b367-4c95-b902-7d72ba080b7b"},"vehicle_type_id":"4","last_reported":1747743702,"current_range_meters":17600,"station_id":"ce4bgup2rcd13ifvqcn0","pricing_plan_id":"cebpf4jnsgd1na2vs0mg"},{"bike_id":"2b20d710-a672-411d-ba0d-bf8564ce6d0e","system_id":"levelo_inurba_marseille","lat":43.26199,"lon":5.379358,"is_reserved":false,"is_disabled":false,"rental_uris":{"android":"levelo://app?vid=2b20d710-a672-411d-ba0d-bf8564ce6d0e","ios":"levelo://app?vid=2b20d710-a672-411d-ba0d-bf8564ce6d0e"},"vehicle_type_id":"4","last_reported":1747743702,"current_range_meters":17600,"station_id":"ce4bhjp2rcd13ifvqg90","pricing_plan_id":"cebpf4jnsgd1na2vs0mg"},{"bike_id":"be273485-ae3d-4c55-bb08-0141afeabbe3","system_id":"levelo_inurba_marseille","lat":43.28475,"lon":5.38412,"is_reserved":false,"is_disabled":false,"rental_uris":{"android":"levelo://app?vid=be273485-ae3d-4c55-bb08-0141afeabbe3","ios":"levelo://app?vid=be273485-ae3d-4c55-bb08-0141afeabbe3"},"vehicle_type_id":"4","last_reported":1747743702,"current_range_meters":17600,"station_id":"ce4bh512rcd13ifvqe3g","pricing_plan_id":"cebpf4jnsgd1na2vs0mg"},{"bike_id":"92f91e94-ac98-4d37-9f39-e934690f9111","system_id":"levelo_inurba_marseille","lat":43.29055,"lon":5.39952,"is_reserved":false,"is_disabled":false,"rental_uris":{"android":"levelo://app?vid=92f91e94-ac98-4d37-9f39-e934690f9111","ios":"levelo://app?vid=92f91e94-ac98-4d37-9f39-e934690f9111"},"vehicle_type_id":"4","last_reported":1747743702,"current_range_meters":18000,"station_id":"ce4bh392rcd13ifvqdm0","pricing_plan_id":"cebpf4jnsgd1na2vs0mg"},{"bike_id":"bded63e5-ee1e-4b50-8e81-f721228dd28d","system_id":"levelo_inurba_marseille","lat":43.26678,"lon":5.38252,"is_reserved":false,"is_disabled":true,"rental_uris":{"android":"levelo://app?vid=bded63e5-ee1e-4b50-8e81-f721228dd28d","ios":"levelo://app?vid=bded63e5-ee1e-4b50-8e81-f721228dd28d"},"vehicle_type_id":"4","last_reported":1747743702,"current_range_meters":18000,"station_id":"ce4bhg92rcd13ifvqf90","pricing_plan_id":"cebpf4jnsgd1na2vs0mg"},{"bike_id":"ccf682b9-544c-4b0f-97ed-0634602559f5","system_id":"levelo_inurba_marseille","lat":43.31495,"lon":5.37307,"is_reserved":false,"is_disabled":false,"rental_uris":{"android":"levelo://app?vid=ccf682b9-544c-4b0f-97ed-0634602559f5","ios":"levelo://app?vid=ccf682b9-544c-4b0f-97ed-0634602559f5"},"vehicle_type_id":"4","last_reported":1747743702,"current_range_meters":18000,"station_id":"ce4bgt12rcd13ifvqcd0","pricing_plan_id":"cebpf4jnsgd1na2vs0mg"},{"bike_id":"0e6bb125-ff93-4853-97e0-da4a593482f4","system_id":"levelo_inurba_marseille","lat":43.280782,"lon":5.396415,"is_reserved":false,"is_disabled":false,"rental_uris":{"android":"levelo://app?vid=0e6bb125-ff93-4853-97e0-da4a593482f4","ios":"levelo://app?vid=0e6bb125-ff93-4853-97e0-da4a593482f4"},"vehicle_type_id":"4","last_reported":1747743702,"current_range_meters":18000,"station_id":"ce4bho12rcd13ifvqh2g","pricing_plan_id":"cebpf4jnsgd1na2vs0mg"},{"bike_id":"a3830faf-6ba4-4ea5-8de5-91cbf435bca9","system_id":"levelo_inurba_marseille","lat":43.25899,"lon":5.40903,"is_reserved":false,"is_disabled":false,"rental_uris":{"android":"levelo://app?vid=a3830faf-6ba4-4ea5-8de5-91cbf435bca9","ios":"levelo://app?vid=a3830faf-6ba4-4ea5-8de5-91cbf435bca9"},"vehicle_type_id":"4","last_reported":1747743702,"current_range_meters":18000,"station_id":"ce4bhm92rcd13ifvqglg","pricing_plan_id":"cebpf4jnsgd1na2vs0mg"},{"bike_id":"3c7175ec-aeed-4796-89fc-426901811446","system_id":"levelo_inurba_marseille","lat":43.30142,"lon":5.37402,"is_reserved":false,"is_disabled":false,"rental_uris":{"android":"levelo://app?vid=3c7175ec-aeed-4796-89fc-426901811446","ios":"levelo://app?vid=3c7175ec-aeed-4796-89fc-426901811446"},"vehicle_type_id":"4","last_reported":1747743702,"current_range_meters":18000,"station_id":"ce4bgs92rcd13ifvqcc0","pricing_plan_id":"cebpf4jnsgd1na2vs0mg"},{"bike_id":"4cfa97d5-d3ed-4671-8003-01f459c4be7e","system_id":"levelo_inurba_marseille","lat":43.33913,"lon":5.38183,"is_reserved":false,"is_disabled":false,"rental_uris":{"android":"levelo://app?vid=4cfa97d5-d3ed-4671-8003-01f459c4be7e","ios":"levelo://app?vid=4cfa97d5-d3ed-4671-8003-01f459c4be7e"},"vehicle_type_id":"4","last_reported":1747743702,"current_range_meters":18000,"station_id":"","pricing_plan_id":"cebpf4jnsgd1na2vs0mg"},{"bike_id":"a033c6d8-5a8f-4551-9a74-b4f10acffaec","system_id":"levelo_inurba_marseille","lat":43.32376,"lon":5.36735,"is_reserved":false,"is_disabled":false,"rental_uris":{"android":"levelo://app?vid=a033c6d8-5a8f-4551-9a74-b4f10acffaec","ios":"levelo://app?vid=a033c6d8-5a8f-4551-9a74-b4f10acffaec"},"vehicle_type_id":"4","last_reported":1747743702,"current_range_meters":18800,"station_id":"ce4bhsh2rcd13ifvqi2g","pricing_plan_id":"cebpf4jnsgd1na2vs0mg"},{"bike_id":"40a4e20e-d435-4a00-b857-b90f7606dfa1","system_id":"levelo_inurba_marseille","lat":43.28466,"lon":5.35887,"is_reserved":false,"is_disabled":false,"rental_uris":{"android":"levelo://app?vid=40a4e20e-d435-4a00-b857-b90f7606dfa1","ios":"levelo://app?vid=40a4e20e-d435-4a00-b857-b90f7606dfa1"},"vehicle_type_id":"4","last_reported":1747743702,"current_range_meters":18800,"station_id":"ce4bhah2rcd13ifvqei0","pricing_plan_id":"cebpf4jnsgd1na2vs0mg"},{"bike_id":"d0b0020c-60c4-4d76-87c0-bbee78b7e7ff","system_id":"levelo_inurba_marseille","lat":43.29041,"lon":5.39968,"is_reserved":false,"is_disabled":false,"rental_uris":{"android":"levelo://app?vid=d0b0020c-60c4-4d76-87c0-bbee78b7e7ff","ios":"levelo://app?vid=d0b0020c-60c4-4d76-87c0-bbee78b7e7ff"},"vehicle_type_id":"4","last_reported":1747743702,"current_range_meters":18800,"station_id":"ce4bh392rcd13ifvqdm0","pricing_plan_id":"cebpf4jnsgd1na2vs0mg"},{"bike_id":"13789339-f604-419b-be3c-92923be6d8f7","system_id":"levelo_inurba_marseille","lat":43.29569,"lon":5.37516,"is_reserved":false,"is_disabled":false,"rental_uris":{"android":"levelo://app?vid=13789339-f604-419b-be3c-92923be6d8f7","ios":"levelo://app?vid=13789339-f604-419b-be3c-92923be6d8f7"},"vehicle_type_id":"4","last_reported":1747743702,"current_range_meters":18800,"station_id":"ce4bgh92rcd13ifvqb50","pricing_plan_id":"cebpf4jnsgd1na2vs0mg"},{"bike_id":"4e2ee494-42b8-426b-a0e7-610d3e8e6962","system_id":"levelo_inurba_marseille","lat":43.31483,"lon":5.37315,"is_reserved":false,"is_disabled":false,"rental_uris":{"android":"levelo://app?vid=4e2ee494-42b8-426b-a0e7-610d3e8e6962","ios":"levelo://app?vid=4e2ee494-42b8-426b-a0e7-610d3e8e6962"},"vehicle_type_id":"4","last_reported":1747743702,"current_range_meters":18800,"station_id":"ce4bgt12rcd13ifvqcd0","pricing_plan_id":"cebpf4jnsgd1na2vs0mg"},{"bike_id":"55c91975-afd3-47bc-bac3-668d1148eebe","system_id":"levelo_inurba_marseille","lat":43.2816,"lon":5.42654,"is_reserved":false,"is_disabled":false,"rental_uris":{"android":"levelo://app?vid=55c91975-afd3-47bc-bac3-668d1148eebe","ios":"levelo://app?vid=55c91975-afd3-47bc-bac3-668d1148eebe"},"vehicle_type_id":"4","last_reported":1747743702,"current_range_meters":18800,"station_id":"ce4bhnh2rcd13ifvqgug","pricing_plan_id":"cebpf4jnsgd1na2vs0mg"},{"bike_id":"d2243da5-46a4-4675-a166-c5959f727fa3","system_id":"levelo_inurba_marseille","lat":43.27949,"lon":5.41037,"is_reserved":false,"is_disabled":false,"rental_uris":{"android":"levelo://app?vid=d2243da5-46a4-4675-a166-c5959f727fa3","ios":"levelo://app?vid=d2243da5-46a4-4675-a166-c5959f727fa3"},"vehicle_type_id":"4","last_reported":1747743702,"current_range_meters":19200,"station_id":"ce4bhnp2rcd13ifvqh0g","pricing_plan_id":"cebpf4jnsgd1na2vs0mg"},{"bike_id":"cf048671-1ddd-4ca1-a00d-6b243746d946","system_id":"levelo_inurba_marseille","lat":43.29714,"lon":5.37682,"is_reserved":false,"is_disabled":false,"rental_uris":{"android":"levelo://app?vid=cf048671-1ddd-4ca1-a00d-6b243746d946","ios":"levelo://app?vid=cf048671-1ddd-4ca1-a00d-6b243746d946"},"vehicle_type_id":"4","last_reported":1747743702,"current_range_meters":19200,"station_id":"ce4bgkh2rcd13ifvqbl0","pricing_plan_id":"cebpf4jnsgd1na2vs0mg"},{"bike_id":"a11e64aa-6dda-4f70-95c5-cc9ea624d80b","system_id":"levelo_inurba_marseille","lat":43.2756,"lon":5.38419,"is_reserved":false,"is_disabled":false,"rental_uris":{"android":"levelo://app?vid=a11e64aa-6dda-4f70-95c5-cc9ea624d80b","ios":"levelo://app?vid=a11e64aa-6dda-4f70-95c5-cc9ea624d80b"},"vehicle_type_id":"4","last_reported":1747743702,"current_range_meters":19200,"station_id":"ce4bhh92rcd13ifvqfi0","pricing_plan_id":"cebpf4jnsgd1na2vs0mg"},{"bike_id":"86834f67-1152-4c57-b1d2-9cebcea766f2","system_id":"levelo_inurba_marseille","lat":43.29964,"lon":5.385,"is_reserved":false,"is_disabled":false,"rental_uris":{"android":"levelo://app?vid=86834f67-1152-4c57-b1d2-9cebcea766f2","ios":"levelo://app?vid=86834f67-1152-4c57-b1d2-9cebcea766f2"},"vehicle_type_id":"4","last_reported":1747743702,"current_range_meters":19200,"station_id":"ce4bgj92rcd13ifvqbd0","pricing_plan_id":"cebpf4jnsgd1na2vs0mg"},{"bike_id":"4c72191e-6073-4998-bc4f-01c7336db6da","system_id":"levelo_inurba_marseille","lat":43.303544,"lon":5.418773,"is_reserved":false,"is_disabled":false,"rental_uris":{"android":"levelo://app?vid=4c72191e-6073-4998-bc4f-01c7336db6da","ios":"levelo://app?vid=4c72191e-6073-4998-bc4f-01c7336db6da"},"vehicle_type_id":"4","last_reported":1747743702,"current_range_meters":19200,"station_id":"ce4bhop2rcd13ifvqh7g","pricing_plan_id":"cebpf4jnsgd1na2vs0mg"},{"bike_id":"19e92105-5de7-44e0-9202-ec7e67c71361","system_id":"levelo_inurba_marseille","lat":43.29914,"lon":5.37464,"is_reserved":false,"is_disabled":false,"rental_uris":{"android":"levelo://app?vid=19e92105-5de7-44e0-9202-ec7e67c71361","ios":"levelo://app?vid=19e92105-5de7-44e0-9202-ec7e67c71361"},"vehicle_type_id":"4","last_reported":1747743702,"current_range_meters":18800,"station_id":"ce4bgjh2rcd13ifvqbg0","pricing_plan_id":"cebpf4jnsgd1na2vs0mg"},{"bike_id":"e9b8f93c-0e12-41b3-b49f-d4e8ae170d04","system_id":"levelo_inurba_marseille","lat":43.2962,"lon":5.38107,"is_reserved":false,"is_disabled":false,"rental_uris":{"android":"levelo://app?vid=e9b8f93c-0e12-41b3-b49f-d4e8ae170d04","ios":"levelo://app?vid=e9b8f93c-0e12-41b3-b49f-d4e8ae170d04"},"vehicle_type_id":"4","last_reported":1747743702,"current_range_meters":19200,"station_id":"ce4bgl12rcd13ifvqbo0","pricing_plan_id":"cebpf4jnsgd1na2vs0mg"},{"bike_id":"e31833c9-3629-4b2f-810c-c09df0eb266c","system_id":"levelo_inurba_marseille","lat":43.33751,"lon":5.37509,"is_reserved":false,"is_disabled":false,"rental_uris":{"android":"levelo://app?vid=e31833c9-3629-4b2f-810c-c09df0eb266c","ios":"levelo://app?vid=e31833c9-3629-4b2f-810c-c09df0eb266c"},"vehicle_type_id":"4","last_reported":1747743702,"current_range_meters":19200,"station_id":"","pricing_plan_id":"cebpf4jnsgd1na2vs0mg"},{"bike_id":"509a7bc5-3ed4-44a0-83b3-6bbf477b3a61","system_id":"levelo_inurba_marseille","lat":43.211862,"lon":5.35071,"is_reserved":false,"is_disabled":false,"rental_uris":{"android":"levelo://app?vid=509a7bc5-3ed4-44a0-83b3-6bbf477b3a61","ios":"levelo://app?vid=509a7bc5-3ed4-44a0-83b3-6bbf477b3a61"},"vehicle_type_id":"4","last_reported":1747743702,"current_range_meters":19200,"station_id":"st_cvj6sg6p6f1abm77japg","pricing_plan_id":"cebpf4jnsgd1na2vs0mg"},{"bike_id":"a35d2841-514b-4edd-b727-ff539aea3168","system_id":"levelo_inurba_marseille","lat":43.25934,"lon":5.4091,"is_reserved":false,"is_disabled":false,"rental_uris":{"android":"levelo://app?vid=a35d2841-514b-4edd-b727-ff539aea3168","ios":"levelo://app?vid=a35d2841-514b-4edd-b727-ff539aea3168"},"vehicle_type_id":"4","last_reported":1747743702,"current_range_meters":19600,"station_id":"ce4bhm92rcd13ifvqglg","pricing_plan_id":"cebpf4jnsgd1na2vs0mg"},{"bike_id":"18d4f046-c73b-4ed1-bd45-69ca2f62023e","system_id":"levelo_inurba_marseille","lat":43.22508,"lon":5.34787,"is_reserved":false,"is_disabled":false,"rental_uris":{"android":"levelo://app?vid=18d4f046-c73b-4ed1-bd45-69ca2f62023e","ios":"levelo://app?vid=18d4f046-c73b-4ed1-bd45-69ca2f62023e"},"vehicle_type_id":"4","last_reported":1747743702,"current_range_meters":19600,"station_id":"st_cvj5dfep6f1abm77gieg","pricing_plan_id":"cebpf4jnsgd1na2vs0mg"},{"bike_id":"c4f0ddbf-912f-4dc6-81b8-da7688e7978e","system_id":"levelo_inurba_marseille","lat":43.30802,"lon":5.43526,"is_reserved":false,"is_disabled":false,"rental_uris":{"android":"levelo://app?vid=c4f0ddbf-912f-4dc6-81b8-da7688e7978e","ios":"levelo://app?vid=c4f0ddbf-912f-4dc6-81b8-da7688e7978e"},"vehicle_type_id":"4","last_reported":1747743702,"current_range_meters":19600,"station_id":"ce4bhph2rcd13ifvqheg","pricing_plan_id":"cebpf4jnsgd1na2vs0mg"},{"bike_id":"568a2208-1804-4e40-b3f1-fd8a87e07880","system_id":"levelo_inurba_marseille","lat":43.25867,"lon":5.39896,"is_reserved":false,"is_disabled":false,"rental_uris":{"android":"levelo://app?vid=568a2208-1804-4e40-b3f1-fd8a87e07880","ios":"levelo://app?vid=568a2208-1804-4e40-b3f1-fd8a87e07880"},"vehicle_type_id":"4","last_reported":1747743702,"current_range_meters":19200,"station_id":"ce4bhl92rcd13ifvqghg","pricing_plan_id":"cebpf4jnsgd1na2vs0mg"},{"bike_id":"068f7a6a-e837-4d9c-8453-d6d6c1acf291","system_id":"levelo_inurba_marseille","lat":43.24093,"lon":5.37766,"is_reserved":false,"is_disabled":false,"rental_uris":{"android":"levelo://app?vid=068f7a6a-e837-4d9c-8453-d6d6c1acf291","ios":"levelo://app?vid=068f7a6a-e837-4d9c-8453-d6d6c1acf291"},"vehicle_type_id":"4","last_reported":1747743702,"current_range_meters":19600,"station_id":"ce4bhnp2rcd13ifvqgvg","pricing_plan_id":"cebpf4jnsgd1na2vs0mg"},{"bike_id":"8bb7d43c-e583-40c0-9a6a-a2f0c4f03243","system_id":"levelo_inurba_marseille","lat":43.292577,"lon":5.409083,"is_reserved":false,"is_disabled":false,"rental_uris":{"android":"levelo://app?vid=8bb7d43c-e583-40c0-9a6a-a2f0c4f03243","ios":"levelo://app?vid=8bb7d43c-e583-40c0-9a6a-a2f0c4f03243"},"vehicle_type_id":"4","last_reported":1747743702,"current_range_meters":19600,"station_id":"ce4bh192rcd13ifvqdc0","pricing_plan_id":"cebpf4jnsgd1na2vs0mg"},{"bike_id":"f05d34f4-1afc-4b60-b34d-263a3b27f3f5","system_id":"levelo_inurba_marseille","lat":43.24648,"lon":5.38886,"is_reserved":false,"is_disabled":false,"rental_uris":{"android":"levelo://app?vid=f05d34f4-1afc-4b60-b34d-263a3b27f3f5","ios":"levelo://app?vid=f05d34f4-1afc-4b60-b34d-263a3b27f3f5"},"vehicle_type_id":"4","last_reported":1747743702,"current_range_meters":20000,"station_id":"ce4bhg12rcd13ifvqf60","pricing_plan_id":"cebpf4jnsgd1na2vs0mg"},{"bike_id":"6c14eca3-3ca3-49db-bb6e-c7ba609b826b","system_id":"levelo_inurba_marseille","lat":43.30332,"lon":5.40422,"is_reserved":false,"is_disabled":false,"rental_uris":{"android":"levelo://app?vid=6c14eca3-3ca3-49db-bb6e-c7ba609b826b","ios":"levelo://app?vid=6c14eca3-3ca3-49db-bb6e-c7ba609b826b"},"vehicle_type_id":"4","last_reported":1747743702,"current_range_meters":20000,"station_id":"","pricing_plan_id":"cebpf4jnsgd1na2vs0mg"},{"bike_id":"f1364355-6199-4dd5-b613-3eacd7eff8e0","system_id":"levelo_inurba_marseille","lat":43.26686,"lon":5.38264,"is_reserved":false,"is_disabled":false,"rental_uris":{"android":"levelo://app?vid=f1364355-6199-4dd5-b613-3eacd7eff8e0","ios":"levelo://app?vid=f1364355-6199-4dd5-b613-3eacd7eff8e0"},"vehicle_type_id":"4","last_reported":1747743702,"current_range_meters":20000,"station_id":"ce4bhg92rcd13ifvqf90","pricing_plan_id":"cebpf4jnsgd1na2vs0mg"},{"bike_id":"bcf57592-d80e-4e5f-8fc8-54bc11278f88","system_id":"levelo_inurba_marseille","lat":43.2894,"lon":5.36636,"is_reserved":false,"is_disabled":false,"rental_uris":{"android":"levelo://app?vid=bcf57592-d80e-4e5f-8fc8-54bc11278f88","ios":"levelo://app?vid=bcf57592-d80e-4e5f-8fc8-54bc11278f88"},"vehicle_type_id":"4","last_reported":1747743702,"current_range_meters":20000,"station_id":"ce4bhap2rcd13ifvqek0","pricing_plan_id":"cebpf4jnsgd1na2vs0mg"},{"bike_id":"c9a00e74-029a-454e-8e85-1b3d994b9d78","system_id":"levelo_inurba_marseille","lat":43.211924,"lon":5.350748,"is_reserved":false,"is_disabled":false,"rental_uris":{"android":"levelo://app?vid=c9a00e74-029a-454e-8e85-1b3d994b9d78","ios":"levelo://app?vid=c9a00e74-029a-454e-8e85-1b3d994b9d78"},"vehicle_type_id":"4","last_reported":1747743702,"current_range_meters":20000,"station_id":"st_cvj6sg6p6f1abm77japg","pricing_plan_id":"cebpf4jnsgd1na2vs0mg"},{"bike_id":"8ffeb00f-c41b-4efe-88f0-6a10245bc787","system_id":"levelo_inurba_marseille","lat":43.28712,"lon":5.37935,"is_reserved":false,"is_disabled":false,"rental_uris":{"android":"levelo://app?vid=8ffeb00f-c41b-4efe-88f0-6a10245bc787","ios":"levelo://app?vid=8ffeb00f-c41b-4efe-88f0-6a10245bc787"},"vehicle_type_id":"4","last_reported":1747743702,"current_range_meters":20000,"station_id":"ce4bh9p2rcd13ifvqec0","pricing_plan_id":"cebpf4jnsgd1na2vs0mg"},{"bike_id":"40c0d26d-b52d-45c3-8cbb-2440b7e4d426","system_id":"levelo_inurba_marseille","lat":43.23137,"lon":5.43708,"is_reserved":false,"is_disabled":false,"rental_uris":{"android":"levelo://app?vid=40c0d26d-b52d-45c3-8cbb-2440b7e4d426","ios":"levelo://app?vid=40c0d26d-b52d-45c3-8cbb-2440b7e4d426"},"vehicle_type_id":"4","last_reported":1747743702,"current_range_meters":20000,"station_id":"ce4bhmp2rcd13ifvqgog","pricing_plan_id":"cebpf4jnsgd1na2vs0mg"},{"bike_id":"d389e2a3-56b3-44a5-bf52-c23a130bcdb1","system_id":"levelo_inurba_marseille","lat":43.27676,"lon":5.3888,"is_reserved":false,"is_disabled":false,"rental_uris":{"android":"levelo://app?vid=d389e2a3-56b3-44a5-bf52-c23a130bcdb1","ios":"levelo://app?vid=d389e2a3-56b3-44a5-bf52-c23a130bcdb1"},"vehicle_type_id":"4","last_reported":1747743702,"current_range_meters":19600,"station_id":"ce4bhi12rcd13ifvqfo0","pricing_plan_id":"cebpf4jnsgd1na2vs0mg"},{"bike_id":"e45e3909-98a1-414c-bec7-b5d85073682a","system_id":"levelo_inurba_marseille","lat":43.304587,"lon":5.379053,"is_reserved":false,"is_disabled":false,"rental_uris":{"android":"levelo://app?vid=e45e3909-98a1-414c-bec7-b5d85073682a","ios":"levelo://app?vid=e45e3909-98a1-414c-bec7-b5d85073682a"},"vehicle_type_id":"4","last_reported":1747743702,"current_range_meters":20000,"station_id":"ce4bgup2rcd13ifvqcn0","pricing_plan_id":"cebpf4jnsgd1na2vs0mg"},{"bike_id":"e8c1547b-d1df-4c1a-b93f-7db9412b4af5","system_id":"levelo_inurba_marseille","lat":43.23195,"lon":5.399962,"is_reserved":false,"is_disabled":false,"rental_uris":{"android":"levelo://app?vid=e8c1547b-d1df-4c1a-b93f-7db9412b4af5","ios":"levelo://app?vid=e8c1547b-d1df-4c1a-b93f-7db9412b4af5"},"vehicle_type_id":"4","last_reported":1747743702,"current_range_meters":20000,"station_id":"ce4bhn12rcd13ifvqgqg","pricing_plan_id":"cebpf4jnsgd1na2vs0mg"},{"bike_id":"6d87516c-46f4-43da-98c6-8048d2f0440f","system_id":"levelo_inurba_marseille","lat":43.27569,"lon":5.38418,"is_reserved":false,"is_disabled":false,"rental_uris":{"android":"levelo://app?vid=6d87516c-46f4-43da-98c6-8048d2f0440f","ios":"levelo://app?vid=6d87516c-46f4-43da-98c6-8048d2f0440f"},"vehicle_type_id":"4","last_reported":1747743702,"current_range_meters":20000,"station_id":"ce4bhh92rcd13ifvqfi0","pricing_plan_id":"cebpf4jnsgd1na2vs0mg"},{"bike_id":"d3433e92-bf5d-42b3-8af1-396f34324daa","system_id":"levelo_inurba_marseille","lat":43.27621,"lon":5.3611,"is_reserved":false,"is_disabled":false,"rental_uris":{"android":"levelo://app?vid=d3433e92-bf5d-42b3-8af1-396f34324daa","ios":"levelo://app?vid=d3433e92-bf5d-42b3-8af1-396f34324daa"},"vehicle_type_id":"4","last_reported":1747743702,"current_range_meters":20000,"station_id":"ce4bgj92rcd13ifvqbe0","pricing_plan_id":"cebpf4jnsgd1na2vs0mg"},{"bike_id":"f2c8e8b9-581c-4a75-98f7-f033a59b91bb","system_id":"levelo_inurba_marseille","lat":43.30886,"lon":5.39658,"is_reserved":false,"is_disabled":false,"rental_uris":{"android":"levelo://app?vid=f2c8e8b9-581c-4a75-98f7-f033a59b91bb","ios":"levelo://app?vid=f2c8e8b9-581c-4a75-98f7-f033a59b91bb"},"vehicle_type_id":"4","last_reported":1747743702,"current_range_meters":20400,"station_id":"ce4bh012rcd13ifvqcv0","pricing_plan_id":"cebpf4jnsgd1na2vs0mg"},{"bike_id":"ad7546cf-2e10-446b-8bdb-946e93dcfce5","system_id":"levelo_inurba_marseille","lat":43.30884,"lon":5.39651,"is_reserved":false,"is_disabled":false,"rental_uris":{"android":"levelo://app?vid=ad7546cf-2e10-446b-8bdb-946e93dcfce5","ios":"levelo://app?vid=ad7546cf-2e10-446b-8bdb-946e93dcfce5"},"vehicle_type_id":"4","last_reported":1747743702,"current_range_meters":20000,"station_id":"ce4bh012rcd13ifvqcv0","pricing_plan_id":"cebpf4jnsgd1na2vs0mg"},{"bike_id":"4afa4ac9-9b74-4dff-951e-566890e085ac","system_id":"levelo_inurba_marseille","lat":43.29046,"lon":5.39986,"is_reserved":false,"is_disabled":false,"rental_uris":{"android":"levelo://app?vid=4afa4ac9-9b74-4dff-951e-566890e085ac","ios":"levelo://app?vid=4afa4ac9-9b74-4dff-951e-566890e085ac"},"vehicle_type_id":"4","last_reported":1747743702,"current_range_meters":20400,"station_id":"ce4bh392rcd13ifvqdm0","pricing_plan_id":"cebpf4jnsgd1na2vs0mg"},{"bike_id":"983422c4-9978-4105-a2fc-556fdce12d67","system_id":"levelo_inurba_marseille","lat":43.23154,"lon":5.4371,"is_reserved":false,"is_disabled":false,"rental_uris":{"android":"levelo://app?vid=983422c4-9978-4105-a2fc-556fdce12d67","ios":"levelo://app?vid=983422c4-9978-4105-a2fc-556fdce12d67"},"vehicle_type_id":"4","last_reported":1747743702,"current_range_meters":20400,"station_id":"ce4bhmp2rcd13ifvqgog","pricing_plan_id":"cebpf4jnsgd1na2vs0mg"},{"bike_id":"ace8975d-a378-4033-a027-6e332e64cc7b","system_id":"levelo_inurba_marseille","lat":43.29714,"lon":5.37687,"is_reserved":false,"is_disabled":false,"rental_uris":{"android":"levelo://app?vid=ace8975d-a378-4033-a027-6e332e64cc7b","ios":"levelo://app?vid=ace8975d-a378-4033-a027-6e332e64cc7b"},"vehicle_type_id":"4","last_reported":1747743702,"current_range_meters":20400,"station_id":"ce4bgkh2rcd13ifvqbl0","pricing_plan_id":"cebpf4jnsgd1na2vs0mg"},{"bike_id":"a8af5505-e611-4177-9903-6f4a2dc7a0c9","system_id":"levelo_inurba_marseille","lat":43.30143,"lon":5.37419,"is_reserved":false,"is_disabled":false,"rental_uris":{"android":"levelo://app?vid=a8af5505-e611-4177-9903-6f4a2dc7a0c9","ios":"levelo://app?vid=a8af5505-e611-4177-9903-6f4a2dc7a0c9"},"vehicle_type_id":"4","last_reported":1747743702,"current_range_meters":20400,"station_id":"ce4bgs92rcd13ifvqcc0","pricing_plan_id":"cebpf4jnsgd1na2vs0mg"},{"bike_id":"82fec6b7-6baa-42f8-a8b1-88666ad21464","system_id":"levelo_inurba_marseille","lat":43.29601,"lon":5.38094,"is_reserved":false,"is_disabled":false,"rental_uris":{"android":"levelo://app?vid=82fec6b7-6baa-42f8-a8b1-88666ad21464","ios":"levelo://app?vid=82fec6b7-6baa-42f8-a8b1-88666ad21464"},"vehicle_type_id":"4","last_reported":1747743702,"current_range_meters":20800,"station_id":"ce4bgl12rcd13ifvqbo0","pricing_plan_id":"cebpf4jnsgd1na2vs0mg"},{"bike_id":"0769c9c1-8f68-46b2-bcff-7e548177af2c","system_id":"levelo_inurba_marseille","lat":43.24805,"lon":5.37468,"is_reserved":false,"is_disabled":false,"rental_uris":{"android":"levelo://app?vid=0769c9c1-8f68-46b2-bcff-7e548177af2c","ios":"levelo://app?vid=0769c9c1-8f68-46b2-bcff-7e548177af2c"},"vehicle_type_id":"4","last_reported":1747743702,"current_range_meters":20800,"station_id":"ce4bhgh2rcd13ifvqfb0","pricing_plan_id":"cebpf4jnsgd1na2vs0mg"},{"bike_id":"0a4b1d3a-ea6c-48eb-a52f-553a4148d942","system_id":"levelo_inurba_marseille","lat":43.26535,"lon":5.39025,"is_reserved":false,"is_disabled":false,"rental_uris":{"android":"levelo://app?vid=0a4b1d3a-ea6c-48eb-a52f-553a4148d942","ios":"levelo://app?vid=0a4b1d3a-ea6c-48eb-a52f-553a4148d942"},"vehicle_type_id":"4","last_reported":1747743702,"current_range_meters":20800,"station_id":"ce4bhe12rcd13ifvqf30","pricing_plan_id":"cebpf4jnsgd1na2vs0mg"},{"bike_id":"65460f07-18e3-4f82-ba56-a18999d1b9a7","system_id":"levelo_inurba_marseille","lat":43.23194,"lon":5.39978,"is_reserved":false,"is_disabled":false,"rental_uris":{"android":"levelo://app?vid=65460f07-18e3-4f82-ba56-a18999d1b9a7","ios":"levelo://app?vid=65460f07-18e3-4f82-ba56-a18999d1b9a7"},"vehicle_type_id":"4","last_reported":1747743702,"current_range_meters":20800,"station_id":"ce4bhn12rcd13ifvqgqg","pricing_plan_id":"cebpf4jnsgd1na2vs0mg"},{"bike_id":"bd6d3037-4c1b-48d6-843b-b6c306173b3e","system_id":"levelo_inurba_marseille","lat":43.28611,"lon":5.37062,"is_reserved":false,"is_disabled":false,"rental_uris":{"android":"levelo://app?vid=bd6d3037-4c1b-48d6-843b-b6c306173b3e","ios":"levelo://app?vid=bd6d3037-4c1b-48d6-843b-b6c306173b3e"},"vehicle_type_id":"4","last_reported":1747743702,"current_range_meters":20800,"station_id":"ce4bht12rcd13ifvqi60","pricing_plan_id":"cebpf4jnsgd1na2vs0mg"},{"bike_id":"bc4b59fb-f511-4505-8fcf-8e55b28089d2","system_id":"levelo_inurba_marseille","lat":43.29197,"lon":5.39313,"is_reserved":false,"is_disabled":false,"rental_uris":{"android":"levelo://app?vid=bc4b59fb-f511-4505-8fcf-8e55b28089d2","ios":"levelo://app?vid=bc4b59fb-f511-4505-8fcf-8e55b28089d2"},"vehicle_type_id":"4","last_reported":1747743702,"current_range_meters":20800,"station_id":"ce4bh192rcd13ifvqdd0","pricing_plan_id":"cebpf4jnsgd1na2vs0mg"},{"bike_id":"5a9b6dcf-2ff0-4428-a99a-d0b8a342b27b","system_id":"levelo_inurba_marseille","lat":43.31807,"lon":5.3744,"is_reserved":false,"is_disabled":false,"rental_uris":{"android":"levelo://app?vid=5a9b6dcf-2ff0-4428-a99a-d0b8a342b27b","ios":"levelo://app?vid=5a9b6dcf-2ff0-4428-a99a-d0b8a342b27b"},"vehicle_type_id":"4","last_reported":1747743702,"current_range_meters":20800,"station_id":"","pricing_plan_id":"cebpf4jnsgd1na2vs0mg"},{"bike_id":"2865ed9d-7ddc-4ce6-873b-1271b05e80ca","system_id":"levelo_inurba_marseille","lat":43.27209,"lon":5.39182,"is_reserved":false,"is_disabled":false,"rental_uris":{"android":"levelo://app?vid=2865ed9d-7ddc-4ce6-873b-1271b05e80ca","ios":"levelo://app?vid=2865ed9d-7ddc-4ce6-873b-1271b05e80ca"},"vehicle_type_id":"4","last_reported":1747743702,"current_range_meters":20800,"station_id":"ce4bhhp2rcd13ifvqfm0","pricing_plan_id":"cebpf4jnsgd1na2vs0mg"},{"bike_id":"85605ec6-0036-497f-ac6c-034226e5adb9","system_id":"levelo_inurba_marseille","lat":43.303003,"lon":5.36897,"is_reserved":false,"is_disabled":false,"rental_uris":{"android":"levelo://app?vid=85605ec6-0036-497f-ac6c-034226e5adb9","ios":"levelo://app?vid=85605ec6-0036-497f-ac6c-034226e5adb9"},"vehicle_type_id":"4","last_reported":1747743702,"current_range_meters":20800,"station_id":"ce4bgqh2rcd13ifvqc5g","pricing_plan_id":"cebpf4jnsgd1na2vs0mg"},{"bike_id":"32c377c5-5335-4199-8968-242ecd5c8a81","system_id":"levelo_inurba_marseille","lat":43.27198,"lon":5.40974,"is_reserved":false,"is_disabled":false,"rental_uris":{"android":"levelo://app?vid=32c377c5-5335-4199-8968-242ecd5c8a81","ios":"levelo://app?vid=32c377c5-5335-4199-8968-242ecd5c8a81"},"vehicle_type_id":"4","last_reported":1747743702,"current_range_meters":21600,"station_id":"ce4bhl12rcd13ifvqgf0","pricing_plan_id":"cebpf4jnsgd1na2vs0mg"},{"bike_id":"dc61c065-6ed1-487e-9ecf-5a93a8f61ca7","system_id":"levelo_inurba_marseille","lat":43.231936,"lon":5.399749,"is_reserved":false,"is_disabled":false,"rental_uris":{"android":"levelo://app?vid=dc61c065-6ed1-487e-9ecf-5a93a8f61ca7","ios":"levelo://app?vid=dc61c065-6ed1-487e-9ecf-5a93a8f61ca7"},"vehicle_type_id":"4","last_reported":1747743702,"current_range_meters":21600,"station_id":"ce4bhn12rcd13ifvqgqg","pricing_plan_id":"cebpf4jnsgd1na2vs0mg"},{"bike_id":"e49561ad-fcc4-4f0f-a13e-206a83a0b606","system_id":"levelo_inurba_marseille","lat":43.29188,"lon":5.39305,"is_reserved":false,"is_disabled":false,"rental_uris":{"android":"levelo://app?vid=e49561ad-fcc4-4f0f-a13e-206a83a0b606","ios":"levelo://app?vid=e49561ad-fcc4-4f0f-a13e-206a83a0b606"},"vehicle_type_id":"4","last_reported":1747743702,"current_range_meters":20800,"station_id":"ce4bh192rcd13ifvqdd0","pricing_plan_id":"cebpf4jnsgd1na2vs0mg"},{"bike_id":"53bedfa7-1ce5-4a05-84b9-c89eed1d6e6a","system_id":"levelo_inurba_marseille","lat":43.2926,"lon":5.36846,"is_reserved":false,"is_disabled":false,"rental_uris":{"android":"levelo://app?vid=53bedfa7-1ce5-4a05-84b9-c89eed1d6e6a","ios":"levelo://app?vid=53bedfa7-1ce5-4a05-84b9-c89eed1d6e6a"},"vehicle_type_id":"4","last_reported":1747743702,"current_range_meters":21600,"station_id":"ce4bhbp2rcd13ifvqesg","pricing_plan_id":"cebpf4jnsgd1na2vs0mg"},{"bike_id":"5eba9c6f-af52-4678-b92e-599eadfb62a3","system_id":"levelo_inurba_marseille","lat":43.28958,"lon":5.36578,"is_reserved":false,"is_disabled":false,"rental_uris":{"android":"levelo://app?vid=5eba9c6f-af52-4678-b92e-599eadfb62a3","ios":"levelo://app?vid=5eba9c6f-af52-4678-b92e-599eadfb62a3"},"vehicle_type_id":"4","last_reported":1747743702,"current_range_meters":21600,"station_id":"","pricing_plan_id":"cebpf4jnsgd1na2vs0mg"},{"bike_id":"75d4e0fc-1dc1-47f4-a35c-2ab8d086a6b2","system_id":"levelo_inurba_marseille","lat":43.31489,"lon":5.37307,"is_reserved":false,"is_disabled":false,"rental_uris":{"android":"levelo://app?vid=75d4e0fc-1dc1-47f4-a35c-2ab8d086a6b2","ios":"levelo://app?vid=75d4e0fc-1dc1-47f4-a35c-2ab8d086a6b2"},