{"last_updated":1761239385,"ttl":60,"version":"2.2","data":{"bikes":[{"bike_id":"1a4c3326-e464-4abf-b271-6eba506c4a96","system_id":"levelo_inurba_marseille","lat":43.294331,"lon":5.397547,"is_reserved":false,"is_disabled":false,"rental_uris":{"android":"levelo://app?vid=1a4c3326-e464-4abf-b271-6eba506c4a96","ios":"levelo://app?vid=1a4c3326-e464-4abf-b271-6eba506c4a96"},"vehicle_type_id":"4","last_reported":1761239385,"current_range_meters":2800,"station_id":"ce4bh3h2rcd13ifvqdo0","pricing_plan_id":"cebpf4jnsgd1na2vs0mg"},{"bike_id":"751639c6-ad8b-4f25-a594-fa4fb8c45ff6","system_id":"levelo_inurba_marseille","lat":43.280003,"lon":5.400113,"is_reserved":false,"is_disabled":false,"rental_uris":{"android":"levelo://app?vid=751639c6-ad8b-4f25-a594-fa4fb8c45ff6","ios":"levelo://app?vid=751639c6-ad8b-4f25-a594-fa4fb8c45ff6"},"vehicle_type_id":"4","last_reported":1761239385,"current_range_meters":2800,"station_id":"ce4bho92rcd13ifvqh4g","pricing_plan_id":"cebpf4jnsgd1na2vs0mg"},{"bike_id":"86684e54-d88d-4748-a06f-e7235c5dd79d","system_id":"levelo_inurba_marseille","lat":43.30884,"lon":5.3966,"is_reserved":false,"is_disabled":false,"rental_uris":{"android":"levelo://app?vid=86684e54-d88d-4748-a06f-e7235c5dd79d","ios":"levelo://app?vid=86684e54-d88d-4748-a06f-e7235c5dd79d"},"vehicle_type_id":"4","last_reported":1761239385,"current_range_meters":2800,"station_id":"ce4bh012rcd13ifvqcv0","pricing_plan_id":"cebpf4jnsgd1na2vs0mg"},{"bike_id":"41bce099-07dd-4839-8875-6eb815c97e27","system_id":"levelo_inurba_marseille","lat":43.29264,"lon":5.38431,"is_reserved":false,"is_disabled":false,"rental_uris":{"android":"levelo://app?vid=41bce099-07dd-4839-8875-6eb815c97e27","ios":"levelo://app?vid=41bce099-07dd-4839-8875-6eb815c97e27"},"vehicle_type_id":"4","last_reported":1761239385,"current_range_meters":3200,"station_id":"ce4bh692rcd13ifvqea0","pricing_plan_id":"cebpf4jnsgd1na2vs0mg"},{"bike_id":"a68b6d42-d9e7-448f-b153-3e1818654f95","system_id":"levelo_inurba_marseille","lat":43.30954,"lon":5.39033,"is_reserved":false,"is_disabled":false,"rental_uris":{"android":"levelo://app?vid=a68b6d42-d9e7-448f-b153-3e1818654f95","ios":"levelo://app?vid=a68b6d42-d9e7-448f-b153-3e1818654f95"},"vehicle_type_id":"4","last_reported":1761239385,"current_range_meters":3200,"station_id":"ce4bgup2rcd13ifvqco0","pricing_plan_id":"cebpf4jnsgd1na2vs0mg"},{"bike_id":"224d117c-b144-4d91-9303-87f7f1e5b7cc","system_id":"levelo_inurba_marseille","lat":43.26499,"lon":5.39537,"is_reserved":false,"is_disabled":false,"rental_uris":{"android":"levelo://app?vid=224d117c-b144-4d91-9303-87f7f1e5b7cc","ios":"levelo://app?vid=224d117c-b144-4d91-9303-87f7f1e5b7cc"},"vehicle_type_id":"4","last_reported":1761239385,"current_range_meters":3200,"station_id":"ce4bhi12rcd13ifvqfq0","pricing_plan_id":"cebpf4jnsgd1na2vs0mg"},{"bike_id":"2f4398be-3643-43f2-94bd-d552cb6cbba3","system_id":"levelo_inurba_marseille","lat":43.31074,"lon":5.38376,"is_reserved":false,"is_disabled":false,"rental_uris":{"android":"levelo://app?vid=2f4398be-3643-43f2-94bd-d552cb6cbba3","ios":"levelo://app?vid=2f4398be-3643-43f2-94bd-d552cb6cbba3"},"vehicle_type_id":"4","last_reported":1761239385,"current_range_meters":3200,"station_id":"ce4bgv92rcd13ifvqcr0","pricing_plan_id":"cebpf4jnsgd1na2vs0mg"},{"bike_id":"2482ac3c-f19e-4631-bb84-6dd2fb68bfd3","system_id":"levelo_inurba_marseille","lat":43.30246,"lon":5.40052,"is_reserved":false,"is_disabled":false,"rental_uris":{"android":"levelo://app?vid=2482ac3c-f19e-4631-bb84-6dd2fb68bfd3","ios":"levelo://app?vid=2482ac3c-f19e-4631-bb84-6dd2fb68bfd3"},"vehicle_type_id":"4","last_reported":1761239385,"current_range_meters":3600,"station_id":"ce4bgvh2rcd13ifvqcs0","pricing_plan_id":"cebpf4jnsgd1na2vs0mg"},{"bike_id":"b8b55fa7-b963-4924-98c5-ba0698f1177a","system_id":"levelo_inurba_marseille","lat":43.29843,"lon":5.36283,"is_reserved":false,"is_disabled":false,"rental_uris":{"android":"levelo://app?vid=b8b55fa7-b963-4924-98c5-ba0698f1177a","ios":"levelo://app?vid=b8b55fa7-b963-4924-98c5-ba0698f1177a"},"vehicle_type_id":"4","last_reported":1761239385,"current_range_meters":3600,"station_id":"ce4bgpp2rcd13ifvqc3g","pricing_plan_id":"cebpf4jnsgd1na2vs0mg"},{"bike_id":"08dd5b69-c2da-4ecf-aad3-2c8e8d01a225","system_id":"levelo_inurba_marseille","lat":43.29792,"lon":5.40403,"is_reserved":false,"is_disabled":false,"rental_uris":{"android":"levelo://app?vid=08dd5b69-c2da-4ecf-aad3-2c8e8d01a225","ios":"levelo://app?vid=08dd5b69-c2da-4ecf-aad3-2c8e8d01a225"},"vehicle_type_id":"4","last_reported":1761239385,"current_range_meters":3600,"station_id":"ce4bh112rcd13ifvqd90","pricing_plan_id":"cebpf4jnsgd1na2vs0mg"},{"bike_id":"51600042-c734-4df4-86cc-df06827911b6","system_id":"levelo_inurba_marseille","lat":43.2694,"lon":5.4026,"is_reserved":false,"is_disabled":false,"rental_uris":{"android":"levelo://app?vid=51600042-c734-4df4-86cc-df06827911b6","ios":"levelo://app?vid=51600042-c734-4df4-86cc-df06827911b6"},"vehicle_type_id":"4","last_reported":1761239385,"current_range_meters":4000,"station_id":"cjm6bp8fraef2m0cb0m0","pricing_plan_id":"cebpf4jnsgd1na2vs0mg"},{"bike_id":"f8ed5907-138c-40de-b2c5-4b1ca0e5626c","system_id":"levelo_inurba_marseille","lat":43.3305,"lon":5.37652,"is_reserved":false,"is_disabled":false,"rental_uris":{"android":"levelo://app?vid=f8ed5907-138c-40de-b2c5-4b1ca0e5626c","ios":"levelo://app?vid=f8ed5907-138c-40de-b2c5-4b1ca0e5626c"},"vehicle_type_id":"4","last_reported":1761239385,"current_range_meters":4000,"station_id":"","pricing_plan_id":"cebpf4jnsgd1na2vs0mg"},{"bike_id":"ac1df8dc-41e5-4954-977f-6f21ed12d11a","system_id":"levelo_inurba_marseille","lat":43.21748,"lon":5.34601,"is_reserved":false,"is_disabled":false,"rental_uris":{"android":"levelo://app?vid=ac1df8dc-41e5-4954-977f-6f21ed12d11a","ios":"levelo://app?vid=ac1df8dc-41e5-4954-977f-6f21ed12d11a"},"vehicle_type_id":"4","last_reported":1761239385,"current_range_meters":4400,"station_id":"st_cvj6r9ubvosntc0bgbag","pricing_plan_id":"cebpf4jnsgd1na2vs0mg"},{"bike_id":"a3f73452-766e-4237-9203-53f44986bb3c","system_id":"levelo_inurba_marseille","lat":43.29261,"lon":5.38448,"is_reserved":false,"is_disabled":false,"rental_uris":{"android":"levelo://app?vid=a3f73452-766e-4237-9203-53f44986bb3c","ios":"levelo://app?vid=a3f73452-766e-4237-9203-53f44986bb3c"},"vehicle_type_id":"4","last_reported":1761239385,"current_range_meters":4800,"station_id":"ce4bh692rcd13ifvqea0","pricing_plan_id":"cebpf4jnsgd1na2vs0mg"},{"bike_id":"e0d0a6a8-b83c-4f43-8d14-8a88fbd47ed5","system_id":"levelo_inurba_marseille","lat":43.29519,"lon":5.3941,"is_reserved":false,"is_disabled":false,"rental_uris":{"android":"levelo://app?vid=e0d0a6a8-b83c-4f43-8d14-8a88fbd47ed5","ios":"levelo://app?vid=e0d0a6a8-b83c-4f43-8d14-8a88fbd47ed5"},"vehicle_type_id":"4","last_reported":1761239385,"current_range_meters":4800,"station_id":"ce4bh292rcd13ifvqdf0","pricing_plan_id":"cebpf4jnsgd1na2vs0mg"},{"bike_id":"bc913198-f917-481c-9545-cda64f7ddb2d","system_id":"levelo_inurba_marseille","lat":43.28703,"lon":5.37391,"is_reserved":false,"is_disabled":false,"rental_uris":{"android":"levelo://app?vid=bc913198-f917-481c-9545-cda64f7ddb2d","ios":"levelo://app?vid=bc913198-f917-481c-9545-cda64f7ddb2d"},"vehicle_type_id":"4","last_reported":1761239385,"current_range_meters":4800,"station_id":"ce4bh3p2rcd13ifvqdq0","pricing_plan_id":"cebpf4jnsgd1na2vs0mg"},{"bike_id":"f95a8254-a0d5-481f-9bca-c0071ae3031e","system_id":"levelo_inurba_marseille","lat":43.29027,"lon":5.38646,"is_reserved":false,"is_disabled":false,"rental_uris":{"android":"levelo://app?vid=f95a8254-a0d5-481f-9bca-c0071ae3031e","ios":"levelo://app?vid=f95a8254-a0d5-481f-9bca-c0071ae3031e"},"vehicle_type_id":"4","last_reported":1761239385,"current_range_meters":4800,"station_id":"ce4bh4p2rcd13ifvqe0g","pricing_plan_id":"cebpf4jnsgd1na2vs0mg"},{"bike_id":"84346016-2dba-4eb7-971d-b2ca303a1074","system_id":"levelo_inurba_marseille","lat":43.29761,"lon":5.42785,"is_reserved":false,"is_disabled":false,"rental_uris":{"android":"levelo://app?vid=84346016-2dba-4eb7-971d-b2ca303a1074","ios":"levelo://app?vid=84346016-2dba-4eb7-971d-b2ca303a1074"},"vehicle_type_id":"4","last_reported":1761239385,"current_range_meters":5600,"station_id":"st_d3md5207bmas73dh9klg","pricing_plan_id":"cebpf4jnsgd1na2vs0mg"},{"bike_id":"92f5e2fc-5283-4d49-ab4c-822a23177483","system_id":"levelo_inurba_marseille","lat":43.32482,"lon":5.40847,"is_reserved":false,"is_disabled":false,"rental_uris":{"android":"levelo://app?vid=92f5e2fc-5283-4d49-ab4c-822a23177483","ios":"levelo://app?vid=92f5e2fc-5283-4d49-ab4c-822a23177483"},"vehicle_type_id":"4","last_reported":1761239385,"current_range_meters":5600,"station_id":"","pricing_plan_id":"cebpf4jnsgd1na2vs0mg"},{"bike_id":"02f7835e-8895-43db-bc46-dc0659a292d5","system_id":"levelo_inurba_marseille","lat":43.29331,"lon":5.3707,"is_reserved":false,"is_disabled":false,"rental_uris":{"android":"levelo://app?vid=02f7835e-8895-43db-bc46-dc0659a292d5","ios":"levelo://app?vid=02f7835e-8895-43db-bc46-dc0659a292d5"},"vehicle_type_id":"4","last_reported":1761239385,"current_range_meters":5600,"station_id":"","pricing_plan_id":"cebpf4jnsgd1na2vs0mg"},{"bike_id":"f550055c-562c-42f6-9d72-f55d83389667","system_id":"levelo_inurba_marseille","lat":43.28154,"lon":5.42645,"is_reserved":false,"is_disabled":false,"rental_uris":{"android":"levelo://app?vid=f550055c-562c-42f6-9d72-f55d83389667","ios":"levelo://app?vid=f550055c-562c-42f6-9d72-f55d83389667"},"vehicle_type_id":"4","last_reported":1761239385,"current_range_meters":5600,"station_id":"ce4bhnh2rcd13ifvqgug","pricing_plan_id":"cebpf4jnsgd1na2vs0mg"},{"bike_id":"39604b2d-26bb-4679-a694-cab990448dc8","system_id":"levelo_inurba_marseille","lat":43.24949,"lon":5.40498,"is_reserved":false,"is_disabled":false,"rental_uris":{"android":"levelo://app?vid=39604b2d-26bb-4679-a694-cab990448dc8","ios":"levelo://app?vid=39604b2d-26bb-4679-a694-cab990448dc8"},"vehicle_type_id":"4","last_reported":1761239385,"current_range_meters":5600,"station_id":"st_d2ngiaodas8pm72gd1h0","pricing_plan_id":"cebpf4jnsgd1na2vs0mg"},{"bike_id":"67f4ecd1-b82f-4449-ba04-087ea430c25b","system_id":"levelo_inurba_marseille","lat":43.295288,"lon":5.385394,"is_reserved":false,"is_disabled":false,"rental_uris":{"android":"levelo://app?vid=67f4ecd1-b82f-4449-ba04-087ea430c25b","ios":"levelo://app?vid=67f4ecd1-b82f-4449-ba04-087ea430c25b"},"vehicle_type_id":"4","last_reported":1761239385,"current_range_meters":6000,"station_id":"ce4bgih2rcd13ifvqba0","pricing_plan_id":"cebpf4jnsgd1na2vs0mg"},{"bike_id":"a7e36965-f5b0-4a8e-9f90-c209b23bf01e","system_id":"levelo_inurba_marseille","lat":43.2792,"lon":5.38022,"is_reserved":false,"is_disabled":false,"rental_uris":{"android":"levelo://app?vid=a7e36965-f5b0-4a8e-9f90-c209b23bf01e","ios":"levelo://app?vid=a7e36965-f5b0-4a8e-9f90-c209b23bf01e"},"vehicle_type_id":"4","last_reported":1761239385,"current_range_meters":6000,"station_id":"ce4bhf92rcd13ifvqf50","pricing_plan_id":"cebpf4jnsgd1na2vs0mg"},{"bike_id":"e160c397-fee2-4a8b-b125-aac488c4b4fd","system_id":"levelo_inurba_marseille","lat":43.303727,"lon":5.424784,"is_reserved":false,"is_disabled":false,"rental_uris":{"android":"levelo://app?vid=e160c397-fee2-4a8b-b125-aac488c4b4fd","ios":"levelo://app?vid=e160c397-fee2-4a8b-b125-aac488c4b4fd"},"vehicle_type_id":"4","last_reported":1761239385,"current_range_meters":6400,"station_id":"ce4bhoh2rcd13ifvqh6g","pricing_plan_id":"cebpf4jnsgd1na2vs0mg"},{"bike_id":"d9ab91e6-b683-401b-9566-f375d8690806","system_id":"levelo_inurba_marseille","lat":43.27066,"lon":5.42282,"is_reserved":false,"is_disabled":false,"rental_uris":{"android":"levelo://app?vid=d9ab91e6-b683-401b-9566-f375d8690806","ios":"levelo://app?vid=d9ab91e6-b683-401b-9566-f375d8690806"},"vehicle_type_id":"4","last_reported":1761239385,"current_range_meters":6400,"station_id":"ce4bhk92rcd13ifvqgb0","pricing_plan_id":"cebpf4jnsgd1na2vs0mg"},{"bike_id":"4ec2101b-5484-4de8-bbb2-9496fe9996d5","system_id":"levelo_inurba_marseille","lat":43.284662,"lon":5.358866,"is_reserved":false,"is_disabled":false,"rental_uris":{"android":"levelo://app?vid=4ec2101b-5484-4de8-bbb2-9496fe9996d5","ios":"levelo://app?vid=4ec2101b-5484-4de8-bbb2-9496fe9996d5"},"vehicle_type_id":"4","last_reported":1761239385,"current_range_meters":6400,"station_id":"ce4bhah2rcd13ifvqei0","pricing_plan_id":"cebpf4jnsgd1na2vs0mg"},{"bike_id":"1c1809c4-200a-4c78-8bd0-cfcece8816cf","system_id":"levelo_inurba_marseille","lat":43.30588,"lon":5.39362,"is_reserved":false,"is_disabled":false,"rental_uris":{"android":"levelo://app?vid=1c1809c4-200a-4c78-8bd0-cfcece8816cf","ios":"levelo://app?vid=1c1809c4-200a-4c78-8bd0-cfcece8816cf"},"vehicle_type_id":"4","last_reported":1761239385,"current_range_meters":6400,"station_id":"ce4bh0p2rcd13ifvqd80","pricing_plan_id":"cebpf4jnsgd1na2vs0mg"},{"bike_id":"e6f4e10e-6d72-487a-8252-3250c4b27f98","system_id":"levelo_inurba_marseille","lat":43.211893,"lon":5.350755,"is_reserved":false,"is_disabled":false,"rental_uris":{"android":"levelo://app?vid=e6f4e10e-6d72-487a-8252-3250c4b27f98","ios":"levelo://app?vid=e6f4e10e-6d72-487a-8252-3250c4b27f98"},"vehicle_type_id":"4","last_reported":1761239385,"current_range_meters":6800,"station_id":"st_cvj6sg6p6f1abm77japg","pricing_plan_id":"cebpf4jnsgd1na2vs0mg"},{"bike_id":"9284d93a-9b08-4b67-aa5a-3a9eb3e24f49","system_id":"levelo_inurba_marseille","lat":43.21749,"lon":5.34624,"is_reserved":false,"is_disabled":false,"rental_uris":{"android":"levelo://app?vid=9284d93a-9b08-4b67-aa5a-3a9eb3e24f49","ios":"levelo://app?vid=9284d93a-9b08-4b67-aa5a-3a9eb3e24f49"},"vehicle_type_id":"4","last_reported":1761239385,"current_range_meters":6800,"station_id":"st_cvj6r9ubvosntc0bgbag","pricing_plan_id":"cebpf4jnsgd1na2vs0mg"},{"bike_id":"df30bf55-f5cf-4bcf-8c0e-930442216268","system_id":"levelo_inurba_marseille","lat":43.29265,"lon":5.38451,"is_reserved":false,"is_disabled":false,"rental_uris":{"android":"levelo://app?vid=df30bf55-f5cf-4bcf-8c0e-930442216268","ios":"levelo://app?vid=df30bf55-f5cf-4bcf-8c0e-930442216268"},"vehicle_type_id":"4","last_reported":1761239385,"current_range_meters":6800,"station_id":"","pricing_plan_id":"cebpf4jnsgd1na2vs0mg"},{"bike_id":"b983a1f5-0af3-41ce-83f6-6c9717f4d589","system_id":"levelo_inurba_marseille","lat":43.31268,"lon":5.4017,"is_reserved":false,"is_disabled":false,"rental_uris":{"android":"levelo://app?vid=b983a1f5-0af3-41ce-83f6-6c9717f4d589","ios":"levelo://app?vid=b983a1f5-0af3-41ce-83f6-6c9717f4d589"},"vehicle_type_id":"4","last_reported":1761239385,"current_range_meters":6800,"station_id":"ce4bh092rcd13ifvqd30","pricing_plan_id":"cebpf4jnsgd1na2vs0mg"},{"bike_id":"a427d9b6-09b5-452d-bf7a-e456ad813700","system_id":"levelo_inurba_marseille","lat":43.313568,"lon":5.384959,"is_reserved":false,"is_disabled":false,"rental_uris":{"android":"levelo://app?vid=a427d9b6-09b5-452d-bf7a-e456ad813700","ios":"levelo://app?vid=a427d9b6-09b5-452d-bf7a-e456ad813700"},"vehicle_type_id":"4","last_reported":1761239385,"current_range_meters":6800,"station_id":"ce4bgt92rcd13ifvqcf0","pricing_plan_id":"cebpf4jnsgd1na2vs0mg"},{"bike_id":"8e91bfde-df90-4fec-a3af-44a9a79ec34f","system_id":"levelo_inurba_marseille","lat":43.29044,"lon":5.37572,"is_reserved":false,"is_disabled":false,"rental_uris":{"android":"levelo://app?vid=8e91bfde-df90-4fec-a3af-44a9a79ec34f","ios":"levelo://app?vid=8e91bfde-df90-4fec-a3af-44a9a79ec34f"},"vehicle_type_id":"4","last_reported":1761239385,"current_range_meters":6800,"station_id":"ce4bh692rcd13ifvqe90","pricing_plan_id":"cebpf4jnsgd1na2vs0mg"},{"bike_id":"19a81ba3-8936-468a-9e73-f2451a2dbdad","system_id":"levelo_inurba_marseille","lat":43.29382,"lon":5.37616,"is_reserved":false,"is_disabled":false,"rental_uris":{"android":"levelo://app?vid=19a81ba3-8936-468a-9e73-f2451a2dbdad","ios":"levelo://app?vid=19a81ba3-8936-468a-9e73-f2451a2dbdad"},"vehicle_type_id":"4","last_reported":1761239385,"current_range_meters":6800,"station_id":"","pricing_plan_id":"cebpf4jnsgd1na2vs0mg"},{"bike_id":"82576c51-8b9b-43eb-aa43-fc4a18c9ea5b","system_id":"levelo_inurba_marseille","lat":43.21739,"lon":5.346,"is_reserved":false,"is_disabled":false,"rental_uris":{"android":"levelo://app?vid=82576c51-8b9b-43eb-aa43-fc4a18c9ea5b","ios":"levelo://app?vid=82576c51-8b9b-43eb-aa43-fc4a18c9ea5b"},"vehicle_type_id":"4","last_reported":1761239385,"current_range_meters":7200,"station_id":"st_cvj6r9ubvosntc0bgbag","pricing_plan_id":"cebpf4jnsgd1na2vs0mg"},{"bike_id":"19e39811-58d3-4314-a102-d097a69bf73d","system_id":"levelo_inurba_marseille","lat":43.28153,"lon":5.42653,"is_reserved":false,"is_disabled":false,"rental_uris":{"android":"levelo://app?vid=19e39811-58d3-4314-a102-d097a69bf73d","ios":"levelo://app?vid=19e39811-58d3-4314-a102-d097a69bf73d"},"vehicle_type_id":"4","last_reported":1761239385,"current_range_meters":7200,"station_id":"ce4bhnh2rcd13ifvqgug","pricing_plan_id":"cebpf4jnsgd1na2vs0mg"},{"bike_id":"a0d58d19-15b7-45cf-b65a-592e413946f4","system_id":"levelo_inurba_marseille","lat":43.27276,"lon":5.39106,"is_reserved":false,"is_disabled":false,"rental_uris":{"android":"levelo://app?vid=a0d58d19-15b7-45cf-b65a-592e413946f4","ios":"levelo://app?vid=a0d58d19-15b7-45cf-b65a-592e413946f4"},"vehicle_type_id":"4","last_reported":1761239385,"current_range_meters":7200,"station_id":"ce4bhhp2rcd13ifvqfm0","pricing_plan_id":"cebpf4jnsgd1na2vs0mg"},{"bike_id":"16ea86f8-d34c-4222-9d2d-e608ddd6d62e","system_id":"levelo_inurba_marseille","lat":43.337444,"lon":5.374475,"is_reserved":false,"is_disabled":false,"rental_uris":{"android":"levelo://app?vid=16ea86f8-d34c-4222-9d2d-e608ddd6d62e","ios":"levelo://app?vid=16ea86f8-d34c-4222-9d2d-e608ddd6d62e"},"vehicle_type_id":"4","last_reported":1761239385,"current_range_meters":7200,"station_id":"","pricing_plan_id":"cebpf4jnsgd1na2vs0mg"},{"bike_id":"ff3ba630-dc04-489c-b422-8721b9ddc862","system_id":"levelo_inurba_marseille","lat":43.29822,"lon":5.37786,"is_reserved":false,"is_disabled":false,"rental_uris":{"android":"levelo://app?vid=ff3ba630-dc04-489c-b422-8721b9ddc862","ios":"levelo://app?vid=ff3ba630-dc04-489c-b422-8721b9ddc862"},"vehicle_type_id":"4","last_reported":1761239385,"current_range_meters":7200,"station_id":"","pricing_plan_id":"cebpf4jnsgd1na2vs0mg"},{"bike_id":"f23ea261-b3c8-4792-a12f-cb0af25d18d5","system_id":"levelo_inurba_marseille","lat":43.2466,"lon":5.38164,"is_reserved":false,"is_disabled":false,"rental_uris":{"android":"levelo://app?vid=f23ea261-b3c8-4792-a12f-cb0af25d18d5","ios":"levelo://app?vid=f23ea261-b3c8-4792-a12f-cb0af25d18d5"},"vehicle_type_id":"4","last_reported":1761239385,"current_range_meters":7200,"station_id":"ce4bhih2rcd13ifvqfr0","pricing_plan_id":"cebpf4jnsgd1na2vs0mg"},{"bike_id":"a6a5eb4b-dac6-4c6d-9099-10c75cd869b3","system_id":"levelo_inurba_marseille","lat":43.28408,"lon":5.37528,"is_reserved":false,"is_disabled":false,"rental_uris":{"android":"levelo://app?vid=a6a5eb4b-dac6-4c6d-9099-10c75cd869b3","ios":"levelo://app?vid=a6a5eb4b-dac6-4c6d-9099-10c75cd869b3"},"vehicle_type_id":"4","last_reported":1761239385,"current_range_meters":8000,"station_id":"ce4bh412rcd13ifvqds0","pricing_plan_id":"cebpf4jnsgd1na2vs0mg"},{"bike_id":"3d748066-cbb0-4ba8-942e-a6e30b252189","system_id":"levelo_inurba_marseille","lat":43.29703,"lon":5.37936,"is_reserved":false,"is_disabled":false,"rental_uris":{"android":"levelo://app?vid=3d748066-cbb0-4ba8-942e-a6e30b252189","ios":"levelo://app?vid=3d748066-cbb0-4ba8-942e-a6e30b252189"},"vehicle_type_id":"4","last_reported":1761239385,"current_range_meters":8000,"station_id":"","pricing_plan_id":"cebpf4jnsgd1na2vs0mg"},{"bike_id":"f3efb067-32db-4fd5-a6c7-ed1c6ebbf69d","system_id":"levelo_inurba_marseille","lat":43.21189,"lon":5.35084,"is_reserved":false,"is_disabled":true,"rental_uris":{"android":"levelo://app?vid=f3efb067-32db-4fd5-a6c7-ed1c6ebbf69d","ios":"levelo://app?vid=f3efb067-32db-4fd5-a6c7-ed1c6ebbf69d"},"vehicle_type_id":"4","last_reported":1761239385,"current_range_meters":8000,"station_id":"st_cvj6sg6p6f1abm77japg","pricing_plan_id":"cebpf4jnsgd1na2vs0mg"},{"bike_id":"561792e9-49b5-4ff8-967c-ab242a0354f8","system_id":"levelo_inurba_marseille","lat":43.30554,"lon":5.36527,"is_reserved":false,"is_disabled":false,"rental_uris":{"android":"levelo://app?vid=561792e9-49b5-4ff8-967c-ab242a0354f8","ios":"levelo://app?vid=561792e9-49b5-4ff8-967c-ab242a0354f8"},"vehicle_type_id":"4","last_reported":1761239385,"current_range_meters":8000,"station_id":"ce4bgs12rcd13ifvqcag","pricing_plan_id":"cebpf4jnsgd1na2vs0mg"},{"bike_id":"77b5e99a-ad1c-41c3-9651-49eb2a6e729d","system_id":"levelo_inurba_marseille","lat":43.33731,"lon":5.391767,"is_reserved":false,"is_disabled":false,"rental_uris":{"android":"levelo://app?vid=77b5e99a-ad1c-41c3-9651-49eb2a6e729d","ios":"levelo://app?vid=77b5e99a-ad1c-41c3-9651-49eb2a6e729d"},"vehicle_type_id":"4","last_reported":1761239385,"current_range_meters":8000,"station_id":"ce4bhr92rcd13ifvqhsg","pricing_plan_id":"cebpf4jnsgd1na2vs0mg"},{"bike_id":"37d01fc8-4b4d-4652-a489-1254eb9d4c80","system_id":"levelo_inurba_marseille","lat":43.34076,"lon":5.40411,"is_reserved":false,"is_disabled":false,"rental_uris":{"android":"levelo://app?vid=37d01fc8-4b4d-4652-a489-1254eb9d4c80","ios":"levelo://app?vid=37d01fc8-4b4d-4652-a489-1254eb9d4c80"},"vehicle_type_id":"4","last_reported":1761239385,"current_range_meters":8000,"station_id":"","pricing_plan_id":"cebpf4jnsgd1na2vs0mg"},{"bike_id":"c39cbfe8-1560-4a1f-afd6-087fdcab00a2","system_id":"levelo_inurba_marseille","lat":43.2894,"lon":5.36644,"is_reserved":false,"is_disabled":false,"rental_uris":{"android":"levelo://app?vid=c39cbfe8-1560-4a1f-afd6-087fdcab00a2","ios":"levelo://app?vid=c39cbfe8-1560-4a1f-afd6-087fdcab00a2"},"vehicle_type_id":"4","last_reported":1761239385,"current_range_meters":8000,"station_id":"ce4bhap2rcd13ifvqek0","pricing_plan_id":"cebpf4jnsgd1na2vs0mg"},{"bike_id":"ef1fd798-a027-4a26-b607-d84b3801b9db","system_id":"levelo_inurba_marseille","lat":43.25582,"lon":5.38232,"is_reserved":false,"is_disabled":false,"rental_uris":{"android":"levelo://app?vid=ef1fd798-a027-4a26-b607-d84b3801b9db","ios":"levelo://app?vid=ef1fd798-a027-4a26-b607-d84b3801b9db"},"vehicle_type_id":"4","last_reported":1761239385,"current_range_meters":8000,"station_id":"ce4bhih2rcd13ifvqfs0","pricing_plan_id":"cebpf4jnsgd1na2vs0mg"},{"bike_id":"c5c3c49f-af42-40fa-b10c-8ac601c79e91","system_id":"levelo_inurba_marseille","lat":43.25873,"lon":5.39899,"is_reserved":false,"is_disabled":false,"rental_uris":{"android":"levelo://app?vid=c5c3c49f-af42-40fa-b10c-8ac601c79e91","ios":"levelo://app?vid=c5c3c49f-af42-40fa-b10c-8ac601c79e91"},"vehicle_type_id":"4","last_reported":1761239385,"current_range_meters":8400,"station_id":"ce4bhl92rcd13ifvqghg","pricing_plan_id":"cebpf4jnsgd1na2vs0mg"},{"bike_id":"c1bf84a0-db3c-48e5-bd91-edb0a6dab0a7","system_id":"levelo_inurba_marseille","lat":43.29052,"lon":5.35922,"is_reserved":false,"is_disabled":false,"rental_uris":{"android":"levelo://app?vid=c1bf84a0-db3c-48e5-bd91-edb0a6dab0a7","ios":"levelo://app?vid=c1bf84a0-db3c-48e5-bd91-edb0a6dab0a7"},"vehicle_type_id":"4","last_reported":1761239385,"current_range_meters":8400,"station_id":"ce4bha92rcd13ifvqeg0","pricing_plan_id":"cebpf4jnsgd1na2vs0mg"},{"bike_id":"2087d38d-b561-42de-89f9-544970412313","system_id":"levelo_inurba_marseille","lat":43.26578,"lon":5.40325,"is_reserved":false,"is_disabled":false,"rental_uris":{"android":"levelo://app?vid=2087d38d-b561-42de-89f9-544970412313","ios":"levelo://app?vid=2087d38d-b561-42de-89f9-544970412313"},"vehicle_type_id":"4","last_reported":1761239385,"current_range_meters":8400,"station_id":"ce4bhmp2rcd13ifvqgng","pricing_plan_id":"cebpf4jnsgd1na2vs0mg"},{"bike_id":"aa5c39ca-5467-4d85-a1f8-b790dbb0979e","system_id":"levelo_inurba_marseille","lat":43.30685,"lon":5.37406,"is_reserved":false,"is_disabled":false,"rental_uris":{"android":"levelo://app?vid=aa5c39ca-5467-4d85-a1f8-b790dbb0979e","ios":"levelo://app?vid=aa5c39ca-5467-4d85-a1f8-b790dbb0979e"},"vehicle_type_id":"4","last_reported":1761239385,"current_range_meters":8400,"station_id":"","pricing_plan_id":"cebpf4jnsgd1na2vs0mg"},{"bike_id":"3aa8c3e6-230d-4538-ac39-2b944611f536","system_id":"levelo_inurba_marseille","lat":43.313519,"lon":5.367272,"is_reserved":false,"is_disabled":true,"rental_uris":{"android":"levelo://app?vid=3aa8c3e6-230d-4538-ac39-2b944611f536","ios":"levelo://app?vid=3aa8c3e6-230d-4538-ac39-2b944611f536"},"vehicle_type_id":"4","last_reported":1761239385,"current_range_meters":8400,"station_id":"ce4bgr92rcd13ifvqc6g","pricing_plan_id":"cebpf4jnsgd1na2vs0mg"},{"bike_id":"5385651e-5d96-4b05-9e5e-8383228be157","system_id":"levelo_inurba_marseille","lat":43.27908,"lon":5.38008,"is_reserved":false,"is_disabled":true,"rental_uris":{"android":"levelo://app?vid=5385651e-5d96-4b05-9e5e-8383228be157","ios":"levelo://app?vid=5385651e-5d96-4b05-9e5e-8383228be157"},"vehicle_type_id":"4","last_reported":1761239385,"current_range_meters":8400,"station_id":"ce4bhf92rcd13ifvqf50","pricing_plan_id":"cebpf4jnsgd1na2vs0mg"},{"bike_id":"963ae924-ed47-473e-bce3-44e033db9bf7","system_id":"levelo_inurba_marseille","lat":43.292681,"lon":5.3845,"is_reserved":false,"is_disabled":false,"rental_uris":{"android":"levelo://app?vid=963ae924-ed47-473e-bce3-44e033db9bf7","ios":"levelo://app?vid=963ae924-ed47-473e-bce3-44e033db9bf7"},"vehicle_type_id":"4","last_reported":1761239385,"current_range_meters":8400,"station_id":"ce4bgv12rcd13ifvqcp0","pricing_plan_id":"cebpf4jnsgd1na2vs0mg"},{"bike_id":"eef581ca-5420-4bc9-8691-8f64bca113c3","system_id":"levelo_inurba_marseille","lat":43.29023,"lon":5.38642,"is_reserved":false,"is_disabled":false,"rental_uris":{"android":"levelo://app?vid=eef581ca-5420-4bc9-8691-8f64bca113c3","ios":"levelo://app?vid=eef581ca-5420-4bc9-8691-8f64bca113c3"},"vehicle_type_id":"4","last_reported":1761239385,"current_range_meters":8400,"station_id":"ce4bh4p2rcd13ifvqe0g","pricing_plan_id":"cebpf4jnsgd1na2vs0mg"},{"bike_id":"91abbf88-adc9-4064-9825-9dc634d922c9","system_id":"levelo_inurba_marseille","lat":43.26575,"lon":5.39016,"is_reserved":false,"is_disabled":false,"rental_uris":{"android":"levelo://app?vid=91abbf88-adc9-4064-9825-9dc634d922c9","ios":"levelo://app?vid=91abbf88-adc9-4064-9825-9dc634d922c9"},"vehicle_type_id":"4","last_reported":1761239385,"current_range_meters":8800,"station_id":"ce4bhe12rcd13ifvqf30","pricing_plan_id":"cebpf4jnsgd1na2vs0mg"},{"bike_id":"931db1bc-d37f-408d-9bab-8468f7719f40","system_id":"levelo_inurba_marseille","lat":43.291012,"lon":5.381333,"is_reserved":false,"is_disabled":false,"rental_uris":{"android":"levelo://app?vid=931db1bc-d37f-408d-9bab-8468f7719f40","ios":"levelo://app?vid=931db1bc-d37f-408d-9bab-8468f7719f40"},"vehicle_type_id":"4","last_reported":1761239385,"current_range_meters":8800,"station_id":"ce4bh512rcd13ifvqe2g","pricing_plan_id":"cebpf4jnsgd1na2vs0mg"},{"bike_id":"6a662624-d03e-45d5-964b-74ea5f67d032","system_id":"levelo_inurba_marseille","lat":43.31108,"lon":5.37775,"is_reserved":false,"is_disabled":true,"rental_uris":{"android":"levelo://app?vid=6a662624-d03e-45d5-964b-74ea5f67d032","ios":"levelo://app?vid=6a662624-d03e-45d5-964b-74ea5f67d032"},"vehicle_type_id":"4","last_reported":1761239385,"current_range_meters":8800,"station_id":"ce4bgt92rcd13ifvqcg0","pricing_plan_id":"cebpf4jnsgd1na2vs0mg"},{"bike_id":"c4370f89-83f4-44c4-8882-31186aa4bfad","system_id":"levelo_inurba_marseille","lat":43.29377,"lon":5.37849,"is_reserved":false,"is_disabled":false,"rental_uris":{"android":"levelo://app?vid=c4370f89-83f4-44c4-8882-31186aa4bfad","ios":"levelo://app?vid=c4370f89-83f4-44c4-8882-31186aa4bfad"},"vehicle_type_id":"4","last_reported":1761239385,"current_range_meters":8800,"station_id":"ce4bgjh2rcd13ifvqbf0","pricing_plan_id":"cebpf4jnsgd1na2vs0mg"},{"bike_id":"2a2c060f-bd93-4daf-bc4a-7d006bafecf6","system_id":"levelo_inurba_marseille","lat":43.25876,"lon":5.39905,"is_reserved":false,"is_disabled":false,"rental_uris":{"android":"levelo://app?vid=2a2c060f-bd93-4daf-bc4a-7d006bafecf6","ios":"levelo://app?vid=2a2c060f-bd93-4daf-bc4a-7d006bafecf6"},"vehicle_type_id":"4","last_reported":1761239385,"current_range_meters":9200,"station_id":"ce4bhl92rcd13ifvqghg","pricing_plan_id":"cebpf4jnsgd1na2vs0mg"},{"bike_id":"4eae2ec4-8862-466e-a3d9-395cca4276d0","system_id":"levelo_inurba_marseille","lat":43.30384,"lon":5.37603,"is_reserved":false,"is_disabled":false,"rental_uris":{"android":"levelo://app?vid=4eae2ec4-8862-466e-a3d9-395cca4276d0","ios":"levelo://app?vid=4eae2ec4-8862-466e-a3d9-395cca4276d0"},"vehicle_type_id":"4","last_reported":1761239385,"current_range_meters":9200,"station_id":"","pricing_plan_id":"cebpf4jnsgd1na2vs0mg"},{"bike_id":"1656396b-ce0e-470e-9f40-d432e00c8827","system_id":"levelo_inurba_marseille","lat":43.29608,"lon":5.40491,"is_reserved":false,"is_disabled":false,"rental_uris":{"android":"levelo://app?vid=1656396b-ce0e-470e-9f40-d432e00c8827","ios":"levelo://app?vid=1656396b-ce0e-470e-9f40-d432e00c8827"},"vehicle_type_id":"4","last_reported":1761239385,"current_range_meters":9600,"station_id":"","pricing_plan_id":"cebpf4jnsgd1na2vs0mg"},{"bike_id":"aa6ee413-40f9-42e2-a099-5c05f212bab5","system_id":"levelo_inurba_marseille","lat":43.313349,"lon":5.396932,"is_reserved":false,"is_disabled":false,"rental_uris":{"android":"levelo://app?vid=aa6ee413-40f9-42e2-a099-5c05f212bab5","ios":"levelo://app?vid=aa6ee413-40f9-42e2-a099-5c05f212bab5"},"vehicle_type_id":"4","last_reported":1761239385,"current_range_meters":9600,"station_id":"ce4bgvp2rcd13ifvqcu0","pricing_plan_id":"cebpf4jnsgd1na2vs0mg"},{"bike_id":"a59d1231-e47a-4dfa-9065-4acedf359f8f","system_id":"levelo_inurba_marseille","lat":43.21764,"lon":5.346,"is_reserved":false,"is_disabled":false,"rental_uris":{"android":"levelo://app?vid=a59d1231-e47a-4dfa-9065-4acedf359f8f","ios":"levelo://app?vid=a59d1231-e47a-4dfa-9065-4acedf359f8f"},"vehicle_type_id":"4","last_reported":1761239385,"current_range_meters":9600,"station_id":"st_cvj6r9ubvosntc0bgbag","pricing_plan_id":"cebpf4jnsgd1na2vs0mg"},{"bike_id":"07e992db-48e1-481b-a50e-3b491cfc1455","system_id":"levelo_inurba_marseille","lat":43.31991,"lon":5.41291,"is_reserved":false,"is_disabled":false,"rental_uris":{"android":"levelo://app?vid=07e992db-48e1-481b-a50e-3b491cfc1455","ios":"levelo://app?vid=07e992db-48e1-481b-a50e-3b491cfc1455"},"vehicle_type_id":"4","last_reported":1761239385,"current_range_meters":9600,"station_id":"","pricing_plan_id":"cebpf4jnsgd1na2vs0mg"},{"bike_id":"a6422d6b-6aff-477e-8db1-37cacc215515","system_id":"levelo_inurba_marseille","lat":43.280912,"lon":5.396298,"is_reserved":false,"is_disabled":false,"rental_uris":{"android":"levelo://app?vid=a6422d6b-6aff-477e-8db1-37cacc215515","ios":"levelo://app?vid=a6422d6b-6aff-477e-8db1-37cacc215515"},"vehicle_type_id":"4","last_reported":1761239385,"current_range_meters":9600,"station_id":"ce4bho12rcd13ifvqh2g","pricing_plan_id":"cebpf4jnsgd1na2vs0mg"},{"bike_id":"c8c0fa58-a519-4343-9887-b0c694f93aef","system_id":"levelo_inurba_marseille","lat":43.28861,"lon":5.42512,"is_reserved":false,"is_disabled":false,"rental_uris":{"android":"levelo://app?vid=c8c0fa58-a519-4343-9887-b0c694f93aef","ios":"levelo://app?vid=c8c0fa58-a519-4343-9887-b0c694f93aef"},"vehicle_type_id":"4","last_reported":1761239385,"current_range_meters":10000,"station_id":"st_d3b462108ojc7389ooeg","pricing_plan_id":"cebpf4jnsgd1na2vs0mg"},{"bike_id":"7dc3a787-7b14-4505-8e32-0b28349ba8b9","system_id":"levelo_inurba_marseille","lat":43.287063,"lon":5.362525,"is_reserved":false,"is_disabled":false,"rental_uris":{"android":"levelo://app?vid=7dc3a787-7b14-4505-8e32-0b28349ba8b9","ios":"levelo://app?vid=7dc3a787-7b14-4505-8e32-0b28349ba8b9"},"vehicle_type_id":"4","last_reported":1761239385,"current_range_meters":10000,"station_id":"","pricing_plan_id":"cebpf4jnsgd1na2vs0mg"},{"bike_id":"228e4e45-d43f-495b-9c76-48f194349568","system_id":"levelo_inurba_marseille","lat":43.28622,"lon":5.35107,"is_reserved":false,"is_disabled":false,"rental_uris":{"android":"levelo://app?vid=228e4e45-d43f-495b-9c76-48f194349568","ios":"levelo://app?vid=228e4e45-d43f-495b-9c76-48f194349568"},"vehicle_type_id":"4","last_reported":1761239385,"current_range_meters":10000,"station_id":"ce4bhch2rcd13ifvqeug","pricing_plan_id":"cebpf4jnsgd1na2vs0mg"},{"bike_id":"4cd0b1ff-d707-40f0-a3b2-bf43000347cd","system_id":"levelo_inurba_marseille","lat":43.25077,"lon":5.39483,"is_reserved":false,"is_disabled":false,"rental_uris":{"android":"levelo://app?vid=4cd0b1ff-d707-40f0-a3b2-bf43000347cd","ios":"levelo://app?vid=4cd0b1ff-d707-40f0-a3b2-bf43000347cd"},"vehicle_type_id":"4","last_reported":1761239385,"current_range_meters":10000,"station_id":"ce4bhm12rcd13ifvqgkg","pricing_plan_id":"cebpf4jnsgd1na2vs0mg"},{"bike_id":"1c79a661-3ee8-40a8-a84f-ea99bb7a39d1","system_id":"levelo_inurba_marseille","lat":43.28606,"lon":5.35108,"is_reserved":false,"is_disabled":false,"rental_uris":{"android":"levelo://app?vid=1c79a661-3ee8-40a8-a84f-ea99bb7a39d1","ios":"levelo://app?vid=1c79a661-3ee8-40a8-a84f-ea99bb7a39d1"},"vehicle_type_id":"4","last_reported":1761239385,"current_range_meters":10800,"station_id":"ce4bhch2rcd13ifvqeug","pricing_plan_id":"cebpf4jnsgd1na2vs0mg"},{"bike_id":"9408da9d-240c-4c07-9f46-2e032bf7de62","system_id":"levelo_inurba_marseille","lat":43.3107,"lon":5.38361,"is_reserved":false,"is_disabled":false,"rental_uris":{"android":"levelo://app?vid=9408da9d-240c-4c07-9f46-2e032bf7de62","ios":"levelo://app?vid=9408da9d-240c-4c07-9f46-2e032bf7de62"},"vehicle_type_id":"4","last_reported":1761239385,"current_range_meters":10800,"station_id":"ce4bgv92rcd13ifvqcr0","pricing_plan_id":"cebpf4jnsgd1na2vs0mg"},{"bike_id":"ba28d4b9-93ab-4d17-9bf6-21e9a90ee737","system_id":"levelo_inurba_marseille","lat":43.29625,"lon":5.377261,"is_reserved":false,"is_disabled":false,"rental_uris":{"android":"levelo://app?vid=ba28d4b9-93ab-4d17-9bf6-21e9a90ee737","ios":"levelo://app?vid=ba28d4b9-93ab-4d17-9bf6-21e9a90ee737"},"vehicle_type_id":"4","last_reported":1761239385,"current_range_meters":10800,"station_id":"ce4bgkh2rcd13ifvqbl0","pricing_plan_id":"cebpf4jnsgd1na2vs0mg"},{"bike_id":"2b25520a-8c37-49c9-bbea-a824f999b25f","system_id":"levelo_inurba_marseille","lat":43.28079,"lon":5.39663,"is_reserved":false,"is_disabled":false,"rental_uris":{"android":"levelo://app?vid=2b25520a-8c37-49c9-bbea-a824f999b25f","ios":"levelo://app?vid=2b25520a-8c37-49c9-bbea-a824f999b25f"},"vehicle_type_id":"4","last_reported":1761239385,"current_range_meters":11200,"station_id":"ce4bho12rcd13ifvqh2g","pricing_plan_id":"cebpf4jnsgd1na2vs0mg"},{"bike_id":"d5068560-77d4-4ced-9576-6cd5554143dc","system_id":"levelo_inurba_marseille","lat":43.30329,"lon":5.40437,"is_reserved":false,"is_disabled":false,"rental_uris":{"android":"levelo://app?vid=d5068560-77d4-4ced-9576-6cd5554143dc","ios":"levelo://app?vid=d5068560-77d4-4ced-9576-6cd5554143dc"},"vehicle_type_id":"4","last_reported":1761239385,"current_range_meters":11200,"station_id":"ce4bh012rcd13ifvqd10","pricing_plan_id":"cebpf4jnsgd1na2vs0mg"},{"bike_id":"7782e4fc-cc32-458e-8598-870e72264777","system_id":"levelo_inurba_marseille","lat":43.27945,"lon":5.41047,"is_reserved":false,"is_disabled":false,"rental_uris":{"android":"levelo://app?vid=7782e4fc-cc32-458e-8598-870e72264777","ios":"levelo://app?vid=7782e4fc-cc32-458e-8598-870e72264777"},"vehicle_type_id":"4","last_reported":1761239385,"current_range_meters":11200,"station_id":"ce4bhnp2rcd13ifvqh0g","pricing_plan_id":"cebpf4jnsgd1na2vs0mg"},{"bike_id":"ae2795dd-57c1-4e30-8542-4a8ec057ffa2","system_id":"levelo_inurba_marseille","lat":43.3015,"lon":5.39862,"is_reserved":false,"is_disabled":false,"rental_uris":{"android":"levelo://app?vid=ae2795dd-57c1-4e30-8542-4a8ec057ffa2","ios":"levelo://app?vid=ae2795dd-57c1-4e30-8542-4a8ec057ffa2"},"vehicle_type_id":"4","last_reported":1761239385,"current_range_meters":11200,"station_id":"ce4bh0h2rcd13ifvqd40","pricing_plan_id":"cebpf4jnsgd1na2vs0mg"},{"bike_id":"1156b54a-b9df-4361-b904-039a63bb862a","system_id":"levelo_inurba_marseille","lat":43.284683,"lon":5.38423,"is_reserved":false,"is_disabled":false,"rental_uris":{"android":"levelo://app?vid=1156b54a-b9df-4361-b904-039a63bb862a","ios":"levelo://app?vid=1156b54a-b9df-4361-b904-039a63bb862a"},"vehicle_type_id":"4","last_reported":1761239385,"current_range_meters":11200,"station_id":"ce4bh512rcd13ifvqe3g","pricing_plan_id":"cebpf4jnsgd1na2vs0mg"},{"bike_id":"e16bfc83-e32e-414c-9fdd-3abe8c36c04f","system_id":"levelo_inurba_marseille","lat":43.28395,"lon":5.37524,"is_reserved":false,"is_disabled":true,"rental_uris":{"android":"levelo://app?vid=e16bfc83-e32e-414c-9fdd-3abe8c36c04f","ios":"levelo://app?vid=e16bfc83-e32e-414c-9fdd-3abe8c36c04f"},"vehicle_type_id":"4","last_reported":1761239385,"current_range_meters":11600,"station_id":"ce4bh412rcd13ifvqds0","pricing_plan_id":"cebpf4jnsgd1na2vs0mg"},{"bike_id":"9f8800f6-d3ff-463a-ab7d-68349dbfe077","system_id":"levelo_inurba_marseille","lat":43.295367,"lon":5.385379,"is_reserved":false,"is_disabled":false,"rental_uris":{"android":"levelo://app?vid=9f8800f6-d3ff-463a-ab7d-68349dbfe077","ios":"levelo://app?vid=9f8800f6-d3ff-463a-ab7d-68349dbfe077"},"vehicle_type_id":"4","last_reported":1761239385,"current_range_meters":11600,"station_id":"ce4bgih2rcd13ifvqba0","pricing_plan_id":"cebpf4jnsgd1na2vs0mg"},{"bike_id":"e79d40a3-f3f9-46d4-8420-e5f59bacbd26","system_id":"levelo_inurba_marseille","lat":43.2378,"lon":5.3664,"is_reserved":false,"is_disabled":false,"rental_uris":{"android":"levelo://app?vid=e79d40a3-f3f9-46d4-8420-e5f59bacbd26","ios":"levelo://app?vid=e79d40a3-f3f9-46d4-8420-e5f59bacbd26"},"vehicle_type_id":"4","last_reported":1761239385,"current_range_meters":11600,"station_id":"st_d3nk18o9ro0c73en2l3g","pricing_plan_id":"cebpf4jnsgd1na2vs0mg"},{"bike_id":"fc035a4d-30c4-406f-bfe9-a38abfed02c4","system_id":"levelo_inurba_marseille","lat":43.30205,"lon":5.39478,"is_reserved":false,"is_disabled":false,"rental_uris":{"android":"levelo://app?vid=fc035a4d-30c4-406f-bfe9-a38abfed02c4","ios":"levelo://app?vid=fc035a4d-30c4-406f-bfe9-a38abfed02c4"},"vehicle_type_id":"4","last_reported":1761239385,"current_range_meters":11600,"station_id":"ce4bh0p2rcd13ifvqd70","pricing_plan_id":"cebpf4jnsgd1na2vs0mg"},{"bike_id":"32e7919e-26d8-4f7d-b229-086147816fa4","system_id":"levelo_inurba_marseille","lat":43.301286,"lon":5.38775,"is_reserved":false,"is_disabled":false,"rental_uris":{"android":"levelo://app?vid=32e7919e-26d8-4f7d-b229-086147816fa4","ios":"levelo://app?vid=32e7919e-26d8-4f7d-b229-086147816fa4"},"vehicle_type_id":"4","last_reported":1761239385,"current_range_meters":11600,"station_id":"","pricing_plan_id":"cebpf4jnsgd1na2vs0mg"},{"bike_id":"0e9b72cc-6021-4150-bfcd-88e14592bd1e","system_id":"levelo_inurba_marseille","lat":43.28738,"lon":5.3794,"is_reserved":false,"is_disabled":false,"rental_uris":{"android":"levelo://app?vid=0e9b72cc-6021-4150-bfcd-88e14592bd1e","ios":"levelo://app?vid=0e9b72cc-6021-4150-bfcd-88e14592bd1e"},"vehicle_type_id":"4","last_reported":1761239385,"current_range_meters":11600,"station_id":"ce4bh9p2rcd13ifvqec0","pricing_plan_id":"cebpf4jnsgd1na2vs0mg"},{"bike_id":"d8196cd3-124d-43e8-bd64-ecdd4dd3319c","system_id":"levelo_inurba_marseille","lat":43.31717,"lon":5.424,"is_reserved":false,"is_disabled":false,"rental_uris":{"android":"levelo://app?vid=d8196cd3-124d-43e8-bd64-ecdd4dd3319c","ios":"levelo://app?vid=d8196cd3-124d-43e8-bd64-ecdd4dd3319c"},"vehicle_type_id":"4","last_reported":1761239385,"current_range_meters":11600,"station_id":"ce4bhp92rcd13ifvqhbg","pricing_plan_id":"cebpf4jnsgd1na2vs0mg"},{"bike_id":"155fa070-ebda-4ca8-bb3d-9b92a1aa03ae","system_id":"levelo_inurba_marseille","lat":43.26228,"lon":5.40453,"is_reserved":false,"is_disabled":false,"rental_uris":{"android":"levelo://app?vid=155fa070-ebda-4ca8-bb3d-9b92a1aa03ae","ios":"levelo://app?vid=155fa070-ebda-4ca8-bb3d-9b92a1aa03ae"},"vehicle_type_id":"4","last_reported":1761239385,"current_range_meters":11600,"station_id":"ce4bhmh2rcd13ifvqgmg","pricing_plan_id":"cebpf4jnsgd1na2vs0mg"},{"bike_id":"a460b3c6-e1f0-4f84-9e8a-93f485431aff","system_id":"levelo_inurba_marseille","lat":43.23967,"lon":5.36639,"is_reserved":false,"is_disabled":false,"rental_uris":{"android":"levelo://app?vid=a460b3c6-e1f0-4f84-9e8a-93f485431aff","ios":"levelo://app?vid=a460b3c6-e1f0-4f84-9e8a-93f485431aff"},"vehicle_type_id":"4","last_reported":1761239385,"current_range_meters":12000,"station_id":"ce4bhi12rcd13ifvqfp0","pricing_plan_id":"cebpf4jnsgd1na2vs0mg"},{"bike_id":"f409180a-0b48-4233-bdc5-428fae9d3d05","system_id":"levelo_inurba_marseille","lat":43.2808,"lon":5.39663,"is_reserved":false,"is_disabled":false,"rental_uris":{"android":"levelo://app?vid=f409180a-0b48-4233-bdc5-428fae9d3d05","ios":"levelo://app?vid=f409180a-0b48-4233-bdc5-428fae9d3d05"},"vehicle_type_id":"4","last_reported":1761239385,"current_range_meters":12000,"station_id":"ce4bho12rcd13ifvqh2g","pricing_plan_id":"cebpf4jnsgd1na2vs0mg"},{"bike_id":"1aaa028d-93d8-4a20-8355-7a4b17d8620a","system_id":"levelo_inurba_marseille","lat":43.27634,"lon":5.39221,"is_reserved":false,"is_disabled":false,"rental_uris":{"android":"levelo://app?vid=1aaa028d-93d8-4a20-8355-7a4b17d8620a","ios":"levelo://app?vid=1aaa028d-93d8-4a20-8355-7a4b17d8620a"},"vehicle_type_id":"4","last_reported":1761239385,"current_range_meters":12000,"station_id":"","pricing_plan_id":"cebpf4jnsgd1na2vs0mg"},{"bike_id":"f1c95b44-cca6-4c77-b455-42c6eb4e0708","system_id":"levelo_inurba_marseille","lat":43.27318,"lon":5.390741,"is_reserved":false,"is_disabled":false,"rental_uris":{"android":"levelo://app?vid=f1c95b44-cca6-4c77-b455-42c6eb4e0708","ios":"levelo://app?vid=f1c95b44-cca6-4c77-b455-42c6eb4e0708"},"vehicle_type_id":"4","last_reported":1761239385,"current_range_meters":12000,"station_id":"ce4bhgp2rcd13ifvqfe0","pricing_plan_id":"cebpf4jnsgd1na2vs0mg"},{"bike_id":"323bf2de-3bb4-4b4c-b330-b19ea807dbf5","system_id":"levelo_inurba_marseille","lat":43.32997,"lon":5.42952,"is_reserved":false,"is_disabled":false,"rental_uris":{"android":"levelo://app?vid=323bf2de-3bb4-4b4c-b330-b19ea807dbf5","ios":"levelo://app?vid=323bf2de-3bb4-4b4c-b330-b19ea807dbf5"},"vehicle_type_id":"4","last_reported":1761239385,"current_range_meters":12000,"station_id":"","pricing_plan_id":"cebpf4jnsgd1na2vs0mg"},{"bike_id":"c4ac67d4-4fa7-4d8d-a3ae-a6b847d18659","system_id":"levelo_inurba_marseille","lat":43.294432,"lon":5.397453,"is_reserved":false,"is_disabled":false,"rental_uris":{"android":"levelo://app?vid=c4ac67d4-4fa7-4d8d-a3ae-a6b847d18659","ios":"levelo://app?vid=c4ac67d4-4fa7-4d8d-a3ae-a6b847d18659"},"vehicle_type_id":"4","last_reported":1761239385,"current_range_meters":12000,"station_id":"ce4bh3h2rcd13ifvqdo0","pricing_plan_id":"cebpf4jnsgd1na2vs0mg"},{"bike_id":"26f3524c-84cc-4fd3-8b36-26f9324238a0","system_id":"levelo_inurba_marseille","lat":43.279433,"lon":5.395852,"is_reserved":false,"is_disabled":false,"rental_uris":{"android":"levelo://app?vid=26f3524c-84cc-4fd3-8b36-26f9324238a0","ios":"levelo://app?vid=26f3524c-84cc-4fd3-8b36-26f9324238a0"},"vehicle_type_id":"4","last_reported":1761239385,"current_range_meters":12000,"station_id":"ce4bhf92rcd13ifvqf40","pricing_plan_id":"cebpf4jnsgd1na2vs0mg"},{"bike_id":"fba7f61d-45a6-43b0-a54b-fbc57e1127ab","system_id":"levelo_inurba_marseille","lat":43.30169,"lon":5.36614,"is_reserved":false,"is_disabled":false,"rental_uris":{"android":"levelo://app?vid=fba7f61d-45a6-43b0-a54b-fbc57e1127ab","ios":"levelo://app?vid=fba7f61d-45a6-43b0-a54b-fbc57e1127ab"},"vehicle_type_id":"4","last_reported":1761239385,"current_range_meters":12400,"station_id":"ce4bgrh2rcd13ifvqc8g","pricing_plan_id":"cebpf4jnsgd1na2vs0mg"},{"bike_id":"0198280f-05b0-401c-b9f2-7586dff77353","system_id":"levelo_inurba_marseille","lat":43.28927,"lon":5.37801,"is_reserved":false,"is_disabled":false,"rental_uris":{"android":"levelo://app?vid=0198280f-05b0-401c-b9f2-7586dff77353","ios":"levelo://app?vid=0198280f-05b0-401c-b9f2-7586dff77353"},"vehicle_type_id":"4","last_reported":1761239385,"current_range_meters":12400,"station_id":"","pricing_plan_id":"cebpf4jnsgd1na2vs0mg"},{"bike_id":"2c99278e-9d41-4157-9e6b-6b8313d506a8","system_id":"levelo_inurba_marseille","lat":43.24991,"lon":5.3894,"is_reserved":false,"is_disabled":false,"rental_uris":{"android":"levelo://app?vid=2c99278e-9d41-4157-9e6b-6b8313d506a8","ios":"levelo://app?vid=2c99278e-9d41-4157-9e6b-6b8313d506a8"},"vehicle_type_id":"4","last_reported":1761239385,"current_range_meters":12400,"station_id":"ce4bhgp2rcd13ifvqfd0","pricing_plan_id":"cebpf4jnsgd1na2vs0mg"},{"bike_id":"37560d11-752f-4dd6-b6a9-b41befada001","system_id":"levelo_inurba_marseille","lat":43.27925,"lon":5.3958,"is_reserved":false,"is_disabled":false,"rental_uris":{"android":"levelo://app?vid=37560d11-752f-4dd6-b6a9-b41befada001","ios":"levelo://app?vid=37560d11-752f-4dd6-b6a9-b41befada001"},"vehicle_type_id":"4","last_reported":1761239385,"current_range_meters":12400,"station_id":"ce4bhf92rcd13ifvqf40","pricing_plan_id":"cebpf4jnsgd1na2vs0mg"},{"bike_id":"21055970-a916-451d-8faf-8644e2ac72ad","system_id":"levelo_inurba_marseille","lat":43.24807,"lon":5.3746,"is_reserved":false,"is_disabled":false,"rental_uris":{"android":"levelo://app?vid=21055970-a916-451d-8faf-8644e2ac72ad","ios":"levelo://app?vid=21055970-a916-451d-8faf-8644e2ac72ad"},"vehicle_type_id":"4","last_reported":1761239385,"current_range_meters":12400,"station_id":"ce4bhgh2rcd13ifvqfb0","pricing_plan_id":"cebpf4jnsgd1na2vs0mg"},{"bike_id":"58dae615-536b-45d6-b6d7-859fbdd479eb","system_id":"levelo_inurba_marseille","lat":43.29257,"lon":5.40912,"is_reserved":false,"is_disabled":false,"rental_uris":{"android":"levelo://app?vid=58dae615-536b-45d6-b6d7-859fbdd479eb","ios":"levelo://app?vid=58dae615-536b-45d6-b6d7-859fbdd479eb"},"vehicle_type_id":"4","last_reported":1761239385,"current_range_meters":12800,"station_id":"ce4bh192rcd13ifvqdc0","pricing_plan_id":"cebpf4jnsgd1na2vs0mg"},{"bike_id":"bda3ed1a-3199-4eb8-8229-577855d09dbb","system_id":"levelo_inurba_marseille","lat":43.3163,"lon":5.37876,"is_reserved":false,"is_disabled":false,"rental_uris":{"android":"levelo://app?vid=bda3ed1a-3199-4eb8-8229-577855d09dbb","ios":"levelo://app?vid=bda3ed1a-3199-4eb8-8229-577855d09dbb"},"vehicle_type_id":"4","last_reported":1761239385,"current_range_meters":12800,"station_id":"","pricing_plan_id":"cebpf4jnsgd1na2vs0mg"},{"bike_id":"f30d474c-592d-470d-816b-bf7526dcf767","system_id":"levelo_inurba_marseille","lat":43.308308,"lon":5.38117,"is_reserved":false,"is_disabled":false,"rental_uris":{"android":"levelo://app?vid=f30d474c-592d-470d-816b-bf7526dcf767","ios":"levelo://app?vid=f30d474c-592d-470d-816b-bf7526dcf767"},"vehicle_type_id":"4","last_reported":1761239385,"current_range_meters":12800,"station_id":"ce4bgt12rcd13ifvqce0","pricing_plan_id":"cebpf4jnsgd1na2vs0mg"},{"bike_id":"13ffca06-ecc4-46ee-aa82-6818647126c8","system_id":"levelo_inurba_marseille","lat":43.29889,"lon":5.43684,"is_reserved":false,"is_disabled":false,"rental_uris":{"android":"levelo://app?vid=13ffca06-ecc4-46ee-aa82-6818647126c8","ios":"levelo://app?vid=13ffca06-ecc4-46ee-aa82-6818647126c8"},"vehicle_type_id":"4","last_reported":1761239385,"current_range_meters":12800,"station_id":"ce4bhpp2rcd13ifvqhfg","pricing_plan_id":"cebpf4jnsgd1na2vs0mg"},{"bike_id":"0a735343-9830-4018-a7b8-9b9977228a29","system_id":"levelo_inurba_marseille","lat":43.29315,"lon":5.37216,"is_reserved":false,"is_disabled":false,"rental_uris":{"android":"levelo://app?vid=0a735343-9830-4018-a7b8-9b9977228a29","ios":"levelo://app?vid=0a735343-9830-4018-a7b8-9b9977228a29"},"vehicle_type_id":"4","last_reported":1761239385,"current_range_meters":13600,"station_id":"ce4bgh92rcd13ifvqb40","pricing_plan_id":"cebpf4jnsgd1na2vs0mg"},{"bike_id":"91c55894-f90b-4c6a-9935-1ccd1665a401","system_id":"levelo_inurba_marseille","lat":43.29605,"lon":5.37717,"is_reserved":false,"is_disabled":true,"rental_uris":{"android":"levelo://app?vid=91c55894-f90b-4c6a-9935-1ccd1665a401","ios":"levelo://app?vid=91c55894-f90b-4c6a-9935-1ccd1665a401"},"vehicle_type_id":"4","last_reported":1761239385,"current_range_meters":13600,"station_id":"ce4bgi92rcd13ifvqb90","pricing_plan_id":"cebpf4jnsgd1na2vs0mg"},{"bike_id":"614693d7-2386-45e0-a1d2-8fd657e03d3f","system_id":"levelo_inurba_marseille","lat":43.31121,"lon":5.37777,"is_reserved":false,"is_disabled":false,"rental_uris":{"android":"levelo://app?vid=614693d7-2386-45e0-a1d2-8fd657e03d3f","ios":"levelo://app?vid=614693d7-2386-45e0-a1d2-8fd657e03d3f"},"vehicle_type_id":"4","last_reported":1761239385,"current_range_meters":13600,"station_id":"ce4bgt92rcd13ifvqcg0","pricing_plan_id":"cebpf4jnsgd1na2vs0mg"},{"bike_id":"aeabb0c1-c8ab-4179-aded-4295cae31a69","system_id":"levelo_inurba_marseille","lat":43.30124,"lon":5.39868,"is_reserved":false,"is_disabled":false,"rental_uris":{"android":"levelo://app?vid=aeabb0c1-c8ab-4179-aded-4295cae31a69","ios":"levelo://app?vid=aeabb0c1-c8ab-4179-aded-4295cae31a69"},"vehicle_type_id":"4","last_reported":1761239385,"current_range_meters":13600,"station_id":"ce4bh0h2rcd13ifvqd40","pricing_plan_id":"cebpf4jnsgd1na2vs0mg"},{"bike_id":"ef659fa8-0ee0-41f3-8e63-dc1d08cbd168","system_id":"levelo_inurba_marseille","lat":43.30425,"lon":5.41297,"is_reserved":false,"is_disabled":false,"rental_uris":{"android":"levelo://app?vid=ef659fa8-0ee0-41f3-8e63-dc1d08cbd168","ios":"levelo://app?vid=ef659fa8-0ee0-41f3-8e63-dc1d08cbd168"},"vehicle_type_id":"4","last_reported":1761239385,"current_range_meters":13600,"station_id":"ce4bhop2rcd13ifvqh8g","pricing_plan_id":"cebpf4jnsgd1na2vs0mg"},{"bike_id":"625cd4e8-0101-4f9c-ae6b-5081969768df","system_id":"levelo_inurba_marseille","lat":43.30121,"lon":5.43119,"is_reserved":false,"is_disabled":false,"rental_uris":{"android":"levelo://app?vid=625cd4e8-0101-4f9c-ae6b-5081969768df","ios":"levelo://app?vid=625cd4e8-0101-4f9c-ae6b-5081969768df"},"vehicle_type_id":"4","last_reported":1761239385,"current_range_meters":13600,"station_id":"st_d3js3co5814s73ftftug","pricing_plan_id":"cebpf4jnsgd1na2vs0mg"},{"bike_id":"c035b4ca-011e-4a2d-b292-834cb0e51dae","system_id":"levelo_inurba_marseille","lat":43.290319,"lon":5.375664,"is_reserved":false,"is_disabled":false,"rental_uris":{"android":"levelo://app?vid=c035b4ca-011e-4a2d-b292-834cb0e51dae","ios":"levelo://app?vid=c035b4ca-011e-4a2d-b292-834cb0e51dae"},"vehicle_type_id":"4","last_reported":1761239385,"current_range_meters":13600,"station_id":"ce4bh692rcd13ifvqe90","pricing_plan_id":"cebpf4jnsgd1na2vs0mg"},{"bike_id":"992635c0-37de-4610-aa63-a7f1cc367868","system_id":"levelo_inurba_marseille","lat":43.28615,"lon":5.35107,"is_reserved":false,"is_disabled":false,"rental_uris":{"android":"levelo://app?vid=992635c0-37de-4610-aa63-a7f1cc367868","ios":"levelo://app?vid=992635c0-37de-4610-aa63-a7f1cc367868"},"vehicle_type_id":"4","last_reported":1761239385,"current_range_meters":13600,"station_id":"ce4bhch2rcd13ifvqeug","pricing_plan_id":"cebpf4jnsgd1na2vs0mg"},{"bike_id":"9b9a2df0-7183-49ba-a04f-818d9bf37336","system_id":"levelo_inurba_marseille","lat":43.305406,"lon":5.367065,"is_reserved":false,"is_disabled":false,"rental_uris":{"android":"levelo://app?vid=9b9a2df0-7183-49ba-a04f-818d9bf37336","ios":"levelo://app?vid=9b9a2df0-7183-49ba-a04f-818d9bf37336"},"vehicle_type_id":"4","last_reported":1761239385,"current_range_meters":14000,"station_id":"ce4bh3h2rcd13ifvqdn0","pricing_plan_id":"cebpf4jnsgd1na2vs0mg"},{"bike_id":"24a11c21-7b10-418d-bff0-9d96ea02cfae","system_id":"levelo_inurba_marseille","lat":43.30774,"lon":5.37654,"is_reserved":false,"is_disabled":true,"rental_uris":{"android":"levelo://app?vid=24a11c21-7b10-418d-bff0-9d96ea02cfae","ios":"levelo://app?vid=24a11c21-7b10-418d-bff0-9d96ea02cfae"},"vehicle_type_id":"4","last_reported":1761239385,"current_range_meters":14000,"station_id":"ce4bgv92rcd13ifvqcq0","pricing_plan_id":"cebpf4jnsgd1na2vs0mg"},{"bike_id":"50187627-89e9-492a-b3a9-1aa681dbc2b0","system_id":"levelo_inurba_marseille","lat":43.31718,"lon":5.42398,"is_reserved":false,"is_disabled":false,"rental_uris":{"android":"levelo://app?vid=50187627-89e9-492a-b3a9-1aa681dbc2b0","ios":"levelo://app?vid=50187627-89e9-492a-b3a9-1aa681dbc2b0"},"vehicle_type_id":"4","last_reported":1761239385,"current_range_meters":14000,"station_id":"ce4bhp92rcd13ifvqhbg","pricing_plan_id":"cebpf4jnsgd1na2vs0mg"},{"bike_id":"b284a5b8-145b-4b18-970a-f541b5c0ebef","system_id":"levelo_inurba_marseille","lat":43.28547,"lon":5.39439,"is_reserved":false,"is_disabled":false,"rental_uris":{"android":"levelo://app?vid=b284a5b8-145b-4b18-970a-f541b5c0ebef","ios":"levelo://app?vid=b284a5b8-145b-4b18-970a-f541b5c0ebef"},"vehicle_type_id":"4","last_reported":1761239385,"current_range_meters":14000,"station_id":"","pricing_plan_id":"cebpf4jnsgd1na2vs0mg"},{"bike_id":"f0764640-ec1d-486f-9e1c-59043e66eb76","system_id":"levelo_inurba_marseille","lat":43.21747,"lon":5.34621,"is_reserved":false,"is_disabled":false,"rental_uris":{"android":"levelo://app?vid=f0764640-ec1d-486f-9e1c-59043e66eb76","ios":"levelo://app?vid=f0764640-ec1d-486f-9e1c-59043e66eb76"},"vehicle_type_id":"4","last_reported":1761239385,"current_range_meters":14400,"station_id":"st_cvj6r9ubvosntc0bgbag","pricing_plan_id":"cebpf4jnsgd1na2vs0mg"},{"bike_id":"3c338306-051e-4864-9d5e-73d858887959","system_id":"levelo_inurba_marseille","lat":43.288787,"lon":5.359834,"is_reserved":false,"is_disabled":false,"rental_uris":{"android":"levelo://app?vid=3c338306-051e-4864-9d5e-73d858887959","ios":"levelo://app?vid=3c338306-051e-4864-9d5e-73d858887959"},"vehicle_type_id":"4","last_reported":1761239385,"current_range_meters":14400,"station_id":"","pricing_plan_id":"cebpf4jnsgd1na2vs0mg"},{"bike_id":"565482fc-8bd5-442d-91d1-dcc649172b30","system_id":"levelo_inurba_marseille","lat":43.294333,"lon":5.397498,"is_reserved":false,"is_disabled":false,"rental_uris":{"android":"levelo://app?vid=565482fc-8bd5-442d-91d1-dcc649172b30","ios":"levelo://app?vid=565482fc-8bd5-442d-91d1-dcc649172b30"},"vehicle_type_id":"4","last_reported":1761239385,"current_range_meters":14400,"station_id":"ce4bh3h2rcd13ifvqdo0","pricing_plan_id":"cebpf4jnsgd1na2vs0mg"},{"bike_id":"e7d7b306-7286-4933-81dd-966ea49c6de4","system_id":"levelo_inurba_marseille","lat":43.292988,"lon":5.374633,"is_reserved":false,"is_disabled":false,"rental_uris":{"android":"levelo://app?vid=e7d7b306-7286-4933-81dd-966ea49c6de4","ios":"levelo://app?vid=e7d7b306-7286-4933-81dd-966ea49c6de4"},"vehicle_type_id":"4","last_reported":1761239385,"current_range_meters":14800,"station_id":"","pricing_plan_id":"cebpf4jnsgd1na2vs0mg"},{"bike_id":"e769906a-6115-425c-84a0-aab1fda48d3f","system_id":"levelo_inurba_marseille","lat":43.29651,"lon":5.37675,"is_reserved":false,"is_disabled":false,"rental_uris":{"android":"levelo://app?vid=e769906a-6115-425c-84a0-aab1fda48d3f","ios":"levelo://app?vid=e769906a-6115-425c-84a0-aab1fda48d3f"},"vehicle_type_id":"4","last_reported":1761239385,"current_range_meters":14800,"station_id":"ce4bgi92rcd13ifvqb90","pricing_plan_id":"cebpf4jnsgd1na2vs0mg"},{"bike_id":"658a7ef4-b46e-485b-970d-37c9d87253c1","system_id":"levelo_inurba_marseille","lat":43.295272,"lon":5.385386,"is_reserved":false,"is_disabled":false,"rental_uris":{"android":"levelo://app?vid=658a7ef4-b46e-485b-970d-37c9d87253c1","ios":"levelo://app?vid=658a7ef4-b46e-485b-970d-37c9d87253c1"},"vehicle_type_id":"4","last_reported":1761239385,"current_range_meters":14800,"station_id":"ce4bgih2rcd13ifvqba0","pricing_plan_id":"cebpf4jnsgd1na2vs0mg"},{"bike_id":"b9764ed2-f91a-421e-b54e-d7527bd8af22","system_id":"levelo_inurba_marseille","lat":43.29811,"lon":5.36588,"is_reserved":false,"is_disabled":false,"rental_uris":{"android":"levelo://app?vid=b9764ed2-f91a-421e-b54e-d7527bd8af22","ios":"levelo://app?vid=b9764ed2-f91a-421e-b54e-d7527bd8af22"},"vehicle_type_id":"4","last_reported":1761239385,"current_range_meters":14800,"station_id":"","pricing_plan_id":"cebpf4jnsgd1na2vs0mg"},{"bike_id":"60c030a2-b778-49c3-81e5-f3893c0d1de3","system_id":"levelo_inurba_marseille","lat":43.284088,"lon":5.37513,"is_reserved":false,"is_disabled":false,"rental_uris":{"android":"levelo://app?vid=60c030a2-b778-49c3-81e5-f3893c0d1de3","ios":"levelo://app?vid=60c030a2-b778-49c3-81e5-f3893c0d1de3"},"vehicle_type_id":"4","last_reported":1761239385,"current_range_meters":14800,"station_id":"ce4bh412rcd13ifvqds0","pricing_plan_id":"cebpf4jnsgd1na2vs0mg"},{"bike_id":"8bcacd78-80de-4026-af75-b37ebe3030fe","system_id":"levelo_inurba_marseille","lat":43.334756,"lon":5.404255,"is_reserved":false,"is_disabled":false,"rental_uris":{"android":"levelo://app?vid=8bcacd78-80de-4026-af75-b37ebe3030fe","ios":"levelo://app?vid=8bcacd78-80de-4026-af75-b37ebe3030fe"},"vehicle_type_id":"4","last_reported":1761239385,"current_range_meters":14800,"station_id":"","pricing_plan_id":"cebpf4jnsgd1na2vs0mg"},{"bike_id":"3877e972-fe51-4197-a5b7-860377239f0f","system_id":"levelo_inurba_marseille","lat":43.24171,"lon":5.364,"is_reserved":false,"is_disabled":false,"rental_uris":{"android":"levelo://app?vid=3877e972-fe51-4197-a5b7-860377239f0f","ios":"levelo://app?vid=3877e972-fe51-4197-a5b7-860377239f0f"},"vehicle_type_id":"4","last_reported":1761239385,"current_range_meters":14800,"station_id":"cpo36qri1sfpv3e86is0","pricing_plan_id":"cebpf4jnsgd1na2vs0mg"},{"bike_id":"be267fc3-04b2-4b18-ad7b-b6bb3e0ff304","system_id":"levelo_inurba_marseille","lat":43.29255,"lon":5.38445,"is_reserved":false,"is_disabled":false,"rental_uris":{"android":"levelo://app?vid=be267fc3-04b2-4b18-ad7b-b6bb3e0ff304","ios":"levelo://app?vid=be267fc3-04b2-4b18-ad7b-b6bb3e0ff304"},"vehicle_type_id":"4","last_reported":1761239385,"current_range_meters":15200,"station_id":"ce4bh692rcd13ifvqea0","pricing_plan_id":"cebpf4jnsgd1na2vs0mg"},{"bike_id":"00d52ab2-5bef-4cc6-be48-6712d71843a8","system_id":"levelo_inurba_marseille","lat":43.29255,"lon":5.37647,"is_reserved":false,"is_disabled":false,"rental_uris":{"android":"levelo://app?vid=00d52ab2-5bef-4cc6-be48-6712d71843a8","ios":"levelo://app?vid=00d52ab2-5bef-4cc6-be48-6712d71843a8"},"vehicle_type_id":"4","last_reported":1761239385,"current_range_meters":15200,"station_id":"ce4bgi12rcd13ifvqb80","pricing_plan_id":"cebpf4jnsgd1na2vs0mg"},{"bike_id":"83d833af-e5f6-4303-8e6a-c2cb5afde617","system_id":"levelo_inurba_marseille","lat":43.29264,"lon":5.38443,"is_reserved":false,"is_disabled":false,"rental_uris":{"android":"levelo://app?vid=83d833af-e5f6-4303-8e6a-c2cb5afde617","ios":"levelo://app?vid=83d833af-e5f6-4303-8e6a-c2cb5afde617"},"vehicle_type_id":"4","last_reported":1761239385,"current_range_meters":15200,"station_id":"ce4bh692rcd13ifvqea0","pricing_plan_id":"cebpf4jnsgd1na2vs0mg"},{"bike_id":"c930d888-73ae-4f26-ae07-97652d1535d3","system_id":"levelo_inurba_marseille","lat":43.30142,"lon":5.38783,"is_reserved":false,"is_disabled":false,"rental_uris":{"android":"levelo://app?vid=c930d888-73ae-4f26-ae07-97652d1535d3","ios":"levelo://app?vid=c930d888-73ae-4f26-ae07-97652d1535d3"},"vehicle_type_id":"4","last_reported":1761239385,"current_range_meters":15200,"station_id":"ce4bghh2rcd13ifvqb60","pricing_plan_id":"cebpf4jnsgd1na2vs0mg"},{"bike_id":"2f3a068c-1bff-44a7-a352-fd6d916a00a0","system_id":"levelo_inurba_marseille","lat":43.32366,"lon":5.38886,"is_reserved":false,"is_disabled":false,"rental_uris":{"android":"levelo://app?vid=2f3a068c-1bff-44a7-a352-fd6d916a00a0","ios":"levelo://app?vid=2f3a068c-1bff-44a7-a352-fd6d916a00a0"},"vehicle_type_id":"4","last_reported":1761239385,"current_range_meters":15200,"station_id":"ce4bhqp2rcd13ifvqhog","pricing_plan_id":"cebpf4jnsgd1na2vs0mg"},{"bike_id":"d78eb837-b102-4db4-b967-7e27e7618a15","system_id":"levelo_inurba_marseille","lat":43.2293,"lon":5.35381,"is_reserved":false,"is_disabled":false,"rental_uris":{"android":"levelo://app?vid=d78eb837-b102-4db4-b967-7e27e7618a15","ios":"levelo://app?vid=d78eb837-b102-4db4-b967-7e27e7618a15"},"vehicle_type_id":"4","last_reported":1761239385,"current_range_meters":15200,"station_id":"cpo3532slgdg3j2ikp40","pricing_plan_id":"cebpf4jnsgd1na2vs0mg"},{"bike_id":"f46aa630-032d-4f26-80a5-4e3df40b9df9","system_id":"levelo_inurba_marseille","lat":43.282158,"lon":5.386523,"is_reserved":false,"is_disabled":false,"rental_uris":{"android":"levelo://app?vid=f46aa630-032d-4f26-80a5-4e3df40b9df9","ios":"levelo://app?vid=f46aa630-032d-4f26-80a5-4e3df40b9df9"},"vehicle_type_id":"4","last_reported":1761239385,"current_range_meters":16000,"station_id":"ce4bh4p2rcd13ifvqe0g","pricing_plan_id":"cebpf4jnsgd1na2vs0mg"},{"bike_id":"3e4783b6-28d8-4737-a4ef-6a1b0da02476","system_id":"levelo_inurba_marseille","lat":43.2944,"lon":5.40723,"is_reserved":false,"is_disabled":false,"rental_uris":{"android":"levelo://app?vid=3e4783b6-28d8-4737-a4ef-6a1b0da02476","ios":"levelo://app?vid=3e4783b6-28d8-4737-a4ef-6a1b0da02476"},"vehicle_type_id":"4","last_reported":1761239385,"current_range_meters":16000,"station_id":"","pricing_plan_id":"cebpf4jnsgd1na2vs0mg"},{"bike_id":"316c843e-0abd-49e3-b3e9-3f61b02a5647","system_id":"levelo_inurba_marseille","lat":43.28864,"lon":5.42516,"is_reserved":false,"is_disabled":false,"rental_uris":{"android":"levelo://app?vid=316c843e-0abd-49e3-b3e9-3f61b02a5647","ios":"levelo://app?vid=316c843e-0abd-49e3-b3e9-3f61b02a5647"},"vehicle_type_id":"4","last_reported":1761239385,"current_range_meters":16400,"station_id":"st_d3b462108ojc7389ooeg","pricing_plan_id":"cebpf4jnsgd1na2vs0mg"},{"bike_id":"2172ef7f-240b-4c72-bf8d-26c79cc1f73d","system_id":"levelo_inurba_marseille","lat":43.29897,"lon":5.43692,"is_reserved":false,"is_disabled":false,"rental_uris":{"android":"levelo://app?vid=2172ef7f-240b-4c72-bf8d-26c79cc1f73d","ios":"levelo://app?vid=2172ef7f-240b-4c72-bf8d-26c79cc1f73d"},"vehicle_type_id":"4","last_reported":1761239385,"current_range_meters":16400,"station_id":"ce4bhpp2rcd13ifvqhfg","pricing_plan_id":"cebpf4jnsgd1na2vs0mg"},{"bike_id":"a5e10cb3-d280-4b4c-8176-279276f1fb2a","system_id":"levelo_inurba_marseille","lat":43.25112,"lon":5.40344,"is_reserved":false,"is_disabled":false,"rental_uris":{"android":"levelo://app?vid=a5e10cb3-d280-4b4c-8176-279276f1fb2a","ios":"levelo://app?vid=a5e10cb3-d280-4b4c-8176-279276f1fb2a"},"vehicle_type_id":"4","last_reported":1761239385,"current_range_meters":16400,"station_id":"ce4bhlh2rcd13ifvqgig","pricing_plan_id":"cebpf4jnsgd1na2vs0mg"},{"bike_id":"64e2d1b1-cbfe-4d83-a3bc-85af21c19c0c","system_id":"levelo_inurba_marseille","lat":43.24806,"lon":5.37456,"is_reserved":false,"is_disabled":false,"rental_uris":{"android":"levelo://app?vid=64e2d1b1-cbfe-4d83-a3bc-85af21c19c0c","ios":"levelo://app?vid=64e2d1b1-cbfe-4d83-a3bc-85af21c19c0c"},"vehicle_type_id":"4","last_reported":1761239385,"current_range_meters":16400,"station_id":"ce4bhgh2rcd13ifvqfb0","pricing_plan_id":"cebpf4jnsgd1na2vs0mg"},{"bike_id":"4a9bfd9c-55c4-449e-b803-bf97873a6c30","system_id":"levelo_inurba_marseille","lat":43.30423,"lon":5.39748,"is_reserved":false,"is_disabled":false,"rental_uris":{"android":"levelo://app?vid=4a9bfd9c-55c4-449e-b803-bf97873a6c30","ios":"levelo://app?vid=4a9bfd9c-55c4-449e-b803-bf97873a6c30"},"vehicle_type_id":"4","last_reported":1761239385,"current_range_meters":16400,"station_id":"ce4bh092rcd13ifvqd20","pricing_plan_id":"cebpf4jnsgd1na2vs0mg"},{"bike_id":"73155444-66b0-43ba-9b8f-777412afba8c","system_id":"levelo_inurba_marseille","lat":43.2792,"lon":5.39585,"is_reserved":false,"is_disabled":false,"rental_uris":{"android":"levelo://app?vid=73155444-66b0-43ba-9b8f-777412afba8c","ios":"levelo://app?vid=73155444-66b0-43ba-9b8f-777412afba8c"},"vehicle_type_id":"4","last_reported":1761239385,"current_range_meters":16400,"station_id":"ce4bhf92rcd13ifvqf40","pricing_plan_id":"cebpf4jnsgd1na2vs0mg"},{"bike_id":"d724d31a-06fb-45c5-8669-249dd1d2ed53","system_id":"levelo_inurba_marseille","lat":43.31084,"lon":5.42434,"is_reserved":false,"is_disabled":false,"rental_uris":{"android":"levelo://app?vid=d724d31a-06fb-45c5-8669-249dd1d2ed53","ios":"levelo://app?vid=d724d31a-06fb-45c5-8669-249dd1d2ed53"},"vehicle_type_id":"4","last_reported":1761239385,"current_range_meters":16400,"station_id":"ce4bhp92rcd13ifvqhag","pricing_plan_id":"cebpf4jnsgd1na2vs0mg"},{"bike_id":"f4935a53-acb9-46b7-a6e1-83460665b4c8","system_id":"levelo_inurba_marseille","lat":43.30882,"lon":5.37198,"is_reserved":false,"is_disabled":false,"rental_uris":{"android":"levelo://app?vid=f4935a53-acb9-46b7-a6e1-83460665b4c8","ios":"levelo://app?vid=f4935a53-acb9-46b7-a6e1-83460665b4c8"},"vehicle_type_id":"4","last_reported":1761239385,"current_range_meters":16800,"station_id":"ce4bguh2rcd13ifvqckg","pricing_plan_id":"cebpf4jnsgd1na2vs0mg"},{"bike_id":"b21b6ff6-0929-4acd-a3b0-3f248e63c66d","system_id":"levelo_inurba_marseille","lat":43.32107,"lon":5.36804,"is_reserved":false,"is_disabled":false,"rental_uris":{"android":"levelo://app?vid=b21b6ff6-0929-4acd-a3b0-3f248e63c66d","ios":"levelo://app?vid=b21b6ff6-0929-4acd-a3b0-3f248e63c66d"},"vehicle_type_id":"4","last_reported":1761239385,"current_range_meters":16800,"station_id":"ce4bhrh2rcd13ifvqhug","pricing_plan_id":"cebpf4jnsgd1na2vs0mg"},{"bike_id":"6f039b25-3283-495a-91c3-b4ab2837e67f","system_id":"levelo_inurba_marseille","lat":43.30803,"lon":5.38152,"is_reserved":false,"is_disabled":false,"rental_uris":{"android":"levelo://app?vid=6f039b25-3283-495a-91c3-b4ab2837e67f","ios":"levelo://app?vid=6f039b25-3283-495a-91c3-b4ab2837e67f"},"vehicle_type_id":"4","last_reported":1761239385,"current_range_meters":16800,"station_id":"ce4bgt12rcd13ifvqce0","pricing_plan_id":"cebpf4jnsgd1na2vs0mg"},{"bike_id":"e986eb56-ca00-4dbf-ada0-578bc3d8f529","system_id":"levelo_inurba_marseille","lat":43.27317,"lon":5.41469,"is_reserved":false,"is_disabled":false,"rental_uris":{"android":"levelo://app?vid=e986eb56-ca00-4dbf-ada0-578bc3d8f529","ios":"levelo://app?vid=e986eb56-ca00-4dbf-ada0-578bc3d8f529"},"vehicle_type_id":"4","last_reported":1761239385,"current_range_meters":16800,"station_id":"","pricing_plan_id":"cebpf4jnsgd1na2vs0mg"},{"bike_id":"2bfc3ff7-8602-463e-9387-a6b2eb8e1256","system_id":"levelo_inurba_marseille","lat":43.28431,"lon":5.34999,"is_reserved":false,"is_disabled":false,"rental_uris":{"android":"levelo://app?vid=2bfc3ff7-8602-463e-9387-a6b2eb8e1256","ios":"levelo://app?vid=2bfc3ff7-8602-463e-9387-a6b2eb8e1256"},"vehicle_type_id":"4","last_reported":1761239385,"current_range_meters":16800,"station_id":"ce4bhbh2rcd13ifvqepg","pricing_plan_id":"cebpf4jnsgd1na2vs0mg"},{"bike_id":"f498df0a-aba5-4b97-a940-3d939577633a","system_id":"levelo_inurba_marseille","lat":43.27069,"lon":5.42274,"is_reserved":false,"is_disabled":false,"rental_uris":{"android":"levelo://app?vid=f498df0a-aba5-4b97-a940-3d939577633a","ios":"levelo://app?vid=f498df0a-aba5-4b97-a940-3d939577633a"},"vehicle_type_id":"4","last_reported":1761239385,"current_range_meters":16800,"station_id":"ce4bhk92rcd13ifvqgb0","pricing_plan_id":"cebpf4jnsgd1na2vs0mg"},{"bike_id":"935b2ceb-018b-43cb-a764-974c96fb41b4","system_id":"levelo_inurba_marseille","lat":43.30149,"lon":5.37413,"is_reserved":false,"is_disabled":false,"rental_uris":{"android":"levelo://app?vid=935b2ceb-018b-43cb-a764-974c96fb41b4","ios":"levelo://app?vid=935b2ceb-018b-43cb-a764-974c96fb41b4"},"vehicle_type_id":"4","last_reported":1761239385,"current_range_meters":16800,"station_id":"ce4bgs92rcd13ifvqcc0","pricing_plan_id":"cebpf4jnsgd1na2vs0mg"},{"bike_id":"c12a786b-d447-4373-876a-58fc20f19148","system_id":"levelo_inurba_marseille","lat":43.29904,"lon":5.43691,"is_reserved":false,"is_disabled":false,"rental_uris":{"android":"levelo://app?vid=c12a786b-d447-4373-876a-58fc20f19148","ios":"levelo://app?vid=c12a786b-d447-4373-876a-58fc20f19148"},"vehicle_type_id":"4","last_reported":1761239385,"current_range_meters":16800,"station_id":"ce4bhpp2rcd13ifvqhfg","pricing_plan_id":"cebpf4jnsgd1na2vs0mg"},{"bike_id":"ac4838fb-88b0-4b15-91f4-86515bbb2cd2","system_id":"levelo_inurba_marseille","lat":43.26784,"lon":5.39416,"is_reserved":false,"is_disabled":false,"rental_uris":{"android":"levelo://app?vid=ac4838fb-88b0-4b15-91f4-86515bbb2cd2","ios":"levelo://app?vid=ac4838fb-88b0-4b15-91f4-86515bbb2cd2"},"vehicle_type_id":"4","last_reported":1761239385,"current_range_meters":16800,"station_id":"ce4bhh12rcd13ifvqfg0","pricing_plan_id":"cebpf4jnsgd1na2vs0mg"},{"bike_id":"84c6511c-08a6-4aa3-9d4a-2ba3f27a8985","system_id":"levelo_inurba_marseille","lat":43.2953,"lon":5.38556,"is_reserved":false,"is_disabled":false,"rental_uris":{"android":"levelo://app?vid=84c6511c-08a6-4aa3-9d4a-2ba3f27a8985","ios":"levelo://app?vid=84c6511c-08a6-4aa3-9d4a-2ba3f27a8985"},"vehicle_type_id":"4","last_reported":1761239385,"current_range_meters":16800,"station_id":"ce4bgih2rcd13ifvqba0","pricing_plan_id":"cebpf4jnsgd1na2vs0mg"},{"bike_id":"09a39ead-45a0-4d3d-88ea-697da3e3be32","system_id":"levelo_inurba_marseille","lat":43.28948,"lon":5.36403,"is_reserved":false,"is_disabled":false,"rental_uris":{"android":"levelo://app?vid=09a39ead-45a0-4d3d-88ea-697da3e3be32","ios":"levelo://app?vid=09a39ead-45a0-4d3d-88ea-697da3e3be32"},"vehicle_type_id":"4","last_reported":1761239385,"current_range_meters":16800,"station_id":"ce4bhc92rcd13ifvqetg","pricing_plan_id":"cebpf4jnsgd1na2vs0mg"},{"bike_id":"d9ecb998-ceaa-4a39-8aba-9f0e44069447","system_id":"levelo_inurba_marseille","lat":43.32147,"lon":5.38731,"is_reserved":false,"is_disabled":false,"rental_uris":{"android":"levelo://app?vid=d9ecb998-ceaa-4a39-8aba-9f0e44069447","ios":"levelo://app?vid=d9ecb998-ceaa-4a39-8aba-9f0e44069447"},"vehicle_type_id":"4","last_reported":1761239385,"current_range_meters":16800,"station_id":"","pricing_plan_id":"cebpf4jnsgd1na2vs0mg"},{"bike_id":"d7ee83eb-ff8f-46b0-9925-8298dbedac1a","system_id":"levelo_inurba_marseille","lat":43.32246,"lon":5.38357,"is_reserved":false,"is_disabled":false,"rental_uris":{"android":"levelo://app?vid=d7ee83eb-ff8f-46b0-9925-8298dbedac1a","ios":"levelo://app?vid=d7ee83eb-ff8f-46b0-9925-8298dbedac1a"},"vehicle_type_id":"4","last_reported":1761239385,"current_range_meters":17200,"station_id":"ce4bhr12rcd13ifvqhqg","pricing_plan_id":"cebpf4jnsgd1na2vs0mg"},{"bike_id":"da6756c9-3e13-41c0-831e-95b0b7025fe2","system_id":"levelo_inurba_marseille","lat":43.22929,"lon":5.3538,"is_reserved":false,"is_disabled":false,"rental_uris":{"android":"levelo://app?vid=da6756c9-3e13-41c0-831e-95b0b7025fe2","ios":"levelo://app?vid=da6756c9-3e13-41c0-831e-95b0b7025fe2"},"vehicle_type_id":"4","last_reported":1761239385,"current_range_meters":17200,"station_id":"cpo3532slgdg3j2ikp40","pricing_plan_id":"cebpf4jnsgd1na2vs0mg"},{"bike_id":"d0b50c9c-9f16-44e5-9733-7da65c4c6d1f","system_id":"levelo_inurba_marseille","lat":43.28075,"lon":5.39656,"is_reserved":false,"is_disabled":false,"rental_uris":{"android":"levelo://app?vid=d0b50c9c-9f16-44e5-9733-7da65c4c6d1f","ios":"levelo://app?vid=d0b50c9c-9f16-44e5-9733-7da65c4c6d1f"},"vehicle_type_id":"4","last_reported":1761239385,"current_range_meters":17200,"station_id":"ce4bho12rcd13ifvqh2g","pricing_plan_id":"cebpf4jnsgd1na2vs0mg"},{"bike_id":"2e516aa3-da3f-4cd4-8d7a-1dc8bf5d8ddd","system_id":"levelo_inurba_marseille","lat":43.32091,"lon":5.36757,"is_reserved":false,"is_disabled":false,"rental_uris":{"android":"levelo://app?vid=2e516aa3-da3f-4cd4-8d7a-1dc8bf5d8ddd","ios":"levelo://app?vid=2e516aa3-da3f-4cd4-8d7a-1dc8bf5d8ddd"},"vehicle_type_id":"4","last_reported":1761239385,"current_range_meters":17200,"station_id":"ce4bhrh2rcd13ifvqhug","pricing_plan_id":"cebpf4jnsgd1na2vs0mg"},{"bike_id":"dfa2d06c-dd1b-471a-a02e-739e0499ef79","system_id":"levelo_inurba_marseille","lat":43.30347,"lon":5.4188,"is_reserved":false,"is_disabled":false,"rental_uris":{"android":"levelo://app?vid=dfa2d06c-dd1b-471a-a02e-739e0499ef79","ios":"levelo://app?vid=dfa2d06c-dd1b-471a-a02e-739e0499ef79"},"vehicle_type_id":"4","last_reported":1761239385,"current_range_meters":17200,"station_id":"ce4bhop2rcd13ifvqh7g","pricing_plan_id":"cebpf4jnsgd1na2vs0mg"},{"bike_id":"24441694-1b85-40bf-b4cb-e2e4cc4c94d3","system_id":"levelo_inurba_marseille","lat":43.31115,"lon":5.37771,"is_reserved":false,"is_disabled":false,"rental_uris":{"android":"levelo://app?vid=24441694-1b85-40bf-b4cb-e2e4cc4c94d3","ios":"levelo://app?vid=24441694-1b85-40bf-b4cb-e2e4cc4c94d3"},"vehicle_type_id":"4","last_reported":1761239385,"current_range_meters":17200,"station_id":"ce4bgt92rcd13ifvqcg0","pricing_plan_id":"cebpf4jnsgd1na2vs0mg"},{"bike_id":"4f110b29-4168-4b72-b129-8b46ec63f725","system_id":"levelo_inurba_marseille","lat":43.29324,"lon":5.3718,"is_reserved":false,"is_disabled":false,"rental_uris":{"android":"levelo://app?vid=4f110b29-4168-4b72-b129-8b46ec63f725","ios":"levelo://app?vid=4f110b29-4168-4b72-b129-8b46ec63f725"},"vehicle_type_id":"4","last_reported":1761239385,"current_range_meters":17200,"station_id":"ce4bgh92rcd13ifvqb40","pricing_plan_id":"cebpf4jnsgd1na2vs0mg"},{"bike_id":"9a231727-c3e5-4794-a4cd-445c156e387b","system_id":"levelo_inurba_marseille","lat":43.29619,"lon":5.38111,"is_reserved":false,"is_disabled":false,"rental_uris":{"android":"levelo://app?vid=9a231727-c3e5-4794-a4cd-445c156e387b","ios":"levelo://app?vid=9a231727-c3e5-4794-a4cd-445c156e387b"},"vehicle_type_id":"4","last_reported":1761239385,"current_range_meters":17200,"station_id":"ce4bgl12rcd13ifvqbo0","pricing_plan_id":"cebpf4jnsgd1na2vs0mg"},{"bike_id":"bae56401-d86f-4e63-9026-aa146479db4d","system_id":"levelo_inurba_marseille","lat":43.27925,"lon":5.39589,"is_reserved":false,"is_disabled":false,"rental_uris":{"android":"levelo://app?vid=bae56401-d86f-4e63-9026-aa146479db4d","ios":"levelo://app?vid=bae56401-d86f-4e63-9026-aa146479db4d"},"vehicle_type_id":"4","last_reported":1761239385,"current_range_meters":17200,"station_id":"ce4bhf92rcd13ifvqf40","pricing_plan_id":"cebpf4jnsgd1na2vs0mg"},{"bike_id":"e8c76b3b-38b0-4e8c-b513-86de24b98dfa","system_id":"levelo_inurba_marseille","lat":43.29326,"lon":5.38446,"is_reserved":false,"is_disabled":false,"rental_uris":{"android":"levelo://app?vid=e8c76b3b-38b0-4e8c-b513-86de24b98dfa","ios":"levelo://app?vid=e8c76b3b-38b0-4e8c-b513-86de24b98dfa"},"vehicle_type_id":"4","last_reported":1761239385,"current_range_meters":17600,"station_id":"","pricing_plan_id":"cebpf4jnsgd1na2vs0mg"},{"bike_id":"82a6ac02-8c08-4f93-844a-981cd0f715d0","system_id":"levelo_inurba_marseille","lat":43.25526,"lon":5.37693,"is_reserved":false,"is_disabled":false,"rental_uris":{"android":"levelo://app?vid=82a6ac02-8c08-4f93-844a-981cd0f715d0","ios":"levelo://app?vid=82a6ac02-8c08-4f93-844a-981cd0f715d0"},"vehicle_type_id":"4","last_reported":1761239385,"current_range_meters":17600,"station_id":"ce4bhh12rcd13ifvqff0","pricing_plan_id":"cebpf4jnsgd1na2vs0mg"},{"bike_id":"f98272e2-777c-44c7-a06c-55a3d2e52bc0","system_id":"levelo_inurba_marseille","lat":43.29529,"lon":5.38549,"is_reserved":false,"is_disabled":false,"rental_uris":{"android":"levelo://app?vid=f98272e2-777c-44c7-a06c-55a3d2e52bc0","ios":"levelo://app?vid=f98272e2-777c-44c7-a06c-55a3d2e52bc0"},"vehicle_type_id":"4","last_reported":1761239385,"current_range_meters":17600,"station_id":"ce4bgih2rcd13ifvqba0","pricing_plan_id":"cebpf4jnsgd1na2vs0mg"},{"bike_id":"b228616f-5f0b-4a75-89e5-1242880f0499","system_id":"levelo_inurba_marseille","lat":43.25335,"lon":5.42179,"is_reserved":false,"is_disabled":false,"rental_uris":{"android":"levelo://app?vid=b228616f-5f0b-4a75-89e5-1242880f0499","ios":"levelo://app?vid=b228616f-5f0b-4a75-89e5-1242880f0499"},"vehicle_type_id":"4","last_reported":1761239385,"current_range_meters":17600,"station_id":"st_d2m65c5bi1j21697t3ng","pricing_plan_id":"cebpf4jnsgd1na2vs0mg"},{"bike_id":"25ef6bfd-5685-430f-bc95-c25987a4c195","system_id":"levelo_inurba_marseille","lat":43.29683,"lon":5.37309,"is_reserved":false,"is_disabled":false,"rental_uris":{"android":"levelo://app?vid=25ef6bfd-5685-430f-bc95-c25987a4c195","ios":"levelo://app?vid=25ef6bfd-5685-430f-bc95-c25987a4c195"},"vehicle_type_id":"4","last_reported":1761239385,"current_range_meters":17600,"station_id":"ce4bgk12rcd13ifvqbj0","pricing_plan_id":"cebpf4jnsgd1na2vs0mg"},{"bike_id":"aaeaeda8-d0ed-4afc-8c92-7ca55eda3dd1","system_id":"levelo_inurba_marseille","lat":43.29192,"lon":5.3931,"is_reserved":false,"is_disabled":false,"rental_uris":{"android":"levelo://app?vid=aaeaeda8-d0ed-4afc-8c92-7ca55eda3dd1","ios":"levelo://app?vid=aaeaeda8-d0ed-4afc-8c92-7ca55eda3dd1"},"vehicle_type_id":"4","last_reported":1761239385,"current_range_meters":17600,"station_id":"ce4bh192rcd13ifvqdd0","pricing_plan_id":"cebpf4jnsgd1na2vs0mg"},{"bike_id":"502fea4f-6102-44b9-b43f-52dd65266bfd","system_id":"levelo_inurba_marseille","lat":43.30591,"lon":5.39369,"is_reserved":false,"is_disabled":false,"rental_uris":{"android":"levelo://app?vid=502fea4f-6102-44b9-b43f-52dd65266bfd","ios":"levelo://app?vid=502fea4f-6102-44b9-b43f-52dd65266bfd"},"vehicle_type_id":"4","last_reported":1761239385,"current_range_meters":17600,"station_id":"ce4bh0p2rcd13ifvqd80","pricing_plan_id":"cebpf4jnsgd1na2vs0mg"},{"bike_id":"1c0b1d4c-2beb-42ff-910a-4fdd5967db21","system_id":"levelo_inurba_marseille","lat":43.28364,"lon":5.38101,"is_reserved":false,"is_disabled":false,"rental_uris":{"android":"levelo://app?vid=1c0b1d4c-2beb-42ff-910a-4fdd5967db21","ios":"levelo://app?vid=1c0b1d4c-2beb-42ff-910a-4fdd5967db21"},"vehicle_type_id":"4","last_reported":1761239385,"current_range_meters":17600,"station_id":"ce4bh412rcd13ifvqdr0","pricing_plan_id":"cebpf4jnsgd1na2vs0mg"},{"bike_id":"87b07aa1-1cef-47f0-b2e2-6940c4d0c375","system_id":"levelo_inurba_marseille","lat":43.29566,"lon":5.37496,"is_reserved":false,"is_disabled":false,"rental_uris":{"android":"levelo://app?vid=87b07aa1-1cef-47f0-b2e2-6940c4d0c375","ios":"levelo://app?vid=87b07aa1-1cef-47f0-b2e2-6940c4d0c375"},"vehicle_type_id":"4","last_reported":1761239385,"current_range_meters":18000,"station_id":"ce4bgh92rcd13ifvqb50","pricing_plan_id":"cebpf4jnsgd1na2vs0mg"},{"bike_id":"6ad94c7c-f971-4222-85a8-89768338d6b1","system_id":"levelo_inurba_marseille","lat":43.30637,"lon":5.40102,"is_reserved":false,"is_disabled":false,"rental_uris":{"android":"levelo://app?vid=6ad94c7c-f971-4222-85a8-89768338d6b1","ios":"levelo://app?vid=6ad94c7c-f971-4222-85a8-89768338d6b1"},"vehicle_type_id":"4","last_reported":1761239385,"current_range_meters":18000,"station_id":"ce4bh112rcd13ifvqda0","pricing_plan_id":"cebpf4jnsgd1na2vs0mg"},{"bike_id":"f8c755d7-1bb8-4fcd-bb3f-74aeb49951cc","system_id":"levelo_inurba_marseille","lat":43.31371,"lon":5.37908,"is_reserved":false,"is_disabled":false,"rental_uris":{"android":"levelo://app?vid=f8c755d7-1bb8-4fcd-bb3f-74aeb49951cc","ios":"levelo://app?vid=f8c755d7-1bb8-4fcd-bb3f-74aeb49951cc"},"vehicle_type_id":"4","last_reported":1761239385,"current_range_meters":18000,"station_id":"","pricing_plan_id":"cebpf4jnsgd1na2vs0mg"},{"bike_id":"75552eb5-38a2-43ca-9291-cacb859b6f73","system_id":"levelo_inurba_marseille","lat":43.284215,"lon":5.349847,"is_reserved":false,"is_disabled":false,"rental_uris":{"android":"levelo://app?vid=75552eb5-38a2-43ca-9291-cacb859b6f73","ios":"levelo://app?vid=75552eb5-38a2-43ca-9291-cacb859b6f73"},"vehicle_type_id":"4","last_reported":1761239385,"current_range_meters":18000,"station_id":"","pricing_plan_id":"cebpf4jnsgd1na2vs0mg"},{"bike_id":"0c216ec5-2d75-4ee4-a223-b0d23bee74b5","system_id":"levelo_inurba_marseille","lat":43.2464,"lon":5.389,"is_reserved":false,"is_disabled":false,"rental_uris":{"android":"levelo://app?vid=0c216ec5-2d75-4ee4-a223-b0d23bee74b5","ios":"levelo://app?vid=0c216ec5-2d75-4ee4-a223-b0d23bee74b5"},"vehicle_type_id":"4","last_reported":1761239385,"current_range_meters":18000,"station_id":"ce4bhg12rcd13ifvqf60","pricing_plan_id":"cebpf4jnsgd1na2vs0mg"},{"bike_id":"2a38ccd6-cd1f-4334-ba24-1d75d0150e1d","system_id":"levelo_inurba_marseille","lat":43.31119,"lon":5.37773,"is_reserved":false,"is_disabled":false,"rental_uris":{"android":"levelo://app?vid=2a38ccd6-cd1f-4334-ba24-1d75d0150e1d","ios":"levelo://app?vid=2a38ccd6-cd1f-4334-ba24-1d75d0150e1d"},"vehicle_type_id":"4","last_reported":1761239385,"current_range_meters":18000,"station_id":"ce4bgt92rcd13ifvqcg0","pricing_plan_id":"cebpf4jnsgd1na2vs0mg"},{"bike_id":"838666e5-2714-446d-ae4c-bd5110614283","system_id":"levelo_inurba_marseille","lat":43.30312,"lon":5.36906,"is_reserved":false,"is_disabled":false,"rental_uris":{"android":"levelo://app?vid=838666e5-2714-446d-ae4c-bd5110614283","ios":"levelo://app?vid=838666e5-2714-446d-ae4c-bd5110614283"},"vehicle_type_id":"4","last_reported":1761239385,"current_range_meters":18000,"station_id":"ce4bgqh2rcd13ifvqc5g","pricing_plan_id":"cebpf4jnsgd1na2vs0mg"},{"bike_id":"a74641a8-51db-4909-b514-90bb97160441","system_id":"levelo_inurba_marseille","lat":43.28149,"lon":5.42639,"is_reserved":false,"is_disabled":false,"rental_uris":{"android":"levelo://app?vid=a74641a8-51db-4909-b514-90bb97160441","ios":"levelo://app?vid=a74641a8-51db-4909-b514-90bb97160441"},"vehicle_type_id":"4","last_reported":1761239385,"current_range_meters":18000,"station_id":"ce4bhnh2rcd13ifvqgug","pricing_plan_id":"cebpf4jnsgd1na2vs0mg"},{"bike_id":"059837e3-f9a9-45a6-b38b-3998c0571542","system_id":"levelo_inurba_marseille","lat":43.30316,"lon":5.36912,"is_reserved":false,"is_disabled":false,"rental_uris":{"android":"levelo://app?vid=059837e3-f9a9-45a6-b38b-3998c0571542","ios":"levelo://app?vid=059837e3-f9a9-45a6-b38b-3998c0571542"},"vehicle_type_id":"4","last_reported":1761239385,"current_range_meters":18800,"station_id":"ce4bgqh2rcd13ifvqc5g","pricing_plan_id":"cebpf4jnsgd1na2vs0mg"},{"bike_id":"44e0a8a6-bc77-498e-a04d-8008ed565f49","system_id":"levelo_inurba_marseille","lat":43.28423,"lon":5.37524,"is_reserved":false,"is_disabled":false,"rental_uris":{"android":"levelo://app?vid=44e0a8a6-bc77-498e-a04d-8008ed565f49","ios":"levelo://app?vid=44e0a8a6-bc77-498e-a04d-8008ed565f49"},"vehicle_type_id":"4","last_reported":1761239385,"current_range_meters":18800,"station_id":"ce4bh412rcd13ifvqds0","pricing_plan_id":"cebpf4jnsgd1na2vs0mg"},{"bike_id":"a0a3e2e6-f6d9-4e27-a510-a2aa84830e78","system_id":"levelo_inurba_marseille","lat":43.30864,"lon":5.37866,"is_reserved":false,"is_disabled":false,"rental_uris":{"android":"levelo://app?vid=a0a3e2e6-f6d9-4e27-a510-a2aa84830e78","ios":"levelo://app?vid=a0a3e2e6-f6d9-4e27-a510-a2aa84830e78"},"vehicle_type_id":"4","last_reported":1761239385,"current_range_meters":18800,"station_id":"","pricing_plan_id":"cebpf4jnsgd1na2vs0mg"},{"bike_id":"47f09c0c-92a9-44eb-a23c-69934b3ff134","system_id":"levelo_inurba_marseille","lat":43.30121,"lon":5.43116,"is_reserved":false,"is_disabled":false,"rental_uris":{"android":"levelo://app?vid=47f09c0c-92a9-44eb-a23c-69934b3ff134","ios":"levelo://app?vid=47f09c0c-92a9-44eb-a23c-69934b3ff134"},"vehicle_type_id":"4","last_reported":1761239385,"current_range_meters":18800,"station_id":"st_d3js3co5814s73ftftug","pricing_plan_id":"cebpf4jnsgd1na2vs0mg"},{"bike_id":"a75af8e3-69c3-42b8-bc29-1ea20aa4c2ea","system_id":"levelo_inurba_marseille","lat":43.24804,"lon":5.37459,"is_reserved":false,"is_disabled":false,"rental_uris":{"android":"levelo://app?vid=a75af8e3-69c3-42b8-bc29-1ea20aa4c2ea","ios":"levelo://app?vid=a75af8e3-69c3-42b8-bc29-1ea20aa4c2ea"},"vehicle_type_id":"4","last_reported":1761239385,"current_range_meters":18800,"station_id":"ce4bhgh2rcd13ifvqfb0","pricing_plan_id":"cebpf4jnsgd1na2vs0mg"},{"bike_id":"5d4e5f99-71bd-470a-81a5-ffbd469f7523","system_id":"levelo_inurba_marseille","lat":43.28541,"lon":5.44109,"is_reserved":false,"is_disabled":false,"rental_uris":{"android":"levelo://app?vid=5d4e5f99-71bd-470a-81a5-ffbd469f7523","ios":"levelo://app?vid=5d4e5f99-71bd-470a-81a5-ffbd469f7523"},"vehicle_type_id":"4","last_reported":1761239385,"current_range_meters":18800,"station_id":"st_d3j3df2ikq2c7380ej80","pricing_plan_id":"cebpf4jnsgd1na2vs0mg"},{"bike_id":"77124793-d73a-43ea-8840-1a1b5476fa23","system_id":"levelo_inurba_marseille","lat":43.31053,"lon":5.38081,"is_reserved":false,"is_disabled":false,"rental_uris":{"android":"levelo://app?vid=77124793-d73a-43ea-8840-1a1b5476fa23","ios":"levelo://app?vid=77124793-d73a-43ea-8840-1a1b5476fa23"},"vehicle_type_id":"4","last_reported":1761239385,"current_range_meters":18800,"station_id":"","pricing_plan_id":"cebpf4jnsgd1na2vs0mg"},{"bike_id":"ec9665a2-32ab-42b2-9bdf-cf94d158a9c2","system_id":"levelo_inurba_marseille","lat":43.3015,"lon":5.3696,"is_reserved":false,"is_disabled":false,"rental_uris":{"android":"levelo://app?vid=ec9665a2-32ab-42b2-9bdf-cf94d158a9c2","ios":"levelo://app?vid=ec9665a2-32ab-42b2-9bdf-cf94d158a9c2"},"vehicle_type_id":"4","last_reported":1761239385,"current_range_meters":19200,"station_id":"","pricing_plan_id":"cebpf4jnsgd1na2vs0mg"},{"bike_id":"75ff4f49-276b-4df4-a7bb-3e5589fb454f","system_id":"levelo_inurba_marseille","lat":43.286812,"lon":5.373822,"is_reserved":false,"is_disabled":false,"rental_uris":{"android":"levelo://app?vid=75ff4f49-276b-4df4-a7bb-3e5589fb454f","ios":"levelo://app?vid=75ff4f49-276b-4df4-a7bb-3e5589fb454f"},"vehicle_type_id":"4","last_reported":1761239385,"current_range_meters":19200,"station_id":"ce4bh3p2rcd13ifvqdq0","pricing_plan_id":"cebpf4jnsgd1na2vs0mg"},{"bike_id":"26a21c6c-886c-451a-b966-9f898f9458ba","system_id":"levelo_inurba_marseille","lat":43.27946,"lon":5.4105,"is_reserved":false,"is_disabled":false,"rental_uris":{"android":"levelo://app?vid=26a21c6c-886c-451a-b966-9f898f9458ba","ios":"levelo://app?vid=26a21c6c-886c-451a-b966-9f898f9458ba"},"vehicle_type_id":"4","last_reported":1761239385,"current_range_meters":19200,"station_id":"ce4bhnp2rcd13ifvqh0g","pricing_plan_id":"cebpf4jnsgd1na2vs0mg"},{"bike_id":"d0f143b9-9dd9-4e21-952c-e15fa4d3070b","system_id":"levelo_inurba_marseille","lat":43.31688,"lon":5.40483,"is_reserved":false,"is_disabled":false,"rental_uris":{"android":"levelo://app?vid=d0f143b9-9dd9-4e21-952c-e15fa4d3070b","ios":"levelo://app?vid=d0f143b9-9dd9-4e21-952c-e15fa4d3070b"},"vehicle_type_id":"4","last_reported":1761239385,"current_range_meters":19200,"station_id":"ce4bh012rcd13ifvqd00","pricing_plan_id":"cebpf4jnsgd1na2vs0mg"},{"bike_id":"49ef5ff9-1ac7-4fd9-ae08-dfe48aa7e6ca","system_id":"levelo_inurba_marseille","lat":43.284838,"lon":5.385627,"is_reserved":false,"is_disabled":false,"rental_uris":{"android":"levelo://app?vid=49ef5ff9-1ac7-4fd9-ae08-dfe48aa7e6ca","ios":"levelo://app?vid=49ef5ff9-1ac7-4fd9-ae08-dfe48aa7e6ca"},"vehicle_type_id":"4","last_reported":1761239385,"current_range_meters":19600,"station_id":"ce4bh512rcd13ifvqe3g","pricing_plan_id":"cebpf4jnsgd1na2vs0mg"},{"bike_id":"2e843dd6-c23d-4b19-977a-d73ec858f73f","system_id":"levelo_inurba_marseille","lat":43.28107,"lon":5.3784,"is_reserved":false,"is_disabled":false,"rental_uris":{"android":"levelo://app?vid=2e843dd6-c23d-4b19-977a-d73ec858f73f","ios":"levelo://app?vid=2e843dd6-c23d-4b19-977a-d73ec858f73f"},"vehicle_type_id":"4","last_reported":1761239385,"current_range_meters":19600,"station_id":"ce4bha12rcd13ifvqee0","pricing_plan_id":"cebpf4jnsgd1na2vs0mg"},{"bike_id":"249615da-bae2-4bb3-9506-b338b9fb85b7","system_id":"levelo_inurba_marseille","lat":43.2971,"lon":5.37706,"is_reserved":false,"is_disabled":true,"rental_uris":{"android":"levelo://app?vid=249615da-bae2-4bb3-9506-b338b9fb85b7","ios":"levelo://app?vid=249615da-bae2-4bb3-9506-b338b9fb85b7"},"vehicle_type_id":"4","last_reported":1761239385,"current_range_meters":19600,"station_id":"ce4bgkh2rcd13ifvqbl0","pricing_plan_id":"cebpf4jnsgd1na2vs0mg"},{"bike_id":"e3d85fee-7a8a-42c9-ac54-709a27c32d03","system_id":"levelo_inurba_marseille","lat":43.31142,"lon":5.37752,"is_reserved":false,"is_disabled":false,"rental_uris":{"android":"levelo://app?vid=e3d85fee-7a8a-42c9-ac54-709a27c32d03","ios":"levelo://app?vid=e3d85fee-7a8a-42c9-ac54-709a27c32d03"},"vehicle_type_id":"4","last_reported":1761239385,"current_range_meters":19600,"station_id":"ce4bgt92rcd13ifvqcg0","pricing_plan_id":"cebpf4jnsgd1na2vs0mg"},{"bike_id":"e4d9d28d-de5d-4eba-b45f-0315c6967297","system_id":"levelo_inurba_marseille","lat":43.2506,"lon":5.39525,"is_reserved":false,"is_disabled":false,"rental_uris":{"android":"levelo://app?vid=e4d9d28d-de5d-4eba-b45f-0315c6967297","ios":"levelo://app?vid=e4d9d28d-de5d-4eba-b45f-0315c6967297"},"vehicle_type_id":"4","last_reported":1761239385,"current_range_meters":19600,"station_id":"ce4bhm12rcd13ifvqgkg","pricing_plan_id":"cebpf4jnsgd1na2vs0mg"},{"bike_id":"e6562d15-8b27-482b-8546-528681942110","system_id":"levelo_inurba_marseille","lat":43.281438,"lon":5.392114,"is_reserved":false,"is_disabled":false,"rental_uris":{"android":"levelo://app?vid=e6562d15-8b27-482b-8546-528681942110","ios":"levelo://app?vid=e6562d15-8b27-482b-8546-528681942110"},"vehicle_type_id":"4","last_reported":1761239385,"current_range_meters":19600,"station_id":"ce4bh3h2rcd13ifvqdo0","pricing_plan_id":"cebpf4jnsgd1na2vs0mg"},{"bike_id":"41e21137-1e1a-4741-b195-1b98dc043b19","system_id":"levelo_inurba_marseille","lat":43.23974,"lon":5.36624,"is_reserved":false,"is_disabled":false,"rental_uris":{"android":"levelo://app?vid=41e21137-1e1a-4741-b195-1b98dc043b19","ios":"levelo://app?vid=41e21137-1e1a-4741-b195-1b98dc043b19"},"vehicle_type_id":"4","last_reported":1761239385,"current_range_meters":20000,"station_id":"ce4bhi12rcd13ifvqfp0","pricing_plan_id":"cebpf4jnsgd1na2vs0mg"},{"bike_id":"a27ebce7-79a8-40f3-a73f-dbd936899410","system_id":"levelo_inurba_marseille","lat":43.30656,"lon":5.400815,"is_reserved":false,"is_disabled":false,"rental_uris":{"android":"levelo://app?vid=a27ebce7-79a8-40f3-a73f-dbd936899410","ios":"levelo://app?vid=a27ebce7-79a8-40f3-a73f-dbd936899410"},"vehicle_type_id":"4","last_reported":1761239385,"current_range_meters":20000,"station_id":"ce4bh112rcd13ifvqda0","pricing_plan_id":"cebpf4jnsgd1na2vs0mg"},{"bike_id":"bc18986f-720e-4fb1-8991-ac16da488f75","system_id":"levelo_inurba_marseille","lat":43.27917,"lon":5.39583,"is_reserved":false,"is_disabled":false,"rental_uris":{"android":"levelo://app?vid=bc18986f-720e-4fb1-8991-ac16da488f75","ios":"levelo://app?vid=bc18986f-720e-4fb1-8991-ac16da488f75"},"vehicle_type_id":"4","last_reported":1761239385,"current_range_meters":20000,"station_id":"ce4bhf92rcd13ifvqf40","pricing_plan_id":"cebpf4jnsgd1na2vs0mg"},{"bike_id":"4f5c5045-2f2c-4ab7-ad8b-eeba1d52fe66","system_id":"levelo_inurba_marseille","lat":43.32222,"lon":5.36869,"is_reserved":false,"is_disabled":false,"rental_uris":{"android":"levelo://app?vid=4f5c5045-2f2c-4ab7-ad8b-eeba1d52fe66","ios":"levelo://app?vid=4f5c5045-2f2c-4ab7-ad8b-eeba1d52fe66"},"vehicle_type_id":"4","last_reported":1761239385,"current_range_meters":20000,"station_id":"","pricing_plan_id":"cebpf4jnsgd1na2vs0mg"},{"bike_id":"e1cdfba6-566c-4d7c-92f9-7ef71c293716","system_id":"levelo_inurba_marseille","lat":43.2955,"lon":5.39959,"is_reserved":false,"is_disabled":false,"rental_uris":{"android":"levelo://app?vid=e1cdfba6-566c-4d7c-92f9-7ef71c293716","ios":"levelo://app?vid=e1cdfba6-566c-4d7c-92f9-7ef71c293716"},"vehicle_type_id":"4","last_reported":1761239385,"current_range_meters":20000,"station_id":"ce4bh312rcd13ifvqdj0","pricing_plan_id":"cebpf4jnsgd1na2vs0mg"},{"bike_id":"2087b646-f196-4c5f-b880-88d0df9000fb","system_id":"levelo_inurba_marseille","lat":43.28151,"lon":5.42628,"is_reserved":false,"is_disabled":false,"rental_uris":{"android":"levelo://app?vid=2087b646-f196-4c5f-b880-88d0df9000fb","ios":"levelo://app?vid=2087b646-f196-4c5f-b880-88d0df9000fb"},"vehicle_type_id":"4","last_reported":1761239385,"current_range_meters":20000,"station_id":"ce4bhnh2rcd13ifvqgug","pricing_plan_id":"cebpf4jnsgd1na2vs0mg"},{"bike_id":"17abd5fe-ab65-4d9a-a075-d66c955af73d","system_id":"levelo_inurba_marseille","lat":43.27922,"lon":5.39596,"is_reserved":false,"is_disabled":false,"rental_uris":{"android":"levelo://app?vid=17abd5fe-ab65-4d9a-a075-d66c955af73d","ios":"levelo://app?vid=17abd5fe-ab65-4d9a-a075-d66c955af73d"},"vehicle_type_id":"4","last_reported":1761239385,"current_range_meters":20000,"station_id":"ce4bhf92rcd13ifvqf40","pricing_plan_id":"cebpf4jnsgd1na2vs0mg"},{"bike_id":"9ae01fb1-ec3b-4073-ab21-37ea7e38f9b7","system_id":"levelo_inurba_marseille","lat":43.295288,"lon":5.385438,"is_reserved":false,"is_disabled":false,"rental_uris":{"android":"levelo://app?vid=9ae01fb1-ec3b-4073-ab21-37ea7e38f9b7","ios":"levelo://app?vid=9ae01fb1-ec3b-4073-ab21-37ea7e38f9b7"},"vehicle_type_id":"4","last_reported":1761239385,"current_range_meters":20000,"station_id":"ce4bgih2rcd13ifvqba0","pricing_plan_id":"cebpf4jnsgd1na2vs0mg"},{"bike_id":"c27d7108-ac14-4e0c-86fe-8bccbac91d86","system_id":"levelo_inurba_marseille","lat":43.32053,"lon":5.41542,"is_reserved":false,"is_disabled":false,"rental_uris":{"android":"levelo://app?vid=c27d7108-ac14-4e0c-86fe-8bccbac91d86","ios":"levelo://app?vid=c27d7108-ac14-4e0c-86fe-8bccbac91d86"},"vehicle_type_id":"4","last_reported":1761239385,"current_range_meters":20000,"station_id":"ce4bhq92rcd13ifvqhkg","pricing_plan_id":"cebpf4jnsgd1na2vs0mg"},{"bike_id":"d216f701-d039-416d-8464-d2169e2c53fe","system_id":"levelo_inurba_marseille","lat":43.22952,"lon":5.35375,"is_reserved":false,"is_disabled":false,"rental_uris":{"android":"levelo://app?vid=d216f701-d039-416d-8464-d2169e2c53fe","ios":"levelo://app?vid=d216f701-d039-416d-8464-d2169e2c53fe"},"vehicle_type_id":"4","last_reported":1761239385,"current_range_meters":20000,"station_id":"cpo3532slgdg3j2ikp40","pricing_plan_id":"cebpf4jnsgd1na2vs0mg"},{"bike_id":"bc87dea4-79a3-4ed3-aacd-3d26accd672a","system_id":"levelo_inurba_marseille","lat":43.290351,"lon":5.386609,"is_reserved":false,"is_disabled":false,"rental_uris":{"android":"levelo://app?vid=bc87dea4-79a3-4ed3-aacd-3d26accd672a","ios":"levelo://app?vid=bc87dea4-79a3-4ed3-aacd-3d26accd672a"},"vehicle_type_id":"4","last_reported":1761239385,"current_range_meters":20400,"station_id":"","pricing_plan_id":"cebpf4jnsgd1na2vs0mg"},{"bike_id":"6e295ab7-f0e2-4d21-8300-40d2686084be","system_id":"levelo_inurba_marseille","lat":43.29557,"lon":5.39973,"is_reserved":false,"is_disabled":false,"rental_uris":{"android":"levelo://app?vid=6e295ab7-f0e2-4d21-8300-40d2686084be","ios":"levelo://app?vid=6e295ab7-f0e2-4d21-8300-40d2686084be"},"vehicle_type_id":"4","last_reported":1761239385,"current_range_meters":20400,"station_id":"ce4bh312rcd13ifvqdj0","pricing_plan_id":"cebpf4jnsgd1na2vs0mg"},{"bike_id":"6769fcd2-e333-4c49-99ab-572ebfdb8301","system_id":"levelo_inurba_marseille","lat":43.309467,"lon":5.390253,"is_reserved":false,"is_disabled":false,"rental_uris":{"android":"levelo://app?vid=6769fcd2-e333-4c49-99ab-572ebfdb8301","ios":"levelo://app?vid=6769fcd2-e333-4c49-99ab-572ebfdb8301"},"vehicle_type_id":"4","last_reported":1761239385,"current_range_meters":20400,"station_id":"ce4bgup2rcd13ifvqco0","pricing_plan_id":"cebpf4jnsgd1na2vs0mg"},{"bike_id":"00a7d9f8-532c-4f9e-8e4a-6000d6773475","system_id":"levelo_inurba_marseille","lat":43.25001,"lon":5.38931,"is_reserved":false,"is_disabled":false,"rental_uris":{"android":"levelo://app?vid=00a7d9f8-532c-4f9e-8e4a-6000d6773475","ios":"levelo://app?vid=00a7d9f8-532c-4f9e-8e4a-6000d6773475"},"vehicle_type_id":"4","last_reported":1761239385,"current_range_meters":20400,"station_id":"ce4bhgp2rcd13ifvqfd0","pricing_plan_id":"cebpf4jnsgd1na2vs0mg"},{"bike_id":"7d9cf9a4-74db-4c68-87e4-5d3947f2e7cf","system_id":"levelo_inurba_marseille","lat":43.23966,"lon":5.36636,"is_reserved":false,"is_disabled":false,"rental_uris":{"android":"levelo://app?vid=7d9cf9a4-74db-4c68-87e4-5d3947f2e7cf","ios":"levelo://app?vid=7d9cf9a4-74db-4c68-87e4-5d3947f2e7cf"},"vehicle_type_id":"4","last_reported":1761239385,"current_range_meters":20400,"station_id":"ce4bhi12rcd13ifvqfp0","pricing_plan_id":"cebpf4jnsgd1na2vs0mg"},{"bike_id":"17585014-36d0-4d96-ab97-1812e8c7fbe7","system_id":"levelo_inurba_marseille","lat":43.31667,"lon":5.38241,"is_reserved":false,"is_disabled":false,"rental_uris":{"android":"levelo://app?vid=17585014-36d0-4d96-ab97-1812e8c7fbe7","ios":"levelo://app?vid=17585014-36d0-4d96-ab97-1812e8c7fbe7"},"vehicle_type_id":"4","last_reported":1761239385,"current_range_meters":20400,"station_id":"","pricing_plan_id":"cebpf4jnsgd1na2vs0mg"},{"bike_id":"75972296-868e-47a0-af07-e35c998af060","system_id":"levelo_inurba_marseille","lat":43.30953,"lon":5.39052,"is_reserved":false,"is_disabled":false,"rental_uris":{"android":"levelo://app?vid=75972296-868e-47a0-af07-e35c998af060","ios":"levelo://app?vid=75972296-868e-47a0-af07-e35c998af060"},"vehicle_type_id":"4","last_reported":1761239385,"current_range_meters":20400,"station_id":"ce4bgup2rcd13ifvqco0","pricing_plan_id":"cebpf4jnsgd1na2vs0mg"},{"bike_id":"75eebb0f-2447-4bf8-b846-45b5b359059b","system_id":"levelo_inurba_marseille","lat":43.33769,"lon":5.37496,"is_reserved":false,"is_disabled":false,"rental_uris":{"android":"levelo://app?vid=75eebb0f-2447-4bf8-b846-45b5b359059b","ios":"levelo://app?vid=75eebb0f-2447-4bf8-b846-45b5b359059b"},"vehicle_type_id":"4","last_reported":1761239385,"current_range_meters":20400,"station_id":"","pricing_plan_id":"cebpf4jnsgd1na2vs0mg"},{"bike_id":"bf553cbf-0654-402b-8db1-6cf6538844c3","system_id":"levelo_inurba_marseille","lat":43.28472,"lon":5.3844,"is_reserved":false,"is_disabled":false,"rental_uris":{"android":"levelo://app?vid=bf553cbf-0654-402b-8db1-6cf6538844c3","ios":"levelo://app?vid=bf553cbf-0654-402b-8db1-6cf6538844c3"},"vehicle_type_id":"4","last_reported":1761239385,"current_range_meters":20400,"station_id":"ce4bh512rcd13ifvqe3g","pricing_plan_id":"cebpf4jnsgd1na2vs0mg"},{"bike_id":"97829350-3397-4c3b-9fed-4d10cba64681","system_id":"levelo_inurba_marseille","lat":43.28858,"lon":5.3934,"is_reserved":false,"is_disabled":false,"rental_uris":{"android":"levelo://app?vid=97829350-3397-4c3b-9fed-4d10cba64681","ios":"levelo://app?vid=97829350-3397-4c3b-9fed-4d10cba64681"},"vehicle_type_id":"4","last_reported":1761239385,"current_range_meters":20800,"station_id":"ce4bh2p2rcd13ifvqdi0","pricing_plan_id":"cebpf4jnsgd1na2vs0mg"},{"bike_id":"f2e02df1-d0d6-4e71-a245-a7604e3f9858","system_id":"levelo_inurba_marseille","lat":43.28121,"lon":5.37832,"is_reserved":false,"is_disabled":false,"rental_uris":{"android":"levelo://app?vid=f2e02df1-d0d6-4e71-a245-a7604e3f9858","ios":"levelo://app?vid=f2e02df1-d0d6-4e71-a245-a7604e3f9858"},"vehicle_type_id":"4","last_reported":1761239385,"current_range_meters":20800,"station_id":"ce4bha12rcd13ifvqee0","pricing_plan_id":"cebpf4jnsgd1na2vs0mg"},{"bike_id":"be88eaa4-e674-44f9-9199-3901304dd644","system_id":"levelo_inurba_marseille","lat":43.21694,"lon":5.34594,"is_reserved":false,"is_disabled":false,"rental_uris":{"android":"levelo://app?vid=be88eaa4-e674-44f9-9199-3901304dd644","ios":"levelo://app?vid=be88eaa4-e674-44f9-9199-3901304dd644"},"vehicle_type_id":"4","last_reported":1761239385,"current_range_meters":20800,"station_id":"st_cvj6r9ubvosntc0bgbag","pricing_plan_id":"cebpf4jnsgd1na2vs0mg"},{"bike_id":"d5352b28-e991-46e5-886a-0714bdb8f488","system_id":"levelo_inurba_marseille","lat":43.23051,"lon":5.35502,"is_reserved":false,"is_disabled":false,"rental_uris":{"android":"levelo://app?vid=d5352b28-e991-46e5-886a-0714bdb8f488","ios":"levelo://app?vid=d5352b28-e991-46e5-886a-0714bdb8f488"},"vehicle_type_id":"4","last_reported":1761239385,"current_range_meters":20800,"station_id":"cpo3342slgdg3j2ifvpg","pricing_plan_id":"cebpf4jnsgd1na2vs0mg"},{"bike_id":"57b679af-c7e3-4aef-aaf7-dad7584c2820","system_id":"levelo_inurba_marseille","lat":43.25531,"lon":5.37675,"is_reserved":false,"is_disabled":false,"rental_uris":{"android":"levelo://app?vid=57b679af-c7e3-4aef-aaf7-dad7584c2820","ios":"levelo://app?vid=57b679af-c7e3-4aef-aaf7-dad7584c2820"},"vehicle_type_id":"4","last_reported":1761239385,"current_range_meters":20800,"station_id":"ce4bhh12rcd13ifvqff0","pricing_plan_id":"cebpf4jnsgd1na2vs0mg"},{"bike_id":"505e3cf9-e587-4a2c-8170-e3f1279949ce","system_id":"levelo_inurba_marseille","lat":43.28989,"lon":5.36632,"is_reserved":false,"is_disabled":false,"rental_uris":{"android":"levelo://app?vid=505e3cf9-e587-4a2c-8170-e3f1279949ce","ios":"levelo://app?vid=505e3cf9-e587-4a2c-8170-e3f1279949ce"},"vehicle_type_id":"4","last_reported":1761239385,"current_range_meters":20800,"station_id":"","pricing_plan_id":"cebpf4jnsgd1na2vs0mg"},