{"last_updated":1761217787,"ttl":60,"version":"2.2","data":{"bikes":[{"bike_id":"563add41-42b5-4a40-a2f4-2f753e2062a9","system_id":"levelo_inurba_marseille","lat":43.28787,"lon":5.36348,"is_reserved":false,"is_disabled":false,"rental_uris":{"android":"levelo://app?vid=563add41-42b5-4a40-a2f4-2f753e2062a9","ios":"levelo://app?vid=563add41-42b5-4a40-a2f4-2f753e2062a9"},"vehicle_type_id":"4","last_reported":1761217787,"current_range_meters":2800,"station_id":"","pricing_plan_id":"cebpf4jnsgd1na2vs0mg"},{"bike_id":"cbe42659-6e1d-41de-bd2c-d511048f77e4","system_id":"levelo_inurba_marseille","lat":43.2973,"lon":5.37694,"is_reserved":false,"is_disabled":false,"rental_uris":{"android":"levelo://app?vid=cbe42659-6e1d-41de-bd2c-d511048f77e4","ios":"levelo://app?vid=cbe42659-6e1d-41de-bd2c-d511048f77e4"},"vehicle_type_id":"4","last_reported":1761217787,"current_range_meters":2800,"station_id":"ce4bgkh2rcd13ifvqbl0","pricing_plan_id":"cebpf4jnsgd1na2vs0mg"},{"bike_id":"6e0bc5eb-53ed-4474-829d-0e130363873d","system_id":"levelo_inurba_marseille","lat":43.29079,"lon":5.37173,"is_reserved":false,"is_disabled":false,"rental_uris":{"android":"levelo://app?vid=6e0bc5eb-53ed-4474-829d-0e130363873d","ios":"levelo://app?vid=6e0bc5eb-53ed-4474-829d-0e130363873d"},"vehicle_type_id":"4","last_reported":1761217787,"current_range_meters":2800,"station_id":"ce4bh5p2rcd13ifvqe4g","pricing_plan_id":"cebpf4jnsgd1na2vs0mg"},{"bike_id":"3d068a7d-8c2c-4f97-8d7d-54140fa95800","system_id":"levelo_inurba_marseille","lat":43.272696,"lon":5.399549,"is_reserved":false,"is_disabled":false,"rental_uris":{"android":"levelo://app?vid=3d068a7d-8c2c-4f97-8d7d-54140fa95800","ios":"levelo://app?vid=3d068a7d-8c2c-4f97-8d7d-54140fa95800"},"vehicle_type_id":"4","last_reported":1761217787,"current_range_meters":2800,"station_id":"","pricing_plan_id":"cebpf4jnsgd1na2vs0mg"},{"bike_id":"f3575346-726e-46e7-b970-ab61ffa36ec6","system_id":"levelo_inurba_marseille","lat":43.28156,"lon":5.42641,"is_reserved":false,"is_disabled":false,"rental_uris":{"android":"levelo://app?vid=f3575346-726e-46e7-b970-ab61ffa36ec6","ios":"levelo://app?vid=f3575346-726e-46e7-b970-ab61ffa36ec6"},"vehicle_type_id":"4","last_reported":1761217787,"current_range_meters":2800,"station_id":"ce4bhnh2rcd13ifvqgug","pricing_plan_id":"cebpf4jnsgd1na2vs0mg"},{"bike_id":"937ba026-66d9-4948-a9a8-bda4c99a1bf7","system_id":"levelo_inurba_marseille","lat":43.320496,"lon":5.415037,"is_reserved":false,"is_disabled":false,"rental_uris":{"android":"levelo://app?vid=937ba026-66d9-4948-a9a8-bda4c99a1bf7","ios":"levelo://app?vid=937ba026-66d9-4948-a9a8-bda4c99a1bf7"},"vehicle_type_id":"4","last_reported":1761217787,"current_range_meters":3600,"station_id":"ce4bhq92rcd13ifvqhkg","pricing_plan_id":"cebpf4jnsgd1na2vs0mg"},{"bike_id":"3201e625-69d5-420e-838c-f4c3f44666ef","system_id":"levelo_inurba_marseille","lat":43.33789,"lon":5.37423,"is_reserved":false,"is_disabled":false,"rental_uris":{"android":"levelo://app?vid=3201e625-69d5-420e-838c-f4c3f44666ef","ios":"levelo://app?vid=3201e625-69d5-420e-838c-f4c3f44666ef"},"vehicle_type_id":"4","last_reported":1761217787,"current_range_meters":3600,"station_id":"","pricing_plan_id":"cebpf4jnsgd1na2vs0mg"},{"bike_id":"da3c5d5d-639d-4a11-88e1-f7b9c2ad220a","system_id":"levelo_inurba_marseille","lat":43.316906,"lon":5.377595,"is_reserved":false,"is_disabled":true,"rental_uris":{"android":"levelo://app?vid=da3c5d5d-639d-4a11-88e1-f7b9c2ad220a","ios":"levelo://app?vid=da3c5d5d-639d-4a11-88e1-f7b9c2ad220a"},"vehicle_type_id":"4","last_reported":1761217787,"current_range_meters":3600,"station_id":"ce4bgth2rcd13ifvqch0","pricing_plan_id":"cebpf4jnsgd1na2vs0mg"},{"bike_id":"80f6aae4-96df-4213-90fb-f7479cd34156","system_id":"levelo_inurba_marseille","lat":43.295663,"lon":5.37523,"is_reserved":false,"is_disabled":false,"rental_uris":{"android":"levelo://app?vid=80f6aae4-96df-4213-90fb-f7479cd34156","ios":"levelo://app?vid=80f6aae4-96df-4213-90fb-f7479cd34156"},"vehicle_type_id":"4","last_reported":1761217787,"current_range_meters":4000,"station_id":"ce4bh292rcd13ifvqdf0","pricing_plan_id":"cebpf4jnsgd1na2vs0mg"},{"bike_id":"bccf50c4-a630-45ca-964c-1ab87c23746a","system_id":"levelo_inurba_marseille","lat":43.27363,"lon":5.362519,"is_reserved":false,"is_disabled":false,"rental_uris":{"android":"levelo://app?vid=bccf50c4-a630-45ca-964c-1ab87c23746a","ios":"levelo://app?vid=bccf50c4-a630-45ca-964c-1ab87c23746a"},"vehicle_type_id":"4","last_reported":1761217787,"current_range_meters":4400,"station_id":"ce4bhbh2rcd13ifvqeo0","pricing_plan_id":"cebpf4jnsgd1na2vs0mg"},{"bike_id":"b7e41c34-cad5-468c-aadc-3ef8a1845b5a","system_id":"levelo_inurba_marseille","lat":43.281613,"lon":5.361202,"is_reserved":false,"is_disabled":false,"rental_uris":{"android":"levelo://app?vid=b7e41c34-cad5-468c-aadc-3ef8a1845b5a","ios":"levelo://app?vid=b7e41c34-cad5-468c-aadc-3ef8a1845b5a"},"vehicle_type_id":"4","last_reported":1761217787,"current_range_meters":4800,"station_id":"","pricing_plan_id":"cebpf4jnsgd1na2vs0mg"},{"bike_id":"c6266f1a-7eb4-43b9-8116-9933fcf8f2e3","system_id":"levelo_inurba_marseille","lat":43.27209,"lon":5.39178,"is_reserved":false,"is_disabled":false,"rental_uris":{"android":"levelo://app?vid=c6266f1a-7eb4-43b9-8116-9933fcf8f2e3","ios":"levelo://app?vid=c6266f1a-7eb4-43b9-8116-9933fcf8f2e3"},"vehicle_type_id":"4","last_reported":1761217787,"current_range_meters":5600,"station_id":"ce4bhhp2rcd13ifvqfm0","pricing_plan_id":"cebpf4jnsgd1na2vs0mg"},{"bike_id":"9cac9c0a-225b-48c9-9d15-c48471f94012","system_id":"levelo_inurba_marseille","lat":43.284149,"lon":5.349891,"is_reserved":false,"is_disabled":false,"rental_uris":{"android":"levelo://app?vid=9cac9c0a-225b-48c9-9d15-c48471f94012","ios":"levelo://app?vid=9cac9c0a-225b-48c9-9d15-c48471f94012"},"vehicle_type_id":"4","last_reported":1761217787,"current_range_meters":5600,"station_id":"ce4bhbh2rcd13ifvqepg","pricing_plan_id":"cebpf4jnsgd1na2vs0mg"},{"bike_id":"ac1df8dc-41e5-4954-977f-6f21ed12d11a","system_id":"levelo_inurba_marseille","lat":43.21747,"lon":5.34614,"is_reserved":false,"is_disabled":false,"rental_uris":{"android":"levelo://app?vid=ac1df8dc-41e5-4954-977f-6f21ed12d11a","ios":"levelo://app?vid=ac1df8dc-41e5-4954-977f-6f21ed12d11a"},"vehicle_type_id":"4","last_reported":1761217787,"current_range_meters":6000,"station_id":"st_cvj6r9ubvosntc0bgbag","pricing_plan_id":"cebpf4jnsgd1na2vs0mg"},{"bike_id":"8303b9e4-804f-4b8a-b412-63d5c39328c5","system_id":"levelo_inurba_marseille","lat":43.292755,"lon":5.36876,"is_reserved":false,"is_disabled":false,"rental_uris":{"android":"levelo://app?vid=8303b9e4-804f-4b8a-b412-63d5c39328c5","ios":"levelo://app?vid=8303b9e4-804f-4b8a-b412-63d5c39328c5"},"vehicle_type_id":"4","last_reported":1761217787,"current_range_meters":6000,"station_id":"ce4bhbp2rcd13ifvqesg","pricing_plan_id":"cebpf4jnsgd1na2vs0mg"},{"bike_id":"bda9897e-3eb3-45a3-9c08-84c9ad4030d3","system_id":"levelo_inurba_marseille","lat":43.2417,"lon":5.36397,"is_reserved":false,"is_disabled":false,"rental_uris":{"android":"levelo://app?vid=bda9897e-3eb3-45a3-9c08-84c9ad4030d3","ios":"levelo://app?vid=bda9897e-3eb3-45a3-9c08-84c9ad4030d3"},"vehicle_type_id":"4","last_reported":1761217787,"current_range_meters":6400,"station_id":"cpo36qri1sfpv3e86is0","pricing_plan_id":"cebpf4jnsgd1na2vs0mg"},{"bike_id":"02f7835e-8895-43db-bc46-dc0659a292d5","system_id":"levelo_inurba_marseille","lat":43.29331,"lon":5.3707,"is_reserved":false,"is_disabled":false,"rental_uris":{"android":"levelo://app?vid=02f7835e-8895-43db-bc46-dc0659a292d5","ios":"levelo://app?vid=02f7835e-8895-43db-bc46-dc0659a292d5"},"vehicle_type_id":"4","last_reported":1761217787,"current_range_meters":6400,"station_id":"","pricing_plan_id":"cebpf4jnsgd1na2vs0mg"},{"bike_id":"3de35322-0741-470d-b565-7d8eb37ff45d","system_id":"levelo_inurba_marseille","lat":43.22549,"lon":5.4162,"is_reserved":false,"is_disabled":false,"rental_uris":{"android":"levelo://app?vid=3de35322-0741-470d-b565-7d8eb37ff45d","ios":"levelo://app?vid=3de35322-0741-470d-b565-7d8eb37ff45d"},"vehicle_type_id":"4","last_reported":1761217787,"current_range_meters":6400,"station_id":"st_d2o4gvlbi1j2169b742g","pricing_plan_id":"cebpf4jnsgd1na2vs0mg"},{"bike_id":"ce8262b4-3d9a-4baf-8f65-916f4d8db503","system_id":"levelo_inurba_marseille","lat":43.30382,"lon":5.4248,"is_reserved":false,"is_disabled":false,"rental_uris":{"android":"levelo://app?vid=ce8262b4-3d9a-4baf-8f65-916f4d8db503","ios":"levelo://app?vid=ce8262b4-3d9a-4baf-8f65-916f4d8db503"},"vehicle_type_id":"4","last_reported":1761217787,"current_range_meters":6400,"station_id":"ce4bhoh2rcd13ifvqh6g","pricing_plan_id":"cebpf4jnsgd1na2vs0mg"},{"bike_id":"00fa2ca5-3cc0-4e3a-a17f-f84e2b4b8016","system_id":"levelo_inurba_marseille","lat":43.24809,"lon":5.37462,"is_reserved":false,"is_disabled":false,"rental_uris":{"android":"levelo://app?vid=00fa2ca5-3cc0-4e3a-a17f-f84e2b4b8016","ios":"levelo://app?vid=00fa2ca5-3cc0-4e3a-a17f-f84e2b4b8016"},"vehicle_type_id":"4","last_reported":1761217787,"current_range_meters":6800,"station_id":"ce4bhgh2rcd13ifvqfb0","pricing_plan_id":"cebpf4jnsgd1na2vs0mg"},{"bike_id":"b84a3bf6-1814-4e42-8908-6a87c3d4644c","system_id":"levelo_inurba_marseille","lat":43.317257,"lon":5.423929,"is_reserved":false,"is_disabled":false,"rental_uris":{"android":"levelo://app?vid=b84a3bf6-1814-4e42-8908-6a87c3d4644c","ios":"levelo://app?vid=b84a3bf6-1814-4e42-8908-6a87c3d4644c"},"vehicle_type_id":"4","last_reported":1761217787,"current_range_meters":6800,"station_id":"ce4bhp92rcd13ifvqhbg","pricing_plan_id":"cebpf4jnsgd1na2vs0mg"},{"bike_id":"c4432b73-0adb-475d-83b3-18f6e7bba483","system_id":"levelo_inurba_marseille","lat":43.32128,"lon":5.40817,"is_reserved":false,"is_disabled":true,"rental_uris":{"android":"levelo://app?vid=c4432b73-0adb-475d-83b3-18f6e7bba483","ios":"levelo://app?vid=c4432b73-0adb-475d-83b3-18f6e7bba483"},"vehicle_type_id":"4","last_reported":1761217787,"current_range_meters":6800,"station_id":"","pricing_plan_id":"cebpf4jnsgd1na2vs0mg"},{"bike_id":"a59d1231-e47a-4dfa-9065-4acedf359f8f","system_id":"levelo_inurba_marseille","lat":43.217478,"lon":5.34605,"is_reserved":false,"is_disabled":false,"rental_uris":{"android":"levelo://app?vid=a59d1231-e47a-4dfa-9065-4acedf359f8f","ios":"levelo://app?vid=a59d1231-e47a-4dfa-9065-4acedf359f8f"},"vehicle_type_id":"4","last_reported":1761217787,"current_range_meters":7200,"station_id":"","pricing_plan_id":"cebpf4jnsgd1na2vs0mg"},{"bike_id":"4dba0a01-d868-4829-b5fe-24838f0446d1","system_id":"levelo_inurba_marseille","lat":43.290253,"lon":5.386357,"is_reserved":false,"is_disabled":false,"rental_uris":{"android":"levelo://app?vid=4dba0a01-d868-4829-b5fe-24838f0446d1","ios":"levelo://app?vid=4dba0a01-d868-4829-b5fe-24838f0446d1"},"vehicle_type_id":"4","last_reported":1761217787,"current_range_meters":7200,"station_id":"ce4bh4p2rcd13ifvqe0g","pricing_plan_id":"cebpf4jnsgd1na2vs0mg"},{"bike_id":"add1f2b8-affe-4bf7-8ba9-8ce23bc1cdd6","system_id":"levelo_inurba_marseille","lat":43.309109,"lon":5.368432,"is_reserved":false,"is_disabled":false,"rental_uris":{"android":"levelo://app?vid=add1f2b8-affe-4bf7-8ba9-8ce23bc1cdd6","ios":"levelo://app?vid=add1f2b8-affe-4bf7-8ba9-8ce23bc1cdd6"},"vehicle_type_id":"4","last_reported":1761217787,"current_range_meters":7200,"station_id":"ce4bgn92rcd13ifvqbvg","pricing_plan_id":"cebpf4jnsgd1na2vs0mg"},{"bike_id":"280647fb-9a96-4362-a7fb-0f8aa1f94c66","system_id":"levelo_inurba_marseille","lat":43.29716,"lon":5.37699,"is_reserved":false,"is_disabled":false,"rental_uris":{"android":"levelo://app?vid=280647fb-9a96-4362-a7fb-0f8aa1f94c66","ios":"levelo://app?vid=280647fb-9a96-4362-a7fb-0f8aa1f94c66"},"vehicle_type_id":"4","last_reported":1761217787,"current_range_meters":8000,"station_id":"ce4bgkh2rcd13ifvqbl0","pricing_plan_id":"cebpf4jnsgd1na2vs0mg"},{"bike_id":"44b1ad6b-1a98-4e37-a182-f58df3beccce","system_id":"levelo_inurba_marseille","lat":43.21191,"lon":5.35074,"is_reserved":false,"is_disabled":false,"rental_uris":{"android":"levelo://app?vid=44b1ad6b-1a98-4e37-a182-f58df3beccce","ios":"levelo://app?vid=44b1ad6b-1a98-4e37-a182-f58df3beccce"},"vehicle_type_id":"4","last_reported":1761217787,"current_range_meters":8000,"station_id":"","pricing_plan_id":"cebpf4jnsgd1na2vs0mg"},{"bike_id":"3e1fbb52-9d7c-457a-a18c-113cbc58722a","system_id":"levelo_inurba_marseille","lat":43.31605,"lon":5.38176,"is_reserved":false,"is_disabled":false,"rental_uris":{"android":"levelo://app?vid=3e1fbb52-9d7c-457a-a18c-113cbc58722a","ios":"levelo://app?vid=3e1fbb52-9d7c-457a-a18c-113cbc58722a"},"vehicle_type_id":"4","last_reported":1761217787,"current_range_meters":8000,"station_id":"","pricing_plan_id":"cebpf4jnsgd1na2vs0mg"},{"bike_id":"fbe4a195-a362-4d09-a18d-ebe4116ffebe","system_id":"levelo_inurba_marseille","lat":43.30308,"lon":5.36892,"is_reserved":false,"is_disabled":false,"rental_uris":{"android":"levelo://app?vid=fbe4a195-a362-4d09-a18d-ebe4116ffebe","ios":"levelo://app?vid=fbe4a195-a362-4d09-a18d-ebe4116ffebe"},"vehicle_type_id":"4","last_reported":1761217787,"current_range_meters":8000,"station_id":"ce4bgqh2rcd13ifvqc5g","pricing_plan_id":"cebpf4jnsgd1na2vs0mg"},{"bike_id":"92fa36a9-2276-479c-899d-2eb9525d83bc","system_id":"levelo_inurba_marseille","lat":43.29195,"lon":5.39324,"is_reserved":false,"is_disabled":false,"rental_uris":{"android":"levelo://app?vid=92fa36a9-2276-479c-899d-2eb9525d83bc","ios":"levelo://app?vid=92fa36a9-2276-479c-899d-2eb9525d83bc"},"vehicle_type_id":"4","last_reported":1761217787,"current_range_meters":8400,"station_id":"ce4bh192rcd13ifvqdd0","pricing_plan_id":"cebpf4jnsgd1na2vs0mg"},{"bike_id":"82576c51-8b9b-43eb-aa43-fc4a18c9ea5b","system_id":"levelo_inurba_marseille","lat":43.21757,"lon":5.34601,"is_reserved":false,"is_disabled":false,"rental_uris":{"android":"levelo://app?vid=82576c51-8b9b-43eb-aa43-fc4a18c9ea5b","ios":"levelo://app?vid=82576c51-8b9b-43eb-aa43-fc4a18c9ea5b"},"vehicle_type_id":"4","last_reported":1761217787,"current_range_meters":8400,"station_id":"st_cvj6r9ubvosntc0bgbag","pricing_plan_id":"cebpf4jnsgd1na2vs0mg"},{"bike_id":"fe5786a2-3cbd-4e30-8ddf-18df8db18ee6","system_id":"levelo_inurba_marseille","lat":43.29961,"lon":5.37215,"is_reserved":false,"is_disabled":false,"rental_uris":{"android":"levelo://app?vid=fe5786a2-3cbd-4e30-8ddf-18df8db18ee6","ios":"levelo://app?vid=fe5786a2-3cbd-4e30-8ddf-18df8db18ee6"},"vehicle_type_id":"4","last_reported":1761217787,"current_range_meters":8400,"station_id":"ce4bgr92rcd13ifvqc7g","pricing_plan_id":"cebpf4jnsgd1na2vs0mg"},{"bike_id":"ff3ba630-dc04-489c-b422-8721b9ddc862","system_id":"levelo_inurba_marseille","lat":43.29833,"lon":5.37761,"is_reserved":false,"is_disabled":false,"rental_uris":{"android":"levelo://app?vid=ff3ba630-dc04-489c-b422-8721b9ddc862","ios":"levelo://app?vid=ff3ba630-dc04-489c-b422-8721b9ddc862"},"vehicle_type_id":"4","last_reported":1761217787,"current_range_meters":8400,"station_id":"","pricing_plan_id":"cebpf4jnsgd1na2vs0mg"},{"bike_id":"43f66d0b-b766-4af5-8bb8-f40b62baf807","system_id":"levelo_inurba_marseille","lat":43.25579,"lon":5.38225,"is_reserved":false,"is_disabled":true,"rental_uris":{"android":"levelo://app?vid=43f66d0b-b766-4af5-8bb8-f40b62baf807","ios":"levelo://app?vid=43f66d0b-b766-4af5-8bb8-f40b62baf807"},"vehicle_type_id":"4","last_reported":1761217787,"current_range_meters":8800,"station_id":"ce4bhih2rcd13ifvqfs0","pricing_plan_id":"cebpf4jnsgd1na2vs0mg"},{"bike_id":"003db9b9-c4d5-45c4-90c5-058ef9d1e11f","system_id":"levelo_inurba_marseille","lat":43.303814,"lon":5.424823,"is_reserved":false,"is_disabled":false,"rental_uris":{"android":"levelo://app?vid=003db9b9-c4d5-45c4-90c5-058ef9d1e11f","ios":"levelo://app?vid=003db9b9-c4d5-45c4-90c5-058ef9d1e11f"},"vehicle_type_id":"4","last_reported":1761217787,"current_range_meters":8800,"station_id":"ce4bhoh2rcd13ifvqh6g","pricing_plan_id":"cebpf4jnsgd1na2vs0mg"},{"bike_id":"396aaa55-c35f-41fc-8337-93bac25c9dde","system_id":"levelo_inurba_marseille","lat":43.29237,"lon":5.35557,"is_reserved":false,"is_disabled":false,"rental_uris":{"android":"levelo://app?vid=396aaa55-c35f-41fc-8337-93bac25c9dde","ios":"levelo://app?vid=396aaa55-c35f-41fc-8337-93bac25c9dde"},"vehicle_type_id":"4","last_reported":1761217787,"current_range_meters":8800,"station_id":"","pricing_plan_id":"cebpf4jnsgd1na2vs0mg"},{"bike_id":"6f4dc2c9-b9e5-4695-9e3c-dbf904c8fa13","system_id":"levelo_inurba_marseille","lat":43.21191,"lon":5.35066,"is_reserved":false,"is_disabled":false,"rental_uris":{"android":"levelo://app?vid=6f4dc2c9-b9e5-4695-9e3c-dbf904c8fa13","ios":"levelo://app?vid=6f4dc2c9-b9e5-4695-9e3c-dbf904c8fa13"},"vehicle_type_id":"4","last_reported":1761217787,"current_range_meters":8800,"station_id":"st_cvj6sg6p6f1abm77japg","pricing_plan_id":"cebpf4jnsgd1na2vs0mg"},{"bike_id":"37d01fc8-4b4d-4652-a489-1254eb9d4c80","system_id":"levelo_inurba_marseille","lat":43.34076,"lon":5.40411,"is_reserved":false,"is_disabled":false,"rental_uris":{"android":"levelo://app?vid=37d01fc8-4b4d-4652-a489-1254eb9d4c80","ios":"levelo://app?vid=37d01fc8-4b4d-4652-a489-1254eb9d4c80"},"vehicle_type_id":"4","last_reported":1761217787,"current_range_meters":8800,"station_id":"","pricing_plan_id":"cebpf4jnsgd1na2vs0mg"},{"bike_id":"9880e93c-d19c-40b1-b34a-e56695334737","system_id":"levelo_inurba_marseille","lat":43.307338,"lon":5.424435,"is_reserved":false,"is_disabled":false,"rental_uris":{"android":"levelo://app?vid=9880e93c-d19c-40b1-b34a-e56695334737","ios":"levelo://app?vid=9880e93c-d19c-40b1-b34a-e56695334737"},"vehicle_type_id":"4","last_reported":1761217787,"current_range_meters":8800,"station_id":"st_cvj6ca6bvosntc0bfgr0","pricing_plan_id":"cebpf4jnsgd1na2vs0mg"},{"bike_id":"f11297b4-b982-48a7-bc40-b4e5242b1d8d","system_id":"levelo_inurba_marseille","lat":43.23152,"lon":5.437178,"is_reserved":false,"is_disabled":false,"rental_uris":{"android":"levelo://app?vid=f11297b4-b982-48a7-bc40-b4e5242b1d8d","ios":"levelo://app?vid=f11297b4-b982-48a7-bc40-b4e5242b1d8d"},"vehicle_type_id":"4","last_reported":1761217787,"current_range_meters":9200,"station_id":"ce4bhmp2rcd13ifvqgog","pricing_plan_id":"cebpf4jnsgd1na2vs0mg"},{"bike_id":"d42d39ef-db04-480b-a6dc-a0e68e1b517a","system_id":"levelo_inurba_marseille","lat":43.28612,"lon":5.37054,"is_reserved":false,"is_disabled":false,"rental_uris":{"android":"levelo://app?vid=d42d39ef-db04-480b-a6dc-a0e68e1b517a","ios":"levelo://app?vid=d42d39ef-db04-480b-a6dc-a0e68e1b517a"},"vehicle_type_id":"4","last_reported":1761217787,"current_range_meters":9200,"station_id":"ce4bht12rcd13ifvqi60","pricing_plan_id":"cebpf4jnsgd1na2vs0mg"},{"bike_id":"6cedbdd4-d4fa-45a0-a47a-6925bf95118c","system_id":"levelo_inurba_marseille","lat":43.2293,"lon":5.35374,"is_reserved":false,"is_disabled":false,"rental_uris":{"android":"levelo://app?vid=6cedbdd4-d4fa-45a0-a47a-6925bf95118c","ios":"levelo://app?vid=6cedbdd4-d4fa-45a0-a47a-6925bf95118c"},"vehicle_type_id":"4","last_reported":1761217787,"current_range_meters":9200,"station_id":"cpo3532slgdg3j2ikp40","pricing_plan_id":"cebpf4jnsgd1na2vs0mg"},{"bike_id":"aa5c39ca-5467-4d85-a1f8-b790dbb0979e","system_id":"levelo_inurba_marseille","lat":43.3042,"lon":5.36976,"is_reserved":false,"is_disabled":false,"rental_uris":{"android":"levelo://app?vid=aa5c39ca-5467-4d85-a1f8-b790dbb0979e","ios":"levelo://app?vid=aa5c39ca-5467-4d85-a1f8-b790dbb0979e"},"vehicle_type_id":"4","last_reported":1761217787,"current_range_meters":9200,"station_id":"","pricing_plan_id":"cebpf4jnsgd1na2vs0mg"},{"bike_id":"3aa8c3e6-230d-4538-ac39-2b944611f536","system_id":"levelo_inurba_marseille","lat":43.313553,"lon":5.367092,"is_reserved":false,"is_disabled":true,"rental_uris":{"android":"levelo://app?vid=3aa8c3e6-230d-4538-ac39-2b944611f536","ios":"levelo://app?vid=3aa8c3e6-230d-4538-ac39-2b944611f536"},"vehicle_type_id":"4","last_reported":1761217787,"current_range_meters":9200,"station_id":"ce4bgr92rcd13ifvqc6g","pricing_plan_id":"cebpf4jnsgd1na2vs0mg"},{"bike_id":"a6614cde-99f2-494d-b822-2a3b6001f756","system_id":"levelo_inurba_marseille","lat":43.29039,"lon":5.37561,"is_reserved":false,"is_disabled":false,"rental_uris":{"android":"levelo://app?vid=a6614cde-99f2-494d-b822-2a3b6001f756","ios":"levelo://app?vid=a6614cde-99f2-494d-b822-2a3b6001f756"},"vehicle_type_id":"4","last_reported":1761217787,"current_range_meters":9200,"station_id":"ce4bh692rcd13ifvqe90","pricing_plan_id":"cebpf4jnsgd1na2vs0mg"},{"bike_id":"a0fdef34-712c-4718-a02e-37a4e2e8565d","system_id":"levelo_inurba_marseille","lat":43.28721,"lon":5.37937,"is_reserved":false,"is_disabled":false,"rental_uris":{"android":"levelo://app?vid=a0fdef34-712c-4718-a02e-37a4e2e8565d","ios":"levelo://app?vid=a0fdef34-712c-4718-a02e-37a4e2e8565d"},"vehicle_type_id":"4","last_reported":1761217787,"current_range_meters":9600,"station_id":"ce4bh9p2rcd13ifvqec0","pricing_plan_id":"cebpf4jnsgd1na2vs0mg"},{"bike_id":"04bb34f5-1c18-4b9c-b0f9-4b6c8fb60261","system_id":"levelo_inurba_marseille","lat":43.286905,"lon":5.399821,"is_reserved":false,"is_disabled":false,"rental_uris":{"android":"levelo://app?vid=04bb34f5-1c18-4b9c-b0f9-4b6c8fb60261","ios":"levelo://app?vid=04bb34f5-1c18-4b9c-b0f9-4b6c8fb60261"},"vehicle_type_id":"4","last_reported":1761217787,"current_range_meters":9600,"station_id":"ce4bho92rcd13ifvqh3g","pricing_plan_id":"cebpf4jnsgd1na2vs0mg"},{"bike_id":"ee664f8c-bb98-4c45-aa3a-07aff8599fbb","system_id":"levelo_inurba_marseille","lat":43.28926,"lon":5.38394,"is_reserved":false,"is_disabled":false,"rental_uris":{"android":"levelo://app?vid=ee664f8c-bb98-4c45-aa3a-07aff8599fbb","ios":"levelo://app?vid=ee664f8c-bb98-4c45-aa3a-07aff8599fbb"},"vehicle_type_id":"4","last_reported":1761217787,"current_range_meters":9600,"station_id":"ce4bh612rcd13ifvqe6g","pricing_plan_id":"cebpf4jnsgd1na2vs0mg"},{"bike_id":"9870a68d-ae62-4bec-82c3-a7443a850bdc","system_id":"levelo_inurba_marseille","lat":43.31269,"lon":5.37771,"is_reserved":false,"is_disabled":false,"rental_uris":{"android":"levelo://app?vid=9870a68d-ae62-4bec-82c3-a7443a850bdc","ios":"levelo://app?vid=9870a68d-ae62-4bec-82c3-a7443a850bdc"},"vehicle_type_id":"4","last_reported":1761217787,"current_range_meters":10000,"station_id":"","pricing_plan_id":"cebpf4jnsgd1na2vs0mg"},{"bike_id":"c75fdaa1-d812-4635-abe5-67ac0bf446ca","system_id":"levelo_inurba_marseille","lat":43.29895,"lon":5.4362,"is_reserved":false,"is_disabled":false,"rental_uris":{"android":"levelo://app?vid=c75fdaa1-d812-4635-abe5-67ac0bf446ca","ios":"levelo://app?vid=c75fdaa1-d812-4635-abe5-67ac0bf446ca"},"vehicle_type_id":"4","last_reported":1761217787,"current_range_meters":10000,"station_id":"ce4bhpp2rcd13ifvqhfg","pricing_plan_id":"cebpf4jnsgd1na2vs0mg"},{"bike_id":"4eae2ec4-8862-466e-a3d9-395cca4276d0","system_id":"levelo_inurba_marseille","lat":43.30376,"lon":5.37583,"is_reserved":false,"is_disabled":false,"rental_uris":{"android":"levelo://app?vid=4eae2ec4-8862-466e-a3d9-395cca4276d0","ios":"levelo://app?vid=4eae2ec4-8862-466e-a3d9-395cca4276d0"},"vehicle_type_id":"4","last_reported":1761217787,"current_range_meters":10000,"station_id":"","pricing_plan_id":"cebpf4jnsgd1na2vs0mg"},{"bike_id":"ac4f7d3c-5af7-44ad-8c8b-463d26f4b847","system_id":"levelo_inurba_marseille","lat":43.274451,"lon":5.390878,"is_reserved":false,"is_disabled":false,"rental_uris":{"android":"levelo://app?vid=ac4f7d3c-5af7-44ad-8c8b-463d26f4b847","ios":"levelo://app?vid=ac4f7d3c-5af7-44ad-8c8b-463d26f4b847"},"vehicle_type_id":"4","last_reported":1761217787,"current_range_meters":10000,"station_id":"ce4bhg12rcd13ifvqf80","pricing_plan_id":"cebpf4jnsgd1na2vs0mg"},{"bike_id":"15c9329a-af2a-4ecf-b071-7a979425a162","system_id":"levelo_inurba_marseille","lat":43.30548,"lon":5.36548,"is_reserved":false,"is_disabled":false,"rental_uris":{"android":"levelo://app?vid=15c9329a-af2a-4ecf-b071-7a979425a162","ios":"levelo://app?vid=15c9329a-af2a-4ecf-b071-7a979425a162"},"vehicle_type_id":"4","last_reported":1761217787,"current_range_meters":10000,"station_id":"ce4bgs12rcd13ifvqcag","pricing_plan_id":"cebpf4jnsgd1na2vs0mg"},{"bike_id":"1656396b-ce0e-470e-9f40-d432e00c8827","system_id":"levelo_inurba_marseille","lat":43.296021,"lon":5.40489,"is_reserved":false,"is_disabled":false,"rental_uris":{"android":"levelo://app?vid=1656396b-ce0e-470e-9f40-d432e00c8827","ios":"levelo://app?vid=1656396b-ce0e-470e-9f40-d432e00c8827"},"vehicle_type_id":"4","last_reported":1761217787,"current_range_meters":10800,"station_id":"","pricing_plan_id":"cebpf4jnsgd1na2vs0mg"},{"bike_id":"2f86c0e7-791d-40d3-86dc-3a2c4a57947d","system_id":"levelo_inurba_marseille","lat":43.31084,"lon":5.42437,"is_reserved":false,"is_disabled":false,"rental_uris":{"android":"levelo://app?vid=2f86c0e7-791d-40d3-86dc-3a2c4a57947d","ios":"levelo://app?vid=2f86c0e7-791d-40d3-86dc-3a2c4a57947d"},"vehicle_type_id":"4","last_reported":1761217787,"current_range_meters":10800,"station_id":"ce4bhp92rcd13ifvqhag","pricing_plan_id":"cebpf4jnsgd1na2vs0mg"},{"bike_id":"526f7b2e-bd40-4ecf-abc3-0b9bde82a732","system_id":"levelo_inurba_marseille","lat":43.290011,"lon":5.356171,"is_reserved":false,"is_disabled":false,"rental_uris":{"android":"levelo://app?vid=526f7b2e-bd40-4ecf-abc3-0b9bde82a732","ios":"levelo://app?vid=526f7b2e-bd40-4ecf-abc3-0b9bde82a732"},"vehicle_type_id":"4","last_reported":1761217787,"current_range_meters":10800,"station_id":"ce4bhb92rcd13ifvqen0","pricing_plan_id":"cebpf4jnsgd1na2vs0mg"},{"bike_id":"07e992db-48e1-481b-a50e-3b491cfc1455","system_id":"levelo_inurba_marseille","lat":43.31991,"lon":5.41291,"is_reserved":false,"is_disabled":false,"rental_uris":{"android":"levelo://app?vid=07e992db-48e1-481b-a50e-3b491cfc1455","ios":"levelo://app?vid=07e992db-48e1-481b-a50e-3b491cfc1455"},"vehicle_type_id":"4","last_reported":1761217787,"current_range_meters":10800,"station_id":"","pricing_plan_id":"cebpf4jnsgd1na2vs0mg"},{"bike_id":"f7b67f9a-ce10-4c5c-bac2-7e5464f16364","system_id":"levelo_inurba_marseille","lat":43.27313,"lon":5.40841,"is_reserved":false,"is_disabled":false,"rental_uris":{"android":"levelo://app?vid=f7b67f9a-ce10-4c5c-bac2-7e5464f16364","ios":"levelo://app?vid=f7b67f9a-ce10-4c5c-bac2-7e5464f16364"},"vehicle_type_id":"4","last_reported":1761217787,"current_range_meters":11200,"station_id":"","pricing_plan_id":"cebpf4jnsgd1na2vs0mg"},{"bike_id":"7dc3a787-7b14-4505-8e32-0b28349ba8b9","system_id":"levelo_inurba_marseille","lat":43.287063,"lon":5.362525,"is_reserved":false,"is_disabled":false,"rental_uris":{"android":"levelo://app?vid=7dc3a787-7b14-4505-8e32-0b28349ba8b9","ios":"levelo://app?vid=7dc3a787-7b14-4505-8e32-0b28349ba8b9"},"vehicle_type_id":"4","last_reported":1761217787,"current_range_meters":11200,"station_id":"","pricing_plan_id":"cebpf4jnsgd1na2vs0mg"},{"bike_id":"c8c0fa58-a519-4343-9887-b0c694f93aef","system_id":"levelo_inurba_marseille","lat":43.288653,"lon":5.425114,"is_reserved":false,"is_disabled":false,"rental_uris":{"android":"levelo://app?vid=c8c0fa58-a519-4343-9887-b0c694f93aef","ios":"levelo://app?vid=c8c0fa58-a519-4343-9887-b0c694f93aef"},"vehicle_type_id":"4","last_reported":1761217787,"current_range_meters":11600,"station_id":"st_d3b462108ojc7389ooeg","pricing_plan_id":"cebpf4jnsgd1na2vs0mg"},{"bike_id":"f3c7669b-d664-4185-b0f6-596f65443390","system_id":"levelo_inurba_marseille","lat":43.30497,"lon":5.37911,"is_reserved":false,"is_disabled":false,"rental_uris":{"android":"levelo://app?vid=f3c7669b-d664-4185-b0f6-596f65443390","ios":"levelo://app?vid=f3c7669b-d664-4185-b0f6-596f65443390"},"vehicle_type_id":"4","last_reported":1761217787,"current_range_meters":11600,"station_id":"ce4bgup2rcd13ifvqcn0","pricing_plan_id":"cebpf4jnsgd1na2vs0mg"},{"bike_id":"2d24ac31-78f9-481b-9d5c-ea0a58464439","system_id":"levelo_inurba_marseille","lat":43.29199,"lon":5.42238,"is_reserved":false,"is_disabled":false,"rental_uris":{"android":"levelo://app?vid=2d24ac31-78f9-481b-9d5c-ea0a58464439","ios":"levelo://app?vid=2d24ac31-78f9-481b-9d5c-ea0a58464439"},"vehicle_type_id":"4","last_reported":1761217787,"current_range_meters":11600,"station_id":"","pricing_plan_id":"cebpf4jnsgd1na2vs0mg"},{"bike_id":"139ebd01-d7e2-4c91-bbd5-a1b7991a0df3","system_id":"levelo_inurba_marseille","lat":43.30557,"lon":5.36559,"is_reserved":false,"is_disabled":false,"rental_uris":{"android":"levelo://app?vid=139ebd01-d7e2-4c91-bbd5-a1b7991a0df3","ios":"levelo://app?vid=139ebd01-d7e2-4c91-bbd5-a1b7991a0df3"},"vehicle_type_id":"4","last_reported":1761217787,"current_range_meters":11600,"station_id":"ce4bgs12rcd13ifvqcag","pricing_plan_id":"cebpf4jnsgd1na2vs0mg"},{"bike_id":"e330f297-c25d-4d41-b7cf-f6b8ddf3abc0","system_id":"levelo_inurba_marseille","lat":43.24801,"lon":5.37449,"is_reserved":false,"is_disabled":false,"rental_uris":{"android":"levelo://app?vid=e330f297-c25d-4d41-b7cf-f6b8ddf3abc0","ios":"levelo://app?vid=e330f297-c25d-4d41-b7cf-f6b8ddf3abc0"},"vehicle_type_id":"4","last_reported":1761217787,"current_range_meters":11600,"station_id":"ce4bhgh2rcd13ifvqfb0","pricing_plan_id":"cebpf4jnsgd1na2vs0mg"},{"bike_id":"c775e1ea-9a62-4435-8d4f-004bf2c26047","system_id":"levelo_inurba_marseille","lat":43.298132,"lon":5.44074,"is_reserved":false,"is_disabled":false,"rental_uris":{"android":"levelo://app?vid=c775e1ea-9a62-4435-8d4f-004bf2c26047","ios":"levelo://app?vid=c775e1ea-9a62-4435-8d4f-004bf2c26047"},"vehicle_type_id":"4","last_reported":1761217787,"current_range_meters":12000,"station_id":"st_d3jp68qikq2c7381ktn0","pricing_plan_id":"cebpf4jnsgd1na2vs0mg"},{"bike_id":"61525fe3-26d4-4c5c-a075-e59599c296c4","system_id":"levelo_inurba_marseille","lat":43.31443,"lon":5.3929,"is_reserved":false,"is_disabled":false,"rental_uris":{"android":"levelo://app?vid=61525fe3-26d4-4c5c-a075-e59599c296c4","ios":"levelo://app?vid=61525fe3-26d4-4c5c-a075-e59599c296c4"},"vehicle_type_id":"4","last_reported":1761217787,"current_range_meters":12000,"station_id":"","pricing_plan_id":"cebpf4jnsgd1na2vs0mg"},{"bike_id":"a8c54fc0-fa67-4a1f-a261-d4ae32b66c04","system_id":"levelo_inurba_marseille","lat":43.312784,"lon":5.404496,"is_reserved":false,"is_disabled":false,"rental_uris":{"android":"levelo://app?vid=a8c54fc0-fa67-4a1f-a261-d4ae32b66c04","ios":"levelo://app?vid=a8c54fc0-fa67-4a1f-a261-d4ae32b66c04"},"vehicle_type_id":"4","last_reported":1761217787,"current_range_meters":12000,"station_id":"","pricing_plan_id":"cebpf4jnsgd1na2vs0mg"},{"bike_id":"4b1e4573-b069-454e-ae34-7bec0cfb0500","system_id":"levelo_inurba_marseille","lat":43.303182,"lon":5.369024,"is_reserved":false,"is_disabled":false,"rental_uris":{"android":"levelo://app?vid=4b1e4573-b069-454e-ae34-7bec0cfb0500","ios":"levelo://app?vid=4b1e4573-b069-454e-ae34-7bec0cfb0500"},"vehicle_type_id":"4","last_reported":1761217787,"current_range_meters":12000,"station_id":"ce4bgqh2rcd13ifvqc5g","pricing_plan_id":"cebpf4jnsgd1na2vs0mg"},{"bike_id":"e836c3d0-a9fe-4c01-9b3f-11e6da70fcae","system_id":"levelo_inurba_marseille","lat":43.30963,"lon":5.39014,"is_reserved":false,"is_disabled":false,"rental_uris":{"android":"levelo://app?vid=e836c3d0-a9fe-4c01-9b3f-11e6da70fcae","ios":"levelo://app?vid=e836c3d0-a9fe-4c01-9b3f-11e6da70fcae"},"vehicle_type_id":"4","last_reported":1761217787,"current_range_meters":12000,"station_id":"ce4bgup2rcd13ifvqco0","pricing_plan_id":"cebpf4jnsgd1na2vs0mg"},{"bike_id":"5d2f6870-34a6-48de-a296-30b1c06ac057","system_id":"levelo_inurba_marseille","lat":43.241808,"lon":5.397269,"is_reserved":false,"is_disabled":false,"rental_uris":{"android":"levelo://app?vid=5d2f6870-34a6-48de-a296-30b1c06ac057","ios":"levelo://app?vid=5d2f6870-34a6-48de-a296-30b1c06ac057"},"vehicle_type_id":"4","last_reported":1761217787,"current_range_meters":12000,"station_id":"ce4bhn12rcd13ifvqgpg","pricing_plan_id":"cebpf4jnsgd1na2vs0mg"},{"bike_id":"8d976786-560e-458a-88bd-d77e3387de04","system_id":"levelo_inurba_marseille","lat":43.308959,"lon":5.371902,"is_reserved":false,"is_disabled":false,"rental_uris":{"android":"levelo://app?vid=8d976786-560e-458a-88bd-d77e3387de04","ios":"levelo://app?vid=8d976786-560e-458a-88bd-d77e3387de04"},"vehicle_type_id":"4","last_reported":1761217787,"current_range_meters":12400,"station_id":"ce4bguh2rcd13ifvqckg","pricing_plan_id":"cebpf4jnsgd1na2vs0mg"},{"bike_id":"81bd45cf-d57e-4210-acb5-75f7e6416f47","system_id":"levelo_inurba_marseille","lat":43.27206,"lon":5.39169,"is_reserved":false,"is_disabled":false,"rental_uris":{"android":"levelo://app?vid=81bd45cf-d57e-4210-acb5-75f7e6416f47","ios":"levelo://app?vid=81bd45cf-d57e-4210-acb5-75f7e6416f47"},"vehicle_type_id":"4","last_reported":1761217787,"current_range_meters":12400,"station_id":"ce4bhhp2rcd13ifvqfm0","pricing_plan_id":"cebpf4jnsgd1na2vs0mg"},{"bike_id":"32e7919e-26d8-4f7d-b229-086147816fa4","system_id":"levelo_inurba_marseille","lat":43.301286,"lon":5.38775,"is_reserved":false,"is_disabled":false,"rental_uris":{"android":"levelo://app?vid=32e7919e-26d8-4f7d-b229-086147816fa4","ios":"levelo://app?vid=32e7919e-26d8-4f7d-b229-086147816fa4"},"vehicle_type_id":"4","last_reported":1761217787,"current_range_meters":12400,"station_id":"","pricing_plan_id":"cebpf4jnsgd1na2vs0mg"},{"bike_id":"08205782-6a87-45ba-b56a-ad460acf5755","system_id":"levelo_inurba_marseille","lat":43.28924,"lon":5.38401,"is_reserved":false,"is_disabled":false,"rental_uris":{"android":"levelo://app?vid=08205782-6a87-45ba-b56a-ad460acf5755","ios":"levelo://app?vid=08205782-6a87-45ba-b56a-ad460acf5755"},"vehicle_type_id":"4","last_reported":1761217787,"current_range_meters":12400,"station_id":"ce4bh612rcd13ifvqe6g","pricing_plan_id":"cebpf4jnsgd1na2vs0mg"},{"bike_id":"b47656b5-24c6-4cdc-ad67-1d843e8edbeb","system_id":"levelo_inurba_marseille","lat":43.30743,"lon":5.42426,"is_reserved":false,"is_disabled":false,"rental_uris":{"android":"levelo://app?vid=b47656b5-24c6-4cdc-ad67-1d843e8edbeb","ios":"levelo://app?vid=b47656b5-24c6-4cdc-ad67-1d843e8edbeb"},"vehicle_type_id":"4","last_reported":1761217787,"current_range_meters":12400,"station_id":"st_cvj6ca6bvosntc0bfgr0","pricing_plan_id":"cebpf4jnsgd1na2vs0mg"},{"bike_id":"d9247930-f477-4727-872b-24c5b02f6614","system_id":"levelo_inurba_marseille","lat":43.271804,"lon":5.409892,"is_reserved":false,"is_disabled":false,"rental_uris":{"android":"levelo://app?vid=d9247930-f477-4727-872b-24c5b02f6614","ios":"levelo://app?vid=d9247930-f477-4727-872b-24c5b02f6614"},"vehicle_type_id":"4","last_reported":1761217787,"current_range_meters":12400,"station_id":"ce4bhl12rcd13ifvqgf0","pricing_plan_id":"cebpf4jnsgd1na2vs0mg"},{"bike_id":"bd3b79f5-bf81-49c5-9165-968b6842bb13","system_id":"levelo_inurba_marseille","lat":43.27564,"lon":5.38424,"is_reserved":false,"is_disabled":false,"rental_uris":{"android":"levelo://app?vid=bd3b79f5-bf81-49c5-9165-968b6842bb13","ios":"levelo://app?vid=bd3b79f5-bf81-49c5-9165-968b6842bb13"},"vehicle_type_id":"4","last_reported":1761217787,"current_range_meters":12800,"station_id":"ce4bhh92rcd13ifvqfi0","pricing_plan_id":"cebpf4jnsgd1na2vs0mg"},{"bike_id":"56880329-4c76-4c4e-84a7-3c605e225585","system_id":"levelo_inurba_marseille","lat":43.33725,"lon":5.39184,"is_reserved":false,"is_disabled":false,"rental_uris":{"android":"levelo://app?vid=56880329-4c76-4c4e-84a7-3c605e225585","ios":"levelo://app?vid=56880329-4c76-4c4e-84a7-3c605e225585"},"vehicle_type_id":"4","last_reported":1761217787,"current_range_meters":12800,"station_id":"ce4bhr92rcd13ifvqhsg","pricing_plan_id":"cebpf4jnsgd1na2vs0mg"},{"bike_id":"55c89a62-3c46-4a12-8013-c48006e4bafb","system_id":"levelo_inurba_marseille","lat":43.24949,"lon":5.40498,"is_reserved":false,"is_disabled":false,"rental_uris":{"android":"levelo://app?vid=55c89a62-3c46-4a12-8013-c48006e4bafb","ios":"levelo://app?vid=55c89a62-3c46-4a12-8013-c48006e4bafb"},"vehicle_type_id":"4","last_reported":1761217787,"current_range_meters":12800,"station_id":"st_d2ngiaodas8pm72gd1h0","pricing_plan_id":"cebpf4jnsgd1na2vs0mg"},{"bike_id":"1aaa028d-93d8-4a20-8355-7a4b17d8620a","system_id":"levelo_inurba_marseille","lat":43.27649,"lon":5.39212,"is_reserved":false,"is_disabled":false,"rental_uris":{"android":"levelo://app?vid=1aaa028d-93d8-4a20-8355-7a4b17d8620a","ios":"levelo://app?vid=1aaa028d-93d8-4a20-8355-7a4b17d8620a"},"vehicle_type_id":"4","last_reported":1761217787,"current_range_meters":12800,"station_id":"","pricing_plan_id":"cebpf4jnsgd1na2vs0mg"},{"bike_id":"69685e7a-3020-46b0-8adf-a823221a68a2","system_id":"levelo_inurba_marseille","lat":43.30139,"lon":5.38059,"is_reserved":false,"is_disabled":false,"rental_uris":{"android":"levelo://app?vid=69685e7a-3020-46b0-8adf-a823221a68a2","ios":"levelo://app?vid=69685e7a-3020-46b0-8adf-a823221a68a2"},"vehicle_type_id":"4","last_reported":1761217787,"current_range_meters":12800,"station_id":"ce4bgjp2rcd13ifvqbh0","pricing_plan_id":"cebpf4jnsgd1na2vs0mg"},{"bike_id":"4aae628f-d8a6-4a0d-8bcf-1b47d97504b4","system_id":"levelo_inurba_marseille","lat":43.30923,"lon":5.40152,"is_reserved":false,"is_disabled":false,"rental_uris":{"android":"levelo://app?vid=4aae628f-d8a6-4a0d-8bcf-1b47d97504b4","ios":"levelo://app?vid=4aae628f-d8a6-4a0d-8bcf-1b47d97504b4"},"vehicle_type_id":"4","last_reported":1761217787,"current_range_meters":12800,"station_id":"ce4bgvp2rcd13ifvqct0","pricing_plan_id":"cebpf4jnsgd1na2vs0mg"},{"bike_id":"a43df4c7-330a-48d4-890f-5d1e302ce2ae","system_id":"levelo_inurba_marseille","lat":43.29402,"lon":5.39357,"is_reserved":false,"is_disabled":true,"rental_uris":{"android":"levelo://app?vid=a43df4c7-330a-48d4-890f-5d1e302ce2ae","ios":"levelo://app?vid=a43df4c7-330a-48d4-890f-5d1e302ce2ae"},"vehicle_type_id":"4","last_reported":1761217787,"current_range_meters":12800,"station_id":"","pricing_plan_id":"cebpf4jnsgd1na2vs0mg"},{"bike_id":"b50e3cc8-7671-4336-913b-7afcac60d99b","system_id":"levelo_inurba_marseille","lat":43.292574,"lon":5.384373,"is_reserved":false,"is_disabled":false,"rental_uris":{"android":"levelo://app?vid=b50e3cc8-7671-4336-913b-7afcac60d99b","ios":"levelo://app?vid=b50e3cc8-7671-4336-913b-7afcac60d99b"},"vehicle_type_id":"4","last_reported":1761217787,"current_range_meters":13600,"station_id":"ce4bgip2rcd13ifvqbb0","pricing_plan_id":"cebpf4jnsgd1na2vs0mg"},{"bike_id":"64f22f8e-1ef4-45f8-a24f-2af162ade69a","system_id":"levelo_inurba_marseille","lat":43.27634,"lon":5.38925,"is_reserved":false,"is_disabled":false,"rental_uris":{"android":"levelo://app?vid=64f22f8e-1ef4-45f8-a24f-2af162ade69a","ios":"levelo://app?vid=64f22f8e-1ef4-45f8-a24f-2af162ade69a"},"vehicle_type_id":"4","last_reported":1761217787,"current_range_meters":13600,"station_id":"","pricing_plan_id":"cebpf4jnsgd1na2vs0mg"},{"bike_id":"928ad66c-0cfb-4e1b-bdd4-db4df2086012","system_id":"levelo_inurba_marseille","lat":43.24444,"lon":5.372192,"is_reserved":false,"is_disabled":false,"rental_uris":{"android":"levelo://app?vid=928ad66c-0cfb-4e1b-bdd4-db4df2086012","ios":"levelo://app?vid=928ad66c-0cfb-4e1b-bdd4-db4df2086012"},"vehicle_type_id":"4","last_reported":1761217787,"current_range_meters":13600,"station_id":"ce4bhgh2rcd13ifvqfb0","pricing_plan_id":"cebpf4jnsgd1na2vs0mg"},{"bike_id":"958d52bc-e1a2-4648-8f11-6f03bc0d48c0","system_id":"levelo_inurba_marseille","lat":43.30154,"lon":5.38077,"is_reserved":false,"is_disabled":false,"rental_uris":{"android":"levelo://app?vid=958d52bc-e1a2-4648-8f11-6f03bc0d48c0","ios":"levelo://app?vid=958d52bc-e1a2-4648-8f11-6f03bc0d48c0"},"vehicle_type_id":"4","last_reported":1761217787,"current_range_meters":13600,"station_id":"ce4bgjp2rcd13ifvqbh0","pricing_plan_id":"cebpf4jnsgd1na2vs0mg"},{"bike_id":"2a22829e-2bd6-41ec-a3e5-ef826e7425d3","system_id":"levelo_inurba_marseille","lat":43.32124,"lon":5.36756,"is_reserved":false,"is_disabled":false,"rental_uris":{"android":"levelo://app?vid=2a22829e-2bd6-41ec-a3e5-ef826e7425d3","ios":"levelo://app?vid=2a22829e-2bd6-41ec-a3e5-ef826e7425d3"},"vehicle_type_id":"4","last_reported":1761217787,"current_range_meters":13600,"station_id":"ce4bhrh2rcd13ifvqhug","pricing_plan_id":"cebpf4jnsgd1na2vs0mg"},{"bike_id":"584fab49-3c8f-401c-9b39-6b6d6f541d45","system_id":"levelo_inurba_marseille","lat":43.28616,"lon":5.35105,"is_reserved":false,"is_disabled":false,"rental_uris":{"android":"levelo://app?vid=584fab49-3c8f-401c-9b39-6b6d6f541d45","ios":"levelo://app?vid=584fab49-3c8f-401c-9b39-6b6d6f541d45"},"vehicle_type_id":"4","last_reported":1761217787,"current_range_meters":13600,"station_id":"ce4bhch2rcd13ifvqeug","pricing_plan_id":"cebpf4jnsgd1na2vs0mg"},{"bike_id":"0322ca22-3727-41b5-86cb-6682292c28c8","system_id":"levelo_inurba_marseille","lat":43.30523,"lon":5.36725,"is_reserved":false,"is_disabled":false,"rental_uris":{"android":"levelo://app?vid=0322ca22-3727-41b5-86cb-6682292c28c8","ios":"levelo://app?vid=0322ca22-3727-41b5-86cb-6682292c28c8"},"vehicle_type_id":"4","last_reported":1761217787,"current_range_meters":14000,"station_id":"ce4bgrp2rcd13ifvqc9g","pricing_plan_id":"cebpf4jnsgd1na2vs0mg"},{"bike_id":"ea886e01-8738-4e9f-8316-33a3ef2f4c84","system_id":"levelo_inurba_marseille","lat":43.267872,"lon":5.394189,"is_reserved":false,"is_disabled":false,"rental_uris":{"android":"levelo://app?vid=ea886e01-8738-4e9f-8316-33a3ef2f4c84","ios":"levelo://app?vid=ea886e01-8738-4e9f-8316-33a3ef2f4c84"},"vehicle_type_id":"4","last_reported":1761217787,"current_range_meters":14000,"station_id":"ce4bhh12rcd13ifvqfg0","pricing_plan_id":"cebpf4jnsgd1na2vs0mg"},{"bike_id":"0198280f-05b0-401c-b9f2-7586dff77353","system_id":"levelo_inurba_marseille","lat":43.28895,"lon":5.3779,"is_reserved":false,"is_disabled":false,"rental_uris":{"android":"levelo://app?vid=0198280f-05b0-401c-b9f2-7586dff77353","ios":"levelo://app?vid=0198280f-05b0-401c-b9f2-7586dff77353"},"vehicle_type_id":"4","last_reported":1761217787,"current_range_meters":14000,"station_id":"","pricing_plan_id":"cebpf4jnsgd1na2vs0mg"},{"bike_id":"bda3ed1a-3199-4eb8-8229-577855d09dbb","system_id":"levelo_inurba_marseille","lat":43.3163,"lon":5.37876,"is_reserved":false,"is_disabled":false,"rental_uris":{"android":"levelo://app?vid=bda3ed1a-3199-4eb8-8229-577855d09dbb","ios":"levelo://app?vid=bda3ed1a-3199-4eb8-8229-577855d09dbb"},"vehicle_type_id":"4","last_reported":1761217787,"current_range_meters":14000,"station_id":"","pricing_plan_id":"cebpf4jnsgd1na2vs0mg"},{"bike_id":"b97873dd-ee49-413e-8c98-ef845403d0a5","system_id":"levelo_inurba_marseille","lat":43.28691,"lon":5.38669,"is_reserved":false,"is_disabled":false,"rental_uris":{"android":"levelo://app?vid=b97873dd-ee49-413e-8c98-ef845403d0a5","ios":"levelo://app?vid=b97873dd-ee49-413e-8c98-ef845403d0a5"},"vehicle_type_id":"4","last_reported":1761217787,"current_range_meters":14000,"station_id":"ce4bh492rcd13ifvqdug","pricing_plan_id":"cebpf4jnsgd1na2vs0mg"},{"bike_id":"adb42586-0077-46d7-b3e5-7a1e0859245d","system_id":"levelo_inurba_marseille","lat":43.31706,"lon":5.37722,"is_reserved":false,"is_disabled":false,"rental_uris":{"android":"levelo://app?vid=adb42586-0077-46d7-b3e5-7a1e0859245d","ios":"levelo://app?vid=adb42586-0077-46d7-b3e5-7a1e0859245d"},"vehicle_type_id":"4","last_reported":1761217787,"current_range_meters":14000,"station_id":"ce4bgth2rcd13ifvqch0","pricing_plan_id":"cebpf4jnsgd1na2vs0mg"},{"bike_id":"4b1dc27e-158e-4387-ac73-0bce646bc1a6","system_id":"levelo_inurba_marseille","lat":43.309556,"lon":5.390364,"is_reserved":false,"is_disabled":false,"rental_uris":{"android":"levelo://app?vid=4b1dc27e-158e-4387-ac73-0bce646bc1a6","ios":"levelo://app?vid=4b1dc27e-158e-4387-ac73-0bce646bc1a6"},"vehicle_type_id":"4","last_reported":1761217787,"current_range_meters":14400,"station_id":"ce4bgup2rcd13ifvqco0","pricing_plan_id":"cebpf4jnsgd1na2vs0mg"},{"bike_id":"7388bde5-6b0d-473b-be6f-0cf1d74fbdce","system_id":"levelo_inurba_marseille","lat":43.24167,"lon":5.363957,"is_reserved":false,"is_disabled":false,"rental_uris":{"android":"levelo://app?vid=7388bde5-6b0d-473b-be6f-0cf1d74fbdce","ios":"levelo://app?vid=7388bde5-6b0d-473b-be6f-0cf1d74fbdce"},"vehicle_type_id":"4","last_reported":1761217787,"current_range_meters":14400,"station_id":"","pricing_plan_id":"cebpf4jnsgd1na2vs0mg"},{"bike_id":"f30d474c-592d-470d-816b-bf7526dcf767","system_id":"levelo_inurba_marseille","lat":43.30824,"lon":5.38112,"is_reserved":false,"is_disabled":false,"rental_uris":{"android":"levelo://app?vid=f30d474c-592d-470d-816b-bf7526dcf767","ios":"levelo://app?vid=f30d474c-592d-470d-816b-bf7526dcf767"},"vehicle_type_id":"4","last_reported":1761217787,"current_range_meters":14400,"station_id":"ce4bgt12rcd13ifvqce0","pricing_plan_id":"cebpf4jnsgd1na2vs0mg"},{"bike_id":"13ffca06-ecc4-46ee-aa82-6818647126c8","system_id":"levelo_inurba_marseille","lat":43.299019,"lon":5.436589,"is_reserved":false,"is_disabled":false,"rental_uris":{"android":"levelo://app?vid=13ffca06-ecc4-46ee-aa82-6818647126c8","ios":"levelo://app?vid=13ffca06-ecc4-46ee-aa82-6818647126c8"},"vehicle_type_id":"4","last_reported":1761217787,"current_range_meters":14400,"station_id":"ce4bhpp2rcd13ifvqhfg","pricing_plan_id":"cebpf4jnsgd1na2vs0mg"},{"bike_id":"6feaa0bb-318a-4fd2-b7c8-442963e3325a","system_id":"levelo_inurba_marseille","lat":43.31365,"lon":5.38472,"is_reserved":false,"is_disabled":false,"rental_uris":{"android":"levelo://app?vid=6feaa0bb-318a-4fd2-b7c8-442963e3325a","ios":"levelo://app?vid=6feaa0bb-318a-4fd2-b7c8-442963e3325a"},"vehicle_type_id":"4","last_reported":1761217787,"current_range_meters":14400,"station_id":"ce4bgt92rcd13ifvqcf0","pricing_plan_id":"cebpf4jnsgd1na2vs0mg"},{"bike_id":"be312ac1-e3cc-45e6-b044-8a2364bade9f","system_id":"levelo_inurba_marseille","lat":43.28036,"lon":5.36931,"is_reserved":false,"is_disabled":false,"rental_uris":{"android":"levelo://app?vid=be312ac1-e3cc-45e6-b044-8a2364bade9f","ios":"levelo://app?vid=be312ac1-e3cc-45e6-b044-8a2364bade9f"},"vehicle_type_id":"4","last_reported":1761217787,"current_range_meters":14400,"station_id":"ce4bha12rcd13ifvqef0","pricing_plan_id":"cebpf4jnsgd1na2vs0mg"},{"bike_id":"2a6e49f6-4e9c-468c-ad7b-cdbe88b409dc","system_id":"levelo_inurba_marseille","lat":43.29229,"lon":5.36077,"is_reserved":false,"is_disabled":false,"rental_uris":{"android":"levelo://app?vid=2a6e49f6-4e9c-468c-ad7b-cdbe88b409dc","ios":"levelo://app?vid=2a6e49f6-4e9c-468c-ad7b-cdbe88b409dc"},"vehicle_type_id":"4","last_reported":1761217787,"current_range_meters":14800,"station_id":"ce4bhbh2rcd13ifvqeqg","pricing_plan_id":"cebpf4jnsgd1na2vs0mg"},{"bike_id":"12f3f073-c041-4658-a7f4-1022f577aab2","system_id":"levelo_inurba_marseille","lat":43.305406,"lon":5.367065,"is_reserved":false,"is_disabled":false,"rental_uris":{"android":"levelo://app?vid=12f3f073-c041-4658-a7f4-1022f577aab2","ios":"levelo://app?vid=12f3f073-c041-4658-a7f4-1022f577aab2"},"vehicle_type_id":"4","last_reported":1761217787,"current_range_meters":15200,"station_id":"ce4bh3h2rcd13ifvqdn0","pricing_plan_id":"cebpf4jnsgd1na2vs0mg"},{"bike_id":"206ce9bb-93f8-4a08-b561-f32d594a1852","system_id":"levelo_inurba_marseille","lat":43.298259,"lon":5.440681,"is_reserved":false,"is_disabled":false,"rental_uris":{"android":"levelo://app?vid=206ce9bb-93f8-4a08-b561-f32d594a1852","ios":"levelo://app?vid=206ce9bb-93f8-4a08-b561-f32d594a1852"},"vehicle_type_id":"4","last_reported":1761217787,"current_range_meters":16000,"station_id":"st_d3jp68qikq2c7381ktn0","pricing_plan_id":"cebpf4jnsgd1na2vs0mg"},{"bike_id":"6b37a1b8-5eb3-475e-b683-fd0eb1dbf02a","system_id":"levelo_inurba_marseille","lat":43.24806,"lon":5.37447,"is_reserved":false,"is_disabled":false,"rental_uris":{"android":"levelo://app?vid=6b37a1b8-5eb3-475e-b683-fd0eb1dbf02a","ios":"levelo://app?vid=6b37a1b8-5eb3-475e-b683-fd0eb1dbf02a"},"vehicle_type_id":"4","last_reported":1761217787,"current_range_meters":16000,"station_id":"ce4bhgh2rcd13ifvqfb0","pricing_plan_id":"cebpf4jnsgd1na2vs0mg"},{"bike_id":"8bcacd78-80de-4026-af75-b37ebe3030fe","system_id":"levelo_inurba_marseille","lat":43.334756,"lon":5.404255,"is_reserved":false,"is_disabled":false,"rental_uris":{"android":"levelo://app?vid=8bcacd78-80de-4026-af75-b37ebe3030fe","ios":"levelo://app?vid=8bcacd78-80de-4026-af75-b37ebe3030fe"},"vehicle_type_id":"4","last_reported":1761217787,"current_range_meters":16000,"station_id":"","pricing_plan_id":"cebpf4jnsgd1na2vs0mg"},{"bike_id":"9c023054-f387-47db-bf1d-2774b5d6d642","system_id":"levelo_inurba_marseille","lat":43.31743,"lon":5.38139,"is_reserved":false,"is_disabled":false,"rental_uris":{"android":"levelo://app?vid=9c023054-f387-47db-bf1d-2774b5d6d642","ios":"levelo://app?vid=9c023054-f387-47db-bf1d-2774b5d6d642"},"vehicle_type_id":"4","last_reported":1761217787,"current_range_meters":16000,"station_id":"","pricing_plan_id":"cebpf4jnsgd1na2vs0mg"},{"bike_id":"b284a5b8-145b-4b18-970a-f541b5c0ebef","system_id":"levelo_inurba_marseille","lat":43.285529,"lon":5.394313,"is_reserved":false,"is_disabled":false,"rental_uris":{"android":"levelo://app?vid=b284a5b8-145b-4b18-970a-f541b5c0ebef","ios":"levelo://app?vid=b284a5b8-145b-4b18-970a-f541b5c0ebef"},"vehicle_type_id":"4","last_reported":1761217787,"current_range_meters":16000,"station_id":"","pricing_plan_id":"cebpf4jnsgd1na2vs0mg"},{"bike_id":"f4b2367a-12ef-4353-b463-a7e26fc0cfa2","system_id":"levelo_inurba_marseille","lat":43.29036,"lon":5.38134,"is_reserved":false,"is_disabled":false,"rental_uris":{"android":"levelo://app?vid=f4b2367a-12ef-4353-b463-a7e26fc0cfa2","ios":"levelo://app?vid=f4b2367a-12ef-4353-b463-a7e26fc0cfa2"},"vehicle_type_id":"4","last_reported":1761217787,"current_range_meters":16400,"station_id":"ce4bh4p2rcd13ifvqe1g","pricing_plan_id":"cebpf4jnsgd1na2vs0mg"},{"bike_id":"e769906a-6115-425c-84a0-aab1fda48d3f","system_id":"levelo_inurba_marseille","lat":43.29613,"lon":5.37648,"is_reserved":false,"is_disabled":false,"rental_uris":{"android":"levelo://app?vid=e769906a-6115-425c-84a0-aab1fda48d3f","ios":"levelo://app?vid=e769906a-6115-425c-84a0-aab1fda48d3f"},"vehicle_type_id":"4","last_reported":1761217787,"current_range_meters":16400,"station_id":"","pricing_plan_id":"cebpf4jnsgd1na2vs0mg"},{"bike_id":"b9764ed2-f91a-421e-b54e-d7527bd8af22","system_id":"levelo_inurba_marseille","lat":43.29811,"lon":5.36588,"is_reserved":false,"is_disabled":false,"rental_uris":{"android":"levelo://app?vid=b9764ed2-f91a-421e-b54e-d7527bd8af22","ios":"levelo://app?vid=b9764ed2-f91a-421e-b54e-d7527bd8af22"},"vehicle_type_id":"4","last_reported":1761217787,"current_range_meters":16400,"station_id":"","pricing_plan_id":"cebpf4jnsgd1na2vs0mg"},{"bike_id":"78553153-3cdb-4f5d-8361-78e780c4e41f","system_id":"levelo_inurba_marseille","lat":43.30948,"lon":5.39051,"is_reserved":false,"is_disabled":false,"rental_uris":{"android":"levelo://app?vid=78553153-3cdb-4f5d-8361-78e780c4e41f","ios":"levelo://app?vid=78553153-3cdb-4f5d-8361-78e780c4e41f"},"vehicle_type_id":"4","last_reported":1761217787,"current_range_meters":16400,"station_id":"ce4bgup2rcd13ifvqco0","pricing_plan_id":"cebpf4jnsgd1na2vs0mg"},{"bike_id":"f35113ad-3bc2-482a-82e3-c110a5af2643","system_id":"levelo_inurba_marseille","lat":43.3091,"lon":5.36879,"is_reserved":false,"is_disabled":false,"rental_uris":{"android":"levelo://app?vid=f35113ad-3bc2-482a-82e3-c110a5af2643","ios":"levelo://app?vid=f35113ad-3bc2-482a-82e3-c110a5af2643"},"vehicle_type_id":"4","last_reported":1761217787,"current_range_meters":16400,"station_id":"ce4bgn92rcd13ifvqbvg","pricing_plan_id":"cebpf4jnsgd1na2vs0mg"},{"bike_id":"334edc03-c2b4-49e6-a41a-39943ce2050b","system_id":"levelo_inurba_marseille","lat":43.27332,"lon":5.39074,"is_reserved":false,"is_disabled":false,"rental_uris":{"android":"levelo://app?vid=334edc03-c2b4-49e6-a41a-39943ce2050b","ios":"levelo://app?vid=334edc03-c2b4-49e6-a41a-39943ce2050b"},"vehicle_type_id":"4","last_reported":1761217787,"current_range_meters":16400,"station_id":"ce4bhgp2rcd13ifvqfe0","pricing_plan_id":"cebpf4jnsgd1na2vs0mg"},{"bike_id":"c541f13b-f791-4c29-9f60-2a84017fb640","system_id":"levelo_inurba_marseille","lat":43.27177,"lon":5.40976,"is_reserved":false,"is_disabled":false,"rental_uris":{"android":"levelo://app?vid=c541f13b-f791-4c29-9f60-2a84017fb640","ios":"levelo://app?vid=c541f13b-f791-4c29-9f60-2a84017fb640"},"vehicle_type_id":"4","last_reported":1761217787,"current_range_meters":16400,"station_id":"ce4bhl12rcd13ifvqgf0","pricing_plan_id":"cebpf4jnsgd1na2vs0mg"},{"bike_id":"ab142d5b-a631-4b39-9d0a-6a841897b389","system_id":"levelo_inurba_marseille","lat":43.26782,"lon":5.39423,"is_reserved":false,"is_disabled":false,"rental_uris":{"android":"levelo://app?vid=ab142d5b-a631-4b39-9d0a-6a841897b389","ios":"levelo://app?vid=ab142d5b-a631-4b39-9d0a-6a841897b389"},"vehicle_type_id":"4","last_reported":1761217787,"current_range_meters":16800,"station_id":"ce4bhh12rcd13ifvqfg0","pricing_plan_id":"cebpf4jnsgd1na2vs0mg"},{"bike_id":"37505258-1093-41de-8a20-3e36ecdaebef","system_id":"levelo_inurba_marseille","lat":43.29283,"lon":5.3684,"is_reserved":false,"is_disabled":false,"rental_uris":{"android":"levelo://app?vid=37505258-1093-41de-8a20-3e36ecdaebef","ios":"levelo://app?vid=37505258-1093-41de-8a20-3e36ecdaebef"},"vehicle_type_id":"4","last_reported":1761217787,"current_range_meters":16800,"station_id":"ce4bhbp2rcd13ifvqesg","pricing_plan_id":"cebpf4jnsgd1na2vs0mg"},{"bike_id":"d1229fdb-df7c-411f-b79e-7b9f1523d47b","system_id":"levelo_inurba_marseille","lat":43.30478,"lon":5.37906,"is_reserved":false,"is_disabled":false,"rental_uris":{"android":"levelo://app?vid=d1229fdb-df7c-411f-b79e-7b9f1523d47b","ios":"levelo://app?vid=d1229fdb-df7c-411f-b79e-7b9f1523d47b"},"vehicle_type_id":"4","last_reported":1761217787,"current_range_meters":16800,"station_id":"ce4bgup2rcd13ifvqcn0","pricing_plan_id":"cebpf4jnsgd1na2vs0mg"},{"bike_id":"170a5531-f811-46fa-8b17-3c3c7774125b","system_id":"levelo_inurba_marseille","lat":43.28938,"lon":5.36636,"is_reserved":false,"is_disabled":false,"rental_uris":{"android":"levelo://app?vid=170a5531-f811-46fa-8b17-3c3c7774125b","ios":"levelo://app?vid=170a5531-f811-46fa-8b17-3c3c7774125b"},"vehicle_type_id":"4","last_reported":1761217787,"current_range_meters":16800,"station_id":"ce4bhap2rcd13ifvqek0","pricing_plan_id":"cebpf4jnsgd1na2vs0mg"},{"bike_id":"7fac98b9-dc8e-4715-848f-e597f4050389","system_id":"levelo_inurba_marseille","lat":43.29877,"lon":5.38904,"is_reserved":false,"is_disabled":false,"rental_uris":{"android":"levelo://app?vid=7fac98b9-dc8e-4715-848f-e597f4050389","ios":"levelo://app?vid=7fac98b9-dc8e-4715-848f-e597f4050389"},"vehicle_type_id":"4","last_reported":1761217787,"current_range_meters":16800,"station_id":"ce4bh392rcd13ifvqdl0","pricing_plan_id":"cebpf4jnsgd1na2vs0mg"},{"bike_id":"ccfd8572-0d0a-42e2-8f59-b5aab57bfc75","system_id":"levelo_inurba_marseille","lat":43.30154,"lon":5.38082,"is_reserved":false,"is_disabled":false,"rental_uris":{"android":"levelo://app?vid=ccfd8572-0d0a-42e2-8f59-b5aab57bfc75","ios":"levelo://app?vid=ccfd8572-0d0a-42e2-8f59-b5aab57bfc75"},"vehicle_type_id":"4","last_reported":1761217787,"current_range_meters":16800,"station_id":"ce4bgjp2rcd13ifvqbh0","pricing_plan_id":"cebpf4jnsgd1na2vs0mg"},{"bike_id":"3c473905-25d9-4b81-b6e9-f094d3554e55","system_id":"levelo_inurba_marseille","lat":43.2294,"lon":5.35375,"is_reserved":false,"is_disabled":false,"rental_uris":{"android":"levelo://app?vid=3c473905-25d9-4b81-b6e9-f094d3554e55","ios":"levelo://app?vid=3c473905-25d9-4b81-b6e9-f094d3554e55"},"vehicle_type_id":"4","last_reported":1761217787,"current_range_meters":16800,"station_id":"cpo3532slgdg3j2ikp40","pricing_plan_id":"cebpf4jnsgd1na2vs0mg"},{"bike_id":"96939117-35ce-41f0-9af0-fcff4726b36a","system_id":"levelo_inurba_marseille","lat":43.3038,"lon":5.42478,"is_reserved":false,"is_disabled":false,"rental_uris":{"android":"levelo://app?vid=96939117-35ce-41f0-9af0-fcff4726b36a","ios":"levelo://app?vid=96939117-35ce-41f0-9af0-fcff4726b36a"},"vehicle_type_id":"4","last_reported":1761217787,"current_range_meters":17200,"station_id":"ce4bhoh2rcd13ifvqh6g","pricing_plan_id":"cebpf4jnsgd1na2vs0mg"},{"bike_id":"2172ef7f-240b-4c72-bf8d-26c79cc1f73d","system_id":"levelo_inurba_marseille","lat":43.29924,"lon":5.43685,"is_reserved":false,"is_disabled":false,"rental_uris":{"android":"levelo://app?vid=2172ef7f-240b-4c72-bf8d-26c79cc1f73d","ios":"levelo://app?vid=2172ef7f-240b-4c72-bf8d-26c79cc1f73d"},"vehicle_type_id":"4","last_reported":1761217787,"current_range_meters":17200,"station_id":"ce4bhpp2rcd13ifvqhfg","pricing_plan_id":"cebpf4jnsgd1na2vs0mg"},{"bike_id":"6ab28182-2bf3-49d7-9c85-ac8b62551466","system_id":"levelo_inurba_marseille","lat":43.25106,"lon":5.40322,"is_reserved":false,"is_disabled":false,"rental_uris":{"android":"levelo://app?vid=6ab28182-2bf3-49d7-9c85-ac8b62551466","ios":"levelo://app?vid=6ab28182-2bf3-49d7-9c85-ac8b62551466"},"vehicle_type_id":"4","last_reported":1761217787,"current_range_meters":17200,"station_id":"ce4bhlh2rcd13ifvqgig","pricing_plan_id":"cebpf4jnsgd1na2vs0mg"},{"bike_id":"3e4783b6-28d8-4737-a4ef-6a1b0da02476","system_id":"levelo_inurba_marseille","lat":43.2945,"lon":5.40717,"is_reserved":false,"is_disabled":false,"rental_uris":{"android":"levelo://app?vid=3e4783b6-28d8-4737-a4ef-6a1b0da02476","ios":"levelo://app?vid=3e4783b6-28d8-4737-a4ef-6a1b0da02476"},"vehicle_type_id":"4","last_reported":1761217787,"current_range_meters":17200,"station_id":"","pricing_plan_id":"cebpf4jnsgd1na2vs0mg"},{"bike_id":"f7ffb289-2d38-4f99-b277-56157964f003","system_id":"levelo_inurba_marseille","lat":43.298,"lon":5.38088,"is_reserved":false,"is_disabled":false,"rental_uris":{"android":"levelo://app?vid=f7ffb289-2d38-4f99-b277-56157964f003","ios":"levelo://app?vid=f7ffb289-2d38-4f99-b277-56157964f003"},"vehicle_type_id":"4","last_reported":1761217787,"current_range_meters":17200,"station_id":"ce4bgip2rcd13ifvqbb0","pricing_plan_id":"cebpf4jnsgd1na2vs0mg"},{"bike_id":"a5e10cb3-d280-4b4c-8176-279276f1fb2a","system_id":"levelo_inurba_marseille","lat":43.25128,"lon":5.40345,"is_reserved":false,"is_disabled":false,"rental_uris":{"android":"levelo://app?vid=a5e10cb3-d280-4b4c-8176-279276f1fb2a","ios":"levelo://app?vid=a5e10cb3-d280-4b4c-8176-279276f1fb2a"},"vehicle_type_id":"4","last_reported":1761217787,"current_range_meters":17200,"station_id":"ce4bhlh2rcd13ifvqgig","pricing_plan_id":"cebpf4jnsgd1na2vs0mg"},{"bike_id":"8a20f70b-012f-4fce-9446-8282a11d3ed4","system_id":"levelo_inurba_marseille","lat":43.29003,"lon":5.35622,"is_reserved":false,"is_disabled":false,"rental_uris":{"android":"levelo://app?vid=8a20f70b-012f-4fce-9446-8282a11d3ed4","ios":"levelo://app?vid=8a20f70b-012f-4fce-9446-8282a11d3ed4"},"vehicle_type_id":"4","last_reported":1761217787,"current_range_meters":17200,"station_id":"ce4bhb92rcd13ifvqen0","pricing_plan_id":"cebpf4jnsgd1na2vs0mg"},{"bike_id":"ff3fcf70-c183-4046-b310-5c316a40bd51","system_id":"levelo_inurba_marseille","lat":43.307427,"lon":5.424406,"is_reserved":false,"is_disabled":false,"rental_uris":{"android":"levelo://app?vid=ff3fcf70-c183-4046-b310-5c316a40bd51","ios":"levelo://app?vid=ff3fcf70-c183-4046-b310-5c316a40bd51"},"vehicle_type_id":"4","last_reported":1761217787,"current_range_meters":17200,"station_id":"st_cvj6ca6bvosntc0bfgr0","pricing_plan_id":"cebpf4jnsgd1na2vs0mg"},{"bike_id":"7417245c-6691-4533-84c2-9d4acbe416c4","system_id":"levelo_inurba_marseille","lat":43.290299,"lon":5.359248,"is_reserved":false,"is_disabled":false,"rental_uris":{"android":"levelo://app?vid=7417245c-6691-4533-84c2-9d4acbe416c4","ios":"levelo://app?vid=7417245c-6691-4533-84c2-9d4acbe416c4"},"vehicle_type_id":"4","last_reported":1761217787,"current_range_meters":17200,"station_id":"","pricing_plan_id":"cebpf4jnsgd1na2vs0mg"},{"bike_id":"de6614d3-f5d0-4631-a6ac-aad439cfe511","system_id":"levelo_inurba_marseille","lat":43.24538,"lon":5.39537,"is_reserved":false,"is_disabled":true,"rental_uris":{"android":"levelo://app?vid=de6614d3-f5d0-4631-a6ac-aad439cfe511","ios":"levelo://app?vid=de6614d3-f5d0-4631-a6ac-aad439cfe511"},"vehicle_type_id":"4","last_reported":1761217787,"current_range_meters":17200,"station_id":"ce4bhlp2rcd13ifvqgjg","pricing_plan_id":"cebpf4jnsgd1na2vs0mg"},{"bike_id":"0e693f24-b475-4e05-8789-fe144bc148e8","system_id":"levelo_inurba_marseille","lat":43.28866,"lon":5.42533,"is_reserved":false,"is_disabled":false,"rental_uris":{"android":"levelo://app?vid=0e693f24-b475-4e05-8789-fe144bc148e8","ios":"levelo://app?vid=0e693f24-b475-4e05-8789-fe144bc148e8"},"vehicle_type_id":"4","last_reported":1761217787,"current_range_meters":17200,"station_id":"st_d3b462108ojc7389ooeg","pricing_plan_id":"cebpf4jnsgd1na2vs0mg"},{"bike_id":"e986eb56-ca00-4dbf-ada0-578bc3d8f529","system_id":"levelo_inurba_marseille","lat":43.27298,"lon":5.41421,"is_reserved":false,"is_disabled":false,"rental_uris":{"android":"levelo://app?vid=e986eb56-ca00-4dbf-ada0-578bc3d8f529","ios":"levelo://app?vid=e986eb56-ca00-4dbf-ada0-578bc3d8f529"},"vehicle_type_id":"4","last_reported":1761217787,"current_range_meters":17600,"station_id":"","pricing_plan_id":"cebpf4jnsgd1na2vs0mg"},{"bike_id":"75eebb0f-2447-4bf8-b846-45b5b359059b","system_id":"levelo_inurba_marseille","lat":43.33762,"lon":5.37487,"is_reserved":false,"is_disabled":false,"rental_uris":{"android":"levelo://app?vid=75eebb0f-2447-4bf8-b846-45b5b359059b","ios":"levelo://app?vid=75eebb0f-2447-4bf8-b846-45b5b359059b"},"vehicle_type_id":"4","last_reported":1761217787,"current_range_meters":17600,"station_id":"","pricing_plan_id":"cebpf4jnsgd1na2vs0mg"},{"bike_id":"bee9ad2f-aaea-4607-9ffa-be6bd0213b89","system_id":"levelo_inurba_marseille","lat":43.3374,"lon":5.39233,"is_reserved":false,"is_disabled":true,"rental_uris":{"android":"levelo://app?vid=bee9ad2f-aaea-4607-9ffa-be6bd0213b89","ios":"levelo://app?vid=bee9ad2f-aaea-4607-9ffa-be6bd0213b89"},"vehicle_type_id":"4","last_reported":1761217787,"current_range_meters":17600,"station_id":"ce4bhr92rcd13ifvqhsg","pricing_plan_id":"cebpf4jnsgd1na2vs0mg"},{"bike_id":"7877ff7b-2c57-444b-afd5-738313840c1f","system_id":"levelo_inurba_marseille","lat":43.301384,"lon":5.37419,"is_reserved":false,"is_disabled":false,"rental_uris":{"android":"levelo://app?vid=7877ff7b-2c57-444b-afd5-738313840c1f","ios":"levelo://app?vid=7877ff7b-2c57-444b-afd5-738313840c1f"},"vehicle_type_id":"4","last_reported":1761217787,"current_range_meters":17600,"station_id":"ce4bgs92rcd13ifvqcc0","pricing_plan_id":"cebpf4jnsgd1na2vs0mg"},{"bike_id":"72cd12c6-404a-49f2-9b1c-943e6c1192c6","system_id":"levelo_inurba_marseille","lat":43.28936,"lon":5.3841,"is_reserved":false,"is_disabled":false,"rental_uris":{"android":"levelo://app?vid=72cd12c6-404a-49f2-9b1c-943e6c1192c6","ios":"levelo://app?vid=72cd12c6-404a-49f2-9b1c-943e6c1192c6"},"vehicle_type_id":"4","last_reported":1761217787,"current_range_meters":17600,"station_id":"ce4bh612rcd13ifvqe6g","pricing_plan_id":"cebpf4jnsgd1na2vs0mg"},{"bike_id":"b21b6ff6-0929-4acd-a3b0-3f248e63c66d","system_id":"levelo_inurba_marseille","lat":43.32115,"lon":5.36779,"is_reserved":false,"is_disabled":false,"rental_uris":{"android":"levelo://app?vid=b21b6ff6-0929-4acd-a3b0-3f248e63c66d","ios":"levelo://app?vid=b21b6ff6-0929-4acd-a3b0-3f248e63c66d"},"vehicle_type_id":"4","last_reported":1761217787,"current_range_meters":18000,"station_id":"ce4bhrh2rcd13ifvqhug","pricing_plan_id":"cebpf4jnsgd1na2vs0mg"},{"bike_id":"2e516aa3-da3f-4cd4-8d7a-1dc8bf5d8ddd","system_id":"levelo_inurba_marseille","lat":43.32109,"lon":5.36774,"is_reserved":false,"is_disabled":false,"rental_uris":{"android":"levelo://app?vid=2e516aa3-da3f-4cd4-8d7a-1dc8bf5d8ddd","ios":"levelo://app?vid=2e516aa3-da3f-4cd4-8d7a-1dc8bf5d8ddd"},"vehicle_type_id":"4","last_reported":1761217787,"current_range_meters":18000,"station_id":"ce4bhrh2rcd13ifvqhug","pricing_plan_id":"cebpf4jnsgd1na2vs0mg"},{"bike_id":"1047a07c-69ed-4b8d-9b0e-4a0a610c0beb","system_id":"levelo_inurba_marseille","lat":43.273066,"lon":5.390617,"is_reserved":false,"is_disabled":false,"rental_uris":{"android":"levelo://app?vid=1047a07c-69ed-4b8d-9b0e-4a0a610c0beb","ios":"levelo://app?vid=1047a07c-69ed-4b8d-9b0e-4a0a610c0beb"},"vehicle_type_id":"4","last_reported":1761217787,"current_range_meters":18000,"station_id":"ce4bhgp2rcd13ifvqfe0","pricing_plan_id":"cebpf4jnsgd1na2vs0mg"},{"bike_id":"fbd43c16-80c5-483d-b238-504e66d17f8d","system_id":"levelo_inurba_marseille","lat":43.28615,"lon":5.35104,"is_reserved":false,"is_disabled":false,"rental_uris":{"android":"levelo://app?vid=fbd43c16-80c5-483d-b238-504e66d17f8d","ios":"levelo://app?vid=fbd43c16-80c5-483d-b238-504e66d17f8d"},"vehicle_type_id":"4","last_reported":1761217787,"current_range_meters":18000,"station_id":"ce4bhch2rcd13ifvqeug","pricing_plan_id":"cebpf4jnsgd1na2vs0mg"},{"bike_id":"700ba852-502b-4548-93e2-c530c2b9889c","system_id":"levelo_inurba_marseille","lat":43.305435,"lon":5.365576,"is_reserved":false,"is_disabled":false,"rental_uris":{"android":"levelo://app?vid=700ba852-502b-4548-93e2-c530c2b9889c","ios":"levelo://app?vid=700ba852-502b-4548-93e2-c530c2b9889c"},"vehicle_type_id":"4","last_reported":1761217787,"current_range_meters":18000,"station_id":"ce4bgs12rcd13ifvqcag","pricing_plan_id":"cebpf4jnsgd1na2vs0mg"},{"bike_id":"d2357778-68e1-4241-9805-2ef8b4081018","system_id":"levelo_inurba_marseille","lat":43.30971,"lon":5.39041,"is_reserved":false,"is_disabled":false,"rental_uris":{"android":"levelo://app?vid=d2357778-68e1-4241-9805-2ef8b4081018","ios":"levelo://app?vid=d2357778-68e1-4241-9805-2ef8b4081018"},"vehicle_type_id":"4","last_reported":1761217787,"current_range_meters":18000,"station_id":"ce4bgup2rcd13ifvqco0","pricing_plan_id":"cebpf4jnsgd1na2vs0mg"},{"bike_id":"109be5bf-28b0-4917-9975-4dcb65adef3c","system_id":"levelo_inurba_marseille","lat":43.280495,"lon":5.368805,"is_reserved":false,"is_disabled":false,"rental_uris":{"android":"levelo://app?vid=109be5bf-28b0-4917-9975-4dcb65adef3c","ios":"levelo://app?vid=109be5bf-28b0-4917-9975-4dcb65adef3c"},"vehicle_type_id":"4","last_reported":1761217787,"current_range_meters":18000,"station_id":"ce4bha12rcd13ifvqef0","pricing_plan_id":"cebpf4jnsgd1na2vs0mg"},{"bike_id":"d9ecb998-ceaa-4a39-8aba-9f0e44069447","system_id":"levelo_inurba_marseille","lat":43.32147,"lon":5.38731,"is_reserved":false,"is_disabled":false,"rental_uris":{"android":"levelo://app?vid=d9ecb998-ceaa-4a39-8aba-9f0e44069447","ios":"levelo://app?vid=d9ecb998-ceaa-4a39-8aba-9f0e44069447"},"vehicle_type_id":"4","last_reported":1761217787,"current_range_meters":18000,"station_id":"","pricing_plan_id":"cebpf4jnsgd1na2vs0mg"},{"bike_id":"0a4d81c6-2647-4e67-bde2-b7adbc7ef2ba","system_id":"levelo_inurba_marseille","lat":43.28516,"lon":5.44071,"is_reserved":false,"is_disabled":true,"rental_uris":{"android":"levelo://app?vid=0a4d81c6-2647-4e67-bde2-b7adbc7ef2ba","ios":"levelo://app?vid=0a4d81c6-2647-4e67-bde2-b7adbc7ef2ba"},"vehicle_type_id":"4","last_reported":1761217787,"current_range_meters":18800,"station_id":"st_d3j3df2ikq2c7380ej80","pricing_plan_id":"cebpf4jnsgd1na2vs0mg"},{"bike_id":"6250ac27-ee37-41d1-bc0f-a615c7912f4a","system_id":"levelo_inurba_marseille","lat":43.32355,"lon":5.36748,"is_reserved":false,"is_disabled":false,"rental_uris":{"android":"levelo://app?vid=6250ac27-ee37-41d1-bc0f-a615c7912f4a","ios":"levelo://app?vid=6250ac27-ee37-41d1-bc0f-a615c7912f4a"},"vehicle_type_id":"4","last_reported":1761217787,"current_range_meters":18800,"station_id":"ce4bhsh2rcd13ifvqi2g","pricing_plan_id":"cebpf4jnsgd1na2vs0mg"},{"bike_id":"6552118e-9997-496d-8ae3-3aae82824535","system_id":"levelo_inurba_marseille","lat":43.32246,"lon":5.38357,"is_reserved":false,"is_disabled":false,"rental_uris":{"android":"levelo://app?vid=6552118e-9997-496d-8ae3-3aae82824535","ios":"levelo://app?vid=6552118e-9997-496d-8ae3-3aae82824535"},"vehicle_type_id":"4","last_reported":1761217787,"current_range_meters":18800,"station_id":"","pricing_plan_id":"cebpf4jnsgd1na2vs0mg"},{"bike_id":"b5cbee6e-024a-4e35-b20c-bff433fca7cc","system_id":"levelo_inurba_marseille","lat":43.2257,"lon":5.41621,"is_reserved":false,"is_disabled":false,"rental_uris":{"android":"levelo://app?vid=b5cbee6e-024a-4e35-b20c-bff433fca7cc","ios":"levelo://app?vid=b5cbee6e-024a-4e35-b20c-bff433fca7cc"},"vehicle_type_id":"4","last_reported":1761217787,"current_range_meters":18800,"station_id":"st_d2o4gvlbi1j2169b742g","pricing_plan_id":"cebpf4jnsgd1na2vs0mg"},{"bike_id":"5db0d44d-18b4-422a-9766-a3218057e91c","system_id":"levelo_inurba_marseille","lat":43.22932,"lon":5.35382,"is_reserved":false,"is_disabled":false,"rental_uris":{"android":"levelo://app?vid=5db0d44d-18b4-422a-9766-a3218057e91c","ios":"levelo://app?vid=5db0d44d-18b4-422a-9766-a3218057e91c"},"vehicle_type_id":"4","last_reported":1761217787,"current_range_meters":18800,"station_id":"cpo3532slgdg3j2ikp40","pricing_plan_id":"cebpf4jnsgd1na2vs0mg"},{"bike_id":"d217877a-f518-46e1-af73-d33d50b5109d","system_id":"levelo_inurba_marseille","lat":43.26952,"lon":5.38634,"is_reserved":false,"is_disabled":false,"rental_uris":{"android":"levelo://app?vid=d217877a-f518-46e1-af73-d33d50b5109d","ios":"levelo://app?vid=d217877a-f518-46e1-af73-d33d50b5109d"},"vehicle_type_id":"4","last_reported":1761217787,"current_range_meters":18800,"station_id":"ce4bhh92rcd13ifvqfh0","pricing_plan_id":"cebpf4jnsgd1na2vs0mg"},{"bike_id":"f8c755d7-1bb8-4fcd-bb3f-74aeb49951cc","system_id":"levelo_inurba_marseille","lat":43.313778,"lon":5.379011,"is_reserved":false,"is_disabled":false,"rental_uris":{"android":"levelo://app?vid=f8c755d7-1bb8-4fcd-bb3f-74aeb49951cc","ios":"levelo://app?vid=f8c755d7-1bb8-4fcd-bb3f-74aeb49951cc"},"vehicle_type_id":"4","last_reported":1761217787,"current_range_meters":19200,"station_id":"","pricing_plan_id":"cebpf4jnsgd1na2vs0mg"},{"bike_id":"f35844a0-cbdb-4244-80ae-0f6221eae844","system_id":"levelo_inurba_marseille","lat":43.26684,"lon":5.38274,"is_reserved":false,"is_disabled":false,"rental_uris":{"android":"levelo://app?vid=f35844a0-cbdb-4244-80ae-0f6221eae844","ios":"levelo://app?vid=f35844a0-cbdb-4244-80ae-0f6221eae844"},"vehicle_type_id":"4","last_reported":1761217787,"current_range_meters":19200,"station_id":"ce4bhg92rcd13ifvqf90","pricing_plan_id":"cebpf4jnsgd1na2vs0mg"},{"bike_id":"27d2104d-1b8f-4689-8074-7a744a934c06","system_id":"levelo_inurba_marseille","lat":43.241791,"lon":5.397231,"is_reserved":false,"is_disabled":false,"rental_uris":{"android":"levelo://app?vid=27d2104d-1b8f-4689-8074-7a744a934c06","ios":"levelo://app?vid=27d2104d-1b8f-4689-8074-7a744a934c06"},"vehicle_type_id":"4","last_reported":1761217787,"current_range_meters":19200,"station_id":"ce4bhn12rcd13ifvqgpg","pricing_plan_id":"cebpf4jnsgd1na2vs0mg"},{"bike_id":"0c216ec5-2d75-4ee4-a223-b0d23bee74b5","system_id":"levelo_inurba_marseille","lat":43.246476,"lon":5.388906,"is_reserved":false,"is_disabled":false,"rental_uris":{"android":"levelo://app?vid=0c216ec5-2d75-4ee4-a223-b0d23bee74b5","ios":"levelo://app?vid=0c216ec5-2d75-4ee4-a223-b0d23bee74b5"},"vehicle_type_id":"4","last_reported":1761217787,"current_range_meters":19200,"station_id":"ce4bhg12rcd13ifvqf60","pricing_plan_id":"cebpf4jnsgd1na2vs0mg"},{"bike_id":"692a999f-f646-43fe-b949-d58fd32447f4","system_id":"levelo_inurba_marseille","lat":43.32254,"lon":5.3944,"is_reserved":false,"is_disabled":false,"rental_uris":{"android":"levelo://app?vid=692a999f-f646-43fe-b949-d58fd32447f4","ios":"levelo://app?vid=692a999f-f646-43fe-b949-d58fd32447f4"},"vehicle_type_id":"4","last_reported":1761217787,"current_range_meters":19200,"station_id":"","pricing_plan_id":"cebpf4jnsgd1na2vs0mg"},{"bike_id":"97196623-df75-4d14-88fc-cd4dfd009ddb","system_id":"levelo_inurba_marseille","lat":43.28411,"lon":5.375,"is_reserved":false,"is_disabled":false,"rental_uris":{"android":"levelo://app?vid=97196623-df75-4d14-88fc-cd4dfd009ddb","ios":"levelo://app?vid=97196623-df75-4d14-88fc-cd4dfd009ddb"},"vehicle_type_id":"4","last_reported":1761217787,"current_range_meters":19200,"station_id":"ce4bh412rcd13ifvqds0","pricing_plan_id":"cebpf4jnsgd1na2vs0mg"},{"bike_id":"e79dee5d-ae56-49fc-b711-bf074bb53f4d","system_id":"levelo_inurba_marseille","lat":43.28617,"lon":5.37057,"is_reserved":false,"is_disabled":false,"rental_uris":{"android":"levelo://app?vid=e79dee5d-ae56-49fc-b711-bf074bb53f4d","ios":"levelo://app?vid=e79dee5d-ae56-49fc-b711-bf074bb53f4d"},"vehicle_type_id":"4","last_reported":1761217787,"current_range_meters":19600,"station_id":"ce4bht12rcd13ifvqi60","pricing_plan_id":"cebpf4jnsgd1na2vs0mg"},{"bike_id":"62f0a2f8-d352-4580-a096-e8ce56ffccdb","system_id":"levelo_inurba_marseille","lat":43.32093,"lon":5.36759,"is_reserved":false,"is_disabled":false,"rental_uris":{"android":"levelo://app?vid=62f0a2f8-d352-4580-a096-e8ce56ffccdb","ios":"levelo://app?vid=62f0a2f8-d352-4580-a096-e8ce56ffccdb"},"vehicle_type_id":"4","last_reported":1761217787,"current_range_meters":19600,"station_id":"ce4bhrh2rcd13ifvqhug","pricing_plan_id":"cebpf4jnsgd1na2vs0mg"},{"bike_id":"ac9b5b0f-8735-4757-8bf2-f97e3f542d3a","system_id":"levelo_inurba_marseille","lat":43.30526,"lon":5.36535,"is_reserved":false,"is_disabled":false,"rental_uris":{"android":"levelo://app?vid=ac9b5b0f-8735-4757-8bf2-f97e3f542d3a","ios":"levelo://app?vid=ac9b5b0f-8735-4757-8bf2-f97e3f542d3a"},"vehicle_type_id":"4","last_reported":1761217787,"current_range_meters":19600,"station_id":"ce4bgs12rcd13ifvqcag","pricing_plan_id":"cebpf4jnsgd1na2vs0mg"},{"bike_id":"75552eb5-38a2-43ca-9291-cacb859b6f73","system_id":"levelo_inurba_marseille","lat":43.284215,"lon":5.349847,"is_reserved":false,"is_disabled":false,"rental_uris":{"android":"levelo://app?vid=75552eb5-38a2-43ca-9291-cacb859b6f73","ios":"levelo://app?vid=75552eb5-38a2-43ca-9291-cacb859b6f73"},"vehicle_type_id":"4","last_reported":1761217787,"current_range_meters":19600,"station_id":"","pricing_plan_id":"cebpf4jnsgd1na2vs0mg"},{"bike_id":"132d518f-7a3d-4ef9-b7f4-7299be05fb1b","system_id":"levelo_inurba_marseille","lat":43.31878,"lon":5.39987,"is_reserved":false,"is_disabled":false,"rental_uris":{"android":"levelo://app?vid=132d518f-7a3d-4ef9-b7f4-7299be05fb1b","ios":"levelo://app?vid=132d518f-7a3d-4ef9-b7f4-7299be05fb1b"},"vehicle_type_id":"4","last_reported":1761217787,"current_range_meters":19600,"station_id":"","pricing_plan_id":"cebpf4jnsgd1na2vs0mg"},{"bike_id":"7e3f0c29-c7cf-4648-8c63-90f647962dab","system_id":"levelo_inurba_marseille","lat":43.29885,"lon":5.43637,"is_reserved":false,"is_disabled":false,"rental_uris":{"android":"levelo://app?vid=7e3f0c29-c7cf-4648-8c63-90f647962dab","ios":"levelo://app?vid=7e3f0c29-c7cf-4648-8c63-90f647962dab"},"vehicle_type_id":"4","last_reported":1761217787,"current_range_meters":19600,"station_id":"ce4bhpp2rcd13ifvqhfg","pricing_plan_id":"cebpf4jnsgd1na2vs0mg"},{"bike_id":"52a04b7c-586f-491c-aded-7c538741c912","system_id":"levelo_inurba_marseille","lat":43.30319,"lon":5.36895,"is_reserved":false,"is_disabled":false,"rental_uris":{"android":"levelo://app?vid=52a04b7c-586f-491c-aded-7c538741c912","ios":"levelo://app?vid=52a04b7c-586f-491c-aded-7c538741c912"},"vehicle_type_id":"4","last_reported":1761217787,"current_range_meters":19600,"station_id":"ce4bgqh2rcd13ifvqc5g","pricing_plan_id":"cebpf4jnsgd1na2vs0mg"},{"bike_id":"1c724c32-136a-4882-b8fb-05498017c61b","system_id":"levelo_inurba_marseille","lat":43.290265,"lon":5.381403,"is_reserved":false,"is_disabled":false,"rental_uris":{"android":"levelo://app?vid=1c724c32-136a-4882-b8fb-05498017c61b","ios":"levelo://app?vid=1c724c32-136a-4882-b8fb-05498017c61b"},"vehicle_type_id":"4","last_reported":1761217787,"current_range_meters":19600,"station_id":"ce4bh4p2rcd13ifvqe1g","pricing_plan_id":"cebpf4jnsgd1na2vs0mg"},{"bike_id":"48d5b4fb-1d3b-41c0-ac2d-b284e77a195a","system_id":"levelo_inurba_marseille","lat":43.27492,"lon":5.42447,"is_reserved":false,"is_disabled":false,"rental_uris":{"android":"levelo://app?vid=48d5b4fb-1d3b-41c0-ac2d-b284e77a195a","ios":"levelo://app?vid=48d5b4fb-1d3b-41c0-ac2d-b284e77a195a"},"vehicle_type_id":"4","last_reported":1761217787,"current_range_meters":19600,"station_id":"ce4bhn92rcd13ifvqgrg","pricing_plan_id":"cebpf4jnsgd1na2vs0mg"},{"bike_id":"77124793-d73a-43ea-8840-1a1b5476fa23","system_id":"levelo_inurba_marseille","lat":43.31045,"lon":5.38068,"is_reserved":false,"is_disabled":false,"rental_uris":{"android":"levelo://app?vid=77124793-d73a-43ea-8840-1a1b5476fa23","ios":"levelo://app?vid=77124793-d73a-43ea-8840-1a1b5476fa23"},"vehicle_type_id":"4","last_reported":1761217787,"current_range_meters":19600,"station_id":"","pricing_plan_id":"cebpf4jnsgd1na2vs0mg"},{"bike_id":"279ca38d-dc52-48a5-9495-b3771074cced","system_id":"levelo_inurba_marseille","lat":43.30323,"lon":5.36906,"is_reserved":false,"is_disabled":false,"rental_uris":{"android":"levelo://app?vid=279ca38d-dc52-48a5-9495-b3771074cced","ios":"levelo://app?vid=279ca38d-dc52-48a5-9495-b3771074cced"},"vehicle_type_id":"4","last_reported":1761217787,"current_range_meters":20000,"station_id":"ce4bgqh2rcd13ifvqc5g","pricing_plan_id":"cebpf4jnsgd1na2vs0mg"},{"bike_id":"47f09c0c-92a9-44eb-a23c-69934b3ff134","system_id":"levelo_inurba_marseille","lat":43.3012,"lon":5.43114,"is_reserved":false,"is_disabled":false,"rental_uris":{"android":"levelo://app?vid=47f09c0c-92a9-44eb-a23c-69934b3ff134","ios":"levelo://app?vid=47f09c0c-92a9-44eb-a23c-69934b3ff134"},"vehicle_type_id":"4","last_reported":1761217787,"current_range_meters":20000,"station_id":"st_d3js3co5814s73ftftug","pricing_plan_id":"cebpf4jnsgd1na2vs0mg"},{"bike_id":"83e49a6b-1e4a-4d42-8038-76add0439f72","system_id":"levelo_inurba_marseille","lat":43.2731,"lon":5.39077,"is_reserved":false,"is_disabled":false,"rental_uris":{"android":"levelo://app?vid=83e49a6b-1e4a-4d42-8038-76add0439f72","ios":"levelo://app?vid=83e49a6b-1e4a-4d42-8038-76add0439f72"},"vehicle_type_id":"4","last_reported":1761217787,"current_range_meters":20000,"station_id":"ce4bhgp2rcd13ifvqfe0","pricing_plan_id":"cebpf4jnsgd1na2vs0mg"},{"bike_id":"df76a65d-68a6-4111-9413-af1547686a59","system_id":"levelo_inurba_marseille","lat":43.305592,"lon":5.365701,"is_reserved":false,"is_disabled":false,"rental_uris":{"android":"levelo://app?vid=df76a65d-68a6-4111-9413-af1547686a59","ios":"levelo://app?vid=df76a65d-68a6-4111-9413-af1547686a59"},"vehicle_type_id":"4","last_reported":1761217787,"current_range_meters":20400,"station_id":"ce4bgs12rcd13ifvqcag","pricing_plan_id":"cebpf4jnsgd1na2vs0mg"},{"bike_id":"5c976359-25a6-4f53-b534-b306d6df5a17","system_id":"levelo_inurba_marseille","lat":43.315306,"lon":5.380274,"is_reserved":false,"is_disabled":false,"rental_uris":{"android":"levelo://app?vid=5c976359-25a6-4f53-b534-b306d6df5a17","ios":"levelo://app?vid=5c976359-25a6-4f53-b534-b306d6df5a17"},"vehicle_type_id":"4","last_reported":1761217787,"current_range_meters":20400,"station_id":"ce4bhsp2rcd13ifvqi50","pricing_plan_id":"cebpf4jnsgd1na2vs0mg"},{"bike_id":"567c1a66-b7b4-4cd4-a342-c5ee3c5788a0","system_id":"levelo_inurba_marseille","lat":43.29188,"lon":5.39312,"is_reserved":false,"is_disabled":false,"rental_uris":{"android":"levelo://app?vid=567c1a66-b7b4-4cd4-a342-c5ee3c5788a0","ios":"levelo://app?vid=567c1a66-b7b4-4cd4-a342-c5ee3c5788a0"},"vehicle_type_id":"4","last_reported":1761217787,"current_range_meters":20400,"station_id":"ce4bh192rcd13ifvqdd0","pricing_plan_id":"cebpf4jnsgd1na2vs0mg"},{"bike_id":"ed7ed02d-d57c-4224-9075-7d0ce7819fa0","system_id":"levelo_inurba_marseille","lat":43.30146,"lon":5.37423,"is_reserved":false,"is_disabled":false,"rental_uris":{"android":"levelo://app?vid=ed7ed02d-d57c-4224-9075-7d0ce7819fa0","ios":"levelo://app?vid=ed7ed02d-d57c-4224-9075-7d0ce7819fa0"},"vehicle_type_id":"4","last_reported":1761217787,"current_range_meters":20400,"station_id":"ce4bgs92rcd13ifvqcc0","pricing_plan_id":"cebpf4jnsgd1na2vs0mg"},{"bike_id":"065275b9-2ae2-45b2-bfaf-aad021936445","system_id":"levelo_inurba_marseille","lat":43.29615,"lon":5.37732,"is_reserved":false,"is_disabled":false,"rental_uris":{"android":"levelo://app?vid=065275b9-2ae2-45b2-bfaf-aad021936445","ios":"levelo://app?vid=065275b9-2ae2-45b2-bfaf-aad021936445"},"vehicle_type_id":"4","last_reported":1761217787,"current_range_meters":20400,"station_id":"ce4bgi92rcd13ifvqb90","pricing_plan_id":"cebpf4jnsgd1na2vs0mg"},{"bike_id":"1316ae57-eb56-4e6b-a70d-c7eecf200875","system_id":"levelo_inurba_marseille","lat":43.296017,"lon":5.380827,"is_reserved":false,"is_disabled":true,"rental_uris":{"android":"levelo://app?vid=1316ae57-eb56-4e6b-a70d-c7eecf200875","ios":"levelo://app?vid=1316ae57-eb56-4e6b-a70d-c7eecf200875"},"vehicle_type_id":"4","last_reported":1761217787,"current_range_meters":20400,"station_id":"ce4bgl12rcd13ifvqbo0","pricing_plan_id":"cebpf4jnsgd1na2vs0mg"},{"bike_id":"ebd13387-5d7b-4cae-a0fc-14085b73b88b","system_id":"levelo_inurba_marseille","lat":43.30264,"lon":5.37695,"is_reserved":false,"is_disabled":false,"rental_uris":{"android":"levelo://app?vid=ebd13387-5d7b-4cae-a0fc-14085b73b88b","ios":"levelo://app?vid=ebd13387-5d7b-4cae-a0fc-14085b73b88b"},"vehicle_type_id":"4","last_reported":1761217787,"current_range_meters":20400,"station_id":"ce4bguh2rcd13ifvqcj0","pricing_plan_id":"cebpf4jnsgd1na2vs0mg"},{"bike_id":"6e413169-4f07-48f8-9049-c5a7da660ded","system_id":"levelo_inurba_marseille","lat":43.28284,"lon":5.35071,"is_reserved":false,"is_disabled":false,"rental_uris":{"android":"levelo://app?vid=6e413169-4f07-48f8-9049-c5a7da660ded","ios":"levelo://app?vid=6e413169-4f07-48f8-9049-c5a7da660ded"},"vehicle_type_id":"4","last_reported":1761217787,"current_range_meters":20400,"station_id":"ce4bhnh2rcd13ifvqgug","pricing_plan_id":"cebpf4jnsgd1na2vs0mg"},{"bike_id":"3c897e7a-ca67-4c02-b1ad-be4bdeb2680f","system_id":"levelo_inurba_marseille","lat":43.23145,"lon":5.43713,"is_reserved":false,"is_disabled":false,"rental_uris":{"android":"levelo://app?vid=3c897e7a-ca67-4c02-b1ad-be4bdeb2680f","ios":"levelo://app?vid=3c897e7a-ca67-4c02-b1ad-be4bdeb2680f"},"vehicle_type_id":"4","last_reported":1761217787,"current_range_meters":20800,"station_id":"ce4bhmp2rcd13ifvqgog","pricing_plan_id":"cebpf4jnsgd1na2vs0mg"},{"bike_id":"3b22550e-05c3-472a-9a98-652dcfc2fc42","system_id":"levelo_inurba_marseille","lat":43.30142,"lon":5.37415,"is_reserved":false,"is_disabled":false,"rental_uris":{"android":"levelo://app?vid=3b22550e-05c3-472a-9a98-652dcfc2fc42","ios":"levelo://app?vid=3b22550e-05c3-472a-9a98-652dcfc2fc42"},"vehicle_type_id":"4","last_reported":1761217787,"current_range_meters":20800,"station_id":"ce4bgs92rcd13ifvqcc0","pricing_plan_id":"cebpf4jnsgd1na2vs0mg"},{"bike_id":"ace3309e-9a2e-46b8-802d-e7cc0a911f9d","system_id":"levelo_inurba_marseille","lat":43.32358,"lon":5.36753,"is_reserved":false,"is_disabled":false,"rental_uris":{"android":"levelo://app?vid=ace3309e-9a2e-46b8-802d-e7cc0a911f9d","ios":"levelo://app?vid=ace3309e-9a2e-46b8-802d-e7cc0a911f9d"},"vehicle_type_id":"4","last_reported":1761217787,"current_range_meters":20800,"station_id":"ce4bhsh2rcd13ifvqi2g","pricing_plan_id":"cebpf4jnsgd1na2vs0mg"},{"bike_id":"e4d9d28d-de5d-4eba-b45f-0315c6967297","system_id":"levelo_inurba_marseille","lat":43.25106,"lon":5.39532,"is_reserved":false,"is_disabled":false,"rental_uris":{"android":"levelo://app?vid=e4d9d28d-de5d-4eba-b45f-0315c6967297","ios":"levelo://app?vid=e4d9d28d-de5d-4eba-b45f-0315c6967297"},"vehicle_type_id":"4","last_reported":1761217787,"current_range_meters":20800,"station_id":"ce4bhm12rcd13ifvqgkg","pricing_plan_id":"cebpf4jnsgd1na2vs0mg"},{"bike_id":"b34e235c-a1b8-48d3-a52d-bd9f5fe993df","system_id":"levelo_inurba_marseille","lat":43.28611,"lon":5.35105,"is_reserved":false,"is_disabled":false,"rental_uris":{"android":"levelo://app?vid=b34e235c-a1b8-48d3-a52d-bd9f5fe993df","ios":"levelo://app?vid=b34e235c-a1b8-48d3-a52d-bd9f5fe993df"},"vehicle_type_id":"4","last_reported":1761217787,"current_range_meters":20800,"station_id":"ce4bhch2rcd13ifvqeug","pricing_plan_id":"cebpf4jnsgd1na2vs0mg"},{"bike_id":"d216f701-d039-416d-8464-d2169e2c53fe","system_id":"levelo_inurba_marseille","lat":43.229396,"lon":5.353752,"is_reserved":false,"is_disabled":false,"rental_uris":{"android":"levelo://app?vid=d216f701-d039-416d-8464-d2169e2c53fe","ios":"levelo://app?vid=d216f701-d039-416d-8464-d2169e2c53fe"},"vehicle_type_id":"4","last_reported":1761217787,"current_range_meters":20800,"station_id":"cpo3532slgdg3j2ikp40","pricing_plan_id":"cebpf4jnsgd1na2vs0mg"},{"bike_id":"0d3eec90-02bb-4c37-9a6e-7c8ccd139a05","system_id":"levelo_inurba_marseille","lat":43.31222,"lon":5.36863,"is_reserved":false,"is_disabled":false,"rental_uris":{"android":"levelo://app?vid=0d3eec90-02bb-4c37-9a6e-7c8ccd139a05","ios":"levelo://app?vid=0d3eec90-02bb-4c37-9a6e-7c8ccd139a05"},"vehicle_type_id":"4","last_reported":1761217787,"current_range_meters":21600,"station_id":"ce4bgl92rcd13ifvqbq0","pricing_plan_id":"cebpf4jnsgd1na2vs0mg"},{"bike_id":"9f342bfe-280d-4a8d-bb77-7a005df6628c","system_id":"levelo_inurba_marseille","lat":43.28868,"lon":5.42511,"is_reserved":false,"is_disabled":false,"rental_uris":{"android":"levelo://app?vid=9f342bfe-280d-4a8d-bb77-7a005df6628c","ios":"levelo://app?vid=9f342bfe-280d-4a8d-bb77-7a005df6628c"},"vehicle_type_id":"4","last_reported":1761217787,"current_range_meters":21600,"station_id":"st_d3b462108ojc7389ooeg","pricing_plan_id":"cebpf4jnsgd1na2vs0mg"},{"bike_id":"18639f94-2e90-4394-abfb-ade632d59406","system_id":"levelo_inurba_marseille","lat":43.25926,"lon":5.40888,"is_reserved":false,"is_disabled":false,"rental_uris":{"android":"levelo://app?vid=18639f94-2e90-4394-abfb-ade632d59406","ios":"levelo://app?vid=18639f94-2e90-4394-abfb-ade632d59406"},"vehicle_type_id":"4","last_reported":1761217787,"current_range_meters":21600,"station_id":"ce4bhm92rcd13ifvqglg","pricing_plan_id":"cebpf4jnsgd1na2vs0mg"},{"bike_id":"4c43eb30-4eb5-4c38-af70-7de4bb36ec15","system_id":"levelo_inurba_marseille","lat":43.296753,"lon":5.377494,"is_reserved":false,"is_disabled":false,"rental_uris":{"android":"levelo://app?vid=4c43eb30-4eb5-4c38-af70-7de4bb36ec15","ios":"levelo://app?vid=4c43eb30-4eb5-4c38-af70-7de4bb36ec15"},"vehicle_type_id":"4","last_reported":1761217787,"current_range_meters":21600,"station_id":"ce4bgkh2rcd13ifvqbl0","pricing_plan_id":"cebpf4jnsgd1na2vs0mg"},{"bike_id":"fc11c76f-83a7-40a2-b428-0b7901eb55b8","system_id":"levelo_inurba_marseille","lat":43.28228,"lon":5.39062,"is_reserved":false,"is_disabled":false,"rental_uris":{"android":"levelo://app?vid=fc11c76f-83a7-40a2-b428-0b7901eb55b8","ios":"levelo://app?vid=fc11c76f-83a7-40a2-b428-0b7901eb55b8"},"vehicle_type_id":"4","last_reported":1761217787,"current_range_meters":21600,"station_id":"ce4bhn92rcd13ifvqgsg","pricing_plan_id":"cebpf4jnsgd1na2vs0mg"},{"bike_id":"e8d601b0-a167-46e8-bdbe-6cab2d1d99e2","system_id":"levelo_inurba_marseille","lat":43.30149,"lon":5.37417,"is_reserved":false,"is_disabled":false,"rental_uris":{"android":"levelo://app?vid=e8d601b0-a167-46e8-bdbe-6cab2d1d99e2","ios":"levelo://app?vid=e8d601b0-a167-46e8-bdbe-6cab2d1d99e2"},"vehicle_type_id":"4","last_reported":1761217787,"current_range_meters":21600,"station_id":"ce4bgs92rcd13ifvqcc0","pricing_plan_id":"cebpf4jnsgd1na2vs0mg"},{"bike_id":"58965090-9c49-4622-900b-2537a598e432","system_id":"levelo_inurba_marseille","lat":43.24177,"lon":5.39726,"is_reserved":false,"is_disabled":false,"rental_uris":{"android":"levelo://app?vid=58965090-9c49-4622-900b-2537a598e432","ios":"levelo://app?vid=58965090-9c49-4622-900b-2537a598e432"},"vehicle_type_id":"4","last_reported":1761217787,"current_range_meters":21600,"station_id":"ce4bhn12rcd13ifvqgpg","pricing_plan_id":"cebpf4jnsgd1na2vs0mg"},{"bike_id":"c4574ecd-db56-4d9d-965f-9b92dc7d5835","system_id":"levelo_inurba_marseille","lat":43.239479,"lon":5.36648,"is_reserved":false,"is_disabled":false,"rental_uris":{"android":"levelo://app?vid=c4574ecd-db56-4d9d-965f-9b92dc7d5835","ios":"levelo://app?vid=c4574ecd-db56-4d9d-965f-9b92dc7d5835"},"vehicle_type_id":"4","last_reported":1761217787,"current_range_meters":22000,"station_id":"ce4bhi12rcd13ifvqfp0","pricing_plan_id":"cebpf4jnsgd1na2vs0mg"},{"bike_id":"e1c62d0d-9599-45de-b756-18a429ef158e","system_id":"levelo_inurba_marseille","lat":43.25723,"lon":5.41113,"is_reserved":false,"is_disabled":false,"rental_uris":{"android":"levelo://app?vid=e1c62d0d-9599-45de-b756-18a429ef158e","ios":"levelo://app?vid=e1c62d0d-9599-45de-b756-18a429ef158e"},"vehicle_type_id":"4","last_reported":1761217787,"current_range_meters":22000,"station_id":"ce4bhkp2rcd13ifvqgd0","pricing_plan_id":"cebpf4jnsgd1na2vs0mg"},{"bike_id":"0a723358-d01f-42dc-bbe2-392220ef61e2","system_id":"levelo_inurba_marseille","lat":43.30953,"lon":5.39041,"is_reserved":false,"is_disabled":false,"rental_uris":{"android":"levelo://app?vid=0a723358-d01f-42dc-bbe2-392220ef61e2","ios":"levelo://app?vid=0a723358-d01f-42dc-bbe2-392220ef61e2"},"vehicle_type_id":"4","last_reported":1761217787,"current_range_meters":22000,"station_id":"ce4bgup2rcd13ifvqco0","pricing_plan_id":"cebpf4jnsgd1na2vs0mg"},{"bike_id":"68331855-b34a-4cd3-8007-514c7b2f284b","system_id":"levelo_inurba_marseille","lat":43.26948,"lon":5.38642,"is_reserved":false,"is_disabled":false,"rental_uris":{"android":"levelo://app?vid=68331855-b34a-4cd3-8007-514c7b2f284b","ios":"levelo://app?vid=68331855-b34a-4cd3-8007-514c7b2f284b"},"vehicle_type_id":"4","last_reported":1761217787,"current_range_meters":22000,"station_id":"ce4bhh92rcd13ifvqfh0","pricing_plan_id":"cebpf4jnsgd1na2vs0mg"},{"bike_id":"41b38381-46a8-4be3-b68d-7af582a927d9","system_id":"levelo_inurba_marseille","lat":43.30492,"lon":5.37948,"is_reserved":false,"is_disabled":false,"rental_uris":{"android":"levelo://app?vid=41b38381-46a8-4be3-b68d-7af582a927d9","ios":"levelo://app?vid=41b38381-46a8-4be3-b68d-7af582a927d9"},"vehicle_type_id":"4","last_reported":1761217787,"current_range_meters":22000,"station_id":"","pricing_plan_id":"cebpf4jnsgd1na2vs0mg"},{"bike_id":"2bfe86be-a718-4651-a8e7-9a2bc3634288","system_id":"levelo_inurba_marseille","lat":43.23958,"lon":5.36609,"is_reserved":false,"is_disabled":false,"rental_uris":{"android":"levelo://app?vid=2bfe86be-a718-4651-a8e7-9a2bc3634288","ios":"levelo://app?vid=2bfe86be-a718-4651-a8e7-9a2bc3634288"},"vehicle_type_id":"4","last_reported":1761217787,"current_range_meters":22000,"station_id":"ce4bhi12rcd13ifvqfp0","pricing_plan_id":"cebpf4jnsgd1na2vs0mg"},{"bike_id":"913259d6-7dd1-4533-bf1c-6002e33758ab","system_id":"levelo_inurba_marseille","lat":43.30292,"lon":5.37703,"is_reserved":false,"is_disabled":false,"rental_uris":{"android":"levelo://app?vid=913259d6-7dd1-4533-bf1c-6002e33758ab","ios":"levelo://app?vid=913259d6-7dd1-4533-bf1c-6002e33758ab"},"vehicle_type_id":"4","last_reported":1761217787,"current_range_meters":22000,"station_id":"ce4bguh2rcd13ifvqcj0","pricing_plan_id":"cebpf4jnsgd1na2vs0mg"},{"bike_id":"4f5c5045-2f2c-4ab7-ad8b-eeba1d52fe66","system_id":"levelo_inurba_marseille","lat":43.31832,"lon":5.37896,"is_reserved":false,"is_disabled":false,"rental_uris":{"android":"levelo://app?vid=4f5c5045-2f2c-4ab7-ad8b-eeba1d52fe66","ios":"levelo://app?vid=4f5c5045-2f2c-4ab7-ad8b-eeba1d52fe66"},"vehicle_type_id":"4","last_reported":1761217787,"current_range_meters":22000,"station_id":"","pricing_plan_id":"cebpf4jnsgd1na2vs0mg"},{"bike_id":"17585014-36d0-4d96-ab97-1812e8c7fbe7","system_id":"levelo_inurba_marseille","lat":43.31667,"lon":5.38241,"is_reserved":false,"is_disabled":false,"rental_uris":{"android":"levelo://app?vid=17585014-36d0-4d96-ab97-1812e8c7fbe7","ios":"levelo://app?vid=17585014-36d0-4d96-ab97-1812e8c7fbe7"},"vehicle_type_id":"4","last_reported":1761217787,"current_range_meters":22000,"station_id":"","pricing_plan_id":"cebpf4jnsgd1na2vs0mg"},{"bike_id":"6ab25e12-fb68-4d95-aae9-cb59840fb562","system_id":"levelo_inurba_marseille","lat":43.305127,"lon":5.38138,"is_reserved":false,"is_disabled":false,"rental_uris":{"android":"levelo://app?vid=6ab25e12-fb68-4d95-aae9-cb59840fb562","ios":"levelo://app?vid=6ab25e12-fb68-4d95-aae9-cb59840fb562"},"vehicle_type_id":"4","last_reported":1761217787,"current_range_meters":22000,"station_id":"","pricing_plan_id":"cebpf4jnsgd1na2vs0mg"},{"bike_id":"9d964ec4-c537-4f1d-b21c-451d3f46b1bf","system_id":"levelo_inurba_marseille","lat":43.29902,"lon":5.37817,"is_reserved":false,"is_disabled":false,"rental_uris":{"android":"levelo://app?vid=9d964ec4-c537-4f1d-b21c-451d3f46b1bf","ios":"levelo://app?vid=9d964ec4-c537-4f1d-b21c-451d3f46b1bf"},"vehicle_type_id":"4","last_reported":1761217787,"current_range_meters":22000,"station_id":"","pricing_plan_id":"cebpf4jnsgd1na2vs0mg"},{"bike_id":"cc40f8d8-9063-4ccb-9a43-14cb78bd09d1","system_id":"levelo_inurba_marseille","lat":43.31287,"lon":5.38183,"is_reserved":false,"is_disabled":true,"rental_uris":{"android":"levelo://app?vid=cc40f8d8-9063-4ccb-9a43-14cb78bd09d1","ios":"levelo://app?vid=cc40f8d8-9063-4ccb-9a43-14cb78bd09d1"},"vehicle_type_id":"4","last_reported":1761217787,"current_range_meters":22400,"station_id":"ce4bgjp2rcd13ifvqbh0","pricing_plan_id":"cebpf4jnsgd1na2vs0mg"},{"bike_id":"f2e02df1-d0d6-4e71-a245-a7604e3f9858","system_id":"levelo_inurba_marseille","lat":43.281252,"lon":5.378317,"is_reserved":false,"is_disabled":false,"rental_uris":{"android":"levelo://app?vid=f2e02df1-d0d6-4e71-a245-a7604e3f9858","ios":"levelo://app?vid=f2e02df1-d0d6-4e71-a245-a7604e3f9858"},"vehicle_type_id":"4","last_reported":1761217787,"current_range_meters":22400,"station_id":"ce4bha12rcd13ifvqee0","pricing_plan_id":"cebpf4jnsgd1na2vs0mg"},{"bike_id":"bdd952fc-87ca-42aa-b93b-8460cf0bb4a1","system_id":"levelo_inurba_marseille","lat":43.28156,"lon":5.426448,"is_reserved":false,"is_disabled":false,"rental_uris":{"android":"levelo://app?vid=bdd952fc-87ca-42aa-b93b-8460cf0bb4a1","ios":"levelo://app?vid=bdd952fc-87ca-42aa-b93b-8460cf0bb4a1"},"vehicle_type_id":"4","last_reported":1761217787,"current_range_meters":22400,"station_id":"ce4bhnh2rcd13ifvqgug","pricing_plan_id":"cebpf4jnsgd1na2vs0mg"},{"bike_id":"361742dd-7762-4723-9008-fcfc1728f0bb","system_id":"levelo_inurba_marseille","lat":43.336093,"lon":5.410349,"is_reserved":false,"is_disabled":false,"rental_uris":{"android":"levelo://app?vid=361742dd-7762-4723-9008-fcfc1728f0bb","ios":"levelo://app?vid=361742dd-7762-4723-9008-fcfc1728f0bb"},"vehicle_type_id":"4","last_reported":1761217787,"current_range_meters":22400,"station_id":"ce4bhqh2rcd13ifvqhmg","pricing_plan_id":"cebpf4jnsgd1na2vs0mg"},{"bike_id":"cf3ec42d-9fb1-4906-a445-c527d56a0911","system_id":"levelo_inurba_marseille","lat":43.29618,"lon":5.37725,"is_reserved":false,"is_disabled":false,"rental_uris":{"android":"levelo://app?vid=cf3ec42d-9fb1-4906-a445-c527d56a0911","ios":"levelo://app?vid=cf3ec42d-9fb1-4906-a445-c527d56a0911"},"vehicle_type_id":"4","last_reported":1761217787,"current_range_meters":22400,"station_id":"ce4bgi92rcd13ifvqb90","pricing_plan_id":"cebpf4jnsgd1na2vs0mg"},{"bike_id":"a110f409-6256-4589-be2a-6a94b605b585","system_id":"levelo_inurba_marseille","lat":43.27057,"lon":5.40261,"is_reserved":false,"is_disabled":false,"rental_uris":{"android":"levelo://app?vid=a110f409-6256-4589-be2a-6a94b605b585","ios":"levelo://app?vid=a110f409-6256-4589-be2a-6a94b605b585"},"vehicle_type_id":"4","last_reported":1761217787,"current_range_meters":22800,"station_id":"ce4bhk92rcd13ifvqgc0","pricing_plan_id":"cebpf4jnsgd1na2vs0mg"},{"bike_id":"9acc6c34-f87a-4f01-a5ed-e3e69b4f44a3","system_id":"levelo_inurba_marseille","lat":43.23154,"lon":5.43716,"is_reserved":false,"is_disabled":false,"rental_uris":{"android":"levelo://app?vid=9acc6c34-f87a-4f01-a5ed-e3e69b4f44a3","ios":"levelo://app?vid=9acc6c34-f87a-4f01-a5ed-e3e69b4f44a3"},"vehicle_type_id":"4","last_reported":1761217787,"current_range_meters":22800,"station_id":"ce4bhmp2rcd13ifvqgog","pricing_plan_id":"cebpf4jnsgd1na2vs0mg"},{"bike_id":"d5352b28-e991-46e5-886a-0714bdb8f488","system_id":"levelo_inurba_marseille","lat":43.23056,"lon":5.354915,"is_reserved":false,"is_disabled":false,"rental_uris":{"android":"levelo://app?vid=d5352b28-e991-46e5-886a-0714bdb8f488","ios":"levelo://app?vid=d5352b28-e991-46e5-886a-0714bdb8f488"},"vehicle_type_id":"4","last_reported":1761217787,"current_range_meters":22800,"station_id":"cpo3342slgdg3j2ifvpg","pricing_plan_id":"cebpf4jnsgd1na2vs0mg"},{"bike_id":"ab1dc6bf-d651-4056-ad23-b67254daea0b","system_id":"levelo_inurba_marseille","lat":43.337509,"lon":5.375088,"is_reserved":false,"is_disabled":false,"rental_uris":{"android":"levelo://app?vid=ab1dc6bf-d651-4056-ad23-b67254daea0b","ios":"levelo://app?vid=ab1dc6bf-d651-4056-ad23-b67254daea0b"},"vehicle_type_id":"4","last_reported":1761217787,"current_range_meters":22800,"station_id":"","pricing_plan_id":"cebpf4jnsgd1na2vs0mg"},{"bike_id":"9f6afd1b-b0e4-40c2-88ad-6d1f601068df","system_id":"levelo_inurba_marseille","lat":43.29708,"lon":5.36588,"is_reserved":false,"is_disabled":false,"rental_uris":{"android":"levelo://app?vid=9f6afd1b-b0e4-40c2-88ad-6d1f601068df","ios":"levelo://app?vid=9f6afd1b-b0e4-40c2-88ad-6d1f601068df"},"vehicle_type_id":"4","last_reported":1761217787,"current_range_meters":22800,"station_id":"ce4bgn12rcd13ifvqbt0","pricing_plan_id":"cebpf4jnsgd1na2vs0mg"},{"bike_id":"20fee652-018b-4cb5-9fa8-fe24435e706a","system_id":"levelo_inurba_marseille","lat":43.24999,"lon":5.38936,"is_reserved":false,"is_disabled":false,"rental_uris":{"android":"levelo://app?vid=20fee652-018b-4cb5-9fa8-fe24435e706a","ios":"levelo://app?vid=20fee652-018b-4cb5-9fa8-fe24435e706a"},"vehicle_type_id":"4","last_reported":1761217787,"current_range_meters":22800,"station_id":"ce4bhgp2rcd13ifvqfd0","pricing_plan_id":"cebpf4jnsgd1na2vs0mg"},{"bike_id":"8b568fab-e273-49f6-bdca-e47680ec431f","system_id":"levelo_inurba_marseille","lat":43.33773,"lon":5.37431,"is_reserved":false,"is_disabled":false,"rental_uris":{"android":"levelo://app?vid=8b568fab-e273-49f6-bdca-e47680ec431f","ios":"levelo://app?vid=8b568fab-e273-49f6-bdca-e47680ec431f"},"vehicle_type_id":"4","last_reported":1761217787,"current_range_meters":23200,"station_id":"","pricing_plan_id":"cebpf4jnsgd1na2vs0mg"},{"bike_id":"5cf4395e-c249-4a7a-8170-3ad8e56ce424","system_id":"levelo_inurba_marseille","lat":43.30322,"lon":5.36901,"is_reserved":false,"is_disabled":false,"rental_uris":{"android":"levelo://app?vid=5cf4395e-c249-4a7a-8170-3ad8e56ce424","ios":"levelo://app?vid=5cf4395e-c249-4a7a-8170-3ad8e56ce424"},"vehicle_type_id":"4","last_reported":1761217787,"current_range_meters":23200,"station_id":"ce4bgqh2rcd13ifvqc5g","pricing_plan_id":"cebpf4jnsgd1na2vs0mg"},{"bike_id":"97e71db1-4c8d-4ad4-80b4-b61cc2361caa","system_id":"levelo_inurba_marseille","lat":43.27913,"lon":5.39568,"is_reserved":false,"is_disabled":false,"rental_uris":{"android":"levelo://app?vid=97e71db1-4c8d-4ad4-80b4-b61cc2361caa","ios":"levelo://app?vid=97e71db1-4c8d-4ad4-80b4-b61cc2361caa"},"vehicle_type_id":"4","last_reported":1761217787,"current_range_meters":23200,"station_id":"ce4bhf92rcd13ifvqf40","pricing_plan_id":"cebpf4jnsgd1na2vs0mg"},{"bike_id":"be88eaa4-e674-44f9-9199-3901304dd644","system_id":"levelo_inurba_marseille","lat":43.217632,"lon":5.34563,"is_reserved":false,"is_disabled":false,"rental_uris":{"android":"levelo://app?vid=be88eaa4-e674-44f9-9199-3901304dd644","ios":"levelo://app?vid=be88eaa4-e674-44f9-9199-3901304dd644"},"vehicle_type_id":"4","last_reported":1761217787,"current_range_meters":23200,"station_id":"st_cvj6r9ubvosntc0bgbag","pricing_plan_id":"cebpf4jnsgd1na2vs0mg"},{"bike_id":"2e6e24ee-b7c8-4ea8-8e7f-d83c64cb9e2b","system_id":"levelo_inurba_marseille","lat":43.3015,"lon":5.37409,"is_reserved":false,"is_disabled":false,"rental_uris":{"android":"levelo://app?vid=2e6e24ee-b7c8-4ea8-8e7f-d83c64cb9e2b","ios":"levelo://app?vid=2e6e24ee-b7c8-4ea8-8e7f-d83c64cb9e2b"},"vehicle_type_id":"4","last_reported":1761217787,"current_range_meters":23200,"station_id":"ce4bgs92rcd13ifvqcc0","pricing_plan_id":"cebpf4jnsgd1na2vs0mg"},{"bike_id":"417d2345-c4c6-4ccd-bc5c-2eafc961607b","system_id":"levelo_inurba_marseille","lat":43.25501,"lon":5.37649,"is_reserved":false,"is_disabled":false,"rental_uris":{"android":"levelo://app?vid=417d2345-c4c6-4ccd-bc5c-2eafc961607b","ios":"levelo://app?vid=417d2345-c4c6-4ccd-bc5c-2eafc961607b"},"vehicle_type_id":"4","last_reported":1761217787,"current_range_meters":23200,"station_id":"ce4bhh12rcd13ifvqff0","pricing_plan_id":"cebpf4jnsgd1na2vs0mg"},{"bike_id":"4dee4a5f-b0fe-4a53-9dbd-e7c64ee7bc4f","system_id":"levelo_inurba_marseille","lat":43.27824,"lon":5.407,"is_reserved":false,"is_disabled":false,"rental_uris":{"android":"levelo://app?vid=4dee4a5f-b0fe-4a53-9dbd-e7c64ee7bc4f","ios":"levelo://app?vid=4dee4a5f-b0fe-4a53-9dbd-e7c64ee7bc4f"},