{"last_updated":1742742537,"ttl":60,"version":"2.2","data":{"bikes":[{"bike_id":"37128dc4-fde6-4f45-977e-0ff79b7a3d87","system_id":"levelo_inurba_marseille","lat":43.28467,"lon":5.38424,"is_reserved":false,"is_disabled":false,"rental_uris":{"android":"levelo://app?vid=37128dc4-fde6-4f45-977e-0ff79b7a3d87","ios":"levelo://app?vid=37128dc4-fde6-4f45-977e-0ff79b7a3d87"},"vehicle_type_id":"4","last_reported":1742742537,"current_range_meters":2800,"station_id":"ce4bh512rcd13ifvqe3g","pricing_plan_id":"cebpf4jnsgd1na2vs0mg"},{"bike_id":"a87d9a78-6c0d-423b-ac9d-0b9a179a344f","system_id":"levelo_inurba_marseille","lat":43.30861,"lon":5.37321,"is_reserved":false,"is_disabled":false,"rental_uris":{"android":"levelo://app?vid=a87d9a78-6c0d-423b-ac9d-0b9a179a344f","ios":"levelo://app?vid=a87d9a78-6c0d-423b-ac9d-0b9a179a344f"},"vehicle_type_id":"4","last_reported":1742742537,"current_range_meters":2800,"station_id":"","pricing_plan_id":"cebpf4jnsgd1na2vs0mg"},{"bike_id":"f6806180-183b-4fef-b319-6afeca2a6d2a","system_id":"levelo_inurba_marseille","lat":43.297521,"lon":5.393609,"is_reserved":false,"is_disabled":false,"rental_uris":{"android":"levelo://app?vid=f6806180-183b-4fef-b319-6afeca2a6d2a","ios":"levelo://app?vid=f6806180-183b-4fef-b319-6afeca2a6d2a"},"vehicle_type_id":"4","last_reported":1742742537,"current_range_meters":2800,"station_id":"chh1huq6cuj3fo74tm60","pricing_plan_id":"cebpf4jnsgd1na2vs0mg"},{"bike_id":"2080f22e-5c28-493e-8f08-860a79507d0b","system_id":"levelo_inurba_marseille","lat":43.25867,"lon":5.39899,"is_reserved":false,"is_disabled":false,"rental_uris":{"android":"levelo://app?vid=2080f22e-5c28-493e-8f08-860a79507d0b","ios":"levelo://app?vid=2080f22e-5c28-493e-8f08-860a79507d0b"},"vehicle_type_id":"4","last_reported":1742742537,"current_range_meters":2800,"station_id":"ce4bhl92rcd13ifvqghg","pricing_plan_id":"cebpf4jnsgd1na2vs0mg"},{"bike_id":"99789f53-4c10-410c-ba0d-3c09516a12ba","system_id":"levelo_inurba_marseille","lat":43.28655,"lon":5.36342,"is_reserved":false,"is_disabled":false,"rental_uris":{"android":"levelo://app?vid=99789f53-4c10-410c-ba0d-3c09516a12ba","ios":"levelo://app?vid=99789f53-4c10-410c-ba0d-3c09516a12ba"},"vehicle_type_id":"4","last_reported":1742742537,"current_range_meters":3200,"station_id":"ce4bhah2rcd13ifvqej0","pricing_plan_id":"cebpf4jnsgd1na2vs0mg"},{"bike_id":"5e7a5bf0-535e-463c-ba2e-084afadd13de","system_id":"levelo_inurba_marseille","lat":43.30539,"lon":5.36711,"is_reserved":false,"is_disabled":true,"rental_uris":{"android":"levelo://app?vid=5e7a5bf0-535e-463c-ba2e-084afadd13de","ios":"levelo://app?vid=5e7a5bf0-535e-463c-ba2e-084afadd13de"},"vehicle_type_id":"4","last_reported":1742742537,"current_range_meters":3200,"station_id":"ce4bgrp2rcd13ifvqc9g","pricing_plan_id":"cebpf4jnsgd1na2vs0mg"},{"bike_id":"b6999c42-1e1a-43c5-adc2-1f662fa817ef","system_id":"levelo_inurba_marseille","lat":43.27923,"lon":5.39586,"is_reserved":false,"is_disabled":false,"rental_uris":{"android":"levelo://app?vid=b6999c42-1e1a-43c5-adc2-1f662fa817ef","ios":"levelo://app?vid=b6999c42-1e1a-43c5-adc2-1f662fa817ef"},"vehicle_type_id":"4","last_reported":1742742537,"current_range_meters":3200,"station_id":"ce4bhf92rcd13ifvqf40","pricing_plan_id":"cebpf4jnsgd1na2vs0mg"},{"bike_id":"226c6b12-a164-4bec-b920-8106d3461516","system_id":"levelo_inurba_marseille","lat":43.23965,"lon":5.36635,"is_reserved":false,"is_disabled":false,"rental_uris":{"android":"levelo://app?vid=226c6b12-a164-4bec-b920-8106d3461516","ios":"levelo://app?vid=226c6b12-a164-4bec-b920-8106d3461516"},"vehicle_type_id":"4","last_reported":1742742537,"current_range_meters":3200,"station_id":"ce4bhi12rcd13ifvqfp0","pricing_plan_id":"cebpf4jnsgd1na2vs0mg"},{"bike_id":"e3ad5393-7ae8-4858-b341-730af8302a04","system_id":"levelo_inurba_marseille","lat":43.29941,"lon":5.36552,"is_reserved":false,"is_disabled":false,"rental_uris":{"android":"levelo://app?vid=e3ad5393-7ae8-4858-b341-730af8302a04","ios":"levelo://app?vid=e3ad5393-7ae8-4858-b341-730af8302a04"},"vehicle_type_id":"4","last_reported":1742742537,"current_range_meters":3200,"station_id":"ce4bgm92rcd13ifvqbr0","pricing_plan_id":"cebpf4jnsgd1na2vs0mg"},{"bike_id":"73d22321-277d-463b-9579-cbb7c5f17bb7","system_id":"levelo_inurba_marseille","lat":43.30144,"lon":5.38077,"is_reserved":false,"is_disabled":false,"rental_uris":{"android":"levelo://app?vid=73d22321-277d-463b-9579-cbb7c5f17bb7","ios":"levelo://app?vid=73d22321-277d-463b-9579-cbb7c5f17bb7"},"vehicle_type_id":"4","last_reported":1742742537,"current_range_meters":3200,"station_id":"ce4bgjp2rcd13ifvqbh0","pricing_plan_id":"cebpf4jnsgd1na2vs0mg"},{"bike_id":"904ea75d-39cc-45d1-a66a-3ed05cf3238a","system_id":"levelo_inurba_marseille","lat":43.23177,"lon":5.3999,"is_reserved":false,"is_disabled":false,"rental_uris":{"android":"levelo://app?vid=904ea75d-39cc-45d1-a66a-3ed05cf3238a","ios":"levelo://app?vid=904ea75d-39cc-45d1-a66a-3ed05cf3238a"},"vehicle_type_id":"4","last_reported":1742742537,"current_range_meters":3200,"station_id":"ce4bhn12rcd13ifvqgqg","pricing_plan_id":"cebpf4jnsgd1na2vs0mg"},{"bike_id":"1b3b4f69-657e-4463-b7fb-c46c89f70c94","system_id":"levelo_inurba_marseille","lat":43.25477,"lon":5.38205,"is_reserved":false,"is_disabled":false,"rental_uris":{"android":"levelo://app?vid=1b3b4f69-657e-4463-b7fb-c46c89f70c94","ios":"levelo://app?vid=1b3b4f69-657e-4463-b7fb-c46c89f70c94"},"vehicle_type_id":"4","last_reported":1742742537,"current_range_meters":3600,"station_id":"","pricing_plan_id":"cebpf4jnsgd1na2vs0mg"},{"bike_id":"0e3d88ce-d587-4aa3-926e-ea0ed2f86605","system_id":"levelo_inurba_marseille","lat":43.26557,"lon":5.37286,"is_reserved":false,"is_disabled":false,"rental_uris":{"android":"levelo://app?vid=0e3d88ce-d587-4aa3-926e-ea0ed2f86605","ios":"levelo://app?vid=0e3d88ce-d587-4aa3-926e-ea0ed2f86605"},"vehicle_type_id":"4","last_reported":1742742537,"current_range_meters":3600,"station_id":"ce4bhg12rcd13ifvqf70","pricing_plan_id":"cebpf4jnsgd1na2vs0mg"},{"bike_id":"084ca10b-cd07-4031-8b24-51f83a4c809f","system_id":"levelo_inurba_marseille","lat":43.27969,"lon":5.38752,"is_reserved":false,"is_disabled":false,"rental_uris":{"android":"levelo://app?vid=084ca10b-cd07-4031-8b24-51f83a4c809f","ios":"levelo://app?vid=084ca10b-cd07-4031-8b24-51f83a4c809f"},"vehicle_type_id":"4","last_reported":1742742537,"current_range_meters":3600,"station_id":"ce4bhg12rcd13ifvqf80","pricing_plan_id":"cebpf4jnsgd1na2vs0mg"},{"bike_id":"9f33033c-d76e-4d06-99d2-b2b01178a993","system_id":"levelo_inurba_marseille","lat":43.24386,"lon":5.37064,"is_reserved":false,"is_disabled":true,"rental_uris":{"android":"levelo://app?vid=9f33033c-d76e-4d06-99d2-b2b01178a993","ios":"levelo://app?vid=9f33033c-d76e-4d06-99d2-b2b01178a993"},"vehicle_type_id":"4","last_reported":1742742537,"current_range_meters":3200,"station_id":"ce4bhhh2rcd13ifvqfk0","pricing_plan_id":"cebpf4jnsgd1na2vs0mg"},{"bike_id":"0007fce5-562c-4dc0-afc3-21cf7828d9fe","system_id":"levelo_inurba_marseille","lat":43.30136,"lon":5.37415,"is_reserved":false,"is_disabled":false,"rental_uris":{"android":"levelo://app?vid=0007fce5-562c-4dc0-afc3-21cf7828d9fe","ios":"levelo://app?vid=0007fce5-562c-4dc0-afc3-21cf7828d9fe"},"vehicle_type_id":"4","last_reported":1742742537,"current_range_meters":3600,"station_id":"ce4bgs92rcd13ifvqcc0","pricing_plan_id":"cebpf4jnsgd1na2vs0mg"},{"bike_id":"3273f40d-d327-4a96-a10b-bb064e299908","system_id":"levelo_inurba_marseille","lat":43.33069,"lon":5.40818,"is_reserved":false,"is_disabled":false,"rental_uris":{"android":"levelo://app?vid=3273f40d-d327-4a96-a10b-bb064e299908","ios":"levelo://app?vid=3273f40d-d327-4a96-a10b-bb064e299908"},"vehicle_type_id":"4","last_reported":1742742537,"current_range_meters":3600,"station_id":"","pricing_plan_id":"cebpf4jnsgd1na2vs0mg"},{"bike_id":"f843d388-802a-4764-be2a-686011490ff4","system_id":"levelo_inurba_marseille","lat":43.28435,"lon":5.39198,"is_reserved":false,"is_disabled":false,"rental_uris":{"android":"levelo://app?vid=f843d388-802a-4764-be2a-686011490ff4","ios":"levelo://app?vid=f843d388-802a-4764-be2a-686011490ff4"},"vehicle_type_id":"4","last_reported":1742742537,"current_range_meters":3600,"station_id":"ce4bhoh2rcd13ifvqh5g","pricing_plan_id":"cebpf4jnsgd1na2vs0mg"},{"bike_id":"fbbb065e-9d94-47bf-af72-5a27251f57a0","system_id":"levelo_inurba_marseille","lat":43.28938,"lon":5.36409,"is_reserved":false,"is_disabled":false,"rental_uris":{"android":"levelo://app?vid=fbbb065e-9d94-47bf-af72-5a27251f57a0","ios":"levelo://app?vid=fbbb065e-9d94-47bf-af72-5a27251f57a0"},"vehicle_type_id":"4","last_reported":1742742537,"current_range_meters":3600,"station_id":"ce4bhc92rcd13ifvqetg","pricing_plan_id":"cebpf4jnsgd1na2vs0mg"},{"bike_id":"3b2c1438-02ca-4a1c-9816-3937b4d03161","system_id":"levelo_inurba_marseille","lat":43.30141,"lon":5.38062,"is_reserved":false,"is_disabled":false,"rental_uris":{"android":"levelo://app?vid=3b2c1438-02ca-4a1c-9816-3937b4d03161","ios":"levelo://app?vid=3b2c1438-02ca-4a1c-9816-3937b4d03161"},"vehicle_type_id":"4","last_reported":1742742537,"current_range_meters":4000,"station_id":"ce4bgjp2rcd13ifvqbh0","pricing_plan_id":"cebpf4jnsgd1na2vs0mg"},{"bike_id":"6aa80e4f-8a3d-419f-a17c-e17a85aa50a1","system_id":"levelo_inurba_marseille","lat":43.25497,"lon":5.37655,"is_reserved":false,"is_disabled":false,"rental_uris":{"android":"levelo://app?vid=6aa80e4f-8a3d-419f-a17c-e17a85aa50a1","ios":"levelo://app?vid=6aa80e4f-8a3d-419f-a17c-e17a85aa50a1"},"vehicle_type_id":"4","last_reported":1742742537,"current_range_meters":4000,"station_id":"ce4bhh12rcd13ifvqff0","pricing_plan_id":"cebpf4jnsgd1na2vs0mg"},{"bike_id":"b774d96e-16d9-4ed6-86b7-e7dc61257a87","system_id":"levelo_inurba_marseille","lat":43.30588,"lon":5.37238,"is_reserved":false,"is_disabled":false,"rental_uris":{"android":"levelo://app?vid=b774d96e-16d9-4ed6-86b7-e7dc61257a87","ios":"levelo://app?vid=b774d96e-16d9-4ed6-86b7-e7dc61257a87"},"vehicle_type_id":"4","last_reported":1742742537,"current_range_meters":4000,"station_id":"ce4bgqh2rcd13ifvqc4g","pricing_plan_id":"cebpf4jnsgd1na2vs0mg"},{"bike_id":"f0386a8d-6966-4918-bb4d-63281d88f61c","system_id":"levelo_inurba_marseille","lat":43.27571,"lon":5.38436,"is_reserved":false,"is_disabled":false,"rental_uris":{"android":"levelo://app?vid=f0386a8d-6966-4918-bb4d-63281d88f61c","ios":"levelo://app?vid=f0386a8d-6966-4918-bb4d-63281d88f61c"},"vehicle_type_id":"4","last_reported":1742742537,"current_range_meters":4000,"station_id":"ce4bhh92rcd13ifvqfi0","pricing_plan_id":"cebpf4jnsgd1na2vs0mg"},{"bike_id":"efc5110b-8439-457d-912a-12b6529122c6","system_id":"levelo_inurba_marseille","lat":43.28101,"lon":5.37831,"is_reserved":false,"is_disabled":false,"rental_uris":{"android":"levelo://app?vid=efc5110b-8439-457d-912a-12b6529122c6","ios":"levelo://app?vid=efc5110b-8439-457d-912a-12b6529122c6"},"vehicle_type_id":"4","last_reported":1742742537,"current_range_meters":4000,"station_id":"ce4bha12rcd13ifvqee0","pricing_plan_id":"cebpf4jnsgd1na2vs0mg"},{"bike_id":"97b13862-64cd-49d1-b4f1-989a03a88f74","system_id":"levelo_inurba_marseille","lat":43.27964,"lon":5.38741,"is_reserved":false,"is_disabled":false,"rental_uris":{"android":"levelo://app?vid=97b13862-64cd-49d1-b4f1-989a03a88f74","ios":"levelo://app?vid=97b13862-64cd-49d1-b4f1-989a03a88f74"},"vehicle_type_id":"4","last_reported":1742742537,"current_range_meters":4000,"station_id":"ce4bhg12rcd13ifvqf80","pricing_plan_id":"cebpf4jnsgd1na2vs0mg"},{"bike_id":"004e3593-8ae2-4d74-a84b-6ec5a5ccaf38","system_id":"levelo_inurba_marseille","lat":43.29191,"lon":5.39325,"is_reserved":false,"is_disabled":false,"rental_uris":{"android":"levelo://app?vid=004e3593-8ae2-4d74-a84b-6ec5a5ccaf38","ios":"levelo://app?vid=004e3593-8ae2-4d74-a84b-6ec5a5ccaf38"},"vehicle_type_id":"4","last_reported":1742742537,"current_range_meters":4400,"station_id":"ce4bh192rcd13ifvqdd0","pricing_plan_id":"cebpf4jnsgd1na2vs0mg"},{"bike_id":"cf1b2a33-cce1-4669-aed7-c8143c5ea0af","system_id":"levelo_inurba_marseille","lat":43.29774,"lon":5.37116,"is_reserved":false,"is_disabled":false,"rental_uris":{"android":"levelo://app?vid=cf1b2a33-cce1-4669-aed7-c8143c5ea0af","ios":"levelo://app?vid=cf1b2a33-cce1-4669-aed7-c8143c5ea0af"},"vehicle_type_id":"4","last_reported":1742742537,"current_range_meters":4400,"station_id":"ce4bgop2rcd13ifvqc1g","pricing_plan_id":"cebpf4jnsgd1na2vs0mg"},{"bike_id":"c2ede34a-4706-40da-973f-7f4f49ea76d2","system_id":"levelo_inurba_marseille","lat":43.30151,"lon":5.38081,"is_reserved":false,"is_disabled":false,"rental_uris":{"android":"levelo://app?vid=c2ede34a-4706-40da-973f-7f4f49ea76d2","ios":"levelo://app?vid=c2ede34a-4706-40da-973f-7f4f49ea76d2"},"vehicle_type_id":"4","last_reported":1742742537,"current_range_meters":4400,"station_id":"ce4bgjp2rcd13ifvqbh0","pricing_plan_id":"cebpf4jnsgd1na2vs0mg"},{"bike_id":"a2323026-a3bb-4276-85a4-020d77aea825","system_id":"levelo_inurba_marseille","lat":43.29969,"lon":5.37166,"is_reserved":false,"is_disabled":false,"rental_uris":{"android":"levelo://app?vid=a2323026-a3bb-4276-85a4-020d77aea825","ios":"levelo://app?vid=a2323026-a3bb-4276-85a4-020d77aea825"},"vehicle_type_id":"4","last_reported":1742742537,"current_range_meters":4400,"station_id":"ce4bgr92rcd13ifvqc7g","pricing_plan_id":"cebpf4jnsgd1na2vs0mg"},{"bike_id":"e49f04e6-8c91-4f9f-888c-625dd797cb28","system_id":"levelo_inurba_marseille","lat":43.28407,"lon":5.37517,"is_reserved":false,"is_disabled":false,"rental_uris":{"android":"levelo://app?vid=e49f04e6-8c91-4f9f-888c-625dd797cb28","ios":"levelo://app?vid=e49f04e6-8c91-4f9f-888c-625dd797cb28"},"vehicle_type_id":"4","last_reported":1742742537,"current_range_meters":4400,"station_id":"ce4bh412rcd13ifvqds0","pricing_plan_id":"cebpf4jnsgd1na2vs0mg"},{"bike_id":"df021de5-590a-4a63-a9fa-2a81b7e844aa","system_id":"levelo_inurba_marseille","lat":43.26209,"lon":5.3792,"is_reserved":false,"is_disabled":false,"rental_uris":{"android":"levelo://app?vid=df021de5-590a-4a63-a9fa-2a81b7e844aa","ios":"levelo://app?vid=df021de5-590a-4a63-a9fa-2a81b7e844aa"},"vehicle_type_id":"4","last_reported":1742742537,"current_range_meters":4400,"station_id":"ce4bhjp2rcd13ifvqg90","pricing_plan_id":"cebpf4jnsgd1na2vs0mg"},{"bike_id":"ac42edba-3c01-42ba-8805-904ed06803a8","system_id":"levelo_inurba_marseille","lat":43.28565,"lon":5.39495,"is_reserved":false,"is_disabled":false,"rental_uris":{"android":"levelo://app?vid=ac42edba-3c01-42ba-8805-904ed06803a8","ios":"levelo://app?vid=ac42edba-3c01-42ba-8805-904ed06803a8"},"vehicle_type_id":"4","last_reported":1742742537,"current_range_meters":4400,"station_id":"ce4bh292rcd13ifvqdg0","pricing_plan_id":"cebpf4jnsgd1na2vs0mg"},{"bike_id":"dde62967-8488-4e91-9d11-7388d1c97d5c","system_id":"levelo_inurba_marseille","lat":43.28265,"lon":5.35068,"is_reserved":false,"is_disabled":false,"rental_uris":{"android":"levelo://app?vid=dde62967-8488-4e91-9d11-7388d1c97d5c","ios":"levelo://app?vid=dde62967-8488-4e91-9d11-7388d1c97d5c"},"vehicle_type_id":"4","last_reported":1742742537,"current_range_meters":4400,"station_id":"ce4bhbp2rcd13ifvqerg","pricing_plan_id":"cebpf4jnsgd1na2vs0mg"},{"bike_id":"fe239f3d-5c83-42bd-8b99-e0b3f3784fb5","system_id":"levelo_inurba_marseille","lat":43.24624,"lon":5.38375,"is_reserved":false,"is_disabled":false,"rental_uris":{"android":"levelo://app?vid=fe239f3d-5c83-42bd-8b99-e0b3f3784fb5","ios":"levelo://app?vid=fe239f3d-5c83-42bd-8b99-e0b3f3784fb5"},"vehicle_type_id":"4","last_reported":1742742537,"current_range_meters":4400,"station_id":"","pricing_plan_id":"cebpf4jnsgd1na2vs0mg"},{"bike_id":"49471bf0-9f1e-4b66-80b8-678a2c874d5a","system_id":"levelo_inurba_marseille","lat":43.29418,"lon":5.38621,"is_reserved":false,"is_disabled":false,"rental_uris":{"android":"levelo://app?vid=49471bf0-9f1e-4b66-80b8-678a2c874d5a","ios":"levelo://app?vid=49471bf0-9f1e-4b66-80b8-678a2c874d5a"},"vehicle_type_id":"4","last_reported":1742742537,"current_range_meters":4800,"station_id":"ce4bh2h2rcd13ifvqdh0","pricing_plan_id":"cebpf4jnsgd1na2vs0mg"},{"bike_id":"46a24ee4-2008-468d-a93b-e5fe86858e55","system_id":"levelo_inurba_marseille","lat":43.26202,"lon":5.37932,"is_reserved":false,"is_disabled":false,"rental_uris":{"android":"levelo://app?vid=46a24ee4-2008-468d-a93b-e5fe86858e55","ios":"levelo://app?vid=46a24ee4-2008-468d-a93b-e5fe86858e55"},"vehicle_type_id":"4","last_reported":1742742537,"current_range_meters":4800,"station_id":"ce4bhjp2rcd13ifvqg90","pricing_plan_id":"cebpf4jnsgd1na2vs0mg"},{"bike_id":"79340b94-4d52-48e7-9c2d-50831ad2cb6c","system_id":"levelo_inurba_marseille","lat":43.25727,"lon":5.4111,"is_reserved":false,"is_disabled":false,"rental_uris":{"android":"levelo://app?vid=79340b94-4d52-48e7-9c2d-50831ad2cb6c","ios":"levelo://app?vid=79340b94-4d52-48e7-9c2d-50831ad2cb6c"},"vehicle_type_id":"4","last_reported":1742742537,"current_range_meters":4800,"station_id":"ce4bhkp2rcd13ifvqgd0","pricing_plan_id":"cebpf4jnsgd1na2vs0mg"},{"bike_id":"ee865d35-9cd0-45c8-9dee-7185ba3fd133","system_id":"levelo_inurba_marseille","lat":43.26501,"lon":5.39537,"is_reserved":false,"is_disabled":false,"rental_uris":{"android":"levelo://app?vid=ee865d35-9cd0-45c8-9dee-7185ba3fd133","ios":"levelo://app?vid=ee865d35-9cd0-45c8-9dee-7185ba3fd133"},"vehicle_type_id":"4","last_reported":1742742537,"current_range_meters":4800,"station_id":"ce4bhi12rcd13ifvqfq0","pricing_plan_id":"cebpf4jnsgd1na2vs0mg"},{"bike_id":"d973b856-ec8b-47f4-97ef-56e7b36d3299","system_id":"levelo_inurba_marseille","lat":43.27212,"lon":5.39184,"is_reserved":false,"is_disabled":false,"rental_uris":{"android":"levelo://app?vid=d973b856-ec8b-47f4-97ef-56e7b36d3299","ios":"levelo://app?vid=d973b856-ec8b-47f4-97ef-56e7b36d3299"},"vehicle_type_id":"4","last_reported":1742742537,"current_range_meters":4800,"station_id":"ce4bhhp2rcd13ifvqfm0","pricing_plan_id":"cebpf4jnsgd1na2vs0mg"},{"bike_id":"7417298c-be0d-4e49-a9bf-d6ae0d01fbba","system_id":"levelo_inurba_marseille","lat":43.31646,"lon":5.39431,"is_reserved":false,"is_disabled":false,"rental_uris":{"android":"levelo://app?vid=7417298c-be0d-4e49-a9bf-d6ae0d01fbba","ios":"levelo://app?vid=7417298c-be0d-4e49-a9bf-d6ae0d01fbba"},"vehicle_type_id":"4","last_reported":1742742537,"current_range_meters":4800,"station_id":"","pricing_plan_id":"cebpf4jnsgd1na2vs0mg"},{"bike_id":"8b373d40-9f05-4cac-be50-8567acf63c84","system_id":"levelo_inurba_marseille","lat":43.29274,"lon":5.36852,"is_reserved":false,"is_disabled":false,"rental_uris":{"android":"levelo://app?vid=8b373d40-9f05-4cac-be50-8567acf63c84","ios":"levelo://app?vid=8b373d40-9f05-4cac-be50-8567acf63c84"},"vehicle_type_id":"4","last_reported":1742742537,"current_range_meters":4800,"station_id":"ce4bhbp2rcd13ifvqesg","pricing_plan_id":"cebpf4jnsgd1na2vs0mg"},{"bike_id":"d7ecf0b7-2430-4e23-a8c3-92233081769e","system_id":"levelo_inurba_marseille","lat":43.24057,"lon":5.37761,"is_reserved":false,"is_disabled":false,"rental_uris":{"android":"levelo://app?vid=d7ecf0b7-2430-4e23-a8c3-92233081769e","ios":"levelo://app?vid=d7ecf0b7-2430-4e23-a8c3-92233081769e"},"vehicle_type_id":"4","last_reported":1742742537,"current_range_meters":4800,"station_id":"ce4bhnp2rcd13ifvqgvg","pricing_plan_id":"cebpf4jnsgd1na2vs0mg"},{"bike_id":"3c2a7dcf-f6cd-4a5b-ac2d-0c447364948d","system_id":"levelo_inurba_marseille","lat":43.314644,"lon":5.373691,"is_reserved":false,"is_disabled":false,"rental_uris":{"android":"levelo://app?vid=3c2a7dcf-f6cd-4a5b-ac2d-0c447364948d","ios":"levelo://app?vid=3c2a7dcf-f6cd-4a5b-ac2d-0c447364948d"},"vehicle_type_id":"4","last_reported":1742742537,"current_range_meters":5600,"station_id":"","pricing_plan_id":"cebpf4jnsgd1na2vs0mg"},{"bike_id":"ac889ad3-2e26-4ae5-9ba6-4fa04f0c5f81","system_id":"levelo_inurba_marseille","lat":43.24648,"lon":5.38897,"is_reserved":false,"is_disabled":false,"rental_uris":{"android":"levelo://app?vid=ac889ad3-2e26-4ae5-9ba6-4fa04f0c5f81","ios":"levelo://app?vid=ac889ad3-2e26-4ae5-9ba6-4fa04f0c5f81"},"vehicle_type_id":"4","last_reported":1742742537,"current_range_meters":5600,"station_id":"ce4bhg12rcd13ifvqf60","pricing_plan_id":"cebpf4jnsgd1na2vs0mg"},{"bike_id":"fb834a6c-cf2e-42cb-9cfa-0d5debe821cb","system_id":"levelo_inurba_marseille","lat":43.28487,"lon":5.38422,"is_reserved":false,"is_disabled":false,"rental_uris":{"android":"levelo://app?vid=fb834a6c-cf2e-42cb-9cfa-0d5debe821cb","ios":"levelo://app?vid=fb834a6c-cf2e-42cb-9cfa-0d5debe821cb"},"vehicle_type_id":"4","last_reported":1742742537,"current_range_meters":5600,"station_id":"ce4bh512rcd13ifvqe3g","pricing_plan_id":"cebpf4jnsgd1na2vs0mg"},{"bike_id":"8ba58551-cd63-4fe4-9e09-0be013615911","system_id":"levelo_inurba_marseille","lat":43.26057,"lon":5.39396,"is_reserved":false,"is_disabled":false,"rental_uris":{"android":"levelo://app?vid=8ba58551-cd63-4fe4-9e09-0be013615911","ios":"levelo://app?vid=8ba58551-cd63-4fe4-9e09-0be013615911"},"vehicle_type_id":"4","last_reported":1742742537,"current_range_meters":5600,"station_id":"ce4bhh92rcd13ifvqfj0","pricing_plan_id":"cebpf4jnsgd1na2vs0mg"},{"bike_id":"ee071e85-a82d-4bb4-a152-5d20f2f99a93","system_id":"levelo_inurba_marseille","lat":43.24656,"lon":5.38167,"is_reserved":false,"is_disabled":false,"rental_uris":{"android":"levelo://app?vid=ee071e85-a82d-4bb4-a152-5d20f2f99a93","ios":"levelo://app?vid=ee071e85-a82d-4bb4-a152-5d20f2f99a93"},"vehicle_type_id":"4","last_reported":1742742537,"current_range_meters":5600,"station_id":"ce4bhih2rcd13ifvqfr0","pricing_plan_id":"cebpf4jnsgd1na2vs0mg"},{"bike_id":"769a31f7-6969-49ba-8b94-76d2acb92451","system_id":"levelo_inurba_marseille","lat":43.28462,"lon":5.35891,"is_reserved":false,"is_disabled":false,"rental_uris":{"android":"levelo://app?vid=769a31f7-6969-49ba-8b94-76d2acb92451","ios":"levelo://app?vid=769a31f7-6969-49ba-8b94-76d2acb92451"},"vehicle_type_id":"4","last_reported":1742742537,"current_range_meters":5600,"station_id":"ce4bhah2rcd13ifvqei0","pricing_plan_id":"cebpf4jnsgd1na2vs0mg"},{"bike_id":"c0cb161a-e335-441e-a679-b285eb071a19","system_id":"levelo_inurba_marseille","lat":43.29434,"lon":5.39756,"is_reserved":false,"is_disabled":false,"rental_uris":{"android":"levelo://app?vid=c0cb161a-e335-441e-a679-b285eb071a19","ios":"levelo://app?vid=c0cb161a-e335-441e-a679-b285eb071a19"},"vehicle_type_id":"4","last_reported":1742742537,"current_range_meters":6000,"station_id":"ce4bh3h2rcd13ifvqdo0","pricing_plan_id":"cebpf4jnsgd1na2vs0mg"},{"bike_id":"1f6d39e4-9af0-4514-9093-c9dcdc06ef67","system_id":"levelo_inurba_marseille","lat":43.29516,"lon":5.39039,"is_reserved":false,"is_disabled":false,"rental_uris":{"android":"levelo://app?vid=1f6d39e4-9af0-4514-9093-c9dcdc06ef67","ios":"levelo://app?vid=1f6d39e4-9af0-4514-9093-c9dcdc06ef67"},"vehicle_type_id":"4","last_reported":1742742537,"current_range_meters":6000,"station_id":"ce4bh3p2rcd13ifvqdp0","pricing_plan_id":"cebpf4jnsgd1na2vs0mg"},{"bike_id":"afe267cc-ea32-4afd-aea0-5930e2b40abe","system_id":"levelo_inurba_marseille","lat":43.29271,"lon":5.36848,"is_reserved":false,"is_disabled":false,"rental_uris":{"android":"levelo://app?vid=afe267cc-ea32-4afd-aea0-5930e2b40abe","ios":"levelo://app?vid=afe267cc-ea32-4afd-aea0-5930e2b40abe"},"vehicle_type_id":"4","last_reported":1742742537,"current_range_meters":6000,"station_id":"ce4bhbp2rcd13ifvqesg","pricing_plan_id":"cebpf4jnsgd1na2vs0mg"},{"bike_id":"9188f013-c48c-48a2-8e95-395e9e871ac2","system_id":"levelo_inurba_marseille","lat":43.29194,"lon":5.3932,"is_reserved":false,"is_disabled":false,"rental_uris":{"android":"levelo://app?vid=9188f013-c48c-48a2-8e95-395e9e871ac2","ios":"levelo://app?vid=9188f013-c48c-48a2-8e95-395e9e871ac2"},"vehicle_type_id":"4","last_reported":1742742537,"current_range_meters":6000,"station_id":"ce4bh192rcd13ifvqdd0","pricing_plan_id":"cebpf4jnsgd1na2vs0mg"},{"bike_id":"500f8d7d-8247-48b0-bc4d-060427f4d6fc","system_id":"levelo_inurba_marseille","lat":43.28102,"lon":5.37833,"is_reserved":false,"is_disabled":false,"rental_uris":{"android":"levelo://app?vid=500f8d7d-8247-48b0-bc4d-060427f4d6fc","ios":"levelo://app?vid=500f8d7d-8247-48b0-bc4d-060427f4d6fc"},"vehicle_type_id":"4","last_reported":1742742537,"current_range_meters":6000,"station_id":"ce4bha12rcd13ifvqee0","pricing_plan_id":"cebpf4jnsgd1na2vs0mg"},{"bike_id":"bca283ae-4af8-4ceb-a3ac-2f965d739fae","system_id":"levelo_inurba_marseille","lat":43.27607,"lon":5.36117,"is_reserved":false,"is_disabled":false,"rental_uris":{"android":"levelo://app?vid=bca283ae-4af8-4ceb-a3ac-2f965d739fae","ios":"levelo://app?vid=bca283ae-4af8-4ceb-a3ac-2f965d739fae"},"vehicle_type_id":"4","last_reported":1742742537,"current_range_meters":6000,"station_id":"ce4bgj92rcd13ifvqbe0","pricing_plan_id":"cebpf4jnsgd1na2vs0mg"},{"bike_id":"2163f9bd-ee45-4559-8a1d-97449a332be3","system_id":"levelo_inurba_marseille","lat":43.29266,"lon":5.376431,"is_reserved":false,"is_disabled":false,"rental_uris":{"android":"levelo://app?vid=2163f9bd-ee45-4559-8a1d-97449a332be3","ios":"levelo://app?vid=2163f9bd-ee45-4559-8a1d-97449a332be3"},"vehicle_type_id":"4","last_reported":1742742537,"current_range_meters":5600,"station_id":"ce4bgrp2rcd13ifvqc9g","pricing_plan_id":"cebpf4jnsgd1na2vs0mg"},{"bike_id":"8ad105a0-41ec-42d9-ac44-bf0a19be1434","system_id":"levelo_inurba_marseille","lat":43.31703,"lon":5.40444,"is_reserved":false,"is_disabled":false,"rental_uris":{"android":"levelo://app?vid=8ad105a0-41ec-42d9-ac44-bf0a19be1434","ios":"levelo://app?vid=8ad105a0-41ec-42d9-ac44-bf0a19be1434"},"vehicle_type_id":"4","last_reported":1742742537,"current_range_meters":6000,"station_id":"ce4bh012rcd13ifvqd00","pricing_plan_id":"cebpf4jnsgd1na2vs0mg"},{"bike_id":"3bc17e9f-c28e-42ac-ab2f-a661d914a8b7","system_id":"levelo_inurba_marseille","lat":43.2508,"lon":5.39522,"is_reserved":false,"is_disabled":true,"rental_uris":{"android":"levelo://app?vid=3bc17e9f-c28e-42ac-ab2f-a661d914a8b7","ios":"levelo://app?vid=3bc17e9f-c28e-42ac-ab2f-a661d914a8b7"},"vehicle_type_id":"4","last_reported":1742742537,"current_range_meters":6000,"station_id":"ce4bhm12rcd13ifvqgkg","pricing_plan_id":"cebpf4jnsgd1na2vs0mg"},{"bike_id":"05af8806-479e-485f-bf60-c84dbe9f17d9","system_id":"levelo_inurba_marseille","lat":43.31049,"lon":5.38356,"is_reserved":false,"is_disabled":false,"rental_uris":{"android":"levelo://app?vid=05af8806-479e-485f-bf60-c84dbe9f17d9","ios":"levelo://app?vid=05af8806-479e-485f-bf60-c84dbe9f17d9"},"vehicle_type_id":"4","last_reported":1742742537,"current_range_meters":6000,"station_id":"ce4bgv92rcd13ifvqcr0","pricing_plan_id":"cebpf4jnsgd1na2vs0mg"},{"bike_id":"4e23f8a9-8f41-411b-aa19-80b2f725f3a0","system_id":"levelo_inurba_marseille","lat":43.28615,"lon":5.35107,"is_reserved":false,"is_disabled":true,"rental_uris":{"android":"levelo://app?vid=4e23f8a9-8f41-411b-aa19-80b2f725f3a0","ios":"levelo://app?vid=4e23f8a9-8f41-411b-aa19-80b2f725f3a0"},"vehicle_type_id":"4","last_reported":1742742537,"current_range_meters":6400,"station_id":"ce4bhch2rcd13ifvqeug","pricing_plan_id":"cebpf4jnsgd1na2vs0mg"},{"bike_id":"fe3973da-2634-44c6-b743-6ee81740bad5","system_id":"levelo_inurba_marseille","lat":43.25581,"lon":5.38238,"is_reserved":false,"is_disabled":false,"rental_uris":{"android":"levelo://app?vid=fe3973da-2634-44c6-b743-6ee81740bad5","ios":"levelo://app?vid=fe3973da-2634-44c6-b743-6ee81740bad5"},"vehicle_type_id":"4","last_reported":1742742537,"current_range_meters":6400,"station_id":"ce4bhih2rcd13ifvqfs0","pricing_plan_id":"cebpf4jnsgd1na2vs0mg"},{"bike_id":"05ba75e1-5e9f-478d-8f1b-3ee97c9f5b8a","system_id":"levelo_inurba_marseille","lat":43.30138,"lon":5.37424,"is_reserved":false,"is_disabled":false,"rental_uris":{"android":"levelo://app?vid=05ba75e1-5e9f-478d-8f1b-3ee97c9f5b8a","ios":"levelo://app?vid=05ba75e1-5e9f-478d-8f1b-3ee97c9f5b8a"},"vehicle_type_id":"4","last_reported":1742742537,"current_range_meters":6400,"station_id":"ce4bgs92rcd13ifvqcc0","pricing_plan_id":"cebpf4jnsgd1na2vs0mg"},{"bike_id":"74bb9572-0fc1-4998-84f5-f2f755f6d3bc","system_id":"levelo_inurba_marseille","lat":43.2808,"lon":5.39654,"is_reserved":false,"is_disabled":false,"rental_uris":{"android":"levelo://app?vid=74bb9572-0fc1-4998-84f5-f2f755f6d3bc","ios":"levelo://app?vid=74bb9572-0fc1-4998-84f5-f2f755f6d3bc"},"vehicle_type_id":"4","last_reported":1742742537,"current_range_meters":6400,"station_id":"ce4bho12rcd13ifvqh2g","pricing_plan_id":"cebpf4jnsgd1na2vs0mg"},{"bike_id":"d70b84f2-ba89-44d8-88fe-e9eb7de8dc18","system_id":"levelo_inurba_marseille","lat":43.32484,"lon":5.3656,"is_reserved":false,"is_disabled":false,"rental_uris":{"android":"levelo://app?vid=d70b84f2-ba89-44d8-88fe-e9eb7de8dc18","ios":"levelo://app?vid=d70b84f2-ba89-44d8-88fe-e9eb7de8dc18"},"vehicle_type_id":"4","last_reported":1742742537,"current_range_meters":6400,"station_id":"ce4bhs12rcd13ifvqhvg","pricing_plan_id":"cebpf4jnsgd1na2vs0mg"},{"bike_id":"4a5606a9-8bc1-48aa-af9f-c548473c2b87","system_id":"levelo_inurba_marseille","lat":43.31711,"lon":5.43712,"is_reserved":false,"is_disabled":false,"rental_uris":{"android":"levelo://app?vid=4a5606a9-8bc1-48aa-af9f-c548473c2b87","ios":"levelo://app?vid=4a5606a9-8bc1-48aa-af9f-c548473c2b87"},"vehicle_type_id":"4","last_reported":1742742537,"current_range_meters":6400,"station_id":"ce4bhp92rcd13ifvqhcg","pricing_plan_id":"cebpf4jnsgd1na2vs0mg"},{"bike_id":"5577fe88-8d05-4218-be38-d02a353d22cb","system_id":"levelo_inurba_marseille","lat":43.30216,"lon":5.37483,"is_reserved":false,"is_disabled":false,"rental_uris":{"android":"levelo://app?vid=5577fe88-8d05-4218-be38-d02a353d22cb","ios":"levelo://app?vid=5577fe88-8d05-4218-be38-d02a353d22cb"},"vehicle_type_id":"4","last_reported":1742742537,"current_range_meters":6400,"station_id":"ce4bghh2rcd13ifvqb60","pricing_plan_id":"cebpf4jnsgd1na2vs0mg"},{"bike_id":"cdf950a8-184a-4a77-b81c-94c38e94d157","system_id":"levelo_inurba_marseille","lat":43.29708,"lon":5.37677,"is_reserved":false,"is_disabled":true,"rental_uris":{"android":"levelo://app?vid=cdf950a8-184a-4a77-b81c-94c38e94d157","ios":"levelo://app?vid=cdf950a8-184a-4a77-b81c-94c38e94d157"},"vehicle_type_id":"4","last_reported":1742742537,"current_range_meters":6400,"station_id":"ce4bgkh2rcd13ifvqbl0","pricing_plan_id":"cebpf4jnsgd1na2vs0mg"},{"bike_id":"c1357c27-e9aa-4024-ad6b-cc2d6fefd461","system_id":"levelo_inurba_marseille","lat":43.29276,"lon":5.40118,"is_reserved":false,"is_disabled":false,"rental_uris":{"android":"levelo://app?vid=c1357c27-e9aa-4024-ad6b-cc2d6fefd461","ios":"levelo://app?vid=c1357c27-e9aa-4024-ad6b-cc2d6fefd461"},"vehicle_type_id":"4","last_reported":1742742537,"current_range_meters":6400,"station_id":"ce4bh312rcd13ifvqdk0","pricing_plan_id":"cebpf4jnsgd1na2vs0mg"},{"bike_id":"a1f00a96-a077-479a-b1ea-451c4962f6c4","system_id":"levelo_inurba_marseille","lat":43.29523,"lon":5.375,"is_reserved":false,"is_disabled":false,"rental_uris":{"android":"levelo://app?vid=a1f00a96-a077-479a-b1ea-451c4962f6c4","ios":"levelo://app?vid=a1f00a96-a077-479a-b1ea-451c4962f6c4"},"vehicle_type_id":"4","last_reported":1742742537,"current_range_meters":6000,"station_id":"ce4bgkp2rcd13ifvqbmg","pricing_plan_id":"cebpf4jnsgd1na2vs0mg"},{"bike_id":"5a79d095-34a6-4b73-b152-1e70b8b81fa2","system_id":"levelo_inurba_marseille","lat":43.24539,"lon":5.39527,"is_reserved":false,"is_disabled":false,"rental_uris":{"android":"levelo://app?vid=5a79d095-34a6-4b73-b152-1e70b8b81fa2","ios":"levelo://app?vid=5a79d095-34a6-4b73-b152-1e70b8b81fa2"},"vehicle_type_id":"4","last_reported":1742742537,"current_range_meters":6800,"station_id":"ce4bhlp2rcd13ifvqgjg","pricing_plan_id":"cebpf4jnsgd1na2vs0mg"},{"bike_id":"a7905089-1e42-49b2-bd42-03f8876cfe2a","system_id":"levelo_inurba_marseille","lat":43.30367,"lon":5.42464,"is_reserved":false,"is_disabled":false,"rental_uris":{"android":"levelo://app?vid=a7905089-1e42-49b2-bd42-03f8876cfe2a","ios":"levelo://app?vid=a7905089-1e42-49b2-bd42-03f8876cfe2a"},"vehicle_type_id":"4","last_reported":1742742537,"current_range_meters":6800,"station_id":"ce4bhoh2rcd13ifvqh6g","pricing_plan_id":"cebpf4jnsgd1na2vs0mg"},{"bike_id":"77bcb388-fa63-4e4d-957c-8c59b5ca2bd2","system_id":"levelo_inurba_marseille","lat":43.3188,"lon":5.4072,"is_reserved":false,"is_disabled":false,"rental_uris":{"android":"levelo://app?vid=77bcb388-fa63-4e4d-957c-8c59b5ca2bd2","ios":"levelo://app?vid=77bcb388-fa63-4e4d-957c-8c59b5ca2bd2"},"vehicle_type_id":"4","last_reported":1742742537,"current_range_meters":6800,"station_id":"ce4bhq12rcd13ifvqhig","pricing_plan_id":"cebpf4jnsgd1na2vs0mg"},{"bike_id":"1f328a65-4668-4c72-ae14-480dffaadf00","system_id":"levelo_inurba_marseille","lat":43.29909,"lon":5.38136,"is_reserved":false,"is_disabled":false,"rental_uris":{"android":"levelo://app?vid=1f328a65-4668-4c72-ae14-480dffaadf00","ios":"levelo://app?vid=1f328a65-4668-4c72-ae14-480dffaadf00"},"vehicle_type_id":"4","last_reported":1742742537,"current_range_meters":6800,"station_id":"ce4bgj12rcd13ifvqbc0","pricing_plan_id":"cebpf4jnsgd1na2vs0mg"},{"bike_id":"c102df47-1a69-4d31-b8be-1bcca189eb57","system_id":"levelo_inurba_marseille","lat":43.31732,"lon":5.37357,"is_reserved":false,"is_disabled":false,"rental_uris":{"android":"levelo://app?vid=c102df47-1a69-4d31-b8be-1bcca189eb57","ios":"levelo://app?vid=c102df47-1a69-4d31-b8be-1bcca189eb57"},"vehicle_type_id":"4","last_reported":1742742537,"current_range_meters":6800,"station_id":"","pricing_plan_id":"cebpf4jnsgd1na2vs0mg"},{"bike_id":"27e69dc3-f489-40ab-9e43-a4775025f0c0","system_id":"levelo_inurba_marseille","lat":43.32541,"lon":5.41452,"is_reserved":false,"is_disabled":false,"rental_uris":{"android":"levelo://app?vid=27e69dc3-f489-40ab-9e43-a4775025f0c0","ios":"levelo://app?vid=27e69dc3-f489-40ab-9e43-a4775025f0c0"},"vehicle_type_id":"4","last_reported":1742742537,"current_range_meters":6800,"station_id":"ce4bhq12rcd13ifvqhhg","pricing_plan_id":"cebpf4jnsgd1na2vs0mg"},{"bike_id":"1ab8da82-9a45-4a50-b57f-fab1d1595a6c","system_id":"levelo_inurba_marseille","lat":43.27324,"lon":5.3908,"is_reserved":false,"is_disabled":false,"rental_uris":{"android":"levelo://app?vid=1ab8da82-9a45-4a50-b57f-fab1d1595a6c","ios":"levelo://app?vid=1ab8da82-9a45-4a50-b57f-fab1d1595a6c"},"vehicle_type_id":"4","last_reported":1742742537,"current_range_meters":7200,"station_id":"ce4bhgp2rcd13ifvqfe0","pricing_plan_id":"cebpf4jnsgd1na2vs0mg"},{"bike_id":"85c637a4-8d12-4cd7-88c2-760ebfe72ffc","system_id":"levelo_inurba_marseille","lat":43.26192,"lon":5.37912,"is_reserved":false,"is_disabled":false,"rental_uris":{"android":"levelo://app?vid=85c637a4-8d12-4cd7-88c2-760ebfe72ffc","ios":"levelo://app?vid=85c637a4-8d12-4cd7-88c2-760ebfe72ffc"},"vehicle_type_id":"4","last_reported":1742742537,"current_range_meters":7200,"station_id":"ce4bhjp2rcd13ifvqg90","pricing_plan_id":"cebpf4jnsgd1na2vs0mg"},{"bike_id":"4bbee01b-80b4-497e-86e8-8fce287c4265","system_id":"levelo_inurba_marseille","lat":43.26197,"lon":5.3792,"is_reserved":false,"is_disabled":false,"rental_uris":{"android":"levelo://app?vid=4bbee01b-80b4-497e-86e8-8fce287c4265","ios":"levelo://app?vid=4bbee01b-80b4-497e-86e8-8fce287c4265"},"vehicle_type_id":"4","last_reported":1742742537,"current_range_meters":7200,"station_id":"ce4bhjp2rcd13ifvqg90","pricing_plan_id":"cebpf4jnsgd1na2vs0mg"},{"bike_id":"609c7e86-1af7-4a42-b69a-ccb787f73fe6","system_id":"levelo_inurba_marseille","lat":43.27056,"lon":5.40262,"is_reserved":false,"is_disabled":false,"rental_uris":{"android":"levelo://app?vid=609c7e86-1af7-4a42-b69a-ccb787f73fe6","ios":"levelo://app?vid=609c7e86-1af7-4a42-b69a-ccb787f73fe6"},"vehicle_type_id":"4","last_reported":1742742537,"current_range_meters":7200,"station_id":"ce4bhk92rcd13ifvqgc0","pricing_plan_id":"cebpf4jnsgd1na2vs0mg"},{"bike_id":"5d4cc92c-eafe-478c-8820-ef016b1e9d02","system_id":"levelo_inurba_marseille","lat":43.298934,"lon":5.436751,"is_reserved":false,"is_disabled":false,"rental_uris":{"android":"levelo://app?vid=5d4cc92c-eafe-478c-8820-ef016b1e9d02","ios":"levelo://app?vid=5d4cc92c-eafe-478c-8820-ef016b1e9d02"},"vehicle_type_id":"4","last_reported":1742742537,"current_range_meters":7200,"station_id":"ce4bhpp2rcd13ifvqhfg","pricing_plan_id":"cebpf4jnsgd1na2vs0mg"},{"bike_id":"76a73682-e507-4679-ae6f-2820ae7d19f0","system_id":"levelo_inurba_marseille","lat":43.31694,"lon":5.40482,"is_reserved":false,"is_disabled":false,"rental_uris":{"android":"levelo://app?vid=76a73682-e507-4679-ae6f-2820ae7d19f0","ios":"levelo://app?vid=76a73682-e507-4679-ae6f-2820ae7d19f0"},"vehicle_type_id":"4","last_reported":1742742537,"current_range_meters":7200,"station_id":"ce4bh012rcd13ifvqd00","pricing_plan_id":"cebpf4jnsgd1na2vs0mg"},{"bike_id":"283baf12-9a27-4921-9183-e3e68b0af13a","system_id":"levelo_inurba_marseille","lat":43.29621,"lon":5.37717,"is_reserved":false,"is_disabled":false,"rental_uris":{"android":"levelo://app?vid=283baf12-9a27-4921-9183-e3e68b0af13a","ios":"levelo://app?vid=283baf12-9a27-4921-9183-e3e68b0af13a"},"vehicle_type_id":"4","last_reported":1742742537,"current_range_meters":7200,"station_id":"ce4bgi92rcd13ifvqb90","pricing_plan_id":"cebpf4jnsgd1na2vs0mg"},{"bike_id":"95e0f52e-422b-4d72-85d0-ab51e5abd2be","system_id":"levelo_inurba_marseille","lat":43.298828,"lon":5.372082,"is_reserved":false,"is_disabled":false,"rental_uris":{"android":"levelo://app?vid=95e0f52e-422b-4d72-85d0-ab51e5abd2be","ios":"levelo://app?vid=95e0f52e-422b-4d72-85d0-ab51e5abd2be"},"vehicle_type_id":"4","last_reported":1742742537,"current_range_meters":7200,"station_id":"ce4bgr92rcd13ifvqc7g","pricing_plan_id":"cebpf4jnsgd1na2vs0mg"},{"bike_id":"014cf003-1505-49cd-ba72-06250a2191ab","system_id":"levelo_inurba_marseille","lat":43.23046,"lon":5.35503,"is_reserved":false,"is_disabled":false,"rental_uris":{"android":"levelo://app?vid=014cf003-1505-49cd-ba72-06250a2191ab","ios":"levelo://app?vid=014cf003-1505-49cd-ba72-06250a2191ab"},"vehicle_type_id":"4","last_reported":1742742537,"current_range_meters":7200,"station_id":"cpo3342slgdg3j2ifvpg","pricing_plan_id":"cebpf4jnsgd1na2vs0mg"},{"bike_id":"b434a718-9ec0-4d9f-ad58-743821fcd808","system_id":"levelo_inurba_marseille","lat":43.30532,"lon":5.36541,"is_reserved":false,"is_disabled":false,"rental_uris":{"android":"levelo://app?vid=b434a718-9ec0-4d9f-ad58-743821fcd808","ios":"levelo://app?vid=b434a718-9ec0-4d9f-ad58-743821fcd808"},"vehicle_type_id":"4","last_reported":1742742537,"current_range_meters":7200,"station_id":"ce4bgs12rcd13ifvqcag","pricing_plan_id":"cebpf4jnsgd1na2vs0mg"},{"bike_id":"1df0b3b2-8b10-4d59-a49f-c6ab72341a39","system_id":"levelo_inurba_marseille","lat":43.23057,"lon":5.35489,"is_reserved":false,"is_disabled":false,"rental_uris":{"android":"levelo://app?vid=1df0b3b2-8b10-4d59-a49f-c6ab72341a39","ios":"levelo://app?vid=1df0b3b2-8b10-4d59-a49f-c6ab72341a39"},"vehicle_type_id":"4","last_reported":1742742537,"current_range_meters":7200,"station_id":"cpo3342slgdg3j2ifvpg","pricing_plan_id":"cebpf4jnsgd1na2vs0mg"},{"bike_id":"768ca5e6-f1bb-42f2-ac3f-2632b474747d","system_id":"levelo_inurba_marseille","lat":43.25825,"lon":5.39448,"is_reserved":false,"is_disabled":false,"rental_uris":{"android":"levelo://app?vid=768ca5e6-f1bb-42f2-ac3f-2632b474747d","ios":"levelo://app?vid=768ca5e6-f1bb-42f2-ac3f-2632b474747d"},"vehicle_type_id":"4","last_reported":1742742537,"current_range_meters":7200,"station_id":"ce4bhip2rcd13ifvqft0","pricing_plan_id":"cebpf4jnsgd1na2vs0mg"},{"bike_id":"356ea320-df16-407b-bf3c-de0658f4f575","system_id":"levelo_inurba_marseille","lat":43.29532,"lon":5.3855,"is_reserved":false,"is_disabled":false,"rental_uris":{"android":"levelo://app?vid=356ea320-df16-407b-bf3c-de0658f4f575","ios":"levelo://app?vid=356ea320-df16-407b-bf3c-de0658f4f575"},"vehicle_type_id":"4","last_reported":1742742537,"current_range_meters":8000,"station_id":"ce4bgih2rcd13ifvqba0","pricing_plan_id":"cebpf4jnsgd1na2vs0mg"},{"bike_id":"216f3f8b-ece3-4151-8782-c32729f33ad9","system_id":"levelo_inurba_marseille","lat":43.27806,"lon":5.40715,"is_reserved":false,"is_disabled":false,"rental_uris":{"android":"levelo://app?vid=216f3f8b-ece3-4151-8782-c32729f33ad9","ios":"levelo://app?vid=216f3f8b-ece3-4151-8782-c32729f33ad9"},"vehicle_type_id":"4","last_reported":1742742537,"current_range_meters":8000,"station_id":"ce4bhnh2rcd13ifvqgtg","pricing_plan_id":"cebpf4jnsgd1na2vs0mg"},{"bike_id":"10ca97fa-bebf-4509-a297-5288a68059b7","system_id":"levelo_inurba_marseille","lat":43.30149,"lon":5.38093,"is_reserved":false,"is_disabled":false,"rental_uris":{"android":"levelo://app?vid=10ca97fa-bebf-4509-a297-5288a68059b7","ios":"levelo://app?vid=10ca97fa-bebf-4509-a297-5288a68059b7"},"vehicle_type_id":"4","last_reported":1742742537,"current_range_meters":8000,"station_id":"ce4bgjp2rcd13ifvqbh0","pricing_plan_id":"cebpf4jnsgd1na2vs0mg"},{"bike_id":"390a733b-2470-4409-960c-7bf03871e3b9","system_id":"levelo_inurba_marseille","lat":43.30902,"lon":5.37195,"is_reserved":false,"is_disabled":false,"rental_uris":{"android":"levelo://app?vid=390a733b-2470-4409-960c-7bf03871e3b9","ios":"levelo://app?vid=390a733b-2470-4409-960c-7bf03871e3b9"},"vehicle_type_id":"4","last_reported":1742742537,"current_range_meters":8000,"station_id":"ce4bguh2rcd13ifvqckg","pricing_plan_id":"cebpf4jnsgd1na2vs0mg"},{"bike_id":"7dff0d61-f3b4-42de-8e95-a63f03cbc4f6","system_id":"levelo_inurba_marseille","lat":43.31372,"lon":5.38504,"is_reserved":false,"is_disabled":false,"rental_uris":{"android":"levelo://app?vid=7dff0d61-f3b4-42de-8e95-a63f03cbc4f6","ios":"levelo://app?vid=7dff0d61-f3b4-42de-8e95-a63f03cbc4f6"},"vehicle_type_id":"4","last_reported":1742742537,"current_range_meters":8000,"station_id":"ce4bgt92rcd13ifvqcf0","pricing_plan_id":"cebpf4jnsgd1na2vs0mg"},{"bike_id":"13cfc485-1650-4204-b5b1-798ab69de46d","system_id":"levelo_inurba_marseille","lat":43.29536,"lon":5.38549,"is_reserved":false,"is_disabled":false,"rental_uris":{"android":"levelo://app?vid=13cfc485-1650-4204-b5b1-798ab69de46d","ios":"levelo://app?vid=13cfc485-1650-4204-b5b1-798ab69de46d"},"vehicle_type_id":"4","last_reported":1742742537,"current_range_meters":7200,"station_id":"ce4bgih2rcd13ifvqba0","pricing_plan_id":"cebpf4jnsgd1na2vs0mg"},{"bike_id":"e2181698-8cd8-4ffa-a687-242799d9ef5f","system_id":"levelo_inurba_marseille","lat":43.32366,"lon":5.38885,"is_reserved":false,"is_disabled":false,"rental_uris":{"android":"levelo://app?vid=e2181698-8cd8-4ffa-a687-242799d9ef5f","ios":"levelo://app?vid=e2181698-8cd8-4ffa-a687-242799d9ef5f"},"vehicle_type_id":"4","last_reported":1742742537,"current_range_meters":8000,"station_id":"ce4bhqp2rcd13ifvqhog","pricing_plan_id":"cebpf4jnsgd1na2vs0mg"},{"bike_id":"d19336df-f78d-467c-b46d-9799f2f84ee2","system_id":"levelo_inurba_marseille","lat":43.24673,"lon":5.38168,"is_reserved":false,"is_disabled":false,"rental_uris":{"android":"levelo://app?vid=d19336df-f78d-467c-b46d-9799f2f84ee2","ios":"levelo://app?vid=d19336df-f78d-467c-b46d-9799f2f84ee2"},"vehicle_type_id":"4","last_reported":1742742537,"current_range_meters":8000,"station_id":"ce4bhih2rcd13ifvqfr0","pricing_plan_id":"cebpf4jnsgd1na2vs0mg"},{"bike_id":"3f3f99da-6673-441e-a5b3-6857219a400e","system_id":"levelo_inurba_marseille","lat":43.25007,"lon":5.38919,"is_reserved":false,"is_disabled":false,"rental_uris":{"android":"levelo://app?vid=3f3f99da-6673-441e-a5b3-6857219a400e","ios":"levelo://app?vid=3f3f99da-6673-441e-a5b3-6857219a400e"},"vehicle_type_id":"4","last_reported":1742742537,"current_range_meters":8000,"station_id":"ce4bhgp2rcd13ifvqfd0","pricing_plan_id":"cebpf4jnsgd1na2vs0mg"},{"bike_id":"e2df2150-d4a9-4d0b-9a01-7b815cd0c7c2","system_id":"levelo_inurba_marseille","lat":43.29199,"lon":5.35801,"is_reserved":false,"is_disabled":false,"rental_uris":{"android":"levelo://app?vid=e2df2150-d4a9-4d0b-9a01-7b815cd0c7c2","ios":"levelo://app?vid=e2df2150-d4a9-4d0b-9a01-7b815cd0c7c2"},"vehicle_type_id":"4","last_reported":1742742537,"current_range_meters":7200,"station_id":"ce4bhb12rcd13ifvqel0","pricing_plan_id":"cebpf4jnsgd1na2vs0mg"},{"bike_id":"cb37c9d2-5d06-431e-a236-80110efaf2b5","system_id":"levelo_inurba_marseille","lat":43.25508,"lon":5.37646,"is_reserved":false,"is_disabled":false,"rental_uris":{"android":"levelo://app?vid=cb37c9d2-5d06-431e-a236-80110efaf2b5","ios":"levelo://app?vid=cb37c9d2-5d06-431e-a236-80110efaf2b5"},"vehicle_type_id":"4","last_reported":1742742537,"current_range_meters":8000,"station_id":"ce4bhh12rcd13ifvqff0","pricing_plan_id":"cebpf4jnsgd1na2vs0mg"},{"bike_id":"8ed1ac19-a2dd-4532-af16-423d1df5a6d4","system_id":"levelo_inurba_marseille","lat":43.23111,"lon":5.41393,"is_reserved":false,"is_disabled":false,"rental_uris":{"android":"levelo://app?vid=8ed1ac19-a2dd-4532-af16-423d1df5a6d4","ios":"levelo://app?vid=8ed1ac19-a2dd-4532-af16-423d1df5a6d4"},"vehicle_type_id":"4","last_reported":1742742537,"current_range_meters":8000,"station_id":"","pricing_plan_id":"cebpf4jnsgd1na2vs0mg"},{"bike_id":"f52f1403-e5ef-4f15-816b-2ba1cd83754e","system_id":"levelo_inurba_marseille","lat":43.326004,"lon":5.364085,"is_reserved":false,"is_disabled":false,"rental_uris":{"android":"levelo://app?vid=f52f1403-e5ef-4f15-816b-2ba1cd83754e","ios":"levelo://app?vid=f52f1403-e5ef-4f15-816b-2ba1cd83754e"},"vehicle_type_id":"4","last_reported":1742742537,"current_range_meters":8000,"station_id":"","pricing_plan_id":"cebpf4jnsgd1na2vs0mg"},{"bike_id":"d7b53f50-9646-4e4b-a511-e3c26017cd7d","system_id":"levelo_inurba_marseille","lat":43.29776,"lon":5.37115,"is_reserved":false,"is_disabled":false,"rental_uris":{"android":"levelo://app?vid=d7b53f50-9646-4e4b-a511-e3c26017cd7d","ios":"levelo://app?vid=d7b53f50-9646-4e4b-a511-e3c26017cd7d"},"vehicle_type_id":"4","last_reported":1742742537,"current_range_meters":8400,"station_id":"ce4bgop2rcd13ifvqc1g","pricing_plan_id":"cebpf4jnsgd1na2vs0mg"},{"bike_id":"d89aa735-35fb-47b3-b3b3-8051c48cf8b9","system_id":"levelo_inurba_marseille","lat":43.27207,"lon":5.39182,"is_reserved":false,"is_disabled":false,"rental_uris":{"android":"levelo://app?vid=d89aa735-35fb-47b3-b3b3-8051c48cf8b9","ios":"levelo://app?vid=d89aa735-35fb-47b3-b3b3-8051c48cf8b9"},"vehicle_type_id":"4","last_reported":1742742537,"current_range_meters":8400,"station_id":"ce4bhhp2rcd13ifvqfm0","pricing_plan_id":"cebpf4jnsgd1na2vs0mg"},{"bike_id":"1db98baf-7e31-48e3-8a8a-dcfedb9e5490","system_id":"levelo_inurba_marseille","lat":43.231707,"lon":5.39996,"is_reserved":false,"is_disabled":false,"rental_uris":{"android":"levelo://app?vid=1db98baf-7e31-48e3-8a8a-dcfedb9e5490","ios":"levelo://app?vid=1db98baf-7e31-48e3-8a8a-dcfedb9e5490"},"vehicle_type_id":"4","last_reported":1742742537,"current_range_meters":8400,"station_id":"ce4bhn12rcd13ifvqgqg","pricing_plan_id":"cebpf4jnsgd1na2vs0mg"},{"bike_id":"b2cdc708-bcd7-43b4-8c99-06c248fe1da8","system_id":"levelo_inurba_marseille","lat":43.25492,"lon":5.37651,"is_reserved":false,"is_disabled":false,"rental_uris":{"android":"levelo://app?vid=b2cdc708-bcd7-43b4-8c99-06c248fe1da8","ios":"levelo://app?vid=b2cdc708-bcd7-43b4-8c99-06c248fe1da8"},"vehicle_type_id":"4","last_reported":1742742537,"current_range_meters":8400,"station_id":"ce4bhh12rcd13ifvqff0","pricing_plan_id":"cebpf4jnsgd1na2vs0mg"},{"bike_id":"4569a8b0-2a16-4be6-9b3e-675606c6ee46","system_id":"levelo_inurba_marseille","lat":43.292745,"lon":5.368544,"is_reserved":false,"is_disabled":false,"rental_uris":{"android":"levelo://app?vid=4569a8b0-2a16-4be6-9b3e-675606c6ee46","ios":"levelo://app?vid=4569a8b0-2a16-4be6-9b3e-675606c6ee46"},"vehicle_type_id":"4","last_reported":1742742537,"current_range_meters":8400,"station_id":"ce4bhbp2rcd13ifvqesg","pricing_plan_id":"cebpf4jnsgd1na2vs0mg"},{"bike_id":"a7a9d68a-b527-472d-b45c-c1363e8def55","system_id":"levelo_inurba_marseille","lat":43.262136,"lon":5.374462,"is_reserved":false,"is_disabled":true,"rental_uris":{"android":"levelo://app?vid=a7a9d68a-b527-472d-b45c-c1363e8def55","ios":"levelo://app?vid=a7a9d68a-b527-472d-b45c-c1363e8def55"},"vehicle_type_id":"4","last_reported":1742742537,"current_range_meters":8400,"station_id":"ce4bhgp2rcd13ifvqfc0","pricing_plan_id":"cebpf4jnsgd1na2vs0mg"},{"bike_id":"72503a27-a949-4a46-b139-c44d4f416a58","system_id":"levelo_inurba_marseille","lat":43.23186,"lon":5.35564,"is_reserved":false,"is_disabled":false,"rental_uris":{"android":"levelo://app?vid=72503a27-a949-4a46-b139-c44d4f416a58","ios":"levelo://app?vid=72503a27-a949-4a46-b139-c44d4f416a58"},"vehicle_type_id":"4","last_reported":1742742537,"current_range_meters":8400,"station_id":"ce4bhu92rcd13ifvqi70","pricing_plan_id":"cebpf4jnsgd1na2vs0mg"},{"bike_id":"70cc4575-7224-4756-b020-ee176e57e7d4","system_id":"levelo_inurba_marseille","lat":43.23196,"lon":5.35549,"is_reserved":false,"is_disabled":false,"rental_uris":{"android":"levelo://app?vid=70cc4575-7224-4756-b020-ee176e57e7d4","ios":"levelo://app?vid=70cc4575-7224-4756-b020-ee176e57e7d4"},"vehicle_type_id":"4","last_reported":1742742537,"current_range_meters":8400,"station_id":"ce4bhu92rcd13ifvqi70","pricing_plan_id":"cebpf4jnsgd1na2vs0mg"},{"bike_id":"38a12be0-fd89-40c4-b0e6-9ad3a26315f5","system_id":"levelo_inurba_marseille","lat":43.25123,"lon":5.40332,"is_reserved":false,"is_disabled":false,"rental_uris":{"android":"levelo://app?vid=38a12be0-fd89-40c4-b0e6-9ad3a26315f5","ios":"levelo://app?vid=38a12be0-fd89-40c4-b0e6-9ad3a26315f5"},"vehicle_type_id":"4","last_reported":1742742537,"current_range_meters":8400,"station_id":"ce4bhlh2rcd13ifvqgig","pricing_plan_id":"cebpf4jnsgd1na2vs0mg"},{"bike_id":"ea375b77-5265-4f10-98eb-8a594992fa8c","system_id":"levelo_inurba_marseille","lat":43.23057,"lon":5.3552,"is_reserved":false,"is_disabled":false,"rental_uris":{"android":"levelo://app?vid=ea375b77-5265-4f10-98eb-8a594992fa8c","ios":"levelo://app?vid=ea375b77-5265-4f10-98eb-8a594992fa8c"},"vehicle_type_id":"4","last_reported":1742742537,"current_range_meters":8400,"station_id":"cpo3342slgdg3j2ifvpg","pricing_plan_id":"cebpf4jnsgd1na2vs0mg"},{"bike_id":"23aae21a-1ee8-4544-a323-476ec541691a","system_id":"levelo_inurba_marseille","lat":43.23184,"lon":5.3999,"is_reserved":false,"is_disabled":false,"rental_uris":{"android":"levelo://app?vid=23aae21a-1ee8-4544-a323-476ec541691a","ios":"levelo://app?vid=23aae21a-1ee8-4544-a323-476ec541691a"},"vehicle_type_id":"4","last_reported":1742742537,"current_range_meters":8400,"station_id":"ce4bhn12rcd13ifvqgqg","pricing_plan_id":"cebpf4jnsgd1na2vs0mg"},{"bike_id":"9b469204-1d25-4894-b812-bcc7dda80cbd","system_id":"levelo_inurba_marseille","lat":43.27755,"lon":5.4089,"is_reserved":false,"is_disabled":false,"rental_uris":{"android":"levelo://app?vid=9b469204-1d25-4894-b812-bcc7dda80cbd","ios":"levelo://app?vid=9b469204-1d25-4894-b812-bcc7dda80cbd"},"vehicle_type_id":"4","last_reported":1742742537,"current_range_meters":8400,"station_id":"","pricing_plan_id":"cebpf4jnsgd1na2vs0mg"},{"bike_id":"f621dcb2-c6b5-40fa-9451-115473e821c8","system_id":"levelo_inurba_marseille","lat":43.28423,"lon":5.37544,"is_reserved":false,"is_disabled":false,"rental_uris":{"android":"levelo://app?vid=f621dcb2-c6b5-40fa-9451-115473e821c8","ios":"levelo://app?vid=f621dcb2-c6b5-40fa-9451-115473e821c8"},"vehicle_type_id":"4","last_reported":1742742537,"current_range_meters":8400,"station_id":"ce4bh412rcd13ifvqds0","pricing_plan_id":"cebpf4jnsgd1na2vs0mg"},{"bike_id":"75c4418e-12f5-45ee-8c1f-91dc5829f101","system_id":"levelo_inurba_marseille","lat":43.2846,"lon":5.35889,"is_reserved":false,"is_disabled":false,"rental_uris":{"android":"levelo://app?vid=75c4418e-12f5-45ee-8c1f-91dc5829f101","ios":"levelo://app?vid=75c4418e-12f5-45ee-8c1f-91dc5829f101"},"vehicle_type_id":"4","last_reported":1742742537,"current_range_meters":8400,"station_id":"ce4bhah2rcd13ifvqei0","pricing_plan_id":"cebpf4jnsgd1na2vs0mg"},{"bike_id":"5de93a4e-8597-44d3-b79a-a868c09960fb","system_id":"levelo_inurba_marseille","lat":43.26195,"lon":5.37445,"is_reserved":false,"is_disabled":true,"rental_uris":{"android":"levelo://app?vid=5de93a4e-8597-44d3-b79a-a868c09960fb","ios":"levelo://app?vid=5de93a4e-8597-44d3-b79a-a868c09960fb"},"vehicle_type_id":"4","last_reported":1742742537,"current_range_meters":8400,"station_id":"ce4bhgp2rcd13ifvqfc0","pricing_plan_id":"cebpf4jnsgd1na2vs0mg"},{"bike_id":"255cc04c-7ece-42e0-b104-c23a33cbaeb2","system_id":"levelo_inurba_marseille","lat":43.2861,"lon":5.3512,"is_reserved":false,"is_disabled":false,"rental_uris":{"android":"levelo://app?vid=255cc04c-7ece-42e0-b104-c23a33cbaeb2","ios":"levelo://app?vid=255cc04c-7ece-42e0-b104-c23a33cbaeb2"},"vehicle_type_id":"4","last_reported":1742742537,"current_range_meters":8400,"station_id":"ce4bhch2rcd13ifvqeug","pricing_plan_id":"cebpf4jnsgd1na2vs0mg"},{"bike_id":"72123cf2-9d2b-41b8-9bee-4f35b0be3549","system_id":"levelo_inurba_marseille","lat":43.23056,"lon":5.355,"is_reserved":false,"is_disabled":true,"rental_uris":{"android":"levelo://app?vid=72123cf2-9d2b-41b8-9bee-4f35b0be3549","ios":"levelo://app?vid=72123cf2-9d2b-41b8-9bee-4f35b0be3549"},"vehicle_type_id":"4","last_reported":1742742537,"current_range_meters":8400,"station_id":"cpo3342slgdg3j2ifvpg","pricing_plan_id":"cebpf4jnsgd1na2vs0mg"},{"bike_id":"525e076a-3225-46f1-acfc-cf966b12abdd","system_id":"levelo_inurba_marseille","lat":43.24683,"lon":5.38125,"is_reserved":false,"is_disabled":false,"rental_uris":{"android":"levelo://app?vid=525e076a-3225-46f1-acfc-cf966b12abdd","ios":"levelo://app?vid=525e076a-3225-46f1-acfc-cf966b12abdd"},"vehicle_type_id":"4","last_reported":1742742537,"current_range_meters":8400,"station_id":"ce4bhih2rcd13ifvqfr0","pricing_plan_id":"cebpf4jnsgd1na2vs0mg"},{"bike_id":"65b84453-2ebb-466f-aa59-9e0dd1fa6abb","system_id":"levelo_inurba_marseille","lat":43.26603,"lon":5.38936,"is_reserved":false,"is_disabled":false,"rental_uris":{"android":"levelo://app?vid=65b84453-2ebb-466f-aa59-9e0dd1fa6abb","ios":"levelo://app?vid=65b84453-2ebb-466f-aa59-9e0dd1fa6abb"},"vehicle_type_id":"4","last_reported":1742742537,"current_range_meters":8400,"station_id":"","pricing_plan_id":"cebpf4jnsgd1na2vs0mg"},{"bike_id":"787fb028-74e3-4ece-a600-b719e0014a09","system_id":"levelo_inurba_marseille","lat":43.2466,"lon":5.38159,"is_reserved":false,"is_disabled":false,"rental_uris":{"android":"levelo://app?vid=787fb028-74e3-4ece-a600-b719e0014a09","ios":"levelo://app?vid=787fb028-74e3-4ece-a600-b719e0014a09"},"vehicle_type_id":"4","last_reported":1742742537,"current_range_meters":8800,"station_id":"ce4bhih2rcd13ifvqfr0","pricing_plan_id":"cebpf4jnsgd1na2vs0mg"},{"bike_id":"a3624128-bd09-4f77-9dfb-91a1ef810853","system_id":"levelo_inurba_marseille","lat":43.23949,"lon":5.36636,"is_reserved":false,"is_disabled":false,"rental_uris":{"android":"levelo://app?vid=a3624128-bd09-4f77-9dfb-91a1ef810853","ios":"levelo://app?vid=a3624128-bd09-4f77-9dfb-91a1ef810853"},"vehicle_type_id":"4","last_reported":1742742537,"current_range_meters":8800,"station_id":"ce4bhi12rcd13ifvqfp0","pricing_plan_id":"cebpf4jnsgd1na2vs0mg"},{"bike_id":"ad263336-64b9-4f27-8f30-4a49fa7dcbf6","system_id":"levelo_inurba_marseille","lat":43.27625,"lon":5.42642,"is_reserved":false,"is_disabled":false,"rental_uris":{"android":"levelo://app?vid=ad263336-64b9-4f27-8f30-4a49fa7dcbf6","ios":"levelo://app?vid=ad263336-64b9-4f27-8f30-4a49fa7dcbf6"},"vehicle_type_id":"4","last_reported":1742742537,"current_range_meters":8800,"station_id":"","pricing_plan_id":"cebpf4jnsgd1na2vs0mg"},{"bike_id":"75239504-6411-4c5a-918c-ff12c7d01c06","system_id":"levelo_inurba_marseille","lat":43.2781,"lon":5.40726,"is_reserved":false,"is_disabled":false,"rental_uris":{"android":"levelo://app?vid=75239504-6411-4c5a-918c-ff12c7d01c06","ios":"levelo://app?vid=75239504-6411-4c5a-918c-ff12c7d01c06"},"vehicle_type_id":"4","last_reported":1742742537,"current_range_meters":8800,"station_id":"ce4bhnh2rcd13ifvqgtg","pricing_plan_id":"cebpf4jnsgd1na2vs0mg"},{"bike_id":"6f425aba-9913-4a53-84e5-f88e4e8833e1","system_id":"levelo_inurba_marseille","lat":43.30553,"lon":5.36558,"is_reserved":false,"is_disabled":false,"rental_uris":{"android":"levelo://app?vid=6f425aba-9913-4a53-84e5-f88e4e8833e1","ios":"levelo://app?vid=6f425aba-9913-4a53-84e5-f88e4e8833e1"},"vehicle_type_id":"4","last_reported":1742742537,"current_range_meters":8800,"station_id":"ce4bgs12rcd13ifvqcag","pricing_plan_id":"cebpf4jnsgd1na2vs0mg"},{"bike_id":"040f3bf0-bc9b-4bc1-8565-1964eb7156d5","system_id":"levelo_inurba_marseille","lat":43.29452,"lon":5.38506,"is_reserved":false,"is_disabled":false,"rental_uris":{"android":"levelo://app?vid=040f3bf0-bc9b-4bc1-8565-1964eb7156d5","ios":"levelo://app?vid=040f3bf0-bc9b-4bc1-8565-1964eb7156d5"},"vehicle_type_id":"4","last_reported":1742742537,"current_range_meters":9200,"station_id":"","pricing_plan_id":"cebpf4jnsgd1na2vs0mg"},{"bike_id":"f1ae7dc2-4d18-400d-a8db-70e92640374b","system_id":"levelo_inurba_marseille","lat":43.29256,"lon":5.38434,"is_reserved":false,"is_disabled":false,"rental_uris":{"android":"levelo://app?vid=f1ae7dc2-4d18-400d-a8db-70e92640374b","ios":"levelo://app?vid=f1ae7dc2-4d18-400d-a8db-70e92640374b"},"vehicle_type_id":"4","last_reported":1742742537,"current_range_meters":9200,"station_id":"ce4bh692rcd13ifvqea0","pricing_plan_id":"cebpf4jnsgd1na2vs0mg"},{"bike_id":"037e6ede-daec-42c4-b1a5-a4ddfe378bc9","system_id":"levelo_inurba_marseille","lat":43.28711,"lon":5.37932,"is_reserved":false,"is_disabled":true,"rental_uris":{"android":"levelo://app?vid=037e6ede-daec-42c4-b1a5-a4ddfe378bc9","ios":"levelo://app?vid=037e6ede-daec-42c4-b1a5-a4ddfe378bc9"},"vehicle_type_id":"4","last_reported":1742742537,"current_range_meters":9200,"station_id":"ce4bh9p2rcd13ifvqec0","pricing_plan_id":"cebpf4jnsgd1na2vs0mg"},{"bike_id":"dded0294-32f1-470c-8a38-f64890dd987e","system_id":"levelo_inurba_marseille","lat":43.26187,"lon":5.37925,"is_reserved":false,"is_disabled":false,"rental_uris":{"android":"levelo://app?vid=dded0294-32f1-470c-8a38-f64890dd987e","ios":"levelo://app?vid=dded0294-32f1-470c-8a38-f64890dd987e"},"vehicle_type_id":"4","last_reported":1742742537,"current_range_meters":9200,"station_id":"ce4bhjp2rcd13ifvqg90","pricing_plan_id":"cebpf4jnsgd1na2vs0mg"},{"bike_id":"2032e81a-8d24-4036-9cc6-bf67698b8322","system_id":"levelo_inurba_marseille","lat":43.24185,"lon":5.39723,"is_reserved":false,"is_disabled":false,"rental_uris":{"android":"levelo://app?vid=2032e81a-8d24-4036-9cc6-bf67698b8322","ios":"levelo://app?vid=2032e81a-8d24-4036-9cc6-bf67698b8322"},"vehicle_type_id":"4","last_reported":1742742537,"current_range_meters":9200,"station_id":"ce4bhn12rcd13ifvqgpg","pricing_plan_id":"cebpf4jnsgd1na2vs0mg"},{"bike_id":"ce8e0a57-4459-4644-a5c3-b0626fd39aae","system_id":"levelo_inurba_marseille","lat":43.3014,"lon":5.37406,"is_reserved":false,"is_disabled":false,"rental_uris":{"android":"levelo://app?vid=ce8e0a57-4459-4644-a5c3-b0626fd39aae","ios":"levelo://app?vid=ce8e0a57-4459-4644-a5c3-b0626fd39aae"},"vehicle_type_id":"4","last_reported":1742742537,"current_range_meters":9600,"station_id":"ce4bgs92rcd13ifvqcc0","pricing_plan_id":"cebpf4jnsgd1na2vs0mg"},{"bike_id":"e53a0096-e4a9-4af5-b074-80e3827286ce","system_id":"levelo_inurba_marseille","lat":43.28469,"lon":5.38575,"is_reserved":false,"is_disabled":false,"rental_uris":{"android":"levelo://app?vid=e53a0096-e4a9-4af5-b074-80e3827286ce","ios":"levelo://app?vid=e53a0096-e4a9-4af5-b074-80e3827286ce"},"vehicle_type_id":"4","last_reported":1742742537,"current_range_meters":9600,"station_id":"ce4bh8p2rcd13ifvqeb0","pricing_plan_id":"cebpf4jnsgd1na2vs0mg"},{"bike_id":"7323cb72-d2a8-410a-ad29-a098a302de01","system_id":"levelo_inurba_marseille","lat":43.31357,"lon":5.38504,"is_reserved":false,"is_disabled":false,"rental_uris":{"android":"levelo://app?vid=7323cb72-d2a8-410a-ad29-a098a302de01","ios":"levelo://app?vid=7323cb72-d2a8-410a-ad29-a098a302de01"},"vehicle_type_id":"4","last_reported":1742742537,"current_range_meters":9600,"station_id":"ce4bgt92rcd13ifvqcf0","pricing_plan_id":"cebpf4jnsgd1na2vs0mg"},{"bike_id":"3e428432-c6b3-4b8f-8b31-3730a5eec540","system_id":"levelo_inurba_marseille","lat":43.272108,"lon":5.391884,"is_reserved":false,"is_disabled":false,"rental_uris":{"android":"levelo://app?vid=3e428432-c6b3-4b8f-8b31-3730a5eec540","ios":"levelo://app?vid=3e428432-c6b3-4b8f-8b31-3730a5eec540"},"vehicle_type_id":"4","last_reported":1742742537,"current_range_meters":9600,"station_id":"ce4bhl92rcd13ifvqghg","pricing_plan_id":"cebpf4jnsgd1na2vs0mg"},{"bike_id":"ffa1c178-4e87-4ee6-b147-b470c9892315","system_id":"levelo_inurba_marseille","lat":43.29091,"lon":5.38136,"is_reserved":false,"is_disabled":false,"rental_uris":{"android":"levelo://app?vid=ffa1c178-4e87-4ee6-b147-b470c9892315","ios":"levelo://app?vid=ffa1c178-4e87-4ee6-b147-b470c9892315"},"vehicle_type_id":"4","last_reported":1742742537,"current_range_meters":9200,"station_id":"ce4bh512rcd13ifvqe2g","pricing_plan_id":"cebpf4jnsgd1na2vs0mg"},{"bike_id":"a1d7a74c-722c-49fe-94d8-92f07cb1ed52","system_id":"levelo_inurba_marseille","lat":43.262054,"lon":5.374485,"is_reserved":false,"is_disabled":false,"rental_uris":{"android":"levelo://app?vid=a1d7a74c-722c-49fe-94d8-92f07cb1ed52","ios":"levelo://app?vid=a1d7a74c-722c-49fe-94d8-92f07cb1ed52"},"vehicle_type_id":"4","last_reported":1742742537,"current_range_meters":9600,"station_id":"ce4bhgp2rcd13ifvqfc0","pricing_plan_id":"cebpf4jnsgd1na2vs0mg"},{"bike_id":"52390db3-1658-4d95-8474-5735938b9643","system_id":"levelo_inurba_marseille","lat":43.26222,"lon":5.40452,"is_reserved":false,"is_disabled":false,"rental_uris":{"android":"levelo://app?vid=52390db3-1658-4d95-8474-5735938b9643","ios":"levelo://app?vid=52390db3-1658-4d95-8474-5735938b9643"},"vehicle_type_id":"4","last_reported":1742742537,"current_range_meters":9600,"station_id":"ce4bhmh2rcd13ifvqgmg","pricing_plan_id":"cebpf4jnsgd1na2vs0mg"},{"bike_id":"b0d2382e-6c84-4012-92db-2206fb9a92cc","system_id":"levelo_inurba_marseille","lat":43.295297,"lon":5.375115,"is_reserved":false,"is_disabled":false,"rental_uris":{"android":"levelo://app?vid=b0d2382e-6c84-4012-92db-2206fb9a92cc","ios":"levelo://app?vid=b0d2382e-6c84-4012-92db-2206fb9a92cc"},"vehicle_type_id":"4","last_reported":1742742537,"current_range_meters":9600,"station_id":"ce4bgvh2rcd13ifvqcs0","pricing_plan_id":"cebpf4jnsgd1na2vs0mg"},{"bike_id":"80bd481f-76dd-47f5-8a33-ce4926e26fff","system_id":"levelo_inurba_marseille","lat":43.26187,"lon":5.37433,"is_reserved":false,"is_disabled":true,"rental_uris":{"android":"levelo://app?vid=80bd481f-76dd-47f5-8a33-ce4926e26fff","ios":"levelo://app?vid=80bd481f-76dd-47f5-8a33-ce4926e26fff"},"vehicle_type_id":"4","last_reported":1742742537,"current_range_meters":9600,"station_id":"ce4bhgp2rcd13ifvqfc0","pricing_plan_id":"cebpf4jnsgd1na2vs0mg"},{"bike_id":"dd5d6d06-0e34-4684-b128-c77a8d50ab86","system_id":"levelo_inurba_marseille","lat":43.30133,"lon":5.37412,"is_reserved":false,"is_disabled":false,"rental_uris":{"android":"levelo://app?vid=dd5d6d06-0e34-4684-b128-c77a8d50ab86","ios":"levelo://app?vid=dd5d6d06-0e34-4684-b128-c77a8d50ab86"},"vehicle_type_id":"4","last_reported":1742742537,"current_range_meters":10000,"station_id":"ce4bgs92rcd13ifvqcc0","pricing_plan_id":"cebpf4jnsgd1na2vs0mg"},{"bike_id":"085ef65d-1c70-4528-b12f-795338c2d1da","system_id":"levelo_inurba_marseille","lat":43.31997,"lon":5.38158,"is_reserved":false,"is_disabled":false,"rental_uris":{"android":"levelo://app?vid=085ef65d-1c70-4528-b12f-795338c2d1da","ios":"levelo://app?vid=085ef65d-1c70-4528-b12f-795338c2d1da"},"vehicle_type_id":"4","last_reported":1742742537,"current_range_meters":10000,"station_id":"ce4bhr12rcd13ifvqhpg","pricing_plan_id":"cebpf4jnsgd1na2vs0mg"},{"bike_id":"cd383773-4b9e-47b8-a0dc-4b9211546aa7","system_id":"levelo_inurba_marseille","lat":43.33596,"lon":5.41009,"is_reserved":false,"is_disabled":false,"rental_uris":{"android":"levelo://app?vid=cd383773-4b9e-47b8-a0dc-4b9211546aa7","ios":"levelo://app?vid=cd383773-4b9e-47b8-a0dc-4b9211546aa7"},"vehicle_type_id":"4","last_reported":1742742537,"current_range_meters":10000,"station_id":"ce4bhqh2rcd13ifvqhmg","pricing_plan_id":"cebpf4jnsgd1na2vs0mg"},{"bike_id":"751ff1ed-b498-4578-9bd4-943bf6c9d8eb","system_id":"levelo_inurba_marseille","lat":43.23197,"lon":5.35543,"is_reserved":false,"is_disabled":false,"rental_uris":{"android":"levelo://app?vid=751ff1ed-b498-4578-9bd4-943bf6c9d8eb","ios":"levelo://app?vid=751ff1ed-b498-4578-9bd4-943bf6c9d8eb"},"vehicle_type_id":"4","last_reported":1742742537,"current_range_meters":10000,"station_id":"ce4bhu92rcd13ifvqi70","pricing_plan_id":"cebpf4jnsgd1na2vs0mg"},{"bike_id":"f6c056a6-2322-4c01-af0a-8f6649999ef0","system_id":"levelo_inurba_marseille","lat":43.27559,"lon":5.38427,"is_reserved":false,"is_disabled":false,"rental_uris":{"android":"levelo://app?vid=f6c056a6-2322-4c01-af0a-8f6649999ef0","ios":"levelo://app?vid=f6c056a6-2322-4c01-af0a-8f6649999ef0"},"vehicle_type_id":"4","last_reported":1742742537,"current_range_meters":10000,"station_id":"ce4bhh92rcd13ifvqfi0","pricing_plan_id":"cebpf4jnsgd1na2vs0mg"},{"bike_id":"2fd4d927-0f70-4f4e-9269-8cd3b232bcd8","system_id":"levelo_inurba_marseille","lat":43.25924,"lon":5.40877,"is_reserved":false,"is_disabled":false,"rental_uris":{"android":"levelo://app?vid=2fd4d927-0f70-4f4e-9269-8cd3b232bcd8","ios":"levelo://app?vid=2fd4d927-0f70-4f4e-9269-8cd3b232bcd8"},"vehicle_type_id":"4","last_reported":1742742537,"current_range_meters":10000,"station_id":"ce4bhm92rcd13ifvqglg","pricing_plan_id":"cebpf4jnsgd1na2vs0mg"},{"bike_id":"8baa2ca8-9eb2-4942-ba47-ed90d166dad3","system_id":"levelo_inurba_marseille","lat":43.25319,"lon":5.40216,"is_reserved":false,"is_disabled":true,"rental_uris":{"android":"levelo://app?vid=8baa2ca8-9eb2-4942-ba47-ed90d166dad3","ios":"levelo://app?vid=8baa2ca8-9eb2-4942-ba47-ed90d166dad3"},"vehicle_type_id":"4","last_reported":1742742537,"current_range_meters":10000,"station_id":"","pricing_plan_id":"cebpf4jnsgd1na2vs0mg"},{"bike_id":"21110448-52db-4375-bf9b-0e3f2c30c5b0","system_id":"levelo_inurba_marseille","lat":43.27813,"lon":5.40714,"is_reserved":false,"is_disabled":false,"rental_uris":{"android":"levelo://app?vid=21110448-52db-4375-bf9b-0e3f2c30c5b0","ios":"levelo://app?vid=21110448-52db-4375-bf9b-0e3f2c30c5b0"},"vehicle_type_id":"4","last_reported":1742742537,"current_range_meters":10000,"station_id":"ce4bhnh2rcd13ifvqgtg","pricing_plan_id":"cebpf4jnsgd1na2vs0mg"},{"bike_id":"db96ab39-a5ac-46c4-b7dc-2e16e3f1c6e7","system_id":"levelo_inurba_marseille","lat":43.28511,"lon":5.35598,"is_reserved":false,"is_disabled":false,"rental_uris":{"android":"levelo://app?vid=db96ab39-a5ac-46c4-b7dc-2e16e3f1c6e7","ios":"levelo://app?vid=db96ab39-a5ac-46c4-b7dc-2e16e3f1c6e7"},"vehicle_type_id":"4","last_reported":1742742537,"current_range_meters":10000,"station_id":"","pricing_plan_id":"cebpf4jnsgd1na2vs0mg"},{"bike_id":"466b52b1-619d-4757-a4a2-7dbcc5ac0e91","system_id":"levelo_inurba_marseille","lat":43.30368,"lon":5.42477,"is_reserved":false,"is_disabled":false,"rental_uris":{"android":"levelo://app?vid=466b52b1-619d-4757-a4a2-7dbcc5ac0e91","ios":"levelo://app?vid=466b52b1-619d-4757-a4a2-7dbcc5ac0e91"},"vehicle_type_id":"4","last_reported":1742742537,"current_range_meters":10000,"station_id":"ce4bhoh2rcd13ifvqh6g","pricing_plan_id":"cebpf4jnsgd1na2vs0mg"},{"bike_id":"bdd85a69-2526-423f-83bc-580097d3e5b5","system_id":"levelo_inurba_marseille","lat":43.23065,"lon":5.35472,"is_reserved":false,"is_disabled":false,"rental_uris":{"android":"levelo://app?vid=bdd85a69-2526-423f-83bc-580097d3e5b5","ios":"levelo://app?vid=bdd85a69-2526-423f-83bc-580097d3e5b5"},"vehicle_type_id":"4","last_reported":1742742537,"current_range_meters":10000,"station_id":"cpo3342slgdg3j2ifvpg","pricing_plan_id":"cebpf4jnsgd1na2vs0mg"},{"bike_id":"116c3da4-f553-4d43-89d4-94b72eb3fe42","system_id":"levelo_inurba_marseille","lat":43.27949,"lon":5.4105,"is_reserved":false,"is_disabled":false,"rental_uris":{"android":"levelo://app?vid=116c3da4-f553-4d43-89d4-94b72eb3fe42","ios":"levelo://app?vid=116c3da4-f553-4d43-89d4-94b72eb3fe42"},"vehicle_type_id":"4","last_reported":1742742537,"current_range_meters":10000,"station_id":"ce4bhnp2rcd13ifvqh0g","pricing_plan_id":"cebpf4jnsgd1na2vs0mg"},{"bike_id":"d954b141-3cee-4de0-9c29-d5babd11cd82","system_id":"levelo_inurba_marseille","lat":43.25085,"lon":5.39529,"is_reserved":false,"is_disabled":false,"rental_uris":{"android":"levelo://app?vid=d954b141-3cee-4de0-9c29-d5babd11cd82","ios":"levelo://app?vid=d954b141-3cee-4de0-9c29-d5babd11cd82"},"vehicle_type_id":"4","last_reported":1742742537,"current_range_meters":10000,"station_id":"ce4bhm12rcd13ifvqgkg","pricing_plan_id":"cebpf4jnsgd1na2vs0mg"},{"bike_id":"801ac92f-133f-417e-90ff-e9cdca3569b0","system_id":"levelo_inurba_marseille","lat":43.24073,"lon":5.37752,"is_reserved":false,"is_disabled":false,"rental_uris":{"android":"levelo://app?vid=801ac92f-133f-417e-90ff-e9cdca3569b0","ios":"levelo://app?vid=801ac92f-133f-417e-90ff-e9cdca3569b0"},"vehicle_type_id":"4","last_reported":1742742537,"current_range_meters":10000,"station_id":"ce4bhnp2rcd13ifvqgvg","pricing_plan_id":"cebpf4jnsgd1na2vs0mg"},{"bike_id":"cf72292a-1f76-4ebc-9caa-0a7533f2cb9b","system_id":"levelo_inurba_marseille","lat":43.28269,"lon":5.35062,"is_reserved":false,"is_disabled":false,"rental_uris":{"android":"levelo://app?vid=cf72292a-1f76-4ebc-9caa-0a7533f2cb9b","ios":"levelo://app?vid=cf72292a-1f76-4ebc-9caa-0a7533f2cb9b"},"vehicle_type_id":"4","last_reported":1742742537,"current_range_meters":9600,"station_id":"ce4bhb92rcd13ifvqen0","pricing_plan_id":"cebpf4jnsgd1na2vs0mg"},{"bike_id":"f7128881-3250-47b4-940a-0a23e9764e36","system_id":"levelo_inurba_marseille","lat":43.25947,"lon":5.4092,"is_reserved":false,"is_disabled":false,"rental_uris":{"android":"levelo://app?vid=f7128881-3250-47b4-940a-0a23e9764e36","ios":"levelo://app?vid=f7128881-3250-47b4-940a-0a23e9764e36"},"vehicle_type_id":"4","last_reported":1742742537,"current_range_meters":10000,"station_id":"ce4bhm92rcd13ifvqglg","pricing_plan_id":"cebpf4jnsgd1na2vs0mg"},{"bike_id":"3e2dfcd2-a0a7-46cc-8b9f-df42b2653843","system_id":"levelo_inurba_marseille","lat":43.25117,"lon":5.40334,"is_reserved":false,"is_disabled":false,"rental_uris":{"android":"levelo://app?vid=3e2dfcd2-a0a7-46cc-8b9f-df42b2653843","ios":"levelo://app?vid=3e2dfcd2-a0a7-46cc-8b9f-df42b2653843"},"vehicle_type_id":"4","last_reported":1742742537,"current_range_meters":10800,"station_id":"ce4bhlh2rcd13ifvqgig","pricing_plan_id":"cebpf4jnsgd1na2vs0mg"},{"bike_id":"84467d27-af87-407a-a905-5ab1c7d1b9de","system_id":"levelo_inurba_marseille","lat":43.295837,"lon":5.375342,"is_reserved":false,"is_disabled":false,"rental_uris":{"android":"levelo://app?vid=84467d27-af87-407a-a905-5ab1c7d1b9de","ios":"levelo://app?vid=84467d27-af87-407a-a905-5ab1c7d1b9de"},"vehicle_type_id":"4","last_reported":1742742537,"current_range_meters":10800,"station_id":"ce4bh492rcd13ifvqdug","pricing_plan_id":"cebpf4jnsgd1na2vs0mg"},{"bike_id":"eb4a2c41-628d-4b10-b766-2b8f69e0c0c0","system_id":"levelo_inurba_marseille","lat":43.30905,"lon":5.36844,"is_reserved":false,"is_disabled":false,"rental_uris":{"android":"levelo://app?vid=eb4a2c41-628d-4b10-b766-2b8f69e0c0c0","ios":"levelo://app?vid=eb4a2c41-628d-4b10-b766-2b8f69e0c0c0"},"vehicle_type_id":"4","last_reported":1742742537,"current_range_meters":10800,"station_id":"ce4bgn92rcd13ifvqbvg","pricing_plan_id":"cebpf4jnsgd1na2vs0mg"},{"bike_id":"5932f5b5-0803-41be-ad57-2c62bb691349","system_id":"levelo_inurba_marseille","lat":43.24695,"lon":5.38172,"is_reserved":false,"is_disabled":false,"rental_uris":{"android":"levelo://app?vid=5932f5b5-0803-41be-ad57-2c62bb691349","ios":"levelo://app?vid=5932f5b5-0803-41be-ad57-2c62bb691349"},"vehicle_type_id":"4","last_reported":1742742537,"current_range_meters":10800,"station_id":"ce4bhih2rcd13ifvqfr0","pricing_plan_id":"cebpf4jnsgd1na2vs0mg"},{"bike_id":"f34db1dd-d633-4894-9e65-6081d5ef5917","system_id":"levelo_inurba_marseille","lat":43.30079,"lon":5.39052,"is_reserved":false,"is_disabled":false,"rental_uris":{"android":"levelo://app?vid=f34db1dd-d633-4894-9e65-6081d5ef5917","ios":"levelo://app?vid=f34db1dd-d633-4894-9e65-6081d5ef5917"},"vehicle_type_id":"4","last_reported":1742742537,"current_range_meters":10800,"station_id":"ce4bh192rcd13ifvqdb0","pricing_plan_id":"cebpf4jnsgd1na2vs0mg"},{"bike_id":"ba52014b-a246-4894-a2c7-c3fb0c4bebc3","system_id":"levelo_inurba_marseille","lat":43.27811,"lon":5.40724,"is_reserved":false,"is_disabled":false,"rental_uris":{"android":"levelo://app?vid=ba52014b-a246-4894-a2c7-c3fb0c4bebc3","ios":"levelo://app?vid=ba52014b-a246-4894-a2c7-c3fb0c4bebc3"},"vehicle_type_id":"4","last_reported":1742742537,"current_range_meters":10800,"station_id":"ce4bhnh2rcd13ifvqgtg","pricing_plan_id":"cebpf4jnsgd1na2vs0mg"},{"bike_id":"07541760-82c4-4d38-b58c-85ffff07e965","system_id":"levelo_inurba_marseille","lat":43.23965,"lon":5.36613,"is_reserved":false,"is_disabled":false,"rental_uris":{"android":"levelo://app?vid=07541760-82c4-4d38-b58c-85ffff07e965","ios":"levelo://app?vid=07541760-82c4-4d38-b58c-85ffff07e965"},"vehicle_type_id":"4","last_reported":1742742537,"current_range_meters":10800,"station_id":"ce4bhi12rcd13ifvqfp0","pricing_plan_id":"cebpf4jnsgd1na2vs0mg"},{"bike_id":"08fcbc8a-2ec7-4352-afeb-2a43a18f8a05","system_id":"levelo_inurba_marseille","lat":43.27608,"lon":5.36106,"is_reserved":false,"is_disabled":true,"rental_uris":{"android":"levelo://app?vid=08fcbc8a-2ec7-4352-afeb-2a43a18f8a05","ios":"levelo://app?vid=08fcbc8a-2ec7-4352-afeb-2a43a18f8a05"},"vehicle_type_id":"4","last_reported":1742742537,"current_range_meters":10800,"station_id":"ce4bgj92rcd13ifvqbe0","pricing_plan_id":"cebpf4jnsgd1na2vs0mg"},{"bike_id":"d0b76adc-824c-429e-85df-b0694ff92188","system_id":"levelo_inurba_marseille","lat":43.3248,"lon":5.36563,"is_reserved":false,"is_disabled":false,"rental_uris":{"android":"levelo://app?vid=d0b76adc-824c-429e-85df-b0694ff92188","ios":"levelo://app?vid=d0b76adc-824c-429e-85df-b0694ff92188"},"vehicle_type_id":"4","last_reported":1742742537,"current_range_meters":10800,"station_id":"ce4bhs12rcd13ifvqhvg","pricing_plan_id":"cebpf4jnsgd1na2vs0mg"},{"bike_id":"4c8a4056-48ac-48f3-aef0-9ae5cc16b399","system_id":"levelo_inurba_marseille","lat":43.27819,"lon":5.40729,"is_reserved":false,"is_disabled":false,"rental_uris":{"android":"levelo://app?vid=4c8a4056-48ac-48f3-aef0-9ae5cc16b399","ios":"levelo://app?vid=4c8a4056-48ac-48f3-aef0-9ae5cc16b399"},"vehicle_type_id":"4","last_reported":1742742537,"current_range_meters":10800,"station_id":"ce4bhnh2rcd13ifvqgtg","pricing_plan_id":"cebpf4jnsgd1na2vs0mg"},{"bike_id":"b73ec569-36d6-4fb9-a1b7-a20195eb7a19","system_id":"levelo_inurba_marseille","lat":43.29903,"lon":5.38148,"is_reserved":false,"is_disabled":false,"rental_uris":{"android":"levelo://app?vid=b73ec569-36d6-4fb9-a1b7-a20195eb7a19","ios":"levelo://app?vid=b73ec569-36d6-4fb9-a1b7-a20195eb7a19"},"vehicle_type_id":"4","last_reported":1742742537,"current_range_meters":10800,"station_id":"ce4bgj12rcd13ifvqbc0","pricing_plan_id":"cebpf4jnsgd1na2vs0mg"},{"bike_id":"9e60c1b1-e737-4cb0-8357-6383e5519a3d","system_id":"levelo_inurba_marseille","lat":43.29846,"lon":5.36285,"is_reserved":false,"is_disabled":false,"rental_uris":{"android":"levelo://app?vid=9e60c1b1-e737-4cb0-8357-6383e5519a3d","ios":"levelo://app?vid=9e60c1b1-e737-4cb0-8357-6383e5519a3d"},"vehicle_type_id":"4","last_reported":1742742537,"current_range_meters":10800,"station_id":"ce4bgpp2rcd13ifvqc3g","pricing_plan_id":"cebpf4jnsgd1na2vs0mg"},{"bike_id":"196e5527-f8ec-47c9-88d8-c0c49611574a","system_id":"levelo_inurba_marseille","lat":43.23057,"lon":5.35482,"is_reserved":false,"is_disabled":false,"rental_uris":{"android":"levelo://app?vid=196e5527-f8ec-47c9-88d8-c0c49611574a","ios":"levelo://app?vid=196e5527-f8ec-47c9-88d8-c0c49611574a"},"vehicle_type_id":"4","last_reported":1742742537,"current_range_meters":10800,"station_id":"cpo3342slgdg3j2ifvpg","pricing_plan_id":"cebpf4jnsgd1na2vs0mg"},{"bike_id":"3bb33489-a82f-4739-bc09-2fe3082e2e8c","system_id":"levelo_inurba_marseille","lat":43.30136,"lon":5.37391,"is_reserved":false,"is_disabled":false,"rental_uris":{"android":"levelo://app?vid=3bb33489-a82f-4739-bc09-2fe3082e2e8c","ios":"levelo://app?vid=3bb33489-a82f-4739-bc09-2fe3082e2e8c"},"vehicle_type_id":"4","last_reported":1742742537,"current_range_meters":10800,"station_id":"ce4bgs92rcd13ifvqcc0","pricing_plan_id":"cebpf4jnsgd1na2vs0mg"},{"bike_id":"a8054457-ef9c-4293-879f-1eab83000740","system_id":"levelo_inurba_marseille","lat":43.24173,"lon":5.36388,"is_reserved":false,"is_disabled":false,"rental_uris":{"android":"levelo://app?vid=a8054457-ef9c-4293-879f-1eab83000740","ios":"levelo://app?vid=a8054457-ef9c-4293-879f-1eab83000740"},"vehicle_type_id":"4","last_reported":1742742537,"current_range_meters":11200,"station_id":"cpo36qri1sfpv3e86is0","pricing_plan_id":"cebpf4jnsgd1na2vs0mg"},{"bike_id":"dfdaab57-013b-4f76-9233-d0d4420b4c62","system_id":"levelo_inurba_marseille","lat":43.26947,"lon":5.38628,"is_reserved":false,"is_disabled":false,"rental_uris":{"android":"levelo://app?vid=dfdaab57-013b-4f76-9233-d0d4420b4c62","ios":"levelo://app?vid=dfdaab57-013b-4f76-9233-d0d4420b4c62"},"vehicle_type_id":"4","last_reported":1742742537,"current_range_meters":11200,"station_id":"ce4bhh92rcd13ifvqfh0","pricing_plan_id":"cebpf4jnsgd1na2vs0mg"},{"bike_id":"8592fce4-5874-44fc-82f8-6a8351c8392e","system_id":"levelo_inurba_marseille","lat":43.29226,"lon":5.3618,"is_reserved":false,"is_disabled":false,"rental_uris":{"android":"levelo://app?vid=8592fce4-5874-44fc-82f8-6a8351c8392e","ios":"levelo://app?vid=8592fce4-5874-44fc-82f8-6a8351c8392e"},"vehicle_type_id":"4","last_reported":1742742537,"current_range_meters":11200,"station_id":"ce4bh492rcd13ifvqdug","pricing_plan_id":"cebpf4jnsgd1na2vs0mg"},{"bike_id":"243d757f-b77b-4e02-b7e2-79bcc58ff7f1","system_id":"levelo_inurba_marseille","lat":43.29278,"lon":5.37455,"is_reserved":false,"is_disabled":false,"rental_uris":{"android":"levelo://app?vid=243d757f-b77b-4e02-b7e2-79bcc58ff7f1","ios":"levelo://app?vid=243d757f-b77b-4e02-b7e2-79bcc58ff7f1"},"vehicle_type_id":"4","last_reported":1742742537,"current_range_meters":10800,"station_id":"ce4bgi12rcd13ifvqb70","pricing_plan_id":"cebpf4jnsgd1na2vs0mg"},{"bike_id":"8a8866bf-4a12-435e-b142-5043da1c2587","system_id":"levelo_inurba_marseille","lat":43.29163,"lon":5.37156,"is_reserved":false,"is_disabled":false,"rental_uris":{"android":"levelo://app?vid=8a8866bf-4a12-435e-b142-5043da1c2587","ios":"levelo://app?vid=8a8866bf-4a12-435e-b142-5043da1c2587"},"vehicle_type_id":"4","last_reported":1742742537,"current_range_meters":10800,"station_id":"ce4bha92rcd13ifvqeh0","pricing_plan_id":"cebpf4jnsgd1na2vs0mg"},{"bike_id":"4bcf2890-1054-4b7f-ac78-bfc030c23b1d","system_id":"levelo_inurba_marseille","lat":43.29849,"lon":5.36284,"is_reserved":false,"is_disabled":false,"rental_uris":{"android":"levelo://app?vid=4bcf2890-1054-4b7f-ac78-bfc030c23b1d","ios":"levelo://app?vid=4bcf2890-1054-4b7f-ac78-bfc030c23b1d"},"vehicle_type_id":"4","last_reported":1742742537,"current_range_meters":11200,"station_id":"ce4bgpp2rcd13ifvqc3g","pricing_plan_id":"cebpf4jnsgd1na2vs0mg"},{"bike_id":"f657da43-9a05-4822-9c77-ad8671579423","system_id":"levelo_inurba_marseille","lat":43.29577,"lon":5.39971,"is_reserved":false,"is_disabled":true,"rental_uris":{"android":"levelo://app?vid=f657da43-9a05-4822-9c77-ad8671579423","ios":"levelo://app?vid=f657da43-9a05-4822-9c77-ad8671579423"},"vehicle_type_id":"4","last_reported":1742742537,"current_range_meters":11200,"station_id":"ce4bh312rcd13ifvqdj0","pricing_plan_id":"cebpf4jnsgd1na2vs0mg"},{"bike_id":"89b0dcc5-cc3e-42ed-b96e-ed5335c7a50e","system_id":"levelo_inurba_marseille","lat":43.2708,"lon":5.40309,"is_reserved":false,"is_disabled":false,"rental_uris":{"android":"levelo://app?vid=89b0dcc5-cc3e-42ed-b96e-ed5335c7a50e","ios":"levelo://app?vid=89b0dcc5-cc3e-42ed-b96e-ed5335c7a50e"},"vehicle_type_id":"4","last_reported":1742742537,"current_range_meters":11200,"station_id":"","pricing_plan_id":"cebpf4jnsgd1na2vs0mg"},{"bike_id":"5de1910c-722a-46f2-9b12-b1a9209ac212","system_id":"levelo_inurba_marseille","lat":43.30271,"lon":5.37719,"is_reserved":false,"is_disabled":false,"rental_uris":{"android":"levelo://app?vid=5de1910c-722a-46f2-9b12-b1a9209ac212","ios":"levelo://app?vid=5de1910c-722a-46f2-9b12-b1a9209ac212"},"vehicle_type_id":"4","last_reported":1742742537,"current_range_meters":10800,"station_id":"ce4bguh2rcd13ifvqcj0","pricing_plan_id":"cebpf4jnsgd1na2vs0mg"},{"bike_id":"0e1e3c4f-3fc4-427f-b9b5-edbd666622d2","system_id":"levelo_inurba_marseille","lat":43.27168,"lon":5.40993,"is_reserved":false,"is_disabled":false,"rental_uris":{"android":"levelo://app?vid=0e1e3c4f-3fc4-427f-b9b5-edbd666622d2","ios":"levelo://app?vid=0e1e3c4f-3fc4-427f-b9b5-edbd666622d2"},"vehicle_type_id":"4","last_reported":1742742537,"current_range_meters":11600,"station_id":"ce4bhl12rcd13ifvqgf0","pricing_plan_id":"cebpf4jnsgd1na2vs0mg"},{"bike_id":"9e308a2c-fe92-4b3c-93b7-db17a4285401","system_id":"levelo_inurba_marseille","lat":43.29073,"lon":5.37169,"is_reserved":false,"is_disabled":false,"rental_uris":{"android":"levelo://app?vid=9e308a2c-fe92-4b3c-93b7-db17a4285401","ios":"levelo://app?vid=9e308a2c-fe92-4b3c-93b7-db17a4285401"},"vehicle_type_id":"4","last_reported":1742742537,"current_range_meters":11600,"station_id":"ce4bh5p2rcd13ifvqe4g","pricing_plan_id":"cebpf4jnsgd1na2vs0mg"},{"bike_id":"60bc5ef2-d120-4be4-8b53-10f64fb77c9a","system_id":"levelo_inurba_marseille","lat":43.2657,"lon":5.39023,"is_reserved":false,"is_disabled":false,"rental_uris":{"android":"levelo://app?vid=60bc5ef2-d120-4be4-8b53-10f64fb77c9a","ios":"levelo://app?vid=60bc5ef2-d120-4be4-8b53-10f64fb77c9a"},"vehicle_type_id":"4","last_reported":1742742537,"current_range_meters":11600,"station_id":"ce4bhe12rcd13ifvqf30","pricing_plan_id":"cebpf4jnsgd1na2vs0mg"},{"bike_id":"8ac76298-3375-4b96-8a90-9315b1510fa4","system_id":"levelo_inurba_marseille","lat":43.27779,"lon":5.40944,"is_reserved":false,"is_disabled":true,"rental_uris":{"android":"levelo://app?vid=8ac76298-3375-4b96-8a90-9315b1510fa4","ios":"levelo://app?vid=8ac76298-3375-4b96-8a90-9315b1510fa4"},"vehicle_type_id":"4","last_reported":1742742537,"current_range_meters":11600,"station_id":"ce4bhnh2rcd13ifvqgtg","pricing_plan_id":"cebpf4jnsgd1na2vs0mg"},{"bike_id":"f48a0817-7997-47a8-8e6c-21114c013c28","system_id":"levelo_inurba_marseille","lat":43.26802,"lon":5.40266,"is_reserved":false,"is_disabled":false,"rental_uris":{"android":"levelo://app?vid=f48a0817-7997-47a8-8e6c-21114c013c28","ios":"levelo://app?vid=f48a0817-7997-47a8-8e6c-21114c013c28"},"vehicle_type_id":"4","last_reported":1742742537,"current_range_meters":11600,"station_id":"ce501612rcd8frsf0b60","pricing_plan_id":"cebpf4jnsgd1na2vs0mg"},{"bike_id":"4aed49dc-46b6-4d22-825b-778a1ad279ff","system_id":"levelo_inurba_marseille","lat":43.27834,"lon":5.39208,"is_reserved":false,"is_disabled":false,"rental_uris":{"android":"levelo://app?vid=4aed49dc-46b6-4d22-825b-778a1ad279ff","ios":"levelo://app?vid=4aed49dc-46b6-4d22-825b-778a1ad279ff"},"vehicle_type_id":"4","last_reported":1742742537,"current_range_meters":11600,"station_id":"ce4bhjp2rcd13ifvqga0","pricing_plan_id":"cebpf4jnsgd1na2vs0mg"},{"bike_id":"aba525f0-2511-4431-b0df-04fa0de75a3c","system_id":"levelo_inurba_marseille","lat":43.25403,"lon":5.41898,"is_reserved":false,"is_disabled":false,"rental_uris":{"android":"levelo://app?vid=aba525f0-2511-4431-b0df-04fa0de75a3c","ios":"levelo://app?vid=aba525f0-2511-4431-b0df-04fa0de75a3c"},"vehicle_type_id":"4","last_reported":1742742537,"current_range_meters":12000,"station_id":"","pricing_plan_id":"cebpf4jnsgd1na2vs0mg"},{"bike_id":"36c1a464-f0a2-418f-a84d-7d89c7a73667","system_id":"levelo_inurba_marseille","lat":43.26564,"lon":5.39017,"is_reserved":false,"is_disabled":false,"rental_uris":{"android":"levelo://app?vid=36c1a464-f0a2-418f-a84d-7d89c7a73667","ios":"levelo://app?vid=36c1a464-f0a2-418f-a84d-7d89c7a73667"},"vehicle_type_id":"4","last_reported":1742742537,"current_range_meters":12000,"station_id":"ce4bhe12rcd13ifvqf30","pricing_plan_id":"cebpf4jnsgd1na2vs0mg"},{"bike_id":"a1f867cd-603b-4611-8a7e-fa5434f6be88","system_id":"levelo_inurba_marseille","lat":43.24379,"lon":5.37051,"is_reserved":false,"is_disabled":false,"rental_uris":{"android":"levelo://app?vid=a1f867cd-603b-4611-8a7e-fa5434f6be88","ios":"levelo://app?vid=a1f867cd-603b-4611-8a7e-fa5434f6be88"},"vehicle_type_id":"4","last_reported":1742742537,"current_range_meters":12000,"station_id":"ce4bhhh2rcd13ifvqfk0","pricing_plan_id":"cebpf4jnsgd1na2vs0mg"},{"bike_id":"17238c44-02e8-4ba3-abe3-5ae6a9cab49f","system_id":"levelo_inurba_marseille","lat":43.31754,"lon":5.39029,"is_reserved":false,"is_disabled":true,"rental_uris":{"android":"levelo://app?vid=17238c44-02e8-4ba3-abe3-5ae6a9cab49f","ios":"levelo://app?vid=17238c44-02e8-4ba3-abe3-5ae6a9cab49f"},"vehicle_type_id":"4","last_reported":1742742537,"current_range_meters":12000,"station_id":"ce4bhqp2rcd13ifvqhng","pricing_plan_id":"cebpf4jnsgd1na2vs0mg"},{"bike_id":"4baf8c5d-e0fe-4a6c-97de-a71e960c5338","system_id":"levelo_inurba_marseille","lat":43.24167,"lon":5.36397,"is_reserved":false,"is_disabled":false,"rental_uris":{"android":"levelo://app?vid=4baf8c5d-e0fe-4a6c-97de-a71e960c5338","ios":"levelo://app?vid=4baf8c5d-e0fe-4a6c-97de-a71e960c5338"},"vehicle_type_id":"4","last_reported":1742742537,"current_range_meters":12000,"station_id":"cpo36qri1sfpv3e86is0","pricing_plan_id":"cebpf4jnsgd1na2vs0mg"},{"bike_id":"901ad870-67db-4efd-a3cc-2d5ce9510114","system_id":"levelo_inurba_marseille","lat":43.26821,"lon":5.3942,"is_reserved":false,"is_disabled":false,"rental_uris":{"android":"levelo://app?vid=901ad870-67db-4efd-a3cc-2d5ce9510114","ios":"levelo://app?vid=901ad870-67db-4efd-a3cc-2d5ce9510114"},"vehicle_type_id":"4","last_reported":1742742537,"current_range_meters":12000,"station_id":"ce4bhh12rcd13ifvqfg0","pricing_plan_id":"cebpf4jnsgd1na2vs0mg"},{"bike_id":"645d96db-f9c7-4159-82a6-5fa64178e675","system_id":"levelo_inurba_marseille","lat":43.30213,"lon":5.39462,"is_reserved":false,"is_disabled":false,"rental_uris":{"android":"levelo://app?vid=645d96db-f9c7-4159-82a6-5fa64178e675","ios":"levelo://app?vid=645d96db-f9c7-4159-82a6-5fa64178e675"},"vehicle_type_id":"4","last_reported":1742742537,"current_range_meters":12000,"station_id":"ce4bh0p2rcd13ifvqd70","pricing_plan_id":"cebpf4jnsgd1na2vs0mg"},{"bike_id":"fcdace4d-96aa-4d08-b079-c7249622662e","system_id":"levelo_inurba_marseille","lat":43.2732,"lon":5.39072,"is_reserved":false,"is_disabled":false,"rental_uris":{"android":"levelo://app?vid=fcdace4d-96aa-4d08-b079-c7249622662e","ios":"levelo://app?vid=fcdace4d-96aa-4d08-b079-c7249622662e"},"vehicle_type_id":"4","last_reported":1742742537,"current_range_meters":12000,"station_id":"ce4bhgp2rcd13ifvqfe0","pricing_plan_id":"cebpf4jnsgd1na2vs0mg"},{"bike_id":"8e7989d2-0cc5-481c-8f65-52c8fe056c45","system_id":"levelo_inurba_marseille","lat":43.30147,"lon":5.37419,"is_reserved":false,"is_disabled":false,"rental_uris":{"android":"levelo://app?vid=8e7989d2-0cc5-481c-8f65-52c8fe056c45","ios":"levelo://app?vid=8e7989d2-0cc5-481c-8f65-52c8fe056c45"},"vehicle_type_id":"4","last_reported":1742742537,"current_range_meters":12400,"station_id":"ce4bgs92rcd13ifvqcc0","pricing_plan_id":"cebpf4jnsgd1na2vs0mg"},{"bike_id":"034718de-67f9-4b03-9b14-13a8fc4858ac","system_id":"levelo_inurba_marseille","lat":43.23188,"lon":5.35578,"is_reserved":false,"is_disabled":false,"rental_uris":{"android":"levelo://app?vid=034718de-67f9-4b03-9b14-13a8fc4858ac","ios":"levelo://app?vid=034718de-67f9-4b03-9b14-13a8fc4858ac"},"vehicle_type_id":"4","last_reported":1742742537,"current_range_meters":12400,"station_id":"ce4bhu92rcd13ifvqi70","pricing_plan_id":"cebpf4jnsgd1na2vs0mg"},{"bike_id":"e2b68c00-ea55-4d0f-ae98-6403b351276c","system_id":"levelo_inurba_marseille","lat":43.2305,"lon":5.35497,"is_reserved":false,"is_disabled":false,"rental_uris":{"android":"levelo://app?vid=e2b68c00-ea55-4d0f-ae98-6403b351276c","ios":"levelo://app?vid=e2b68c00-ea55-4d0f-ae98-6403b351276c"},"vehicle_type_id":"4","last_reported":1742742537,"current_range_meters":12400,"station_id":"cpo3342slgdg3j2ifvpg","pricing_plan_id":"cebpf4jnsgd1na2vs0mg"},{"bike_id":"3d87e28a-53a8-4378-a85d-6734e413eb59","system_id":"levelo_inurba_marseille","lat":43.27912,"lon":5.39583,"is_reserved":false,"is_disabled":false,"rental_uris":{"android":"levelo://app?vid=3d87e28a-53a8-4378-a85d-6734e413eb59","ios":"levelo://app?vid=3d87e28a-53a8-4378-a85d-6734e413eb59"},"vehicle_type_id":"4","last_reported":1742742537,"current_range_meters":12400,"station_id":"ce4bhf92rcd13ifvqf40","pricing_plan_id":"cebpf4jnsgd1na2vs0mg"},{"bike_id":"ee46c47b-e4b4-4124-8f2f-4fa5a7062cfd","system_id":"levelo_inurba_marseille","lat":43.29773,"lon":5.39328,"is_reserved":false,"is_disabled":false,"rental_uris":{"android":"levelo://app?vid=ee46c47b-e4b4-4124-8f2f-4fa5a7062cfd","ios":"levelo://app?vid=ee46c47b-e4b4-4124-8f2f-4fa5a7062cfd"},"vehicle_type_id":"4","last_reported":1742742537,"current_range_meters":12400,"station_id":"chh1huq6cuj3fo74tm60","pricing_plan_id":"cebpf4jnsgd1na2vs0mg"},{"bike_id":"70736c48-44a5-4463-a891-7bc6a294e5bf","system_id":"levelo_inurba_marseille","lat":43.30311,"lon":5.36898,"is_reserved":false,"is_disabled":false,"rental_uris":{"android":"levelo://app?vid=70736c48-44a5-4463-a891-7bc6a294e5bf","ios":"levelo://app?vid=70736c48-44a5-4463-a891-7bc6a294e5bf"},"vehicle_type_id":"4","last_reported":1742742537,"current_range_meters":12400,"station_id":"ce4bgqh2rcd13ifvqc5g","pricing_plan_id":"cebpf4jnsgd1na2vs0mg"},{"bike_id":"b9e79338-6917-4a2f-885b-d024b3bbdacb","system_id":"levelo_inurba_marseille","lat":43.27206,"lon":5.3918,"is_reserved":false,"is_disabled":false,"rental_uris":{"android":"levelo://app?vid=b9e79338-6917-4a2f-885b-d024b3bbdacb","ios":"levelo://app?vid=b9e79338-6917-4a2f-885b-d024b3bbdacb"},"vehicle_type_id":"4","last_reported":1742742537,"current_range_meters":12400,"station_id":"ce4bhhp2rcd13ifvqfm0","pricing_plan_id":"cebpf4jnsgd1na2vs0mg"},{"bike_id":"4b575ddc-d61c-4868-a969-ca5f142f2d8f","system_id":"levelo_inurba_marseille","lat":43.27209,"lon":5.3918,"is_reserved":false,"is_disabled":false,"rental_uris":{"android":"levelo://app?vid=4b575ddc-d61c-4868-a969-ca5f142f2d8f","ios":"levelo://app?vid=4b575ddc-d61c-4868-a969-ca5f142f2d8f"},"vehicle_type_id":"4","last_reported":1742742537,"current_range_meters":12400,"station_id":"ce4bhhp2rcd13ifvqfm0","pricing_plan_id":"cebpf4jnsgd1na2vs0mg"},{"bike_id":"792631b9-3581-4269-af60-4a7e03cb2ca3","system_id":"levelo_inurba_marseille","lat":43.29258,"lon":5.40899,"is_reserved":false,"is_disabled":false,"rental_uris":{"android":"levelo://app?vid=792631b9-3581-4269-af60-4a7e03cb2ca3","ios":"levelo://app?vid=792631b9-3581-4269-af60-4a7e03cb2ca3"},"vehicle_type_id":"4","last_reported":1742742537,"current_range_meters":12400,"station_id":"ce4bh192rcd13ifvqdc0","pricing_plan_id":"cebpf4jnsgd1na2vs0mg"},{"bike_id":"36060108-652f-416f-9ec7-84e63bcfb94e","system_id":"levelo_inurba_marseille","lat":43.30786,"lon":5.37641,"is_reserved":false,"is_disabled":false,"rental_uris":{"android":"levelo://app?vid=36060108-652f-416f-9ec7-84e63bcfb94e","ios":"levelo://app?vid=36060108-652f-416f-9ec7-84e63bcfb94e"},"vehicle_type_id":"4","last_reported":1742742537,"current_range_meters":12800,"station_id":"ce4bgv92rcd13ifvqcq0","pricing_plan_id":"cebpf4jnsgd1na2vs0mg"},{"bike_id":"794fb38b-1d82-45e0-bfb3-5bbb935a3b94","system_id":"levelo_inurba_marseille","lat":43.2621,"lon":5.3744,"is_reserved":false,"is_disabled":false,"rental_uris":{"android":"levelo://app?vid=794fb38b-1d82-45e0-bfb3-5bbb935a3b94","ios":"levelo://app?vid=794fb38b-1d82-45e0-bfb3-5bbb935a3b94"},"vehicle_type_id":"4","last_reported":1742742537,"current_range_meters":12800,"station_id":"ce4bhgp2rcd13ifvqfc0","pricing_plan_id":"cebpf4jnsgd1na2vs0mg"},{"bike_id":"02d586e9-734d-4421-8b40-3ea1c61cc2d2","system_id":"levelo_inurba_marseille","lat":43.24667,"lon":5.38169,"is_reserved":false,"is_disabled":false,"rental_uris":{"android":"levelo://app?vid=02d586e9-734d-4421-8b40-3ea1c61cc2d2","ios":"levelo://app?vid=02d586e9-734d-4421-8b40-3ea1c61cc2d2"},"vehicle_type_id":"4","last_reported":1742742537,"current_range_meters":12800,"station_id":"ce4bhih2rcd13ifvqfr0","pricing_plan_id":"cebpf4jnsgd1na2vs0mg"},{"bike_id":"900a24c2-ea9f-490b-9848-7ac8bc9dd06c","system_id":"levelo_inurba_marseille","lat":43.26055,"lon":5.39397,"is_reserved":false,"is_disabled":false,"rental_uris":{"android":"levelo://app?vid=900a24c2-ea9f-490b-9848-7ac8bc9dd06c","ios":"levelo://app?vid=900a24c2-ea9f-490b-9848-7ac8bc9dd06c"},"vehicle_type_id":"4","last_reported":1742742537,"current_range_meters":12800,"station_id":"ce4bhh92rcd13ifvqfj0","pricing_plan_id":"cebpf4jnsgd1na2vs0mg"},{"bike_id":"4c39b4fa-d748-471c-9e95-21b5508c81cb","system_id":"levelo_inurba_marseille","lat":43.29902,"lon":5.38154,"is_reserved":false,"is_disabled":false,"rental_uris":{"android":"levelo://app?vid=4c39b4fa-d748-471c-9e95-21b5508c81cb","ios":"levelo://app?vid=4c39b4fa-d748-471c-9e95-21b5508c81cb"},"vehicle_type_id":"4","last_reported":1742742537,"current_range_meters":12800,"station_id":"ce4bgj12rcd13ifvqbc0","pricing_plan_id":"cebpf4jnsgd1na2vs0mg"},{"bike_id":"f52c7f07-7a6b-4dbc-aeae-9fa998834082","system_id":"levelo_inurba_marseille","lat":43.32304,"lon":5.37559,"is_reserved":false,"is_disabled":false,"rental_uris":{"android":"levelo://app?vid=f52c7f07-7a6b-4dbc-aeae-9fa998834082","ios":"levelo://app?vid=f52c7f07-7a6b-4dbc-aeae-9fa998834082"},"vehicle_type_id":"4","last_reported":1742742537,"current_range_meters":13600,"station_id":"","pricing_plan_id":"cebpf4jnsgd1na2vs0mg"},{"bike_id":"9bd66c75-2d6b-4709-91e0-c8130478cce4","system_id":"levelo_inurba_marseille","lat":43.25932,"lon":5.40899,"is_reserved":false,"is_disabled":false,"rental_uris":{"android":"levelo://app?vid=9bd66c75-2d6b-4709-91e0-c8130478cce4","ios":"levelo://app?vid=9bd66c75-2d6b-4709-91e0-c8130478cce4"},"vehicle_type_id":"4","last_reported":1742742537,"current_range_meters":13600,"station_id":"ce4bhm92rcd13ifvqglg","pricing_plan_id":"cebpf4jnsgd1na2vs0mg"},{"bike_id":"3d4ec231-87ea-44bf-bc39-f4f3b25ede01","system_id":"levelo_inurba_marseille","lat":43.30465,"lon":5.37914,"is_reserved":false,"is_disabled":false,"rental_uris":{"android":"levelo://app?vid=3d4ec231-87ea-44bf-bc39-f4f3b25ede01","ios":"levelo://app?vid=3d4ec231-87ea-44bf-bc39-f4f3b25ede01"},"vehicle_type_id":"4","last_reported":1742742537,"current_range_meters":13600,"station_id":"ce4bgup2rcd13ifvqcn0","pricing_plan_id":"cebpf4jnsgd1na2vs0mg"},{"bike_id":"e77d191c-b6c2-4af6-8798-46f31e387227","system_id":"levelo_inurba_marseille","lat":43.30136,"lon":5.37417,"is_reserved":false,"is_disabled":false,"rental_uris":{"android":"levelo://app?vid=e77d191c-b6c2-4af6-8798-46f31e387227","ios":"levelo://app?vid=e77d191c-b6c2-4af6-8798-46f31e387227"},"vehicle_type_id":"4","last_reported":1742742537,"current_range_meters":13600,"station_id":"ce4bgs92rcd13ifvqcc0","pricing_plan_id":"cebpf4jnsgd1na2vs0mg"},{"bike_id":"81c28995-a624-4bc5-ad4b-6d333e9d549b","system_id":"levelo_inurba_marseille","lat":43.24682,"lon":5.3812,"is_reserved":false,"is_disabled":false,"rental_uris":{"android":"levelo://app?vid=81c28995-a624-4bc5-ad4b-6d333e9d549b","ios":"levelo://app?vid=81c28995-a624-4bc5-ad4b-6d333e9d549b"},"vehicle_type_id":"4","last_reported":1742742537,"current_range_meters":13600,"station_id":"ce4bhih2rcd13ifvqfr0","pricing_plan_id":"cebpf4jnsgd1na2vs0mg"},{"bike_id":"1d2f6ec9-df5d-4db3-aa5d-3d2febbda6bd","system_id":"levelo_inurba_marseille","lat":43.29783,"lon":5.37093,"is_reserved":false,"is_disabled":false,"rental_uris":{"android":"levelo://app?vid=1d2f6ec9-df5d-4db3-aa5d-3d2febbda6bd","ios":"levelo://app?vid=1d2f6ec9-df5d-4db3-aa5d-3d2febbda6bd"},"vehicle_type_id":"4","last_reported":1742742537,"current_range_meters":13600,"station_id":"ce4bgop2rcd13ifvqc1g","pricing_plan_id":"cebpf4jnsgd1na2vs0mg"},{"bike_id":"9ff7903d-b566-4c49-aef2-cc4946b98ec9","system_id":"levelo_inurba_marseille","lat":43.28487,"lon":5.38432,"is_reserved":false,"is_disabled":false,"rental_uris":{"android":"levelo://app?vid=9ff7903d-b566-4c49-aef2-cc4946b98ec9","ios":"levelo://app?vid=9ff7903d-b566-4c49-aef2-cc4946b98ec9"},"vehicle_type_id":"4","last_reported":1742742537,"current_range_meters":13600,"station_id":"ce4bh512rcd13ifvqe3g","pricing_plan_id":"cebpf4jnsgd1na2vs0mg"},{"bike_id":"282809df-29b4-411f-b718-322266f75751","system_id":"levelo_inurba_marseille","lat":43.23053,"lon":5.35494,"is_reserved":false,"is_disabled":false,"rental_uris":{"android":"levelo://app?vid=282809df-29b4-411f-b718-322266f75751","ios":"levelo://app?vid=282809df-29b4-411f-b718-322266f75751"},"vehicle_type_id":"4","last_reported":1742742537,"current_range_meters":13600,"station_id":"cpo3342slgdg3j2ifvpg","pricing_plan_id":"cebpf4jnsgd1na2vs0mg"},{"bike_id":"56ee8a05-3e5c-4077-8dfe-7f8dd505ab1c","system_id":"levelo_inurba_marseille","lat":43.27909,"lon":5.39577,"is_reserved":false,"is_disabled":false,"rental_uris":{"android":"levelo://app?vid=56ee8a05-3e5c-4077-8dfe-7f8dd505ab1c","ios":"levelo://app?vid=56ee8a05-3e5c-4077-8dfe-7f8dd505ab1c"},"vehicle_type_id":"4","last_reported":1742742537,"current_range_meters":13600,"station_id":"ce4bhf92rcd13ifvqf40","pricing_plan_id":"cebpf4jnsgd1na2vs0mg"},{"bike_id":"587c4b09-c6c3-4755-8011-d820e3904490","system_id":"levelo_inurba_marseille","lat":43.23956,"lon":5.36617,"is_reserved":false,"is_disabled":false,"rental_uris":{"android":"levelo://app?vid=587c4b09-c6c3-4755-8011-d820e3904490","ios":"levelo://app?vid=587c4b09-c6c3-4755-8011-d820e3904490"},"vehicle_type_id":"4","last_reported":1742742537,"current_range_meters":13600,"station_id":"ce4bhi12rcd13ifvqfp0","pricing_plan_id":"cebpf4jnsgd1na2vs0mg"},{"bike_id":"f76d0ef1-fea7-4103-bddb-4439d12195b2","system_id":"levelo_inurba_marseille","lat":43.30168,"lon":5.39913,"is_reserved":false,"is_disabled":false,"rental_uris":{"android":"levelo://app?vid=f76d0ef1-fea7-4103-bddb-4439d12195b2","ios":"levelo://app?vid=f76d0ef1-fea7-4103-bddb-4439d12195b2"},"vehicle_type_id":"4","last_reported":1742742537,"current_range_meters":14000,"station_id":"ce4bh0h2rcd13ifvqd40","pricing_plan_id":"cebpf4jnsgd1na2vs0mg"},{"bike_id":"a8b3cb95-f059-47ac-b672-1c7197ca6c51","system_id":"levelo_inurba_marseille","lat":43.28151,"lon":5.42653,"is_reserved":false,"is_disabled":false,"rental_uris":{"android":"levelo://app?vid=a8b3cb95-f059-47ac-b672-1c7197ca6c51","ios":"levelo://app?vid=a8b3cb95-f059-47ac-b672-1c7197ca6c51"},"vehicle_type_id":"4","last_reported":1742742537,"current_range_meters":14000,"station_id":"ce4bhnh2rcd13ifvqgug","pricing_plan_id":"cebpf4jnsgd1na2vs0mg"},{"bike_id":"09e0279d-9b5a-4d33-bb25-5d022d7dc390","system_id":"levelo_inurba_marseille","lat":43.2721,"lon":5.39179,"is_reserved":false,"is_disabled":false,"rental_uris":{"android":"levelo://app?vid=09e0279d-9b5a-4d33-bb25-5d022d7dc390","ios":"levelo://app?vid=09e0279d-9b5a-4d33-bb25-5d022d7dc390"},"vehicle_type_id":"4","last_reported":1742742537,"current_range_meters":14000,"station_id":"ce4bhhp2rcd13ifvqfm0","pricing_plan_id":"cebpf4jnsgd1na2vs0mg"},{"bike_id":"09362fe7-7431-4073-a454-84168d68b7d2","system_id":"levelo_inurba_marseille","lat":43.2439,"lon":5.3706,"is_reserved":false,"is_disabled":false,"rental_uris":{"android":"levelo://app?vid=09362fe7-7431-4073-a454-84168d68b7d2","ios":"levelo://app?vid=09362fe7-7431-4073-a454-84168d68b7d2"},"vehicle_type_id":"4","last_reported":1742742537,"current_range_meters":14000,"station_id":"ce4bhhh2rcd13ifvqfk0","pricing_plan_id":"cebpf4jnsgd1na2vs0mg"},{"bike_id":"24b77e8f-4e9e-4342-9950-404af23a4ef7","system_id":"levelo_inurba_marseille","lat":43.2396,"lon":5.36633,"is_reserved":false,"is_disabled":false,"rental_uris":{"android":"levelo://app?vid=24b77e8f-4e9e-4342-9950-404af23a4ef7","ios":"levelo://app?vid=24b77e8f-4e9e-4342-9950-404af23a4ef7"},"vehicle_type_id":"4","last_reported":1742742537,"current_range_meters":14400,"station_id":"ce4bhi12rcd13ifvqfp0","pricing_plan_id":"cebpf4jnsgd1na2vs0mg"},{"bike_id":"cae76f59-ea90-4feb-bdc5-f8af0454232f","system_id":"levelo_inurba_marseille","lat":43.28846,"lon":5.39319,"is_reserved":false,"is_disabled":false,"rental_uris":{"android":"levelo://app?vid=cae76f59-ea90-4feb-bdc5-f8af0454232f","ios":"levelo://app?vid=cae76f59-ea90-4feb-bdc5-f8af0454232f"},