{"last_updated":1690618072,"ttl":30,"version":"2.2","data":{"bikes":[{"bike_id":"c79c1e90-83fb-412e-a316-daacc85c5238","system_id":"levelo_inurba_marseille","lat":43.313391,"lon":5.36706,"is_reserved":false,"is_disabled":false,"rental_uris":{"android":"levelo://app?vid=c79c1e90-83fb-412e-a316-daacc85c5238","ios":"levelo://app?vid=c79c1e90-83fb-412e-a316-daacc85c5238"},"vehicle_type_id":"4","last_reported":1690618072,"current_range_meters":31600,"station_id":"ce4bgr92rcd13ifvqc6g","pricing_plan_id":"free"},{"bike_id":"10180fb1-c762-4a63-a7e5-94d669c15db5","system_id":"levelo_inurba_marseille","lat":43.312239,"lon":5.368562,"is_reserved":false,"is_disabled":false,"rental_uris":{"android":"levelo://app?vid=10180fb1-c762-4a63-a7e5-94d669c15db5","ios":"levelo://app?vid=10180fb1-c762-4a63-a7e5-94d669c15db5"},"vehicle_type_id":"4","last_reported":1690618072,"current_range_meters":31200,"station_id":"ce4bgl92rcd13ifvqbq0","pricing_plan_id":"free"},{"bike_id":"f574c32c-cb2d-4199-8b8c-065478e4daa3","system_id":"levelo_inurba_marseille","lat":43.312239,"lon":5.368562,"is_reserved":false,"is_disabled":false,"rental_uris":{"android":"levelo://app?vid=f574c32c-cb2d-4199-8b8c-065478e4daa3","ios":"levelo://app?vid=f574c32c-cb2d-4199-8b8c-065478e4daa3"},"vehicle_type_id":"4","last_reported":1690618072,"current_range_meters":25200,"station_id":"ce4bgl92rcd13ifvqbq0","pricing_plan_id":"free"},{"bike_id":"f9c7a00e-35de-4866-a3e2-0931a9eb19a7","system_id":"levelo_inurba_marseille","lat":43.312239,"lon":5.368562,"is_reserved":false,"is_disabled":false,"rental_uris":{"android":"levelo://app?vid=f9c7a00e-35de-4866-a3e2-0931a9eb19a7","ios":"levelo://app?vid=f9c7a00e-35de-4866-a3e2-0931a9eb19a7"},"vehicle_type_id":"4","last_reported":1690618072,"current_range_meters":31200,"station_id":"ce4bgl92rcd13ifvqbq0","pricing_plan_id":"free"},{"bike_id":"1600e116-36f8-4ed8-ab08-25645c89f82a","system_id":"levelo_inurba_marseille","lat":43.31223,"lon":5.36859,"is_reserved":false,"is_disabled":false,"rental_uris":{"android":"levelo://app?vid=1600e116-36f8-4ed8-ab08-25645c89f82a","ios":"levelo://app?vid=1600e116-36f8-4ed8-ab08-25645c89f82a"},"vehicle_type_id":"4","last_reported":1690618072,"current_range_meters":20000,"station_id":"ce4bgl92rcd13ifvqbq0","pricing_plan_id":"free"},{"bike_id":"e526d4e2-849c-44ae-a0d7-5572a62df909","system_id":"levelo_inurba_marseille","lat":43.31227,"lon":5.36863,"is_reserved":false,"is_disabled":false,"rental_uris":{"android":"levelo://app?vid=e526d4e2-849c-44ae-a0d7-5572a62df909","ios":"levelo://app?vid=e526d4e2-849c-44ae-a0d7-5572a62df909"},"vehicle_type_id":"4","last_reported":1690618072,"current_range_meters":29600,"station_id":"ce4bgl92rcd13ifvqbq0","pricing_plan_id":"free"},{"bike_id":"9b0994b4-329a-4dba-9328-229405480954","system_id":"levelo_inurba_marseille","lat":43.31232,"lon":5.36866,"is_reserved":false,"is_disabled":false,"rental_uris":{"android":"levelo://app?vid=9b0994b4-329a-4dba-9328-229405480954","ios":"levelo://app?vid=9b0994b4-329a-4dba-9328-229405480954"},"vehicle_type_id":"4","last_reported":1690618072,"current_range_meters":31200,"station_id":"ce4bgl92rcd13ifvqbq0","pricing_plan_id":"free"},{"bike_id":"51a48715-3d9a-4789-8578-c5f9d78f9bfe","system_id":"levelo_inurba_marseille","lat":43.30914,"lon":5.36857,"is_reserved":false,"is_disabled":false,"rental_uris":{"android":"levelo://app?vid=51a48715-3d9a-4789-8578-c5f9d78f9bfe","ios":"levelo://app?vid=51a48715-3d9a-4789-8578-c5f9d78f9bfe"},"vehicle_type_id":"4","last_reported":1690618072,"current_range_meters":6400,"station_id":"ce4bgn92rcd13ifvqbvg","pricing_plan_id":"free"},{"bike_id":"979e519d-9afa-42c7-a751-36af7149ba9a","system_id":"levelo_inurba_marseille","lat":43.314811,"lon":5.373103,"is_reserved":false,"is_disabled":false,"rental_uris":{"android":"levelo://app?vid=979e519d-9afa-42c7-a751-36af7149ba9a","ios":"levelo://app?vid=979e519d-9afa-42c7-a751-36af7149ba9a"},"vehicle_type_id":"4","last_reported":1690618072,"current_range_meters":10400,"station_id":"ce4bgt12rcd13ifvqcd0","pricing_plan_id":"free"},{"bike_id":"3c167ec6-e064-4507-8d3a-13faaad1d25c","system_id":"levelo_inurba_marseille","lat":43.309039,"lon":5.371797,"is_reserved":false,"is_disabled":false,"rental_uris":{"android":"levelo://app?vid=3c167ec6-e064-4507-8d3a-13faaad1d25c","ios":"levelo://app?vid=3c167ec6-e064-4507-8d3a-13faaad1d25c"},"vehicle_type_id":"4","last_reported":1690618072,"current_range_meters":31200,"station_id":"ce4bguh2rcd13ifvqckg","pricing_plan_id":"free"},{"bike_id":"c81f7c05-9bbf-4439-9572-14d9794a3f96","system_id":"levelo_inurba_marseille","lat":43.305706,"lon":5.365654,"is_reserved":false,"is_disabled":false,"rental_uris":{"android":"levelo://app?vid=c81f7c05-9bbf-4439-9572-14d9794a3f96","ios":"levelo://app?vid=c81f7c05-9bbf-4439-9572-14d9794a3f96"},"vehicle_type_id":"4","last_reported":1690618072,"current_range_meters":5600,"station_id":"ce4bgs12rcd13ifvqcag","pricing_plan_id":"free"},{"bike_id":"de9a132c-2847-4a64-b5ce-5fe09fd9b91d","system_id":"levelo_inurba_marseille","lat":43.305706,"lon":5.365654,"is_reserved":false,"is_disabled":false,"rental_uris":{"android":"levelo://app?vid=de9a132c-2847-4a64-b5ce-5fe09fd9b91d","ios":"levelo://app?vid=de9a132c-2847-4a64-b5ce-5fe09fd9b91d"},"vehicle_type_id":"4","last_reported":1690618072,"current_range_meters":27600,"station_id":"ce4bgs12rcd13ifvqcag","pricing_plan_id":"free"},{"bike_id":"4ce65fd7-befe-49e7-9b43-94b7c2cd6fc8","system_id":"levelo_inurba_marseille","lat":43.30528,"lon":5.36715,"is_reserved":false,"is_disabled":false,"rental_uris":{"android":"levelo://app?vid=4ce65fd7-befe-49e7-9b43-94b7c2cd6fc8","ios":"levelo://app?vid=4ce65fd7-befe-49e7-9b43-94b7c2cd6fc8"},"vehicle_type_id":"4","last_reported":1690618072,"current_range_meters":28800,"station_id":"ce4bgrp2rcd13ifvqc9g","pricing_plan_id":"free"},{"bike_id":"c8b433ff-b607-4eb5-8d34-f041d62b0dc8","system_id":"levelo_inurba_marseille","lat":43.305706,"lon":5.365654,"is_reserved":false,"is_disabled":false,"rental_uris":{"android":"levelo://app?vid=c8b433ff-b607-4eb5-8d34-f041d62b0dc8","ios":"levelo://app?vid=c8b433ff-b607-4eb5-8d34-f041d62b0dc8"},"vehicle_type_id":"4","last_reported":1690618072,"current_range_meters":24800,"station_id":"ce4bgs12rcd13ifvqcag","pricing_plan_id":"free"},{"bike_id":"bbf0f633-5485-4d56-9000-e0e7a8d27a6e","system_id":"levelo_inurba_marseille","lat":43.305706,"lon":5.365654,"is_reserved":false,"is_disabled":false,"rental_uris":{"android":"levelo://app?vid=bbf0f633-5485-4d56-9000-e0e7a8d27a6e","ios":"levelo://app?vid=bbf0f633-5485-4d56-9000-e0e7a8d27a6e"},"vehicle_type_id":"4","last_reported":1690618072,"current_range_meters":30000,"station_id":"ce4bgs12rcd13ifvqcag","pricing_plan_id":"free"},{"bike_id":"f20ea888-8740-440b-bfeb-8eb2a7c1f652","system_id":"levelo_inurba_marseille","lat":43.305989,"lon":5.37225,"is_reserved":false,"is_disabled":false,"rental_uris":{"android":"levelo://app?vid=f20ea888-8740-440b-bfeb-8eb2a7c1f652","ios":"levelo://app?vid=f20ea888-8740-440b-bfeb-8eb2a7c1f652"},"vehicle_type_id":"4","last_reported":1690618072,"current_range_meters":30800,"station_id":"ce4bgqh2rcd13ifvqc4g","pricing_plan_id":"free"},{"bike_id":"9a0017fd-78dc-4fb5-8361-501831ee9c4c","system_id":"levelo_inurba_marseille","lat":43.31113,"lon":5.37772,"is_reserved":false,"is_disabled":false,"rental_uris":{"android":"levelo://app?vid=9a0017fd-78dc-4fb5-8361-501831ee9c4c","ios":"levelo://app?vid=9a0017fd-78dc-4fb5-8361-501831ee9c4c"},"vehicle_type_id":"4","last_reported":1690618072,"current_range_meters":1200,"station_id":"ce4bgt92rcd13ifvqcg0","pricing_plan_id":"free"},{"bike_id":"4cbc4db9-a037-4c9b-a875-6c41a0f5734d","system_id":"levelo_inurba_marseille","lat":43.311125,"lon":5.377624,"is_reserved":false,"is_disabled":false,"rental_uris":{"android":"levelo://app?vid=4cbc4db9-a037-4c9b-a875-6c41a0f5734d","ios":"levelo://app?vid=4cbc4db9-a037-4c9b-a875-6c41a0f5734d"},"vehicle_type_id":"4","last_reported":1690618072,"current_range_meters":30400,"station_id":"ce4bgt92rcd13ifvqcg0","pricing_plan_id":"free"},{"bike_id":"49e6ce6a-9792-4c25-b079-008203f6eb7b","system_id":"levelo_inurba_marseille","lat":43.307945,"lon":5.376487,"is_reserved":false,"is_disabled":false,"rental_uris":{"android":"levelo://app?vid=49e6ce6a-9792-4c25-b079-008203f6eb7b","ios":"levelo://app?vid=49e6ce6a-9792-4c25-b079-008203f6eb7b"},"vehicle_type_id":"4","last_reported":1690618072,"current_range_meters":0,"station_id":"ce4bgv92rcd13ifvqcq0","pricing_plan_id":"free"},{"bike_id":"4862b668-c9ef-4b7b-9adc-edf9a0774fcb","system_id":"levelo_inurba_marseille","lat":43.30779,"lon":5.37648,"is_reserved":false,"is_disabled":false,"rental_uris":{"android":"levelo://app?vid=4862b668-c9ef-4b7b-9adc-edf9a0774fcb","ios":"levelo://app?vid=4862b668-c9ef-4b7b-9adc-edf9a0774fcb"},"vehicle_type_id":"4","last_reported":1690618072,"current_range_meters":22800,"station_id":"ce4bgv92rcd13ifvqcq0","pricing_plan_id":"free"},{"bike_id":"08ab2a45-b5da-4fad-ad83-ad7ea4762623","system_id":"levelo_inurba_marseille","lat":43.30778,"lon":5.37658,"is_reserved":false,"is_disabled":false,"rental_uris":{"android":"levelo://app?vid=08ab2a45-b5da-4fad-ad83-ad7ea4762623","ios":"levelo://app?vid=08ab2a45-b5da-4fad-ad83-ad7ea4762623"},"vehicle_type_id":"4","last_reported":1690618072,"current_range_meters":23200,"station_id":"ce4bgv92rcd13ifvqcq0","pricing_plan_id":"free"},{"bike_id":"8988f14e-31ab-4079-9ce8-4a2feee72105","system_id":"levelo_inurba_marseille","lat":43.303046,"lon":5.368981,"is_reserved":false,"is_disabled":false,"rental_uris":{"android":"levelo://app?vid=8988f14e-31ab-4079-9ce8-4a2feee72105","ios":"levelo://app?vid=8988f14e-31ab-4079-9ce8-4a2feee72105"},"vehicle_type_id":"4","last_reported":1690618072,"current_range_meters":30400,"station_id":"ce4bgqh2rcd13ifvqc5g","pricing_plan_id":"free"},{"bike_id":"1765fdba-e6c1-4dba-bb71-06d6d61c8cce","system_id":"levelo_inurba_marseille","lat":43.303046,"lon":5.368981,"is_reserved":false,"is_disabled":false,"rental_uris":{"android":"levelo://app?vid=1765fdba-e6c1-4dba-bb71-06d6d61c8cce","ios":"levelo://app?vid=1765fdba-e6c1-4dba-bb71-06d6d61c8cce"},"vehicle_type_id":"4","last_reported":1690618072,"current_range_meters":23600,"station_id":"ce4bgqh2rcd13ifvqc5g","pricing_plan_id":"free"},{"bike_id":"129f5916-bf11-40d6-81ab-1bee105fc1fb","system_id":"levelo_inurba_marseille","lat":43.3031,"lon":5.3689,"is_reserved":false,"is_disabled":false,"rental_uris":{"android":"levelo://app?vid=129f5916-bf11-40d6-81ab-1bee105fc1fb","ios":"levelo://app?vid=129f5916-bf11-40d6-81ab-1bee105fc1fb"},"vehicle_type_id":"4","last_reported":1690618072,"current_range_meters":31200,"station_id":"ce4bgqh2rcd13ifvqc5g","pricing_plan_id":"free"},{"bike_id":"683b0185-b127-4c1d-b4d1-40d14875e8a8","system_id":"levelo_inurba_marseille","lat":43.30307,"lon":5.36888,"is_reserved":false,"is_disabled":false,"rental_uris":{"android":"levelo://app?vid=683b0185-b127-4c1d-b4d1-40d14875e8a8","ios":"levelo://app?vid=683b0185-b127-4c1d-b4d1-40d14875e8a8"},"vehicle_type_id":"4","last_reported":1690618072,"current_range_meters":19600,"station_id":"ce4bgqh2rcd13ifvqc5g","pricing_plan_id":"free"},{"bike_id":"25599427-a9ec-43d0-8004-32f45f80ebbb","system_id":"levelo_inurba_marseille","lat":43.30303,"lon":5.36901,"is_reserved":false,"is_disabled":false,"rental_uris":{"android":"levelo://app?vid=25599427-a9ec-43d0-8004-32f45f80ebbb","ios":"levelo://app?vid=25599427-a9ec-43d0-8004-32f45f80ebbb"},"vehicle_type_id":"4","last_reported":1690618072,"current_range_meters":17600,"station_id":"ce4bgqh2rcd13ifvqc5g","pricing_plan_id":"free"},{"bike_id":"ce9773b2-a7a7-40c2-ba8f-98c48622499b","system_id":"levelo_inurba_marseille","lat":43.30294,"lon":5.36858,"is_reserved":false,"is_disabled":false,"rental_uris":{"android":"levelo://app?vid=ce9773b2-a7a7-40c2-ba8f-98c48622499b","ios":"levelo://app?vid=ce9773b2-a7a7-40c2-ba8f-98c48622499b"},"vehicle_type_id":"4","last_reported":1690618072,"current_range_meters":27200,"station_id":"ce4bgqh2rcd13ifvqc5g","pricing_plan_id":"free"},{"bike_id":"56331d4d-73e1-4d88-af4d-132cd2ae04c5","system_id":"levelo_inurba_marseille","lat":43.315293,"lon":5.380349,"is_reserved":false,"is_disabled":false,"rental_uris":{"android":"levelo://app?vid=56331d4d-73e1-4d88-af4d-132cd2ae04c5","ios":"levelo://app?vid=56331d4d-73e1-4d88-af4d-132cd2ae04c5"},"vehicle_type_id":"4","last_reported":1690618072,"current_range_meters":18800,"station_id":"ce4bhsp2rcd13ifvqi50","pricing_plan_id":"free"},{"bike_id":"7f7dfe38-a95c-4673-b637-3a337ceb097c","system_id":"levelo_inurba_marseille","lat":43.31541,"lon":5.38018,"is_reserved":false,"is_disabled":false,"rental_uris":{"android":"levelo://app?vid=7f7dfe38-a95c-4673-b637-3a337ceb097c","ios":"levelo://app?vid=7f7dfe38-a95c-4673-b637-3a337ceb097c"},"vehicle_type_id":"4","last_reported":1690618072,"current_range_meters":8800,"station_id":"ce4bhsp2rcd13ifvqi50","pricing_plan_id":"free"},{"bike_id":"c564b821-fb7f-4fe9-9796-703c2b824191","system_id":"levelo_inurba_marseille","lat":43.317075,"lon":5.377367,"is_reserved":false,"is_disabled":false,"rental_uris":{"android":"levelo://app?vid=c564b821-fb7f-4fe9-9796-703c2b824191","ios":"levelo://app?vid=c564b821-fb7f-4fe9-9796-703c2b824191"},"vehicle_type_id":"4","last_reported":1690618072,"current_range_meters":27200,"station_id":"ce4bgth2rcd13ifvqch0","pricing_plan_id":"free"},{"bike_id":"66bdd2e0-3a60-44c0-9ad9-5771c55e61a6","system_id":"levelo_inurba_marseille","lat":43.3154,"lon":5.38021,"is_reserved":false,"is_disabled":false,"rental_uris":{"android":"levelo://app?vid=66bdd2e0-3a60-44c0-9ad9-5771c55e61a6","ios":"levelo://app?vid=66bdd2e0-3a60-44c0-9ad9-5771c55e61a6"},"vehicle_type_id":"4","last_reported":1690618072,"current_range_meters":22400,"station_id":"ce4bhsp2rcd13ifvqi50","pricing_plan_id":"free"},{"bike_id":"2a699e62-241f-424f-bb94-eb93983c02d3","system_id":"levelo_inurba_marseille","lat":43.315293,"lon":5.380349,"is_reserved":false,"is_disabled":false,"rental_uris":{"android":"levelo://app?vid=2a699e62-241f-424f-bb94-eb93983c02d3","ios":"levelo://app?vid=2a699e62-241f-424f-bb94-eb93983c02d3"},"vehicle_type_id":"4","last_reported":1690618072,"current_range_meters":27600,"station_id":"ce4bhsp2rcd13ifvqi50","pricing_plan_id":"free"},{"bike_id":"3a563c93-2c7f-4ad4-89f3-fd5d56de627f","system_id":"levelo_inurba_marseille","lat":43.304606,"lon":5.379026,"is_reserved":false,"is_disabled":false,"rental_uris":{"android":"levelo://app?vid=3a563c93-2c7f-4ad4-89f3-fd5d56de627f","ios":"levelo://app?vid=3a563c93-2c7f-4ad4-89f3-fd5d56de627f"},"vehicle_type_id":"4","last_reported":1690618072,"current_range_meters":10000,"station_id":"ce4bgup2rcd13ifvqcn0","pricing_plan_id":"free"},{"bike_id":"d4d24057-bb1a-475d-a965-cecff6aee4bb","system_id":"levelo_inurba_marseille","lat":43.304606,"lon":5.379026,"is_reserved":false,"is_disabled":false,"rental_uris":{"android":"levelo://app?vid=d4d24057-bb1a-475d-a965-cecff6aee4bb","ios":"levelo://app?vid=d4d24057-bb1a-475d-a965-cecff6aee4bb"},"vehicle_type_id":"4","last_reported":1690618072,"current_range_meters":0,"station_id":"ce4bgup2rcd13ifvqcn0","pricing_plan_id":"free"},{"bike_id":"d1539fc1-e41f-43b0-8787-2957cd3bbe89","system_id":"levelo_inurba_marseille","lat":43.304606,"lon":5.379026,"is_reserved":false,"is_disabled":false,"rental_uris":{"android":"levelo://app?vid=d1539fc1-e41f-43b0-8787-2957cd3bbe89","ios":"levelo://app?vid=d1539fc1-e41f-43b0-8787-2957cd3bbe89"},"vehicle_type_id":"4","last_reported":1690618072,"current_range_meters":26800,"station_id":"ce4bgup2rcd13ifvqcn0","pricing_plan_id":"free"},{"bike_id":"5a4d1e13-b684-4137-99a7-203af65f4a68","system_id":"levelo_inurba_marseille","lat":43.304606,"lon":5.379026,"is_reserved":false,"is_disabled":false,"rental_uris":{"android":"levelo://app?vid=5a4d1e13-b684-4137-99a7-203af65f4a68","ios":"levelo://app?vid=5a4d1e13-b684-4137-99a7-203af65f4a68"},"vehicle_type_id":"4","last_reported":1690618072,"current_range_meters":29200,"station_id":"ce4bgup2rcd13ifvqcn0","pricing_plan_id":"free"},{"bike_id":"c4446ead-dc83-4a6b-8909-06dc32d644cf","system_id":"levelo_inurba_marseille","lat":43.304606,"lon":5.379026,"is_reserved":false,"is_disabled":false,"rental_uris":{"android":"levelo://app?vid=c4446ead-dc83-4a6b-8909-06dc32d644cf","ios":"levelo://app?vid=c4446ead-dc83-4a6b-8909-06dc32d644cf"},"vehicle_type_id":"4","last_reported":1690618072,"current_range_meters":31600,"station_id":"ce4bgup2rcd13ifvqcn0","pricing_plan_id":"free"},{"bike_id":"77200071-0bc9-4ee2-9575-c6dc1ca9f043","system_id":"levelo_inurba_marseille","lat":43.304606,"lon":5.379026,"is_reserved":false,"is_disabled":false,"rental_uris":{"android":"levelo://app?vid=77200071-0bc9-4ee2-9575-c6dc1ca9f043","ios":"levelo://app?vid=77200071-0bc9-4ee2-9575-c6dc1ca9f043"},"vehicle_type_id":"4","last_reported":1690618072,"current_range_meters":31600,"station_id":"ce4bgup2rcd13ifvqcn0","pricing_plan_id":"free"},{"bike_id":"4fb4f3f8-1522-4033-8583-543255b474d0","system_id":"levelo_inurba_marseille","lat":43.304606,"lon":5.379026,"is_reserved":false,"is_disabled":false,"rental_uris":{"android":"levelo://app?vid=4fb4f3f8-1522-4033-8583-543255b474d0","ios":"levelo://app?vid=4fb4f3f8-1522-4033-8583-543255b474d0"},"vehicle_type_id":"4","last_reported":1690618072,"current_range_meters":31600,"station_id":"ce4bgup2rcd13ifvqcn0","pricing_plan_id":"free"},{"bike_id":"f73b0c38-0b97-4b5a-9765-32775fe1bf2b","system_id":"levelo_inurba_marseille","lat":43.304606,"lon":5.379026,"is_reserved":false,"is_disabled":false,"rental_uris":{"android":"levelo://app?vid=f73b0c38-0b97-4b5a-9765-32775fe1bf2b","ios":"levelo://app?vid=f73b0c38-0b97-4b5a-9765-32775fe1bf2b"},"vehicle_type_id":"4","last_reported":1690618072,"current_range_meters":26000,"station_id":"ce4bgup2rcd13ifvqcn0","pricing_plan_id":"free"},{"bike_id":"98851558-6742-4171-b72b-29d7fb66f785","system_id":"levelo_inurba_marseille","lat":43.304606,"lon":5.379026,"is_reserved":false,"is_disabled":false,"rental_uris":{"android":"levelo://app?vid=98851558-6742-4171-b72b-29d7fb66f785","ios":"levelo://app?vid=98851558-6742-4171-b72b-29d7fb66f785"},"vehicle_type_id":"4","last_reported":1690618072,"current_range_meters":29600,"station_id":"ce4bgup2rcd13ifvqcn0","pricing_plan_id":"free"},{"bike_id":"70c79c41-6ceb-4c76-9150-64626f42fd54","system_id":"levelo_inurba_marseille","lat":43.304606,"lon":5.379026,"is_reserved":false,"is_disabled":false,"rental_uris":{"android":"levelo://app?vid=70c79c41-6ceb-4c76-9150-64626f42fd54","ios":"levelo://app?vid=70c79c41-6ceb-4c76-9150-64626f42fd54"},"vehicle_type_id":"4","last_reported":1690618072,"current_range_meters":31600,"station_id":"ce4bgup2rcd13ifvqcn0","pricing_plan_id":"free"},{"bike_id":"f470bb17-e952-431a-94eb-c98a2150f2e4","system_id":"levelo_inurba_marseille","lat":43.304606,"lon":5.379026,"is_reserved":false,"is_disabled":false,"rental_uris":{"android":"levelo://app?vid=f470bb17-e952-431a-94eb-c98a2150f2e4","ios":"levelo://app?vid=f470bb17-e952-431a-94eb-c98a2150f2e4"},"vehicle_type_id":"4","last_reported":1690618072,"current_range_meters":30400,"station_id":"ce4bgup2rcd13ifvqcn0","pricing_plan_id":"free"},{"bike_id":"df5839ff-2b74-4d6e-b9cc-bef8ed774582","system_id":"levelo_inurba_marseille","lat":43.304606,"lon":5.379026,"is_reserved":false,"is_disabled":false,"rental_uris":{"android":"levelo://app?vid=df5839ff-2b74-4d6e-b9cc-bef8ed774582","ios":"levelo://app?vid=df5839ff-2b74-4d6e-b9cc-bef8ed774582"},"vehicle_type_id":"4","last_reported":1690618072,"current_range_meters":31600,"station_id":"ce4bgup2rcd13ifvqcn0","pricing_plan_id":"free"},{"bike_id":"23ff1ea3-4dc3-4189-8326-9881d2d2947b","system_id":"levelo_inurba_marseille","lat":43.304606,"lon":5.379026,"is_reserved":false,"is_disabled":false,"rental_uris":{"android":"levelo://app?vid=23ff1ea3-4dc3-4189-8326-9881d2d2947b","ios":"levelo://app?vid=23ff1ea3-4dc3-4189-8326-9881d2d2947b"},"vehicle_type_id":"4","last_reported":1690618072,"current_range_meters":31600,"station_id":"ce4bgup2rcd13ifvqcn0","pricing_plan_id":"free"},{"bike_id":"fe8cd656-274a-471d-8fb1-bbf49f4191e8","system_id":"levelo_inurba_marseille","lat":43.304606,"lon":5.379026,"is_reserved":false,"is_disabled":false,"rental_uris":{"android":"levelo://app?vid=fe8cd656-274a-471d-8fb1-bbf49f4191e8","ios":"levelo://app?vid=fe8cd656-274a-471d-8fb1-bbf49f4191e8"},"vehicle_type_id":"4","last_reported":1690618072,"current_range_meters":28000,"station_id":"ce4bgup2rcd13ifvqcn0","pricing_plan_id":"free"},{"bike_id":"07523e33-a804-4bc2-b26f-fd4ed4794606","system_id":"levelo_inurba_marseille","lat":43.304606,"lon":5.379026,"is_reserved":false,"is_disabled":false,"rental_uris":{"android":"levelo://app?vid=07523e33-a804-4bc2-b26f-fd4ed4794606","ios":"levelo://app?vid=07523e33-a804-4bc2-b26f-fd4ed4794606"},"vehicle_type_id":"4","last_reported":1690618072,"current_range_meters":15600,"station_id":"ce4bgup2rcd13ifvqcn0","pricing_plan_id":"free"},{"bike_id":"f3de447b-cf08-4923-9772-cd7995c774f5","system_id":"levelo_inurba_marseille","lat":43.304606,"lon":5.379026,"is_reserved":false,"is_disabled":false,"rental_uris":{"android":"levelo://app?vid=f3de447b-cf08-4923-9772-cd7995c774f5","ios":"levelo://app?vid=f3de447b-cf08-4923-9772-cd7995c774f5"},"vehicle_type_id":"4","last_reported":1690618072,"current_range_meters":30400,"station_id":"ce4bgup2rcd13ifvqcn0","pricing_plan_id":"free"},{"bike_id":"f8cd79e5-7db8-42b6-a73a-c13e9609ab4f","system_id":"levelo_inurba_marseille","lat":43.304606,"lon":5.379026,"is_reserved":false,"is_disabled":false,"rental_uris":{"android":"levelo://app?vid=f8cd79e5-7db8-42b6-a73a-c13e9609ab4f","ios":"levelo://app?vid=f8cd79e5-7db8-42b6-a73a-c13e9609ab4f"},"vehicle_type_id":"4","last_reported":1690618072,"current_range_meters":31200,"station_id":"ce4bgup2rcd13ifvqcn0","pricing_plan_id":"free"},{"bike_id":"c68fb0ea-2ad0-4095-bdf1-306233328822","system_id":"levelo_inurba_marseille","lat":43.304606,"lon":5.379026,"is_reserved":false,"is_disabled":false,"rental_uris":{"android":"levelo://app?vid=c68fb0ea-2ad0-4095-bdf1-306233328822","ios":"levelo://app?vid=c68fb0ea-2ad0-4095-bdf1-306233328822"},"vehicle_type_id":"4","last_reported":1690618072,"current_range_meters":23200,"station_id":"ce4bgup2rcd13ifvqcn0","pricing_plan_id":"free"},{"bike_id":"3040875f-c0b4-4f7b-b688-cc0145fb3acd","system_id":"levelo_inurba_marseille","lat":43.302784,"lon":5.377158,"is_reserved":false,"is_disabled":false,"rental_uris":{"android":"levelo://app?vid=3040875f-c0b4-4f7b-b688-cc0145fb3acd","ios":"levelo://app?vid=3040875f-c0b4-4f7b-b688-cc0145fb3acd"},"vehicle_type_id":"4","last_reported":1690618072,"current_range_meters":30800,"station_id":"ce4bguh2rcd13ifvqcj0","pricing_plan_id":"free"},{"bike_id":"ae4d9c75-75a9-444b-a911-958243355afc","system_id":"levelo_inurba_marseille","lat":43.302784,"lon":5.377158,"is_reserved":false,"is_disabled":false,"rental_uris":{"android":"levelo://app?vid=ae4d9c75-75a9-444b-a911-958243355afc","ios":"levelo://app?vid=ae4d9c75-75a9-444b-a911-958243355afc"},"vehicle_type_id":"4","last_reported":1690618072,"current_range_meters":30000,"station_id":"ce4bguh2rcd13ifvqcj0","pricing_plan_id":"free"},{"bike_id":"f8b266c8-4107-4e33-b367-bf9de2d07ae2","system_id":"levelo_inurba_marseille","lat":43.32,"lon":5.38145,"is_reserved":false,"is_disabled":false,"rental_uris":{"android":"levelo://app?vid=f8b266c8-4107-4e33-b367-bf9de2d07ae2","ios":"levelo://app?vid=f8b266c8-4107-4e33-b367-bf9de2d07ae2"},"vehicle_type_id":"4","last_reported":1690618072,"current_range_meters":23600,"station_id":"ce4bhr12rcd13ifvqhpg","pricing_plan_id":"free"},{"bike_id":"7047dc29-08ac-4a2e-a7ec-522c4041a4d0","system_id":"levelo_inurba_marseille","lat":43.313571,"lon":5.384829,"is_reserved":false,"is_disabled":false,"rental_uris":{"android":"levelo://app?vid=7047dc29-08ac-4a2e-a7ec-522c4041a4d0","ios":"levelo://app?vid=7047dc29-08ac-4a2e-a7ec-522c4041a4d0"},"vehicle_type_id":"4","last_reported":1690618072,"current_range_meters":31200,"station_id":"ce4bgt92rcd13ifvqcf0","pricing_plan_id":"free"},{"bike_id":"a9cfb576-6ad3-4299-a13b-2c8e0aed40f1","system_id":"levelo_inurba_marseille","lat":43.29936,"lon":5.36537,"is_reserved":false,"is_disabled":false,"rental_uris":{"android":"levelo://app?vid=a9cfb576-6ad3-4299-a13b-2c8e0aed40f1","ios":"levelo://app?vid=a9cfb576-6ad3-4299-a13b-2c8e0aed40f1"},"vehicle_type_id":"4","last_reported":1690618072,"current_range_meters":30800,"station_id":"ce4bgm92rcd13ifvqbr0","pricing_plan_id":"free"},{"bike_id":"976aae6c-30b4-4ad0-95d6-0ae016545ed5","system_id":"levelo_inurba_marseille","lat":43.298433,"lon":5.362774,"is_reserved":false,"is_disabled":false,"rental_uris":{"android":"levelo://app?vid=976aae6c-30b4-4ad0-95d6-0ae016545ed5","ios":"levelo://app?vid=976aae6c-30b4-4ad0-95d6-0ae016545ed5"},"vehicle_type_id":"4","last_reported":1690618072,"current_range_meters":29600,"station_id":"ce4bgpp2rcd13ifvqc3g","pricing_plan_id":"free"},{"bike_id":"b6bb5c2f-6727-4034-a7fa-b00dc3bab3b4","system_id":"levelo_inurba_marseille","lat":43.298433,"lon":5.362774,"is_reserved":false,"is_disabled":false,"rental_uris":{"android":"levelo://app?vid=b6bb5c2f-6727-4034-a7fa-b00dc3bab3b4","ios":"levelo://app?vid=b6bb5c2f-6727-4034-a7fa-b00dc3bab3b4"},"vehicle_type_id":"4","last_reported":1690618072,"current_range_meters":30000,"station_id":"ce4bgpp2rcd13ifvqc3g","pricing_plan_id":"free"},{"bike_id":"fdb92632-b91b-4ae5-99b6-aafa2d1731e2","system_id":"levelo_inurba_marseille","lat":43.298433,"lon":5.362774,"is_reserved":false,"is_disabled":false,"rental_uris":{"android":"levelo://app?vid=fdb92632-b91b-4ae5-99b6-aafa2d1731e2","ios":"levelo://app?vid=fdb92632-b91b-4ae5-99b6-aafa2d1731e2"},"vehicle_type_id":"4","last_reported":1690618072,"current_range_meters":16000,"station_id":"ce4bgpp2rcd13ifvqc3g","pricing_plan_id":"free"},{"bike_id":"d2343291-3680-4824-8411-ca2dcf4e2c5c","system_id":"levelo_inurba_marseille","lat":43.298433,"lon":5.362774,"is_reserved":false,"is_disabled":false,"rental_uris":{"android":"levelo://app?vid=d2343291-3680-4824-8411-ca2dcf4e2c5c","ios":"levelo://app?vid=d2343291-3680-4824-8411-ca2dcf4e2c5c"},"vehicle_type_id":"4","last_reported":1690618072,"current_range_meters":23200,"station_id":"ce4bgpp2rcd13ifvqc3g","pricing_plan_id":"free"},{"bike_id":"d2c90eb8-2ab0-4e6d-be66-61930c46ce3f","system_id":"levelo_inurba_marseille","lat":43.298433,"lon":5.362774,"is_reserved":false,"is_disabled":false,"rental_uris":{"android":"levelo://app?vid=d2c90eb8-2ab0-4e6d-be66-61930c46ce3f","ios":"levelo://app?vid=d2c90eb8-2ab0-4e6d-be66-61930c46ce3f"},"vehicle_type_id":"4","last_reported":1690618072,"current_range_meters":16800,"station_id":"ce4bgpp2rcd13ifvqc3g","pricing_plan_id":"free"},{"bike_id":"d2ad6f2a-3412-4081-abe2-caa2af866628","system_id":"levelo_inurba_marseille","lat":43.298433,"lon":5.362774,"is_reserved":false,"is_disabled":false,"rental_uris":{"android":"levelo://app?vid=d2ad6f2a-3412-4081-abe2-caa2af866628","ios":"levelo://app?vid=d2ad6f2a-3412-4081-abe2-caa2af866628"},"vehicle_type_id":"4","last_reported":1690618072,"current_range_meters":28000,"station_id":"ce4bgpp2rcd13ifvqc3g","pricing_plan_id":"free"},{"bike_id":"30537d43-af02-4a10-b928-7b9b8cf633d2","system_id":"levelo_inurba_marseille","lat":43.305364,"lon":5.384119,"is_reserved":false,"is_disabled":false,"rental_uris":{"android":"levelo://app?vid=30537d43-af02-4a10-b928-7b9b8cf633d2","ios":"levelo://app?vid=30537d43-af02-4a10-b928-7b9b8cf633d2"},"vehicle_type_id":"4","last_reported":1690618072,"current_range_meters":30400,"station_id":"ce4bgg92rcd13ifvqb30","pricing_plan_id":"free"},{"bike_id":"c91a4dc2-054a-47d3-b944-f4524bf1cf19","system_id":"levelo_inurba_marseille","lat":43.298433,"lon":5.362774,"is_reserved":false,"is_disabled":false,"rental_uris":{"android":"levelo://app?vid=c91a4dc2-054a-47d3-b944-f4524bf1cf19","ios":"levelo://app?vid=c91a4dc2-054a-47d3-b944-f4524bf1cf19"},"vehicle_type_id":"4","last_reported":1690618072,"current_range_meters":30400,"station_id":"ce4bgpp2rcd13ifvqc3g","pricing_plan_id":"free"},{"bike_id":"e310a48c-af93-4f90-a7e7-2b832015216b","system_id":"levelo_inurba_marseille","lat":43.298433,"lon":5.362774,"is_reserved":false,"is_disabled":false,"rental_uris":{"android":"levelo://app?vid=e310a48c-af93-4f90-a7e7-2b832015216b","ios":"levelo://app?vid=e310a48c-af93-4f90-a7e7-2b832015216b"},"vehicle_type_id":"4","last_reported":1690618072,"current_range_meters":31200,"station_id":"ce4bgpp2rcd13ifvqc3g","pricing_plan_id":"free"},{"bike_id":"25bbbaa6-c600-41c3-ab73-3c27342b16ab","system_id":"levelo_inurba_marseille","lat":43.311722,"lon":5.387247,"is_reserved":false,"is_disabled":false,"rental_uris":{"android":"levelo://app?vid=25bbbaa6-c600-41c3-ab73-3c27342b16ab","ios":"levelo://app?vid=25bbbaa6-c600-41c3-ab73-3c27342b16ab"},"vehicle_type_id":"4","last_reported":1690618072,"current_range_meters":30400,"station_id":"ce4bgv12rcd13ifvqcp0","pricing_plan_id":"free"},{"bike_id":"bd72b931-845c-41c4-a898-412eede4e065","system_id":"levelo_inurba_marseille","lat":43.311722,"lon":5.387247,"is_reserved":false,"is_disabled":false,"rental_uris":{"android":"levelo://app?vid=bd72b931-845c-41c4-a898-412eede4e065","ios":"levelo://app?vid=bd72b931-845c-41c4-a898-412eede4e065"},"vehicle_type_id":"4","last_reported":1690618072,"current_range_meters":31600,"station_id":"ce4bgv12rcd13ifvqcp0","pricing_plan_id":"free"},{"bike_id":"fecd46ef-56db-4ec9-8d5a-5abb27188831","system_id":"levelo_inurba_marseille","lat":43.311722,"lon":5.387247,"is_reserved":false,"is_disabled":false,"rental_uris":{"android":"levelo://app?vid=fecd46ef-56db-4ec9-8d5a-5abb27188831","ios":"levelo://app?vid=fecd46ef-56db-4ec9-8d5a-5abb27188831"},"vehicle_type_id":"4","last_reported":1690618072,"current_range_meters":28800,"station_id":"ce4bgv12rcd13ifvqcp0","pricing_plan_id":"free"},{"bike_id":"bff5ce26-568c-47bc-89ae-ae13f32aa819","system_id":"levelo_inurba_marseille","lat":43.30148,"lon":5.38063,"is_reserved":false,"is_disabled":false,"rental_uris":{"android":"levelo://app?vid=bff5ce26-568c-47bc-89ae-ae13f32aa819","ios":"levelo://app?vid=bff5ce26-568c-47bc-89ae-ae13f32aa819"},"vehicle_type_id":"4","last_reported":1690618072,"current_range_meters":17600,"station_id":"","pricing_plan_id":"free"},{"bike_id":"8dd338c5-5963-4907-930b-65145d568f6a","system_id":"levelo_inurba_marseille","lat":43.297794,"lon":5.370888,"is_reserved":false,"is_disabled":false,"rental_uris":{"android":"levelo://app?vid=8dd338c5-5963-4907-930b-65145d568f6a","ios":"levelo://app?vid=8dd338c5-5963-4907-930b-65145d568f6a"},"vehicle_type_id":"4","last_reported":1690618072,"current_range_meters":30400,"station_id":"ce4bgop2rcd13ifvqc1g","pricing_plan_id":"free"},{"bike_id":"fead3f1e-e9e6-4830-9da4-e98cba309113","system_id":"levelo_inurba_marseille","lat":43.32289,"lon":5.38254,"is_reserved":false,"is_disabled":false,"rental_uris":{"android":"levelo://app?vid=fead3f1e-e9e6-4830-9da4-e98cba309113","ios":"levelo://app?vid=fead3f1e-e9e6-4830-9da4-e98cba309113"},"vehicle_type_id":"4","last_reported":1690618072,"current_range_meters":17600,"station_id":"ce4bhr12rcd13ifvqhqg","pricing_plan_id":"free"},{"bike_id":"3bcb999a-3b18-4dc3-818f-15e0be88142e","system_id":"levelo_inurba_marseille","lat":43.297794,"lon":5.370888,"is_reserved":false,"is_disabled":false,"rental_uris":{"android":"levelo://app?vid=3bcb999a-3b18-4dc3-818f-15e0be88142e","ios":"levelo://app?vid=3bcb999a-3b18-4dc3-818f-15e0be88142e"},"vehicle_type_id":"4","last_reported":1690618072,"current_range_meters":30800,"station_id":"ce4bgop2rcd13ifvqc1g","pricing_plan_id":"free"},{"bike_id":"c8d6b985-0f59-4681-8371-a387d353cd66","system_id":"levelo_inurba_marseille","lat":43.32289,"lon":5.38268,"is_reserved":false,"is_disabled":false,"rental_uris":{"android":"levelo://app?vid=c8d6b985-0f59-4681-8371-a387d353cd66","ios":"levelo://app?vid=c8d6b985-0f59-4681-8371-a387d353cd66"},"vehicle_type_id":"4","last_reported":1690618072,"current_range_meters":28400,"station_id":"ce4bhr12rcd13ifvqhqg","pricing_plan_id":"free"},{"bike_id":"3641a761-0636-4e0b-b047-72e86565129d","system_id":"levelo_inurba_marseille","lat":43.322872,"lon":5.382756,"is_reserved":false,"is_disabled":false,"rental_uris":{"android":"levelo://app?vid=3641a761-0636-4e0b-b047-72e86565129d","ios":"levelo://app?vid=3641a761-0636-4e0b-b047-72e86565129d"},"vehicle_type_id":"4","last_reported":1690618072,"current_range_meters":29200,"station_id":"ce4bhr12rcd13ifvqhqg","pricing_plan_id":"free"},{"bike_id":"ed036995-b4be-4651-99e2-2b3f9756665c","system_id":"levelo_inurba_marseille","lat":43.29769,"lon":5.37091,"is_reserved":false,"is_disabled":false,"rental_uris":{"android":"levelo://app?vid=ed036995-b4be-4651-99e2-2b3f9756665c","ios":"levelo://app?vid=ed036995-b4be-4651-99e2-2b3f9756665c"},"vehicle_type_id":"4","last_reported":1690618072,"current_range_meters":31200,"station_id":"ce4bgop2rcd13ifvqc1g","pricing_plan_id":"free"},{"bike_id":"a196dbb0-0ca2-44b0-8b03-b7d3a734d20c","system_id":"levelo_inurba_marseille","lat":43.3229,"lon":5.38272,"is_reserved":false,"is_disabled":false,"rental_uris":{"android":"levelo://app?vid=a196dbb0-0ca2-44b0-8b03-b7d3a734d20c","ios":"levelo://app?vid=a196dbb0-0ca2-44b0-8b03-b7d3a734d20c"},"vehicle_type_id":"4","last_reported":1690618072,"current_range_meters":30000,"station_id":"ce4bhr12rcd13ifvqhqg","pricing_plan_id":"free"},{"bike_id":"82f1e03d-e4c3-4aac-b6f0-c9fc3950fe62","system_id":"levelo_inurba_marseille","lat":43.322948,"lon":5.3827,"is_reserved":false,"is_disabled":false,"rental_uris":{"android":"levelo://app?vid=82f1e03d-e4c3-4aac-b6f0-c9fc3950fe62","ios":"levelo://app?vid=82f1e03d-e4c3-4aac-b6f0-c9fc3950fe62"},"vehicle_type_id":"4","last_reported":1690618072,"current_range_meters":25600,"station_id":"","pricing_plan_id":"free"},{"bike_id":"79bf6da4-5f08-488b-96b1-6e23f74ec5ec","system_id":"levelo_inurba_marseille","lat":43.322872,"lon":5.382756,"is_reserved":false,"is_disabled":false,"rental_uris":{"android":"levelo://app?vid=79bf6da4-5f08-488b-96b1-6e23f74ec5ec","ios":"levelo://app?vid=79bf6da4-5f08-488b-96b1-6e23f74ec5ec"},"vehicle_type_id":"4","last_reported":1690618072,"current_range_meters":17600,"station_id":"ce4bhr12rcd13ifvqhqg","pricing_plan_id":"free"},{"bike_id":"f313c61c-0100-4b98-9ac1-3d95d2029aab","system_id":"levelo_inurba_marseille","lat":43.32823,"lon":5.36678,"is_reserved":false,"is_disabled":false,"rental_uris":{"android":"levelo://app?vid=f313c61c-0100-4b98-9ac1-3d95d2029aab","ios":"levelo://app?vid=f313c61c-0100-4b98-9ac1-3d95d2029aab"},"vehicle_type_id":"4","last_reported":1690618072,"current_range_meters":31200,"station_id":"ce4bhs92rcd13ifvqi0g","pricing_plan_id":"free"},{"bike_id":"a0fac16f-7dc8-47a7-9307-0cb41db03ce5","system_id":"levelo_inurba_marseille","lat":43.328371,"lon":5.366909,"is_reserved":false,"is_disabled":false,"rental_uris":{"android":"levelo://app?vid=a0fac16f-7dc8-47a7-9307-0cb41db03ce5","ios":"levelo://app?vid=a0fac16f-7dc8-47a7-9307-0cb41db03ce5"},"vehicle_type_id":"4","last_reported":1690618072,"current_range_meters":31200,"station_id":"ce4bhs92rcd13ifvqi0g","pricing_plan_id":"free"},{"bike_id":"0f39a3e7-b7c7-4f3f-9c14-2250e1a537a2","system_id":"levelo_inurba_marseille","lat":43.328371,"lon":5.366909,"is_reserved":false,"is_disabled":false,"rental_uris":{"android":"levelo://app?vid=0f39a3e7-b7c7-4f3f-9c14-2250e1a537a2","ios":"levelo://app?vid=0f39a3e7-b7c7-4f3f-9c14-2250e1a537a2"},"vehicle_type_id":"4","last_reported":1690618072,"current_range_meters":22400,"station_id":"ce4bhs92rcd13ifvqi0g","pricing_plan_id":"free"},{"bike_id":"6e314e9f-7fad-49e8-b7f0-9137d6637e28","system_id":"levelo_inurba_marseille","lat":43.32827,"lon":5.36686,"is_reserved":false,"is_disabled":false,"rental_uris":{"android":"levelo://app?vid=6e314e9f-7fad-49e8-b7f0-9137d6637e28","ios":"levelo://app?vid=6e314e9f-7fad-49e8-b7f0-9137d6637e28"},"vehicle_type_id":"4","last_reported":1690618072,"current_range_meters":27600,"station_id":"ce4bhs92rcd13ifvqi0g","pricing_plan_id":"free"},{"bike_id":"43e6a6cf-49a1-43c4-8aee-dc793d00bec0","system_id":"levelo_inurba_marseille","lat":43.328371,"lon":5.366909,"is_reserved":false,"is_disabled":false,"rental_uris":{"android":"levelo://app?vid=43e6a6cf-49a1-43c4-8aee-dc793d00bec0","ios":"levelo://app?vid=43e6a6cf-49a1-43c4-8aee-dc793d00bec0"},"vehicle_type_id":"4","last_reported":1690618072,"current_range_meters":12800,"station_id":"ce4bhs92rcd13ifvqi0g","pricing_plan_id":"free"},{"bike_id":"9d54f4c4-5c8b-4180-88ec-f26573944976","system_id":"levelo_inurba_marseille","lat":43.3283,"lon":5.36674,"is_reserved":false,"is_disabled":false,"rental_uris":{"android":"levelo://app?vid=9d54f4c4-5c8b-4180-88ec-f26573944976","ios":"levelo://app?vid=9d54f4c4-5c8b-4180-88ec-f26573944976"},"vehicle_type_id":"4","last_reported":1690618072,"current_range_meters":31200,"station_id":"ce4bhs92rcd13ifvqi0g","pricing_plan_id":"free"},{"bike_id":"a645c93d-46df-40b3-881a-4bd38ce75110","system_id":"levelo_inurba_marseille","lat":43.297163,"lon":5.365866,"is_reserved":false,"is_disabled":false,"rental_uris":{"android":"levelo://app?vid=a645c93d-46df-40b3-881a-4bd38ce75110","ios":"levelo://app?vid=a645c93d-46df-40b3-881a-4bd38ce75110"},"vehicle_type_id":"4","last_reported":1690618072,"current_range_meters":12800,"station_id":"ce4bgn12rcd13ifvqbt0","pricing_plan_id":"free"},{"bike_id":"5e8c9817-0eb2-4c8c-84f2-1c7d9278fd99","system_id":"levelo_inurba_marseille","lat":43.297163,"lon":5.365866,"is_reserved":false,"is_disabled":false,"rental_uris":{"android":"levelo://app?vid=5e8c9817-0eb2-4c8c-84f2-1c7d9278fd99","ios":"levelo://app?vid=5e8c9817-0eb2-4c8c-84f2-1c7d9278fd99"},"vehicle_type_id":"4","last_reported":1690618072,"current_range_meters":25200,"station_id":"ce4bgn12rcd13ifvqbt0","pricing_plan_id":"free"},{"bike_id":"dd789220-e7b5-42c1-b9dc-dc4243148021","system_id":"levelo_inurba_marseille","lat":43.297163,"lon":5.365866,"is_reserved":false,"is_disabled":false,"rental_uris":{"android":"levelo://app?vid=dd789220-e7b5-42c1-b9dc-dc4243148021","ios":"levelo://app?vid=dd789220-e7b5-42c1-b9dc-dc4243148021"},"vehicle_type_id":"4","last_reported":1690618072,"current_range_meters":31600,"station_id":"ce4bgn12rcd13ifvqbt0","pricing_plan_id":"free"},{"bike_id":"a01891bf-d204-42ce-b4f0-ea3b9b31cdeb","system_id":"levelo_inurba_marseille","lat":43.297163,"lon":5.365866,"is_reserved":false,"is_disabled":false,"rental_uris":{"android":"levelo://app?vid=a01891bf-d204-42ce-b4f0-ea3b9b31cdeb","ios":"levelo://app?vid=a01891bf-d204-42ce-b4f0-ea3b9b31cdeb"},"vehicle_type_id":"4","last_reported":1690618072,"current_range_meters":30800,"station_id":"ce4bgn12rcd13ifvqbt0","pricing_plan_id":"free"},{"bike_id":"659bb937-248a-44c7-b2fe-0bcac9166d7b","system_id":"levelo_inurba_marseille","lat":43.297163,"lon":5.365866,"is_reserved":false,"is_disabled":false,"rental_uris":{"android":"levelo://app?vid=659bb937-248a-44c7-b2fe-0bcac9166d7b","ios":"levelo://app?vid=659bb937-248a-44c7-b2fe-0bcac9166d7b"},"vehicle_type_id":"4","last_reported":1690618072,"current_range_meters":14000,"station_id":"ce4bgn12rcd13ifvqbt0","pricing_plan_id":"free"},{"bike_id":"f47162ac-475f-49a8-aaec-a546e9a8e0f0","system_id":"levelo_inurba_marseille","lat":43.297163,"lon":5.365866,"is_reserved":false,"is_disabled":false,"rental_uris":{"android":"levelo://app?vid=f47162ac-475f-49a8-aaec-a546e9a8e0f0","ios":"levelo://app?vid=f47162ac-475f-49a8-aaec-a546e9a8e0f0"},"vehicle_type_id":"4","last_reported":1690618072,"current_range_meters":27600,"station_id":"ce4bgn12rcd13ifvqbt0","pricing_plan_id":"free"},{"bike_id":"93fe7f56-fd07-4ea1-99ee-7f73ef72b3b9","system_id":"levelo_inurba_marseille","lat":43.2968,"lon":5.37291,"is_reserved":false,"is_disabled":false,"rental_uris":{"android":"levelo://app?vid=93fe7f56-fd07-4ea1-99ee-7f73ef72b3b9","ios":"levelo://app?vid=93fe7f56-fd07-4ea1-99ee-7f73ef72b3b9"},"vehicle_type_id":"4","last_reported":1690618072,"current_range_meters":29600,"station_id":"ce4bgk12rcd13ifvqbj0","pricing_plan_id":"free"},{"bike_id":"496b6fee-f710-4ee4-aa76-c8f74e9ffe3d","system_id":"levelo_inurba_marseille","lat":43.2968,"lon":5.37291,"is_reserved":false,"is_disabled":false,"rental_uris":{"android":"levelo://app?vid=496b6fee-f710-4ee4-aa76-c8f74e9ffe3d","ios":"levelo://app?vid=496b6fee-f710-4ee4-aa76-c8f74e9ffe3d"},"vehicle_type_id":"4","last_reported":1690618072,"current_range_meters":12800,"station_id":"ce4bgk12rcd13ifvqbj0","pricing_plan_id":"free"},{"bike_id":"48552c5c-cde6-4d46-8fec-046ab6aac93b","system_id":"levelo_inurba_marseille","lat":43.2968,"lon":5.37291,"is_reserved":false,"is_disabled":false,"rental_uris":{"android":"levelo://app?vid=48552c5c-cde6-4d46-8fec-046ab6aac93b","ios":"levelo://app?vid=48552c5c-cde6-4d46-8fec-046ab6aac93b"},"vehicle_type_id":"4","last_reported":1690618072,"current_range_meters":31600,"station_id":"ce4bgk12rcd13ifvqbj0","pricing_plan_id":"free"},{"bike_id":"0539bc4c-0963-4b25-8849-808b7cba285a","system_id":"levelo_inurba_marseille","lat":43.296131,"lon":5.370773,"is_reserved":false,"is_disabled":false,"rental_uris":{"android":"levelo://app?vid=0539bc4c-0963-4b25-8849-808b7cba285a","ios":"levelo://app?vid=0539bc4c-0963-4b25-8849-808b7cba285a"},"vehicle_type_id":"4","last_reported":1690618072,"current_range_meters":22800,"station_id":"ce4bgnh2rcd13ifvqc0g","pricing_plan_id":"free"},{"bike_id":"62e461d5-8284-47ef-8f86-1e4dff98b8d1","system_id":"levelo_inurba_marseille","lat":43.29573,"lon":5.367355,"is_reserved":false,"is_disabled":false,"rental_uris":{"android":"levelo://app?vid=62e461d5-8284-47ef-8f86-1e4dff98b8d1","ios":"levelo://app?vid=62e461d5-8284-47ef-8f86-1e4dff98b8d1"},"vehicle_type_id":"4","last_reported":1690618072,"current_range_meters":28800,"station_id":"ce4bgph2rcd13ifvqc2g","pricing_plan_id":"free"},{"bike_id":"c5a52fe7-3747-400a-b5f8-574f1843ecae","system_id":"levelo_inurba_marseille","lat":43.29573,"lon":5.367355,"is_reserved":false,"is_disabled":false,"rental_uris":{"android":"levelo://app?vid=c5a52fe7-3747-400a-b5f8-574f1843ecae","ios":"levelo://app?vid=c5a52fe7-3747-400a-b5f8-574f1843ecae"},"vehicle_type_id":"4","last_reported":1690618072,"current_range_meters":28800,"station_id":"ce4bgph2rcd13ifvqc2g","pricing_plan_id":"free"},{"bike_id":"7f2315d1-d35a-4e05-9e8c-b2e109873fbc","system_id":"levelo_inurba_marseille","lat":43.29573,"lon":5.367355,"is_reserved":false,"is_disabled":false,"rental_uris":{"android":"levelo://app?vid=7f2315d1-d35a-4e05-9e8c-b2e109873fbc","ios":"levelo://app?vid=7f2315d1-d35a-4e05-9e8c-b2e109873fbc"},"vehicle_type_id":"4","last_reported":1690618072,"current_range_meters":24400,"station_id":"ce4bgph2rcd13ifvqc2g","pricing_plan_id":"free"},{"bike_id":"91b889f4-2ff0-4888-9d15-38310a414aae","system_id":"levelo_inurba_marseille","lat":43.29573,"lon":5.367355,"is_reserved":false,"is_disabled":false,"rental_uris":{"android":"levelo://app?vid=91b889f4-2ff0-4888-9d15-38310a414aae","ios":"levelo://app?vid=91b889f4-2ff0-4888-9d15-38310a414aae"},"vehicle_type_id":"4","last_reported":1690618072,"current_range_meters":17600,"station_id":"ce4bgph2rcd13ifvqc2g","pricing_plan_id":"free"},{"bike_id":"7bec832b-46af-4b6d-8970-301d9ffb739e","system_id":"levelo_inurba_marseille","lat":43.29573,"lon":5.367355,"is_reserved":false,"is_disabled":false,"rental_uris":{"android":"levelo://app?vid=7bec832b-46af-4b6d-8970-301d9ffb739e","ios":"levelo://app?vid=7bec832b-46af-4b6d-8970-301d9ffb739e"},"vehicle_type_id":"4","last_reported":1690618072,"current_range_meters":31600,"station_id":"ce4bgph2rcd13ifvqc2g","pricing_plan_id":"free"},{"bike_id":"81fa1dc1-e56b-4819-9c23-3ec9691f5ab7","system_id":"levelo_inurba_marseille","lat":43.29573,"lon":5.367355,"is_reserved":false,"is_disabled":false,"rental_uris":{"android":"levelo://app?vid=81fa1dc1-e56b-4819-9c23-3ec9691f5ab7","ios":"levelo://app?vid=81fa1dc1-e56b-4819-9c23-3ec9691f5ab7"},"vehicle_type_id":"4","last_reported":1690618072,"current_range_meters":31600,"station_id":"ce4bgph2rcd13ifvqc2g","pricing_plan_id":"free"},{"bike_id":"9ed38a59-9f1e-4269-bf2c-9c66caff74ca","system_id":"levelo_inurba_marseille","lat":43.296935,"lon":5.376544,"is_reserved":false,"is_disabled":false,"rental_uris":{"android":"levelo://app?vid=9ed38a59-9f1e-4269-bf2c-9c66caff74ca","ios":"levelo://app?vid=9ed38a59-9f1e-4269-bf2c-9c66caff74ca"},"vehicle_type_id":"4","last_reported":1690618072,"current_range_meters":29200,"station_id":"ce4bgkh2rcd13ifvqbl0","pricing_plan_id":"free"},{"bike_id":"a05f80d6-acd2-4ac1-afbc-deef25b392e6","system_id":"levelo_inurba_marseille","lat":43.296921,"lon":5.376579,"is_reserved":false,"is_disabled":false,"rental_uris":{"android":"levelo://app?vid=a05f80d6-acd2-4ac1-afbc-deef25b392e6","ios":"levelo://app?vid=a05f80d6-acd2-4ac1-afbc-deef25b392e6"},"vehicle_type_id":"4","last_reported":1690618072,"current_range_meters":19600,"station_id":"ce4bgkh2rcd13ifvqbl0","pricing_plan_id":"free"},{"bike_id":"0c47bc98-63c4-44aa-8d95-7ac425144243","system_id":"levelo_inurba_marseille","lat":43.309589,"lon":5.390258,"is_reserved":false,"is_disabled":false,"rental_uris":{"android":"levelo://app?vid=0c47bc98-63c4-44aa-8d95-7ac425144243","ios":"levelo://app?vid=0c47bc98-63c4-44aa-8d95-7ac425144243"},"vehicle_type_id":"4","last_reported":1690618072,"current_range_meters":30400,"station_id":"ce4bgup2rcd13ifvqco0","pricing_plan_id":"free"},{"bike_id":"e9af5798-bf49-4574-805f-b0a9f44c625e","system_id":"levelo_inurba_marseille","lat":43.299028,"lon":5.381509,"is_reserved":false,"is_disabled":false,"rental_uris":{"android":"levelo://app?vid=e9af5798-bf49-4574-805f-b0a9f44c625e","ios":"levelo://app?vid=e9af5798-bf49-4574-805f-b0a9f44c625e"},"vehicle_type_id":"4","last_reported":1690618072,"current_range_meters":20800,"station_id":"ce4bgj12rcd13ifvqbc0","pricing_plan_id":"free"},{"bike_id":"0f71b441-a0b4-45b8-b0c7-e5cabb868887","system_id":"levelo_inurba_marseille","lat":43.309589,"lon":5.390258,"is_reserved":false,"is_disabled":false,"rental_uris":{"android":"levelo://app?vid=0f71b441-a0b4-45b8-b0c7-e5cabb868887","ios":"levelo://app?vid=0f71b441-a0b4-45b8-b0c7-e5cabb868887"},"vehicle_type_id":"4","last_reported":1690618072,"current_range_meters":30000,"station_id":"ce4bgup2rcd13ifvqco0","pricing_plan_id":"free"},{"bike_id":"6abafcc9-94fb-454e-b9bc-9a4850022513","system_id":"levelo_inurba_marseille","lat":43.296921,"lon":5.376579,"is_reserved":false,"is_disabled":false,"rental_uris":{"android":"levelo://app?vid=6abafcc9-94fb-454e-b9bc-9a4850022513","ios":"levelo://app?vid=6abafcc9-94fb-454e-b9bc-9a4850022513"},"vehicle_type_id":"4","last_reported":1690618072,"current_range_meters":31600,"station_id":"ce4bgkh2rcd13ifvqbl0","pricing_plan_id":"free"},{"bike_id":"80996baf-8597-4552-b66a-a0139bedf903","system_id":"levelo_inurba_marseille","lat":43.309502,"lon":5.390365,"is_reserved":false,"is_disabled":false,"rental_uris":{"android":"levelo://app?vid=80996baf-8597-4552-b66a-a0139bedf903","ios":"levelo://app?vid=80996baf-8597-4552-b66a-a0139bedf903"},"vehicle_type_id":"4","last_reported":1690618072,"current_range_meters":3200,"station_id":"","pricing_plan_id":"free"},{"bike_id":"f0b1921d-8fc5-42f6-8214-26455e772ce5","system_id":"levelo_inurba_marseille","lat":43.309589,"lon":5.390258,"is_reserved":false,"is_disabled":false,"rental_uris":{"android":"levelo://app?vid=f0b1921d-8fc5-42f6-8214-26455e772ce5","ios":"levelo://app?vid=f0b1921d-8fc5-42f6-8214-26455e772ce5"},"vehicle_type_id":"4","last_reported":1690618072,"current_range_meters":28000,"station_id":"ce4bgup2rcd13ifvqco0","pricing_plan_id":"free"},{"bike_id":"45a76014-724b-4125-bd43-f10b9ea7e21f","system_id":"levelo_inurba_marseille","lat":43.317557,"lon":5.390173,"is_reserved":false,"is_disabled":false,"rental_uris":{"android":"levelo://app?vid=45a76014-724b-4125-bd43-f10b9ea7e21f","ios":"levelo://app?vid=45a76014-724b-4125-bd43-f10b9ea7e21f"},"vehicle_type_id":"4","last_reported":1690618072,"current_range_meters":22000,"station_id":"ce4bhqp2rcd13ifvqhng","pricing_plan_id":"free"},{"bike_id":"ad04f727-0538-4e03-a644-92828dbb0ec0","system_id":"levelo_inurba_marseille","lat":43.317557,"lon":5.390173,"is_reserved":false,"is_disabled":false,"rental_uris":{"android":"levelo://app?vid=ad04f727-0538-4e03-a644-92828dbb0ec0","ios":"levelo://app?vid=ad04f727-0538-4e03-a644-92828dbb0ec0"},"vehicle_type_id":"4","last_reported":1690618072,"current_range_meters":14000,"station_id":"ce4bhqp2rcd13ifvqhng","pricing_plan_id":"free"},{"bike_id":"617ed340-9cb3-48a2-8928-4784b0ddd35f","system_id":"levelo_inurba_marseille","lat":43.317557,"lon":5.390173,"is_reserved":false,"is_disabled":false,"rental_uris":{"android":"levelo://app?vid=617ed340-9cb3-48a2-8928-4784b0ddd35f","ios":"levelo://app?vid=617ed340-9cb3-48a2-8928-4784b0ddd35f"},"vehicle_type_id":"4","last_reported":1690618072,"current_range_meters":18800,"station_id":"ce4bhqp2rcd13ifvqhng","pricing_plan_id":"free"},{"bike_id":"f1a5c967-d8e0-4f7f-8f2c-5ff134cd8440","system_id":"levelo_inurba_marseille","lat":43.298037,"lon":5.381066,"is_reserved":false,"is_disabled":false,"rental_uris":{"android":"levelo://app?vid=f1a5c967-d8e0-4f7f-8f2c-5ff134cd8440","ios":"levelo://app?vid=f1a5c967-d8e0-4f7f-8f2c-5ff134cd8440"},"vehicle_type_id":"4","last_reported":1690618072,"current_range_meters":31600,"station_id":"ce4bgip2rcd13ifvqbb0","pricing_plan_id":"free"},{"bike_id":"72606423-fa5c-44a8-bc56-25ab90353d44","system_id":"levelo_inurba_marseille","lat":43.304278,"lon":5.388868,"is_reserved":false,"is_disabled":false,"rental_uris":{"android":"levelo://app?vid=72606423-fa5c-44a8-bc56-25ab90353d44","ios":"levelo://app?vid=72606423-fa5c-44a8-bc56-25ab90353d44"},"vehicle_type_id":"4","last_reported":1690618072,"current_range_meters":31200,"station_id":"ce4bgk12rcd13ifvqbi0","pricing_plan_id":"free"},{"bike_id":"4652e286-79b6-415c-8d66-54fa0a8ef371","system_id":"levelo_inurba_marseille","lat":43.304278,"lon":5.388868,"is_reserved":false,"is_disabled":false,"rental_uris":{"android":"levelo://app?vid=4652e286-79b6-415c-8d66-54fa0a8ef371","ios":"levelo://app?vid=4652e286-79b6-415c-8d66-54fa0a8ef371"},"vehicle_type_id":"4","last_reported":1690618072,"current_range_meters":31200,"station_id":"ce4bgk12rcd13ifvqbi0","pricing_plan_id":"free"},{"bike_id":"cdd9d236-cde3-4fcf-aa79-b538d7eba8a2","system_id":"levelo_inurba_marseille","lat":43.295748,"lon":5.37522,"is_reserved":false,"is_disabled":false,"rental_uris":{"android":"levelo://app?vid=cdd9d236-cde3-4fcf-aa79-b538d7eba8a2","ios":"levelo://app?vid=cdd9d236-cde3-4fcf-aa79-b538d7eba8a2"},"vehicle_type_id":"4","last_reported":1690618072,"current_range_meters":12800,"station_id":"ce4bgh92rcd13ifvqb50","pricing_plan_id":"free"},{"bike_id":"144d5228-66a2-4152-86da-f9c893555c60","system_id":"levelo_inurba_marseille","lat":43.304274,"lon":5.388873,"is_reserved":false,"is_disabled":false,"rental_uris":{"android":"levelo://app?vid=144d5228-66a2-4152-86da-f9c893555c60","ios":"levelo://app?vid=144d5228-66a2-4152-86da-f9c893555c60"},"vehicle_type_id":"4","last_reported":1690618072,"current_range_meters":31200,"station_id":"ce4bgk12rcd13ifvqbi0","pricing_plan_id":"free"},{"bike_id":"e3bc28ff-677e-4615-ae35-3d894f3f9555","system_id":"levelo_inurba_marseille","lat":43.295748,"lon":5.37522,"is_reserved":false,"is_disabled":false,"rental_uris":{"android":"levelo://app?vid=e3bc28ff-677e-4615-ae35-3d894f3f9555","ios":"levelo://app?vid=e3bc28ff-677e-4615-ae35-3d894f3f9555"},"vehicle_type_id":"4","last_reported":1690618072,"current_range_meters":28800,"station_id":"ce4bgh92rcd13ifvqb50","pricing_plan_id":"free"},{"bike_id":"3a20101c-9498-4247-8d48-4622f2c0c057","system_id":"levelo_inurba_marseille","lat":43.296277,"lon":5.377108,"is_reserved":false,"is_disabled":false,"rental_uris":{"android":"levelo://app?vid=3a20101c-9498-4247-8d48-4622f2c0c057","ios":"levelo://app?vid=3a20101c-9498-4247-8d48-4622f2c0c057"},"vehicle_type_id":"4","last_reported":1690618072,"current_range_meters":29200,"station_id":"ce4bgi92rcd13ifvqb90","pricing_plan_id":"free"},{"bike_id":"2355aab3-da83-4fcd-ab87-b8eef54d7041","system_id":"levelo_inurba_marseille","lat":43.296277,"lon":5.377108,"is_reserved":false,"is_disabled":false,"rental_uris":{"android":"levelo://app?vid=2355aab3-da83-4fcd-ab87-b8eef54d7041","ios":"levelo://app?vid=2355aab3-da83-4fcd-ab87-b8eef54d7041"},"vehicle_type_id":"4","last_reported":1690618072,"current_range_meters":31600,"station_id":"ce4bgi92rcd13ifvqb90","pricing_plan_id":"free"},{"bike_id":"2e6ba309-14f2-4add-bd2b-bba32b730e8f","system_id":"levelo_inurba_marseille","lat":43.296277,"lon":5.377108,"is_reserved":false,"is_disabled":false,"rental_uris":{"android":"levelo://app?vid=2e6ba309-14f2-4add-bd2b-bba32b730e8f","ios":"levelo://app?vid=2e6ba309-14f2-4add-bd2b-bba32b730e8f"},"vehicle_type_id":"4","last_reported":1690618072,"current_range_meters":31600,"station_id":"ce4bgi92rcd13ifvqb90","pricing_plan_id":"free"},{"bike_id":"0b57d84c-cf69-4a22-bb62-14e9e5458c0a","system_id":"levelo_inurba_marseille","lat":43.296277,"lon":5.377108,"is_reserved":false,"is_disabled":false,"rental_uris":{"android":"levelo://app?vid=0b57d84c-cf69-4a22-bb62-14e9e5458c0a","ios":"levelo://app?vid=0b57d84c-cf69-4a22-bb62-14e9e5458c0a"},"vehicle_type_id":"4","last_reported":1690618072,"current_range_meters":31600,"station_id":"ce4bgi92rcd13ifvqb90","pricing_plan_id":"free"},{"bike_id":"80b95fb3-c398-4200-9197-c07b7e0f4e3a","system_id":"levelo_inurba_marseille","lat":43.32365,"lon":5.3888,"is_reserved":false,"is_disabled":false,"rental_uris":{"android":"levelo://app?vid=80b95fb3-c398-4200-9197-c07b7e0f4e3a","ios":"levelo://app?vid=80b95fb3-c398-4200-9197-c07b7e0f4e3a"},"vehicle_type_id":"4","last_reported":1690618072,"current_range_meters":27600,"station_id":"ce4bhqp2rcd13ifvqhog","pricing_plan_id":"free"},{"bike_id":"6bacc70c-60c7-4abf-88cb-71dd969a4228","system_id":"levelo_inurba_marseille","lat":43.29602,"lon":5.381084,"is_reserved":false,"is_disabled":false,"rental_uris":{"android":"levelo://app?vid=6bacc70c-60c7-4abf-88cb-71dd969a4228","ios":"levelo://app?vid=6bacc70c-60c7-4abf-88cb-71dd969a4228"},"vehicle_type_id":"4","last_reported":1690618072,"current_range_meters":3200,"station_id":"ce4bgl12rcd13ifvqbo0","pricing_plan_id":"free"},{"bike_id":"c45cf4e7-6d47-4ff1-90db-d5faa278594b","system_id":"levelo_inurba_marseille","lat":43.29307,"lon":5.37161,"is_reserved":false,"is_disabled":false,"rental_uris":{"android":"levelo://app?vid=c45cf4e7-6d47-4ff1-90db-d5faa278594b","ios":"levelo://app?vid=c45cf4e7-6d47-4ff1-90db-d5faa278594b"},"vehicle_type_id":"4","last_reported":1690618072,"current_range_meters":29200,"station_id":"ce4bgh92rcd13ifvqb40","pricing_plan_id":"free"},{"bike_id":"474ab411-b63d-4af8-9577-e0f06aac7c09","system_id":"levelo_inurba_marseille","lat":43.29302,"lon":5.37157,"is_reserved":false,"is_disabled":false,"rental_uris":{"android":"levelo://app?vid=474ab411-b63d-4af8-9577-e0f06aac7c09","ios":"levelo://app?vid=474ab411-b63d-4af8-9577-e0f06aac7c09"},"vehicle_type_id":"4","last_reported":1690618072,"current_range_meters":24000,"station_id":"ce4bgh92rcd13ifvqb40","pricing_plan_id":"free"},{"bike_id":"bb47cdfc-d051-44ef-a799-37237aeb875e","system_id":"levelo_inurba_marseille","lat":43.29275,"lon":5.36841,"is_reserved":false,"is_disabled":false,"rental_uris":{"android":"levelo://app?vid=bb47cdfc-d051-44ef-a799-37237aeb875e","ios":"levelo://app?vid=bb47cdfc-d051-44ef-a799-37237aeb875e"},"vehicle_type_id":"4","last_reported":1690618072,"current_range_meters":17200,"station_id":"ce4bhbp2rcd13ifvqesg","pricing_plan_id":"free"},{"bike_id":"64a8c503-d9e4-4896-8aff-21f99ff8451c","system_id":"levelo_inurba_marseille","lat":43.292749,"lon":5.368398,"is_reserved":false,"is_disabled":false,"rental_uris":{"android":"levelo://app?vid=64a8c503-d9e4-4896-8aff-21f99ff8451c","ios":"levelo://app?vid=64a8c503-d9e4-4896-8aff-21f99ff8451c"},"vehicle_type_id":"4","last_reported":1690618072,"current_range_meters":27200,"station_id":"ce4bhbp2rcd13ifvqesg","pricing_plan_id":"free"},{"bike_id":"4d66c6de-0049-4582-b630-9359b059996d","system_id":"levelo_inurba_marseille","lat":43.292749,"lon":5.368398,"is_reserved":false,"is_disabled":false,"rental_uris":{"android":"levelo://app?vid=4d66c6de-0049-4582-b630-9359b059996d","ios":"levelo://app?vid=4d66c6de-0049-4582-b630-9359b059996d"},"vehicle_type_id":"4","last_reported":1690618072,"current_range_meters":27200,"station_id":"ce4bhbp2rcd13ifvqesg","pricing_plan_id":"free"},{"bike_id":"b3c5a574-9246-4661-a5aa-63b21f04d6ec","system_id":"levelo_inurba_marseille","lat":43.29271,"lon":5.36835,"is_reserved":false,"is_disabled":false,"rental_uris":{"android":"levelo://app?vid=b3c5a574-9246-4661-a5aa-63b21f04d6ec","ios":"levelo://app?vid=b3c5a574-9246-4661-a5aa-63b21f04d6ec"},"vehicle_type_id":"4","last_reported":1690618072,"current_range_meters":2800,"station_id":"ce4bhbp2rcd13ifvqesg","pricing_plan_id":"free"},{"bike_id":"d31f4c7d-30e1-4bb4-b614-e7eb25b22557","system_id":"levelo_inurba_marseille","lat":43.292749,"lon":5.368398,"is_reserved":false,"is_disabled":false,"rental_uris":{"android":"levelo://app?vid=d31f4c7d-30e1-4bb4-b614-e7eb25b22557","ios":"levelo://app?vid=d31f4c7d-30e1-4bb4-b614-e7eb25b22557"},"vehicle_type_id":"4","last_reported":1690618072,"current_range_meters":31600,"station_id":"ce4bhbp2rcd13ifvqesg","pricing_plan_id":"free"},{"bike_id":"4abd777f-4827-4c55-85d9-62b3f7cc4dd6","system_id":"levelo_inurba_marseille","lat":43.29362,"lon":5.37599,"is_reserved":false,"is_disabled":false,"rental_uris":{"android":"levelo://app?vid=4abd777f-4827-4c55-85d9-62b3f7cc4dd6","ios":"levelo://app?vid=4abd777f-4827-4c55-85d9-62b3f7cc4dd6"},"vehicle_type_id":"4","last_reported":1690618072,"current_range_meters":18000,"station_id":"","pricing_plan_id":"free"},{"bike_id":"d2dc133d-3605-4324-8af8-44c1c0dee1cd","system_id":"levelo_inurba_marseille","lat":43.29311,"lon":5.37427,"is_reserved":false,"is_disabled":false,"rental_uris":{"android":"levelo://app?vid=d2dc133d-3605-4324-8af8-44c1c0dee1cd","ios":"levelo://app?vid=d2dc133d-3605-4324-8af8-44c1c0dee1cd"},"vehicle_type_id":"4","last_reported":1690618072,"current_range_meters":13200,"station_id":"ce4bgi12rcd13ifvqb70","pricing_plan_id":"free"},{"bike_id":"ec18c552-c1c3-4dcb-89e6-fd2d3a66020b","system_id":"levelo_inurba_marseille","lat":43.305994,"lon":5.393687,"is_reserved":false,"is_disabled":false,"rental_uris":{"android":"levelo://app?vid=ec18c552-c1c3-4dcb-89e6-fd2d3a66020b","ios":"levelo://app?vid=ec18c552-c1c3-4dcb-89e6-fd2d3a66020b"},"vehicle_type_id":"4","last_reported":1690618072,"current_range_meters":31200,"station_id":"ce4bh0p2rcd13ifvqd80","pricing_plan_id":"free"},{"bike_id":"084a437d-eb06-4c4a-8f94-655f7d5ab737","system_id":"levelo_inurba_marseille","lat":43.293009,"lon":5.374584,"is_reserved":false,"is_disabled":false,"rental_uris":{"android":"levelo://app?vid=084a437d-eb06-4c4a-8f94-655f7d5ab737","ios":"levelo://app?vid=084a437d-eb06-4c4a-8f94-655f7d5ab737"},"vehicle_type_id":"4","last_reported":1690618072,"current_range_meters":29600,"station_id":"ce4bgi12rcd13ifvqb70","pricing_plan_id":"free"},{"bike_id":"af39b994-c687-41cc-8735-e8edda238050","system_id":"levelo_inurba_marseille","lat":43.293009,"lon":5.374584,"is_reserved":false,"is_disabled":false,"rental_uris":{"android":"levelo://app?vid=af39b994-c687-41cc-8735-e8edda238050","ios":"levelo://app?vid=af39b994-c687-41cc-8735-e8edda238050"},"vehicle_type_id":"4","last_reported":1690618072,"current_range_meters":20800,"station_id":"ce4bgi12rcd13ifvqb70","pricing_plan_id":"free"},{"bike_id":"322bf6e9-3239-4c9a-bf30-98b31982cd82","system_id":"levelo_inurba_marseille","lat":43.30601,"lon":5.39354,"is_reserved":false,"is_disabled":false,"rental_uris":{"android":"levelo://app?vid=322bf6e9-3239-4c9a-bf30-98b31982cd82","ios":"levelo://app?vid=322bf6e9-3239-4c9a-bf30-98b31982cd82"},"vehicle_type_id":"4","last_reported":1690618072,"current_range_meters":31200,"station_id":"ce4bh0p2rcd13ifvqd80","pricing_plan_id":"free"},{"bike_id":"b2bbe848-2410-43cb-a673-d4a5d6c50411","system_id":"levelo_inurba_marseille","lat":43.30601,"lon":5.39355,"is_reserved":false,"is_disabled":false,"rental_uris":{"android":"levelo://app?vid=b2bbe848-2410-43cb-a673-d4a5d6c50411","ios":"levelo://app?vid=b2bbe848-2410-43cb-a673-d4a5d6c50411"},"vehicle_type_id":"4","last_reported":1690618072,"current_range_meters":31200,"station_id":"ce4bh0p2rcd13ifvqd80","pricing_plan_id":"free"},{"bike_id":"dd498859-a640-430f-b85a-8e2b02572256","system_id":"levelo_inurba_marseille","lat":43.305994,"lon":5.393687,"is_reserved":false,"is_disabled":false,"rental_uris":{"android":"levelo://app?vid=dd498859-a640-430f-b85a-8e2b02572256","ios":"levelo://app?vid=dd498859-a640-430f-b85a-8e2b02572256"},"vehicle_type_id":"4","last_reported":1690618072,"current_range_meters":31600,"station_id":"ce4bh0p2rcd13ifvqd80","pricing_plan_id":"free"},{"bike_id":"c4bbbf8e-bbd8-40e9-ac5a-f28b486a73bb","system_id":"levelo_inurba_marseille","lat":43.293009,"lon":5.374584,"is_reserved":false,"is_disabled":false,"rental_uris":{"android":"levelo://app?vid=c4bbbf8e-bbd8-40e9-ac5a-f28b486a73bb","ios":"levelo://app?vid=c4bbbf8e-bbd8-40e9-ac5a-f28b486a73bb"},"vehicle_type_id":"4","last_reported":1690618072,"current_range_meters":31600,"station_id":"ce4bgi12rcd13ifvqb70","pricing_plan_id":"free"},{"bike_id":"e8587c8c-5ae7-4368-a8c7-9c3f162b0bef","system_id":"levelo_inurba_marseille","lat":43.30596,"lon":5.39357,"is_reserved":false,"is_disabled":false,"rental_uris":{"android":"levelo://app?vid=e8587c8c-5ae7-4368-a8c7-9c3f162b0bef","ios":"levelo://app?vid=e8587c8c-5ae7-4368-a8c7-9c3f162b0bef"},"vehicle_type_id":"4","last_reported":1690618072,"current_range_meters":26000,"station_id":"ce4bh0p2rcd13ifvqd80","pricing_plan_id":"free"},{"bike_id":"81071979-0fef-4250-88b1-84cec0b63e7d","system_id":"levelo_inurba_marseille","lat":43.29298,"lon":5.37464,"is_reserved":false,"is_disabled":false,"rental_uris":{"android":"levelo://app?vid=81071979-0fef-4250-88b1-84cec0b63e7d","ios":"levelo://app?vid=81071979-0fef-4250-88b1-84cec0b63e7d"},"vehicle_type_id":"4","last_reported":1690618072,"current_range_meters":31600,"station_id":"","pricing_plan_id":"free"},{"bike_id":"3669dd08-cda5-48b4-b031-c802a6484a62","system_id":"levelo_inurba_marseille","lat":43.305994,"lon":5.393687,"is_reserved":false,"is_disabled":false,"rental_uris":{"android":"levelo://app?vid=3669dd08-cda5-48b4-b031-c802a6484a62","ios":"levelo://app?vid=3669dd08-cda5-48b4-b031-c802a6484a62"},"vehicle_type_id":"4","last_reported":1690618072,"current_range_meters":21600,"station_id":"ce4bh0p2rcd13ifvqd80","pricing_plan_id":"free"},{"bike_id":"87861790-6690-4c3d-98dc-0790b512599b","system_id":"levelo_inurba_marseille","lat":43.305994,"lon":5.393687,"is_reserved":false,"is_disabled":false,"rental_uris":{"android":"levelo://app?vid=87861790-6690-4c3d-98dc-0790b512599b","ios":"levelo://app?vid=87861790-6690-4c3d-98dc-0790b512599b"},"vehicle_type_id":"4","last_reported":1690618072,"current_range_meters":30000,"station_id":"ce4bh0p2rcd13ifvqd80","pricing_plan_id":"free"},{"bike_id":"ef5d5b08-89f1-468f-acf8-7576f3262fb4","system_id":"levelo_inurba_marseille","lat":43.293009,"lon":5.374584,"is_reserved":false,"is_disabled":false,"rental_uris":{"android":"levelo://app?vid=ef5d5b08-89f1-468f-acf8-7576f3262fb4","ios":"levelo://app?vid=ef5d5b08-89f1-468f-acf8-7576f3262fb4"},"vehicle_type_id":"4","last_reported":1690618072,"current_range_meters":14800,"station_id":"ce4bgi12rcd13ifvqb70","pricing_plan_id":"free"},{"bike_id":"1f24cb49-43d0-46cc-bc52-550eb59e7cc7","system_id":"levelo_inurba_marseille","lat":43.293009,"lon":5.374584,"is_reserved":false,"is_disabled":false,"rental_uris":{"android":"levelo://app?vid=1f24cb49-43d0-46cc-bc52-550eb59e7cc7","ios":"levelo://app?vid=1f24cb49-43d0-46cc-bc52-550eb59e7cc7"},"vehicle_type_id":"4","last_reported":1690618072,"current_range_meters":30800,"station_id":"ce4bgi12rcd13ifvqb70","pricing_plan_id":"free"},{"bike_id":"410d39fc-7278-48e8-93b5-c3e6154e1c47","system_id":"levelo_inurba_marseille","lat":43.293823,"lon":5.378471,"is_reserved":false,"is_disabled":false,"rental_uris":{"android":"levelo://app?vid=410d39fc-7278-48e8-93b5-c3e6154e1c47","ios":"levelo://app?vid=410d39fc-7278-48e8-93b5-c3e6154e1c47"},"vehicle_type_id":"4","last_reported":1690618072,"current_range_meters":11600,"station_id":"ce4bgjh2rcd13ifvqbf0","pricing_plan_id":"free"},{"bike_id":"5f5de03c-9d54-48e4-8369-a098d73bbfd9","system_id":"levelo_inurba_marseille","lat":43.293789,"lon":5.378466,"is_reserved":false,"is_disabled":false,"rental_uris":{"android":"levelo://app?vid=5f5de03c-9d54-48e4-8369-a098d73bbfd9","ios":"levelo://app?vid=5f5de03c-9d54-48e4-8369-a098d73bbfd9"},"vehicle_type_id":"4","last_reported":1690618072,"current_range_meters":19600,"station_id":"ce4bho92rcd13ifvqh3g","pricing_plan_id":"free"},{"bike_id":"0af41a13-6785-48d6-a6a7-02f9efbc7041","system_id":"levelo_inurba_marseille","lat":43.2936,"lon":5.37835,"is_reserved":false,"is_disabled":false,"rental_uris":{"android":"levelo://app?vid=0af41a13-6785-48d6-a6a7-02f9efbc7041","ios":"levelo://app?vid=0af41a13-6785-48d6-a6a7-02f9efbc7041"},"vehicle_type_id":"4","last_reported":1690618072,"current_range_meters":27200,"station_id":"ce4bgjh2rcd13ifvqbf0","pricing_plan_id":"free"},{"bike_id":"8c07aae6-fe55-4bbb-b301-f1e915839595","system_id":"levelo_inurba_marseille","lat":43.2936,"lon":5.37835,"is_reserved":false,"is_disabled":false,"rental_uris":{"android":"levelo://app?vid=8c07aae6-fe55-4bbb-b301-f1e915839595","ios":"levelo://app?vid=8c07aae6-fe55-4bbb-b301-f1e915839595"},"vehicle_type_id":"4","last_reported":1690618072,"current_range_meters":31600,"station_id":"ce4bgjh2rcd13ifvqbf0","pricing_plan_id":"free"},{"bike_id":"5a9f8a1c-ae34-4e79-96cf-f811bf8a4fda","system_id":"levelo_inurba_marseille","lat":43.2936,"lon":5.37835,"is_reserved":false,"is_disabled":false,"rental_uris":{"android":"levelo://app?vid=5a9f8a1c-ae34-4e79-96cf-f811bf8a4fda","ios":"levelo://app?vid=5a9f8a1c-ae34-4e79-96cf-f811bf8a4fda"},"vehicle_type_id":"4","last_reported":1690618072,"current_range_meters":24800,"station_id":"ce4bgjh2rcd13ifvqbf0","pricing_plan_id":"free"},{"bike_id":"90439357-4417-43ce-ab2b-efc2c937e9c4","system_id":"levelo_inurba_marseille","lat":43.2936,"lon":5.37835,"is_reserved":false,"is_disabled":false,"rental_uris":{"android":"levelo://app?vid=90439357-4417-43ce-ab2b-efc2c937e9c4","ios":"levelo://app?vid=90439357-4417-43ce-ab2b-efc2c937e9c4"},"vehicle_type_id":"4","last_reported":1690618072,"current_range_meters":23600,"station_id":"ce4bgjh2rcd13ifvqbf0","pricing_plan_id":"free"},{"bike_id":"25b8cc7d-6237-4320-baf5-8161773c641d","system_id":"levelo_inurba_marseille","lat":43.2936,"lon":5.37835,"is_reserved":false,"is_disabled":false,"rental_uris":{"android":"levelo://app?vid=25b8cc7d-6237-4320-baf5-8161773c641d","ios":"levelo://app?vid=25b8cc7d-6237-4320-baf5-8161773c641d"},"vehicle_type_id":"4","last_reported":1690618072,"current_range_meters":31600,"station_id":"ce4bgjh2rcd13ifvqbf0","pricing_plan_id":"free"},{"bike_id":"212a97fa-f682-4776-a1b2-2155c8a47f01","system_id":"levelo_inurba_marseille","lat":43.2936,"lon":5.37835,"is_reserved":false,"is_disabled":false,"rental_uris":{"android":"levelo://app?vid=212a97fa-f682-4776-a1b2-2155c8a47f01","ios":"levelo://app?vid=212a97fa-f682-4776-a1b2-2155c8a47f01"},"vehicle_type_id":"4","last_reported":1690618072,"current_range_meters":31600,"station_id":"ce4bgjh2rcd13ifvqbf0","pricing_plan_id":"free"},{"bike_id":"41f18245-b931-40ff-88ba-bc3a02775d53","system_id":"levelo_inurba_marseille","lat":43.2936,"lon":5.37835,"is_reserved":false,"is_disabled":false,"rental_uris":{"android":"levelo://app?vid=41f18245-b931-40ff-88ba-bc3a02775d53","ios":"levelo://app?vid=41f18245-b931-40ff-88ba-bc3a02775d53"},"vehicle_type_id":"4","last_reported":1690618072,"current_range_meters":30000,"station_id":"ce4bgjh2rcd13ifvqbf0","pricing_plan_id":"free"},{"bike_id":"1274a043-9134-4fb3-b40c-98ed4f056ca0","system_id":"levelo_inurba_marseille","lat":43.2936,"lon":5.37835,"is_reserved":false,"is_disabled":false,"rental_uris":{"android":"levelo://app?vid=1274a043-9134-4fb3-b40c-98ed4f056ca0","ios":"levelo://app?vid=1274a043-9134-4fb3-b40c-98ed4f056ca0"},"vehicle_type_id":"4","last_reported":1690618072,"current_range_meters":25200,"station_id":"ce4bgjh2rcd13ifvqbf0","pricing_plan_id":"free"},{"bike_id":"b79598b5-b140-4bdf-8b98-df86e34c4aec","system_id":"levelo_inurba_marseille","lat":43.292311,"lon":5.360731,"is_reserved":false,"is_disabled":false,"rental_uris":{"android":"levelo://app?vid=b79598b5-b140-4bdf-8b98-df86e34c4aec","ios":"levelo://app?vid=b79598b5-b140-4bdf-8b98-df86e34c4aec"},"vehicle_type_id":"4","last_reported":1690618072,"current_range_meters":26400,"station_id":"ce4bhbh2rcd13ifvqeqg","pricing_plan_id":"free"},{"bike_id":"70ff3a94-fa42-4a8f-9437-173b6a523f78","system_id":"levelo_inurba_marseille","lat":43.29508,"lon":5.3827,"is_reserved":false,"is_disabled":false,"rental_uris":{"android":"levelo://app?vid=70ff3a94-fa42-4a8f-9437-173b6a523f78","ios":"levelo://app?vid=70ff3a94-fa42-4a8f-9437-173b6a523f78"},"vehicle_type_id":"4","last_reported":1690618072,"current_range_meters":13200,"station_id":"","pricing_plan_id":"free"},{"bike_id":"19841995-e06d-422f-bc82-e1b0f486720c","system_id":"levelo_inurba_marseille","lat":43.292663,"lon":5.376389,"is_reserved":false,"is_disabled":false,"rental_uris":{"android":"levelo://app?vid=19841995-e06d-422f-bc82-e1b0f486720c","ios":"levelo://app?vid=19841995-e06d-422f-bc82-e1b0f486720c"},"vehicle_type_id":"4","last_reported":1690618072,"current_range_meters":19600,"station_id":"ce4bgi12rcd13ifvqb80","pricing_plan_id":"free"},{"bike_id":"2a8638c3-c31f-43a3-9fde-2c3c2181327b","system_id":"levelo_inurba_marseille","lat":43.298764,"lon":5.388973,"is_reserved":false,"is_disabled":false,"rental_uris":{"android":"levelo://app?vid=2a8638c3-c31f-43a3-9fde-2c3c2181327b","ios":"levelo://app?vid=2a8638c3-c31f-43a3-9fde-2c3c2181327b"},"vehicle_type_id":"4","last_reported":1690618072,"current_range_meters":31600,"station_id":"ce4bh392rcd13ifvqdl0","pricing_plan_id":"free"},{"bike_id":"819b8f3f-84cb-4554-9758-405550cd340a","system_id":"levelo_inurba_marseille","lat":43.291671,"lon":5.371575,"is_reserved":false,"is_disabled":false,"rental_uris":{"android":"levelo://app?vid=819b8f3f-84cb-4554-9758-405550cd340a","ios":"levelo://app?vid=819b8f3f-84cb-4554-9758-405550cd340a"},"vehicle_type_id":"4","last_reported":1690618072,"current_range_meters":30400,"station_id":"ce4bha92rcd13ifvqeh0","pricing_plan_id":"free"},{"bike_id":"9a2efd34-764a-4666-b1b2-cc2b21fdb222","system_id":"levelo_inurba_marseille","lat":43.291675,"lon":5.371583,"is_reserved":false,"is_disabled":false,"rental_uris":{"android":"levelo://app?vid=9a2efd34-764a-4666-b1b2-cc2b21fdb222","ios":"levelo://app?vid=9a2efd34-764a-4666-b1b2-cc2b21fdb222"},"vehicle_type_id":"4","last_reported":1690618072,"current_range_meters":25200,"station_id":"ce4bha92rcd13ifvqeh0","pricing_plan_id":"free"},{"bike_id":"c1283aae-a5b2-4b88-b6f5-7d7481de71e2","system_id":"levelo_inurba_marseille","lat":43.29432,"lon":5.38278,"is_reserved":false,"is_disabled":false,"rental_uris":{"android":"levelo://app?vid=c1283aae-a5b2-4b88-b6f5-7d7481de71e2","ios":"levelo://app?vid=c1283aae-a5b2-4b88-b6f5-7d7481de71e2"},"vehicle_type_id":"4","last_reported":1690618072,"current_range_meters":9600,"station_id":"","pricing_plan_id":"free"},{"bike_id":"9de3b6b9-2c23-4d5d-89a1-9f0713b37eac","system_id":"levelo_inurba_marseille","lat":43.29196,"lon":5.35807,"is_reserved":false,"is_disabled":false,"rental_uris":{"android":"levelo://app?vid=9de3b6b9-2c23-4d5d-89a1-9f0713b37eac","ios":"levelo://app?vid=9de3b6b9-2c23-4d5d-89a1-9f0713b37eac"},"vehicle_type_id":"4","last_reported":1690618072,"current_range_meters":22800,"station_id":"ce4bhb12rcd13ifvqel0","pricing_plan_id":"free"},{"bike_id":"9ebf5990-d702-4cdd-a089-8ede900188f7","system_id":"levelo_inurba_marseille","lat":43.309038,"lon":5.396546,"is_reserved":false,"is_disabled":false,"rental_uris":{"android":"levelo://app?vid=9ebf5990-d702-4cdd-a089-8ede900188f7","ios":"levelo://app?vid=9ebf5990-d702-4cdd-a089-8ede900188f7"},"vehicle_type_id":"4","last_reported":1690618072,"current_range_meters":27600,"station_id":"ce4bh012rcd13ifvqcv0","pricing_plan_id":"free"},{"bike_id":"fa47b82b-35c8-496d-9043-0c1bf4c03aa8","system_id":"levelo_inurba_marseille","lat":43.30884,"lon":5.39641,"is_reserved":false,"is_disabled":false,"rental_uris":{"android":"levelo://app?vid=fa47b82b-35c8-496d-9043-0c1bf4c03aa8","ios":"levelo://app?vid=fa47b82b-35c8-496d-9043-0c1bf4c03aa8"},"vehicle_type_id":"4","last_reported":1690618072,"current_range_meters":7600,"station_id":"ce4bh012rcd13ifvqcv0","pricing_plan_id":"free"},{"bike_id":"2cdc911a-dca8-4a53-a098-97329374a509","system_id":"levelo_inurba_marseille","lat":43.2919,"lon":5.35807,"is_reserved":false,"is_disabled":false,"rental_uris":{"android":"levelo://app?vid=2cdc911a-dca8-4a53-a098-97329374a509","ios":"levelo://app?vid=2cdc911a-dca8-4a53-a098-97329374a509"},"vehicle_type_id":"4","last_reported":1690618072,"current_range_meters":15200,"station_id":"ce4bhb12rcd13ifvqel0","pricing_plan_id":"free"},{"bike_id":"78b01371-86f8-4181-a1f4-42051334c315","system_id":"levelo_inurba_marseille","lat":43.313291,"lon":5.396838,"is_reserved":false,"is_disabled":false,"rental_uris":{"android":"levelo://app?vid=78b01371-86f8-4181-a1f4-42051334c315","ios":"levelo://app?vid=78b01371-86f8-4181-a1f4-42051334c315"},"vehicle_type_id":"4","last_reported":1690618072,"current_range_meters":24000,"station_id":"ce4bgvp2rcd13ifvqcu0","pricing_plan_id":"free"},{"bike_id":"17f3509a-2d58-4042-a0dc-2ec66b1ede9a","system_id":"levelo_inurba_marseille","lat":43.291994,"lon":5.357886,"is_reserved":false,"is_disabled":false,"rental_uris":{"android":"levelo://app?vid=17f3509a-2d58-4042-a0dc-2ec66b1ede9a","ios":"levelo://app?vid=17f3509a-2d58-4042-a0dc-2ec66b1ede9a"},"vehicle_type_id":"4","last_reported":1690618072,"current_range_meters":19200,"station_id":"ce4bhb12rcd13ifvqel0","pricing_plan_id":"free"},{"bike_id":"40e729da-e5ce-4e62-a15f-dd93630cee1b","system_id":"levelo_inurba_marseille","lat":43.29193,"lon":5.35792,"is_reserved":false,"is_disabled":false,"rental_uris":{"android":"levelo://app?vid=40e729da-e5ce-4e62-a15f-dd93630cee1b","ios":"levelo://app?vid=40e729da-e5ce-4e62-a15f-dd93630cee1b"},"vehicle_type_id":"4","last_reported":1690618072,"current_range_meters":20400,"station_id":"ce4bhb12rcd13ifvqel0","pricing_plan_id":"free"},{"bike_id":"d32938be-b3e7-4b21-b5ce-d79edcbe3077","system_id":"levelo_inurba_marseille","lat":43.31328,"lon":5.39692,"is_reserved":false,"is_disabled":false,"rental_uris":{"android":"levelo://app?vid=d32938be-b3e7-4b21-b5ce-d79edcbe3077","ios":"levelo://app?vid=d32938be-b3e7-4b21-b5ce-d79edcbe3077"},"vehicle_type_id":"4","last_reported":1690618072,"current_range_meters":21600,"station_id":"ce4bgvp2rcd13ifvqcu0","pricing_plan_id":"free"},{"bike_id":"7305f0ae-51cf-4ef4-882d-4aa18b9c8dd4","system_id":"levelo_inurba_marseille","lat":43.313291,"lon":5.396838,"is_reserved":false,"is_disabled":false,"rental_uris":{"android":"levelo://app?vid=7305f0ae-51cf-4ef4-882d-4aa18b9c8dd4","ios":"levelo://app?vid=7305f0ae-51cf-4ef4-882d-4aa18b9c8dd4"},"vehicle_type_id":"4","last_reported":1690618072,"current_range_meters":18400,"station_id":"ce4bgvp2rcd13ifvqcu0","pricing_plan_id":"free"},{"bike_id":"24aec5e0-56e4-4fbc-b0bc-e64bf14ce84d","system_id":"levelo_inurba_marseille","lat":43.30883,"lon":5.39652,"is_reserved":false,"is_disabled":false,"rental_uris":{"android":"levelo://app?vid=24aec5e0-56e4-4fbc-b0bc-e64bf14ce84d","ios":"levelo://app?vid=24aec5e0-56e4-4fbc-b0bc-e64bf14ce84d"},"vehicle_type_id":"4","last_reported":1690618072,"current_range_meters":6400,"station_id":"ce4bh012rcd13ifvqcv0","pricing_plan_id":"free"},{"bike_id":"9c88c1ee-1cd1-4fa2-b89e-e60c2e9589b4","system_id":"levelo_inurba_marseille","lat":43.29431,"lon":5.38413,"is_reserved":false,"is_disabled":false,"rental_uris":{"android":"levelo://app?vid=9c88c1ee-1cd1-4fa2-b89e-e60c2e9589b4","ios":"levelo://app?vid=9c88c1ee-1cd1-4fa2-b89e-e60c2e9589b4"},"vehicle_type_id":"4","last_reported":1690618072,"current_range_meters":3600,"station_id":"","pricing_plan_id":"free"},{"bike_id":"b1cb08b8-15e3-4100-b5d0-8615e80fd5b1","system_id":"levelo_inurba_marseille","lat":43.289184,"lon":5.366408,"is_reserved":false,"is_disabled":false,"rental_uris":{"android":"levelo://app?vid=b1cb08b8-15e3-4100-b5d0-8615e80fd5b1","ios":"levelo://app?vid=b1cb08b8-15e3-4100-b5d0-8615e80fd5b1"},"vehicle_type_id":"4","last_reported":1690618072,"current_range_meters":30800,"station_id":"ce4bhap2rcd13ifvqek0","pricing_plan_id":"free"},{"bike_id":"db542178-49e9-4be0-880f-0b79a8fe8f44","system_id":"levelo_inurba_marseille","lat":43.29266,"lon":5.38435,"is_reserved":false,"is_disabled":false,"rental_uris":{"android":"levelo://app?vid=db542178-49e9-4be0-880f-0b79a8fe8f44","ios":"levelo://app?vid=db542178-49e9-4be0-880f-0b79a8fe8f44"},"vehicle_type_id":"4","last_reported":1690618072,"current_range_meters":31200,"station_id":"ce4bh692rcd13ifvqea0","pricing_plan_id":"free"},{"bike_id":"aedce2b0-d23b-4f44-bbfe-1fb37fbd10f2","system_id":"levelo_inurba_marseille","lat":43.2926,"lon":5.38425,"is_reserved":false,"is_disabled":false,"rental_uris":{"android":"levelo://app?vid=aedce2b0-d23b-4f44-bbfe-1fb37fbd10f2","ios":"levelo://app?vid=aedce2b0-d23b-4f44-bbfe-1fb37fbd10f2"},"vehicle_type_id":"4","last_reported":1690618072,"current_range_meters":25200,"station_id":"ce4bh692rcd13ifvqea0","pricing_plan_id":"free"},{"bike_id":"b4268ce4-22da-48ca-95d6-1a2cdf0b51d9","system_id":"levelo_inurba_marseille","lat":43.29268,"lon":5.38443,"is_reserved":false,"is_disabled":false,"rental_uris":{"android":"levelo://app?vid=b4268ce4-22da-48ca-95d6-1a2cdf0b51d9","ios":"levelo://app?vid=b4268ce4-22da-48ca-95d6-1a2cdf0b51d9"},"vehicle_type_id":"4","last_reported":1690618072,"current_range_meters":30400,"station_id":"ce4bh692rcd13ifvqea0","pricing_plan_id":"free"},{"bike_id":"07f0552c-2235-48d9-8bc7-a3f3f2db1cc2","system_id":"levelo_inurba_marseille","lat":43.29259,"lon":5.38439,"is_reserved":false,"is_disabled":false,"rental_uris":{"android":"levelo://app?vid=07f0552c-2235-48d9-8bc7-a3f3f2db1cc2","ios":"levelo://app?vid=07f0552c-2235-48d9-8bc7-a3f3f2db1cc2"},"vehicle_type_id":"4","last_reported":1690618072,"current_range_meters":28000,"station_id":"ce4bh692rcd13ifvqea0","pricing_plan_id":"free"},{"bike_id":"fe4009b9-efb1-423f-b864-35656ff3e6df","system_id":"levelo_inurba_marseille","lat":43.304296,"lon":5.397513,"is_reserved":false,"is_disabled":false,"rental_uris":{"android":"levelo://app?vid=fe4009b9-efb1-423f-b864-35656ff3e6df","ios":"levelo://app?vid=fe4009b9-efb1-423f-b864-35656ff3e6df"},"vehicle_type_id":"4","last_reported":1690618072,"current_range_meters":31200,"station_id":"ce4bh092rcd13ifvqd20","pricing_plan_id":"free"},{"bike_id":"682b3259-709c-4fc8-945b-c501c1d19241","system_id":"levelo_inurba_marseille","lat":43.33039,"lon":5.38914,"is_reserved":false,"is_disabled":false,"rental_uris":{"android":"levelo://app?vid=682b3259-709c-4fc8-945b-c501c1d19241","ios":"levelo://app?vid=682b3259-709c-4fc8-945b-c501c1d19241"},"vehicle_type_id":"4","last_reported":1690618072,"current_range_meters":31200,"station_id":"ce4bhr92rcd13ifvqhrg","pricing_plan_id":"free"},{"bike_id":"91cebabc-bf0e-4672-a6f7-9cb2834bc4ce","system_id":"levelo_inurba_marseille","lat":43.290104,"lon":5.356111,"is_reserved":false,"is_disabled":false,"rental_uris":{"android":"levelo://app?vid=91cebabc-bf0e-4672-a6f7-9cb2834bc4ce","ios":"levelo://app?vid=91cebabc-bf0e-4672-a6f7-9cb2834bc4ce"},"vehicle_type_id":"4","last_reported":1690618072,"current_range_meters":23200,"station_id":"ce4bhb92rcd13ifvqen0","pricing_plan_id":"free"},{"bike_id":"b53dac02-6eb0-4210-8d4c-f4327c1b6930","system_id":"levelo_inurba_marseille","lat":43.33051,"lon":5.38903,"is_reserved":false,"is_disabled":false,"rental_uris":{"android":"levelo://app?vid=b53dac02-6eb0-4210-8d4c-f4327c1b6930","ios":"levelo://app?vid=b53dac02-6eb0-4210-8d4c-f4327c1b6930"},"vehicle_type_id":"4","last_reported":1690618072,"current_range_meters":17200,"station_id":"ce4bhr92rcd13ifvqhrg","pricing_plan_id":"free"},{"bike_id":"d4d8f52d-446e-4b74-8179-302a8136c6e3","system_id":"levelo_inurba_marseille","lat":43.290104,"lon":5.356111,"is_reserved":false,"is_disabled":false,"rental_uris":{"android":"levelo://app?vid=d4d8f52d-446e-4b74-8179-302a8136c6e3","ios":"levelo://app?vid=d4d8f52d-446e-4b74-8179-302a8136c6e3"},"vehicle_type_id":"4","last_reported":1690618072,"current_range_meters":27600,"station_id":"ce4bhb92rcd13ifvqen0","pricing_plan_id":"free"},{"bike_id":"c39b50c7-de45-478e-99d8-a497cccb0f5d","system_id":"levelo_inurba_marseille","lat":43.290104,"lon":5.356111,"is_reserved":false,"is_disabled":false,"rental_uris":{"android":"levelo://app?vid=c39b50c7-de45-478e-99d8-a497cccb0f5d","ios":"levelo://app?vid=c39b50c7-de45-478e-99d8-a497cccb0f5d"},"vehicle_type_id":"4","last_reported":1690618072,"current_range_meters":12000,"station_id":"ce4bhb92rcd13ifvqen0","pricing_plan_id":"free"},{"bike_id":"a24fa290-3699-4bf8-b52b-781e84d5d80b","system_id":"levelo_inurba_marseille","lat":43.33041,"lon":5.38924,"is_reserved":false,"is_disabled":false,"rental_uris":{"android":"levelo://app?vid=a24fa290-3699-4bf8-b52b-781e84d5d80b","ios":"levelo://app?vid=a24fa290-3699-4bf8-b52b-781e84d5d80b"},"vehicle_type_id":"4","last_reported":1690618072,"current_range_meters":19600,"station_id":"ce4bhr92rcd13ifvqhrg","pricing_plan_id":"free"},{"bike_id":"7839e72f-b071-4695-93cf-29a2a1a07b7a","system_id":"levelo_inurba_marseille","lat":43.33048,"lon":5.38914,"is_reserved":false,"is_disabled":false,"rental_uris":{"android":"levelo://app?vid=7839e72f-b071-4695-93cf-29a2a1a07b7a","ios":"levelo://app?vid=7839e72f-b071-4695-93cf-29a2a1a07b7a"},"vehicle_type_id":"4","last_reported":1690618072,"current_range_meters":31200,"station_id":"ce4bhr92rcd13ifvqhrg","pricing_plan_id":"free"},{"bike_id":"1e1a901c-181a-4f16-8c1b-bdc29be7558b","system_id":"levelo_inurba_marseille","lat":43.290104,"lon":5.356111,"is_reserved":false,"is_disabled":false,"rental_uris":{"android":"levelo://app?vid=1e1a901c-181a-4f16-8c1b-bdc29be7558b","ios":"levelo://app?vid=1e1a901c-181a-4f16-8c1b-bdc29be7558b"},"vehicle_type_id":"4","last_reported":1690618072,"current_range_meters":23200,"station_id":"ce4bhb92rcd13ifvqen0","pricing_plan_id":"free"},{"bike_id":"430b8176-bf21-4a74-9122-465cf15a3d59","system_id":"levelo_inurba_marseille","lat":43.290103,"lon":5.356114,"is_reserved":false,"is_disabled":false,"rental_uris":{"android":"levelo://app?vid=430b8176-bf21-4a74-9122-465cf15a3d59","ios":"levelo://app?vid=430b8176-bf21-4a74-9122-465cf15a3d59"},"vehicle_type_id":"4","last_reported":1690618072,"current_range_meters":20400,"station_id":"ce4bhb92rcd13ifvqen0","pricing_plan_id":"free"},{"bike_id":"d8132d11-7d1d-4eb1-907e-a79177a55510","system_id":"levelo_inurba_marseille","lat":43.330495,"lon":5.38913,"is_reserved":false,"is_disabled":false,"rental_uris":{"android":"levelo://app?vid=d8132d11-7d1d-4eb1-907e-a79177a55510","ios":"levelo://app?vid=d8132d11-7d1d-4eb1-907e-a79177a55510"},"vehicle_type_id":"4","last_reported":1690618072,"current_range_meters":16800,"station_id":"ce4bhr92rcd13ifvqhrg","pricing_plan_id":"free"},{"bike_id":"2489b70f-08d6-42c9-9d02-a4bee71d98fa","system_id":"levelo_inurba_marseille","lat":43.290103,"lon":5.356114,"is_reserved":false,"is_disabled":false,"rental_uris":{"android":"levelo://app?vid=2489b70f-08d6-42c9-9d02-a4bee71d98fa","ios":"levelo://app?vid=2489b70f-08d6-42c9-9d02-a4bee71d98fa"},"vehicle_type_id":"4","last_reported":1690618072,"current_range_meters":30800,"station_id":"ce4bhb92rcd13ifvqen0","pricing_plan_id":"free"},{"bike_id":"a26b1757-f55b-4c58-9229-94717743657e","system_id":"levelo_inurba_marseille","lat":43.290104,"lon":5.356111,"is_reserved":false,"is_disabled":false,"rental_uris":{"android":"levelo://app?vid=a26b1757-f55b-4c58-9229-94717743657e","ios":"levelo://app?vid=a26b1757-f55b-4c58-9229-94717743657e"},"vehicle_type_id":"4","last_reported":1690618072,"current_range_meters":11200,"station_id":"ce4bhb92rcd13ifvqen0","pricing_plan_id":"free"},{"bike_id":"879ff28f-9955-4d07-81ea-a435c006b0e2","system_id":"levelo_inurba_marseille","lat":43.290103,"lon":5.356114,"is_reserved":false,"is_disabled":false,"rental_uris":{"android":"levelo://app?vid=879ff28f-9955-4d07-81ea-a435c006b0e2","ios":"levelo://app?vid=879ff28f-9955-4d07-81ea-a435c006b0e2"},"vehicle_type_id":"4","last_reported":1690618072,"current_range_meters":22800,"station_id":"ce4bhb92rcd13ifvqen0","pricing_plan_id":"free"},{"bike_id":"928bbe71-4560-40ab-8b2b-640c88190cbf","system_id":"levelo_inurba_marseille","lat":43.290104,"lon":5.356111,"is_reserved":false,"is_disabled":false,"rental_uris":{"android":"levelo://app?vid=928bbe71-4560-40ab-8b2b-640c88190cbf","ios":"levelo://app?vid=928bbe71-4560-40ab-8b2b-640c88190cbf"},"vehicle_type_id":"4","last_reported":1690618072,"current_range_meters":30400,"station_id":"ce4bhb92rcd13ifvqen0","pricing_plan_id":"free"},{"bike_id":"2c6f038e-6f1e-4693-8be5-3e2e2de6bf92","system_id":"levelo_inurba_marseille","lat":43.33045,"lon":5.38923,"is_reserved":false,"is_disabled":false,"rental_uris":{"android":"levelo://app?vid=2c6f038e-6f1e-4693-8be5-3e2e2de6bf92","ios":"levelo://app?vid=2c6f038e-6f1e-4693-8be5-3e2e2de6bf92"},"vehicle_type_id":"4","last_reported":1690618072,"current_range_meters":15600,"station_id":"ce4bhr92rcd13ifvqhrg","pricing_plan_id":"free"},{"bike_id":"abee012e-362a-4e29-9f10-a6b82e43524c","system_id":"levelo_inurba_marseille","lat":43.290103,"lon":5.356114,"is_reserved":false,"is_disabled":false,"rental_uris":{"android":"levelo://app?vid=abee012e-362a-4e29-9f10-a6b82e43524c","ios":"levelo://app?vid=abee012e-362a-4e29-9f10-a6b82e43524c"},"vehicle_type_id":"4","last_reported":1690618072,"current_range_meters":30000,"station_id":"ce4bhb92rcd13ifvqen0","pricing_plan_id":"free"},{"bike_id":"e51f6730-8d45-4620-a1d1-1c4d20a42624","system_id":"levelo_inurba_marseille","lat":43.290104,"lon":5.356111,"is_reserved":false,"is_disabled":false,"rental_uris":{"android":"levelo://app?vid=e51f6730-8d45-4620-a1d1-1c4d20a42624","ios":"levelo://app?vid=e51f6730-8d45-4620-a1d1-1c4d20a42624"},"vehicle_type_id":"4","last_reported":1690618072,"current_range_meters":8800,"station_id":"ce4bhb92rcd13ifvqen0","pricing_plan_id":"free"},{"bike_id":"1f0144dc-79c7-4a8d-8c3b-911c9ea6419e","system_id":"levelo_inurba_marseille","lat":43.290104,"lon":5.356111,"is_reserved":false,"is_disabled":false,"rental_uris":{"android":"levelo://app?vid=1f0144dc-79c7-4a8d-8c3b-911c9ea6419e","ios":"levelo://app?vid=1f0144dc-79c7-4a8d-8c3b-911c9ea6419e"},"vehicle_type_id":"4","last_reported":1690618072,"current_range_meters":22800,"station_id":"ce4bhb92rcd13ifvqen0","pricing_plan_id":"free"},{"bike_id":"c62ecc0f-9129-4e6b-b577-8b3c85faf4a2","system_id":"levelo_inurba_marseille","lat":43.290104,"lon":5.356111,"is_reserved":false,"is_disabled":false,"rental_uris":{"android":"levelo://app?vid=c62ecc0f-9129-4e6b-b577-8b3c85faf4a2","ios":"levelo://app?vid=c62ecc0f-9129-4e6b-b577-8b3c85faf4a2"},"vehicle_type_id":"4","last_reported":1690618072,"current_range_meters":29200,"station_id":"ce4bhb92rcd13ifvqen0","pricing_plan_id":"free"},{"bike_id":"7e8f34b3-a6f9-4b0e-b56d-db02b187c8a5","system_id":"levelo_inurba_marseille","lat":43.290104,"lon":5.356111,"is_reserved":false,"is_disabled":false,"rental_uris":{"android":"levelo://app?vid=7e8f34b3-a6f9-4b0e-b56d-db02b187c8a5","ios":"levelo://app?vid=7e8f34b3-a6f9-4b0e-b56d-db02b187c8a5"},"vehicle_type_id":"4","last_reported":1690618072,"current_range_meters":29600,"station_id":"ce4bhb92rcd13ifvqen0","pricing_plan_id":"free"},{"bike_id":"91fec792-a5a5-4820-af7d-3c6be3109af2","system_id":"levelo_inurba_marseille","lat":43.290104,"lon":5.356111,"is_reserved":false,"is_disabled":false,"rental_uris":{"android":"levelo://app?vid=91fec792-a5a5-4820-af7d-3c6be3109af2","ios":"levelo://app?vid=91fec792-a5a5-4820-af7d-3c6be3109af2"},"vehicle_type_id":"4","last_reported":1690618072,"current_range_meters":31600,"station_id":"ce4bhb92rcd13ifvqen0","pricing_plan_id":"free"},{"bike_id":"cadc4be8-c184-483b-96df-d61a9c00dfb6","system_id":"levelo_inurba_marseille","lat":43.290104,"lon":5.356111,"is_reserved":false,"is_disabled":false,"rental_uris":{"android":"levelo://app?vid=cadc4be8-c184-483b-96df-d61a9c00dfb6","ios":"levelo://app?vid=cadc4be8-c184-483b-96df-d61a9c00dfb6"},"vehicle_type_id":"4","last_reported":1690618072,"current_range_meters":20400,"station_id":"ce4bhb92rcd13ifvqen0","pricing_plan_id":"free"},{"bike_id":"c42a46f1-fd0d-4050-b5c4-5fe9355c87bf","system_id":"levelo_inurba_marseille","lat":43.290104,"lon":5.356111,"is_reserved":false,"is_disabled":false,"rental_uris":{"android":"levelo://app?vid=c42a46f1-fd0d-4050-b5c4-5fe9355c87bf","ios":"levelo://app?vid=c42a46f1-fd0d-4050-b5c4-5fe9355c87bf"},"vehicle_type_id":"4","last_reported":1690618072,"current_range_meters":30000,"station_id":"ce4bhb92rcd13ifvqen0","pricing_plan_id":"free"},{"bike_id":"536b877c-9edf-4597-be6e-dfa8564c454d","system_id":"levelo_inurba_marseille","lat":43.290103,"lon":5.356114,"is_reserved":false,"is_disabled":false,"rental_uris":{"android":"levelo://app?vid=536b877c-9edf-4597-be6e-dfa8564c454d","ios":"levelo://app?vid=536b877c-9edf-4597-be6e-dfa8564c454d"},"vehicle_type_id":"4","last_reported":1690618072,"current_range_meters":31200,"station_id":"ce4bhb92rcd13ifvqen0","pricing_plan_id":"free"},{"bike_id":"2c384943-214a-4153-acb8-0a7c64051c44","system_id":"levelo_inurba_marseille","lat":43.33035,"lon":5.38955,"is_reserved":false,"is_disabled":false,"rental_uris":{"android":"levelo://app?vid=2c384943-214a-4153-acb8-0a7c64051c44","ios":"levelo://app?vid=2c384943-214a-4153-acb8-0a7c64051c44"},"vehicle_type_id":"4","last_reported":1690618072,"current_range_meters":0,"station_id":"ce4bhr92rcd13ifvqhrg","pricing_plan_id":"free"},{"bike_id":"05bf2cc0-c80b-4d3b-9303-5cea93148e89","system_id":"levelo_inurba_marseille","lat":43.29104,"lon":5.38145,"is_reserved":false,"is_disabled":false,"rental_uris":{"android":"levelo://app?vid=05bf2cc0-c80b-4d3b-9303-5cea93148e89","ios":"levelo://app?vid=05bf2cc0-c80b-4d3b-9303-5cea93148e89"},"vehicle_type_id":"4","last_reported":1690618072,"current_range_meters":28400,"station_id":"ce4bh512rcd13ifvqe2g","pricing_plan_id":"free"},{"bike_id":"8dc6f094-41a3-4d46-a7d2-972b97c8f573","system_id":"levelo_inurba_marseille","lat":43.297815,"lon":5.393548,"is_reserved":false,"is_disabled":false,"rental_uris":{"android":"levelo://app?vid=8dc6f094-41a3-4d46-a7d2-972b97c8f573","ios":"levelo://app?vid=8dc6f094-41a3-4d46-a7d2-972b97c8f573"},"vehicle_type_id":"4","last_reported":1690618072,"current_range_meters":31600,"station_id":"chh1huq6cuj3fo74tm60","pricing_plan_id":"free"},{"bike_id":"825ead53-1286-4d08-9ebb-847562ff05ec","system_id":"levelo_inurba_marseille","lat":43.297815,"lon":5.393548,"is_reserved":false,"is_disabled":false,"rental_uris":{"android":"levelo://app?vid=825ead53-1286-4d08-9ebb-847562ff05ec","ios":"levelo://app?vid=825ead53-1286-4d08-9ebb-847562ff05ec"},"vehicle_type_id":"4","last_reported":1690618072,"current_range_meters":31600,"station_id":"chh1huq6cuj3fo74tm60","pricing_plan_id":"free"},{"bike_id":"251be477-8be1-45cf-993b-b02aa04e3662","system_id":"levelo_inurba_marseille","lat":43.289743,"lon":5.378304,"is_reserved":false,"is_disabled":false,"rental_uris":{"android":"levelo://app?vid=251be477-8be1-45cf-993b-b02aa04e3662","ios":"levelo://app?vid=251be477-8be1-45cf-993b-b02aa04e3662"},"vehicle_type_id":"4","last_reported":1690618072,"current_range_meters":30800,"station_id":"ce4bh9p2rcd13ifvqed0","pricing_plan_id":"free"},{"bike_id":"db84e421-cd78-4b82-9834-0008f89b3b40","system_id":"levelo_inurba_marseille","lat":43.289743,"lon":5.378304,"is_reserved":false,"is_disabled":false,"rental_uris":{"android":"levelo://app?vid=db84e421-cd78-4b82-9834-0008f89b3b40","ios":"levelo://app?vid=db84e421-cd78-4b82-9834-0008f89b3b40"},"vehicle_type_id":"4","last_reported":1690618072,"current_range_meters":23200,"station_id":"ce4bh9p2rcd13ifvqed0","pricing_plan_id":"free"},{"bike_id":"9ba3c900-6f61-453b-80fb-7a77a4f3311d","system_id":"levelo_inurba_marseille","lat":43.290222,"lon":5.381277,"is_reserved":false,"is_disabled":false,"rental_uris":{"android":"levelo://app?vid=9ba3c900-6f61-453b-80fb-7a77a4f3311d","ios":"levelo://app?vid=9ba3c900-6f61-453b-80fb-7a77a4f3311d"},"vehicle_type_id":"4","last_reported":1690618072,"current_range_meters":31200,"station_id":"ce4bh4p2rcd13ifvqe1g","pricing_plan_id":"free"},{"bike_id":"dcb2eb92-7b72-4473-ab7d-a3f6ce3096fd","system_id":"levelo_inurba_marseille","lat":43.28856,"lon":5.358371,"is_reserved":false,"is_disabled":false,"rental_uris":{"android":"levelo://app?vid=dcb2eb92-7b72-4473-ab7d-a3f6ce3096fd","ios":"levelo://app?vid=dcb2eb92-7b72-4473-ab7d-a3f6ce3096fd"},"vehicle_type_id":"4","last_reported":1690618072,"current_range_meters":29200,"station_id":"ce4bhb12rcd13ifvqem0","pricing_plan_id":"free"},{"bike_id":"0a7b28a1-fc99-48d1-bd2c-d18a332b6eab","system_id":"levelo_inurba_marseille","lat":43.29025,"lon":5.38146,"is_reserved":false,"is_disabled":false,"rental_uris":{"android":"levelo://app?vid=0a7b28a1-fc99-48d1-bd2c-d18a332b6eab","ios":"levelo://app?vid=0a7b28a1-fc99-48d1-bd2c-d18a332b6eab"},"vehicle_type_id":"4","last_reported":1690618072,"current_range_meters":28800,"station_id":"ce4bh4p2rcd13ifvqe1g","pricing_plan_id":"free"},{"bike_id":"85c1b4d2-837a-4c20-bc86-e30cd9136880","system_id":"levelo_inurba_marseille","lat":43.28856,"lon":5.358371,"is_reserved":false,"is_disabled":false,"rental_uris":{"android":"levelo://app?vid=85c1b4d2-837a-4c20-bc86-e30cd9136880","ios":"levelo://app?vid=85c1b4d2-837a-4c20-bc86-e30cd9136880"},"vehicle_type_id":"4","last_reported":1690618072,"current_range_meters":20000,"station_id":"ce4bhb12rcd13ifvqem0","pricing_plan_id":"free"},{"bike_id":"11ac2954-b81c-49a6-af1d-87b7316a3271","system_id":"levelo_inurba_marseille","lat":43.290103,"lon":5.356114,"is_reserved":false,"is_disabled":false,"rental_uris":{"android":"levelo://app?vid=11ac2954-b81c-49a6-af1d-87b7316a3271","ios":"levelo://app?vid=11ac2954-b81c-49a6-af1d-87b7316a3271"},"vehicle_type_id":"4","last_reported":1690618072,"current_range_meters":27600,"station_id":"ce4bhb92rcd13ifvqen0","pricing_plan_id":"free"},{"bike_id":"faeccb1f-c622-429a-89f7-1c7f1b311421","system_id":"levelo_inurba_marseille","lat":43.31268,"lon":5.40162,"is_reserved":false,"is_disabled":false,"rental_uris":{"android":"levelo://app?vid=faeccb1f-c622-429a-89f7-1c7f1b311421","ios":"levelo://app?vid=faeccb1f-c622-429a-89f7-1c7f1b311421"},"vehicle_type_id":"4","last_reported":1690618072,"current_range_meters":20400,"station_id":"ce4bh092rcd13ifvqd30","pricing_plan_id":"free"},{"bike_id":"c439cc3f-e7a6-47af-8984-7a3fdb0de2c3","system_id":"levelo_inurba_marseille","lat":43.31271,"lon":5.40166,"is_reserved":false,"is_disabled":false,"rental_uris":{"android":"levelo://app?vid=c439cc3f-e7a6-47af-8984-7a3fdb0de2c3","ios":"levelo://app?vid=c439cc3f-e7a6-47af-8984-7a3fdb0de2c3"},"vehicle_type_id":"4","last_reported":1690618072,"current_range_meters":22400,"station_id":"ce4bh092rcd13ifvqd30","pricing_plan_id":"free"},{"bike_id":"775646ad-43e0-4a4e-88d3-7209fe565e86","system_id":"levelo_inurba_marseille","lat":43.31275,"lon":5.40169,"is_reserved":false,"is_disabled":false,"rental_uris":{"android":"levelo://app?vid=775646ad-43e0-4a4e-88d3-7209fe565e86","ios":"levelo://app?vid=775646ad-43e0-4a4e-88d3-7209fe565e86"},"vehicle_type_id":"4","last_reported":1690618072,"current_range_meters":30000,"station_id":"ce4bh092rcd13ifvqd30","pricing_plan_id":"free"},{"bike_id":"49008792-f17d-4771-b9d1-e1c337bc5a2c","system_id":"levelo_inurba_marseille","lat":43.30937,"lon":5.40139,"is_reserved":false,"is_disabled":false,"rental_uris":{"android":"levelo://app?vid=49008792-f17d-4771-b9d1-e1c337bc5a2c","ios":"levelo://app?vid=49008792-f17d-4771-b9d1-e1c337bc5a2c"},"vehicle_type_id":"4","last_reported":1690618072,"current_range_meters":22000,"station_id":"ce4bgvp2rcd13ifvqct0","pricing_plan_id":"free"},{"bike_id":"5339795f-3a20-48f5-aa16-92a6c75a1831","system_id":"levelo_inurba_marseille","lat":43.33747,"lon":5.37443,"is_reserved":false,"is_disabled":false,"rental_uris":{"android":"levelo://app?vid=5339795f-3a20-48f5-aa16-92a6c75a1831","ios":"levelo://app?vid=5339795f-3a20-48f5-aa16-92a6c75a1831"},"vehicle_type_id":"4","last_reported":1690618072,"current_range_meters":22400,"station_id":"","pricing_plan_id":"free"},{"bike_id":"408b0a09-cc02-476b-9b86-c0f586a52910","system_id":"levelo_inurba_marseille","lat":43.3375,"lon":5.37486,"is_reserved":false,"is_disabled":false,"rental_uris":{"android":"levelo://app?vid=408b0a09-cc02-476b-9b86-c0f586a52910","ios":"levelo://app?vid=408b0a09-cc02-476b-9b86-c0f586a52910"},"vehicle_type_id":"4","last_reported":1690618072,"current_range_meters":0,"station_id":"","pricing_plan_id":"free"},{"bike_id":"7bd35dfc-701d-4a94-84b9-312701e00f76","system_id":"levelo_inurba_marseille","lat":43.3375,"lon":5.37488,"is_reserved":false,"is_disabled":false,"rental_uris":{"android":"levelo://app?vid=7bd35dfc-701d-4a94-84b9-312701e00f76","ios":"levelo://app?vid=7bd35dfc-701d-4a94-84b9-312701e00f76"},"vehicle_type_id":"4","last_reported":1690618072,"current_range_meters":19600,"station_id":"","pricing_plan_id":"free"},{"bike_id":"59976df7-227f-4714-9cb2-afaf722434f6","system_id":"levelo_inurba_marseille","lat":43.33752,"lon":5.37487,"is_reserved":false,"is_disabled":false,"rental_uris":{"android":"levelo://app?vid=59976df7-227f-4714-9cb2-afaf722434f6","ios":"levelo://app?vid=59976df7-227f-4714-9cb2-afaf722434f6"},"vehicle_type_id":"4","last_reported":1690618072,"current_range_meters":9600,"station_id":"","pricing_plan_id":"free"},{"bike_id":"c49e5aca-8c9b-496f-880e-694096a73453","system_id":"levelo_inurba_marseille","lat":43.33753,"lon":5.37489,"is_reserved":false,"is_disabled":false,"rental_uris":{"android":"levelo://app?vid=c49e5aca-8c9b-496f-880e-694096a73453","ios":"levelo://app?vid=c49e5aca-8c9b-496f-880e-694096a73453"},"vehicle_type_id":"4","last_reported":1690618072,"current_range_meters":26000,"station_id":"","pricing_plan_id":"free"},{"bike_id":"e94a40bd-41f2-4faa-866b-ac3d88837e1a","system_id":"levelo_inurba_marseille","lat":43.3377,"lon":5.37412,"is_reserved":false,"is_disabled":false,"rental_uris":{"android":"levelo://app?vid=e94a40bd-41f2-4faa-866b-ac3d88837e1a","ios":"levelo://app?vid=e94a40bd-41f2-4faa-866b-ac3d88837e1a"},"vehicle_type_id":"4","last_reported":1690618072,"current_range_meters":30400,"station_id":"","pricing_plan_id":"free"},{"bike_id":"2650eb60-5101-4688-a692-d959b7814eb1","system_id":"levelo_inurba_marseille","lat":43.33763,"lon":5.37496,"is_reserved":false,"is_disabled":false,"rental_uris":{"android":"levelo://app?vid=2650eb60-5101-4688-a692-d959b7814eb1","ios":"levelo://app?vid=2650eb60-5101-4688-a692-d959b7814eb1"},"vehicle_type_id":"4","last_reported":1690618072,"current_range_meters":800,"station_id":"","pricing_plan_id":"free"},{"bike_id":"dc4ac4d9-ab34-464d-bf2b-1dd9f649bf87","system_id":"levelo_inurba_marseille","lat":43.290336,"lon":5.386425,"is_reserved":false,"is_disabled":false,"rental_uris":{"android":"levelo://app?vid=dc4ac4d9-ab34-464d-bf2b-1dd9f649bf87","ios":"levelo://app?vid=dc4ac4d9-ab34-464d-bf2b-1dd9f649bf87"},"vehicle_type_id":"4","last_reported":1690618072,"current_range_meters":4000,"station_id":"ce4bh4p2rcd13ifvqe0g","pricing_plan_id":"free"},{"bike_id":"62bde809-8cc0-4e29-8742-1dbefba553c1","system_id":"levelo_inurba_marseille","lat":43.286591,"lon":5.363346,"is_reserved":false,"is_disabled":false,"rental_uris":{"android":"levelo://app?vid=62bde809-8cc0-4e29-8742-1dbefba553c1","ios":"levelo://app?vid=62bde809-8cc0-4e29-8742-1dbefba553c1"},"vehicle_type_id":"4","last_reported":1690618072,"current_range_meters":24400,"station_id":"ce4bhah2rcd13ifvqej0","pricing_plan_id":"free"},{"bike_id":"75199276-b705-4ad7-b6a9-49aeaa84628a","system_id":"levelo_inurba_marseille","lat":43.286591,"lon":5.363346,"is_reserved":false,"is_disabled":false,"rental_uris":{"android":"levelo://app?vid=75199276-b705-4ad7-b6a9-49aeaa84628a","ios":"levelo://app?vid=75199276-b705-4ad7-b6a9-49aeaa84628a"},