{"last_updated":1700424408,"ttl":30,"version":"2.2","data":{"bikes":[{"bike_id":"499162d6-7fad-44c8-91f8-355c834834f6","system_id":"levelo_inurba_marseille","lat":43.313391,"lon":5.36706,"is_reserved":false,"is_disabled":false,"rental_uris":{"android":"levelo://app?vid=499162d6-7fad-44c8-91f8-355c834834f6","ios":"levelo://app?vid=499162d6-7fad-44c8-91f8-355c834834f6"},"vehicle_type_id":"4","last_reported":1700424408,"current_range_meters":25600,"station_id":"ce4bgr92rcd13ifvqc6g","pricing_plan_id":"free"},{"bike_id":"828636bd-c0d3-4dfe-b603-4896b9dc9286","system_id":"levelo_inurba_marseille","lat":43.312239,"lon":5.368562,"is_reserved":false,"is_disabled":false,"rental_uris":{"android":"levelo://app?vid=828636bd-c0d3-4dfe-b603-4896b9dc9286","ios":"levelo://app?vid=828636bd-c0d3-4dfe-b603-4896b9dc9286"},"vehicle_type_id":"4","last_reported":1700424408,"current_range_meters":8000,"station_id":"ce4bgl92rcd13ifvqbq0","pricing_plan_id":"free"},{"bike_id":"12e03b91-5087-4963-a1b2-5eb1fb02e307","system_id":"levelo_inurba_marseille","lat":43.312239,"lon":5.368562,"is_reserved":false,"is_disabled":false,"rental_uris":{"android":"levelo://app?vid=12e03b91-5087-4963-a1b2-5eb1fb02e307","ios":"levelo://app?vid=12e03b91-5087-4963-a1b2-5eb1fb02e307"},"vehicle_type_id":"4","last_reported":1700424408,"current_range_meters":24000,"station_id":"ce4bgl92rcd13ifvqbq0","pricing_plan_id":"free"},{"bike_id":"3475d204-43b6-43d9-b615-ca1d0d58200e","system_id":"levelo_inurba_marseille","lat":43.30679,"lon":5.3679,"is_reserved":false,"is_disabled":false,"rental_uris":{"android":"levelo://app?vid=3475d204-43b6-43d9-b615-ca1d0d58200e","ios":"levelo://app?vid=3475d204-43b6-43d9-b615-ca1d0d58200e"},"vehicle_type_id":"4","last_reported":1700424408,"current_range_meters":9600,"station_id":"","pricing_plan_id":"free"},{"bike_id":"dc634b4b-3b9a-4689-b707-e87067fceb7d","system_id":"levelo_inurba_marseille","lat":43.305368,"lon":5.367343,"is_reserved":false,"is_disabled":false,"rental_uris":{"android":"levelo://app?vid=dc634b4b-3b9a-4689-b707-e87067fceb7d","ios":"levelo://app?vid=dc634b4b-3b9a-4689-b707-e87067fceb7d"},"vehicle_type_id":"4","last_reported":1700424408,"current_range_meters":0,"station_id":"ce4bgrp2rcd13ifvqc9g","pricing_plan_id":"free"},{"bike_id":"09ccbac6-0f01-4cfb-8bb8-da5484277d5c","system_id":"levelo_inurba_marseille","lat":43.31957,"lon":5.371127,"is_reserved":false,"is_disabled":false,"rental_uris":{"android":"levelo://app?vid=09ccbac6-0f01-4cfb-8bb8-da5484277d5c","ios":"levelo://app?vid=09ccbac6-0f01-4cfb-8bb8-da5484277d5c"},"vehicle_type_id":"4","last_reported":1700424408,"current_range_meters":0,"station_id":"","pricing_plan_id":"free"},{"bike_id":"e91ae537-b6a7-4ab6-9a69-341665df72cc","system_id":"levelo_inurba_marseille","lat":43.31121,"lon":5.37753,"is_reserved":false,"is_disabled":false,"rental_uris":{"android":"levelo://app?vid=e91ae537-b6a7-4ab6-9a69-341665df72cc","ios":"levelo://app?vid=e91ae537-b6a7-4ab6-9a69-341665df72cc"},"vehicle_type_id":"4","last_reported":1700424408,"current_range_meters":24000,"station_id":"ce4bgt92rcd13ifvqcg0","pricing_plan_id":"free"},{"bike_id":"7dbf0beb-f63c-4573-a8f2-c30c140d0813","system_id":"levelo_inurba_marseille","lat":43.308168,"lon":5.376473,"is_reserved":false,"is_disabled":false,"rental_uris":{"android":"levelo://app?vid=7dbf0beb-f63c-4573-a8f2-c30c140d0813","ios":"levelo://app?vid=7dbf0beb-f63c-4573-a8f2-c30c140d0813"},"vehicle_type_id":"4","last_reported":1700424408,"current_range_meters":10000,"station_id":"ce4bgv92rcd13ifvqcq0","pricing_plan_id":"free"},{"bike_id":"5f9e0c4b-52ae-404b-9264-5fe603326a29","system_id":"levelo_inurba_marseille","lat":43.308071,"lon":5.381426,"is_reserved":false,"is_disabled":false,"rental_uris":{"android":"levelo://app?vid=5f9e0c4b-52ae-404b-9264-5fe603326a29","ios":"levelo://app?vid=5f9e0c4b-52ae-404b-9264-5fe603326a29"},"vehicle_type_id":"4","last_reported":1700424408,"current_range_meters":0,"station_id":"ce4bgt12rcd13ifvqce0","pricing_plan_id":"free"},{"bike_id":"c772db98-d646-482f-8794-6994ade1a51c","system_id":"levelo_inurba_marseille","lat":43.307975,"lon":5.381445,"is_reserved":false,"is_disabled":false,"rental_uris":{"android":"levelo://app?vid=c772db98-d646-482f-8794-6994ade1a51c","ios":"levelo://app?vid=c772db98-d646-482f-8794-6994ade1a51c"},"vehicle_type_id":"4","last_reported":1700424408,"current_range_meters":24400,"station_id":"ce4bgt12rcd13ifvqce0","pricing_plan_id":"free"},{"bike_id":"0342c805-7061-40cb-a207-88f2493a0ac1","system_id":"levelo_inurba_marseille","lat":43.30801,"lon":5.3815,"is_reserved":false,"is_disabled":false,"rental_uris":{"android":"levelo://app?vid=0342c805-7061-40cb-a207-88f2493a0ac1","ios":"levelo://app?vid=0342c805-7061-40cb-a207-88f2493a0ac1"},"vehicle_type_id":"4","last_reported":1700424408,"current_range_meters":26800,"station_id":"ce4bgt12rcd13ifvqce0","pricing_plan_id":"free"},{"bike_id":"8c6b9948-2f23-41f5-967e-cd18cc963390","system_id":"levelo_inurba_marseille","lat":43.32475,"lon":5.3656,"is_reserved":false,"is_disabled":false,"rental_uris":{"android":"levelo://app?vid=8c6b9948-2f23-41f5-967e-cd18cc963390","ios":"levelo://app?vid=8c6b9948-2f23-41f5-967e-cd18cc963390"},"vehicle_type_id":"4","last_reported":1700424408,"current_range_meters":14000,"station_id":"ce4bhs12rcd13ifvqhvg","pricing_plan_id":"free"},{"bike_id":"3a722b20-8d9a-4ed7-bed2-82edca53ad10","system_id":"levelo_inurba_marseille","lat":43.324751,"lon":5.365611,"is_reserved":false,"is_disabled":false,"rental_uris":{"android":"levelo://app?vid=3a722b20-8d9a-4ed7-bed2-82edca53ad10","ios":"levelo://app?vid=3a722b20-8d9a-4ed7-bed2-82edca53ad10"},"vehicle_type_id":"4","last_reported":1700424408,"current_range_meters":17600,"station_id":"ce4bhs12rcd13ifvqhvg","pricing_plan_id":"free"},{"bike_id":"bad67e33-e358-4cfe-ab91-e8054667473b","system_id":"levelo_inurba_marseille","lat":43.30143,"lon":5.37413,"is_reserved":false,"is_disabled":false,"rental_uris":{"android":"levelo://app?vid=bad67e33-e358-4cfe-ab91-e8054667473b","ios":"levelo://app?vid=bad67e33-e358-4cfe-ab91-e8054667473b"},"vehicle_type_id":"4","last_reported":1700424408,"current_range_meters":8400,"station_id":"ce4bgs92rcd13ifvqcc0","pricing_plan_id":"free"},{"bike_id":"cb9aaf1e-c165-4477-b766-07ed6f860aa9","system_id":"levelo_inurba_marseille","lat":43.319935,"lon":5.381699,"is_reserved":false,"is_disabled":false,"rental_uris":{"android":"levelo://app?vid=cb9aaf1e-c165-4477-b766-07ed6f860aa9","ios":"levelo://app?vid=cb9aaf1e-c165-4477-b766-07ed6f860aa9"},"vehicle_type_id":"4","last_reported":1700424408,"current_range_meters":1200,"station_id":"ce4bhr12rcd13ifvqhpg","pricing_plan_id":"free"},{"bike_id":"b86bd29c-7dae-4d1a-900b-90742660a871","system_id":"levelo_inurba_marseille","lat":43.31993,"lon":5.38159,"is_reserved":false,"is_disabled":false,"rental_uris":{"android":"levelo://app?vid=b86bd29c-7dae-4d1a-900b-90742660a871","ios":"levelo://app?vid=b86bd29c-7dae-4d1a-900b-90742660a871"},"vehicle_type_id":"4","last_reported":1700424408,"current_range_meters":24400,"station_id":"ce4bhr12rcd13ifvqhpg","pricing_plan_id":"free"},{"bike_id":"38e7561f-341a-4b31-9fe8-9303ec26abd7","system_id":"levelo_inurba_marseille","lat":43.319935,"lon":5.381699,"is_reserved":false,"is_disabled":false,"rental_uris":{"android":"levelo://app?vid=38e7561f-341a-4b31-9fe8-9303ec26abd7","ios":"levelo://app?vid=38e7561f-341a-4b31-9fe8-9303ec26abd7"},"vehicle_type_id":"4","last_reported":1700424408,"current_range_meters":14000,"station_id":"ce4bhr12rcd13ifvqhpg","pricing_plan_id":"free"},{"bike_id":"d0fdb2f0-30cb-432e-8716-38cb3fa8c9d0","system_id":"levelo_inurba_marseille","lat":43.313571,"lon":5.384829,"is_reserved":false,"is_disabled":false,"rental_uris":{"android":"levelo://app?vid=d0fdb2f0-30cb-432e-8716-38cb3fa8c9d0","ios":"levelo://app?vid=d0fdb2f0-30cb-432e-8716-38cb3fa8c9d0"},"vehicle_type_id":"4","last_reported":1700424408,"current_range_meters":2400,"station_id":"ce4bgt92rcd13ifvqcf0","pricing_plan_id":"free"},{"bike_id":"6c321dce-a849-4f30-8a23-593166ae0167","system_id":"levelo_inurba_marseille","lat":43.313571,"lon":5.384829,"is_reserved":false,"is_disabled":false,"rental_uris":{"android":"levelo://app?vid=6c321dce-a849-4f30-8a23-593166ae0167","ios":"levelo://app?vid=6c321dce-a849-4f30-8a23-593166ae0167"},"vehicle_type_id":"4","last_reported":1700424408,"current_range_meters":1200,"station_id":"ce4bgt92rcd13ifvqcf0","pricing_plan_id":"free"},{"bike_id":"6cddd180-464e-4ee4-8db2-9f7d22d9ebae","system_id":"levelo_inurba_marseille","lat":43.299724,"lon":5.371829,"is_reserved":false,"is_disabled":false,"rental_uris":{"android":"levelo://app?vid=6cddd180-464e-4ee4-8db2-9f7d22d9ebae","ios":"levelo://app?vid=6cddd180-464e-4ee4-8db2-9f7d22d9ebae"},"vehicle_type_id":"4","last_reported":1700424408,"current_range_meters":10800,"station_id":"ce4bgr92rcd13ifvqc7g","pricing_plan_id":"free"},{"bike_id":"5da9dea2-bd9f-4746-b637-56e44ea9e587","system_id":"levelo_inurba_marseille","lat":43.298489,"lon":5.362942,"is_reserved":false,"is_disabled":false,"rental_uris":{"android":"levelo://app?vid=5da9dea2-bd9f-4746-b637-56e44ea9e587","ios":"levelo://app?vid=5da9dea2-bd9f-4746-b637-56e44ea9e587"},"vehicle_type_id":"4","last_reported":1700424408,"current_range_meters":0,"station_id":"","pricing_plan_id":"free"},{"bike_id":"0dc63073-f7a4-4522-a1b3-aa89746693bc","system_id":"levelo_inurba_marseille","lat":43.311747,"lon":5.387067,"is_reserved":false,"is_disabled":false,"rental_uris":{"android":"levelo://app?vid=0dc63073-f7a4-4522-a1b3-aa89746693bc","ios":"levelo://app?vid=0dc63073-f7a4-4522-a1b3-aa89746693bc"},"vehicle_type_id":"4","last_reported":1700424408,"current_range_meters":2800,"station_id":"ce4bgv12rcd13ifvqcp0","pricing_plan_id":"free"},{"bike_id":"8b3677d2-ba45-46d5-8680-59b39c3c55a8","system_id":"levelo_inurba_marseille","lat":43.31165,"lon":5.38712,"is_reserved":false,"is_disabled":false,"rental_uris":{"android":"levelo://app?vid=8b3677d2-ba45-46d5-8680-59b39c3c55a8","ios":"levelo://app?vid=8b3677d2-ba45-46d5-8680-59b39c3c55a8"},"vehicle_type_id":"4","last_reported":1700424408,"current_range_meters":0,"station_id":"ce4bgv12rcd13ifvqcp0","pricing_plan_id":"free"},{"bike_id":"4bfed5e0-8d2d-4aac-b233-c7d8cf5f1c05","system_id":"levelo_inurba_marseille","lat":43.311722,"lon":5.387247,"is_reserved":false,"is_disabled":false,"rental_uris":{"android":"levelo://app?vid=4bfed5e0-8d2d-4aac-b233-c7d8cf5f1c05","ios":"levelo://app?vid=4bfed5e0-8d2d-4aac-b233-c7d8cf5f1c05"},"vehicle_type_id":"4","last_reported":1700424408,"current_range_meters":14400,"station_id":"ce4bgv12rcd13ifvqcp0","pricing_plan_id":"free"},{"bike_id":"44cc598b-60fc-40d2-b531-971a6e6970cc","system_id":"levelo_inurba_marseille","lat":43.32825,"lon":5.36688,"is_reserved":false,"is_disabled":false,"rental_uris":{"android":"levelo://app?vid=44cc598b-60fc-40d2-b531-971a6e6970cc","ios":"levelo://app?vid=44cc598b-60fc-40d2-b531-971a6e6970cc"},"vehicle_type_id":"4","last_reported":1700424408,"current_range_meters":4000,"station_id":"ce4bhs92rcd13ifvqi0g","pricing_plan_id":"free"},{"bike_id":"968f4f7b-37af-48de-87ce-50d7ef1a7b79","system_id":"levelo_inurba_marseille","lat":43.3283,"lon":5.3669,"is_reserved":false,"is_disabled":false,"rental_uris":{"android":"levelo://app?vid=968f4f7b-37af-48de-87ce-50d7ef1a7b79","ios":"levelo://app?vid=968f4f7b-37af-48de-87ce-50d7ef1a7b79"},"vehicle_type_id":"4","last_reported":1700424408,"current_range_meters":18400,"station_id":"ce4bhs92rcd13ifvqi0g","pricing_plan_id":"free"},{"bike_id":"e5c30010-bab4-4fba-b633-780bc1a27fa9","system_id":"levelo_inurba_marseille","lat":43.328309,"lon":5.366801,"is_reserved":false,"is_disabled":false,"rental_uris":{"android":"levelo://app?vid=e5c30010-bab4-4fba-b633-780bc1a27fa9","ios":"levelo://app?vid=e5c30010-bab4-4fba-b633-780bc1a27fa9"},"vehicle_type_id":"4","last_reported":1700424408,"current_range_meters":4000,"station_id":"ce4bhs92rcd13ifvqi0g","pricing_plan_id":"free"},{"bike_id":"800a1342-faab-459c-8c88-cbeaec705f5e","system_id":"levelo_inurba_marseille","lat":43.32831,"lon":5.36684,"is_reserved":false,"is_disabled":false,"rental_uris":{"android":"levelo://app?vid=800a1342-faab-459c-8c88-cbeaec705f5e","ios":"levelo://app?vid=800a1342-faab-459c-8c88-cbeaec705f5e"},"vehicle_type_id":"4","last_reported":1700424408,"current_range_meters":19600,"station_id":"ce4bhs92rcd13ifvqi0g","pricing_plan_id":"free"},{"bike_id":"2a07802c-16d5-4104-9ab3-93ca6dd62601","system_id":"levelo_inurba_marseille","lat":43.29601,"lon":5.368027,"is_reserved":false,"is_disabled":false,"rental_uris":{"android":"levelo://app?vid=2a07802c-16d5-4104-9ab3-93ca6dd62601","ios":"levelo://app?vid=2a07802c-16d5-4104-9ab3-93ca6dd62601"},"vehicle_type_id":"4","last_reported":1700424408,"current_range_meters":25200,"station_id":"","pricing_plan_id":"free"},{"bike_id":"6fcdea1c-a2df-4074-bfc6-253a07f31655","system_id":"levelo_inurba_marseille","lat":43.299028,"lon":5.381509,"is_reserved":false,"is_disabled":false,"rental_uris":{"android":"levelo://app?vid=6fcdea1c-a2df-4074-bfc6-253a07f31655","ios":"levelo://app?vid=6fcdea1c-a2df-4074-bfc6-253a07f31655"},"vehicle_type_id":"4","last_reported":1700424408,"current_range_meters":10400,"station_id":"ce4bgj12rcd13ifvqbc0","pricing_plan_id":"free"},{"bike_id":"be8ae82d-d208-433b-a3bc-7b7b22e6ae47","system_id":"levelo_inurba_marseille","lat":43.29721,"lon":5.37699,"is_reserved":false,"is_disabled":false,"rental_uris":{"android":"levelo://app?vid=be8ae82d-d208-433b-a3bc-7b7b22e6ae47","ios":"levelo://app?vid=be8ae82d-d208-433b-a3bc-7b7b22e6ae47"},"vehicle_type_id":"4","last_reported":1700424408,"current_range_meters":10400,"station_id":"ce4bgkh2rcd13ifvqbl0","pricing_plan_id":"free"},{"bike_id":"700f8aea-1766-4c1d-96ab-b024bb36fe1b","system_id":"levelo_inurba_marseille","lat":43.309589,"lon":5.390258,"is_reserved":false,"is_disabled":false,"rental_uris":{"android":"levelo://app?vid=700f8aea-1766-4c1d-96ab-b024bb36fe1b","ios":"levelo://app?vid=700f8aea-1766-4c1d-96ab-b024bb36fe1b"},"vehicle_type_id":"4","last_reported":1700424408,"current_range_meters":6400,"station_id":"ce4bgup2rcd13ifvqco0","pricing_plan_id":"free"},{"bike_id":"d90a72b4-4a0d-465c-bf07-ed2cfaa1835e","system_id":"levelo_inurba_marseille","lat":43.29575,"lon":5.37506,"is_reserved":false,"is_disabled":false,"rental_uris":{"android":"levelo://app?vid=d90a72b4-4a0d-465c-bf07-ed2cfaa1835e","ios":"levelo://app?vid=d90a72b4-4a0d-465c-bf07-ed2cfaa1835e"},"vehicle_type_id":"4","last_reported":1700424408,"current_range_meters":18400,"station_id":"ce4bgh92rcd13ifvqb50","pricing_plan_id":"free"},{"bike_id":"67ffd28a-0325-489b-a10f-d90500122751","system_id":"levelo_inurba_marseille","lat":43.295748,"lon":5.37522,"is_reserved":false,"is_disabled":false,"rental_uris":{"android":"levelo://app?vid=67ffd28a-0325-489b-a10f-d90500122751","ios":"levelo://app?vid=67ffd28a-0325-489b-a10f-d90500122751"},"vehicle_type_id":"4","last_reported":1700424408,"current_range_meters":30800,"station_id":"ce4bgh92rcd13ifvqb50","pricing_plan_id":"free"},{"bike_id":"b762e3ea-c788-480b-bac8-f909cfd30158","system_id":"levelo_inurba_marseille","lat":43.304274,"lon":5.388873,"is_reserved":false,"is_disabled":false,"rental_uris":{"android":"levelo://app?vid=b762e3ea-c788-480b-bac8-f909cfd30158","ios":"levelo://app?vid=b762e3ea-c788-480b-bac8-f909cfd30158"},"vehicle_type_id":"4","last_reported":1700424408,"current_range_meters":12800,"station_id":"ce4bgk12rcd13ifvqbi0","pricing_plan_id":"free"},{"bike_id":"b1bcb4f4-b26e-440a-9617-b1936fbc7523","system_id":"levelo_inurba_marseille","lat":43.29793,"lon":5.3812,"is_reserved":false,"is_disabled":false,"rental_uris":{"android":"levelo://app?vid=b1bcb4f4-b26e-440a-9617-b1936fbc7523","ios":"levelo://app?vid=b1bcb4f4-b26e-440a-9617-b1936fbc7523"},"vehicle_type_id":"4","last_reported":1700424408,"current_range_meters":23600,"station_id":"ce4bgip2rcd13ifvqbb0","pricing_plan_id":"free"},{"bike_id":"3e3e92fe-39b7-4933-99ff-3747b28b5d69","system_id":"levelo_inurba_marseille","lat":43.328154,"lon":5.380034,"is_reserved":false,"is_disabled":false,"rental_uris":{"android":"levelo://app?vid=3e3e92fe-39b7-4933-99ff-3747b28b5d69","ios":"levelo://app?vid=3e3e92fe-39b7-4933-99ff-3747b28b5d69"},"vehicle_type_id":"4","last_reported":1700424408,"current_range_meters":4800,"station_id":"","pricing_plan_id":"free"},{"bike_id":"8b10966f-bb14-4716-bd1f-d69c8a9c26bc","system_id":"levelo_inurba_marseille","lat":43.296122,"lon":5.37716,"is_reserved":false,"is_disabled":false,"rental_uris":{"android":"levelo://app?vid=8b10966f-bb14-4716-bd1f-d69c8a9c26bc","ios":"levelo://app?vid=8b10966f-bb14-4716-bd1f-d69c8a9c26bc"},"vehicle_type_id":"4","last_reported":1700424408,"current_range_meters":31200,"station_id":"ce4bgi92rcd13ifvqb90","pricing_plan_id":"free"},{"bike_id":"e145a3f7-00ac-4f8f-bfe5-435bc38ccaf7","system_id":"levelo_inurba_marseille","lat":43.293801,"lon":5.363066,"is_reserved":false,"is_disabled":false,"rental_uris":{"android":"levelo://app?vid=e145a3f7-00ac-4f8f-bfe5-435bc38ccaf7","ios":"levelo://app?vid=e145a3f7-00ac-4f8f-bfe5-435bc38ccaf7"},"vehicle_type_id":"4","last_reported":1700424408,"current_range_meters":22800,"station_id":"","pricing_plan_id":"free"},{"bike_id":"489990f3-8349-455a-830c-7dc558db125e","system_id":"levelo_inurba_marseille","lat":43.32366,"lon":5.38882,"is_reserved":false,"is_disabled":false,"rental_uris":{"android":"levelo://app?vid=489990f3-8349-455a-830c-7dc558db125e","ios":"levelo://app?vid=489990f3-8349-455a-830c-7dc558db125e"},"vehicle_type_id":"4","last_reported":1700424408,"current_range_meters":0,"station_id":"ce4bhqp2rcd13ifvqhog","pricing_plan_id":"free"},{"bike_id":"ded2c6f4-4716-438a-bf1b-5350d6e982db","system_id":"levelo_inurba_marseille","lat":43.32367,"lon":5.388836,"is_reserved":false,"is_disabled":false,"rental_uris":{"android":"levelo://app?vid=ded2c6f4-4716-438a-bf1b-5350d6e982db","ios":"levelo://app?vid=ded2c6f4-4716-438a-bf1b-5350d6e982db"},"vehicle_type_id":"4","last_reported":1700424408,"current_range_meters":25600,"station_id":"ce4bhqp2rcd13ifvqhog","pricing_plan_id":"free"},{"bike_id":"8ab48bda-fdb7-405a-b50d-8f56062387c2","system_id":"levelo_inurba_marseille","lat":43.32366,"lon":5.38887,"is_reserved":false,"is_disabled":false,"rental_uris":{"android":"levelo://app?vid=8ab48bda-fdb7-405a-b50d-8f56062387c2","ios":"levelo://app?vid=8ab48bda-fdb7-405a-b50d-8f56062387c2"},"vehicle_type_id":"4","last_reported":1700424408,"current_range_meters":5200,"station_id":"ce4bhqp2rcd13ifvqhog","pricing_plan_id":"free"},{"bike_id":"4eef38cc-64cf-4f4d-8d5b-99bd9d3b1b37","system_id":"levelo_inurba_marseille","lat":43.293162,"lon":5.371209,"is_reserved":false,"is_disabled":false,"rental_uris":{"android":"levelo://app?vid=4eef38cc-64cf-4f4d-8d5b-99bd9d3b1b37","ios":"levelo://app?vid=4eef38cc-64cf-4f4d-8d5b-99bd9d3b1b37"},"vehicle_type_id":"4","last_reported":1700424408,"current_range_meters":23200,"station_id":"ce4bgh92rcd13ifvqb40","pricing_plan_id":"free"},{"bike_id":"58c99be4-5c7d-4af2-aeeb-e918f6f42c6a","system_id":"levelo_inurba_marseille","lat":43.32367,"lon":5.388836,"is_reserved":false,"is_disabled":false,"rental_uris":{"android":"levelo://app?vid=58c99be4-5c7d-4af2-aeeb-e918f6f42c6a","ios":"levelo://app?vid=58c99be4-5c7d-4af2-aeeb-e918f6f42c6a"},"vehicle_type_id":"4","last_reported":1700424408,"current_range_meters":10800,"station_id":"ce4bhqp2rcd13ifvqhog","pricing_plan_id":"free"},{"bike_id":"5599357f-705b-40d3-8e7b-9d497dad4913","system_id":"levelo_inurba_marseille","lat":43.292796,"lon":5.368414,"is_reserved":false,"is_disabled":false,"rental_uris":{"android":"levelo://app?vid=5599357f-705b-40d3-8e7b-9d497dad4913","ios":"levelo://app?vid=5599357f-705b-40d3-8e7b-9d497dad4913"},"vehicle_type_id":"4","last_reported":1700424408,"current_range_meters":23200,"station_id":"ce4bhbp2rcd13ifvqesg","pricing_plan_id":"free"},{"bike_id":"19538b03-213a-4061-9a24-dfbacfaa22f6","system_id":"levelo_inurba_marseille","lat":43.292797,"lon":5.36846,"is_reserved":false,"is_disabled":false,"rental_uris":{"android":"levelo://app?vid=19538b03-213a-4061-9a24-dfbacfaa22f6","ios":"levelo://app?vid=19538b03-213a-4061-9a24-dfbacfaa22f6"},"vehicle_type_id":"4","last_reported":1700424408,"current_range_meters":29600,"station_id":"ce4bhbp2rcd13ifvqesg","pricing_plan_id":"free"},{"bike_id":"4c180c82-3f2d-419f-95a8-00805ccce8ad","system_id":"levelo_inurba_marseille","lat":43.292787,"lon":5.368476,"is_reserved":false,"is_disabled":false,"rental_uris":{"android":"levelo://app?vid=4c180c82-3f2d-419f-95a8-00805ccce8ad","ios":"levelo://app?vid=4c180c82-3f2d-419f-95a8-00805ccce8ad"},"vehicle_type_id":"4","last_reported":1700424408,"current_range_meters":24400,"station_id":"ce4bhbp2rcd13ifvqesg","pricing_plan_id":"free"},{"bike_id":"839d0e51-eb9f-4ca7-bbc3-e5fa967ef498","system_id":"levelo_inurba_marseille","lat":43.292779,"lon":5.368476,"is_reserved":false,"is_disabled":false,"rental_uris":{"android":"levelo://app?vid=839d0e51-eb9f-4ca7-bbc3-e5fa967ef498","ios":"levelo://app?vid=839d0e51-eb9f-4ca7-bbc3-e5fa967ef498"},"vehicle_type_id":"4","last_reported":1700424408,"current_range_meters":24400,"station_id":"ce4bhbp2rcd13ifvqesg","pricing_plan_id":"free"},{"bike_id":"4216b8db-8482-4b9f-9871-0062cd9f8dd8","system_id":"levelo_inurba_marseille","lat":43.292756,"lon":5.368403,"is_reserved":false,"is_disabled":false,"rental_uris":{"android":"levelo://app?vid=4216b8db-8482-4b9f-9871-0062cd9f8dd8","ios":"levelo://app?vid=4216b8db-8482-4b9f-9871-0062cd9f8dd8"},"vehicle_type_id":"4","last_reported":1700424408,"current_range_meters":30000,"station_id":"ce4bhbp2rcd13ifvqesg","pricing_plan_id":"free"},{"bike_id":"359ce12e-3a2e-4e53-b7ae-6000416cae97","system_id":"levelo_inurba_marseille","lat":43.292749,"lon":5.368397,"is_reserved":false,"is_disabled":false,"rental_uris":{"android":"levelo://app?vid=359ce12e-3a2e-4e53-b7ae-6000416cae97","ios":"levelo://app?vid=359ce12e-3a2e-4e53-b7ae-6000416cae97"},"vehicle_type_id":"4","last_reported":1700424408,"current_range_meters":29600,"station_id":"ce4bhbp2rcd13ifvqesg","pricing_plan_id":"free"},{"bike_id":"8f8c853b-3061-4381-bcdc-f2a9a1007570","system_id":"levelo_inurba_marseille","lat":43.303002,"lon":5.392142,"is_reserved":false,"is_disabled":false,"rental_uris":{"android":"levelo://app?vid=8f8c853b-3061-4381-bcdc-f2a9a1007570","ios":"levelo://app?vid=8f8c853b-3061-4381-bcdc-f2a9a1007570"},"vehicle_type_id":"4","last_reported":1700424408,"current_range_meters":21200,"station_id":"ce4bgkh2rcd13ifvqbk0","pricing_plan_id":"free"},{"bike_id":"310ab7a0-1218-48ce-9874-28d10cfa1ea1","system_id":"levelo_inurba_marseille","lat":43.2936,"lon":5.37835,"is_reserved":false,"is_disabled":false,"rental_uris":{"android":"levelo://app?vid=310ab7a0-1218-48ce-9874-28d10cfa1ea1","ios":"levelo://app?vid=310ab7a0-1218-48ce-9874-28d10cfa1ea1"},"vehicle_type_id":"4","last_reported":1700424408,"current_range_meters":27600,"station_id":"ce4bgjh2rcd13ifvqbf0","pricing_plan_id":"free"},{"bike_id":"d6fa56c4-d309-4560-8c0f-0baaf8c36df9","system_id":"levelo_inurba_marseille","lat":43.29223,"lon":5.36067,"is_reserved":false,"is_disabled":false,"rental_uris":{"android":"levelo://app?vid=d6fa56c4-d309-4560-8c0f-0baaf8c36df9","ios":"levelo://app?vid=d6fa56c4-d309-4560-8c0f-0baaf8c36df9"},"vehicle_type_id":"4","last_reported":1700424408,"current_range_meters":0,"station_id":"ce4bhbh2rcd13ifvqeqg","pricing_plan_id":"free"},{"bike_id":"710078d4-ff47-451c-ae52-41da47a6188e","system_id":"levelo_inurba_marseille","lat":43.292707,"lon":5.37629,"is_reserved":false,"is_disabled":false,"rental_uris":{"android":"levelo://app?vid=710078d4-ff47-451c-ae52-41da47a6188e","ios":"levelo://app?vid=710078d4-ff47-451c-ae52-41da47a6188e"},"vehicle_type_id":"4","last_reported":1700424408,"current_range_meters":28400,"station_id":"ce4bgi12rcd13ifvqb80","pricing_plan_id":"free"},{"bike_id":"3d61ade6-4ce7-441c-b09f-f6e62c69a03a","system_id":"levelo_inurba_marseille","lat":43.29257,"lon":5.37619,"is_reserved":false,"is_disabled":false,"rental_uris":{"android":"levelo://app?vid=3d61ade6-4ce7-441c-b09f-f6e62c69a03a","ios":"levelo://app?vid=3d61ade6-4ce7-441c-b09f-f6e62c69a03a"},"vehicle_type_id":"4","last_reported":1700424408,"current_range_meters":12800,"station_id":"ce4bgi12rcd13ifvqb80","pricing_plan_id":"free"},{"bike_id":"e59a1243-f680-4742-8d9a-b0bc593df215","system_id":"levelo_inurba_marseille","lat":43.291675,"lon":5.371583,"is_reserved":false,"is_disabled":false,"rental_uris":{"android":"levelo://app?vid=e59a1243-f680-4742-8d9a-b0bc593df215","ios":"levelo://app?vid=e59a1243-f680-4742-8d9a-b0bc593df215"},"vehicle_type_id":"4","last_reported":1700424408,"current_range_meters":800,"station_id":"ce4bha92rcd13ifvqeh0","pricing_plan_id":"free"},{"bike_id":"7ab3d7e3-2b68-4e30-ab22-d000aff81781","system_id":"levelo_inurba_marseille","lat":43.29875,"lon":5.38905,"is_reserved":false,"is_disabled":false,"rental_uris":{"android":"levelo://app?vid=7ab3d7e3-2b68-4e30-ab22-d000aff81781","ios":"levelo://app?vid=7ab3d7e3-2b68-4e30-ab22-d000aff81781"},"vehicle_type_id":"4","last_reported":1700424408,"current_range_meters":0,"station_id":"ce4bh392rcd13ifvqdl0","pricing_plan_id":"free"},{"bike_id":"c14bd334-db3e-469c-9471-f956f53344de","system_id":"levelo_inurba_marseille","lat":43.309038,"lon":5.396546,"is_reserved":false,"is_disabled":false,"rental_uris":{"android":"levelo://app?vid=c14bd334-db3e-469c-9471-f956f53344de","ios":"levelo://app?vid=c14bd334-db3e-469c-9471-f956f53344de"},"vehicle_type_id":"4","last_reported":1700424408,"current_range_meters":8400,"station_id":"ce4bh012rcd13ifvqcv0","pricing_plan_id":"free"},{"bike_id":"e0d419e7-8958-4db3-8f11-3e87709cf30f","system_id":"levelo_inurba_marseille","lat":43.308845,"lon":5.39645,"is_reserved":false,"is_disabled":false,"rental_uris":{"android":"levelo://app?vid=e0d419e7-8958-4db3-8f11-3e87709cf30f","ios":"levelo://app?vid=e0d419e7-8958-4db3-8f11-3e87709cf30f"},"vehicle_type_id":"4","last_reported":1700424408,"current_range_meters":0,"station_id":"ce4bh012rcd13ifvqcv0","pricing_plan_id":"free"},{"bike_id":"b6ff24c0-2a13-44a7-af34-ee87a9d6f2d3","system_id":"levelo_inurba_marseille","lat":43.31334,"lon":5.39693,"is_reserved":false,"is_disabled":false,"rental_uris":{"android":"levelo://app?vid=b6ff24c0-2a13-44a7-af34-ee87a9d6f2d3","ios":"levelo://app?vid=b6ff24c0-2a13-44a7-af34-ee87a9d6f2d3"},"vehicle_type_id":"4","last_reported":1700424408,"current_range_meters":1200,"station_id":"ce4bgvp2rcd13ifvqcu0","pricing_plan_id":"free"},{"bike_id":"3870558a-8800-4c4c-8d8a-af289a2a1ac8","system_id":"levelo_inurba_marseille","lat":43.29181,"lon":5.35814,"is_reserved":false,"is_disabled":false,"rental_uris":{"android":"levelo://app?vid=3870558a-8800-4c4c-8d8a-af289a2a1ac8","ios":"levelo://app?vid=3870558a-8800-4c4c-8d8a-af289a2a1ac8"},"vehicle_type_id":"4","last_reported":1700424408,"current_range_meters":0,"station_id":"ce4bhb12rcd13ifvqel0","pricing_plan_id":"free"},{"bike_id":"2feb0674-de6a-4022-938a-9e48ca0364bc","system_id":"levelo_inurba_marseille","lat":43.29529,"lon":5.385581,"is_reserved":false,"is_disabled":false,"rental_uris":{"android":"levelo://app?vid=2feb0674-de6a-4022-938a-9e48ca0364bc","ios":"levelo://app?vid=2feb0674-de6a-4022-938a-9e48ca0364bc"},"vehicle_type_id":"4","last_reported":1700424408,"current_range_meters":2400,"station_id":"ce4bgih2rcd13ifvqba0","pricing_plan_id":"free"},{"bike_id":"67d392c9-b41b-4c0b-a0ce-dc3f20077ebd","system_id":"levelo_inurba_marseille","lat":43.31121,"lon":5.39724,"is_reserved":false,"is_disabled":false,"rental_uris":{"android":"levelo://app?vid=67d392c9-b41b-4c0b-a0ce-dc3f20077ebd","ios":"levelo://app?vid=67d392c9-b41b-4c0b-a0ce-dc3f20077ebd"},"vehicle_type_id":"4","last_reported":1700424408,"current_range_meters":10000,"station_id":"","pricing_plan_id":"free"},{"bike_id":"3ff83fcc-a238-409b-a82a-197665c28892","system_id":"levelo_inurba_marseille","lat":43.306412,"lon":5.401035,"is_reserved":false,"is_disabled":false,"rental_uris":{"android":"levelo://app?vid=3ff83fcc-a238-409b-a82a-197665c28892","ios":"levelo://app?vid=3ff83fcc-a238-409b-a82a-197665c28892"},"vehicle_type_id":"4","last_reported":1700424408,"current_range_meters":1600,"station_id":"ce4bh112rcd13ifvqda0","pricing_plan_id":"free"},{"bike_id":"05565247-0875-4a71-920c-a9b198610fc7","system_id":"levelo_inurba_marseille","lat":43.290779,"lon":5.371482,"is_reserved":false,"is_disabled":false,"rental_uris":{"android":"levelo://app?vid=05565247-0875-4a71-920c-a9b198610fc7","ios":"levelo://app?vid=05565247-0875-4a71-920c-a9b198610fc7"},"vehicle_type_id":"4","last_reported":1700424408,"current_range_meters":14800,"station_id":"ce4bh5p2rcd13ifvqe4g","pricing_plan_id":"free"},{"bike_id":"b49cbfb2-ad45-47c0-9a38-22f71840a44e","system_id":"levelo_inurba_marseille","lat":43.30218,"lon":5.39467,"is_reserved":false,"is_disabled":false,"rental_uris":{"android":"levelo://app?vid=b49cbfb2-ad45-47c0-9a38-22f71840a44e","ios":"levelo://app?vid=b49cbfb2-ad45-47c0-9a38-22f71840a44e"},"vehicle_type_id":"4","last_reported":1700424408,"current_range_meters":0,"station_id":"ce4bh0p2rcd13ifvqd70","pricing_plan_id":"free"},{"bike_id":"dd61a939-c9f3-4159-81d1-9b1ab9cc1703","system_id":"levelo_inurba_marseille","lat":43.302008,"lon":5.394694,"is_reserved":false,"is_disabled":false,"rental_uris":{"android":"levelo://app?vid=dd61a939-c9f3-4159-81d1-9b1ab9cc1703","ios":"levelo://app?vid=dd61a939-c9f3-4159-81d1-9b1ab9cc1703"},"vehicle_type_id":"4","last_reported":1700424408,"current_range_meters":4000,"station_id":"ce4bh0p2rcd13ifvqd70","pricing_plan_id":"free"},{"bike_id":"6d2fe1c8-f215-49ad-b1a6-2f0e24c936b1","system_id":"levelo_inurba_marseille","lat":43.290624,"lon":5.359245,"is_reserved":false,"is_disabled":false,"rental_uris":{"android":"levelo://app?vid=6d2fe1c8-f215-49ad-b1a6-2f0e24c936b1","ios":"levelo://app?vid=6d2fe1c8-f215-49ad-b1a6-2f0e24c936b1"},"vehicle_type_id":"4","last_reported":1700424408,"current_range_meters":14000,"station_id":"ce4bha92rcd13ifvqeg0","pricing_plan_id":"free"},{"bike_id":"bece4284-79a1-463a-acb3-bf3a04e4ee68","system_id":"levelo_inurba_marseille","lat":43.290624,"lon":5.359245,"is_reserved":false,"is_disabled":false,"rental_uris":{"android":"levelo://app?vid=bece4284-79a1-463a-acb3-bf3a04e4ee68","ios":"levelo://app?vid=bece4284-79a1-463a-acb3-bf3a04e4ee68"},"vehicle_type_id":"4","last_reported":1700424408,"current_range_meters":4400,"station_id":"ce4bha92rcd13ifvqeg0","pricing_plan_id":"free"},{"bike_id":"20038971-25e5-4637-b9ee-e3612e4d2378","system_id":"levelo_inurba_marseille","lat":43.29038,"lon":5.3592,"is_reserved":false,"is_disabled":false,"rental_uris":{"android":"levelo://app?vid=20038971-25e5-4637-b9ee-e3612e4d2378","ios":"levelo://app?vid=20038971-25e5-4637-b9ee-e3612e4d2378"},"vehicle_type_id":"4","last_reported":1700424408,"current_range_meters":400,"station_id":"ce4bha92rcd13ifvqeg0","pricing_plan_id":"free"},{"bike_id":"96985b75-9492-4cd1-bd98-4dbaadb89765","system_id":"levelo_inurba_marseille","lat":43.289446,"lon":5.366309,"is_reserved":false,"is_disabled":false,"rental_uris":{"android":"levelo://app?vid=96985b75-9492-4cd1-bd98-4dbaadb89765","ios":"levelo://app?vid=96985b75-9492-4cd1-bd98-4dbaadb89765"},"vehicle_type_id":"4","last_reported":1700424408,"current_range_meters":0,"station_id":"ce4bhap2rcd13ifvqek0","pricing_plan_id":"free"},{"bike_id":"29fa821c-7a95-4339-adef-ec72ab52f9f7","system_id":"levelo_inurba_marseille","lat":43.294162,"lon":5.386292,"is_reserved":false,"is_disabled":false,"rental_uris":{"android":"levelo://app?vid=29fa821c-7a95-4339-adef-ec72ab52f9f7","ios":"levelo://app?vid=29fa821c-7a95-4339-adef-ec72ab52f9f7"},"vehicle_type_id":"4","last_reported":1700424408,"current_range_meters":24800,"station_id":"ce4bh2h2rcd13ifvqdh0","pricing_plan_id":"free"},{"bike_id":"31b27753-e928-4f26-8dc9-f87a851ee624","system_id":"levelo_inurba_marseille","lat":43.29052,"lon":5.37777,"is_reserved":false,"is_disabled":false,"rental_uris":{"android":"levelo://app?vid=31b27753-e928-4f26-8dc9-f87a851ee624","ios":"levelo://app?vid=31b27753-e928-4f26-8dc9-f87a851ee624"},"vehicle_type_id":"4","last_reported":1700424408,"current_range_meters":0,"station_id":"","pricing_plan_id":"free"},{"bike_id":"d5db4d31-c114-470a-9933-5b6e78d5b366","system_id":"levelo_inurba_marseille","lat":43.292642,"lon":5.384254,"is_reserved":false,"is_disabled":false,"rental_uris":{"android":"levelo://app?vid=d5db4d31-c114-470a-9933-5b6e78d5b366","ios":"levelo://app?vid=d5db4d31-c114-470a-9933-5b6e78d5b366"},"vehicle_type_id":"4","last_reported":1700424408,"current_range_meters":0,"station_id":"ce4bh692rcd13ifvqea0","pricing_plan_id":"free"},{"bike_id":"3c291475-9d31-4f94-b7b6-43ad5a2cf747","system_id":"levelo_inurba_marseille","lat":43.292688,"lon":5.384455,"is_reserved":false,"is_disabled":false,"rental_uris":{"android":"levelo://app?vid=3c291475-9d31-4f94-b7b6-43ad5a2cf747","ios":"levelo://app?vid=3c291475-9d31-4f94-b7b6-43ad5a2cf747"},"vehicle_type_id":"4","last_reported":1700424408,"current_range_meters":0,"station_id":"ce4bh692rcd13ifvqea0","pricing_plan_id":"free"},{"bike_id":"d04e2546-8f9a-47d8-a4f7-5399c0b3f027","system_id":"levelo_inurba_marseille","lat":43.290995,"lon":5.381361,"is_reserved":false,"is_disabled":false,"rental_uris":{"android":"levelo://app?vid=d04e2546-8f9a-47d8-a4f7-5399c0b3f027","ios":"levelo://app?vid=d04e2546-8f9a-47d8-a4f7-5399c0b3f027"},"vehicle_type_id":"4","last_reported":1700424408,"current_range_meters":29600,"station_id":"ce4bh512rcd13ifvqe2g","pricing_plan_id":"free"},{"bike_id":"32cd991c-97e6-4cf2-8579-724976d8ed55","system_id":"levelo_inurba_marseille","lat":43.29788,"lon":5.39347,"is_reserved":false,"is_disabled":false,"rental_uris":{"android":"levelo://app?vid=32cd991c-97e6-4cf2-8579-724976d8ed55","ios":"levelo://app?vid=32cd991c-97e6-4cf2-8579-724976d8ed55"},"vehicle_type_id":"4","last_reported":1700424408,"current_range_meters":0,"station_id":"chh1huq6cuj3fo74tm60","pricing_plan_id":"free"},{"bike_id":"65fba376-cde2-4019-ac01-704079edb284","system_id":"levelo_inurba_marseille","lat":43.295169,"lon":5.390426,"is_reserved":false,"is_disabled":false,"rental_uris":{"android":"levelo://app?vid=65fba376-cde2-4019-ac01-704079edb284","ios":"levelo://app?vid=65fba376-cde2-4019-ac01-704079edb284"},"vehicle_type_id":"4","last_reported":1700424408,"current_range_meters":9200,"station_id":"ce4bh3p2rcd13ifvqdp0","pricing_plan_id":"free"},{"bike_id":"7bf396bb-a80b-4d8a-b525-9e26e5547bfd","system_id":"levelo_inurba_marseille","lat":43.29025,"lon":5.38125,"is_reserved":false,"is_disabled":false,"rental_uris":{"android":"levelo://app?vid=7bf396bb-a80b-4d8a-b525-9e26e5547bfd","ios":"levelo://app?vid=7bf396bb-a80b-4d8a-b525-9e26e5547bfd"},"vehicle_type_id":"4","last_reported":1700424408,"current_range_meters":0,"station_id":"ce4bh4p2rcd13ifvqe1g","pricing_plan_id":"free"},{"bike_id":"07202f70-50d7-46f0-a5bd-59712659d6a0","system_id":"levelo_inurba_marseille","lat":43.31251,"lon":5.40162,"is_reserved":false,"is_disabled":false,"rental_uris":{"android":"levelo://app?vid=07202f70-50d7-46f0-a5bd-59712659d6a0","ios":"levelo://app?vid=07202f70-50d7-46f0-a5bd-59712659d6a0"},"vehicle_type_id":"4","last_reported":1700424408,"current_range_meters":10000,"station_id":"","pricing_plan_id":"free"},{"bike_id":"596fc6d4-2eb1-40b3-970b-cc63af3a0451","system_id":"levelo_inurba_marseille","lat":43.30934,"lon":5.40142,"is_reserved":false,"is_disabled":false,"rental_uris":{"android":"levelo://app?vid=596fc6d4-2eb1-40b3-970b-cc63af3a0451","ios":"levelo://app?vid=596fc6d4-2eb1-40b3-970b-cc63af3a0451"},"vehicle_type_id":"4","last_reported":1700424408,"current_range_meters":0,"station_id":"ce4bgvp2rcd13ifvqct0","pricing_plan_id":"free"},{"bike_id":"4aea8a64-6074-4305-9b6c-fe496fb07d58","system_id":"levelo_inurba_marseille","lat":43.33744,"lon":5.37472,"is_reserved":false,"is_disabled":false,"rental_uris":{"android":"levelo://app?vid=4aea8a64-6074-4305-9b6c-fe496fb07d58","ios":"levelo://app?vid=4aea8a64-6074-4305-9b6c-fe496fb07d58"},"vehicle_type_id":"4","last_reported":1700424408,"current_range_meters":22400,"station_id":"","pricing_plan_id":"free"},{"bike_id":"46509513-12f0-4bae-91ab-3b5bb7ed22cf","system_id":"levelo_inurba_marseille","lat":43.337698,"lon":5.374294,"is_reserved":false,"is_disabled":false,"rental_uris":{"android":"levelo://app?vid=46509513-12f0-4bae-91ab-3b5bb7ed22cf","ios":"levelo://app?vid=46509513-12f0-4bae-91ab-3b5bb7ed22cf"},"vehicle_type_id":"4","last_reported":1700424408,"current_range_meters":18400,"station_id":"","pricing_plan_id":"free"},{"bike_id":"473d2011-ae75-4743-87c2-eb53e5b85a28","system_id":"levelo_inurba_marseille","lat":43.337864,"lon":5.374283,"is_reserved":false,"is_disabled":false,"rental_uris":{"android":"levelo://app?vid=473d2011-ae75-4743-87c2-eb53e5b85a28","ios":"levelo://app?vid=473d2011-ae75-4743-87c2-eb53e5b85a28"},"vehicle_type_id":"4","last_reported":1700424408,"current_range_meters":20000,"station_id":"","pricing_plan_id":"free"},{"bike_id":"2331a8fc-5bc4-4929-b807-fc3f2274558e","system_id":"levelo_inurba_marseille","lat":43.301353,"lon":5.398672,"is_reserved":false,"is_disabled":false,"rental_uris":{"android":"levelo://app?vid=2331a8fc-5bc4-4929-b807-fc3f2274558e","ios":"levelo://app?vid=2331a8fc-5bc4-4929-b807-fc3f2274558e"},"vehicle_type_id":"4","last_reported":1700424408,"current_range_meters":16000,"station_id":"ce4bh0h2rcd13ifvqd40","pricing_plan_id":"free"},{"bike_id":"668a58be-3b97-49b0-8ecb-a2d5b16ce93b","system_id":"levelo_inurba_marseille","lat":43.28669,"lon":5.36349,"is_reserved":false,"is_disabled":false,"rental_uris":{"android":"levelo://app?vid=668a58be-3b97-49b0-8ecb-a2d5b16ce93b","ios":"levelo://app?vid=668a58be-3b97-49b0-8ecb-a2d5b16ce93b"},"vehicle_type_id":"4","last_reported":1700424408,"current_range_meters":28000,"station_id":"ce4bhah2rcd13ifvqej0","pricing_plan_id":"free"},{"bike_id":"367b83ce-697b-4316-b7ba-7b92e78ff058","system_id":"levelo_inurba_marseille","lat":43.286961,"lon":5.373785,"is_reserved":false,"is_disabled":false,"rental_uris":{"android":"levelo://app?vid=367b83ce-697b-4316-b7ba-7b92e78ff058","ios":"levelo://app?vid=367b83ce-697b-4316-b7ba-7b92e78ff058"},"vehicle_type_id":"4","last_reported":1700424408,"current_range_meters":19200,"station_id":"ce4bh3p2rcd13ifvqdq0","pricing_plan_id":"free"},{"bike_id":"3125eb0e-f28b-4013-8518-718f92609576","system_id":"levelo_inurba_marseille","lat":43.287185,"lon":5.379373,"is_reserved":false,"is_disabled":false,"rental_uris":{"android":"levelo://app?vid=3125eb0e-f28b-4013-8518-718f92609576","ios":"levelo://app?vid=3125eb0e-f28b-4013-8518-718f92609576"},"vehicle_type_id":"4","last_reported":1700424408,"current_range_meters":2800,"station_id":"ce4bh9p2rcd13ifvqec0","pricing_plan_id":"free"},{"bike_id":"509eb662-b451-4a45-8c25-27d79823d125","system_id":"levelo_inurba_marseille","lat":43.316517,"lon":5.404375,"is_reserved":false,"is_disabled":false,"rental_uris":{"android":"levelo://app?vid=509eb662-b451-4a45-8c25-27d79823d125","ios":"levelo://app?vid=509eb662-b451-4a45-8c25-27d79823d125"},"vehicle_type_id":"4","last_reported":1700424408,"current_range_meters":11200,"station_id":"ce4bh012rcd13ifvqd00","pricing_plan_id":"free"},{"bike_id":"82f0bec1-510e-4e11-b022-4e2ec4798ad3","system_id":"levelo_inurba_marseille","lat":43.3165,"lon":5.40437,"is_reserved":false,"is_disabled":false,"rental_uris":{"android":"levelo://app?vid=82f0bec1-510e-4e11-b022-4e2ec4798ad3","ios":"levelo://app?vid=82f0bec1-510e-4e11-b022-4e2ec4798ad3"},"vehicle_type_id":"4","last_reported":1700424408,"current_range_meters":12800,"station_id":"ce4bh012rcd13ifvqd00","pricing_plan_id":"free"},{"bike_id":"62263b49-9d00-49df-af57-9e369e9ecb19","system_id":"levelo_inurba_marseille","lat":43.291994,"lon":5.392907,"is_reserved":false,"is_disabled":false,"rental_uris":{"android":"levelo://app?vid=62263b49-9d00-49df-af57-9e369e9ecb19","ios":"levelo://app?vid=62263b49-9d00-49df-af57-9e369e9ecb19"},"vehicle_type_id":"4","last_reported":1700424408,"current_range_meters":6800,"station_id":"ce4bh192rcd13ifvqdd0","pricing_plan_id":"free"},{"bike_id":"cbc80459-b41e-4cea-a4fc-4b9c019bcf84","system_id":"levelo_inurba_marseille","lat":43.291994,"lon":5.392907,"is_reserved":false,"is_disabled":false,"rental_uris":{"android":"levelo://app?vid=cbc80459-b41e-4cea-a4fc-4b9c019bcf84","ios":"levelo://app?vid=cbc80459-b41e-4cea-a4fc-4b9c019bcf84"},"vehicle_type_id":"4","last_reported":1700424408,"current_range_meters":0,"station_id":"ce4bh192rcd13ifvqdd0","pricing_plan_id":"free"},{"bike_id":"5f153f02-c4c9-456b-aa48-aeca587f3139","system_id":"levelo_inurba_marseille","lat":43.28464,"lon":5.37849,"is_reserved":false,"is_disabled":false,"rental_uris":{"android":"levelo://app?vid=5f153f02-c4c9-456b-aa48-aeca587f3139","ios":"levelo://app?vid=5f153f02-c4c9-456b-aa48-aeca587f3139"},"vehicle_type_id":"4","last_reported":1700424408,"current_range_meters":3600,"station_id":"","pricing_plan_id":"free"},{"bike_id":"48775b4a-3e4f-4dde-9e73-84606c6be62b","system_id":"levelo_inurba_marseille","lat":43.286595,"lon":5.386795,"is_reserved":false,"is_disabled":false,"rental_uris":{"android":"levelo://app?vid=48775b4a-3e4f-4dde-9e73-84606c6be62b","ios":"levelo://app?vid=48775b4a-3e4f-4dde-9e73-84606c6be62b"},"vehicle_type_id":"4","last_reported":1700424408,"current_range_meters":23200,"station_id":"ce4bh492rcd13ifvqdug","pricing_plan_id":"free"},{"bike_id":"5974ad3b-da81-42ca-a08b-1b3632a47afa","system_id":"levelo_inurba_marseille","lat":43.33237,"lon":5.3985,"is_reserved":false,"is_disabled":false,"rental_uris":{"android":"levelo://app?vid=5974ad3b-da81-42ca-a08b-1b3632a47afa","ios":"levelo://app?vid=5974ad3b-da81-42ca-a08b-1b3632a47afa"},"vehicle_type_id":"4","last_reported":1700424408,"current_range_meters":400,"station_id":"","pricing_plan_id":"free"},{"bike_id":"c8815ca1-85b8-4297-b7c2-978e5c43a3d1","system_id":"levelo_inurba_marseille","lat":43.33717,"lon":5.391857,"is_reserved":false,"is_disabled":false,"rental_uris":{"android":"levelo://app?vid=c8815ca1-85b8-4297-b7c2-978e5c43a3d1","ios":"levelo://app?vid=c8815ca1-85b8-4297-b7c2-978e5c43a3d1"},"vehicle_type_id":"4","last_reported":1700424408,"current_range_meters":29200,"station_id":"ce4bhr92rcd13ifvqhsg","pricing_plan_id":"free"},{"bike_id":"f2f6d8f3-6f37-4c1f-bf36-7a2d0b2c889a","system_id":"levelo_inurba_marseille","lat":43.283494,"lon":5.380945,"is_reserved":false,"is_disabled":false,"rental_uris":{"android":"levelo://app?vid=f2f6d8f3-6f37-4c1f-bf36-7a2d0b2c889a","ios":"levelo://app?vid=f2f6d8f3-6f37-4c1f-bf36-7a2d0b2c889a"},"vehicle_type_id":"4","last_reported":1700424408,"current_range_meters":18800,"station_id":"ce4bh412rcd13ifvqdr0","pricing_plan_id":"free"},{"bike_id":"b7da9083-5fd6-4f00-b4cf-3e929d01706e","system_id":"levelo_inurba_marseille","lat":43.283498,"lon":5.380948,"is_reserved":false,"is_disabled":false,"rental_uris":{"android":"levelo://app?vid=b7da9083-5fd6-4f00-b4cf-3e929d01706e","ios":"levelo://app?vid=b7da9083-5fd6-4f00-b4cf-3e929d01706e"},"vehicle_type_id":"4","last_reported":1700424408,"current_range_meters":27200,"station_id":"ce4bh412rcd13ifvqdr0","pricing_plan_id":"free"},{"bike_id":"fa4c9005-dde8-4d36-910e-4da086127f29","system_id":"levelo_inurba_marseille","lat":43.282754,"lon":5.350519,"is_reserved":false,"is_disabled":false,"rental_uris":{"android":"levelo://app?vid=fa4c9005-dde8-4d36-910e-4da086127f29","ios":"levelo://app?vid=fa4c9005-dde8-4d36-910e-4da086127f29"},"vehicle_type_id":"4","last_reported":1700424408,"current_range_meters":7600,"station_id":"ce4bhbp2rcd13ifvqerg","pricing_plan_id":"free"},{"bike_id":"b1c66fbc-007b-44eb-916a-e4ccf40d421e","system_id":"levelo_inurba_marseille","lat":43.290412,"lon":5.399633,"is_reserved":false,"is_disabled":false,"rental_uris":{"android":"levelo://app?vid=b1c66fbc-007b-44eb-916a-e4ccf40d421e","ios":"levelo://app?vid=b1c66fbc-007b-44eb-916a-e4ccf40d421e"},"vehicle_type_id":"4","last_reported":1700424408,"current_range_meters":0,"station_id":"ce4bh392rcd13ifvqdm0","pricing_plan_id":"free"},{"bike_id":"97f33604-d8b0-499e-a965-77084f804318","system_id":"levelo_inurba_marseille","lat":43.284462,"lon":5.392121,"is_reserved":false,"is_disabled":false,"rental_uris":{"android":"levelo://app?vid=97f33604-d8b0-499e-a965-77084f804318","ios":"levelo://app?vid=97f33604-d8b0-499e-a965-77084f804318"},"vehicle_type_id":"4","last_reported":1700424408,"current_range_meters":7600,"station_id":"ce4bhoh2rcd13ifvqh5g","pricing_plan_id":"free"},{"bike_id":"ccf9b17e-2fb6-47d5-b5cb-73ea08fcb6e5","system_id":"levelo_inurba_marseille","lat":43.28575,"lon":5.39498,"is_reserved":false,"is_disabled":false,"rental_uris":{"android":"levelo://app?vid=ccf9b17e-2fb6-47d5-b5cb-73ea08fcb6e5","ios":"levelo://app?vid=ccf9b17e-2fb6-47d5-b5cb-73ea08fcb6e5"},"vehicle_type_id":"4","last_reported":1700424408,"current_range_meters":0,"station_id":"ce4bh292rcd13ifvqdg0","pricing_plan_id":"free"},{"bike_id":"fb744826-f18a-442f-8314-42b11c9558c1","system_id":"levelo_inurba_marseille","lat":43.285742,"lon":5.395004,"is_reserved":false,"is_disabled":false,"rental_uris":{"android":"levelo://app?vid=fb744826-f18a-442f-8314-42b11c9558c1","ios":"levelo://app?vid=fb744826-f18a-442f-8314-42b11c9558c1"},"vehicle_type_id":"4","last_reported":1700424408,"current_range_meters":29200,"station_id":"ce4bh292rcd13ifvqdg0","pricing_plan_id":"free"},{"bike_id":"5d9d48ea-daba-4f97-9219-33a746cb030b","system_id":"levelo_inurba_marseille","lat":43.304137,"lon":5.412876,"is_reserved":false,"is_disabled":false,"rental_uris":{"android":"levelo://app?vid=5d9d48ea-daba-4f97-9219-33a746cb030b","ios":"levelo://app?vid=5d9d48ea-daba-4f97-9219-33a746cb030b"},"vehicle_type_id":"4","last_reported":1700424408,"current_range_meters":2400,"station_id":"ce4bhop2rcd13ifvqh8g","pricing_plan_id":"free"},{"bike_id":"a73e4f69-14a5-4eea-833c-0b5ca431ae90","system_id":"levelo_inurba_marseille","lat":43.304188,"lon":5.412904,"is_reserved":false,"is_disabled":false,"rental_uris":{"android":"levelo://app?vid=a73e4f69-14a5-4eea-833c-0b5ca431ae90","ios":"levelo://app?vid=a73e4f69-14a5-4eea-833c-0b5ca431ae90"},"vehicle_type_id":"4","last_reported":1700424408,"current_range_meters":30800,"station_id":"ce4bhop2rcd13ifvqh8g","pricing_plan_id":"free"},{"bike_id":"81b8e324-48e8-43c4-a9ef-3759cbf406ed","system_id":"levelo_inurba_marseille","lat":43.279087,"lon":5.380114,"is_reserved":false,"is_disabled":false,"rental_uris":{"android":"levelo://app?vid=81b8e324-48e8-43c4-a9ef-3759cbf406ed","ios":"levelo://app?vid=81b8e324-48e8-43c4-a9ef-3759cbf406ed"},"vehicle_type_id":"4","last_reported":1700424408,"current_range_meters":26800,"station_id":"ce4bhf92rcd13ifvqf50","pricing_plan_id":"free"},{"bike_id":"598aaf87-41f9-4d6a-b573-28c75ee55267","system_id":"levelo_inurba_marseille","lat":43.287154,"lon":5.399979,"is_reserved":false,"is_disabled":false,"rental_uris":{"android":"levelo://app?vid=598aaf87-41f9-4d6a-b573-28c75ee55267","ios":"levelo://app?vid=598aaf87-41f9-4d6a-b573-28c75ee55267"},"vehicle_type_id":"4","last_reported":1700424408,"current_range_meters":21600,"station_id":"ce4bho92rcd13ifvqh3g","pricing_plan_id":"free"},{"bike_id":"f3b310f8-bfdd-487d-8f83-3b30c23dab28","system_id":"levelo_inurba_marseille","lat":43.287154,"lon":5.399979,"is_reserved":false,"is_disabled":false,"rental_uris":{"android":"levelo://app?vid=f3b310f8-bfdd-487d-8f83-3b30c23dab28","ios":"levelo://app?vid=f3b310f8-bfdd-487d-8f83-3b30c23dab28"},"vehicle_type_id":"4","last_reported":1700424408,"current_range_meters":14400,"station_id":"ce4bho92rcd13ifvqh3g","pricing_plan_id":"free"},{"bike_id":"42e19aee-6c81-4f77-8a17-d019795e70b7","system_id":"levelo_inurba_marseille","lat":43.279668,"lon":5.387188,"is_reserved":false,"is_disabled":false,"rental_uris":{"android":"levelo://app?vid=42e19aee-6c81-4f77-8a17-d019795e70b7","ios":"levelo://app?vid=42e19aee-6c81-4f77-8a17-d019795e70b7"},"vehicle_type_id":"4","last_reported":1700424408,"current_range_meters":5200,"station_id":"ce4bhg12rcd13ifvqf80","pricing_plan_id":"free"},{"bike_id":"0cbe88d9-171b-4e3f-89d5-a755fe408b41","system_id":"levelo_inurba_marseille","lat":43.279742,"lon":5.38744,"is_reserved":false,"is_disabled":false,"rental_uris":{"android":"levelo://app?vid=0cbe88d9-171b-4e3f-89d5-a755fe408b41","ios":"levelo://app?vid=0cbe88d9-171b-4e3f-89d5-a755fe408b41"},"vehicle_type_id":"4","last_reported":1700424408,"current_range_meters":9200,"station_id":"ce4bhg12rcd13ifvqf80","pricing_plan_id":"free"},{"bike_id":"7f35f530-c05d-499a-b5ee-48a98e4d0dbb","system_id":"levelo_inurba_marseille","lat":43.292569,"lon":5.409107,"is_reserved":false,"is_disabled":false,"rental_uris":{"android":"levelo://app?vid=7f35f530-c05d-499a-b5ee-48a98e4d0dbb","ios":"levelo://app?vid=7f35f530-c05d-499a-b5ee-48a98e4d0dbb"},"vehicle_type_id":"4","last_reported":1700424408,"current_range_meters":12400,"station_id":"ce4bh192rcd13ifvqdc0","pricing_plan_id":"free"},{"bike_id":"0bda960f-b88d-4ba0-a75e-1fc8cc09d4a4","system_id":"levelo_inurba_marseille","lat":43.27559,"lon":5.36028,"is_reserved":false,"is_disabled":false,"rental_uris":{"android":"levelo://app?vid=0bda960f-b88d-4ba0-a75e-1fc8cc09d4a4","ios":"levelo://app?vid=0bda960f-b88d-4ba0-a75e-1fc8cc09d4a4"},"vehicle_type_id":"4","last_reported":1700424408,"current_range_meters":12400,"station_id":"","pricing_plan_id":"free"},{"bike_id":"8c69b603-8a22-457a-9c65-5ead6ab43d89","system_id":"levelo_inurba_marseille","lat":43.280784,"lon":5.396622,"is_reserved":false,"is_disabled":false,"rental_uris":{"android":"levelo://app?vid=8c69b603-8a22-457a-9c65-5ead6ab43d89","ios":"levelo://app?vid=8c69b603-8a22-457a-9c65-5ead6ab43d89"},"vehicle_type_id":"4","last_reported":1700424408,"current_range_meters":27200,"station_id":"ce4bho12rcd13ifvqh2g","pricing_plan_id":"free"},{"bike_id":"d4b4098b-3108-4693-bbcc-ac1187aecdac","system_id":"levelo_inurba_marseille","lat":43.2808,"lon":5.3966,"is_reserved":false,"is_disabled":false,"rental_uris":{"android":"levelo://app?vid=d4b4098b-3108-4693-bbcc-ac1187aecdac","ios":"levelo://app?vid=d4b4098b-3108-4693-bbcc-ac1187aecdac"},"vehicle_type_id":"4","last_reported":1700424408,"current_range_meters":0,"station_id":"ce4bho12rcd13ifvqh2g","pricing_plan_id":"free"},{"bike_id":"01ed7991-eaca-4c39-b3f9-40b4ebe9e070","system_id":"levelo_inurba_marseille","lat":43.273809,"lon":5.362557,"is_reserved":false,"is_disabled":false,"rental_uris":{"android":"levelo://app?vid=01ed7991-eaca-4c39-b3f9-40b4ebe9e070","ios":"levelo://app?vid=01ed7991-eaca-4c39-b3f9-40b4ebe9e070"},"vehicle_type_id":"4","last_reported":1700424408,"current_range_meters":0,"station_id":"ce4bhbh2rcd13ifvqeo0","pricing_plan_id":"free"},{"bike_id":"7b190d01-5b6b-4428-8b0d-1952d926b054","system_id":"levelo_inurba_marseille","lat":43.275606,"lon":5.384138,"is_reserved":false,"is_disabled":false,"rental_uris":{"android":"levelo://app?vid=7b190d01-5b6b-4428-8b0d-1952d926b054","ios":"levelo://app?vid=7b190d01-5b6b-4428-8b0d-1952d926b054"},"vehicle_type_id":"4","last_reported":1700424408,"current_range_meters":8000,"station_id":"ce4bhh92rcd13ifvqfi0","pricing_plan_id":"free"},{"bike_id":"ff5a5e95-7c54-4c33-aa46-f3b11dce3e76","system_id":"levelo_inurba_marseille","lat":43.275625,"lon":5.384392,"is_reserved":false,"is_disabled":false,"rental_uris":{"android":"levelo://app?vid=ff5a5e95-7c54-4c33-aa46-f3b11dce3e76","ios":"levelo://app?vid=ff5a5e95-7c54-4c33-aa46-f3b11dce3e76"},"vehicle_type_id":"4","last_reported":1700424408,"current_range_meters":16400,"station_id":"ce4bhh92rcd13ifvqfi0","pricing_plan_id":"free"},{"bike_id":"ac41be7b-2681-42c2-9295-37e8112997b1","system_id":"levelo_inurba_marseille","lat":43.276771,"lon":5.388799,"is_reserved":false,"is_disabled":false,"rental_uris":{"android":"levelo://app?vid=ac41be7b-2681-42c2-9295-37e8112997b1","ios":"levelo://app?vid=ac41be7b-2681-42c2-9295-37e8112997b1"},"vehicle_type_id":"4","last_reported":1700424408,"current_range_meters":7200,"station_id":"ce4bhi12rcd13ifvqfo0","pricing_plan_id":"free"},{"bike_id":"5a9e9cf0-a54b-46e3-b6d6-4dc50a093f1f","system_id":"levelo_inurba_marseille","lat":43.27642,"lon":5.38884,"is_reserved":false,"is_disabled":false,"rental_uris":{"android":"levelo://app?vid=5a9e9cf0-a54b-46e3-b6d6-4dc50a093f1f","ios":"levelo://app?vid=5a9e9cf0-a54b-46e3-b6d6-4dc50a093f1f"},"vehicle_type_id":"4","last_reported":1700424408,"current_range_meters":0,"station_id":"ce4bhi12rcd13ifvqfo0","pricing_plan_id":"free"},{"bike_id":"b5ed9e53-12f2-4ca4-8008-330c09fa3187","system_id":"levelo_inurba_marseille","lat":43.27998,"lon":5.40006,"is_reserved":false,"is_disabled":false,"rental_uris":{"android":"levelo://app?vid=b5ed9e53-12f2-4ca4-8008-330c09fa3187","ios":"levelo://app?vid=b5ed9e53-12f2-4ca4-8008-330c09fa3187"},"vehicle_type_id":"4","last_reported":1700424408,"current_range_meters":0,"station_id":"ce4bho92rcd13ifvqh4g","pricing_plan_id":"free"},{"bike_id":"8f64ab4c-e41b-42bc-8b04-fd401c60b361","system_id":"levelo_inurba_marseille","lat":43.279952,"lon":5.400085,"is_reserved":false,"is_disabled":false,"rental_uris":{"android":"levelo://app?vid=8f64ab4c-e41b-42bc-8b04-fd401c60b361","ios":"levelo://app?vid=8f64ab4c-e41b-42bc-8b04-fd401c60b361"},"vehicle_type_id":"4","last_reported":1700424408,"current_range_meters":31200,"station_id":"ce4bho92rcd13ifvqh4g","pricing_plan_id":"free"},{"bike_id":"09598e6a-b738-4f12-ac60-d1462555796f","system_id":"levelo_inurba_marseille","lat":43.279952,"lon":5.400085,"is_reserved":false,"is_disabled":false,"rental_uris":{"android":"levelo://app?vid=09598e6a-b738-4f12-ac60-d1462555796f","ios":"levelo://app?vid=09598e6a-b738-4f12-ac60-d1462555796f"},"vehicle_type_id":"4","last_reported":1700424408,"current_range_meters":19600,"station_id":"ce4bho92rcd13ifvqh4g","pricing_plan_id":"free"},{"bike_id":"26e38500-cf06-412c-84c9-f57ade123ddf","system_id":"levelo_inurba_marseille","lat":43.27995,"lon":5.40017,"is_reserved":false,"is_disabled":false,"rental_uris":{"android":"levelo://app?vid=26e38500-cf06-412c-84c9-f57ade123ddf","ios":"levelo://app?vid=26e38500-cf06-412c-84c9-f57ade123ddf"},"vehicle_type_id":"4","last_reported":1700424408,"current_range_meters":30400,"station_id":"ce4bho92rcd13ifvqh4g","pricing_plan_id":"free"},{"bike_id":"1dcde93e-9989-4ef7-ba37-9a69f9a4abe3","system_id":"levelo_inurba_marseille","lat":43.304096,"lon":5.425385,"is_reserved":false,"is_disabled":false,"rental_uris":{"android":"levelo://app?vid=1dcde93e-9989-4ef7-ba37-9a69f9a4abe3","ios":"levelo://app?vid=1dcde93e-9989-4ef7-ba37-9a69f9a4abe3"},"vehicle_type_id":"4","last_reported":1700424408,"current_range_meters":14800,"station_id":"ce4bhoh2rcd13ifvqh6g","pricing_plan_id":"free"},{"bike_id":"78ed1994-6a4d-4937-a848-a352dc9268c0","system_id":"levelo_inurba_marseille","lat":43.295511,"lon":5.422926,"is_reserved":false,"is_disabled":false,"rental_uris":{"android":"levelo://app?vid=78ed1994-6a4d-4937-a848-a352dc9268c0","ios":"levelo://app?vid=78ed1994-6a4d-4937-a848-a352dc9268c0"},"vehicle_type_id":"4","last_reported":1700424408,"current_range_meters":22400,"station_id":"ce4bhph2rcd13ifvqhdg","pricing_plan_id":"free"},{"bike_id":"f8f5619a-a183-461d-b100-453fb972fcd4","system_id":"levelo_inurba_marseille","lat":43.272118,"lon":5.391758,"is_reserved":false,"is_disabled":false,"rental_uris":{"android":"levelo://app?vid=f8f5619a-a183-461d-b100-453fb972fcd4","ios":"levelo://app?vid=f8f5619a-a183-461d-b100-453fb972fcd4"},"vehicle_type_id":"4","last_reported":1700424408,"current_range_meters":18400,"station_id":"ce4bhhp2rcd13ifvqfm0","pricing_plan_id":"free"},{"bike_id":"f0ed4531-078e-42fb-a007-3ed80505eb54","system_id":"levelo_inurba_marseille","lat":43.271891,"lon":5.392412,"is_reserved":false,"is_disabled":false,"rental_uris":{"android":"levelo://app?vid=f0ed4531-078e-42fb-a007-3ed80505eb54","ios":"levelo://app?vid=f0ed4531-078e-42fb-a007-3ed80505eb54"},"vehicle_type_id":"4","last_reported":1700424408,"current_range_meters":2000,"station_id":"","pricing_plan_id":"free"},{"bike_id":"5e1e74ef-1191-4f88-abc2-8533ac447e59","system_id":"levelo_inurba_marseille","lat":43.278128,"lon":5.407195,"is_reserved":false,"is_disabled":false,"rental_uris":{"android":"levelo://app?vid=5e1e74ef-1191-4f88-abc2-8533ac447e59","ios":"levelo://app?vid=5e1e74ef-1191-4f88-abc2-8533ac447e59"},"vehicle_type_id":"4","last_reported":1700424408,"current_range_meters":12800,"station_id":"ce4bhnh2rcd13ifvqgtg","pricing_plan_id":"free"},{"bike_id":"f9b41168-33d8-4a01-9cfe-c6147526c6af","system_id":"levelo_inurba_marseille","lat":43.278128,"lon":5.407195,"is_reserved":false,"is_disabled":false,"rental_uris":{"android":"levelo://app?vid=f9b41168-33d8-4a01-9cfe-c6147526c6af","ios":"levelo://app?vid=f9b41168-33d8-4a01-9cfe-c6147526c6af"},"vehicle_type_id":"4","last_reported":1700424408,"current_range_meters":12400,"station_id":"ce4bhnh2rcd13ifvqgtg","pricing_plan_id":"free"},{"bike_id":"e93711b2-3ed8-41b2-af7d-27f4a424297a","system_id":"levelo_inurba_marseille","lat":43.278128,"lon":5.407195,"is_reserved":false,"is_disabled":false,"rental_uris":{"android":"levelo://app?vid=e93711b2-3ed8-41b2-af7d-27f4a424297a","ios":"levelo://app?vid=e93711b2-3ed8-41b2-af7d-27f4a424297a"},"vehicle_type_id":"4","last_reported":1700424408,"current_range_meters":14000,"station_id":"ce4bhnh2rcd13ifvqgtg","pricing_plan_id":"free"},{"bike_id":"4e904388-8315-42a3-823e-b01ae258624d","system_id":"levelo_inurba_marseille","lat":43.278128,"lon":5.407195,"is_reserved":false,"is_disabled":false,"rental_uris":{"android":"levelo://app?vid=4e904388-8315-42a3-823e-b01ae258624d","ios":"levelo://app?vid=4e904388-8315-42a3-823e-b01ae258624d"},"vehicle_type_id":"4","last_reported":1700424408,"current_range_meters":0,"station_id":"ce4bhnh2rcd13ifvqgtg","pricing_plan_id":"free"},{"bike_id":"66f767e0-a748-496e-ba84-88e846b80a5d","system_id":"levelo_inurba_marseille","lat":43.26952,"lon":5.38627,"is_reserved":false,"is_disabled":false,"rental_uris":{"android":"levelo://app?vid=66f767e0-a748-496e-ba84-88e846b80a5d","ios":"levelo://app?vid=66f767e0-a748-496e-ba84-88e846b80a5d"},"vehicle_type_id":"4","last_reported":1700424408,"current_range_meters":0,"station_id":"ce4bhh92rcd13ifvqfh0","pricing_plan_id":"free"},{"bike_id":"139753b1-0b83-4c3a-80f1-5052bac15461","system_id":"levelo_inurba_marseille","lat":43.271043,"lon":5.393374,"is_reserved":false,"is_disabled":false,"rental_uris":{"android":"levelo://app?vid=139753b1-0b83-4c3a-80f1-5052bac15461","ios":"levelo://app?vid=139753b1-0b83-4c3a-80f1-5052bac15461"},"vehicle_type_id":"4","last_reported":1700424408,"current_range_meters":9600,"station_id":"","pricing_plan_id":"free"},{"bike_id":"f0cca9cd-1a5e-4c1a-be31-2b3cdd41e738","system_id":"levelo_inurba_marseille","lat":43.279407,"lon":5.41044,"is_reserved":false,"is_disabled":false,"rental_uris":{"android":"levelo://app?vid=f0cca9cd-1a5e-4c1a-be31-2b3cdd41e738","ios":"levelo://app?vid=f0cca9cd-1a5e-4c1a-be31-2b3cdd41e738"},"vehicle_type_id":"4","last_reported":1700424408,"current_range_meters":20000,"station_id":"ce4bhnp2rcd13ifvqh0g","pricing_plan_id":"free"},{"bike_id":"eda35713-2d91-4d45-8887-2178060c317d","system_id":"levelo_inurba_marseille","lat":43.279465,"lon":5.410561,"is_reserved":false,"is_disabled":false,"rental_uris":{"android":"levelo://app?vid=eda35713-2d91-4d45-8887-2178060c317d","ios":"levelo://app?vid=eda35713-2d91-4d45-8887-2178060c317d"},"vehicle_type_id":"4","last_reported":1700424408,"current_range_meters":22400,"station_id":"ce4bhnp2rcd13ifvqh0g","pricing_plan_id":"free"},{"bike_id":"80b1dae0-4d3f-4f68-b655-78b9a54f41f0","system_id":"levelo_inurba_marseille","lat":43.269319,"lon":5.389397,"is_reserved":false,"is_disabled":false,"rental_uris":{"android":"levelo://app?vid=80b1dae0-4d3f-4f68-b655-78b9a54f41f0","ios":"levelo://app?vid=80b1dae0-4d3f-4f68-b655-78b9a54f41f0"},"vehicle_type_id":"4","last_reported":1700424408,"current_range_meters":22800,"station_id":"ce4bhhh2rcd13ifvqfl0","pricing_plan_id":"free"},{"bike_id":"cee507f1-d51b-4a86-8ee4-c6547fae5fc2","system_id":"levelo_inurba_marseille","lat":43.269319,"lon":5.389397,"is_reserved":false,"is_disabled":false,"rental_uris":{"android":"levelo://app?vid=cee507f1-d51b-4a86-8ee4-c6547fae5fc2","ios":"levelo://app?vid=cee507f1-d51b-4a86-8ee4-c6547fae5fc2"},"vehicle_type_id":"4","last_reported":1700424408,"current_range_meters":21600,"station_id":"ce4bhhh2rcd13ifvqfl0","pricing_plan_id":"free"},{"bike_id":"c7758cb2-2a45-4f89-aa5c-0e391d845c76","system_id":"levelo_inurba_marseille","lat":43.326053,"lon":5.429943,"is_reserved":false,"is_disabled":false,"rental_uris":{"android":"levelo://app?vid=c7758cb2-2a45-4f89-aa5c-0e391d845c76","ios":"levelo://app?vid=c7758cb2-2a45-4f89-aa5c-0e391d845c76"},"vehicle_type_id":"4","last_reported":1700424408,"current_range_meters":0,"station_id":"","pricing_plan_id":"free"},{"bike_id":"42871d3b-8c03-490f-baf1-f4b57c44a331","system_id":"levelo_inurba_marseille","lat":43.326174,"lon":5.430584,"is_reserved":false,"is_disabled":false,"rental_uris":{"android":"levelo://app?vid=42871d3b-8c03-490f-baf1-f4b57c44a331","ios":"levelo://app?vid=42871d3b-8c03-490f-baf1-f4b57c44a331"},"vehicle_type_id":"4","last_reported":1700424408,"current_range_meters":17200,"station_id":"","pricing_plan_id":"free"},{"bike_id":"430b37fc-7a8b-442b-8989-cf57d8b4df6c","system_id":"levelo_inurba_marseille","lat":43.27996,"lon":5.416624,"is_reserved":false,"is_disabled":false,"rental_uris":{"android":"levelo://app?vid=430b37fc-7a8b-442b-8989-cf57d8b4df6c","ios":"levelo://app?vid=430b37fc-7a8b-442b-8989-cf57d8b4df6c"},"vehicle_type_id":"4","last_reported":1700424408,"current_range_meters":0,"station_id":"ce4bho12rcd13ifvqh1g","pricing_plan_id":"free"},{"bike_id":"87a6878c-3d21-4a6e-af61-fcb7168fae7f","system_id":"levelo_inurba_marseille","lat":43.27996,"lon":5.416624,"is_reserved":false,"is_disabled":false,"rental_uris":{"android":"levelo://app?vid=87a6878c-3d21-4a6e-af61-fcb7168fae7f","ios":"levelo://app?vid=87a6878c-3d21-4a6e-af61-fcb7168fae7f"},"vehicle_type_id":"4","last_reported":1700424408,"current_range_meters":29600,"station_id":"ce4bho12rcd13ifvqh1g","pricing_plan_id":"free"},{"bike_id":"87be04d4-b68d-4ca4-bc75-5865077b920f","system_id":"levelo_inurba_marseille","lat":43.288473,"lon":5.42632,"is_reserved":false,"is_disabled":false,"rental_uris":{"android":"levelo://app?vid=87be04d4-b68d-4ca4-bc75-5865077b920f","ios":"levelo://app?vid=87be04d4-b68d-4ca4-bc75-5865077b920f"},"vehicle_type_id":"4","last_reported":1700424408,"current_range_meters":1600,"station_id":"","pricing_plan_id":"free"},{"bike_id":"f7fbcf96-85d5-481b-bec9-968b3ef5bdaf","system_id":"levelo_inurba_marseille","lat":43.308,"lon":5.43526,"is_reserved":false,"is_disabled":false,"rental_uris":{"android":"levelo://app?vid=f7fbcf96-85d5-481b-bec9-968b3ef5bdaf","ios":"levelo://app?vid=f7fbcf96-85d5-481b-bec9-968b3ef5bdaf"},"vehicle_type_id":"4","last_reported":1700424408,"current_range_meters":0,"station_id":"ce4bhph2rcd13ifvqheg","pricing_plan_id":"free"},{"bike_id":"19da9fa4-829f-4697-8df0-69d6d4cab13f","system_id":"levelo_inurba_marseille","lat":43.261782,"lon":5.374515,"is_reserved":false,"is_disabled":false,"rental_uris":{"android":"levelo://app?vid=19da9fa4-829f-4697-8df0-69d6d4cab13f","ios":"levelo://app?vid=19da9fa4-829f-4697-8df0-69d6d4cab13f"},"vehicle_type_id":"4","last_reported":1700424408,"current_range_meters":4800,"station_id":"ce4bhgp2rcd13ifvqfc0","pricing_plan_id":"free"},{"bike_id":"f1652e3f-c477-413b-a9b7-b30d047c7518","system_id":"levelo_inurba_marseille","lat":43.2618,"lon":5.37447,"is_reserved":false,"is_disabled":false,"rental_uris":{"android":"levelo://app?vid=f1652e3f-c477-413b-a9b7-b30d047c7518","ios":"levelo://app?vid=f1652e3f-c477-413b-a9b7-b30d047c7518"},"vehicle_type_id":"4","last_reported":1700424408,"current_range_meters":0,"station_id":"ce4bhgp2rcd13ifvqfc0","pricing_plan_id":"free"},{"bike_id":"3cb4b355-a6c6-410c-9364-d909c43f14e8","system_id":"levelo_inurba_marseille","lat":43.267959,"lon":5.402685,"is_reserved":false,"is_disabled":false,"rental_uris":{"android":"levelo://app?vid=3cb4b355-a6c6-410c-9364-d909c43f14e8","ios":"levelo://app?vid=3cb4b355-a6c6-410c-9364-d909c43f14e8"},"vehicle_type_id":"4","last_reported":1700424408,"current_range_meters":4800,"station_id":"ce501612rcd8frsf0b60","pricing_plan_id":"free"},{"bike_id":"0b463117-91af-43f2-b5ca-fcb25ffe9061","system_id":"levelo_inurba_marseille","lat":43.26801,"lon":5.40268,"is_reserved":false,"is_disabled":false,"rental_uris":{"android":"levelo://app?vid=0b463117-91af-43f2-b5ca-fcb25ffe9061","ios":"levelo://app?vid=0b463117-91af-43f2-b5ca-fcb25ffe9061"},"vehicle_type_id":"4","last_reported":1700424408,"current_range_meters":0,"station_id":"ce501612rcd8frsf0b60","pricing_plan_id":"free"},{"bike_id":"74ce853b-0d8b-42c9-81c8-17a7564a4b34","system_id":"levelo_inurba_marseille","lat":43.31725,"lon":5.43786,"is_reserved":false,"is_disabled":false,"rental_uris":{"android":"levelo://app?vid=74ce853b-0d8b-42c9-81c8-17a7564a4b34","ios":"levelo://app?vid=74ce853b-0d8b-42c9-81c8-17a7564a4b34"},"vehicle_type_id":"4","last_reported":1700424408,"current_range_meters":13600,"station_id":"","pricing_plan_id":"free"},{"bike_id":"899bf2e4-d437-43aa-9d87-9b33de90f3da","system_id":"levelo_inurba_marseille","lat":43.298768,"lon":5.43643,"is_reserved":false,"is_disabled":false,"rental_uris":{"android":"levelo://app?vid=899bf2e4-d437-43aa-9d87-9b33de90f3da","ios":"levelo://app?vid=899bf2e4-d437-43aa-9d87-9b33de90f3da"},"vehicle_type_id":"4","last_reported":1700424408,"current_range_meters":26000,"station_id":"ce4bhpp2rcd13ifvqhfg","pricing_plan_id":"free"},{"bike_id":"1ca2ac24-b06e-48c6-81c8-2eb348350cce","system_id":"levelo_inurba_marseille","lat":43.28157,"lon":5.4264,"is_reserved":false,"is_disabled":false,"rental_uris":{"android":"levelo://app?vid=1ca2ac24-b06e-48c6-81c8-2eb348350cce","ios":"levelo://app?vid=1ca2ac24-b06e-48c6-81c8-2eb348350cce"},"vehicle_type_id":"4","last_reported":1700424408,"current_range_meters":0,"station_id":"ce4bhnh2rcd13ifvqgug","pricing_plan_id":"free"},{"bike_id":"ba2167bf-10a6-47c6-a20c-08a3d7bf8f95","system_id":"levelo_inurba_marseille","lat":43.260909,"lon":5.397591,"is_reserved":false,"is_disabled":false,"rental_uris":{"android":"levelo://app?vid=ba2167bf-10a6-47c6-a20c-08a3d7bf8f95","ios":"levelo://app?vid=ba2167bf-10a6-47c6-a20c-08a3d7bf8f95"},"vehicle_type_id":"4","last_reported":1700424408,"current_range_meters":0,"station_id":"ce4bhi12rcd13ifvqfq0","pricing_plan_id":"free"},{"bike_id":"04aae268-835a-4433-a037-0574dea6082b","system_id":"levelo_inurba_marseille","lat":43.275028,"lon":5.424534,"is_reserved":false,"is_disabled":false,"rental_uris":{"android":"levelo://app?vid=04aae268-835a-4433-a037-0574dea6082b","ios":"levelo://app?vid=04aae268-835a-4433-a037-0574dea6082b"},"vehicle_type_id":"4","last_reported":1700424408,"current_range_meters":22400,"station_id":"ce4bhn92rcd13ifvqgrg","pricing_plan_id":"free"},{"bike_id":"912e3ad7-7842-4669-bedf-186d6ab56cc0","system_id":"levelo_inurba_marseille","lat":43.258224,"lon":5.394369,"is_reserved":false,"is_disabled":false,"rental_uris":{"android":"levelo://app?vid=912e3ad7-7842-4669-bedf-186d6ab56cc0","ios":"levelo://app?vid=912e3ad7-7842-4669-bedf-186d6ab56cc0"},"vehicle_type_id":"4","last_reported":1700424408,"current_range_meters":17600,"station_id":"ce4bhip2rcd13ifvqft0","pricing_plan_id":"free"},{"bike_id":"3c7600fa-272a-4807-b331-48e666f0d425","system_id":"levelo_inurba_marseille","lat":43.2558,"lon":5.38241,"is_reserved":false,"is_disabled":false,"rental_uris":{"android":"levelo://app?vid=3c7600fa-272a-4807-b331-48e666f0d425","ios":"levelo://app?vid=3c7600fa-272a-4807-b331-48e666f0d425"},"vehicle_type_id":"4","last_reported":1700424408,"current_range_meters":29200,"station_id":"ce4bhih2rcd13ifvqfs0","pricing_plan_id":"free"},{"bike_id":"9697303c-ef48-4edd-ae7a-ee91d22e0a79","system_id":"levelo_inurba_marseille","lat":43.270721,"lon":5.422764,"is_reserved":false,"is_disabled":false,"rental_uris":{"android":"levelo://app?vid=9697303c-ef48-4edd-ae7a-ee91d22e0a79","ios":"levelo://app?vid=9697303c-ef48-4edd-ae7a-ee91d22e0a79"},"vehicle_type_id":"4","last_reported":1700424408,"current_range_meters":0,"station_id":"ce4bhk92rcd13ifvqgb0","pricing_plan_id":"free"},{"bike_id":"a71f2627-bcf9-4eb5-8e90-012e27c2ba42","system_id":"levelo_inurba_marseille","lat":43.258658,"lon":5.398935,"is_reserved":false,"is_disabled":false,"rental_uris":{"android":"levelo://app?vid=a71f2627-bcf9-4eb5-8e90-012e27c2ba42","ios":"levelo://app?vid=a71f2627-bcf9-4eb5-8e90-012e27c2ba42"},"vehicle_type_id":"4","last_reported":1700424408,"current_range_meters":24000,"station_id":"ce4bhl92rcd13ifvqghg","pricing_plan_id":"free"},{"bike_id":"653a93dc-fdc8-45b7-9661-c0469e70ba2a","system_id":"levelo_inurba_marseille","lat":43.25943,"lon":5.40903,"is_reserved":false,"is_disabled":false,"rental_uris":{"android":"levelo://app?vid=653a93dc-fdc8-45b7-9661-c0469e70ba2a","ios":"levelo://app?vid=653a93dc-fdc8-45b7-9661-c0469e70ba2a"},"vehicle_type_id":"4","last_reported":1700424408,"current_range_meters":0,"station_id":"ce4bhm92rcd13ifvqglg","pricing_plan_id":"free"},{"bike_id":"71ab3d11-8131-4d98-84fc-b1bae6b046de","system_id":"levelo_inurba_marseille","lat":43.257079,"lon":5.411051,"is_reserved":false,"is_disabled":false,"rental_uris":{"android":"levelo://app?vid=71ab3d11-8131-4d98-84fc-b1bae6b046de","ios":"levelo://app?vid=71ab3d11-8131-4d98-84fc-b1bae6b046de"},"vehicle_type_id":"4","last_reported":1700424408,"current_range_meters":8400,"station_id":"ce4bhkp2rcd13ifvqgd0","pricing_plan_id":"free"},{"bike_id":"e4d34eeb-11ab-4160-8bb6-57c64b4f5f01","system_id":"levelo_inurba_marseille","lat":43.250023,"lon":5.38919,"is_reserved":false,"is_disabled":false,"rental_uris":{"android":"levelo://app?vid=e4d34eeb-11ab-4160-8bb6-57c64b4f5f01","ios":"levelo://app?vid=e4d34eeb-11ab-4160-8bb6-57c64b4f5f01"},"vehicle_type_id":"4","last_reported":1700424408,"current_range_meters":5200,"station_id":"ce4bhgp2rcd13ifvqfd0","pricing_plan_id":"free"},{"bike_id":"a9abb6a4-befb-4a40-9046-6f8e118eead0","system_id":"levelo_inurba_marseille","lat":43.250009,"lon":5.389195,"is_reserved":false,"is_disabled":false,"rental_uris":{"android":"levelo://app?vid=a9abb6a4-befb-4a40-9046-6f8e118eead0","ios":"levelo://app?vid=a9abb6a4-befb-4a40-9046-6f8e118eead0"},"vehicle_type_id":"4","last_reported":1700424408,"current_range_meters":2400,"station_id":"ce4bhgp2rcd13ifvqfd0","pricing_plan_id":"free"},{"bike_id":"ec579043-386b-4cc4-aa67-a0abaefe3d37","system_id":"levelo_inurba_marseille","lat":43.250009,"lon":5.389195,"is_reserved":false,"is_disabled":false,"rental_uris":{"android":"levelo://app?vid=ec579043-386b-4cc4-aa67-a0abaefe3d37","ios":"levelo://app?vid=ec579043-386b-4cc4-aa67-a0abaefe3d37"},"vehicle_type_id":"4","last_reported":1700424408,"current_range_meters":18800,"station_id":"ce4bhgp2rcd13ifvqfd0","pricing_plan_id":"free"},{"bike_id":"f12b5072-5f95-422a-8996-e444b1dd3858","system_id":"levelo_inurba_marseille","lat":43.250009,"lon":5.389195,"is_reserved":false,"is_disabled":false,"rental_uris":{"android":"levelo://app?vid=f12b5072-5f95-422a-8996-e444b1dd3858","ios":"levelo://app?vid=f12b5072-5f95-422a-8996-e444b1dd3858"},"vehicle_type_id":"4","last_reported":1700424408,"current_range_meters":31200,"station_id":"ce4bhgp2rcd13ifvqfd0","pricing_plan_id":"free"},{"bike_id":"d62e58d7-98fc-40db-a3a3-de5ed877e021","system_id":"levelo_inurba_marseille","lat":43.250023,"lon":5.38919,"is_reserved":false,"is_disabled":false,"rental_uris":{"android":"levelo://app?vid=d62e58d7-98fc-40db-a3a3-de5ed877e021","ios":"levelo://app?vid=d62e58d7-98fc-40db-a3a3-de5ed877e021"},"vehicle_type_id":"4","last_reported":1700424408,"current_range_meters":9200,"station_id":"ce4bhgp2rcd13ifvqfd0","pricing_plan_id":"free"},{"bike_id":"a8de8240-35e7-4bae-aafe-17b152381e60","system_id":"levelo_inurba_marseille","lat":43.250023,"lon":5.38919,"is_reserved":false,"is_disabled":false,"rental_uris":{"android":"levelo://app?vid=a8de8240-35e7-4bae-aafe-17b152381e60","ios":"levelo://app?vid=a8de8240-35e7-4bae-aafe-17b152381e60"},"vehicle_type_id":"4","last_reported":1700424408,"current_range_meters":9200,"station_id":"ce4bhgp2rcd13ifvqfd0","pricing_plan_id":"free"},{"bike_id":"cbebf4c9-fefa-462f-aa69-dbf5f7335c79","system_id":"levelo_inurba_marseille","lat":43.2479,"lon":5.374457,"is_reserved":false,"is_disabled":false,"rental_uris":{"android":"levelo://app?vid=cbebf4c9-fefa-462f-aa69-dbf5f7335c79","ios":"levelo://app?vid=cbebf4c9-fefa-462f-aa69-dbf5f7335c79"},"vehicle_type_id":"4","last_reported":1700424408,"current_range_meters":14000,"station_id":"ce4bhgh2rcd13ifvqfb0","pricing_plan_id":"free"},{"bike_id":"a1efa6fc-89b2-4657-95b8-6d44c04f19ba","system_id":"levelo_inurba_marseille","lat":43.24666,"lon":5.3816,"is_reserved":false,"is_disabled":false,"rental_uris":{"android":"levelo://app?vid=a1efa6fc-89b2-4657-95b8-6d44c04f19ba","ios":"levelo://app?vid=a1efa6fc-89b2-4657-95b8-6d44c04f19ba"},"vehicle_type_id":"4","last_reported":1700424408,"current_range_meters":15200,"station_id":"ce4bhih2rcd13ifvqfr0","pricing_plan_id":"free"},{"bike_id":"a54acd97-457e-4c98-a0b6-15e8ede8a34e","system_id":"levelo_inurba_marseille","lat":43.24665,"lon":5.38154,"is_reserved":false,"is_disabled":false,"rental_uris":{"android":"levelo://app?vid=a54acd97-457e-4c98-a0b6-15e8ede8a34e","ios":"levelo://app?vid=a54acd97-457e-4c98-a0b6-15e8ede8a34e"},"vehicle_type_id":"4","last_reported":1700424408,"current_range_meters":10000,"station_id":"ce4bhih2rcd13ifvqfr0","pricing_plan_id":"free"},{"bike_id":"b282cacc-2eb9-4943-98d7-dd5b554d7fca","system_id":"levelo_inurba_marseille","lat":43.25117,"lon":5.40319,"is_reserved":false,"is_disabled":false,"rental_uris":{"android":"levelo://app?vid=b282cacc-2eb9-4943-98d7-dd5b554d7fca","ios":"levelo://app?vid=b282cacc-2eb9-4943-98d7-dd5b554d7fca"},"vehicle_type_id":"4","last_reported":1700424408,"current_range_meters":0,"station_id":"ce4bhlh2rcd13ifvqgig","pricing_plan_id":"free"},{"bike_id":"afba5a92-1e58-4c85-895e-4bc18e81cf01","system_id":"levelo_inurba_marseille","lat":43.24693,"lon":5.382096,"is_reserved":false,"is_disabled":false,"rental_uris":{"android":"levelo://app?vid=afba5a92-1e58-4c85-895e-4bc18e81cf01","ios":"levelo://app?vid=afba5a92-1e58-4c85-895e-4bc18e81cf01"},"vehicle_type_id":"4","last_reported":1700424408,"current_range_meters":8000,"station_id":"ce4bhih2rcd13ifvqfr0","pricing_plan_id":"free"},{"bike_id":"7e8adc22-1ffe-4ad4-8b3b-4602d99409dd","system_id":"levelo_inurba_marseille","lat":43.25102,"lon":5.403214,"is_reserved":false,"is_disabled":false,"rental_uris":{"android":"levelo://app?vid=7e8adc22-1ffe-4ad4-8b3b-4602d99409dd","ios":"levelo://app?vid=7e8adc22-1ffe-4ad4-8b3b-4602d99409dd"},"vehicle_type_id":"4","last_reported":1700424408,"current_range_meters":18800,"station_id":"ce4bhlh2rcd13ifvqgig","pricing_plan_id":"free"},{"bike_id":"a65b14fe-b76a-49c8-8af2-80784a81288f","system_id":"levelo_inurba_marseille","lat":43.25102,"lon":5.403214,"is_reserved":false,"is_disabled":false,"rental_uris":{"android":"levelo://app?vid=a65b14fe-b76a-49c8-8af2-80784a81288f","ios":"levelo://app?vid=a65b14fe-b76a-49c8-8af2-80784a81288f"},"vehicle_type_id":"4","last_reported":1700424408,"current_range_meters":6800,"station_id":"ce4bhlh2rcd13ifvqgig","pricing_plan_id":"free"},{"bike_id":"f3cc259b-9767-4b5e-a1ff-28a5b7679f9d","system_id":"levelo_inurba_marseille","lat":43.25102,"lon":5.403214,"is_reserved":false,"is_disabled":false,"rental_uris":{"android":"levelo://app?vid=f3cc259b-9767-4b5e-a1ff-28a5b7679f9d","ios":"levelo://app?vid=f3cc259b-9767-4b5e-a1ff-28a5b7679f9d"},"vehicle_type_id":"4","last_reported":1700424408,"current_range_meters":18400,"station_id":"ce4bhlh2rcd13ifvqgig","pricing_plan_id":"free"},{"bike_id":"bc119960-00e1-4c4b-aee3-68bd35ca74ac","system_id":"levelo_inurba_marseille","lat":43.25102,"lon":5.403214,"is_reserved":false,"is_disabled":false,"rental_uris":{"android":"levelo://app?vid=bc119960-00e1-4c4b-aee3-68bd35ca74ac","ios":"levelo://app?vid=bc119960-00e1-4c4b-aee3-68bd35ca74ac"},"vehicle_type_id":"4","last_reported":1700424408,"current_range_meters":8800,"station_id":"ce4bhlh2rcd13ifvqgig","pricing_plan_id":"free"},{"bike_id":"b6e680b5-6ba4-400e-85cc-fdb7bed090f7","system_id":"levelo_inurba_marseille","lat":43.246467,"lon":5.388984,"is_reserved":false,"is_disabled":false,"rental_uris":{"android":"levelo://app?vid=b6e680b5-6ba4-400e-85cc-fdb7bed090f7","ios":"levelo://app?vid=b6e680b5-6ba4-400e-85cc-fdb7bed090f7"},"vehicle_type_id":"4","last_reported":1700424408,"current_range_meters":28800,"station_id":"ce4bhg12rcd13ifvqf60","pricing_plan_id":"free"},{"bike_id":"48551b10-7a07-44d3-8793-398c73779585","system_id":"levelo_inurba_marseille","lat":43.246467,"lon":5.388984,"is_reserved":false,"is_disabled":false,"rental_uris":{"android":"levelo://app?vid=48551b10-7a07-44d3-8793-398c73779585","ios":"levelo://app?vid=48551b10-7a07-44d3-8793-398c73779585"},"vehicle_type_id":"4","last_reported":1700424408,"current_range_meters":25600,"station_id":"ce4bhg12rcd13ifvqf60","pricing_plan_id":"free"},{"bike_id":"349e7ca2-225d-41f3-91d8-feca0eadad04","system_id":"levelo_inurba_marseille","lat":43.245581,"lon":5.395069,"is_reserved":false,"is_disabled":false,"rental_uris":{"android":"levelo://app?vid=349e7ca2-225d-41f3-91d8-feca0eadad04","ios":"levelo://app?vid=349e7ca2-225d-41f3-91d8-feca0eadad04"},"vehicle_type_id":"4","last_reported":1700424408,"current_range_meters":9600,"station_id":"ce4bhlp2rcd13ifvqgjg","pricing_plan_id":"free"},{"bike_id":"e9366288-2201-4d30-a28f-b0496adb740a","system_id":"levelo_inurba_marseille","lat":43.245581,"lon":5.395069,"is_reserved":false,"is_disabled":false,"rental_uris":{"android":"levelo://app?vid=e9366288-2201-4d30-a28f-b0496adb740a","ios":"levelo://app?vid=e9366288-2201-4d30-a28f-b0496adb740a"},"vehicle_type_id":"4","last_reported":1700424408,"current_range_meters":10000,"station_id":"ce4bhlp2rcd13ifvqgjg","pricing_plan_id":"free"},{"bike_id":"af70494d-24d1-4052-860f-3b2a355d915b","system_id":"levelo_inurba_marseille","lat":43.240623,"lon":5.377642,"is_reserved":false,"is_disabled":false,"rental_uris":{"android":"levelo://app?vid=af70494d-24d1-4052-860f-3b2a355d915b","ios":"levelo://app?vid=af70494d-24d1-4052-860f-3b2a355d915b"},"vehicle_type_id":"4","last_reported":1700424408,"current_range_meters":11200,"station_id":"ce4bhnp2rcd13ifvqgvg","pricing_plan_id":"free"},{"bike_id":"10754a0b-8195-408d-973e-5779814a3bab","system_id":"levelo_inurba_marseille","lat":43.240623,"lon":5.377642,"is_reserved":false,"is_disabled":false,"rental_uris":{"android":"levelo://app?vid=10754a0b-8195-408d-973e-5779814a3bab","ios":"levelo://app?vid=10754a0b-8195-408d-973e-5779814a3bab"},"vehicle_type_id":"4","last_reported":1700424408,"current_range_meters":24400,"station_id":"ce4bhnp2rcd13ifvqgvg","pricing_plan_id":"free"},{"bike_id":"cfa9521a-cea9-4edf-9f2a-1422ddb7ac10","system_id":"levelo_inurba_marseille","lat":43.240623,"lon":5.377642,"is_reserved":false,"is_disabled":false,"rental_uris":{"android":"levelo://app?vid=cfa9521a-cea9-4edf-9f2a-1422ddb7ac10","ios":"levelo://app?vid=cfa9521a-cea9-4edf-9f2a-1422ddb7ac10"},"vehicle_type_id":"4","last_reported":1700424408,"current_range_meters":30400,"station_id":"ce4bhnp2rcd13ifvqgvg","pricing_plan_id":"free"},{"bike_id":"d1161103-e87d-40cc-b115-1ba7c43ae4f9","system_id":"levelo_inurba_marseille","lat":43.240623,"lon":5.377642,"is_reserved":false,"is_disabled":false,"rental_uris":{"android":"levelo://app?vid=d1161103-e87d-40cc-b115-1ba7c43ae4f9","ios":"levelo://app?vid=d1161103-e87d-40cc-b115-1ba7c43ae4f9"},"vehicle_type_id":"4","last_reported":1700424408,"current_range_meters":26800,"station_id":"ce4bhnp2rcd13ifvqgvg","pricing_plan_id":"free"},{"bike_id":"33cb4995-2f44-44df-bb6b-4d73bc352569","system_id":"levelo_inurba_marseille","lat":43.239588,"lon":5.366238,"is_reserved":false,"is_disabled":false,"rental_uris":{"android":"levelo://app?vid=33cb4995-2f44-44df-bb6b-4d73bc352569","ios":"levelo://app?vid=33cb4995-2f44-44df-bb6b-4d73bc352569"},"vehicle_type_id":"4","last_reported":1700424408,"current_range_meters":9600,"station_id":"ce4bhi12rcd13ifvqfp0","pricing_plan_id":"free"},{"bike_id":"8872c7b8-c4a3-4750-b6cf-f9bc2db8b393","system_id":"levelo_inurba_marseille","lat":43.239588,"lon":5.366238,"is_reserved":false,"is_disabled":false,"rental_uris":{"android":"levelo://app?vid=8872c7b8-c4a3-4750-b6cf-f9bc2db8b393","ios":"levelo://app?vid=8872c7b8-c4a3-4750-b6cf-f9bc2db8b393"},"vehicle_type_id":"4","last_reported":1700424408,"current_range_meters":23600,"station_id":"ce4bhi12rcd13ifvqfp0","pricing_plan_id":"free"},{"bike_id":"8eab7e84-1847-40e3-8e05-13b79ecc7a07","system_id":"levelo_inurba_marseille","lat":43.239588,"lon":5.366238,"is_reserved":false,"is_disabled":false,"rental_uris":{"android":"levelo://app?vid=8eab7e84-1847-40e3-8e05-13b79ecc7a07","ios":"levelo://app?vid=8eab7e84-1847-40e3-8e05-13b79ecc7a07"},"vehicle_type_id":"4","last_reported":1700424408,"current_range_meters":22400,"station_id":"ce4bhi12rcd13ifvqfp0","pricing_plan_id":"free"},{"bike_id":"1916ba89-348a-46de-862f-002e26a606b7","system_id":"levelo_inurba_marseille","lat":43.241845,"lon":5.397312,"is_reserved":false,"is_disabled":false,"rental_uris":{"android":"levelo://app?vid=1916ba89-348a-46de-862f-002e26a606b7","ios":"levelo://app?vid=1916ba89-348a-46de-862f-002e26a606b7"},"vehicle_type_id":"4","last_reported":1700424408,"current_range_meters":5200,"station_id":"ce4bhn12rcd13ifvqgpg","pricing_plan_id":"free"},{"bike_id":"1ff1404d-a5fd-4baa-b0f6-1aa090c9ce89","system_id":"levelo_inurba_marseille","lat":43.241782,"lon":5.397261,"is_reserved":false,"is_disabled":false,"rental_uris":{"android":"levelo://app?vid=1ff1404d-a5fd-4baa-b0f6-1aa090c9ce89","ios":"levelo://app?vid=1ff1404d-a5fd-4baa-b0f6-1aa090c9ce89"},"vehicle_type_id":"4","last_reported":1700424408,"current_range_meters":24400,"station_id":"ce4bhn12rcd13ifvqgpg","pricing_plan_id":"free"},{"bike_id":"1e4c8235-2661-4216-9b37-2498240d8932","system_id":"levelo_inurba_marseille","lat":43.24177,"lon":5.39726,"is_reserved":false,"is_disabled":false,"rental_uris":{"android":"levelo://app?vid=1e4c8235-2661-4216-9b37-2498240d8932","ios":"levelo://app?vid=1e4c8235-2661-4216-9b37-2498240d8932"},"vehicle_type_id":"4","last_reported":1700424408,"current_range_meters":14800,"station_id":"ce4bhn12rcd13ifvqgpg","pricing_plan_id":"free"},{"bike_id":"4370869b-0c59-4e1b-b4c7-59bf3a7bc50e","system_id":"levelo_inurba_marseille","lat":43.241782,"lon":5.397261,"is_reserved":false,"is_disabled":false,"rental_uris":{"android":"levelo://app?vid=4370869b-0c59-4e1b-b4c7-59bf3a7bc50e","ios":"levelo://app?vid=4370869b-0c59-4e1b-b4c7-59bf3a7bc50e"},"vehicle_type_id":"4","last_reported":1700424408,"current_range_meters":11600,"station_id":"ce4bhn12rcd13ifvqgpg","pricing_plan_id":"free"},{"bike_id":"c7d71dd3-1e23-47a1-af8a-ee349e4bdae4","system_id":"levelo_inurba_marseille","lat":43.231919,"lon":5.355532,"is_reserved":false,"is_disabled":false,"rental_uris":{"android":"levelo://app?vid=c7d71dd3-1e23-47a1-af8a-ee349e4bdae4","ios":"levelo://app?vid=c7d71dd3-1e23-47a1-af8a-ee349e4bdae4"},"vehicle_type_id":"4","last_reported":1700424408,"current_range_meters":24800,"station_id":"ce4bhu92rcd13ifvqi70","pricing_plan_id":"free"},{"bike_id":"af1ded82-d209-4511-aea5-36860ab15eac","system_id":"levelo_inurba_marseille","lat":43.231794,"lon":5.400052,"is_reserved":false,"is_disabled":false,"rental_uris":{"android":"levelo://app?vid=af1ded82-d209-4511-aea5-36860ab15eac","ios":"levelo://app?vid=af1ded82-d209-4511-aea5-36860ab15eac"},"vehicle_type_id":"4","last_reported":1700424408,"current_range_meters":29200,"station_id":"ce4bhn12rcd13ifvqgqg","pricing_plan_id":"free"},{"bike_id":"9886a500-d50e-4074-b619-a72aa0119469","system_id":"levelo_inurba_marseille","lat":43.231794,"lon":5.400052,"is_reserved":false,"is_disabled":false,"rental_uris":{"android":"levelo://app?vid=9886a500-d50e-4074-b619-a72aa0119469","ios":"levelo://app?vid=9886a500-d50e-4074-b619-a72aa0119469"},"vehicle_type_id":"4","last_reported":1700424408,"current_range_meters":23200,"station_id":"ce4bhn12rcd13ifvqgqg","pricing_plan_id":"free"},{"bike_id":"7a97123b-e1f7-4f9a-8649-9d01ae56d041","system_id":"levelo_inurba_marseille","lat":43.231793,"lon":5.400044,"is_reserved":false,"is_disabled":false,"rental_uris":{"android":"levelo://app?vid=7a97123b-e1f7-4f9a-8649-9d01ae56d041","ios":"levelo://app?vid=7a97123b-e1f7-4f9a-8649-9d01ae56d041"},"vehicle_type_id":"4","last_reported":1700424408,"current_range_meters":30800,"station_id":"ce4bhn12rcd13ifvqgqg","pricing_plan_id":"free"},{"bike_id":"837a4e28-a2c9-4a55-a3de-d83edae6e4cd","system_id":"levelo_inurba_marseille","lat":43.231793,"lon":5.400044,"is_reserved":false,"is_disabled":false,"rental_uris":{"android":"levelo://app?vid=837a4e28-a2c9-4a55-a3de-d83edae6e4cd","ios":"levelo://app?vid=837a4e28-a2c9-4a55-a3de-d83edae6e4cd"},"vehicle_type_id":"4","last_reported":1700424408,"current_range_meters":7600,"station_id":"ce4bhn12rcd13ifvqgqg","pricing_plan_id":"free"},{"bike_id":"578b4586-6567-48cd-8cd7-2cf4e852f792","system_id":"levelo_inurba_marseille","lat":43.231793,"lon":5.400044,"is_reserved":false,"is_disabled":false,"rental_uris":{"android":"levelo://app?vid=578b4586-6567-48cd-8cd7-2cf4e852f792","ios":"levelo://app?vid=578b4586-6567-48cd-8cd7-2cf4e852f792"},"vehicle_type_id":"4","last_reported":1700424408,"current_range_meters":15200,"station_id":"ce4bhn12rcd13ifvqgqg","pricing_plan_id":"free"},{"bike_id":"bc57395b-fe92-4868-812b-705163e4facb","system_id":"levelo_inurba_marseille","lat":43.231562,"lon":5.436933,"is_reserved":false,"is_disabled":false,"rental_uris":{"android":"levelo://app?vid=bc57395b-fe92-4868-812b-705163e4facb","ios":"levelo://app?vid=bc57395b-fe92-4868-812b-705163e4facb"},"vehicle_type_id":"4","last_reported":1700424408,"current_range_meters":18400,"station_id":"ce4bhmp2rcd13ifvqgog","pricing_plan_id":"free"},{"bike_id":"910ae0c6-1690-485c-8734-3a112e2e02b4","system_id":"levelo_inurba_marseille","lat":43.231562,"lon":5.436933,"is_reserved":false,"is_disabled":false,"rental_uris":{"android":"levelo://app?vid=910ae0c6-1690-485c-8734-3a112e2e02b4","ios":"levelo://app?vid=910ae0c6-1690-485c-8734-3a112e2e02b4"},"vehicle_type_id":"4","last_reported":1700424408,"current_range_meters":24400,"station_id":"ce4bhmp2rcd13ifvqgog","pricing_plan_id":"free"},{"bike_id":"aa00fa58-aed4-4693-a908-f6c5d3454ce6","system_id":"levelo_inurba_marseille","lat":43.231562,"lon":5.436933,"is_reserved":false,"is_disabled":false,"rental_uris":{"android":"levelo://app?vid=aa00fa58-aed4-4693-a908-f6c5d3454ce6","ios":"levelo://app?vid=aa00fa58-aed4-4693-a908-f6c5d3454ce6"},"vehicle_type_id":"4","last_reported":1700424408,"current_range_meters":24000,"station_id":"ce4bhmp2rcd13ifvqgog","pricing_plan_id":"free"}]}}