{"last_updated":1686420446,"ttl":30,"version":"2.2","data":{"bikes":[{"bike_id":"dbb591e5-a872-4be3-a317-56a21ae531e0","system_id":"levelo_inurba_marseille","lat":43.31215,"lon":5.36836,"is_reserved":false,"is_disabled":false,"rental_uris":{"android":"levelo://app?vid=dbb591e5-a872-4be3-a317-56a21ae531e0","ios":"levelo://app?vid=dbb591e5-a872-4be3-a317-56a21ae531e0"},"vehicle_type_id":"4","last_reported":1686420447,"current_range_meters":400,"station_id":"ce4bgl92rcd13ifvqbq0","pricing_plan_id":"free"},{"bike_id":"e215e44b-264e-4626-ae88-2d3a12aefe09","system_id":"levelo_inurba_marseille","lat":43.309076,"lon":5.368465,"is_reserved":false,"is_disabled":false,"rental_uris":{"android":"levelo://app?vid=e215e44b-264e-4626-ae88-2d3a12aefe09","ios":"levelo://app?vid=e215e44b-264e-4626-ae88-2d3a12aefe09"},"vehicle_type_id":"4","last_reported":1686420447,"current_range_meters":12800,"station_id":"ce4bgn92rcd13ifvqbvg","pricing_plan_id":"free"},{"bike_id":"abf8b7f8-eede-4888-8c03-b3bd14559edb","system_id":"levelo_inurba_marseille","lat":43.31149,"lon":5.3725,"is_reserved":false,"is_disabled":false,"rental_uris":{"android":"levelo://app?vid=abf8b7f8-eede-4888-8c03-b3bd14559edb","ios":"levelo://app?vid=abf8b7f8-eede-4888-8c03-b3bd14559edb"},"vehicle_type_id":"4","last_reported":1686420447,"current_range_meters":28000,"station_id":"","pricing_plan_id":"free"},{"bike_id":"ff6f333c-7666-44c7-b777-a00e95b66302","system_id":"levelo_inurba_marseille","lat":43.30892,"lon":5.372,"is_reserved":false,"is_disabled":false,"rental_uris":{"android":"levelo://app?vid=ff6f333c-7666-44c7-b777-a00e95b66302","ios":"levelo://app?vid=ff6f333c-7666-44c7-b777-a00e95b66302"},"vehicle_type_id":"4","last_reported":1686420447,"current_range_meters":24800,"station_id":"","pricing_plan_id":"free"},{"bike_id":"2dbc8303-1e1a-4d08-9dee-6babc9247d38","system_id":"levelo_inurba_marseille","lat":43.30692,"lon":5.36608,"is_reserved":false,"is_disabled":false,"rental_uris":{"android":"levelo://app?vid=2dbc8303-1e1a-4d08-9dee-6babc9247d38","ios":"levelo://app?vid=2dbc8303-1e1a-4d08-9dee-6babc9247d38"},"vehicle_type_id":"4","last_reported":1686420447,"current_range_meters":24800,"station_id":"","pricing_plan_id":"free"},{"bike_id":"726e69fe-0789-44cc-8872-aafade0684ce","system_id":"levelo_inurba_marseille","lat":43.306,"lon":5.36574,"is_reserved":false,"is_disabled":false,"rental_uris":{"android":"levelo://app?vid=726e69fe-0789-44cc-8872-aafade0684ce","ios":"levelo://app?vid=726e69fe-0789-44cc-8872-aafade0684ce"},"vehicle_type_id":"4","last_reported":1686420447,"current_range_meters":8400,"station_id":"","pricing_plan_id":"free"},{"bike_id":"a5092e32-bc4b-4b26-8b73-06fc19b8059d","system_id":"levelo_inurba_marseille","lat":43.305714,"lon":5.365633,"is_reserved":false,"is_disabled":false,"rental_uris":{"android":"levelo://app?vid=a5092e32-bc4b-4b26-8b73-06fc19b8059d","ios":"levelo://app?vid=a5092e32-bc4b-4b26-8b73-06fc19b8059d"},"vehicle_type_id":"4","last_reported":1686420447,"current_range_meters":0,"station_id":"ce4bgs12rcd13ifvqcag","pricing_plan_id":"free"},{"bike_id":"b43cf1c9-0c87-43de-9f16-4f7dd20b765a","system_id":"levelo_inurba_marseille","lat":43.305368,"lon":5.367343,"is_reserved":false,"is_disabled":false,"rental_uris":{"android":"levelo://app?vid=b43cf1c9-0c87-43de-9f16-4f7dd20b765a","ios":"levelo://app?vid=b43cf1c9-0c87-43de-9f16-4f7dd20b765a"},"vehicle_type_id":"4","last_reported":1686420447,"current_range_meters":2400,"station_id":"ce4bgrp2rcd13ifvqc9g","pricing_plan_id":"free"},{"bike_id":"6ca7f4f0-9c0c-44fb-aa3e-979faab6c99c","system_id":"levelo_inurba_marseille","lat":43.30593,"lon":5.3748,"is_reserved":false,"is_disabled":false,"rental_uris":{"android":"levelo://app?vid=6ca7f4f0-9c0c-44fb-aa3e-979faab6c99c","ios":"levelo://app?vid=6ca7f4f0-9c0c-44fb-aa3e-979faab6c99c"},"vehicle_type_id":"4","last_reported":1686420447,"current_range_meters":29200,"station_id":"","pricing_plan_id":"free"},{"bike_id":"8eca7e10-d6e4-4c71-9168-0a9e8f05aff4","system_id":"levelo_inurba_marseille","lat":43.31083,"lon":5.3799,"is_reserved":false,"is_disabled":false,"rental_uris":{"android":"levelo://app?vid=8eca7e10-d6e4-4c71-9168-0a9e8f05aff4","ios":"levelo://app?vid=8eca7e10-d6e4-4c71-9168-0a9e8f05aff4"},"vehicle_type_id":"4","last_reported":1686420447,"current_range_meters":15600,"station_id":"","pricing_plan_id":"free"},{"bike_id":"e12790cd-c701-4a87-b626-707b8893dfa6","system_id":"levelo_inurba_marseille","lat":43.303046,"lon":5.368981,"is_reserved":false,"is_disabled":false,"rental_uris":{"android":"levelo://app?vid=e12790cd-c701-4a87-b626-707b8893dfa6","ios":"levelo://app?vid=e12790cd-c701-4a87-b626-707b8893dfa6"},"vehicle_type_id":"4","last_reported":1686420447,"current_range_meters":10000,"station_id":"ce4bgqh2rcd13ifvqc5g","pricing_plan_id":"free"},{"bike_id":"3b6bbe4e-1873-4a4f-ba67-564b4194e380","system_id":"levelo_inurba_marseille","lat":43.291994,"lon":5.357886,"is_reserved":false,"is_disabled":false,"rental_uris":{"android":"levelo://app?vid=3b6bbe4e-1873-4a4f-ba67-564b4194e380","ios":"levelo://app?vid=3b6bbe4e-1873-4a4f-ba67-564b4194e380"},"vehicle_type_id":"4","last_reported":1686420447,"current_range_meters":17600,"station_id":"ce4bhb12rcd13ifvqel0","pricing_plan_id":"free"},{"bike_id":"626c768d-6be5-4329-85e1-1e0edfa07cfa","system_id":"levelo_inurba_marseille","lat":43.3153,"lon":5.38036,"is_reserved":false,"is_disabled":false,"rental_uris":{"android":"levelo://app?vid=626c768d-6be5-4329-85e1-1e0edfa07cfa","ios":"levelo://app?vid=626c768d-6be5-4329-85e1-1e0edfa07cfa"},"vehicle_type_id":"4","last_reported":1686420447,"current_range_meters":14000,"station_id":"ce4bhsp2rcd13ifvqi50","pricing_plan_id":"free"},{"bike_id":"e605e88b-bd4d-4fb3-b6d9-13bddf9671be","system_id":"levelo_inurba_marseille","lat":43.308012,"lon":5.381511,"is_reserved":false,"is_disabled":false,"rental_uris":{"android":"levelo://app?vid=e605e88b-bd4d-4fb3-b6d9-13bddf9671be","ios":"levelo://app?vid=e605e88b-bd4d-4fb3-b6d9-13bddf9671be"},"vehicle_type_id":"4","last_reported":1686420447,"current_range_meters":17200,"station_id":"ce4bgt12rcd13ifvqce0","pricing_plan_id":"free"},{"bike_id":"69920c32-fff5-4e47-b54c-6493c9cb2318","system_id":"levelo_inurba_marseille","lat":43.31645,"lon":5.38326,"is_reserved":false,"is_disabled":false,"rental_uris":{"android":"levelo://app?vid=69920c32-fff5-4e47-b54c-6493c9cb2318","ios":"levelo://app?vid=69920c32-fff5-4e47-b54c-6493c9cb2318"},"vehicle_type_id":"4","last_reported":1686420447,"current_range_meters":9200,"station_id":"","pricing_plan_id":"free"},{"bike_id":"c5e76b83-90ff-4348-81ba-476bea719a2b","system_id":"levelo_inurba_marseille","lat":43.311722,"lon":5.387247,"is_reserved":false,"is_disabled":false,"rental_uris":{"android":"levelo://app?vid=c5e76b83-90ff-4348-81ba-476bea719a2b","ios":"levelo://app?vid=c5e76b83-90ff-4348-81ba-476bea719a2b"},"vehicle_type_id":"4","last_reported":1686420447,"current_range_meters":800,"station_id":"ce4bgv12rcd13ifvqcp0","pricing_plan_id":"free"},{"bike_id":"86efe64a-afb9-457f-92f0-cbcc3310e83c","system_id":"levelo_inurba_marseille","lat":43.311722,"lon":5.387247,"is_reserved":false,"is_disabled":false,"rental_uris":{"android":"levelo://app?vid=86efe64a-afb9-457f-92f0-cbcc3310e83c","ios":"levelo://app?vid=86efe64a-afb9-457f-92f0-cbcc3310e83c"},"vehicle_type_id":"4","last_reported":1686420447,"current_range_meters":4000,"station_id":"ce4bgv12rcd13ifvqcp0","pricing_plan_id":"free"},{"bike_id":"782cc86c-d433-4d6f-89c1-548872f65d2d","system_id":"levelo_inurba_marseille","lat":43.32825,"lon":5.36684,"is_reserved":false,"is_disabled":false,"rental_uris":{"android":"levelo://app?vid=782cc86c-d433-4d6f-89c1-548872f65d2d","ios":"levelo://app?vid=782cc86c-d433-4d6f-89c1-548872f65d2d"},"vehicle_type_id":"4","last_reported":1686420447,"current_range_meters":2000,"station_id":"ce4bhs92rcd13ifvqi0g","pricing_plan_id":"free"},{"bike_id":"d2ee4f47-c99d-4207-bf1f-965db1bb1561","system_id":"levelo_inurba_marseille","lat":43.328371,"lon":5.366909,"is_reserved":false,"is_disabled":false,"rental_uris":{"android":"levelo://app?vid=d2ee4f47-c99d-4207-bf1f-965db1bb1561","ios":"levelo://app?vid=d2ee4f47-c99d-4207-bf1f-965db1bb1561"},"vehicle_type_id":"4","last_reported":1686420447,"current_range_meters":12400,"station_id":"ce4bhs92rcd13ifvqi0g","pricing_plan_id":"free"},{"bike_id":"646e9ad8-7b91-4157-a6bc-9b5f2ad20d49","system_id":"levelo_inurba_marseille","lat":43.32835,"lon":5.36678,"is_reserved":false,"is_disabled":false,"rental_uris":{"android":"levelo://app?vid=646e9ad8-7b91-4157-a6bc-9b5f2ad20d49","ios":"levelo://app?vid=646e9ad8-7b91-4157-a6bc-9b5f2ad20d49"},"vehicle_type_id":"4","last_reported":1686420447,"current_range_meters":6800,"station_id":"ce4bhs92rcd13ifvqi0g","pricing_plan_id":"free"},{"bike_id":"a171b683-f844-4b6f-8205-0c579bd8e9e8","system_id":"levelo_inurba_marseille","lat":43.32838,"lon":5.36675,"is_reserved":false,"is_disabled":false,"rental_uris":{"android":"levelo://app?vid=a171b683-f844-4b6f-8205-0c579bd8e9e8","ios":"levelo://app?vid=a171b683-f844-4b6f-8205-0c579bd8e9e8"},"vehicle_type_id":"4","last_reported":1686420447,"current_range_meters":30800,"station_id":"ce4bhs92rcd13ifvqi0g","pricing_plan_id":"free"},{"bike_id":"03114c25-71f1-4ffc-b23f-3909ed4d045b","system_id":"levelo_inurba_marseille","lat":43.29708,"lon":5.36621,"is_reserved":false,"is_disabled":false,"rental_uris":{"android":"levelo://app?vid=03114c25-71f1-4ffc-b23f-3909ed4d045b","ios":"levelo://app?vid=03114c25-71f1-4ffc-b23f-3909ed4d045b"},"vehicle_type_id":"4","last_reported":1686420447,"current_range_meters":11600,"station_id":"","pricing_plan_id":"free"},{"bike_id":"f6b0e964-5b57-48f0-b418-596ac74c4ab5","system_id":"levelo_inurba_marseille","lat":43.309589,"lon":5.390258,"is_reserved":false,"is_disabled":false,"rental_uris":{"android":"levelo://app?vid=f6b0e964-5b57-48f0-b418-596ac74c4ab5","ios":"levelo://app?vid=f6b0e964-5b57-48f0-b418-596ac74c4ab5"},"vehicle_type_id":"4","last_reported":1686420447,"current_range_meters":1200,"station_id":"ce4bgup2rcd13ifvqco0","pricing_plan_id":"free"},{"bike_id":"4804358b-389c-40f9-b78c-a92611553638","system_id":"levelo_inurba_marseille","lat":43.309589,"lon":5.390258,"is_reserved":false,"is_disabled":false,"rental_uris":{"android":"levelo://app?vid=4804358b-389c-40f9-b78c-a92611553638","ios":"levelo://app?vid=4804358b-389c-40f9-b78c-a92611553638"},"vehicle_type_id":"4","last_reported":1686420447,"current_range_meters":16800,"station_id":"ce4bgup2rcd13ifvqco0","pricing_plan_id":"free"},{"bike_id":"1207b762-7c9a-4420-8e09-df431873d737","system_id":"levelo_inurba_marseille","lat":43.29572,"lon":5.37511,"is_reserved":false,"is_disabled":false,"rental_uris":{"android":"levelo://app?vid=1207b762-7c9a-4420-8e09-df431873d737","ios":"levelo://app?vid=1207b762-7c9a-4420-8e09-df431873d737"},"vehicle_type_id":"4","last_reported":1686420447,"current_range_meters":0,"station_id":"ce4bgh92rcd13ifvqb50","pricing_plan_id":"free"},{"bike_id":"3a0965d8-77fb-4aea-b91a-fd55f8e5ef85","system_id":"levelo_inurba_marseille","lat":43.295279,"lon":5.375048,"is_reserved":false,"is_disabled":false,"rental_uris":{"android":"levelo://app?vid=3a0965d8-77fb-4aea-b91a-fd55f8e5ef85","ios":"levelo://app?vid=3a0965d8-77fb-4aea-b91a-fd55f8e5ef85"},"vehicle_type_id":"4","last_reported":1686420447,"current_range_meters":0,"station_id":"ce4bgkp2rcd13ifvqbmg","pricing_plan_id":"free"},{"bike_id":"af17515c-1aec-423f-ac35-b08efa907d9e","system_id":"levelo_inurba_marseille","lat":43.295279,"lon":5.375048,"is_reserved":false,"is_disabled":false,"rental_uris":{"android":"levelo://app?vid=af17515c-1aec-423f-ac35-b08efa907d9e","ios":"levelo://app?vid=af17515c-1aec-423f-ac35-b08efa907d9e"},"vehicle_type_id":"4","last_reported":1686420447,"current_range_meters":800,"station_id":"ce4bgkp2rcd13ifvqbmg","pricing_plan_id":"free"},{"bike_id":"07d5a3c3-0ca5-4967-922e-66ec260b5775","system_id":"levelo_inurba_marseille","lat":43.32367,"lon":5.388836,"is_reserved":false,"is_disabled":false,"rental_uris":{"android":"levelo://app?vid=07d5a3c3-0ca5-4967-922e-66ec260b5775","ios":"levelo://app?vid=07d5a3c3-0ca5-4967-922e-66ec260b5775"},"vehicle_type_id":"4","last_reported":1686420447,"current_range_meters":800,"station_id":"ce4bhqp2rcd13ifvqhog","pricing_plan_id":"free"},{"bike_id":"f03c7781-c54f-438e-8de1-313427dd27bd","system_id":"levelo_inurba_marseille","lat":43.32367,"lon":5.388836,"is_reserved":false,"is_disabled":false,"rental_uris":{"android":"levelo://app?vid=f03c7781-c54f-438e-8de1-313427dd27bd","ios":"levelo://app?vid=f03c7781-c54f-438e-8de1-313427dd27bd"},"vehicle_type_id":"4","last_reported":1686420447,"current_range_meters":9600,"station_id":"ce4bhqp2rcd13ifvqhog","pricing_plan_id":"free"},{"bike_id":"dd66a00a-ae87-4f13-8320-0f02c4972732","system_id":"levelo_inurba_marseille","lat":43.323663,"lon":5.388856,"is_reserved":false,"is_disabled":false,"rental_uris":{"android":"levelo://app?vid=dd66a00a-ae87-4f13-8320-0f02c4972732","ios":"levelo://app?vid=dd66a00a-ae87-4f13-8320-0f02c4972732"},"vehicle_type_id":"4","last_reported":1686420447,"current_range_meters":15600,"station_id":"ce4bhqp2rcd13ifvqhog","pricing_plan_id":"free"},{"bike_id":"12a9cd77-87f2-467d-a292-41b2c8e1f05a","system_id":"levelo_inurba_marseille","lat":43.29541,"lon":5.3793,"is_reserved":false,"is_disabled":false,"rental_uris":{"android":"levelo://app?vid=12a9cd77-87f2-467d-a292-41b2c8e1f05a","ios":"levelo://app?vid=12a9cd77-87f2-467d-a292-41b2c8e1f05a"},"vehicle_type_id":"4","last_reported":1686420447,"current_range_meters":12400,"station_id":"","pricing_plan_id":"free"},{"bike_id":"6a329700-039e-42a3-bbab-7c53e5836023","system_id":"levelo_inurba_marseille","lat":43.311722,"lon":5.387247,"is_reserved":false,"is_disabled":false,"rental_uris":{"android":"levelo://app?vid=6a329700-039e-42a3-bbab-7c53e5836023","ios":"levelo://app?vid=6a329700-039e-42a3-bbab-7c53e5836023"},"vehicle_type_id":"4","last_reported":1686420447,"current_range_meters":5200,"station_id":"ce4bgv12rcd13ifvqcp0","pricing_plan_id":"free"},{"bike_id":"4866b128-6895-4e56-bf16-c9cb1643c5c1","system_id":"levelo_inurba_marseille","lat":43.29303,"lon":5.37461,"is_reserved":false,"is_disabled":false,"rental_uris":{"android":"levelo://app?vid=4866b128-6895-4e56-bf16-c9cb1643c5c1","ios":"levelo://app?vid=4866b128-6895-4e56-bf16-c9cb1643c5c1"},"vehicle_type_id":"4","last_reported":1686420447,"current_range_meters":10000,"station_id":"ce4bgi12rcd13ifvqb70","pricing_plan_id":"free"},{"bike_id":"ce0a2fd2-c50b-43a4-a8d3-bec9d1a80ff5","system_id":"levelo_inurba_marseille","lat":43.293009,"lon":5.374584,"is_reserved":false,"is_disabled":false,"rental_uris":{"android":"levelo://app?vid=ce0a2fd2-c50b-43a4-a8d3-bec9d1a80ff5","ios":"levelo://app?vid=ce0a2fd2-c50b-43a4-a8d3-bec9d1a80ff5"},"vehicle_type_id":"4","last_reported":1686420447,"current_range_meters":2400,"station_id":"ce4bgi12rcd13ifvqb70","pricing_plan_id":"free"},{"bike_id":"e2e912cb-d5b8-4847-b691-32de436ee05e","system_id":"levelo_inurba_marseille","lat":43.305994,"lon":5.393687,"is_reserved":false,"is_disabled":false,"rental_uris":{"android":"levelo://app?vid=e2e912cb-d5b8-4847-b691-32de436ee05e","ios":"levelo://app?vid=e2e912cb-d5b8-4847-b691-32de436ee05e"},"vehicle_type_id":"4","last_reported":1686420447,"current_range_meters":6000,"station_id":"ce4bh0p2rcd13ifvqd80","pricing_plan_id":"free"},{"bike_id":"a796f24f-15b5-41a2-85dc-06972aafb131","system_id":"levelo_inurba_marseille","lat":43.293009,"lon":5.374584,"is_reserved":false,"is_disabled":false,"rental_uris":{"android":"levelo://app?vid=a796f24f-15b5-41a2-85dc-06972aafb131","ios":"levelo://app?vid=a796f24f-15b5-41a2-85dc-06972aafb131"},"vehicle_type_id":"4","last_reported":1686420447,"current_range_meters":9600,"station_id":"ce4bgi12rcd13ifvqb70","pricing_plan_id":"free"},{"bike_id":"61e4ccfd-dc98-4837-8123-2dfa5e087f42","system_id":"levelo_inurba_marseille","lat":43.293723,"lon":5.378443,"is_reserved":false,"is_disabled":false,"rental_uris":{"android":"levelo://app?vid=61e4ccfd-dc98-4837-8123-2dfa5e087f42","ios":"levelo://app?vid=61e4ccfd-dc98-4837-8123-2dfa5e087f42"},"vehicle_type_id":"4","last_reported":1686420447,"current_range_meters":2800,"station_id":"","pricing_plan_id":"free"},{"bike_id":"da18d172-afc3-458c-ace5-86828bf8296b","system_id":"levelo_inurba_marseille","lat":43.291768,"lon":5.371482,"is_reserved":false,"is_disabled":false,"rental_uris":{"android":"levelo://app?vid=da18d172-afc3-458c-ace5-86828bf8296b","ios":"levelo://app?vid=da18d172-afc3-458c-ace5-86828bf8296b"},"vehicle_type_id":"4","last_reported":1686420447,"current_range_meters":4400,"station_id":"","pricing_plan_id":"free"},{"bike_id":"0d7c4552-8ef1-4710-8da4-c5de9c9edc7e","system_id":"levelo_inurba_marseille","lat":43.298764,"lon":5.388973,"is_reserved":false,"is_disabled":false,"rental_uris":{"android":"levelo://app?vid=0d7c4552-8ef1-4710-8da4-c5de9c9edc7e","ios":"levelo://app?vid=0d7c4552-8ef1-4710-8da4-c5de9c9edc7e"},"vehicle_type_id":"4","last_reported":1686420447,"current_range_meters":0,"station_id":"ce4bh392rcd13ifvqdl0","pricing_plan_id":"free"},{"bike_id":"d8ce6ed4-745b-4b81-b8a6-d19bb9b00192","system_id":"levelo_inurba_marseille","lat":43.291994,"lon":5.357886,"is_reserved":false,"is_disabled":false,"rental_uris":{"android":"levelo://app?vid=d8ce6ed4-745b-4b81-b8a6-d19bb9b00192","ios":"levelo://app?vid=d8ce6ed4-745b-4b81-b8a6-d19bb9b00192"},"vehicle_type_id":"4","last_reported":1686420447,"current_range_meters":20000,"station_id":"ce4bhb12rcd13ifvqel0","pricing_plan_id":"free"},{"bike_id":"cf8e892d-1f12-46d5-a919-3bccc1b7d4b0","system_id":"levelo_inurba_marseille","lat":43.29529,"lon":5.385581,"is_reserved":false,"is_disabled":false,"rental_uris":{"android":"levelo://app?vid=cf8e892d-1f12-46d5-a919-3bccc1b7d4b0","ios":"levelo://app?vid=cf8e892d-1f12-46d5-a919-3bccc1b7d4b0"},"vehicle_type_id":"4","last_reported":1686420447,"current_range_meters":22800,"station_id":"ce4bgih2rcd13ifvqba0","pricing_plan_id":"free"},{"bike_id":"34aab8b3-f96a-4879-890f-73b4148ca493","system_id":"levelo_inurba_marseille","lat":43.29529,"lon":5.385581,"is_reserved":false,"is_disabled":false,"rental_uris":{"android":"levelo://app?vid=34aab8b3-f96a-4879-890f-73b4148ca493","ios":"levelo://app?vid=34aab8b3-f96a-4879-890f-73b4148ca493"},"vehicle_type_id":"4","last_reported":1686420447,"current_range_meters":0,"station_id":"ce4bgih2rcd13ifvqba0","pricing_plan_id":"free"},{"bike_id":"cdb4c2aa-b357-4e72-80ab-badc5fd9b72e","system_id":"levelo_inurba_marseille","lat":43.290779,"lon":5.371482,"is_reserved":false,"is_disabled":false,"rental_uris":{"android":"levelo://app?vid=cdb4c2aa-b357-4e72-80ab-badc5fd9b72e","ios":"levelo://app?vid=cdb4c2aa-b357-4e72-80ab-badc5fd9b72e"},"vehicle_type_id":"4","last_reported":1686420447,"current_range_meters":12800,"station_id":"ce4bh5p2rcd13ifvqe4g","pricing_plan_id":"free"},{"bike_id":"f26cea1b-1e76-4c5a-b9fc-1d4f40041b0f","system_id":"levelo_inurba_marseille","lat":43.30222,"lon":5.39463,"is_reserved":false,"is_disabled":false,"rental_uris":{"android":"levelo://app?vid=f26cea1b-1e76-4c5a-b9fc-1d4f40041b0f","ios":"levelo://app?vid=f26cea1b-1e76-4c5a-b9fc-1d4f40041b0f"},"vehicle_type_id":"4","last_reported":1686420447,"current_range_meters":16800,"station_id":"ce4bh0p2rcd13ifvqd70","pricing_plan_id":"free"},{"bike_id":"27d91603-04d0-4719-bfc3-d66ebde6c619","system_id":"levelo_inurba_marseille","lat":43.302008,"lon":5.394694,"is_reserved":false,"is_disabled":false,"rental_uris":{"android":"levelo://app?vid=27d91603-04d0-4719-bfc3-d66ebde6c619","ios":"levelo://app?vid=27d91603-04d0-4719-bfc3-d66ebde6c619"},"vehicle_type_id":"4","last_reported":1686420447,"current_range_meters":12800,"station_id":"ce4bh0p2rcd13ifvqd70","pricing_plan_id":"free"},{"bike_id":"d47d7db4-0d36-4dac-8d3a-f42a8b995c5e","system_id":"levelo_inurba_marseille","lat":43.293009,"lon":5.374584,"is_reserved":false,"is_disabled":false,"rental_uris":{"android":"levelo://app?vid=d47d7db4-0d36-4dac-8d3a-f42a8b995c5e","ios":"levelo://app?vid=d47d7db4-0d36-4dac-8d3a-f42a8b995c5e"},"vehicle_type_id":"4","last_reported":1686420447,"current_range_meters":12800,"station_id":"ce4bgi12rcd13ifvqb70","pricing_plan_id":"free"},{"bike_id":"638dd57f-0b7d-476c-8652-1cf956b1d230","system_id":"levelo_inurba_marseille","lat":43.290327,"lon":5.375711,"is_reserved":false,"is_disabled":false,"rental_uris":{"android":"levelo://app?vid=638dd57f-0b7d-476c-8652-1cf956b1d230","ios":"levelo://app?vid=638dd57f-0b7d-476c-8652-1cf956b1d230"},"vehicle_type_id":"4","last_reported":1686420447,"current_range_meters":1600,"station_id":"ce4bh692rcd13ifvqe90","pricing_plan_id":"free"},{"bike_id":"a922a9f5-fea5-49ff-ac01-d12f16622f4e","system_id":"levelo_inurba_marseille","lat":43.31563,"lon":5.39859,"is_reserved":false,"is_disabled":false,"rental_uris":{"android":"levelo://app?vid=a922a9f5-fea5-49ff-ac01-d12f16622f4e","ios":"levelo://app?vid=a922a9f5-fea5-49ff-ac01-d12f16622f4e"},"vehicle_type_id":"4","last_reported":1686420447,"current_range_meters":20000,"station_id":"","pricing_plan_id":"free"},{"bike_id":"928baa0c-6bc3-4eb7-8ea0-7cf67d3dddd8","system_id":"levelo_inurba_marseille","lat":43.294153,"lon":5.386305,"is_reserved":false,"is_disabled":false,"rental_uris":{"android":"levelo://app?vid=928baa0c-6bc3-4eb7-8ea0-7cf67d3dddd8","ios":"levelo://app?vid=928baa0c-6bc3-4eb7-8ea0-7cf67d3dddd8"},"vehicle_type_id":"4","last_reported":1686420447,"current_range_meters":22800,"station_id":"ce4bh2h2rcd13ifvqdh0","pricing_plan_id":"free"},{"bike_id":"79cdf533-d85e-4b7f-b591-b8f341cd3ebc","system_id":"levelo_inurba_marseille","lat":43.294162,"lon":5.386292,"is_reserved":false,"is_disabled":false,"rental_uris":{"android":"levelo://app?vid=79cdf533-d85e-4b7f-b591-b8f341cd3ebc","ios":"levelo://app?vid=79cdf533-d85e-4b7f-b591-b8f341cd3ebc"},"vehicle_type_id":"4","last_reported":1686420447,"current_range_meters":0,"station_id":"ce4bh2h2rcd13ifvqdh0","pricing_plan_id":"free"},{"bike_id":"bcdfa6d4-eaec-4572-83a7-56c3453035c6","system_id":"levelo_inurba_marseille","lat":43.289184,"lon":5.366408,"is_reserved":false,"is_disabled":false,"rental_uris":{"android":"levelo://app?vid=bcdfa6d4-eaec-4572-83a7-56c3453035c6","ios":"levelo://app?vid=bcdfa6d4-eaec-4572-83a7-56c3453035c6"},"vehicle_type_id":"4","last_reported":1686420447,"current_range_meters":7600,"station_id":"ce4bhap2rcd13ifvqek0","pricing_plan_id":"free"},{"bike_id":"4511410b-180f-4c9e-99cf-23f03a492ace","system_id":"levelo_inurba_marseille","lat":43.292644,"lon":5.384257,"is_reserved":false,"is_disabled":false,"rental_uris":{"android":"levelo://app?vid=4511410b-180f-4c9e-99cf-23f03a492ace","ios":"levelo://app?vid=4511410b-180f-4c9e-99cf-23f03a492ace"},"vehicle_type_id":"4","last_reported":1686420447,"current_range_meters":18000,"station_id":"ce4bh692rcd13ifvqea0","pricing_plan_id":"free"},{"bike_id":"7a35f362-0ae9-4398-b97d-5f61146b3a19","system_id":"levelo_inurba_marseille","lat":43.292642,"lon":5.384254,"is_reserved":false,"is_disabled":false,"rental_uris":{"android":"levelo://app?vid=7a35f362-0ae9-4398-b97d-5f61146b3a19","ios":"levelo://app?vid=7a35f362-0ae9-4398-b97d-5f61146b3a19"},"vehicle_type_id":"4","last_reported":1686420447,"current_range_meters":0,"station_id":"ce4bh692rcd13ifvqea0","pricing_plan_id":"free"},{"bike_id":"1779084a-e8e5-4ae1-abcd-07a474d01d98","system_id":"levelo_inurba_marseille","lat":43.292644,"lon":5.384257,"is_reserved":false,"is_disabled":false,"rental_uris":{"android":"levelo://app?vid=1779084a-e8e5-4ae1-abcd-07a474d01d98","ios":"levelo://app?vid=1779084a-e8e5-4ae1-abcd-07a474d01d98"},"vehicle_type_id":"4","last_reported":1686420447,"current_range_meters":10400,"station_id":"ce4bh692rcd13ifvqea0","pricing_plan_id":"free"},{"bike_id":"eebb0572-4916-4105-a791-7d74572be411","system_id":"levelo_inurba_marseille","lat":43.290103,"lon":5.356114,"is_reserved":false,"is_disabled":false,"rental_uris":{"android":"levelo://app?vid=eebb0572-4916-4105-a791-7d74572be411","ios":"levelo://app?vid=eebb0572-4916-4105-a791-7d74572be411"},"vehicle_type_id":"4","last_reported":1686420447,"current_range_meters":4400,"station_id":"ce4bhb92rcd13ifvqen0","pricing_plan_id":"free"},{"bike_id":"8d43e900-1015-44cb-90a4-a054fe93b4ba","system_id":"levelo_inurba_marseille","lat":43.29094,"lon":5.38104,"is_reserved":false,"is_disabled":false,"rental_uris":{"android":"levelo://app?vid=8d43e900-1015-44cb-90a4-a054fe93b4ba","ios":"levelo://app?vid=8d43e900-1015-44cb-90a4-a054fe93b4ba"},"vehicle_type_id":"4","last_reported":1686420447,"current_range_meters":0,"station_id":"ce4bh512rcd13ifvqe2g","pricing_plan_id":"free"},{"bike_id":"8aa8951b-1ab1-4152-bd51-19d7e3c28a9e","system_id":"levelo_inurba_marseille","lat":43.28856,"lon":5.358371,"is_reserved":false,"is_disabled":false,"rental_uris":{"android":"levelo://app?vid=8aa8951b-1ab1-4152-bd51-19d7e3c28a9e","ios":"levelo://app?vid=8aa8951b-1ab1-4152-bd51-19d7e3c28a9e"},"vehicle_type_id":"4","last_reported":1686420447,"current_range_meters":11600,"station_id":"ce4bhb12rcd13ifvqem0","pricing_plan_id":"free"},{"bike_id":"c3926640-a628-4cef-816e-a86f5fb26aa3","system_id":"levelo_inurba_marseille","lat":43.28856,"lon":5.358371,"is_reserved":false,"is_disabled":false,"rental_uris":{"android":"levelo://app?vid=c3926640-a628-4cef-816e-a86f5fb26aa3","ios":"levelo://app?vid=c3926640-a628-4cef-816e-a86f5fb26aa3"},"vehicle_type_id":"4","last_reported":1686420447,"current_range_meters":1600,"station_id":"ce4bhb12rcd13ifvqem0","pricing_plan_id":"free"},{"bike_id":"8dbdd5ae-fa39-46b9-9f9a-bc6249222491","system_id":"levelo_inurba_marseille","lat":43.28856,"lon":5.358371,"is_reserved":false,"is_disabled":false,"rental_uris":{"android":"levelo://app?vid=8dbdd5ae-fa39-46b9-9f9a-bc6249222491","ios":"levelo://app?vid=8dbdd5ae-fa39-46b9-9f9a-bc6249222491"},"vehicle_type_id":"4","last_reported":1686420447,"current_range_meters":0,"station_id":"ce4bhb12rcd13ifvqem0","pricing_plan_id":"free"},{"bike_id":"8ace6be8-c584-4e1d-bcd9-c2f2156f6136","system_id":"levelo_inurba_marseille","lat":43.28852,"lon":5.35816,"is_reserved":false,"is_disabled":false,"rental_uris":{"android":"levelo://app?vid=8ace6be8-c584-4e1d-bcd9-c2f2156f6136","ios":"levelo://app?vid=8ace6be8-c584-4e1d-bcd9-c2f2156f6136"},"vehicle_type_id":"4","last_reported":1686420447,"current_range_meters":31200,"station_id":"ce4bhb12rcd13ifvqem0","pricing_plan_id":"free"},{"bike_id":"d1e79c47-88c0-41ec-bfd8-d2ccd28a6cf0","system_id":"levelo_inurba_marseille","lat":43.33746,"lon":5.37473,"is_reserved":false,"is_disabled":false,"rental_uris":{"android":"levelo://app?vid=d1e79c47-88c0-41ec-bfd8-d2ccd28a6cf0","ios":"levelo://app?vid=d1e79c47-88c0-41ec-bfd8-d2ccd28a6cf0"},"vehicle_type_id":"4","last_reported":1686420447,"current_range_meters":30400,"station_id":"","pricing_plan_id":"free"},{"bike_id":"265c0905-166c-408b-8d33-95a8e86424e1","system_id":"levelo_inurba_marseille","lat":43.337582,"lon":5.374483,"is_reserved":false,"is_disabled":false,"rental_uris":{"android":"levelo://app?vid=265c0905-166c-408b-8d33-95a8e86424e1","ios":"levelo://app?vid=265c0905-166c-408b-8d33-95a8e86424e1"},"vehicle_type_id":"4","last_reported":1686420447,"current_range_meters":15600,"station_id":"","pricing_plan_id":"free"},{"bike_id":"fb041ec1-b611-46eb-9d8b-3229cfb3396a","system_id":"levelo_inurba_marseille","lat":43.33768,"lon":5.37459,"is_reserved":false,"is_disabled":false,"rental_uris":{"android":"levelo://app?vid=fb041ec1-b611-46eb-9d8b-3229cfb3396a","ios":"levelo://app?vid=fb041ec1-b611-46eb-9d8b-3229cfb3396a"},"vehicle_type_id":"4","last_reported":1686420447,"current_range_meters":22800,"station_id":"","pricing_plan_id":"free"},{"bike_id":"26a340e1-fecc-47b0-bcb9-d24a9f2b210a","system_id":"levelo_inurba_marseille","lat":43.298681,"lon":5.397225,"is_reserved":false,"is_disabled":false,"rental_uris":{"android":"levelo://app?vid=26a340e1-fecc-47b0-bcb9-d24a9f2b210a","ios":"levelo://app?vid=26a340e1-fecc-47b0-bcb9-d24a9f2b210a"},"vehicle_type_id":"4","last_reported":1686420447,"current_range_meters":7600,"station_id":"ce4bh0h2rcd13ifvqd50","pricing_plan_id":"free"},{"bike_id":"0acfae89-d3c9-476a-8d26-e13dfa8101b3","system_id":"levelo_inurba_marseille","lat":43.302759,"lon":5.400793,"is_reserved":false,"is_disabled":false,"rental_uris":{"android":"levelo://app?vid=0acfae89-d3c9-476a-8d26-e13dfa8101b3","ios":"levelo://app?vid=0acfae89-d3c9-476a-8d26-e13dfa8101b3"},"vehicle_type_id":"4","last_reported":1686420447,"current_range_meters":3200,"station_id":"ce4bgvh2rcd13ifvqcs0","pricing_plan_id":"free"},{"bike_id":"36db4aab-649b-409e-87f8-33613723dfa9","system_id":"levelo_inurba_marseille","lat":43.290336,"lon":5.386425,"is_reserved":false,"is_disabled":false,"rental_uris":{"android":"levelo://app?vid=36db4aab-649b-409e-87f8-33613723dfa9","ios":"levelo://app?vid=36db4aab-649b-409e-87f8-33613723dfa9"},"vehicle_type_id":"4","last_reported":1686420447,"current_range_meters":0,"station_id":"ce4bh4p2rcd13ifvqe0g","pricing_plan_id":"free"},{"bike_id":"06bab913-ad79-4fa6-8bd3-1dd04ef7e0e1","system_id":"levelo_inurba_marseille","lat":43.302759,"lon":5.400793,"is_reserved":false,"is_disabled":false,"rental_uris":{"android":"levelo://app?vid=06bab913-ad79-4fa6-8bd3-1dd04ef7e0e1","ios":"levelo://app?vid=06bab913-ad79-4fa6-8bd3-1dd04ef7e0e1"},"vehicle_type_id":"4","last_reported":1686420447,"current_range_meters":1600,"station_id":"ce4bgvh2rcd13ifvqcs0","pricing_plan_id":"free"},{"bike_id":"75f541cb-b70d-431f-a3c2-0c55e5e8a816","system_id":"levelo_inurba_marseille","lat":43.286039,"lon":5.370681,"is_reserved":false,"is_disabled":false,"rental_uris":{"android":"levelo://app?vid=75f541cb-b70d-431f-a3c2-0c55e5e8a816","ios":"levelo://app?vid=75f541cb-b70d-431f-a3c2-0c55e5e8a816"},"vehicle_type_id":"4","last_reported":1686420447,"current_range_meters":800,"station_id":"ce4bht12rcd13ifvqi60","pricing_plan_id":"free"},{"bike_id":"3193a1ef-fb09-4eb8-b390-4232642cc6e1","system_id":"levelo_inurba_marseille","lat":43.287184,"lon":5.37937,"is_reserved":false,"is_disabled":false,"rental_uris":{"android":"levelo://app?vid=3193a1ef-fb09-4eb8-b390-4232642cc6e1","ios":"levelo://app?vid=3193a1ef-fb09-4eb8-b390-4232642cc6e1"},"vehicle_type_id":"4","last_reported":1686420447,"current_range_meters":0,"station_id":"ce4bh9p2rcd13ifvqec0","pricing_plan_id":"free"},{"bike_id":"f4706918-d0ae-4d27-8d7e-838fd41faed6","system_id":"levelo_inurba_marseille","lat":43.286039,"lon":5.370681,"is_reserved":false,"is_disabled":false,"rental_uris":{"android":"levelo://app?vid=f4706918-d0ae-4d27-8d7e-838fd41faed6","ios":"levelo://app?vid=f4706918-d0ae-4d27-8d7e-838fd41faed6"},"vehicle_type_id":"4","last_reported":1686420447,"current_range_meters":800,"station_id":"ce4bht12rcd13ifvqi60","pricing_plan_id":"free"},{"bike_id":"af6c950d-95f1-4555-8eec-77621a871612","system_id":"levelo_inurba_marseille","lat":43.284534,"lon":5.358662,"is_reserved":false,"is_disabled":false,"rental_uris":{"android":"levelo://app?vid=af6c950d-95f1-4555-8eec-77621a871612","ios":"levelo://app?vid=af6c950d-95f1-4555-8eec-77621a871612"},"vehicle_type_id":"4","last_reported":1686420447,"current_range_meters":0,"station_id":"ce4bhah2rcd13ifvqei0","pricing_plan_id":"free"},{"bike_id":"06d13f19-0cbf-4ce3-ac01-82816905cde5","system_id":"levelo_inurba_marseille","lat":43.296277,"lon":5.377108,"is_reserved":false,"is_disabled":false,"rental_uris":{"android":"levelo://app?vid=06d13f19-0cbf-4ce3-ac01-82816905cde5","ios":"levelo://app?vid=06d13f19-0cbf-4ce3-ac01-82816905cde5"},"vehicle_type_id":"4","last_reported":1686420447,"current_range_meters":22000,"station_id":"ce4bgi92rcd13ifvqb90","pricing_plan_id":"free"},{"bike_id":"e3bb3c52-6f03-4955-91c6-bd9bdea1edd7","system_id":"levelo_inurba_marseille","lat":43.28615,"lon":5.35099,"is_reserved":false,"is_disabled":false,"rental_uris":{"android":"levelo://app?vid=e3bb3c52-6f03-4955-91c6-bd9bdea1edd7","ios":"levelo://app?vid=e3bb3c52-6f03-4955-91c6-bd9bdea1edd7"},"vehicle_type_id":"4","last_reported":1686420447,"current_range_meters":30400,"station_id":"","pricing_plan_id":"free"},{"bike_id":"befcca14-fac5-4d98-8c22-fb1188c6fce7","system_id":"levelo_inurba_marseille","lat":43.28411,"lon":5.37516,"is_reserved":false,"is_disabled":false,"rental_uris":{"android":"levelo://app?vid=befcca14-fac5-4d98-8c22-fb1188c6fce7","ios":"levelo://app?vid=befcca14-fac5-4d98-8c22-fb1188c6fce7"},"vehicle_type_id":"4","last_reported":1686420447,"current_range_meters":400,"station_id":"","pricing_plan_id":"free"},{"bike_id":"1bc9f852-bb63-4731-b191-298ae614eb06","system_id":"levelo_inurba_marseille","lat":43.296263,"lon":5.40601,"is_reserved":false,"is_disabled":false,"rental_uris":{"android":"levelo://app?vid=1bc9f852-bb63-4731-b191-298ae614eb06","ios":"levelo://app?vid=1bc9f852-bb63-4731-b191-298ae614eb06"},"vehicle_type_id":"4","last_reported":1686420447,"current_range_meters":24000,"station_id":"ce4bh0h2rcd13ifvqd60","pricing_plan_id":"free"},{"bike_id":"735c2f5b-d234-49b6-bf34-c5afa45d3979","system_id":"levelo_inurba_marseille","lat":43.295713,"lon":5.399639,"is_reserved":false,"is_disabled":false,"rental_uris":{"android":"levelo://app?vid=735c2f5b-d234-49b6-bf34-c5afa45d3979","ios":"levelo://app?vid=735c2f5b-d234-49b6-bf34-c5afa45d3979"},"vehicle_type_id":"4","last_reported":1686420447,"current_range_meters":0,"station_id":"ce4bh312rcd13ifvqdj0","pricing_plan_id":"free"},{"bike_id":"096f60b1-e985-4e66-a76b-a0be7fa8334b","system_id":"levelo_inurba_marseille","lat":43.286595,"lon":5.386795,"is_reserved":false,"is_disabled":false,"rental_uris":{"android":"levelo://app?vid=096f60b1-e985-4e66-a76b-a0be7fa8334b","ios":"levelo://app?vid=096f60b1-e985-4e66-a76b-a0be7fa8334b"},"vehicle_type_id":"4","last_reported":1686420447,"current_range_meters":800,"station_id":"ce4bh492rcd13ifvqdug","pricing_plan_id":"free"},{"bike_id":"7cee8e31-41b5-4468-a73a-b60780607147","system_id":"levelo_inurba_marseille","lat":43.33608,"lon":5.3923,"is_reserved":false,"is_disabled":false,"rental_uris":{"android":"levelo://app?vid=7cee8e31-41b5-4468-a73a-b60780607147","ios":"levelo://app?vid=7cee8e31-41b5-4468-a73a-b60780607147"},"vehicle_type_id":"4","last_reported":1686420447,"current_range_meters":1200,"station_id":"","pricing_plan_id":"free"},{"bike_id":"7d89e3b5-958d-47f6-80fa-adc2175a1ff9","system_id":"levelo_inurba_marseille","lat":43.32305,"lon":5.40625,"is_reserved":false,"is_disabled":false,"rental_uris":{"android":"levelo://app?vid=7d89e3b5-958d-47f6-80fa-adc2175a1ff9","ios":"levelo://app?vid=7d89e3b5-958d-47f6-80fa-adc2175a1ff9"},"vehicle_type_id":"4","last_reported":1686420447,"current_range_meters":30800,"station_id":"","pricing_plan_id":"free"},{"bike_id":"30333e77-7cc7-4ad5-b030-c99c7af00601","system_id":"levelo_inurba_marseille","lat":43.32298,"lon":5.40629,"is_reserved":false,"is_disabled":false,"rental_uris":{"android":"levelo://app?vid=30333e77-7cc7-4ad5-b030-c99c7af00601","ios":"levelo://app?vid=30333e77-7cc7-4ad5-b030-c99c7af00601"},"vehicle_type_id":"4","last_reported":1686420447,"current_range_meters":31200,"station_id":"","pricing_plan_id":"free"},{"bike_id":"deb583eb-96fb-4a10-97e9-a4d5ee7da756","system_id":"levelo_inurba_marseille","lat":43.323464,"lon":5.406297,"is_reserved":false,"is_disabled":false,"rental_uris":{"android":"levelo://app?vid=deb583eb-96fb-4a10-97e9-a4d5ee7da756","ios":"levelo://app?vid=deb583eb-96fb-4a10-97e9-a4d5ee7da756"},"vehicle_type_id":"4","last_reported":1686420447,"current_range_meters":16000,"station_id":"ce4bhq92rcd13ifvqhjg","pricing_plan_id":"free"},{"bike_id":"06cff570-236d-434b-b41a-bcb364e7356f","system_id":"levelo_inurba_marseille","lat":43.323464,"lon":5.406297,"is_reserved":false,"is_disabled":false,"rental_uris":{"android":"levelo://app?vid=06cff570-236d-434b-b41a-bcb364e7356f","ios":"levelo://app?vid=06cff570-236d-434b-b41a-bcb364e7356f"},"vehicle_type_id":"4","last_reported":1686420447,"current_range_meters":31600,"station_id":"ce4bhq92rcd13ifvqhjg","pricing_plan_id":"free"},{"bike_id":"64eead76-2dc1-42bd-a4a2-05cec358379d","system_id":"levelo_inurba_marseille","lat":43.323464,"lon":5.406297,"is_reserved":false,"is_disabled":false,"rental_uris":{"android":"levelo://app?vid=64eead76-2dc1-42bd-a4a2-05cec358379d","ios":"levelo://app?vid=64eead76-2dc1-42bd-a4a2-05cec358379d"},"vehicle_type_id":"4","last_reported":1686420447,"current_range_meters":29600,"station_id":"ce4bhq92rcd13ifvqhjg","pricing_plan_id":"free"},{"bike_id":"f74e5191-5771-4c20-82f9-b577ae627053","system_id":"levelo_inurba_marseille","lat":43.323464,"lon":5.406297,"is_reserved":false,"is_disabled":false,"rental_uris":{"android":"levelo://app?vid=f74e5191-5771-4c20-82f9-b577ae627053","ios":"levelo://app?vid=f74e5191-5771-4c20-82f9-b577ae627053"},"vehicle_type_id":"4","last_reported":1686420447,"current_range_meters":16000,"station_id":"ce4bhq92rcd13ifvqhjg","pricing_plan_id":"free"},{"bike_id":"b530f128-fc6e-4f0e-bd93-48560cd9fcbf","system_id":"levelo_inurba_marseille","lat":43.323464,"lon":5.406297,"is_reserved":false,"is_disabled":false,"rental_uris":{"android":"levelo://app?vid=b530f128-fc6e-4f0e-bd93-48560cd9fcbf","ios":"levelo://app?vid=b530f128-fc6e-4f0e-bd93-48560cd9fcbf"},"vehicle_type_id":"4","last_reported":1686420447,"current_range_meters":10000,"station_id":"ce4bhq92rcd13ifvqhjg","pricing_plan_id":"free"},{"bike_id":"4704b1ca-6f21-4bec-afe8-2f79933807f5","system_id":"levelo_inurba_marseille","lat":43.281044,"lon":5.378308,"is_reserved":false,"is_disabled":false,"rental_uris":{"android":"levelo://app?vid=4704b1ca-6f21-4bec-afe8-2f79933807f5","ios":"levelo://app?vid=4704b1ca-6f21-4bec-afe8-2f79933807f5"},"vehicle_type_id":"4","last_reported":1686420447,"current_range_meters":14400,"station_id":"ce4bha12rcd13ifvqee0","pricing_plan_id":"free"},{"bike_id":"af5900a3-90c5-4bf6-ac88-ad0a7ad5f6dc","system_id":"levelo_inurba_marseille","lat":43.283494,"lon":5.380945,"is_reserved":false,"is_disabled":false,"rental_uris":{"android":"levelo://app?vid=af5900a3-90c5-4bf6-ac88-ad0a7ad5f6dc","ios":"levelo://app?vid=af5900a3-90c5-4bf6-ac88-ad0a7ad5f6dc"},"vehicle_type_id":"4","last_reported":1686420447,"current_range_meters":16000,"station_id":"ce4bh412rcd13ifvqdr0","pricing_plan_id":"free"},{"bike_id":"a3079b4d-45c0-4654-a084-416319c5cab5","system_id":"levelo_inurba_marseille","lat":43.32399,"lon":5.40665,"is_reserved":false,"is_disabled":false,"rental_uris":{"android":"levelo://app?vid=a3079b4d-45c0-4654-a084-416319c5cab5","ios":"levelo://app?vid=a3079b4d-45c0-4654-a084-416319c5cab5"},"vehicle_type_id":"4","last_reported":1686420447,"current_range_meters":31200,"station_id":"","pricing_plan_id":"free"},{"bike_id":"ae232d39-b160-410f-a53c-e104a0631f2e","system_id":"levelo_inurba_marseille","lat":43.32411,"lon":5.40676,"is_reserved":false,"is_disabled":false,"rental_uris":{"android":"levelo://app?vid=ae232d39-b160-410f-a53c-e104a0631f2e","ios":"levelo://app?vid=ae232d39-b160-410f-a53c-e104a0631f2e"},"vehicle_type_id":"4","last_reported":1686420447,"current_range_meters":15600,"station_id":"","pricing_plan_id":"free"},{"bike_id":"f165d1f5-9d8a-4349-b4b6-4403e605ad1e","system_id":"levelo_inurba_marseille","lat":43.29041,"lon":5.399634,"is_reserved":false,"is_disabled":false,"rental_uris":{"android":"levelo://app?vid=f165d1f5-9d8a-4349-b4b6-4403e605ad1e","ios":"levelo://app?vid=f165d1f5-9d8a-4349-b4b6-4403e605ad1e"},"vehicle_type_id":"4","last_reported":1686420447,"current_range_meters":17200,"station_id":"ce4bh392rcd13ifvqdm0","pricing_plan_id":"free"},{"bike_id":"7cd16ea8-cf24-4767-a023-dc881fca006f","system_id":"levelo_inurba_marseille","lat":43.32811,"lon":5.40699,"is_reserved":false,"is_disabled":false,"rental_uris":{"android":"levelo://app?vid=7cd16ea8-cf24-4767-a023-dc881fca006f","ios":"levelo://app?vid=7cd16ea8-cf24-4767-a023-dc881fca006f"},"vehicle_type_id":"4","last_reported":1686420447,"current_range_meters":8400,"station_id":"","pricing_plan_id":"free"},{"bike_id":"4e9719af-0088-40a4-ac23-ca9d340598ae","system_id":"levelo_inurba_marseille","lat":43.326605,"lon":5.409903,"is_reserved":false,"is_disabled":false,"rental_uris":{"android":"levelo://app?vid=4e9719af-0088-40a4-ac23-ca9d340598ae","ios":"levelo://app?vid=4e9719af-0088-40a4-ac23-ca9d340598ae"},"vehicle_type_id":"4","last_reported":1686420447,"current_range_meters":8400,"station_id":"ce4bhpp2rcd13ifvqhgg","pricing_plan_id":"free"},{"bike_id":"79df785a-ff76-4e73-819c-e554e8a9b3bf","system_id":"levelo_inurba_marseille","lat":43.28699,"lon":5.39982,"is_reserved":false,"is_disabled":false,"rental_uris":{"android":"levelo://app?vid=79df785a-ff76-4e73-819c-e554e8a9b3bf","ios":"levelo://app?vid=79df785a-ff76-4e73-819c-e554e8a9b3bf"},"vehicle_type_id":"4","last_reported":1686420447,"current_range_meters":4000,"station_id":"ce4bho92rcd13ifvqh3g","pricing_plan_id":"free"},{"bike_id":"4ddc7be7-e926-4500-8b29-1be8ac06109f","system_id":"levelo_inurba_marseille","lat":43.287154,"lon":5.399979,"is_reserved":false,"is_disabled":false,"rental_uris":{"android":"levelo://app?vid=4ddc7be7-e926-4500-8b29-1be8ac06109f","ios":"levelo://app?vid=4ddc7be7-e926-4500-8b29-1be8ac06109f"},"vehicle_type_id":"4","last_reported":1686420447,"current_range_meters":8400,"station_id":"ce4bho92rcd13ifvqh3g","pricing_plan_id":"free"},{"bike_id":"e6d2d6c4-9ff2-40c7-a6f0-61f3764984b8","system_id":"levelo_inurba_marseille","lat":43.32046,"lon":5.41545,"is_reserved":false,"is_disabled":false,"rental_uris":{"android":"levelo://app?vid=e6d2d6c4-9ff2-40c7-a6f0-61f3764984b8","ios":"levelo://app?vid=e6d2d6c4-9ff2-40c7-a6f0-61f3764984b8"},"vehicle_type_id":"4","last_reported":1686420447,"current_range_meters":27200,"station_id":"","pricing_plan_id":"free"},{"bike_id":"03669867-3532-4381-b124-51d2614b61b5","system_id":"levelo_inurba_marseille","lat":43.32027,"lon":5.41559,"is_reserved":false,"is_disabled":false,"rental_uris":{"android":"levelo://app?vid=03669867-3532-4381-b124-51d2614b61b5","ios":"levelo://app?vid=03669867-3532-4381-b124-51d2614b61b5"},"vehicle_type_id":"4","last_reported":1686420447,"current_range_meters":24800,"station_id":"","pricing_plan_id":"free"},{"bike_id":"bb24800c-0201-48a4-8f1a-b6e1e15bfcc2","system_id":"levelo_inurba_marseille","lat":43.32056,"lon":5.41552,"is_reserved":false,"is_disabled":false,"rental_uris":{"android":"levelo://app?vid=bb24800c-0201-48a4-8f1a-b6e1e15bfcc2","ios":"levelo://app?vid=bb24800c-0201-48a4-8f1a-b6e1e15bfcc2"},"vehicle_type_id":"4","last_reported":1686420447,"current_range_meters":22800,"station_id":"","pricing_plan_id":"free"},{"bike_id":"085bd568-ec40-4961-8fff-65962dfcc170","system_id":"levelo_inurba_marseille","lat":43.32531,"lon":5.41437,"is_reserved":false,"is_disabled":false,"rental_uris":{"android":"levelo://app?vid=085bd568-ec40-4961-8fff-65962dfcc170","ios":"levelo://app?vid=085bd568-ec40-4961-8fff-65962dfcc170"},"vehicle_type_id":"4","last_reported":1686420447,"current_range_meters":29200,"station_id":"ce4bhq12rcd13ifvqhhg","pricing_plan_id":"free"},{"bike_id":"a8c59423-12e8-4a41-96a2-858f4c32eb37","system_id":"levelo_inurba_marseille","lat":43.27827,"lon":5.38819,"is_reserved":false,"is_disabled":false,"rental_uris":{"android":"levelo://app?vid=a8c59423-12e8-4a41-96a2-858f4c32eb37","ios":"levelo://app?vid=a8c59423-12e8-4a41-96a2-858f4c32eb37"},"vehicle_type_id":"4","last_reported":1686420447,"current_range_meters":0,"station_id":"","pricing_plan_id":"free"},{"bike_id":"ee425127-e6b4-4db3-8522-235750c981af","system_id":"levelo_inurba_marseille","lat":43.280784,"lon":5.396622,"is_reserved":false,"is_disabled":false,"rental_uris":{"android":"levelo://app?vid=ee425127-e6b4-4db3-8522-235750c981af","ios":"levelo://app?vid=ee425127-e6b4-4db3-8522-235750c981af"},"vehicle_type_id":"4","last_reported":1686420447,"current_range_meters":0,"station_id":"ce4bho12rcd13ifvqh2g","pricing_plan_id":"free"},{"bike_id":"52b7997a-c483-4d21-8522-86ea17b34392","system_id":"levelo_inurba_marseille","lat":43.33612,"lon":5.410321,"is_reserved":false,"is_disabled":false,"rental_uris":{"android":"levelo://app?vid=52b7997a-c483-4d21-8522-86ea17b34392","ios":"levelo://app?vid=52b7997a-c483-4d21-8522-86ea17b34392"},"vehicle_type_id":"4","last_reported":1686420447,"current_range_meters":26000,"station_id":"ce4bhqh2rcd13ifvqhmg","pricing_plan_id":"free"},{"bike_id":"5d0612c0-b331-4e83-89f4-48858ddc4741","system_id":"levelo_inurba_marseille","lat":43.33617,"lon":5.41028,"is_reserved":false,"is_disabled":false,"rental_uris":{"android":"levelo://app?vid=5d0612c0-b331-4e83-89f4-48858ddc4741","ios":"levelo://app?vid=5d0612c0-b331-4e83-89f4-48858ddc4741"},"vehicle_type_id":"4","last_reported":1686420447,"current_range_meters":31200,"station_id":"ce4bhqh2rcd13ifvqhmg","pricing_plan_id":"free"},{"bike_id":"959dfc92-f8cb-4d51-b6c3-694caa46fef0","system_id":"levelo_inurba_marseille","lat":43.278401,"lon":5.392152,"is_reserved":false,"is_disabled":false,"rental_uris":{"android":"levelo://app?vid=959dfc92-f8cb-4d51-b6c3-694caa46fef0","ios":"levelo://app?vid=959dfc92-f8cb-4d51-b6c3-694caa46fef0"},"vehicle_type_id":"4","last_reported":1686420447,"current_range_meters":21600,"station_id":"ce4bhjp2rcd13ifvqga0","pricing_plan_id":"free"},{"bike_id":"d4d58f6f-e7bd-4df1-bbae-d96ccdb1e7fa","system_id":"levelo_inurba_marseille","lat":43.273129,"lon":5.390725,"is_reserved":false,"is_disabled":false,"rental_uris":{"android":"levelo://app?vid=d4d58f6f-e7bd-4df1-bbae-d96ccdb1e7fa","ios":"levelo://app?vid=d4d58f6f-e7bd-4df1-bbae-d96ccdb1e7fa"},"vehicle_type_id":"4","last_reported":1686420447,"current_range_meters":5200,"station_id":"ce4bhgp2rcd13ifvqfe0","pricing_plan_id":"free"},{"bike_id":"99721513-b9a8-4fb3-80d5-6a57460ec153","system_id":"levelo_inurba_marseille","lat":43.27425,"lon":5.39412,"is_reserved":false,"is_disabled":false,"rental_uris":{"android":"levelo://app?vid=99721513-b9a8-4fb3-80d5-6a57460ec153","ios":"levelo://app?vid=99721513-b9a8-4fb3-80d5-6a57460ec153"},"vehicle_type_id":"4","last_reported":1686420447,"current_range_meters":0,"station_id":"","pricing_plan_id":"free"},{"bike_id":"62fac331-6911-408d-9194-b6776a1ca4ea","system_id":"levelo_inurba_marseille","lat":43.278128,"lon":5.407195,"is_reserved":false,"is_disabled":false,"rental_uris":{"android":"levelo://app?vid=62fac331-6911-408d-9194-b6776a1ca4ea","ios":"levelo://app?vid=62fac331-6911-408d-9194-b6776a1ca4ea"},"vehicle_type_id":"4","last_reported":1686420447,"current_range_meters":5200,"station_id":"ce4bhnh2rcd13ifvqgtg","pricing_plan_id":"free"},{"bike_id":"88b1df00-04d8-4ce9-b77a-b736eebb78e2","system_id":"levelo_inurba_marseille","lat":43.278128,"lon":5.407195,"is_reserved":false,"is_disabled":false,"rental_uris":{"android":"levelo://app?vid=88b1df00-04d8-4ce9-b77a-b736eebb78e2","ios":"levelo://app?vid=88b1df00-04d8-4ce9-b77a-b736eebb78e2"},"vehicle_type_id":"4","last_reported":1686420447,"current_range_meters":4400,"station_id":"ce4bhnh2rcd13ifvqgtg","pricing_plan_id":"free"},{"bike_id":"b3ea274b-76bf-440e-b505-64b4a394d3bc","system_id":"levelo_inurba_marseille","lat":43.269467,"lon":5.386439,"is_reserved":false,"is_disabled":false,"rental_uris":{"android":"levelo://app?vid=b3ea274b-76bf-440e-b505-64b4a394d3bc","ios":"levelo://app?vid=b3ea274b-76bf-440e-b505-64b4a394d3bc"},"vehicle_type_id":"4","last_reported":1686420447,"current_range_meters":0,"station_id":"ce4bhh92rcd13ifvqfh0","pricing_plan_id":"free"},{"bike_id":"43d5dfd9-949c-4aad-8e07-bdb40827139b","system_id":"levelo_inurba_marseille","lat":43.27998,"lon":5.41653,"is_reserved":false,"is_disabled":false,"rental_uris":{"android":"levelo://app?vid=43d5dfd9-949c-4aad-8e07-bdb40827139b","ios":"levelo://app?vid=43d5dfd9-949c-4aad-8e07-bdb40827139b"},"vehicle_type_id":"4","last_reported":1686420447,"current_range_meters":3600,"station_id":"ce4bho12rcd13ifvqh1g","pricing_plan_id":"free"},{"bike_id":"2c6ce577-cfe3-41b5-bb33-4b7d7a2f3652","system_id":"levelo_inurba_marseille","lat":43.28,"lon":5.41659,"is_reserved":false,"is_disabled":false,"rental_uris":{"android":"levelo://app?vid=2c6ce577-cfe3-41b5-bb33-4b7d7a2f3652","ios":"levelo://app?vid=2c6ce577-cfe3-41b5-bb33-4b7d7a2f3652"},"vehicle_type_id":"4","last_reported":1686420447,"current_range_meters":3600,"station_id":"ce4bho12rcd13ifvqh1g","pricing_plan_id":"free"},{"bike_id":"e80e8f5e-c053-4f01-93d6-44adf7b39e44","system_id":"levelo_inurba_marseille","lat":43.27992,"lon":5.41656,"is_reserved":false,"is_disabled":false,"rental_uris":{"android":"levelo://app?vid=e80e8f5e-c053-4f01-93d6-44adf7b39e44","ios":"levelo://app?vid=e80e8f5e-c053-4f01-93d6-44adf7b39e44"},"vehicle_type_id":"4","last_reported":1686420447,"current_range_meters":6000,"station_id":"ce4bho12rcd13ifvqh1g","pricing_plan_id":"free"},{"bike_id":"5d688d33-10b1-4452-b050-b2674cfc936a","system_id":"levelo_inurba_marseille","lat":43.27996,"lon":5.416624,"is_reserved":false,"is_disabled":false,"rental_uris":{"android":"levelo://app?vid=5d688d33-10b1-4452-b050-b2674cfc936a","ios":"levelo://app?vid=5d688d33-10b1-4452-b050-b2674cfc936a"},"vehicle_type_id":"4","last_reported":1686420447,"current_range_meters":17600,"station_id":"ce4bho12rcd13ifvqh1g","pricing_plan_id":"free"},{"bike_id":"880e3ed5-14fb-41d9-a5b5-3f233d54308c","system_id":"levelo_inurba_marseille","lat":43.27991,"lon":5.41657,"is_reserved":false,"is_disabled":false,"rental_uris":{"android":"levelo://app?vid=880e3ed5-14fb-41d9-a5b5-3f233d54308c","ios":"levelo://app?vid=880e3ed5-14fb-41d9-a5b5-3f233d54308c"},"vehicle_type_id":"4","last_reported":1686420447,"current_range_meters":13200,"station_id":"ce4bho12rcd13ifvqh1g","pricing_plan_id":"free"},{"bike_id":"15f2d771-48c2-4f49-8871-4f62d26ecd83","system_id":"levelo_inurba_marseille","lat":43.2799,"lon":5.4166,"is_reserved":false,"is_disabled":false,"rental_uris":{"android":"levelo://app?vid=15f2d771-48c2-4f49-8871-4f62d26ecd83","ios":"levelo://app?vid=15f2d771-48c2-4f49-8871-4f62d26ecd83"},"vehicle_type_id":"4","last_reported":1686420447,"current_range_meters":0,"station_id":"ce4bho12rcd13ifvqh1g","pricing_plan_id":"free"},{"bike_id":"1e50d4c5-46cf-4d7c-9130-3b1369edbffb","system_id":"levelo_inurba_marseille","lat":43.27694,"lon":5.41335,"is_reserved":false,"is_disabled":false,"rental_uris":{"android":"levelo://app?vid=1e50d4c5-46cf-4d7c-9130-3b1369edbffb","ios":"levelo://app?vid=1e50d4c5-46cf-4d7c-9130-3b1369edbffb"},"vehicle_type_id":"4","last_reported":1686420447,"current_range_meters":19600,"station_id":"","pricing_plan_id":"free"},{"bike_id":"09706511-9637-4cfb-a8cf-69d9cc386777","system_id":"levelo_inurba_marseille","lat":43.2769,"lon":5.41342,"is_reserved":false,"is_disabled":false,"rental_uris":{"android":"levelo://app?vid=09706511-9637-4cfb-a8cf-69d9cc386777","ios":"levelo://app?vid=09706511-9637-4cfb-a8cf-69d9cc386777"},"vehicle_type_id":"4","last_reported":1686420447,"current_range_meters":28400,"station_id":"","pricing_plan_id":"free"},{"bike_id":"447c63d4-a54e-46c0-af21-498e3fcd85ce","system_id":"levelo_inurba_marseille","lat":43.33247,"lon":5.42996,"is_reserved":false,"is_disabled":false,"rental_uris":{"android":"levelo://app?vid=447c63d4-a54e-46c0-af21-498e3fcd85ce","ios":"levelo://app?vid=447c63d4-a54e-46c0-af21-498e3fcd85ce"},"vehicle_type_id":"4","last_reported":1686420447,"current_range_meters":21200,"station_id":"","pricing_plan_id":"free"},{"bike_id":"91d94c71-8533-4efc-a134-db40f05119ac","system_id":"levelo_inurba_marseille","lat":43.26234,"lon":5.37046,"is_reserved":false,"is_disabled":false,"rental_uris":{"android":"levelo://app?vid=91d94c71-8533-4efc-a134-db40f05119ac","ios":"levelo://app?vid=91d94c71-8533-4efc-a134-db40f05119ac"},"vehicle_type_id":"4","last_reported":1686420447,"current_range_meters":16000,"station_id":"","pricing_plan_id":"free"},{"bike_id":"6853ea80-78f9-4825-8105-002e10c67b8f","system_id":"levelo_inurba_marseille","lat":43.33115,"lon":5.43234,"is_reserved":false,"is_disabled":false,"rental_uris":{"android":"levelo://app?vid=6853ea80-78f9-4825-8105-002e10c67b8f","ios":"levelo://app?vid=6853ea80-78f9-4825-8105-002e10c67b8f"},"vehicle_type_id":"4","last_reported":1686420447,"current_range_meters":18400,"station_id":"","pricing_plan_id":"free"},{"bike_id":"29b66ac4-e3fb-47ff-a2e0-8173878b69e5","system_id":"levelo_inurba_marseille","lat":43.261782,"lon":5.374515,"is_reserved":false,"is_disabled":false,"rental_uris":{"android":"levelo://app?vid=29b66ac4-e3fb-47ff-a2e0-8173878b69e5","ios":"levelo://app?vid=29b66ac4-e3fb-47ff-a2e0-8173878b69e5"},"vehicle_type_id":"4","last_reported":1686420447,"current_range_meters":2800,"station_id":"ce4bhgp2rcd13ifvqfc0","pricing_plan_id":"free"},{"bike_id":"e5acbbc6-ad56-4db4-9eca-87aa88ea4eca","system_id":"levelo_inurba_marseille","lat":43.317104,"lon":5.436818,"is_reserved":false,"is_disabled":false,"rental_uris":{"android":"levelo://app?vid=e5acbbc6-ad56-4db4-9eca-87aa88ea4eca","ios":"levelo://app?vid=e5acbbc6-ad56-4db4-9eca-87aa88ea4eca"},"vehicle_type_id":"4","last_reported":1686420447,"current_range_meters":20000,"station_id":"ce4bhp92rcd13ifvqhcg","pricing_plan_id":"free"},{"bike_id":"2aca5622-2f45-48dd-875c-55ac54b64029","system_id":"levelo_inurba_marseille","lat":43.271388,"lon":5.409269,"is_reserved":false,"is_disabled":false,"rental_uris":{"android":"levelo://app?vid=2aca5622-2f45-48dd-875c-55ac54b64029","ios":"levelo://app?vid=2aca5622-2f45-48dd-875c-55ac54b64029"},"vehicle_type_id":"4","last_reported":1686420447,"current_range_meters":18400,"station_id":"ce4bhl12rcd13ifvqgf0","pricing_plan_id":"free"},{"bike_id":"387dda57-7343-4db6-bc10-20db60e7dca6","system_id":"levelo_inurba_marseille","lat":43.27175,"lon":5.40987,"is_reserved":false,"is_disabled":false,"rental_uris":{"android":"levelo://app?vid=387dda57-7343-4db6-bc10-20db60e7dca6","ios":"levelo://app?vid=387dda57-7343-4db6-bc10-20db60e7dca6"},"vehicle_type_id":"4","last_reported":1686420447,"current_range_meters":5200,"station_id":"","pricing_plan_id":"free"},{"bike_id":"6c9f431c-6e04-4cc9-828b-41371bbfcf8c","system_id":"levelo_inurba_marseille","lat":43.271388,"lon":5.409269,"is_reserved":false,"is_disabled":false,"rental_uris":{"android":"levelo://app?vid=6c9f431c-6e04-4cc9-828b-41371bbfcf8c","ios":"levelo://app?vid=6c9f431c-6e04-4cc9-828b-41371bbfcf8c"},"vehicle_type_id":"4","last_reported":1686420447,"current_range_meters":14800,"station_id":"ce4bhl12rcd13ifvqgf0","pricing_plan_id":"free"},{"bike_id":"8e920f77-983f-4229-98ed-76d9d541cfc9","system_id":"levelo_inurba_marseille","lat":43.27174,"lon":5.40993,"is_reserved":false,"is_disabled":false,"rental_uris":{"android":"levelo://app?vid=8e920f77-983f-4229-98ed-76d9d541cfc9","ios":"levelo://app?vid=8e920f77-983f-4229-98ed-76d9d541cfc9"},"vehicle_type_id":"4","last_reported":1686420447,"current_range_meters":11600,"station_id":"","pricing_plan_id":"free"},{"bike_id":"d1ec23aa-41f6-44c8-b08d-1930ca296976","system_id":"levelo_inurba_marseille","lat":43.27172,"lon":5.40999,"is_reserved":false,"is_disabled":false,"rental_uris":{"android":"levelo://app?vid=d1ec23aa-41f6-44c8-b08d-1930ca296976","ios":"levelo://app?vid=d1ec23aa-41f6-44c8-b08d-1930ca296976"},"vehicle_type_id":"4","last_reported":1686420447,"current_range_meters":10000,"station_id":"","pricing_plan_id":"free"},{"bike_id":"a3d8898c-42ea-4424-b229-590f5f81bdad","system_id":"levelo_inurba_marseille","lat":43.26365,"lon":5.39252,"is_reserved":false,"is_disabled":false,"rental_uris":{"android":"levelo://app?vid=a3d8898c-42ea-4424-b229-590f5f81bdad","ios":"levelo://app?vid=a3d8898c-42ea-4424-b229-590f5f81bdad"},"vehicle_type_id":"4","last_reported":1686420447,"current_range_meters":15200,"station_id":"","pricing_plan_id":"free"},{"bike_id":"8198bf1c-107d-495f-b226-50acd880893f","system_id":"levelo_inurba_marseille","lat":43.298768,"lon":5.43643,"is_reserved":false,"is_disabled":false,"rental_uris":{"android":"levelo://app?vid=8198bf1c-107d-495f-b226-50acd880893f","ios":"levelo://app?vid=8198bf1c-107d-495f-b226-50acd880893f"},"vehicle_type_id":"4","last_reported":1686420447,"current_range_meters":31600,"station_id":"ce4bhpp2rcd13ifvqhfg","pricing_plan_id":"free"},{"bike_id":"6d484bc2-80b3-4a09-a6f7-394fb1f91821","system_id":"levelo_inurba_marseille","lat":43.298768,"lon":5.43643,"is_reserved":false,"is_disabled":false,"rental_uris":{"android":"levelo://app?vid=6d484bc2-80b3-4a09-a6f7-394fb1f91821","ios":"levelo://app?vid=6d484bc2-80b3-4a09-a6f7-394fb1f91821"},"vehicle_type_id":"4","last_reported":1686420447,"current_range_meters":26800,"station_id":"ce4bhpp2rcd13ifvqhfg","pricing_plan_id":"free"},{"bike_id":"0abd466f-ae7a-4789-a218-e3b2c168a2b3","system_id":"levelo_inurba_marseille","lat":43.25961,"lon":5.3755,"is_reserved":false,"is_disabled":false,"rental_uris":{"android":"levelo://app?vid=0abd466f-ae7a-4789-a218-e3b2c168a2b3","ios":"levelo://app?vid=0abd466f-ae7a-4789-a218-e3b2c168a2b3"},"vehicle_type_id":"4","last_reported":1686420447,"current_range_meters":1600,"station_id":"","pricing_plan_id":"free"},{"bike_id":"8bae052b-3edc-4345-85b1-d116189b7c89","system_id":"levelo_inurba_marseille","lat":43.33477,"lon":5.43462,"is_reserved":false,"is_disabled":false,"rental_uris":{"android":"levelo://app?vid=8bae052b-3edc-4345-85b1-d116189b7c89","ios":"levelo://app?vid=8bae052b-3edc-4345-85b1-d116189b7c89"},"vehicle_type_id":"4","last_reported":1686420447,"current_range_meters":12400,"station_id":"","pricing_plan_id":"free"},{"bike_id":"bd5da142-9e08-421a-929d-5d8b54469f1b","system_id":"levelo_inurba_marseille","lat":43.26783,"lon":5.41169,"is_reserved":false,"is_disabled":false,"rental_uris":{"android":"levelo://app?vid=bd5da142-9e08-421a-929d-5d8b54469f1b","ios":"levelo://app?vid=bd5da142-9e08-421a-929d-5d8b54469f1b"},"vehicle_type_id":"4","last_reported":1686420447,"current_range_meters":15600,"station_id":"","pricing_plan_id":"free"},{"bike_id":"d7b65c3e-6dfd-4fd5-9e6f-18dbfe9d6a79","system_id":"levelo_inurba_marseille","lat":43.26069,"lon":5.39393,"is_reserved":false,"is_disabled":false,"rental_uris":{"android":"levelo://app?vid=d7b65c3e-6dfd-4fd5-9e6f-18dbfe9d6a79","ios":"levelo://app?vid=d7b65c3e-6dfd-4fd5-9e6f-18dbfe9d6a79"},"vehicle_type_id":"4","last_reported":1686420447,"current_range_meters":23600,"station_id":"ce4bhh92rcd13ifvqfj0","pricing_plan_id":"free"},{"bike_id":"507701f8-55ee-43a4-8272-76264faaef63","system_id":"levelo_inurba_marseille","lat":43.275028,"lon":5.424534,"is_reserved":false,"is_disabled":false,"rental_uris":{"android":"levelo://app?vid=507701f8-55ee-43a4-8272-76264faaef63","ios":"levelo://app?vid=507701f8-55ee-43a4-8272-76264faaef63"},"vehicle_type_id":"4","last_reported":1686420447,"current_range_meters":28400,"station_id":"ce4bhn92rcd13ifvqgrg","pricing_plan_id":"free"},{"bike_id":"8362e633-701d-430c-ac6c-21badf738d70","system_id":"levelo_inurba_marseille","lat":43.275028,"lon":5.424534,"is_reserved":false,"is_disabled":false,"rental_uris":{"android":"levelo://app?vid=8362e633-701d-430c-ac6c-21badf738d70","ios":"levelo://app?vid=8362e633-701d-430c-ac6c-21badf738d70"},"vehicle_type_id":"4","last_reported":1686420447,"current_range_meters":20000,"station_id":"ce4bhn92rcd13ifvqgrg","pricing_plan_id":"free"},{"bike_id":"e84f9986-654a-49b7-9d97-df5b3f3e1bd0","system_id":"levelo_inurba_marseille","lat":43.275028,"lon":5.424534,"is_reserved":false,"is_disabled":false,"rental_uris":{"android":"levelo://app?vid=e84f9986-654a-49b7-9d97-df5b3f3e1bd0","ios":"levelo://app?vid=e84f9986-654a-49b7-9d97-df5b3f3e1bd0"},"vehicle_type_id":"4","last_reported":1686420447,"current_range_meters":18000,"station_id":"ce4bhn92rcd13ifvqgrg","pricing_plan_id":"free"},{"bike_id":"a781a343-b241-4f95-ab3c-8b2df648c6cb","system_id":"levelo_inurba_marseille","lat":43.33312,"lon":5.44167,"is_reserved":false,"is_disabled":false,"rental_uris":{"android":"levelo://app?vid=a781a343-b241-4f95-ab3c-8b2df648c6cb","ios":"levelo://app?vid=a781a343-b241-4f95-ab3c-8b2df648c6cb"},"vehicle_type_id":"4","last_reported":1686420447,"current_range_meters":4800,"station_id":"","pricing_plan_id":"free"},{"bike_id":"ad8ff57d-7676-4ce6-9cc1-46efdd5c37e5","system_id":"levelo_inurba_marseille","lat":43.255756,"lon":5.382303,"is_reserved":false,"is_disabled":false,"rental_uris":{"android":"levelo://app?vid=ad8ff57d-7676-4ce6-9cc1-46efdd5c37e5","ios":"levelo://app?vid=ad8ff57d-7676-4ce6-9cc1-46efdd5c37e5"},"vehicle_type_id":"4","last_reported":1686420447,"current_range_meters":24400,"station_id":"ce4bhih2rcd13ifvqfs0","pricing_plan_id":"free"},{"bike_id":"805573b1-329b-4dc1-b470-b0f01625901c","system_id":"levelo_inurba_marseille","lat":43.254947,"lon":5.376454,"is_reserved":false,"is_disabled":false,"rental_uris":{"android":"levelo://app?vid=805573b1-329b-4dc1-b470-b0f01625901c","ios":"levelo://app?vid=805573b1-329b-4dc1-b470-b0f01625901c"},"vehicle_type_id":"4","last_reported":1686420447,"current_range_meters":3600,"station_id":"ce4bhh12rcd13ifvqff0","pricing_plan_id":"free"},{"bike_id":"36e3a35a-908b-4cc7-bc29-a397e83becf0","system_id":"levelo_inurba_marseille","lat":43.27075,"lon":5.42279,"is_reserved":false,"is_disabled":false,"rental_uris":{"android":"levelo://app?vid=36e3a35a-908b-4cc7-bc29-a397e83becf0","ios":"levelo://app?vid=36e3a35a-908b-4cc7-bc29-a397e83becf0"},"vehicle_type_id":"4","last_reported":1686420447,"current_range_meters":20400,"station_id":"ce4bhk92rcd13ifvqgb0","pricing_plan_id":"free"},{"bike_id":"ea75c2c5-8561-4314-a103-38c08005ff32","system_id":"levelo_inurba_marseille","lat":43.270721,"lon":5.422764,"is_reserved":false,"is_disabled":false,"rental_uris":{"android":"levelo://app?vid=ea75c2c5-8561-4314-a103-38c08005ff32","ios":"levelo://app?vid=ea75c2c5-8561-4314-a103-38c08005ff32"},"vehicle_type_id":"4","last_reported":1686420447,"current_range_meters":24800,"station_id":"ce4bhk92rcd13ifvqgb0","pricing_plan_id":"free"},{"bike_id":"926456a4-683a-4130-825f-e349460ba24e","system_id":"levelo_inurba_marseille","lat":43.270721,"lon":5.422764,"is_reserved":false,"is_disabled":false,"rental_uris":{"android":"levelo://app?vid=926456a4-683a-4130-825f-e349460ba24e","ios":"levelo://app?vid=926456a4-683a-4130-825f-e349460ba24e"},"vehicle_type_id":"4","last_reported":1686420447,"current_range_meters":10400,"station_id":"ce4bhk92rcd13ifvqgb0","pricing_plan_id":"free"},{"bike_id":"aa069271-70bd-41fe-9bb6-f9833cddad4b","system_id":"levelo_inurba_marseille","lat":43.27072,"lon":5.42281,"is_reserved":false,"is_disabled":false,"rental_uris":{"android":"levelo://app?vid=aa069271-70bd-41fe-9bb6-f9833cddad4b","ios":"levelo://app?vid=aa069271-70bd-41fe-9bb6-f9833cddad4b"},"vehicle_type_id":"4","last_reported":1686420447,"current_range_meters":31200,"station_id":"ce4bhk92rcd13ifvqgb0","pricing_plan_id":"free"},{"bike_id":"39825381-e450-46c6-91b8-c626f6a0cce0","system_id":"levelo_inurba_marseille","lat":43.258658,"lon":5.398935,"is_reserved":false,"is_disabled":false,"rental_uris":{"android":"levelo://app?vid=39825381-e450-46c6-91b8-c626f6a0cce0","ios":"levelo://app?vid=39825381-e450-46c6-91b8-c626f6a0cce0"},"vehicle_type_id":"4","last_reported":1686420447,"current_range_meters":14000,"station_id":"ce4bhl92rcd13ifvqghg","pricing_plan_id":"free"},{"bike_id":"8c1d53ba-5a6e-4bae-8086-4dbf4d87f924","system_id":"levelo_inurba_marseille","lat":43.25175,"lon":5.37342,"is_reserved":false,"is_disabled":false,"rental_uris":{"android":"levelo://app?vid=8c1d53ba-5a6e-4bae-8086-4dbf4d87f924","ios":"levelo://app?vid=8c1d53ba-5a6e-4bae-8086-4dbf4d87f924"},"vehicle_type_id":"4","last_reported":1686420447,"current_range_meters":31200,"station_id":"","pricing_plan_id":"free"},{"bike_id":"ca1a9c22-9bd1-404d-bca0-3066cc8ae75a","system_id":"levelo_inurba_marseille","lat":43.259013,"lon":5.409301,"is_reserved":false,"is_disabled":false,"rental_uris":{"android":"levelo://app?vid=ca1a9c22-9bd1-404d-bca0-3066cc8ae75a","ios":"levelo://app?vid=ca1a9c22-9bd1-404d-bca0-3066cc8ae75a"},"vehicle_type_id":"4","last_reported":1686420447,"current_range_meters":0,"station_id":"ce4bhm92rcd13ifvqglg","pricing_plan_id":"free"},{"bike_id":"092244c5-29f2-4da3-aee8-95e3388df619","system_id":"levelo_inurba_marseille","lat":43.250009,"lon":5.389195,"is_reserved":false,"is_disabled":false,"rental_uris":{"android":"levelo://app?vid=092244c5-29f2-4da3-aee8-95e3388df619","ios":"levelo://app?vid=092244c5-29f2-4da3-aee8-95e3388df619"},"vehicle_type_id":"4","last_reported":1686420447,"current_range_meters":16400,"station_id":"ce4bhgp2rcd13ifvqfd0","pricing_plan_id":"free"},{"bike_id":"30b7226b-5cf4-4752-a6ef-6d43f1569f11","system_id":"levelo_inurba_marseille","lat":43.250009,"lon":5.389195,"is_reserved":false,"is_disabled":false,"rental_uris":{"android":"levelo://app?vid=30b7226b-5cf4-4752-a6ef-6d43f1569f11","ios":"levelo://app?vid=30b7226b-5cf4-4752-a6ef-6d43f1569f11"},"vehicle_type_id":"4","last_reported":1686420447,"current_range_meters":16400,"station_id":"ce4bhgp2rcd13ifvqfd0","pricing_plan_id":"free"},{"bike_id":"695d23db-3cbd-4a12-a8b2-1eb4db368801","system_id":"levelo_inurba_marseille","lat":43.24999,"lon":5.38927,"is_reserved":false,"is_disabled":false,"rental_uris":{"android":"levelo://app?vid=695d23db-3cbd-4a12-a8b2-1eb4db368801","ios":"levelo://app?vid=695d23db-3cbd-4a12-a8b2-1eb4db368801"},"vehicle_type_id":"4","last_reported":1686420447,"current_range_meters":30400,"station_id":"ce4bhgp2rcd13ifvqfd0","pricing_plan_id":"free"},{"bike_id":"587e86c3-c119-46f1-93ae-bb340a8f42cf","system_id":"levelo_inurba_marseille","lat":43.24992,"lon":5.38945,"is_reserved":false,"is_disabled":false,"rental_uris":{"android":"levelo://app?vid=587e86c3-c119-46f1-93ae-bb340a8f42cf","ios":"levelo://app?vid=587e86c3-c119-46f1-93ae-bb340a8f42cf"},"vehicle_type_id":"4","last_reported":1686420447,"current_range_meters":28400,"station_id":"","pricing_plan_id":"free"},{"bike_id":"92d18461-034d-4bdd-a9b1-b99a70643640","system_id":"levelo_inurba_marseille","lat":43.24693,"lon":5.382096,"is_reserved":false,"is_disabled":false,"rental_uris":{"android":"levelo://app?vid=92d18461-034d-4bdd-a9b1-b99a70643640","ios":"levelo://app?vid=92d18461-034d-4bdd-a9b1-b99a70643640"},"vehicle_type_id":"4","last_reported":1686420447,"current_range_meters":8000,"station_id":"ce4bhih2rcd13ifvqfr0","pricing_plan_id":"free"},{"bike_id":"3886b27e-09a8-44c3-9b24-417c27e18dc7","system_id":"levelo_inurba_marseille","lat":43.25102,"lon":5.403214,"is_reserved":false,"is_disabled":false,"rental_uris":{"android":"levelo://app?vid=3886b27e-09a8-44c3-9b24-417c27e18dc7","ios":"levelo://app?vid=3886b27e-09a8-44c3-9b24-417c27e18dc7"},"vehicle_type_id":"4","last_reported":1686420447,"current_range_meters":22000,"station_id":"ce4bhlh2rcd13ifvqgig","pricing_plan_id":"free"},{"bike_id":"01ac9291-821c-44e6-b123-8c3653df8285","system_id":"levelo_inurba_marseille","lat":43.243884,"lon":5.370737,"is_reserved":false,"is_disabled":false,"rental_uris":{"android":"levelo://app?vid=01ac9291-821c-44e6-b123-8c3653df8285","ios":"levelo://app?vid=01ac9291-821c-44e6-b123-8c3653df8285"},"vehicle_type_id":"4","last_reported":1686420447,"current_range_meters":0,"station_id":"ce4bhhh2rcd13ifvqfk0","pricing_plan_id":"free"},{"bike_id":"d6df284d-b2ab-4b4b-842d-7d7b74d5ccc1","system_id":"levelo_inurba_marseille","lat":43.245581,"lon":5.395069,"is_reserved":false,"is_disabled":false,"rental_uris":{"android":"levelo://app?vid=d6df284d-b2ab-4b4b-842d-7d7b74d5ccc1","ios":"levelo://app?vid=d6df284d-b2ab-4b4b-842d-7d7b74d5ccc1"},"vehicle_type_id":"4","last_reported":1686420447,"current_range_meters":30400,"station_id":"ce4bhlp2rcd13ifvqgjg","pricing_plan_id":"free"},{"bike_id":"7b92bb4e-c37f-408a-b8c5-8d9651549545","system_id":"levelo_inurba_marseille","lat":43.29009,"lon":5.45989,"is_reserved":false,"is_disabled":false,"rental_uris":{"android":"levelo://app?vid=7b92bb4e-c37f-408a-b8c5-8d9651549545","ios":"levelo://app?vid=7b92bb4e-c37f-408a-b8c5-8d9651549545"},"vehicle_type_id":"4","last_reported":1686420447,"current_range_meters":21200,"station_id":"","pricing_plan_id":"free"},{"bike_id":"3575617f-1ba9-437f-a580-06b83299f3b0","system_id":"levelo_inurba_marseille","lat":43.24081,"lon":5.37759,"is_reserved":false,"is_disabled":false,"rental_uris":{"android":"levelo://app?vid=3575617f-1ba9-437f-a580-06b83299f3b0","ios":"levelo://app?vid=3575617f-1ba9-437f-a580-06b83299f3b0"},"vehicle_type_id":"4","last_reported":1686420447,"current_range_meters":5200,"station_id":"","pricing_plan_id":"free"},{"bike_id":"5fae2805-f802-4fc8-be7b-296f38c974f3","system_id":"levelo_inurba_marseille","lat":43.239588,"lon":5.366238,"is_reserved":false,"is_disabled":false,"rental_uris":{"android":"levelo://app?vid=5fae2805-f802-4fc8-be7b-296f38c974f3","ios":"levelo://app?vid=5fae2805-f802-4fc8-be7b-296f38c974f3"},"vehicle_type_id":"4","last_reported":1686420447,"current_range_meters":400,"station_id":"ce4bhi12rcd13ifvqfp0","pricing_plan_id":"free"},{"bike_id":"3c0d63a1-bf77-4a3b-9def-ae8da33f563f","system_id":"levelo_inurba_marseille","lat":43.23852,"lon":5.38968,"is_reserved":false,"is_disabled":false,"rental_uris":{"android":"levelo://app?vid=3c0d63a1-bf77-4a3b-9def-ae8da33f563f","ios":"levelo://app?vid=3c0d63a1-bf77-4a3b-9def-ae8da33f563f"},"vehicle_type_id":"4","last_reported":1686420447,"current_range_meters":4000,"station_id":"","pricing_plan_id":"free"},{"bike_id":"12de3828-4c9c-4f12-a7b0-5aa63b2a0c06","system_id":"levelo_inurba_marseille","lat":43.24836,"lon":5.42359,"is_reserved":false,"is_disabled":false,"rental_uris":{"android":"levelo://app?vid=12de3828-4c9c-4f12-a7b0-5aa63b2a0c06","ios":"levelo://app?vid=12de3828-4c9c-4f12-a7b0-5aa63b2a0c06"},"vehicle_type_id":"4","last_reported":1686420447,"current_range_meters":18800,"station_id":"","pricing_plan_id":"free"},{"bike_id":"c63bbd7d-e8bf-4b1a-8c3d-53c96a698b13","system_id":"levelo_inurba_marseille","lat":43.23192,"lon":5.35548,"is_reserved":false,"is_disabled":false,"rental_uris":{"android":"levelo://app?vid=c63bbd7d-e8bf-4b1a-8c3d-53c96a698b13","ios":"levelo://app?vid=c63bbd7d-e8bf-4b1a-8c3d-53c96a698b13"},"vehicle_type_id":"4","last_reported":1686420447,"current_range_meters":31200,"station_id":"ce4bhu92rcd13ifvqi70","pricing_plan_id":"free"},{"bike_id":"f4055306-ed12-4770-965b-c3500487729e","system_id":"levelo_inurba_marseille","lat":43.23188,"lon":5.35563,"is_reserved":false,"is_disabled":false,"rental_uris":{"android":"levelo://app?vid=f4055306-ed12-4770-965b-c3500487729e","ios":"levelo://app?vid=f4055306-ed12-4770-965b-c3500487729e"},"vehicle_type_id":"4","last_reported":1686420447,"current_range_meters":31200,"station_id":"ce4bhu92rcd13ifvqi70","pricing_plan_id":"free"}]}}