{"last_updated":1730377061,"ttl":60,"version":"2.2","data":{"bikes":[{"bike_id":"e4bbc832-436f-482e-8a94-66135373f59d","system_id":"levelo_inurba_marseille","lat":43.31356,"lon":5.36706,"is_reserved":false,"is_disabled":false,"rental_uris":{"android":"levelo://app?vid=e4bbc832-436f-482e-8a94-66135373f59d","ios":"levelo://app?vid=e4bbc832-436f-482e-8a94-66135373f59d"},"vehicle_type_id":"4","last_reported":1730377062,"current_range_meters":38400,"station_id":"ce4bgr92rcd13ifvqc6g","pricing_plan_id":"cebpf4jnsgd1na2vs0mg"},{"bike_id":"e36513f8-eb97-4b97-ab7b-45b82b211f60","system_id":"levelo_inurba_marseille","lat":43.25581,"lon":5.38233,"is_reserved":false,"is_disabled":false,"rental_uris":{"android":"levelo://app?vid=e36513f8-eb97-4b97-ab7b-45b82b211f60","ios":"levelo://app?vid=e36513f8-eb97-4b97-ab7b-45b82b211f60"},"vehicle_type_id":"4","last_reported":1730377062,"current_range_meters":38800,"station_id":"ce4bhih2rcd13ifvqfs0","pricing_plan_id":"cebpf4jnsgd1na2vs0mg"},{"bike_id":"874b1dbe-9552-496d-9bc1-26d2fcb8136c","system_id":"levelo_inurba_marseille","lat":43.30908,"lon":5.36844,"is_reserved":false,"is_disabled":false,"rental_uris":{"android":"levelo://app?vid=874b1dbe-9552-496d-9bc1-26d2fcb8136c","ios":"levelo://app?vid=874b1dbe-9552-496d-9bc1-26d2fcb8136c"},"vehicle_type_id":"4","last_reported":1730377062,"current_range_meters":18800,"station_id":"ce4bgn92rcd13ifvqbvg","pricing_plan_id":"cebpf4jnsgd1na2vs0mg"},{"bike_id":"4ece88df-fa27-48c3-ac9d-002c4cb1e94a","system_id":"levelo_inurba_marseille","lat":43.30532,"lon":5.38411,"is_reserved":false,"is_disabled":false,"rental_uris":{"android":"levelo://app?vid=4ece88df-fa27-48c3-ac9d-002c4cb1e94a","ios":"levelo://app?vid=4ece88df-fa27-48c3-ac9d-002c4cb1e94a"},"vehicle_type_id":"4","last_reported":1730377062,"current_range_meters":38000,"station_id":"ce4bgg92rcd13ifvqb30","pricing_plan_id":"cebpf4jnsgd1na2vs0mg"},{"bike_id":"f64c1e7d-3ae9-4dfc-8ec2-0a90d036364f","system_id":"levelo_inurba_marseille","lat":43.32113,"lon":5.36771,"is_reserved":false,"is_disabled":false,"rental_uris":{"android":"levelo://app?vid=f64c1e7d-3ae9-4dfc-8ec2-0a90d036364f","ios":"levelo://app?vid=f64c1e7d-3ae9-4dfc-8ec2-0a90d036364f"},"vehicle_type_id":"4","last_reported":1730377062,"current_range_meters":22000,"station_id":"ce4bhrh2rcd13ifvqhug","pricing_plan_id":"cebpf4jnsgd1na2vs0mg"},{"bike_id":"430e42e9-a2a1-4992-b65b-60bd33570fc5","system_id":"levelo_inurba_marseille","lat":43.33023,"lon":5.39035,"is_reserved":false,"is_disabled":false,"rental_uris":{"android":"levelo://app?vid=430e42e9-a2a1-4992-b65b-60bd33570fc5","ios":"levelo://app?vid=430e42e9-a2a1-4992-b65b-60bd33570fc5"},"vehicle_type_id":"4","last_reported":1730377062,"current_range_meters":38800,"station_id":"ce4bhr92rcd13ifvqhrg","pricing_plan_id":"cebpf4jnsgd1na2vs0mg"},{"bike_id":"1da3c1fd-2b32-49bc-ad33-bdb5b848b9cd","system_id":"levelo_inurba_marseille","lat":43.30779,"lon":5.37638,"is_reserved":false,"is_disabled":false,"rental_uris":{"android":"levelo://app?vid=1da3c1fd-2b32-49bc-ad33-bdb5b848b9cd","ios":"levelo://app?vid=1da3c1fd-2b32-49bc-ad33-bdb5b848b9cd"},"vehicle_type_id":"4","last_reported":1730377062,"current_range_meters":38000,"station_id":"ce4bgv92rcd13ifvqcq0","pricing_plan_id":"cebpf4jnsgd1na2vs0mg"},{"bike_id":"ca2f059d-7816-418e-8ea8-e4f148bc3c85","system_id":"levelo_inurba_marseille","lat":43.29517,"lon":5.37492,"is_reserved":false,"is_disabled":false,"rental_uris":{"android":"levelo://app?vid=ca2f059d-7816-418e-8ea8-e4f148bc3c85","ios":"levelo://app?vid=ca2f059d-7816-418e-8ea8-e4f148bc3c85"},"vehicle_type_id":"4","last_reported":1730377062,"current_range_meters":38800,"station_id":"ce4bgkp2rcd13ifvqbmg","pricing_plan_id":"cebpf4jnsgd1na2vs0mg"},{"bike_id":"d94a48c1-e12b-415d-91e5-3f77bed358cf","system_id":"levelo_inurba_marseille","lat":43.29017,"lon":5.38132,"is_reserved":false,"is_disabled":false,"rental_uris":{"android":"levelo://app?vid=d94a48c1-e12b-415d-91e5-3f77bed358cf","ios":"levelo://app?vid=d94a48c1-e12b-415d-91e5-3f77bed358cf"},"vehicle_type_id":"4","last_reported":1730377062,"current_range_meters":38800,"station_id":"ce4bh4p2rcd13ifvqe1g","pricing_plan_id":"cebpf4jnsgd1na2vs0mg"},{"bike_id":"bceb470c-5961-46ca-8bf8-39aceec2ee89","system_id":"levelo_inurba_marseille","lat":43.30535,"lon":5.36525,"is_reserved":false,"is_disabled":false,"rental_uris":{"android":"levelo://app?vid=bceb470c-5961-46ca-8bf8-39aceec2ee89","ios":"levelo://app?vid=bceb470c-5961-46ca-8bf8-39aceec2ee89"},"vehicle_type_id":"4","last_reported":1730377062,"current_range_meters":32800,"station_id":"ce4bgs12rcd13ifvqcag","pricing_plan_id":"cebpf4jnsgd1na2vs0mg"},{"bike_id":"f71a5ba4-e67e-43fd-b292-3cc9932b43e0","system_id":"levelo_inurba_marseille","lat":43.292786,"lon":5.384426,"is_reserved":false,"is_disabled":false,"rental_uris":{"android":"levelo://app?vid=f71a5ba4-e67e-43fd-b292-3cc9932b43e0","ios":"levelo://app?vid=f71a5ba4-e67e-43fd-b292-3cc9932b43e0"},"vehicle_type_id":"4","last_reported":1730377062,"current_range_meters":28800,"station_id":"ce4bh692rcd13ifvqea0","pricing_plan_id":"cebpf4jnsgd1na2vs0mg"},{"bike_id":"283ea353-b61e-4569-97a6-d593e413bd0c","system_id":"levelo_inurba_marseille","lat":43.24389,"lon":5.37062,"is_reserved":false,"is_disabled":false,"rental_uris":{"android":"levelo://app?vid=283ea353-b61e-4569-97a6-d593e413bd0c","ios":"levelo://app?vid=283ea353-b61e-4569-97a6-d593e413bd0c"},"vehicle_type_id":"4","last_reported":1730377062,"current_range_meters":36400,"station_id":"ce4bhhh2rcd13ifvqfk0","pricing_plan_id":"cebpf4jnsgd1na2vs0mg"},{"bike_id":"a4627486-a087-47d1-bdea-e9476cd49986","system_id":"levelo_inurba_marseille","lat":43.23184,"lon":5.35547,"is_reserved":false,"is_disabled":false,"rental_uris":{"android":"levelo://app?vid=a4627486-a087-47d1-bdea-e9476cd49986","ios":"levelo://app?vid=a4627486-a087-47d1-bdea-e9476cd49986"},"vehicle_type_id":"4","last_reported":1730377062,"current_range_meters":4800,"station_id":"ce4bhu92rcd13ifvqi70","pricing_plan_id":"cebpf4jnsgd1na2vs0mg"},{"bike_id":"a4913636-2ab4-4f65-b3b2-827376776b2c","system_id":"levelo_inurba_marseille","lat":43.22931,"lon":5.35372,"is_reserved":false,"is_disabled":false,"rental_uris":{"android":"levelo://app?vid=a4913636-2ab4-4f65-b3b2-827376776b2c","ios":"levelo://app?vid=a4913636-2ab4-4f65-b3b2-827376776b2c"},"vehicle_type_id":"4","last_reported":1730377062,"current_range_meters":14400,"station_id":"cpo3532slgdg3j2ikp40","pricing_plan_id":"cebpf4jnsgd1na2vs0mg"},{"bike_id":"b5beb8be-724a-4713-95e9-911c76389d06","system_id":"levelo_inurba_marseille","lat":43.30148,"lon":5.38079,"is_reserved":false,"is_disabled":false,"rental_uris":{"android":"levelo://app?vid=b5beb8be-724a-4713-95e9-911c76389d06","ios":"levelo://app?vid=b5beb8be-724a-4713-95e9-911c76389d06"},"vehicle_type_id":"4","last_reported":1730377062,"current_range_meters":36000,"station_id":"ce4bgjp2rcd13ifvqbh0","pricing_plan_id":"cebpf4jnsgd1na2vs0mg"},{"bike_id":"e35a8ca0-a448-45a9-9f0c-b3ec619fcd4b","system_id":"levelo_inurba_marseille","lat":43.305299,"lon":5.365441,"is_reserved":false,"is_disabled":false,"rental_uris":{"android":"levelo://app?vid=e35a8ca0-a448-45a9-9f0c-b3ec619fcd4b","ios":"levelo://app?vid=e35a8ca0-a448-45a9-9f0c-b3ec619fcd4b"},"vehicle_type_id":"4","last_reported":1730377062,"current_range_meters":39200,"station_id":"ce4bgs12rcd13ifvqcag","pricing_plan_id":"cebpf4jnsgd1na2vs0mg"},{"bike_id":"2d43e24b-5589-4f24-a8a3-3f756ff9d237","system_id":"levelo_inurba_marseille","lat":43.30786,"lon":5.37647,"is_reserved":false,"is_disabled":false,"rental_uris":{"android":"levelo://app?vid=2d43e24b-5589-4f24-a8a3-3f756ff9d237","ios":"levelo://app?vid=2d43e24b-5589-4f24-a8a3-3f756ff9d237"},"vehicle_type_id":"4","last_reported":1730377062,"current_range_meters":27600,"station_id":"ce4bgv92rcd13ifvqcq0","pricing_plan_id":"cebpf4jnsgd1na2vs0mg"},{"bike_id":"4075e605-7e2d-4335-883e-4292dc011012","system_id":"levelo_inurba_marseille","lat":43.23962,"lon":5.36629,"is_reserved":false,"is_disabled":false,"rental_uris":{"android":"levelo://app?vid=4075e605-7e2d-4335-883e-4292dc011012","ios":"levelo://app?vid=4075e605-7e2d-4335-883e-4292dc011012"},"vehicle_type_id":"4","last_reported":1730377062,"current_range_meters":6000,"station_id":"ce4bhi12rcd13ifvqfp0","pricing_plan_id":"cebpf4jnsgd1na2vs0mg"},{"bike_id":"604871c7-01b3-4e91-ad66-3472f5cb2bd9","system_id":"levelo_inurba_marseille","lat":43.24166,"lon":5.36395,"is_reserved":false,"is_disabled":false,"rental_uris":{"android":"levelo://app?vid=604871c7-01b3-4e91-ad66-3472f5cb2bd9","ios":"levelo://app?vid=604871c7-01b3-4e91-ad66-3472f5cb2bd9"},"vehicle_type_id":"4","last_reported":1730377062,"current_range_meters":32800,"station_id":"cpo36qri1sfpv3e86is0","pricing_plan_id":"cebpf4jnsgd1na2vs0mg"},{"bike_id":"66f87c05-90dc-43a7-acd2-2870fbee0cc8","system_id":"levelo_inurba_marseille","lat":43.23151,"lon":5.43715,"is_reserved":false,"is_disabled":false,"rental_uris":{"android":"levelo://app?vid=66f87c05-90dc-43a7-acd2-2870fbee0cc8","ios":"levelo://app?vid=66f87c05-90dc-43a7-acd2-2870fbee0cc8"},"vehicle_type_id":"4","last_reported":1730377062,"current_range_meters":38000,"station_id":"ce4bhmp2rcd13ifvqgog","pricing_plan_id":"cebpf4jnsgd1na2vs0mg"},{"bike_id":"9bc67595-6fe8-4e90-8255-08f5025ab439","system_id":"levelo_inurba_marseille","lat":43.29917,"lon":5.3746,"is_reserved":false,"is_disabled":false,"rental_uris":{"android":"levelo://app?vid=9bc67595-6fe8-4e90-8255-08f5025ab439","ios":"levelo://app?vid=9bc67595-6fe8-4e90-8255-08f5025ab439"},"vehicle_type_id":"4","last_reported":1730377062,"current_range_meters":19600,"station_id":"ce4bgjh2rcd13ifvqbg0","pricing_plan_id":"cebpf4jnsgd1na2vs0mg"},{"bike_id":"80e40088-4002-4882-81ef-c613e2b5a713","system_id":"levelo_inurba_marseille","lat":43.28351,"lon":5.38106,"is_reserved":false,"is_disabled":false,"rental_uris":{"android":"levelo://app?vid=80e40088-4002-4882-81ef-c613e2b5a713","ios":"levelo://app?vid=80e40088-4002-4882-81ef-c613e2b5a713"},"vehicle_type_id":"4","last_reported":1730377062,"current_range_meters":8800,"station_id":"ce4bh412rcd13ifvqdr0","pricing_plan_id":"cebpf4jnsgd1na2vs0mg"},{"bike_id":"21c7488d-d333-41b4-bf03-359ccf1661a4","system_id":"levelo_inurba_marseille","lat":43.28842,"lon":5.39299,"is_reserved":false,"is_disabled":false,"rental_uris":{"android":"levelo://app?vid=21c7488d-d333-41b4-bf03-359ccf1661a4","ios":"levelo://app?vid=21c7488d-d333-41b4-bf03-359ccf1661a4"},"vehicle_type_id":"4","last_reported":1730377062,"current_range_meters":39200,"station_id":"ce4bh2p2rcd13ifvqdi0","pricing_plan_id":"cebpf4jnsgd1na2vs0mg"},{"bike_id":"6e68dc19-dedc-495b-9422-66bbfa8cbb0a","system_id":"levelo_inurba_marseille","lat":43.24384,"lon":5.37051,"is_reserved":false,"is_disabled":false,"rental_uris":{"android":"levelo://app?vid=6e68dc19-dedc-495b-9422-66bbfa8cbb0a","ios":"levelo://app?vid=6e68dc19-dedc-495b-9422-66bbfa8cbb0a"},"vehicle_type_id":"4","last_reported":1730377062,"current_range_meters":35600,"station_id":"ce4bhhh2rcd13ifvqfk0","pricing_plan_id":"cebpf4jnsgd1na2vs0mg"},{"bike_id":"b0af10f8-d31c-4326-9cc3-6b1f5d04533f","system_id":"levelo_inurba_marseille","lat":43.26675,"lon":5.38262,"is_reserved":false,"is_disabled":false,"rental_uris":{"android":"levelo://app?vid=b0af10f8-d31c-4326-9cc3-6b1f5d04533f","ios":"levelo://app?vid=b0af10f8-d31c-4326-9cc3-6b1f5d04533f"},"vehicle_type_id":"4","last_reported":1730377062,"current_range_meters":16400,"station_id":"ce4bhg92rcd13ifvqf90","pricing_plan_id":"cebpf4jnsgd1na2vs0mg"},{"bike_id":"df550710-0048-4c9a-a5e1-9510c00a3872","system_id":"levelo_inurba_marseille","lat":43.30599,"lon":5.37243,"is_reserved":false,"is_disabled":false,"rental_uris":{"android":"levelo://app?vid=df550710-0048-4c9a-a5e1-9510c00a3872","ios":"levelo://app?vid=df550710-0048-4c9a-a5e1-9510c00a3872"},"vehicle_type_id":"4","last_reported":1730377062,"current_range_meters":38800,"station_id":"","pricing_plan_id":"cebpf4jnsgd1na2vs0mg"},{"bike_id":"a02a875a-957d-4872-9128-1c85ce1a7e72","system_id":"levelo_inurba_marseille","lat":43.2808,"lon":5.39667,"is_reserved":false,"is_disabled":false,"rental_uris":{"android":"levelo://app?vid=a02a875a-957d-4872-9128-1c85ce1a7e72","ios":"levelo://app?vid=a02a875a-957d-4872-9128-1c85ce1a7e72"},"vehicle_type_id":"4","last_reported":1730377062,"current_range_meters":28400,"station_id":"ce4bho12rcd13ifvqh2g","pricing_plan_id":"cebpf4jnsgd1na2vs0mg"},{"bike_id":"8b049b91-cb4b-4f38-bffb-00ce29c795e2","system_id":"levelo_inurba_marseille","lat":43.27939,"lon":5.41046,"is_reserved":false,"is_disabled":false,"rental_uris":{"android":"levelo://app?vid=8b049b91-cb4b-4f38-bffb-00ce29c795e2","ios":"levelo://app?vid=8b049b91-cb4b-4f38-bffb-00ce29c795e2"},"vehicle_type_id":"4","last_reported":1730377062,"current_range_meters":35600,"station_id":"ce4bhnp2rcd13ifvqh0g","pricing_plan_id":"cebpf4jnsgd1na2vs0mg"},{"bike_id":"327a54a1-6731-42d1-84d8-1ec906b0ebe8","system_id":"levelo_inurba_marseille","lat":43.25936,"lon":5.40907,"is_reserved":false,"is_disabled":false,"rental_uris":{"android":"levelo://app?vid=327a54a1-6731-42d1-84d8-1ec906b0ebe8","ios":"levelo://app?vid=327a54a1-6731-42d1-84d8-1ec906b0ebe8"},"vehicle_type_id":"4","last_reported":1730377062,"current_range_meters":26000,"station_id":"ce4bhm92rcd13ifvqglg","pricing_plan_id":"cebpf4jnsgd1na2vs0mg"},{"bike_id":"554e5800-d5d5-4bb4-9caf-2a655725a9ff","system_id":"levelo_inurba_marseille","lat":43.28268,"lon":5.35059,"is_reserved":false,"is_disabled":false,"rental_uris":{"android":"levelo://app?vid=554e5800-d5d5-4bb4-9caf-2a655725a9ff","ios":"levelo://app?vid=554e5800-d5d5-4bb4-9caf-2a655725a9ff"},"vehicle_type_id":"4","last_reported":1730377062,"current_range_meters":2800,"station_id":"ce4bhbp2rcd13ifvqerg","pricing_plan_id":"cebpf4jnsgd1na2vs0mg"},{"bike_id":"516078c7-5dda-49bb-babc-50d50be44140","system_id":"levelo_inurba_marseille","lat":43.27601,"lon":5.361,"is_reserved":false,"is_disabled":false,"rental_uris":{"android":"levelo://app?vid=516078c7-5dda-49bb-babc-50d50be44140","ios":"levelo://app?vid=516078c7-5dda-49bb-babc-50d50be44140"},"vehicle_type_id":"4","last_reported":1730377062,"current_range_meters":36400,"station_id":"ce4bgj92rcd13ifvqbe0","pricing_plan_id":"cebpf4jnsgd1na2vs0mg"},{"bike_id":"02bc29e1-9976-44ef-bcb8-2f90d43f13d4","system_id":"levelo_inurba_marseille","lat":43.29007,"lon":5.35611,"is_reserved":false,"is_disabled":false,"rental_uris":{"android":"levelo://app?vid=02bc29e1-9976-44ef-bcb8-2f90d43f13d4","ios":"levelo://app?vid=02bc29e1-9976-44ef-bcb8-2f90d43f13d4"},"vehicle_type_id":"4","last_reported":1730377062,"current_range_meters":33200,"station_id":"ce4bhb92rcd13ifvqen0","pricing_plan_id":"cebpf4jnsgd1na2vs0mg"},{"bike_id":"62d8ddd4-a047-4a4f-882e-002543bb8851","system_id":"levelo_inurba_marseille","lat":43.24383,"lon":5.37059,"is_reserved":false,"is_disabled":false,"rental_uris":{"android":"levelo://app?vid=62d8ddd4-a047-4a4f-882e-002543bb8851","ios":"levelo://app?vid=62d8ddd4-a047-4a4f-882e-002543bb8851"},"vehicle_type_id":"4","last_reported":1730377062,"current_range_meters":26800,"station_id":"ce4bhhh2rcd13ifvqfk0","pricing_plan_id":"cebpf4jnsgd1na2vs0mg"},{"bike_id":"7ab2f1bd-7151-4559-9622-b212f0480b3f","system_id":"levelo_inurba_marseille","lat":43.25726,"lon":5.41105,"is_reserved":false,"is_disabled":false,"rental_uris":{"android":"levelo://app?vid=7ab2f1bd-7151-4559-9622-b212f0480b3f","ios":"levelo://app?vid=7ab2f1bd-7151-4559-9622-b212f0480b3f"},"vehicle_type_id":"4","last_reported":1730377062,"current_range_meters":29600,"station_id":"ce4bhkp2rcd13ifvqgd0","pricing_plan_id":"cebpf4jnsgd1na2vs0mg"},{"bike_id":"ac2eccd0-69ff-4ddb-ac24-7558056fa7be","system_id":"levelo_inurba_marseille","lat":43.24166,"lon":5.36397,"is_reserved":false,"is_disabled":false,"rental_uris":{"android":"levelo://app?vid=ac2eccd0-69ff-4ddb-ac24-7558056fa7be","ios":"levelo://app?vid=ac2eccd0-69ff-4ddb-ac24-7558056fa7be"},"vehicle_type_id":"4","last_reported":1730377062,"current_range_meters":22800,"station_id":"cpo36qri1sfpv3e86is0","pricing_plan_id":"cebpf4jnsgd1na2vs0mg"},{"bike_id":"1dae8687-4a7a-4d89-89ca-f36f42262f11","system_id":"levelo_inurba_marseille","lat":43.32043,"lon":5.41549,"is_reserved":false,"is_disabled":false,"rental_uris":{"android":"levelo://app?vid=1dae8687-4a7a-4d89-89ca-f36f42262f11","ios":"levelo://app?vid=1dae8687-4a7a-4d89-89ca-f36f42262f11"},"vehicle_type_id":"4","last_reported":1730377062,"current_range_meters":38800,"station_id":"ce4bhq92rcd13ifvqhkg","pricing_plan_id":"cebpf4jnsgd1na2vs0mg"},{"bike_id":"42e61598-64ce-4f84-97eb-90c09ebd9abe","system_id":"levelo_inurba_marseille","lat":43.23183,"lon":5.39984,"is_reserved":false,"is_disabled":false,"rental_uris":{"android":"levelo://app?vid=42e61598-64ce-4f84-97eb-90c09ebd9abe","ios":"levelo://app?vid=42e61598-64ce-4f84-97eb-90c09ebd9abe"},"vehicle_type_id":"4","last_reported":1730377062,"current_range_meters":10000,"station_id":"ce4bhn12rcd13ifvqgqg","pricing_plan_id":"cebpf4jnsgd1na2vs0mg"},{"bike_id":"3b66f217-2aba-4fc1-8dcb-0a9f05051932","system_id":"levelo_inurba_marseille","lat":43.29974,"lon":5.38491,"is_reserved":false,"is_disabled":false,"rental_uris":{"android":"levelo://app?vid=3b66f217-2aba-4fc1-8dcb-0a9f05051932","ios":"levelo://app?vid=3b66f217-2aba-4fc1-8dcb-0a9f05051932"},"vehicle_type_id":"4","last_reported":1730377062,"current_range_meters":24000,"station_id":"ce4bgj92rcd13ifvqbd0","pricing_plan_id":"cebpf4jnsgd1na2vs0mg"},{"bike_id":"750f63de-4a1f-4a52-aacb-cf0c010fdd50","system_id":"levelo_inurba_marseille","lat":43.2927,"lon":5.36841,"is_reserved":false,"is_disabled":false,"rental_uris":{"android":"levelo://app?vid=750f63de-4a1f-4a52-aacb-cf0c010fdd50","ios":"levelo://app?vid=750f63de-4a1f-4a52-aacb-cf0c010fdd50"},"vehicle_type_id":"4","last_reported":1730377062,"current_range_meters":20400,"station_id":"ce4bhbp2rcd13ifvqesg","pricing_plan_id":"cebpf4jnsgd1na2vs0mg"},{"bike_id":"1c4e67d3-8dc1-4cf1-9d78-1e1b2f3da3ee","system_id":"levelo_inurba_marseille","lat":43.30938,"lon":5.40145,"is_reserved":false,"is_disabled":false,"rental_uris":{"android":"levelo://app?vid=1c4e67d3-8dc1-4cf1-9d78-1e1b2f3da3ee","ios":"levelo://app?vid=1c4e67d3-8dc1-4cf1-9d78-1e1b2f3da3ee"},"vehicle_type_id":"4","last_reported":1730377062,"current_range_meters":2800,"station_id":"ce4bgvp2rcd13ifvqct0","pricing_plan_id":"cebpf4jnsgd1na2vs0mg"},{"bike_id":"c573c73f-75e4-475a-bcd6-666ce297695e","system_id":"levelo_inurba_marseille","lat":43.23174,"lon":5.39978,"is_reserved":false,"is_disabled":false,"rental_uris":{"android":"levelo://app?vid=c573c73f-75e4-475a-bcd6-666ce297695e","ios":"levelo://app?vid=c573c73f-75e4-475a-bcd6-666ce297695e"},"vehicle_type_id":"4","last_reported":1730377062,"current_range_meters":26000,"station_id":"ce4bhn12rcd13ifvqgqg","pricing_plan_id":"cebpf4jnsgd1na2vs0mg"},{"bike_id":"a65b7600-bc14-4cb1-bd98-91e0257743b9","system_id":"levelo_inurba_marseille","lat":43.24071,"lon":5.37753,"is_reserved":false,"is_disabled":false,"rental_uris":{"android":"levelo://app?vid=a65b7600-bc14-4cb1-bd98-91e0257743b9","ios":"levelo://app?vid=a65b7600-bc14-4cb1-bd98-91e0257743b9"},"vehicle_type_id":"4","last_reported":1730377062,"current_range_meters":6400,"station_id":"ce4bhnp2rcd13ifvqgvg","pricing_plan_id":"cebpf4jnsgd1na2vs0mg"},{"bike_id":"6dbf7563-9d99-4206-bda1-5710ec3459e4","system_id":"levelo_inurba_marseille","lat":43.27985,"lon":5.41652,"is_reserved":false,"is_disabled":false,"rental_uris":{"android":"levelo://app?vid=6dbf7563-9d99-4206-bda1-5710ec3459e4","ios":"levelo://app?vid=6dbf7563-9d99-4206-bda1-5710ec3459e4"},"vehicle_type_id":"4","last_reported":1730377062,"current_range_meters":27600,"station_id":"ce4bho12rcd13ifvqh1g","pricing_plan_id":"cebpf4jnsgd1na2vs0mg"},{"bike_id":"b03dfabb-7f3f-4176-96ea-4ddf0a08b1e0","system_id":"levelo_inurba_marseille","lat":43.28414,"lon":5.34984,"is_reserved":false,"is_disabled":false,"rental_uris":{"android":"levelo://app?vid=b03dfabb-7f3f-4176-96ea-4ddf0a08b1e0","ios":"levelo://app?vid=b03dfabb-7f3f-4176-96ea-4ddf0a08b1e0"},"vehicle_type_id":"4","last_reported":1730377062,"current_range_meters":38800,"station_id":"ce4bhbh2rcd13ifvqepg","pricing_plan_id":"cebpf4jnsgd1na2vs0mg"},{"bike_id":"1549777b-33eb-4a32-9567-d6c31d0710f5","system_id":"levelo_inurba_marseille","lat":43.32477,"lon":5.36562,"is_reserved":false,"is_disabled":false,"rental_uris":{"android":"levelo://app?vid=1549777b-33eb-4a32-9567-d6c31d0710f5","ios":"levelo://app?vid=1549777b-33eb-4a32-9567-d6c31d0710f5"},"vehicle_type_id":"4","last_reported":1730377062,"current_range_meters":36400,"station_id":"ce4bhs12rcd13ifvqhvg","pricing_plan_id":"cebpf4jnsgd1na2vs0mg"},{"bike_id":"60b71c7c-4918-47ba-8287-329d23746782","system_id":"levelo_inurba_marseille","lat":43.29897,"lon":5.43665,"is_reserved":false,"is_disabled":false,"rental_uris":{"android":"levelo://app?vid=60b71c7c-4918-47ba-8287-329d23746782","ios":"levelo://app?vid=60b71c7c-4918-47ba-8287-329d23746782"},"vehicle_type_id":"4","last_reported":1730377062,"current_range_meters":38000,"station_id":"ce4bhpp2rcd13ifvqhfg","pricing_plan_id":"cebpf4jnsgd1na2vs0mg"},{"bike_id":"69b6d9a0-2d6e-4f1e-9bfe-50a3a9c501ed","system_id":"levelo_inurba_marseille","lat":43.30152,"lon":5.38083,"is_reserved":false,"is_disabled":false,"rental_uris":{"android":"levelo://app?vid=69b6d9a0-2d6e-4f1e-9bfe-50a3a9c501ed","ios":"levelo://app?vid=69b6d9a0-2d6e-4f1e-9bfe-50a3a9c501ed"},"vehicle_type_id":"4","last_reported":1730377062,"current_range_meters":14000,"station_id":"ce4bgjp2rcd13ifvqbh0","pricing_plan_id":"cebpf4jnsgd1na2vs0mg"},{"bike_id":"7402b7e8-b1f4-4735-bca8-18b131717534","system_id":"levelo_inurba_marseille","lat":43.24388,"lon":5.3705,"is_reserved":false,"is_disabled":false,"rental_uris":{"android":"levelo://app?vid=7402b7e8-b1f4-4735-bca8-18b131717534","ios":"levelo://app?vid=7402b7e8-b1f4-4735-bca8-18b131717534"},"vehicle_type_id":"4","last_reported":1730377062,"current_range_meters":38800,"station_id":"ce4bhhh2rcd13ifvqfk0","pricing_plan_id":"cebpf4jnsgd1na2vs0mg"},{"bike_id":"546030c5-9942-4ee1-9987-77a5127f7fbe","system_id":"levelo_inurba_marseille","lat":43.3015,"lon":5.38084,"is_reserved":false,"is_disabled":false,"rental_uris":{"android":"levelo://app?vid=546030c5-9942-4ee1-9987-77a5127f7fbe","ios":"levelo://app?vid=546030c5-9942-4ee1-9987-77a5127f7fbe"},"vehicle_type_id":"4","last_reported":1730377062,"current_range_meters":34800,"station_id":"ce4bgjp2rcd13ifvqbh0","pricing_plan_id":"cebpf4jnsgd1na2vs0mg"},{"bike_id":"4be02d03-f1bc-4a44-9cdb-8e7690b29b60","system_id":"levelo_inurba_marseille","lat":43.28851,"lon":5.35851,"is_reserved":false,"is_disabled":false,"rental_uris":{"android":"levelo://app?vid=4be02d03-f1bc-4a44-9cdb-8e7690b29b60","ios":"levelo://app?vid=4be02d03-f1bc-4a44-9cdb-8e7690b29b60"},"vehicle_type_id":"4","last_reported":1730377062,"current_range_meters":38400,"station_id":"ce4bhb12rcd13ifvqem0","pricing_plan_id":"cebpf4jnsgd1na2vs0mg"},{"bike_id":"a0311dfe-c20c-4fe4-ba37-89e355a14207","system_id":"levelo_inurba_marseille","lat":43.24803,"lon":5.37455,"is_reserved":false,"is_disabled":false,"rental_uris":{"android":"levelo://app?vid=a0311dfe-c20c-4fe4-ba37-89e355a14207","ios":"levelo://app?vid=a0311dfe-c20c-4fe4-ba37-89e355a14207"},"vehicle_type_id":"4","last_reported":1730377062,"current_range_meters":24000,"station_id":"ce4bhgh2rcd13ifvqfb0","pricing_plan_id":"cebpf4jnsgd1na2vs0mg"},{"bike_id":"fe7028c0-e3e0-4f37-a452-229a6ce3d441","system_id":"levelo_inurba_marseille","lat":43.29713,"lon":5.37696,"is_reserved":false,"is_disabled":false,"rental_uris":{"android":"levelo://app?vid=fe7028c0-e3e0-4f37-a452-229a6ce3d441","ios":"levelo://app?vid=fe7028c0-e3e0-4f37-a452-229a6ce3d441"},"vehicle_type_id":"4","last_reported":1730377062,"current_range_meters":24800,"station_id":"ce4bgkh2rcd13ifvqbl0","pricing_plan_id":"cebpf4jnsgd1na2vs0mg"},{"bike_id":"7d1fe817-f784-45b3-a7f6-2e79abcfa29c","system_id":"levelo_inurba_marseille","lat":43.3375,"lon":5.37466,"is_reserved":false,"is_disabled":false,"rental_uris":{"android":"levelo://app?vid=7d1fe817-f784-45b3-a7f6-2e79abcfa29c","ios":"levelo://app?vid=7d1fe817-f784-45b3-a7f6-2e79abcfa29c"},"vehicle_type_id":"4","last_reported":1730377062,"current_range_meters":36800,"station_id":"","pricing_plan_id":"cebpf4jnsgd1na2vs0mg"},{"bike_id":"e097a33c-2c22-46ab-8ca7-78ef23f95842","system_id":"levelo_inurba_marseille","lat":43.31354,"lon":5.36715,"is_reserved":false,"is_disabled":false,"rental_uris":{"android":"levelo://app?vid=e097a33c-2c22-46ab-8ca7-78ef23f95842","ios":"levelo://app?vid=e097a33c-2c22-46ab-8ca7-78ef23f95842"},"vehicle_type_id":"4","last_reported":1730377062,"current_range_meters":34000,"station_id":"ce4bgr92rcd13ifvqc6g","pricing_plan_id":"cebpf4jnsgd1na2vs0mg"},{"bike_id":"eaf482ed-e829-418a-a70a-ea23becaae92","system_id":"levelo_inurba_marseille","lat":43.30982,"lon":5.37925,"is_reserved":false,"is_disabled":false,"rental_uris":{"android":"levelo://app?vid=eaf482ed-e829-418a-a70a-ea23becaae92","ios":"levelo://app?vid=eaf482ed-e829-418a-a70a-ea23becaae92"},"vehicle_type_id":"4","last_reported":1730377062,"current_range_meters":22800,"station_id":"ce4bhph2rcd13ifvqhdg","pricing_plan_id":"cebpf4jnsgd1na2vs0mg"},{"bike_id":"a9abe68c-4f95-4a95-8955-3ff271616b9e","system_id":"levelo_inurba_marseille","lat":43.28487,"lon":5.38572,"is_reserved":false,"is_disabled":false,"rental_uris":{"android":"levelo://app?vid=a9abe68c-4f95-4a95-8955-3ff271616b9e","ios":"levelo://app?vid=a9abe68c-4f95-4a95-8955-3ff271616b9e"},"vehicle_type_id":"4","last_reported":1730377062,"current_range_meters":20400,"station_id":"ce4bh8p2rcd13ifvqeb0","pricing_plan_id":"cebpf4jnsgd1na2vs0mg"},{"bike_id":"2dc061dd-1a02-4a58-a505-7bb502a772aa","system_id":"levelo_inurba_marseille","lat":43.28977,"lon":5.37828,"is_reserved":false,"is_disabled":false,"rental_uris":{"android":"levelo://app?vid=2dc061dd-1a02-4a58-a505-7bb502a772aa","ios":"levelo://app?vid=2dc061dd-1a02-4a58-a505-7bb502a772aa"},"vehicle_type_id":"4","last_reported":1730377062,"current_range_meters":36400,"station_id":"ce4bh9p2rcd13ifvqed0","pricing_plan_id":"cebpf4jnsgd1na2vs0mg"},{"bike_id":"e08c425f-c15d-48f0-838e-4fbf5667cbc4","system_id":"levelo_inurba_marseille","lat":43.28573,"lon":5.39501,"is_reserved":false,"is_disabled":false,"rental_uris":{"android":"levelo://app?vid=e08c425f-c15d-48f0-838e-4fbf5667cbc4","ios":"levelo://app?vid=e08c425f-c15d-48f0-838e-4fbf5667cbc4"},"vehicle_type_id":"4","last_reported":1730377062,"current_range_meters":37600,"station_id":"ce4bh292rcd13ifvqdg0","pricing_plan_id":"cebpf4jnsgd1na2vs0mg"},{"bike_id":"bf31eb26-f0cb-44b9-bac6-b4e132df5dc7","system_id":"levelo_inurba_marseille","lat":43.28154,"lon":5.42641,"is_reserved":false,"is_disabled":false,"rental_uris":{"android":"levelo://app?vid=bf31eb26-f0cb-44b9-bac6-b4e132df5dc7","ios":"levelo://app?vid=bf31eb26-f0cb-44b9-bac6-b4e132df5dc7"},"vehicle_type_id":"4","last_reported":1730377062,"current_range_meters":28400,"station_id":"ce4bhnh2rcd13ifvqgug","pricing_plan_id":"cebpf4jnsgd1na2vs0mg"},{"bike_id":"928df12b-3c42-43c0-a192-c978a83a3b67","system_id":"levelo_inurba_marseille","lat":43.29295,"lon":5.37468,"is_reserved":false,"is_disabled":false,"rental_uris":{"android":"levelo://app?vid=928df12b-3c42-43c0-a192-c978a83a3b67","ios":"levelo://app?vid=928df12b-3c42-43c0-a192-c978a83a3b67"},"vehicle_type_id":"4","last_reported":1730377062,"current_range_meters":10000,"station_id":"ce4bgi12rcd13ifvqb70","pricing_plan_id":"cebpf4jnsgd1na2vs0mg"},{"bike_id":"0b31dade-de3a-4567-8ab0-4ad0b5c72848","system_id":"levelo_inurba_marseille","lat":43.29622,"lon":5.37177,"is_reserved":false,"is_disabled":false,"rental_uris":{"android":"levelo://app?vid=0b31dade-de3a-4567-8ab0-4ad0b5c72848","ios":"levelo://app?vid=0b31dade-de3a-4567-8ab0-4ad0b5c72848"},"vehicle_type_id":"4","last_reported":1730377062,"current_range_meters":32000,"station_id":"ce4bgnh2rcd13ifvqc0g","pricing_plan_id":"cebpf4jnsgd1na2vs0mg"},{"bike_id":"f8ce6fef-4c7a-4df0-a357-9bf1554f09aa","system_id":"levelo_inurba_marseille","lat":43.26199,"lon":5.37449,"is_reserved":false,"is_disabled":false,"rental_uris":{"android":"levelo://app?vid=f8ce6fef-4c7a-4df0-a357-9bf1554f09aa","ios":"levelo://app?vid=f8ce6fef-4c7a-4df0-a357-9bf1554f09aa"},"vehicle_type_id":"4","last_reported":1730377062,"current_range_meters":38800,"station_id":"ce4bhgp2rcd13ifvqfc0","pricing_plan_id":"cebpf4jnsgd1na2vs0mg"},{"bike_id":"92adf987-4779-4b78-ad9c-8e29ab9175f3","system_id":"levelo_inurba_marseille","lat":43.2319,"lon":5.35552,"is_reserved":false,"is_disabled":false,"rental_uris":{"android":"levelo://app?vid=92adf987-4779-4b78-ad9c-8e29ab9175f3","ios":"levelo://app?vid=92adf987-4779-4b78-ad9c-8e29ab9175f3"},"vehicle_type_id":"4","last_reported":1730377062,"current_range_meters":8000,"station_id":"ce4bhu92rcd13ifvqi70","pricing_plan_id":"cebpf4jnsgd1na2vs0mg"},{"bike_id":"e042e623-a800-4329-b242-4998ec178318","system_id":"levelo_inurba_marseille","lat":43.31489,"lon":5.37309,"is_reserved":false,"is_disabled":false,"rental_uris":{"android":"levelo://app?vid=e042e623-a800-4329-b242-4998ec178318","ios":"levelo://app?vid=e042e623-a800-4329-b242-4998ec178318"},"vehicle_type_id":"4","last_reported":1730377062,"current_range_meters":24800,"station_id":"ce4bgt12rcd13ifvqcd0","pricing_plan_id":"cebpf4jnsgd1na2vs0mg"},{"bike_id":"0d9e2dc0-7e48-44a4-9d02-16fb20798af5","system_id":"levelo_inurba_marseille","lat":43.23184,"lon":5.39994,"is_reserved":false,"is_disabled":false,"rental_uris":{"android":"levelo://app?vid=0d9e2dc0-7e48-44a4-9d02-16fb20798af5","ios":"levelo://app?vid=0d9e2dc0-7e48-44a4-9d02-16fb20798af5"},"vehicle_type_id":"4","last_reported":1730377062,"current_range_meters":39200,"station_id":"ce4bhn12rcd13ifvqgqg","pricing_plan_id":"cebpf4jnsgd1na2vs0mg"},{"bike_id":"d948e83f-5368-4970-93f4-2ac5e3a7660b","system_id":"levelo_inurba_marseille","lat":43.29782,"lon":5.37095,"is_reserved":false,"is_disabled":false,"rental_uris":{"android":"levelo://app?vid=d948e83f-5368-4970-93f4-2ac5e3a7660b","ios":"levelo://app?vid=d948e83f-5368-4970-93f4-2ac5e3a7660b"},"vehicle_type_id":"4","last_reported":1730377062,"current_range_meters":38400,"station_id":"ce4bgop2rcd13ifvqc1g","pricing_plan_id":"cebpf4jnsgd1na2vs0mg"},{"bike_id":"3adc2781-db86-4c07-b00b-71300ff3750b","system_id":"levelo_inurba_marseille","lat":43.29034,"lon":5.39967,"is_reserved":false,"is_disabled":false,"rental_uris":{"android":"levelo://app?vid=3adc2781-db86-4c07-b00b-71300ff3750b","ios":"levelo://app?vid=3adc2781-db86-4c07-b00b-71300ff3750b"},"vehicle_type_id":"4","last_reported":1730377062,"current_range_meters":36000,"station_id":"ce4bh392rcd13ifvqdm0","pricing_plan_id":"cebpf4jnsgd1na2vs0mg"},{"bike_id":"7dfaf496-2e50-463a-a103-b8570a0c6a9a","system_id":"levelo_inurba_marseille","lat":43.24389,"lon":5.37053,"is_reserved":false,"is_disabled":false,"rental_uris":{"android":"levelo://app?vid=7dfaf496-2e50-463a-a103-b8570a0c6a9a","ios":"levelo://app?vid=7dfaf496-2e50-463a-a103-b8570a0c6a9a"},"vehicle_type_id":"4","last_reported":1730377062,"current_range_meters":39200,"station_id":"ce4bhhh2rcd13ifvqfk0","pricing_plan_id":"cebpf4jnsgd1na2vs0mg"},{"bike_id":"9ef76483-9606-429b-a12f-0f637db791aa","system_id":"levelo_inurba_marseille","lat":43.29522,"lon":5.39045,"is_reserved":false,"is_disabled":false,"rental_uris":{"android":"levelo://app?vid=9ef76483-9606-429b-a12f-0f637db791aa","ios":"levelo://app?vid=9ef76483-9606-429b-a12f-0f637db791aa"},"vehicle_type_id":"4","last_reported":1730377062,"current_range_meters":23200,"station_id":"ce4bh3p2rcd13ifvqdp0","pricing_plan_id":"cebpf4jnsgd1na2vs0mg"},{"bike_id":"d0bb4caf-b61e-4bce-a9a8-d93b9e0b26ff","system_id":"levelo_inurba_marseille","lat":43.29729,"lon":5.37679,"is_reserved":false,"is_disabled":false,"rental_uris":{"android":"levelo://app?vid=d0bb4caf-b61e-4bce-a9a8-d93b9e0b26ff","ios":"levelo://app?vid=d0bb4caf-b61e-4bce-a9a8-d93b9e0b26ff"},"vehicle_type_id":"4","last_reported":1730377062,"current_range_meters":7200,"station_id":"ce4bgkh2rcd13ifvqbl0","pricing_plan_id":"cebpf4jnsgd1na2vs0mg"},{"bike_id":"f7142bb3-bd9c-4c40-a2f7-62db15ec5e83","system_id":"levelo_inurba_marseille","lat":43.24546,"lon":5.39525,"is_reserved":false,"is_disabled":false,"rental_uris":{"android":"levelo://app?vid=f7142bb3-bd9c-4c40-a2f7-62db15ec5e83","ios":"levelo://app?vid=f7142bb3-bd9c-4c40-a2f7-62db15ec5e83"},"vehicle_type_id":"4","last_reported":1730377062,"current_range_meters":22400,"station_id":"ce4bhlp2rcd13ifvqgjg","pricing_plan_id":"cebpf4jnsgd1na2vs0mg"},{"bike_id":"8fd5d636-ed49-4edf-9397-e558ad471740","system_id":"levelo_inurba_marseille","lat":43.27321,"lon":5.39087,"is_reserved":false,"is_disabled":false,"rental_uris":{"android":"levelo://app?vid=8fd5d636-ed49-4edf-9397-e558ad471740","ios":"levelo://app?vid=8fd5d636-ed49-4edf-9397-e558ad471740"},"vehicle_type_id":"4","last_reported":1730377062,"current_range_meters":26000,"station_id":"ce4bhgp2rcd13ifvqfe0","pricing_plan_id":"cebpf4jnsgd1na2vs0mg"},{"bike_id":"d67c2a8c-5175-4ec6-a54b-8e643d3e99bf","system_id":"levelo_inurba_marseille","lat":43.27495,"lon":5.42451,"is_reserved":false,"is_disabled":false,"rental_uris":{"android":"levelo://app?vid=d67c2a8c-5175-4ec6-a54b-8e643d3e99bf","ios":"levelo://app?vid=d67c2a8c-5175-4ec6-a54b-8e643d3e99bf"},"vehicle_type_id":"4","last_reported":1730377062,"current_range_meters":38000,"station_id":"ce4bhn92rcd13ifvqgrg","pricing_plan_id":"cebpf4jnsgd1na2vs0mg"},{"bike_id":"903305da-0676-4faf-9430-6904c985fcb9","system_id":"levelo_inurba_marseille","lat":43.24166,"lon":5.36398,"is_reserved":false,"is_disabled":false,"rental_uris":{"android":"levelo://app?vid=903305da-0676-4faf-9430-6904c985fcb9","ios":"levelo://app?vid=903305da-0676-4faf-9430-6904c985fcb9"},"vehicle_type_id":"4","last_reported":1730377062,"current_range_meters":3600,"station_id":"cpo36qri1sfpv3e86is0","pricing_plan_id":"cebpf4jnsgd1na2vs0mg"},{"bike_id":"6e6d35be-f346-42db-9261-d2fe10800f3b","system_id":"levelo_inurba_marseille","lat":43.29878,"lon":5.38904,"is_reserved":false,"is_disabled":false,"rental_uris":{"android":"levelo://app?vid=6e6d35be-f346-42db-9261-d2fe10800f3b","ios":"levelo://app?vid=6e6d35be-f346-42db-9261-d2fe10800f3b"},"vehicle_type_id":"4","last_reported":1730377062,"current_range_meters":16800,"station_id":"ce4bh392rcd13ifvqdl0","pricing_plan_id":"cebpf4jnsgd1na2vs0mg"},{"bike_id":"749ce341-ebd4-4b1d-b570-39275c41b79b","system_id":"levelo_inurba_marseille","lat":43.28785,"lon":5.39389,"is_reserved":false,"is_disabled":false,"rental_uris":{"android":"levelo://app?vid=749ce341-ebd4-4b1d-b570-39275c41b79b","ios":"levelo://app?vid=749ce341-ebd4-4b1d-b570-39275c41b79b"},"vehicle_type_id":"4","last_reported":1730377062,"current_range_meters":4400,"station_id":"ce4bh692rcd13ifvqea0","pricing_plan_id":"cebpf4jnsgd1na2vs0mg"},{"bike_id":"39e11cc6-f378-4d7f-b57e-a020cc93671b","system_id":"levelo_inurba_marseille","lat":43.2705,"lon":5.40256,"is_reserved":false,"is_disabled":false,"rental_uris":{"android":"levelo://app?vid=39e11cc6-f378-4d7f-b57e-a020cc93671b","ios":"levelo://app?vid=39e11cc6-f378-4d7f-b57e-a020cc93671b"},"vehicle_type_id":"4","last_reported":1730377062,"current_range_meters":6000,"station_id":"ce4bhk92rcd13ifvqgc0","pricing_plan_id":"cebpf4jnsgd1na2vs0mg"},{"bike_id":"ea167c01-6113-4dc8-be0a-0b280cd8055a","system_id":"levelo_inurba_marseille","lat":43.23958,"lon":5.36621,"is_reserved":false,"is_disabled":false,"rental_uris":{"android":"levelo://app?vid=ea167c01-6113-4dc8-be0a-0b280cd8055a","ios":"levelo://app?vid=ea167c01-6113-4dc8-be0a-0b280cd8055a"},"vehicle_type_id":"4","last_reported":1730377062,"current_range_meters":12400,"station_id":"ce4bhi12rcd13ifvqfp0","pricing_plan_id":"cebpf4jnsgd1na2vs0mg"},{"bike_id":"6cbd895d-bda4-442d-a1ed-dcc0ea32c121","system_id":"levelo_inurba_marseille","lat":43.29071,"lon":5.37161,"is_reserved":false,"is_disabled":false,"rental_uris":{"android":"levelo://app?vid=6cbd895d-bda4-442d-a1ed-dcc0ea32c121","ios":"levelo://app?vid=6cbd895d-bda4-442d-a1ed-dcc0ea32c121"},"vehicle_type_id":"4","last_reported":1730377062,"current_range_meters":29600,"station_id":"ce4bh5p2rcd13ifvqe4g","pricing_plan_id":"cebpf4jnsgd1na2vs0mg"},{"bike_id":"4e1856cc-2887-465e-abd5-df099e1e1bd2","system_id":"levelo_inurba_marseille","lat":43.29002,"lon":5.35609,"is_reserved":false,"is_disabled":false,"rental_uris":{"android":"levelo://app?vid=4e1856cc-2887-465e-abd5-df099e1e1bd2","ios":"levelo://app?vid=4e1856cc-2887-465e-abd5-df099e1e1bd2"},"vehicle_type_id":"4","last_reported":1730377062,"current_range_meters":9600,"station_id":"ce4bhb92rcd13ifvqen0","pricing_plan_id":"cebpf4jnsgd1na2vs0mg"},{"bike_id":"b91f736f-7a17-4acb-a69b-61d1c7f60780","system_id":"levelo_inurba_marseille","lat":43.30529,"lon":5.36529,"is_reserved":false,"is_disabled":false,"rental_uris":{"android":"levelo://app?vid=b91f736f-7a17-4acb-a69b-61d1c7f60780","ios":"levelo://app?vid=b91f736f-7a17-4acb-a69b-61d1c7f60780"},"vehicle_type_id":"4","last_reported":1730377062,"current_range_meters":12400,"station_id":"ce4bgs12rcd13ifvqcag","pricing_plan_id":"cebpf4jnsgd1na2vs0mg"},{"bike_id":"c9a49a0a-1d50-453b-833d-4f68ee000596","system_id":"levelo_inurba_marseille","lat":43.26951,"lon":5.38639,"is_reserved":false,"is_disabled":false,"rental_uris":{"android":"levelo://app?vid=c9a49a0a-1d50-453b-833d-4f68ee000596","ios":"levelo://app?vid=c9a49a0a-1d50-453b-833d-4f68ee000596"},"vehicle_type_id":"4","last_reported":1730377062,"current_range_meters":24800,"station_id":"ce4bhh92rcd13ifvqfh0","pricing_plan_id":"cebpf4jnsgd1na2vs0mg"},{"bike_id":"e70d1ff7-57f5-4435-a214-fc85f55f87d1","system_id":"levelo_inurba_marseille","lat":43.30128,"lon":5.38769,"is_reserved":false,"is_disabled":false,"rental_uris":{"android":"levelo://app?vid=e70d1ff7-57f5-4435-a214-fc85f55f87d1","ios":"levelo://app?vid=e70d1ff7-57f5-4435-a214-fc85f55f87d1"},"vehicle_type_id":"4","last_reported":1730377062,"current_range_meters":37600,"station_id":"ce4bghh2rcd13ifvqb60","pricing_plan_id":"cebpf4jnsgd1na2vs0mg"},{"bike_id":"e15a5fec-49c6-44b7-a18b-61375c0b6760","system_id":"levelo_inurba_marseille","lat":43.28342,"lon":5.38109,"is_reserved":false,"is_disabled":false,"rental_uris":{"android":"levelo://app?vid=e15a5fec-49c6-44b7-a18b-61375c0b6760","ios":"levelo://app?vid=e15a5fec-49c6-44b7-a18b-61375c0b6760"},"vehicle_type_id":"4","last_reported":1730377062,"current_range_meters":36800,"station_id":"ce4bh412rcd13ifvqdr0","pricing_plan_id":"cebpf4jnsgd1na2vs0mg"},{"bike_id":"4f808683-e5f7-490f-b911-7d1edf2a1bbb","system_id":"levelo_inurba_marseille","lat":43.28851,"lon":5.3931,"is_reserved":false,"is_disabled":false,"rental_uris":{"android":"levelo://app?vid=4f808683-e5f7-490f-b911-7d1edf2a1bbb","ios":"levelo://app?vid=4f808683-e5f7-490f-b911-7d1edf2a1bbb"},"vehicle_type_id":"4","last_reported":1730377062,"current_range_meters":6400,"station_id":"ce4bh2p2rcd13ifvqdi0","pricing_plan_id":"cebpf4jnsgd1na2vs0mg"},{"bike_id":"6c061b6b-caa3-499f-b51a-448b745caf59","system_id":"levelo_inurba_marseille","lat":43.27904,"lon":5.35328,"is_reserved":false,"is_disabled":false,"rental_uris":{"android":"levelo://app?vid=6c061b6b-caa3-499f-b51a-448b745caf59","ios":"levelo://app?vid=6c061b6b-caa3-499f-b51a-448b745caf59"},"vehicle_type_id":"4","last_reported":1730377062,"current_range_meters":35200,"station_id":"","pricing_plan_id":"cebpf4jnsgd1na2vs0mg"},{"bike_id":"2370a04e-d358-4a29-b67a-890bf50b34fd","system_id":"levelo_inurba_marseille","lat":43.24168,"lon":5.364,"is_reserved":false,"is_disabled":false,"rental_uris":{"android":"levelo://app?vid=2370a04e-d358-4a29-b67a-890bf50b34fd","ios":"levelo://app?vid=2370a04e-d358-4a29-b67a-890bf50b34fd"},"vehicle_type_id":"4","last_reported":1730377062,"current_range_meters":37600,"station_id":"cpo36qri1sfpv3e86is0","pricing_plan_id":"cebpf4jnsgd1na2vs0mg"},{"bike_id":"29f61283-c63b-4d9d-a269-c9f516e858ce","system_id":"levelo_inurba_marseille","lat":43.30544,"lon":5.36532,"is_reserved":false,"is_disabled":false,"rental_uris":{"android":"levelo://app?vid=29f61283-c63b-4d9d-a269-c9f516e858ce","ios":"levelo://app?vid=29f61283-c63b-4d9d-a269-c9f516e858ce"},"vehicle_type_id":"4","last_reported":1730377062,"current_range_meters":36400,"station_id":"ce4bgs12rcd13ifvqcag","pricing_plan_id":"cebpf4jnsgd1na2vs0mg"},{"bike_id":"7e1a9b7e-c7ef-4c97-a2d9-62bece128876","system_id":"levelo_inurba_marseille","lat":43.29805,"lon":5.40409,"is_reserved":false,"is_disabled":false,"rental_uris":{"android":"levelo://app?vid=7e1a9b7e-c7ef-4c97-a2d9-62bece128876","ios":"levelo://app?vid=7e1a9b7e-c7ef-4c97-a2d9-62bece128876"},"vehicle_type_id":"4","last_reported":1730377062,"current_range_meters":36800,"station_id":"ce4bh112rcd13ifvqd90","pricing_plan_id":"cebpf4jnsgd1na2vs0mg"},{"bike_id":"6cfc4f8d-c411-4439-b454-6734fe7d88c3","system_id":"levelo_inurba_marseille","lat":43.33022,"lon":5.39041,"is_reserved":false,"is_disabled":false,"rental_uris":{"android":"levelo://app?vid=6cfc4f8d-c411-4439-b454-6734fe7d88c3","ios":"levelo://app?vid=6cfc4f8d-c411-4439-b454-6734fe7d88c3"},"vehicle_type_id":"4","last_reported":1730377062,"current_range_meters":29600,"station_id":"ce4bhr92rcd13ifvqhrg","pricing_plan_id":"cebpf4jnsgd1na2vs0mg"},{"bike_id":"ea80991a-adfa-47ae-8d7b-95a44cc35485","system_id":"levelo_inurba_marseille","lat":43.32041,"lon":5.41562,"is_reserved":false,"is_disabled":false,"rental_uris":{"android":"levelo://app?vid=ea80991a-adfa-47ae-8d7b-95a44cc35485","ios":"levelo://app?vid=ea80991a-adfa-47ae-8d7b-95a44cc35485"},"vehicle_type_id":"4","last_reported":1730377062,"current_range_meters":22400,"station_id":"ce4bhq92rcd13ifvqhkg","pricing_plan_id":"cebpf4jnsgd1na2vs0mg"},{"bike_id":"dae91eeb-9b42-4212-8f6c-fb2f4dbc955a","system_id":"levelo_inurba_marseille","lat":43.31332,"lon":5.36735,"is_reserved":false,"is_disabled":false,"rental_uris":{"android":"levelo://app?vid=dae91eeb-9b42-4212-8f6c-fb2f4dbc955a","ios":"levelo://app?vid=dae91eeb-9b42-4212-8f6c-fb2f4dbc955a"},"vehicle_type_id":"4","last_reported":1730377062,"current_range_meters":30400,"station_id":"ce4bgr92rcd13ifvqc6g","pricing_plan_id":"cebpf4jnsgd1na2vs0mg"},{"bike_id":"098dc95f-0f9a-4d84-b9ea-775a7837e57e","system_id":"levelo_inurba_marseille","lat":43.29593,"lon":5.38094,"is_reserved":false,"is_disabled":false,"rental_uris":{"android":"levelo://app?vid=098dc95f-0f9a-4d84-b9ea-775a7837e57e","ios":"levelo://app?vid=098dc95f-0f9a-4d84-b9ea-775a7837e57e"},"vehicle_type_id":"4","last_reported":1730377062,"current_range_meters":38800,"station_id":"ce4bgl12rcd13ifvqbo0","pricing_plan_id":"cebpf4jnsgd1na2vs0mg"},{"bike_id":"68d70b7d-ad7d-4f85-bf3d-e60a9bdb5234","system_id":"levelo_inurba_marseille","lat":43.23153,"lon":5.43705,"is_reserved":false,"is_disabled":false,"rental_uris":{"android":"levelo://app?vid=68d70b7d-ad7d-4f85-bf3d-e60a9bdb5234","ios":"levelo://app?vid=68d70b7d-ad7d-4f85-bf3d-e60a9bdb5234"},"vehicle_type_id":"4","last_reported":1730377062,"current_range_meters":11600,"station_id":"ce4bhmp2rcd13ifvqgog","pricing_plan_id":"cebpf4jnsgd1na2vs0mg"},{"bike_id":"2074bf2c-abe6-416b-8ac6-0453ab94f8bf","system_id":"levelo_inurba_marseille","lat":43.31353,"lon":5.3672,"is_reserved":false,"is_disabled":false,"rental_uris":{"android":"levelo://app?vid=2074bf2c-abe6-416b-8ac6-0453ab94f8bf","ios":"levelo://app?vid=2074bf2c-abe6-416b-8ac6-0453ab94f8bf"},"vehicle_type_id":"4","last_reported":1730377062,"current_range_meters":33600,"station_id":"ce4bgr92rcd13ifvqc6g","pricing_plan_id":"cebpf4jnsgd1na2vs0mg"},{"bike_id":"37069e8b-4451-4121-b3bf-4614fb7136a7","system_id":"levelo_inurba_marseille","lat":43.32283,"lon":5.38269,"is_reserved":false,"is_disabled":false,"rental_uris":{"android":"levelo://app?vid=37069e8b-4451-4121-b3bf-4614fb7136a7","ios":"levelo://app?vid=37069e8b-4451-4121-b3bf-4614fb7136a7"},"vehicle_type_id":"4","last_reported":1730377062,"current_range_meters":24800,"station_id":"ce4bhr12rcd13ifvqhqg","pricing_plan_id":"cebpf4jnsgd1na2vs0mg"},{"bike_id":"0b799bc9-f687-4253-870a-fa98bfc4a93b","system_id":"levelo_inurba_marseille","lat":43.299347,"lon":5.365648,"is_reserved":false,"is_disabled":false,"rental_uris":{"android":"levelo://app?vid=0b799bc9-f687-4253-870a-fa98bfc4a93b","ios":"levelo://app?vid=0b799bc9-f687-4253-870a-fa98bfc4a93b"},"vehicle_type_id":"4","last_reported":1730377062,"current_range_meters":28400,"station_id":"ce4bgm92rcd13ifvqbr0","pricing_plan_id":"cebpf4jnsgd1na2vs0mg"},{"bike_id":"3d9443ed-323f-4a51-88f4-25bd4371e527","system_id":"levelo_inurba_marseille","lat":43.28481,"lon":5.3857,"is_reserved":false,"is_disabled":false,"rental_uris":{"android":"levelo://app?vid=3d9443ed-323f-4a51-88f4-25bd4371e527","ios":"levelo://app?vid=3d9443ed-323f-4a51-88f4-25bd4371e527"},"vehicle_type_id":"4","last_reported":1730377062,"current_range_meters":23200,"station_id":"ce4bh8p2rcd13ifvqeb0","pricing_plan_id":"cebpf4jnsgd1na2vs0mg"},{"bike_id":"8f187250-044c-4a41-90ea-c9ecea0b6581","system_id":"levelo_inurba_marseille","lat":43.26942,"lon":5.40247,"is_reserved":false,"is_disabled":false,"rental_uris":{"android":"levelo://app?vid=8f187250-044c-4a41-90ea-c9ecea0b6581","ios":"levelo://app?vid=8f187250-044c-4a41-90ea-c9ecea0b6581"},"vehicle_type_id":"4","last_reported":1730377062,"current_range_meters":9600,"station_id":"cjm6bp8fraef2m0cb0m0","pricing_plan_id":"cebpf4jnsgd1na2vs0mg"},{"bike_id":"122231cb-4422-4960-b5b8-3c4780eb61fd","system_id":"levelo_inurba_marseille","lat":43.27371,"lon":5.36262,"is_reserved":false,"is_disabled":false,"rental_uris":{"android":"levelo://app?vid=122231cb-4422-4960-b5b8-3c4780eb61fd","ios":"levelo://app?vid=122231cb-4422-4960-b5b8-3c4780eb61fd"},"vehicle_type_id":"4","last_reported":1730377062,"current_range_meters":16800,"station_id":"ce4bhbh2rcd13ifvqeo0","pricing_plan_id":"cebpf4jnsgd1na2vs0mg"},{"bike_id":"d80d72e7-ab81-40bb-9e97-6cbae82e2e87","system_id":"levelo_inurba_marseille","lat":43.30208,"lon":5.39468,"is_reserved":false,"is_disabled":false,"rental_uris":{"android":"levelo://app?vid=d80d72e7-ab81-40bb-9e97-6cbae82e2e87","ios":"levelo://app?vid=d80d72e7-ab81-40bb-9e97-6cbae82e2e87"},"vehicle_type_id":"4","last_reported":1730377062,"current_range_meters":27200,"station_id":"ce4bh0p2rcd13ifvqd70","pricing_plan_id":"cebpf4jnsgd1na2vs0mg"},{"bike_id":"5266335c-fb51-4166-a0ab-8099a4c09e4b","system_id":"levelo_inurba_marseille","lat":43.3229,"lon":5.38299,"is_reserved":false,"is_disabled":false,"rental_uris":{"android":"levelo://app?vid=5266335c-fb51-4166-a0ab-8099a4c09e4b","ios":"levelo://app?vid=5266335c-fb51-4166-a0ab-8099a4c09e4b"},"vehicle_type_id":"4","last_reported":1730377062,"current_range_meters":37600,"station_id":"ce4bhr12rcd13ifvqhqg","pricing_plan_id":"cebpf4jnsgd1na2vs0mg"},{"bike_id":"2954a6bc-eaae-4c44-aef6-b2d529909721","system_id":"levelo_inurba_marseille","lat":43.30243,"lon":5.40046,"is_reserved":false,"is_disabled":false,"rental_uris":{"android":"levelo://app?vid=2954a6bc-eaae-4c44-aef6-b2d529909721","ios":"levelo://app?vid=2954a6bc-eaae-4c44-aef6-b2d529909721"},"vehicle_type_id":"4","last_reported":1730377062,"current_range_meters":19600,"station_id":"ce4bgvh2rcd13ifvqcs0","pricing_plan_id":"cebpf4jnsgd1na2vs0mg"},{"bike_id":"a0a5299b-33e0-43a9-ba95-113a594509a5","system_id":"levelo_inurba_marseille","lat":43.25495,"lon":5.37648,"is_reserved":false,"is_disabled":false,"rental_uris":{"android":"levelo://app?vid=a0a5299b-33e0-43a9-ba95-113a594509a5","ios":"levelo://app?vid=a0a5299b-33e0-43a9-ba95-113a594509a5"},"vehicle_type_id":"4","last_reported":1730377062,"current_range_meters":32400,"station_id":"ce4bhh12rcd13ifvqff0","pricing_plan_id":"cebpf4jnsgd1na2vs0mg"},{"bike_id":"0c4c6673-0454-4d62-b4a3-8abb9d59480c","system_id":"levelo_inurba_marseille","lat":43.28925,"lon":5.38408,"is_reserved":false,"is_disabled":false,"rental_uris":{"android":"levelo://app?vid=0c4c6673-0454-4d62-b4a3-8abb9d59480c","ios":"levelo://app?vid=0c4c6673-0454-4d62-b4a3-8abb9d59480c"},"vehicle_type_id":"4","last_reported":1730377062,"current_range_meters":30400,"station_id":"ce4bh612rcd13ifvqe6g","pricing_plan_id":"cebpf4jnsgd1na2vs0mg"},{"bike_id":"069dcc70-ebeb-46a9-ba7c-2237988cfc21","system_id":"levelo_inurba_marseille","lat":43.28716,"lon":5.37922,"is_reserved":false,"is_disabled":false,"rental_uris":{"android":"levelo://app?vid=069dcc70-ebeb-46a9-ba7c-2237988cfc21","ios":"levelo://app?vid=069dcc70-ebeb-46a9-ba7c-2237988cfc21"},"vehicle_type_id":"4","last_reported":1730377062,"current_range_meters":25600,"station_id":"ce4bh9p2rcd13ifvqec0","pricing_plan_id":"cebpf4jnsgd1na2vs0mg"},{"bike_id":"9fa4cf25-874e-4cc1-8548-3e97bed351b1","system_id":"levelo_inurba_marseille","lat":43.30538,"lon":5.38418,"is_reserved":false,"is_disabled":false,"rental_uris":{"android":"levelo://app?vid=9fa4cf25-874e-4cc1-8548-3e97bed351b1","ios":"levelo://app?vid=9fa4cf25-874e-4cc1-8548-3e97bed351b1"},"vehicle_type_id":"4","last_reported":1730377062,"current_range_meters":20800,"station_id":"ce4bgg92rcd13ifvqb30","pricing_plan_id":"cebpf4jnsgd1na2vs0mg"},{"bike_id":"e86e1460-d61f-41c4-898b-0536b5ece92b","system_id":"levelo_inurba_marseille","lat":43.29521,"lon":5.39044,"is_reserved":false,"is_disabled":false,"rental_uris":{"android":"levelo://app?vid=e86e1460-d61f-41c4-898b-0536b5ece92b","ios":"levelo://app?vid=e86e1460-d61f-41c4-898b-0536b5ece92b"},"vehicle_type_id":"4","last_reported":1730377062,"current_range_meters":25600,"station_id":"ce4bh3p2rcd13ifvqdp0","pricing_plan_id":"cebpf4jnsgd1na2vs0mg"},{"bike_id":"53facf4a-a53f-4009-81d5-6390ac637137","system_id":"levelo_inurba_marseille","lat":43.3248,"lon":5.36552,"is_reserved":false,"is_disabled":false,"rental_uris":{"android":"levelo://app?vid=53facf4a-a53f-4009-81d5-6390ac637137","ios":"levelo://app?vid=53facf4a-a53f-4009-81d5-6390ac637137"},"vehicle_type_id":"4","last_reported":1730377062,"current_range_meters":38000,"station_id":"ce4bhs12rcd13ifvqhvg","pricing_plan_id":"cebpf4jnsgd1na2vs0mg"},{"bike_id":"2f986fee-bfda-40ad-85c3-d385265561cf","system_id":"levelo_inurba_marseille","lat":43.2418,"lon":5.39735,"is_reserved":false,"is_disabled":false,"rental_uris":{"android":"levelo://app?vid=2f986fee-bfda-40ad-85c3-d385265561cf","ios":"levelo://app?vid=2f986fee-bfda-40ad-85c3-d385265561cf"},"vehicle_type_id":"4","last_reported":1730377062,"current_range_meters":38800,"station_id":"ce4bhn12rcd13ifvqgpg","pricing_plan_id":"cebpf4jnsgd1na2vs0mg"},{"bike_id":"7e5b7156-f36d-4d90-bde4-dfa9326c8c38","system_id":"levelo_inurba_marseille","lat":43.24996,"lon":5.38933,"is_reserved":false,"is_disabled":false,"rental_uris":{"android":"levelo://app?vid=7e5b7156-f36d-4d90-bde4-dfa9326c8c38","ios":"levelo://app?vid=7e5b7156-f36d-4d90-bde4-dfa9326c8c38"},"vehicle_type_id":"4","last_reported":1730377062,"current_range_meters":16800,"station_id":"ce4bhgp2rcd13ifvqfd0","pricing_plan_id":"cebpf4jnsgd1na2vs0mg"},{"bike_id":"67b75dc5-76e9-47e8-9f50-b697c520c036","system_id":"levelo_inurba_marseille","lat":43.24667,"lon":5.38155,"is_reserved":false,"is_disabled":false,"rental_uris":{"android":"levelo://app?vid=67b75dc5-76e9-47e8-9f50-b697c520c036","ios":"levelo://app?vid=67b75dc5-76e9-47e8-9f50-b697c520c036"},"vehicle_type_id":"4","last_reported":1730377062,"current_range_meters":34800,"station_id":"ce4bhih2rcd13ifvqfr0","pricing_plan_id":"cebpf4jnsgd1na2vs0mg"},{"bike_id":"efd4681d-af13-4d5d-b626-46877e5cba4f","system_id":"levelo_inurba_marseille","lat":43.27619,"lon":5.36103,"is_reserved":false,"is_disabled":false,"rental_uris":{"android":"levelo://app?vid=efd4681d-af13-4d5d-b626-46877e5cba4f","ios":"levelo://app?vid=efd4681d-af13-4d5d-b626-46877e5cba4f"},"vehicle_type_id":"4","last_reported":1730377062,"current_range_meters":38800,"station_id":"ce4bgj92rcd13ifvqbe0","pricing_plan_id":"cebpf4jnsgd1na2vs0mg"},{"bike_id":"4e6c31da-8511-48a7-b2ab-9f8b4f93652b","system_id":"levelo_inurba_marseille","lat":43.28619,"lon":5.35102,"is_reserved":false,"is_disabled":false,"rental_uris":{"android":"levelo://app?vid=4e6c31da-8511-48a7-b2ab-9f8b4f93652b","ios":"levelo://app?vid=4e6c31da-8511-48a7-b2ab-9f8b4f93652b"},"vehicle_type_id":"4","last_reported":1730377062,"current_range_meters":24800,"station_id":"ce4bhch2rcd13ifvqeug","pricing_plan_id":"cebpf4jnsgd1na2vs0mg"},{"bike_id":"f5a7d3b5-e1d0-44cc-a83f-30084a31b1de","system_id":"levelo_inurba_marseille","lat":43.29101,"lon":5.38135,"is_reserved":false,"is_disabled":false,"rental_uris":{"android":"levelo://app?vid=f5a7d3b5-e1d0-44cc-a83f-30084a31b1de","ios":"levelo://app?vid=f5a7d3b5-e1d0-44cc-a83f-30084a31b1de"},"vehicle_type_id":"4","last_reported":1730377062,"current_range_meters":23200,"station_id":"ce4bh512rcd13ifvqe2g","pricing_plan_id":"cebpf4jnsgd1na2vs0mg"},{"bike_id":"5a991495-bfc0-4411-a2d7-97dec39ff12f","system_id":"levelo_inurba_marseille","lat":43.29803,"lon":5.40406,"is_reserved":false,"is_disabled":false,"rental_uris":{"android":"levelo://app?vid=5a991495-bfc0-4411-a2d7-97dec39ff12f","ios":"levelo://app?vid=5a991495-bfc0-4411-a2d7-97dec39ff12f"},"vehicle_type_id":"4","last_reported":1730377062,"current_range_meters":34800,"station_id":"ce4bh112rcd13ifvqd90","pricing_plan_id":"cebpf4jnsgd1na2vs0mg"},{"bike_id":"58588f98-d979-4a89-a14d-d0d4a329cc8e","system_id":"levelo_inurba_marseille","lat":43.268,"lon":5.4026,"is_reserved":false,"is_disabled":false,"rental_uris":{"android":"levelo://app?vid=58588f98-d979-4a89-a14d-d0d4a329cc8e","ios":"levelo://app?vid=58588f98-d979-4a89-a14d-d0d4a329cc8e"},"vehicle_type_id":"4","last_reported":1730377062,"current_range_meters":39200,"station_id":"ce501612rcd8frsf0b60","pricing_plan_id":"cebpf4jnsgd1na2vs0mg"},{"bike_id":"3a1b91f1-7c9b-4ea6-b16b-510a11c89b8e","system_id":"levelo_inurba_marseille","lat":43.2694,"lon":5.40243,"is_reserved":false,"is_disabled":false,"rental_uris":{"android":"levelo://app?vid=3a1b91f1-7c9b-4ea6-b16b-510a11c89b8e","ios":"levelo://app?vid=3a1b91f1-7c9b-4ea6-b16b-510a11c89b8e"},"vehicle_type_id":"4","last_reported":1730377062,"current_range_meters":22400,"station_id":"cjm6bp8fraef2m0cb0m0","pricing_plan_id":"cebpf4jnsgd1na2vs0mg"},{"bike_id":"5ff74640-5d39-40f8-808a-e5695df59fd4","system_id":"levelo_inurba_marseille","lat":43.27185,"lon":5.41018,"is_reserved":false,"is_disabled":false,"rental_uris":{"android":"levelo://app?vid=5ff74640-5d39-40f8-808a-e5695df59fd4","ios":"levelo://app?vid=5ff74640-5d39-40f8-808a-e5695df59fd4"},"vehicle_type_id":"4","last_reported":1730377062,"current_range_meters":8000,"station_id":"ce4bhl12rcd13ifvqgf0","pricing_plan_id":"cebpf4jnsgd1na2vs0mg"},{"bike_id":"84e2b042-2c79-4878-a2d2-5d6cd154cfca","system_id":"levelo_inurba_marseille","lat":43.28414,"lon":5.3498,"is_reserved":false,"is_disabled":false,"rental_uris":{"android":"levelo://app?vid=84e2b042-2c79-4878-a2d2-5d6cd154cfca","ios":"levelo://app?vid=84e2b042-2c79-4878-a2d2-5d6cd154cfca"},"vehicle_type_id":"4","last_reported":1730377062,"current_range_meters":35200,"station_id":"ce4bhbh2rcd13ifvqepg","pricing_plan_id":"cebpf4jnsgd1na2vs0mg"},{"bike_id":"d4829a7e-16fe-4e76-9a47-d409e1283694","system_id":"levelo_inurba_marseille","lat":43.257198,"lon":5.411149,"is_reserved":false,"is_disabled":false,"rental_uris":{"android":"levelo://app?vid=d4829a7e-16fe-4e76-9a47-d409e1283694","ios":"levelo://app?vid=d4829a7e-16fe-4e76-9a47-d409e1283694"},"vehicle_type_id":"4","last_reported":1730377062,"current_range_meters":19600,"station_id":"ce4bhkp2rcd13ifvqgd0","pricing_plan_id":"cebpf4jnsgd1na2vs0mg"},{"bike_id":"39adc2cc-c550-4794-8196-4dc7322ee8f3","system_id":"levelo_inurba_marseille","lat":43.28845,"lon":5.39319,"is_reserved":false,"is_disabled":false,"rental_uris":{"android":"levelo://app?vid=39adc2cc-c550-4794-8196-4dc7322ee8f3","ios":"levelo://app?vid=39adc2cc-c550-4794-8196-4dc7322ee8f3"},"vehicle_type_id":"4","last_reported":1730377062,"current_range_meters":3600,"station_id":"ce4bh2p2rcd13ifvqdi0","pricing_plan_id":"cebpf4jnsgd1na2vs0mg"},{"bike_id":"a9805b12-7a6b-4f1d-98f9-22fdabac4130","system_id":"levelo_inurba_marseille","lat":43.28266,"lon":5.35069,"is_reserved":false,"is_disabled":false,"rental_uris":{"android":"levelo://app?vid=a9805b12-7a6b-4f1d-98f9-22fdabac4130","ios":"levelo://app?vid=a9805b12-7a6b-4f1d-98f9-22fdabac4130"},"vehicle_type_id":"4","last_reported":1730377062,"current_range_meters":16000,"station_id":"ce4bhbp2rcd13ifvqerg","pricing_plan_id":"cebpf4jnsgd1na2vs0mg"},{"bike_id":"c54109fe-bd39-4579-ba36-b49d42aeba13","system_id":"levelo_inurba_marseille","lat":43.25867,"lon":5.39896,"is_reserved":false,"is_disabled":false,"rental_uris":{"android":"levelo://app?vid=c54109fe-bd39-4579-ba36-b49d42aeba13","ios":"levelo://app?vid=c54109fe-bd39-4579-ba36-b49d42aeba13"},"vehicle_type_id":"4","last_reported":1730377062,"current_range_meters":24000,"station_id":"ce4bhl92rcd13ifvqghg","pricing_plan_id":"cebpf4jnsgd1na2vs0mg"},{"bike_id":"a1658791-6df1-4512-bccc-aeb7e692ca8a","system_id":"levelo_inurba_marseille","lat":43.31711,"lon":5.43704,"is_reserved":false,"is_disabled":false,"rental_uris":{"android":"levelo://app?vid=a1658791-6df1-4512-bccc-aeb7e692ca8a","ios":"levelo://app?vid=a1658791-6df1-4512-bccc-aeb7e692ca8a"},"vehicle_type_id":"4","last_reported":1730377062,"current_range_meters":24800,"station_id":"ce4bhp92rcd13ifvqhcg","pricing_plan_id":"cebpf4jnsgd1na2vs0mg"},{"bike_id":"cef12526-634c-4963-9220-745782d31057","system_id":"levelo_inurba_marseille","lat":43.29601,"lon":5.38104,"is_reserved":false,"is_disabled":false,"rental_uris":{"android":"levelo://app?vid=cef12526-634c-4963-9220-745782d31057","ios":"levelo://app?vid=cef12526-634c-4963-9220-745782d31057"},"vehicle_type_id":"4","last_reported":1730377062,"current_range_meters":25200,"station_id":"ce4bgl12rcd13ifvqbo0","pricing_plan_id":"cebpf4jnsgd1na2vs0mg"},{"bike_id":"654e6c85-c7a0-4fba-b228-17b6bfa33ba6","system_id":"levelo_inurba_marseille","lat":43.24173,"lon":5.39719,"is_reserved":false,"is_disabled":false,"rental_uris":{"android":"levelo://app?vid=654e6c85-c7a0-4fba-b228-17b6bfa33ba6","ios":"levelo://app?vid=654e6c85-c7a0-4fba-b228-17b6bfa33ba6"},"vehicle_type_id":"4","last_reported":1730377062,"current_range_meters":36800,"station_id":"ce4bhn12rcd13ifvqgpg","pricing_plan_id":"cebpf4jnsgd1na2vs0mg"},{"bike_id":"a1f14d84-7d99-4674-8082-3d3ddd45c851","system_id":"levelo_inurba_marseille","lat":43.24386,"lon":5.37052,"is_reserved":false,"is_disabled":false,"rental_uris":{"android":"levelo://app?vid=a1f14d84-7d99-4674-8082-3d3ddd45c851","ios":"levelo://app?vid=a1f14d84-7d99-4674-8082-3d3ddd45c851"},"vehicle_type_id":"4","last_reported":1730377062,"current_range_meters":24400,"station_id":"ce4bhhh2rcd13ifvqfk0","pricing_plan_id":"cebpf4jnsgd1na2vs0mg"},{"bike_id":"3998c2d7-91a5-4d44-9a9a-9052ff445560","system_id":"levelo_inurba_marseille","lat":43.30548,"lon":5.36529,"is_reserved":false,"is_disabled":false,"rental_uris":{"android":"levelo://app?vid=3998c2d7-91a5-4d44-9a9a-9052ff445560","ios":"levelo://app?vid=3998c2d7-91a5-4d44-9a9a-9052ff445560"},"vehicle_type_id":"4","last_reported":1730377062,"current_range_meters":17600,"station_id":"ce4bgs12rcd13ifvqcag","pricing_plan_id":"cebpf4jnsgd1na2vs0mg"},{"bike_id":"cc43bf4d-496d-47ec-aa99-164bc1536ac8","system_id":"levelo_inurba_marseille","lat":43.24998,"lon":5.38932,"is_reserved":false,"is_disabled":false,"rental_uris":{"android":"levelo://app?vid=cc43bf4d-496d-47ec-aa99-164bc1536ac8","ios":"levelo://app?vid=cc43bf4d-496d-47ec-aa99-164bc1536ac8"},"vehicle_type_id":"4","last_reported":1730377062,"current_range_meters":33200,"station_id":"ce4bhgp2rcd13ifvqfd0","pricing_plan_id":"cebpf4jnsgd1na2vs0mg"},{"bike_id":"5e3e5e15-a26a-4370-a4d7-22b0461d60e4","system_id":"levelo_inurba_marseille","lat":43.31989,"lon":5.38141,"is_reserved":false,"is_disabled":false,"rental_uris":{"android":"levelo://app?vid=5e3e5e15-a26a-4370-a4d7-22b0461d60e4","ios":"levelo://app?vid=5e3e5e15-a26a-4370-a4d7-22b0461d60e4"},"vehicle_type_id":"4","last_reported":1730377062,"current_range_meters":38800,"station_id":"ce4bhr12rcd13ifvqhpg","pricing_plan_id":"cebpf4jnsgd1na2vs0mg"},{"bike_id":"3271d7f6-0f65-475f-8b65-c5efde785335","system_id":"levelo_inurba_marseille","lat":43.23188,"lon":5.35541,"is_reserved":false,"is_disabled":false,"rental_uris":{"android":"levelo://app?vid=3271d7f6-0f65-475f-8b65-c5efde785335","ios":"levelo://app?vid=3271d7f6-0f65-475f-8b65-c5efde785335"},"vehicle_type_id":"4","last_reported":1730377062,"current_range_meters":36000,"station_id":"ce4bhu92rcd13ifvqi70","pricing_plan_id":"cebpf4jnsgd1na2vs0mg"},{"bike_id":"f82d6e99-2d3a-47e6-a97a-feadb35dd14a","system_id":"levelo_inurba_marseille","lat":43.29565,"lon":5.37493,"is_reserved":false,"is_disabled":false,"rental_uris":{"android":"levelo://app?vid=f82d6e99-2d3a-47e6-a97a-feadb35dd14a","ios":"levelo://app?vid=f82d6e99-2d3a-47e6-a97a-feadb35dd14a"},"vehicle_type_id":"4","last_reported":1730377062,"current_range_meters":36400,"station_id":"ce4bgh92rcd13ifvqb50","pricing_plan_id":"cebpf4jnsgd1na2vs0mg"},{"bike_id":"955d71ec-3346-4f99-b1c9-b93efca53e2c","system_id":"levelo_inurba_marseille","lat":43.27624,"lon":5.36111,"is_reserved":false,"is_disabled":false,"rental_uris":{"android":"levelo://app?vid=955d71ec-3346-4f99-b1c9-b93efca53e2c","ios":"levelo://app?vid=955d71ec-3346-4f99-b1c9-b93efca53e2c"},"vehicle_type_id":"4","last_reported":1730377062,"current_range_meters":28000,"station_id":"ce4bgj92rcd13ifvqbe0","pricing_plan_id":"cebpf4jnsgd1na2vs0mg"},{"bike_id":"f99547b6-e0b7-4a86-b4bb-f600f8ca5cb2","system_id":"levelo_inurba_marseille","lat":43.24168,"lon":5.36401,"is_reserved":false,"is_disabled":false,"rental_uris":{"android":"levelo://app?vid=f99547b6-e0b7-4a86-b4bb-f600f8ca5cb2","ios":"levelo://app?vid=f99547b6-e0b7-4a86-b4bb-f600f8ca5cb2"},"vehicle_type_id":"4","last_reported":1730377062,"current_range_meters":11200,"station_id":"cpo36qri1sfpv3e86is0","pricing_plan_id":"cebpf4jnsgd1na2vs0mg"},{"bike_id":"e102b7c5-a4ed-4645-b11f-4d05e39a0ce4","system_id":"levelo_inurba_marseille","lat":43.32371,"lon":5.38877,"is_reserved":false,"is_disabled":false,"rental_uris":{"android":"levelo://app?vid=e102b7c5-a4ed-4645-b11f-4d05e39a0ce4","ios":"levelo://app?vid=e102b7c5-a4ed-4645-b11f-4d05e39a0ce4"},"vehicle_type_id":"4","last_reported":1730377062,"current_range_meters":19600,"station_id":"ce4bhqp2rcd13ifvqhog","pricing_plan_id":"cebpf4jnsgd1na2vs0mg"},{"bike_id":"80092705-4989-4e56-ac2b-d582d70f3c41","system_id":"levelo_inurba_marseille","lat":43.30782,"lon":5.37654,"is_reserved":false,"is_disabled":false,"rental_uris":{"android":"levelo://app?vid=80092705-4989-4e56-ac2b-d582d70f3c41","ios":"levelo://app?vid=80092705-4989-4e56-ac2b-d582d70f3c41"},"vehicle_type_id":"4","last_reported":1730377062,"current_range_meters":38800,"station_id":"ce4bgv92rcd13ifvqcq0","pricing_plan_id":"cebpf4jnsgd1na2vs0mg"},{"bike_id":"ed466f0c-ee4e-466a-a573-a96c82a5e71c","system_id":"levelo_inurba_marseille","lat":43.2621,"lon":5.37444,"is_reserved":false,"is_disabled":false,"rental_uris":{"android":"levelo://app?vid=ed466f0c-ee4e-466a-a573-a96c82a5e71c","ios":"levelo://app?vid=ed466f0c-ee4e-466a-a573-a96c82a5e71c"},"vehicle_type_id":"4","last_reported":1730377062,"current_range_meters":36000,"station_id":"ce4bhgp2rcd13ifvqfc0","pricing_plan_id":"cebpf4jnsgd1na2vs0mg"},{"bike_id":"1d4a509c-fcf8-48f3-9240-ea1f79b55127","system_id":"levelo_inurba_marseille","lat":43.26495,"lon":5.39532,"is_reserved":false,"is_disabled":false,"rental_uris":{"android":"levelo://app?vid=1d4a509c-fcf8-48f3-9240-ea1f79b55127","ios":"levelo://app?vid=1d4a509c-fcf8-48f3-9240-ea1f79b55127"},"vehicle_type_id":"4","last_reported":1730377062,"current_range_meters":24800,"station_id":"ce4bhi12rcd13ifvqfq0","pricing_plan_id":"cebpf4jnsgd1na2vs0mg"},{"bike_id":"de22428a-afcb-46fc-a216-c2ec348a02df","system_id":"levelo_inurba_marseille","lat":43.29598,"lon":5.38105,"is_reserved":false,"is_disabled":false,"rental_uris":{"android":"levelo://app?vid=de22428a-afcb-46fc-a216-c2ec348a02df","ios":"levelo://app?vid=de22428a-afcb-46fc-a216-c2ec348a02df"},"vehicle_type_id":"4","last_reported":1730377062,"current_range_meters":5600,"station_id":"ce4bgl12rcd13ifvqbo0","pricing_plan_id":"cebpf4jnsgd1na2vs0mg"},{"bike_id":"72e37474-1bc8-4568-aec8-ce5464e6b828","system_id":"levelo_inurba_marseille","lat":43.2319,"lon":5.35549,"is_reserved":false,"is_disabled":false,"rental_uris":{"android":"levelo://app?vid=72e37474-1bc8-4568-aec8-ce5464e6b828","ios":"levelo://app?vid=72e37474-1bc8-4568-aec8-ce5464e6b828"},"vehicle_type_id":"4","last_reported":1730377062,"current_range_meters":24800,"station_id":"ce4bhu92rcd13ifvqi70","pricing_plan_id":"cebpf4jnsgd1na2vs0mg"},{"bike_id":"d4581474-7479-4f3f-824f-6b2341e101e9","system_id":"levelo_inurba_marseille","lat":43.25088,"lon":5.39519,"is_reserved":false,"is_disabled":false,"rental_uris":{"android":"levelo://app?vid=d4581474-7479-4f3f-824f-6b2341e101e9","ios":"levelo://app?vid=d4581474-7479-4f3f-824f-6b2341e101e9"},"vehicle_type_id":"4","last_reported":1730377062,"current_range_meters":14800,"station_id":"ce4bhm12rcd13ifvqgkg","pricing_plan_id":"cebpf4jnsgd1na2vs0mg"},{"bike_id":"b5e2b170-47d9-4b08-8471-ec158d4daf9e","system_id":"levelo_inurba_marseille","lat":43.276672,"lon":5.388819,"is_reserved":false,"is_disabled":false,"rental_uris":{"android":"levelo://app?vid=b5e2b170-47d9-4b08-8471-ec158d4daf9e","ios":"levelo://app?vid=b5e2b170-47d9-4b08-8471-ec158d4daf9e"},"vehicle_type_id":"4","last_reported":1730377062,"current_range_meters":12400,"station_id":"ce4bhi12rcd13ifvqfo0","pricing_plan_id":"cebpf4jnsgd1na2vs0mg"},{"bike_id":"1205d633-4986-4c67-9432-2d423a89c40d","system_id":"levelo_inurba_marseille","lat":43.27172,"lon":5.4099,"is_reserved":false,"is_disabled":false,"rental_uris":{"android":"levelo://app?vid=1205d633-4986-4c67-9432-2d423a89c40d","ios":"levelo://app?vid=1205d633-4986-4c67-9432-2d423a89c40d"},"vehicle_type_id":"4","last_reported":1730377062,"current_range_meters":34800,"station_id":"ce4bhl12rcd13ifvqgf0","pricing_plan_id":"cebpf4jnsgd1na2vs0mg"},{"bike_id":"caebbcd3-809e-4610-b16f-dadff6c64a44","system_id":"levelo_inurba_marseille","lat":43.29609,"lon":5.37726,"is_reserved":false,"is_disabled":false,"rental_uris":{"android":"levelo://app?vid=caebbcd3-809e-4610-b16f-dadff6c64a44","ios":"levelo://app?vid=caebbcd3-809e-4610-b16f-dadff6c64a44"},"vehicle_type_id":"4","last_reported":1730377062,"current_range_meters":38400,"station_id":"ce4bgi92rcd13ifvqb90","pricing_plan_id":"cebpf4jnsgd1na2vs0mg"},{"bike_id":"3c07b76a-6f9b-42d9-b43a-98d28ab9aacb","system_id":"levelo_inurba_marseille","lat":43.28417,"lon":5.34983,"is_reserved":false,"is_disabled":false,"rental_uris":{"android":"levelo://app?vid=3c07b76a-6f9b-42d9-b43a-98d28ab9aacb","ios":"levelo://app?vid=3c07b76a-6f9b-42d9-b43a-98d28ab9aacb"},"vehicle_type_id":"4","last_reported":1730377062,"current_range_meters":26800,"station_id":"ce4bhbh2rcd13ifvqepg","pricing_plan_id":"cebpf4jnsgd1na2vs0mg"},{"bike_id":"88dc58c8-a632-450d-98e1-c0f672ee9cc5","system_id":"levelo_inurba_marseille","lat":43.24386,"lon":5.37048,"is_reserved":false,"is_disabled":false,"rental_uris":{"android":"levelo://app?vid=88dc58c8-a632-450d-98e1-c0f672ee9cc5","ios":"levelo://app?vid=88dc58c8-a632-450d-98e1-c0f672ee9cc5"},"vehicle_type_id":"4","last_reported":1730377062,"current_range_meters":36400,"station_id":"ce4bhhh2rcd13ifvqfk0","pricing_plan_id":"cebpf4jnsgd1na2vs0mg"},{"bike_id":"54d2e7c1-0997-4e85-b497-01eca9eb4f00","system_id":"levelo_inurba_marseille","lat":43.2319,"lon":5.3555,"is_reserved":false,"is_disabled":false,"rental_uris":{"android":"levelo://app?vid=54d2e7c1-0997-4e85-b497-01eca9eb4f00","ios":"levelo://app?vid=54d2e7c1-0997-4e85-b497-01eca9eb4f00"},"vehicle_type_id":"4","last_reported":1730377062,"current_range_meters":9600,"station_id":"ce4bhu92rcd13ifvqi70","pricing_plan_id":"cebpf4jnsgd1na2vs0mg"},{"bike_id":"f05899fd-673f-4e10-9098-f694454df56c","system_id":"levelo_inurba_marseille","lat":43.27313,"lon":5.39078,"is_reserved":false,"is_disabled":false,"rental_uris":{"android":"levelo://app?vid=f05899fd-673f-4e10-9098-f694454df56c","ios":"levelo://app?vid=f05899fd-673f-4e10-9098-f694454df56c"},"vehicle_type_id":"4","last_reported":1730377062,"current_range_meters":28000,"station_id":"ce4bhgp2rcd13ifvqfe0","pricing_plan_id":"cebpf4jnsgd1na2vs0mg"},{"bike_id":"7bd039cf-42eb-45bc-8cbb-dc71edf017ab","system_id":"levelo_inurba_marseille","lat":43.251068,"lon":5.403191,"is_reserved":false,"is_disabled":false,"rental_uris":{"android":"levelo://app?vid=7bd039cf-42eb-45bc-8cbb-dc71edf017ab","ios":"levelo://app?vid=7bd039cf-42eb-45bc-8cbb-dc71edf017ab"},"vehicle_type_id":"4","last_reported":1730377062,"current_range_meters":36400,"station_id":"ce4bhhp2rcd13ifvqfm0","pricing_plan_id":"cebpf4jnsgd1na2vs0mg"},{"bike_id":"87590ba3-c891-4a98-b240-a5bcb40b57cc","system_id":"levelo_inurba_marseille","lat":43.29933,"lon":5.36521,"is_reserved":false,"is_disabled":false,"rental_uris":{"android":"levelo://app?vid=87590ba3-c891-4a98-b240-a5bcb40b57cc","ios":"levelo://app?vid=87590ba3-c891-4a98-b240-a5bcb40b57cc"},"vehicle_type_id":"4","last_reported":1730377062,"current_range_meters":12800,"station_id":"ce4bgm92rcd13ifvqbr0","pricing_plan_id":"cebpf4jnsgd1na2vs0mg"},{"bike_id":"afbdb5bf-0e3e-49a1-9426-d223ea6f373a","system_id":"levelo_inurba_marseille","lat":43.31497,"lon":5.37307,"is_reserved":false,"is_disabled":false,"rental_uris":{"android":"levelo://app?vid=afbdb5bf-0e3e-49a1-9426-d223ea6f373a","ios":"levelo://app?vid=afbdb5bf-0e3e-49a1-9426-d223ea6f373a"},"vehicle_type_id":"4","last_reported":1730377062,"current_range_meters":8400,"station_id":"ce4bgt12rcd13ifvqcd0","pricing_plan_id":"cebpf4jnsgd1na2vs0mg"},{"bike_id":"ebf6bda3-0a7c-47f1-95b0-3d52d1ae1cef","system_id":"levelo_inurba_marseille","lat":43.28923,"lon":5.38399,"is_reserved":false,"is_disabled":false,"rental_uris":{"android":"levelo://app?vid=ebf6bda3-0a7c-47f1-95b0-3d52d1ae1cef","ios":"levelo://app?vid=ebf6bda3-0a7c-47f1-95b0-3d52d1ae1cef"},"vehicle_type_id":"4","last_reported":1730377062,"current_range_meters":26800,"station_id":"ce4bh612rcd13ifvqe6g","pricing_plan_id":"cebpf4jnsgd1na2vs0mg"},{"bike_id":"aa9d88a0-daf2-4d34-8ddb-f0c8bb7d59e8","system_id":"levelo_inurba_marseille","lat":43.28273,"lon":5.35056,"is_reserved":false,"is_disabled":false,"rental_uris":{"android":"levelo://app?vid=aa9d88a0-daf2-4d34-8ddb-f0c8bb7d59e8","ios":"levelo://app?vid=aa9d88a0-daf2-4d34-8ddb-f0c8bb7d59e8"},"vehicle_type_id":"4","last_reported":1730377062,"current_range_meters":30800,"station_id":"ce4bhbp2rcd13ifvqerg","pricing_plan_id":"cebpf4jnsgd1na2vs0mg"},{"bike_id":"d6419497-db25-46dc-9b09-80b762d6c261","system_id":"levelo_inurba_marseille","lat":43.29983,"lon":5.38484,"is_reserved":false,"is_disabled":false,"rental_uris":{"android":"levelo://app?vid=d6419497-db25-46dc-9b09-80b762d6c261","ios":"levelo://app?vid=d6419497-db25-46dc-9b09-80b762d6c261"},"vehicle_type_id":"4","last_reported":1730377062,"current_range_meters":36400,"station_id":"ce4bgj92rcd13ifvqbd0","pricing_plan_id":"cebpf4jnsgd1na2vs0mg"},{"bike_id":"a903c572-e78f-4cb9-b377-befa33d6ed2c","system_id":"levelo_inurba_marseille","lat":43.26553,"lon":5.37284,"is_reserved":false,"is_disabled":false,"rental_uris":{"android":"levelo://app?vid=a903c572-e78f-4cb9-b377-befa33d6ed2c","ios":"levelo://app?vid=a903c572-e78f-4cb9-b377-befa33d6ed2c"},"vehicle_type_id":"4","last_reported":1730377062,"current_range_meters":19600,"station_id":"ce4bhg12rcd13ifvqf70","pricing_plan_id":"cebpf4jnsgd1na2vs0mg"},{"bike_id":"63b03bec-4d7a-47db-9296-710c2b74b8cb","system_id":"levelo_inurba_marseille","lat":43.26057,"lon":5.39398,"is_reserved":false,"is_disabled":false,"rental_uris":{"android":"levelo://app?vid=63b03bec-4d7a-47db-9296-710c2b74b8cb","ios":"levelo://app?vid=63b03bec-4d7a-47db-9296-710c2b74b8cb"},"vehicle_type_id":"4","last_reported":1730377062,"current_range_meters":36800,"station_id":"ce4bhh92rcd13ifvqfj0","pricing_plan_id":"cebpf4jnsgd1na2vs0mg"},{"bike_id":"732d757d-f203-4486-9ea5-77baef402512","system_id":"levelo_inurba_marseille","lat":43.33746,"lon":5.37464,"is_reserved":false,"is_disabled":false,"rental_uris":{"android":"levelo://app?vid=732d757d-f203-4486-9ea5-77baef402512","ios":"levelo://app?vid=732d757d-f203-4486-9ea5-77baef402512"},"vehicle_type_id":"4","last_reported":1730377062,"current_range_meters":28000,"station_id":"","pricing_plan_id":"cebpf4jnsgd1na2vs0mg"},{"bike_id":"cd76e8f8-34d5-4978-a6d4-72024b5a2272","system_id":"levelo_inurba_marseille","lat":43.30306,"lon":5.39203,"is_reserved":false,"is_disabled":false,"rental_uris":{"android":"levelo://app?vid=cd76e8f8-34d5-4978-a6d4-72024b5a2272","ios":"levelo://app?vid=cd76e8f8-34d5-4978-a6d4-72024b5a2272"},"vehicle_type_id":"4","last_reported":1730377062,"current_range_meters":28000,"station_id":"ce4bgkh2rcd13ifvqbk0","pricing_plan_id":"cebpf4jnsgd1na2vs0mg"},{"bike_id":"0c879c60-a866-4ff2-a8d4-4b0aa3b1f70c","system_id":"levelo_inurba_marseille","lat":43.29524,"lon":5.39041,"is_reserved":false,"is_disabled":false,"rental_uris":{"android":"levelo://app?vid=0c879c60-a866-4ff2-a8d4-4b0aa3b1f70c","ios":"levelo://app?vid=0c879c60-a866-4ff2-a8d4-4b0aa3b1f70c"},"vehicle_type_id":"4","last_reported":1730377062,"current_range_meters":36000,"station_id":"ce4bh3p2rcd13ifvqdp0","pricing_plan_id":"cebpf4jnsgd1na2vs0mg"},{"bike_id":"cbd6e71b-da90-49a9-852e-9e6ceb2a79ce","system_id":"levelo_inurba_marseille","lat":43.2318,"lon":5.39981,"is_reserved":false,"is_disabled":false,"rental_uris":{"android":"levelo://app?vid=cbd6e71b-da90-49a9-852e-9e6ceb2a79ce","ios":"levelo://app?vid=cbd6e71b-da90-49a9-852e-9e6ceb2a79ce"},"vehicle_type_id":"4","last_reported":1730377062,"current_range_meters":39200,"station_id":"ce4bhn12rcd13ifvqgqg","pricing_plan_id":"cebpf4jnsgd1na2vs0mg"},{"bike_id":"0573941a-a5a3-4691-b312-d05a201e3d9d","system_id":"levelo_inurba_marseille","lat":43.28852,"lon":5.39302,"is_reserved":false,"is_disabled":false,"rental_uris":{"android":"levelo://app?vid=0573941a-a5a3-4691-b312-d05a201e3d9d","ios":"levelo://app?vid=0573941a-a5a3-4691-b312-d05a201e3d9d"},"vehicle_type_id":"4","last_reported":1730377062,"current_range_meters":30400,"station_id":"ce4bh2p2rcd13ifvqdi0","pricing_plan_id":"cebpf4jnsgd1na2vs0mg"},{"bike_id":"1cba9dd1-e9db-4665-8a3a-a295ee18f30c","system_id":"levelo_inurba_marseille","lat":43.25816,"lon":5.39437,"is_reserved":false,"is_disabled":false,"rental_uris":{"android":"levelo://app?vid=1cba9dd1-e9db-4665-8a3a-a295ee18f30c","ios":"levelo://app?vid=1cba9dd1-e9db-4665-8a3a-a295ee18f30c"},"vehicle_type_id":"4","last_reported":1730377062,"current_range_meters":11200,"station_id":"ce4bhip2rcd13ifvqft0","pricing_plan_id":"cebpf4jnsgd1na2vs0mg"},{"bike_id":"07fdb256-9223-4a93-b11a-97c6d4aec79b","system_id":"levelo_inurba_marseille","lat":43.23194,"lon":5.35548,"is_reserved":false,"is_disabled":false,"rental_uris":{"android":"levelo://app?vid=07fdb256-9223-4a93-b11a-97c6d4aec79b","ios":"levelo://app?vid=07fdb256-9223-4a93-b11a-97c6d4aec79b"},"vehicle_type_id":"4","last_reported":1730377062,"current_range_meters":18000,"station_id":"ce4bhu92rcd13ifvqi70","pricing_plan_id":"cebpf4jnsgd1na2vs0mg"},{"bike_id":"b503c5a4-0789-4753-98eb-4d5bd5fe28a7","system_id":"levelo_inurba_marseille","lat":43.30547,"lon":5.36703,"is_reserved":false,"is_disabled":false,"rental_uris":{"android":"levelo://app?vid=b503c5a4-0789-4753-98eb-4d5bd5fe28a7","ios":"levelo://app?vid=b503c5a4-0789-4753-98eb-4d5bd5fe28a7"},"vehicle_type_id":"4","last_reported":1730377062,"current_range_meters":39200,"station_id":"ce4bgrp2rcd13ifvqc9g","pricing_plan_id":"cebpf4jnsgd1na2vs0mg"},{"bike_id":"ec887f96-3e7c-4cc5-bffc-e14c99385849","system_id":"levelo_inurba_marseille","lat":43.32103,"lon":5.36779,"is_reserved":false,"is_disabled":false,"rental_uris":{"android":"levelo://app?vid=ec887f96-3e7c-4cc5-bffc-e14c99385849","ios":"levelo://app?vid=ec887f96-3e7c-4cc5-bffc-e14c99385849"},"vehicle_type_id":"4","last_reported":1730377062,"current_range_meters":9200,"station_id":"ce4bhrh2rcd13ifvqhug","pricing_plan_id":"cebpf4jnsgd1na2vs0mg"},{"bike_id":"1995d42f-9bb2-423e-a419-1706f5fab24e","system_id":"levelo_inurba_marseille","lat":43.27073,"lon":5.42275,"is_reserved":false,"is_disabled":false,"rental_uris":{"android":"levelo://app?vid=1995d42f-9bb2-423e-a419-1706f5fab24e","ios":"levelo://app?vid=1995d42f-9bb2-423e-a419-1706f5fab24e"},"vehicle_type_id":"4","last_reported":1730377062,"current_range_meters":28800,"station_id":"ce4bhk92rcd13ifvqgb0","pricing_plan_id":"cebpf4jnsgd1na2vs0mg"},{"bike_id":"d75a5f39-6d7e-41fe-bdc2-13c4c09528e6","system_id":"levelo_inurba_marseille","lat":43.23185,"lon":5.39986,"is_reserved":false,"is_disabled":false,"rental_uris":{"android":"levelo://app?vid=d75a5f39-6d7e-41fe-bdc2-13c4c09528e6","ios":"levelo://app?vid=d75a5f39-6d7e-41fe-bdc2-13c4c09528e6"},"vehicle_type_id":"4","last_reported":1730377062,"current_range_meters":39200,"station_id":"ce4bhn12rcd13ifvqgqg","pricing_plan_id":"cebpf4jnsgd1na2vs0mg"},{"bike_id":"be4cec61-2fbe-4c41-bc8f-6cef6f495468","system_id":"levelo_inurba_marseille","lat":43.31332,"lon":5.39697,"is_reserved":false,"is_disabled":false,"rental_uris":{"android":"levelo://app?vid=be4cec61-2fbe-4c41-bc8f-6cef6f495468","ios":"levelo://app?vid=be4cec61-2fbe-4c41-bc8f-6cef6f495468"},"vehicle_type_id":"4","last_reported":1730377062,"current_range_meters":36800,"station_id":"ce4bgvp2rcd13ifvqcu0","pricing_plan_id":"cebpf4jnsgd1na2vs0mg"},{"bike_id":"fdf25919-188d-4034-b5b8-53387213b0af","system_id":"levelo_inurba_marseille","lat":43.29189,"lon":5.39295,"is_reserved":false,"is_disabled":false,"rental_uris":{"android":"levelo://app?vid=fdf25919-188d-4034-b5b8-53387213b0af","ios":"levelo://app?vid=fdf25919-188d-4034-b5b8-53387213b0af"},"vehicle_type_id":"4","last_reported":1730377062,"current_range_meters":38800,"station_id":"ce4bh192rcd13ifvqdd0","pricing_plan_id":"cebpf4jnsgd1na2vs0mg"},{"bike_id":"39ed807e-b8c2-43a4-aa5b-6cac37ca2061","system_id":"levelo_inurba_marseille","lat":43.26191,"lon":5.37445,"is_reserved":false,"is_disabled":false,"rental_uris":{"android":"levelo://app?vid=39ed807e-b8c2-43a4-aa5b-6cac37ca2061","ios":"levelo://app?vid=39ed807e-b8c2-43a4-aa5b-6cac37ca2061"},"vehicle_type_id":"4","last_reported":1730377062,"current_range_meters":26800,"station_id":"ce4bhgp2rcd13ifvqfc0","pricing_plan_id":"cebpf4jnsgd1na2vs0mg"},{"bike_id":"49c64ce9-f90a-46d2-9d4b-3aecfd6f4e30","system_id":"levelo_inurba_marseille","lat":43.29513,"lon":5.37505,"is_reserved":false,"is_disabled":false,"rental_uris":{"android":"levelo://app?vid=49c64ce9-f90a-46d2-9d4b-3aecfd6f4e30","ios":"levelo://app?vid=49c64ce9-f90a-46d2-9d4b-3aecfd6f4e30"},"vehicle_type_id":"4","last_reported":1730377062,"current_range_meters":8400,"station_id":"ce4bgkp2rcd13ifvqbmg","pricing_plan_id":"cebpf4jnsgd1na2vs0mg"},{"bike_id":"fa009e39-df04-4325-8d5a-fbc653d672f2","system_id":"levelo_inurba_marseille","lat":43.26792,"lon":5.39416,"is_reserved":false,"is_disabled":false,"rental_uris":{"android":"levelo://app?vid=fa009e39-df04-4325-8d5a-fbc653d672f2","ios":"levelo://app?vid=fa009e39-df04-4325-8d5a-fbc653d672f2"},"vehicle_type_id":"4","last_reported":1730377062,"current_range_meters":28000,"station_id":"ce4bhh12rcd13ifvqfg0","pricing_plan_id":"cebpf4jnsgd1na2vs0mg"},{"bike_id":"94279a57-03c0-47b7-abe3-7226e86fd3b0","system_id":"levelo_inurba_marseille","lat":43.2761,"lon":5.36103,"is_reserved":false,"is_disabled":false,"rental_uris":{"android":"levelo://app?vid=94279a57-03c0-47b7-abe3-7226e86fd3b0","ios":"levelo://app?vid=94279a57-03c0-47b7-abe3-7226e86fd3b0"},"vehicle_type_id":"4","last_reported":1730377062,"current_range_meters":30800,"station_id":"ce4bgj92rcd13ifvqbe0","pricing_plan_id":"cebpf4jnsgd1na2vs0mg"},{"bike_id":"1ace14c5-1992-46b1-87cf-4a1d3c62f592","system_id":"levelo_inurba_marseille","lat":43.28154,"lon":5.42643,"is_reserved":false,"is_disabled":false,"rental_uris":{"android":"levelo://app?vid=1ace14c5-1992-46b1-87cf-4a1d3c62f592","ios":"levelo://app?vid=1ace14c5-1992-46b1-87cf-4a1d3c62f592"},"vehicle_type_id":"4","last_reported":1730377062,"current_range_meters":16800,"station_id":"ce4bhnh2rcd13ifvqgug","pricing_plan_id":"cebpf4jnsgd1na2vs0mg"},{"bike_id":"d07e51c4-1801-453e-bc47-72fad552c79a","system_id":"levelo_inurba_marseille","lat":43.29797,"lon":5.38109,"is_reserved":false,"is_disabled":false,"rental_uris":{"android":"levelo://app?vid=d07e51c4-1801-453e-bc47-72fad552c79a","ios":"levelo://app?vid=d07e51c4-1801-453e-bc47-72fad552c79a"},"vehicle_type_id":"4","last_reported":1730377062,"current_range_meters":20800,"station_id":"ce4bgip2rcd13ifvqbb0","pricing_plan_id":"cebpf4jnsgd1na2vs0mg"},{"bike_id":"2b7ad954-2153-42d9-a62a-cf7d63fc6b0e","system_id":"levelo_inurba_marseille","lat":43.28411,"lon":5.34982,"is_reserved":false,"is_disabled":false,"rental_uris":{"android":"levelo://app?vid=2b7ad954-2153-42d9-a62a-cf7d63fc6b0e","ios":"levelo://app?vid=2b7ad954-2153-42d9-a62a-cf7d63fc6b0e"},"vehicle_type_id":"4","last_reported":1730377062,"current_range_meters":36400,"station_id":"ce4bhbh2rcd13ifvqepg","pricing_plan_id":"cebpf4jnsgd1na2vs0mg"},{"bike_id":"9e9467dc-08bd-4540-a622-7c942da68b8d","system_id":"levelo_inurba_marseille","lat":43.25576,"lon":5.38234,"is_reserved":false,"is_disabled":false,"rental_uris":{"android":"levelo://app?vid=9e9467dc-08bd-4540-a622-7c942da68b8d","ios":"levelo://app?vid=9e9467dc-08bd-4540-a622-7c942da68b8d"},"vehicle_type_id":"4","last_reported":1730377062,"current_range_meters":4400,"station_id":"ce4bhih2rcd13ifvqfs0","pricing_plan_id":"cebpf4jnsgd1na2vs0mg"},{"bike_id":"91ab86ec-081e-420a-bc11-75e3d405a074","system_id":"levelo_inurba_marseille","lat":43.2961,"lon":5.37705,"is_reserved":false,"is_disabled":false,"rental_uris":{"android":"levelo://app?vid=91ab86ec-081e-420a-bc11-75e3d405a074","ios":"levelo://app?vid=91ab86ec-081e-420a-bc11-75e3d405a074"},"vehicle_type_id":"4","last_reported":1730377062,"current_range_meters":30400,"station_id":"ce4bgi92rcd13ifvqb90","pricing_plan_id":"cebpf4jnsgd1na2vs0mg"},{"bike_id":"365a4305-5de4-47e5-9e89-03813707d1d2","system_id":"levelo_inurba_marseille","lat":43.30529,"lon":5.36537,"is_reserved":false,"is_disabled":false,"rental_uris":{"android":"levelo://app?vid=365a4305-5de4-47e5-9e89-03813707d1d2","ios":"levelo://app?vid=365a4305-5de4-47e5-9e89-03813707d1d2"},"vehicle_type_id":"4","last_reported":1730377062,"current_range_meters":30000,"station_id":"ce4bgs12rcd13ifvqcag","pricing_plan_id":"cebpf4jnsgd1na2vs0mg"},{"bike_id":"cfb603b4-16f7-4b71-b431-edb1115e6fb0","system_id":"levelo_inurba_marseille","lat":43.28849,"lon":5.39315,"is_reserved":false,"is_disabled":false,"rental_uris":{"android":"levelo://app?vid=cfb603b4-16f7-4b71-b431-edb1115e6fb0","ios":"levelo://app?vid=cfb603b4-16f7-4b71-b431-edb1115e6fb0"},"vehicle_type_id":"4","last_reported":1730377062,"current_range_meters":11200,"station_id":"ce4bh2p2rcd13ifvqdi0","pricing_plan_id":"cebpf4jnsgd1na2vs0mg"},{"bike_id":"0e6dd02c-46ea-478c-9dc6-e1b5bd3823e1","system_id":"levelo_inurba_marseille","lat":43.30136,"lon":5.37417,"is_reserved":false,"is_disabled":false,"rental_uris":{"android":"levelo://app?vid=0e6dd02c-46ea-478c-9dc6-e1b5bd3823e1","ios":"levelo://app?vid=0e6dd02c-46ea-478c-9dc6-e1b5bd3823e1"},"vehicle_type_id":"4","last_reported":1730377062,"current_range_meters":39200,"station_id":"ce4bgs92rcd13ifvqcc0","pricing_plan_id":"cebpf4jnsgd1na2vs0mg"},{"bike_id":"e3abf15a-e965-4e8f-98c0-dc5dc2a1b418","system_id":"levelo_inurba_marseille","lat":43.29521,"lon":5.39051,"is_reserved":false,"is_disabled":false,"rental_uris":{"android":"levelo://app?vid=e3abf15a-e965-4e8f-98c0-dc5dc2a1b418","ios":"levelo://app?vid=e3abf15a-e965-4e8f-98c0-dc5dc2a1b418"},"vehicle_type_id":"4","last_reported":1730377062,"current_range_meters":30400,"station_id":"ce4bh3p2rcd13ifvqdp0","pricing_plan_id":"cebpf4jnsgd1na2vs0mg"},{"bike_id":"33d7239f-73a3-4ee6-886d-d4f39be7304a","system_id":"levelo_inurba_marseille","lat":43.31814,"lon":5.3742,"is_reserved":false,"is_disabled":false,"rental_uris":{"android":"levelo://app?vid=33d7239f-73a3-4ee6-886d-d4f39be7304a","ios":"levelo://app?vid=33d7239f-73a3-4ee6-886d-d4f39be7304a"},"vehicle_type_id":"4","last_reported":1730377062,"current_range_meters":15200,"station_id":"","pricing_plan_id":"cebpf4jnsgd1na2vs0mg"},{"bike_id":"6458f80a-3c8d-4eb6-8402-b1835611bf55","system_id":"levelo_inurba_marseille","lat":43.292728,"lon":5.40154,"is_reserved":false,"is_disabled":false,"rental_uris":{"android":"levelo://app?vid=6458f80a-3c8d-4eb6-8402-b1835611bf55","ios":"levelo://app?vid=6458f80a-3c8d-4eb6-8402-b1835611bf55"},"vehicle_type_id":"4","last_reported":1730377062,"current_range_meters":28800,"station_id":"ce4bh312rcd13ifvqdk0","pricing_plan_id":"cebpf4jnsgd1na2vs0mg"},{"bike_id":"d2e0efbb-61ff-424a-9cde-183324d21273","system_id":"levelo_inurba_marseille","lat":43.23963,"lon":5.36627,"is_reserved":false,"is_disabled":false,"rental_uris":{"android":"levelo://app?vid=d2e0efbb-61ff-424a-9cde-183324d21273","ios":"levelo://app?vid=d2e0efbb-61ff-424a-9cde-183324d21273"},"vehicle_type_id":"4","last_reported":1730377062,"current_range_meters":39200,"station_id":"ce4bhi12rcd13ifvqfp0","pricing_plan_id":"cebpf4jnsgd1na2vs0mg"},{"bike_id":"73e9d24a-2fc7-40cb-a46d-ca1afd2daf32","system_id":"levelo_inurba_marseille","lat":43.26951,"lon":5.38629,"is_reserved":false,"is_disabled":false,"rental_uris":{"android":"levelo://app?vid=73e9d24a-2fc7-40cb-a46d-ca1afd2daf32","ios":"levelo://app?vid=73e9d24a-2fc7-40cb-a46d-ca1afd2daf32"},"vehicle_type_id":"4","last_reported":1730377062,"current_range_meters":12400,"station_id":"ce4bhh92rcd13ifvqfh0","pricing_plan_id":"cebpf4jnsgd1na2vs0mg"},{"bike_id":"4fdf5281-d838-4685-9ad2-8e2800666004","system_id":"levelo_inurba_marseille","lat":43.28078,"lon":5.39654,"is_reserved":false,"is_disabled":false,"rental_uris":{"android":"levelo://app?vid=4fdf5281-d838-4685-9ad2-8e2800666004","ios":"levelo://app?vid=4fdf5281-d838-4685-9ad2-8e2800666004"},"vehicle_type_id":"4","last_reported":1730377062,"current_range_meters":34000,"station_id":"ce4bho12rcd13ifvqh2g","pricing_plan_id":"cebpf4jnsgd1na2vs0mg"},{"bike_id":"3e68ff33-06ed-4f58-92d6-c7e8e60269c9","system_id":"levelo_inurba_marseille","lat":43.32485,"lon":5.36557,"is_reserved":false,"is_disabled":false,"rental_uris":{"android":"levelo://app?vid=3e68ff33-06ed-4f58-92d6-c7e8e60269c9","ios":"levelo://app?vid=3e68ff33-06ed-4f58-92d6-c7e8e60269c9"},"vehicle_type_id":"4","last_reported":1730377062,"current_range_meters":36400,"station_id":"ce4bhs12rcd13ifvqhvg","pricing_plan_id":"cebpf4jnsgd1na2vs0mg"},{"bike_id":"1cf37cb9-9930-4fc3-a6e7-086f8a6b5a14","system_id":"levelo_inurba_marseille","lat":43.23964,"lon":5.36628,"is_reserved":false,"is_disabled":false,"rental_uris":{"android":"levelo://app?vid=1cf37cb9-9930-4fc3-a6e7-086f8a6b5a14","ios":"levelo://app?vid=1cf37cb9-9930-4fc3-a6e7-086f8a6b5a14"},"vehicle_type_id":"4","last_reported":1730377062,"current_range_meters":16000,"station_id":"ce4bhi12rcd13ifvqfp0","pricing_plan_id":"cebpf4jnsgd1na2vs0mg"},{"bike_id":"0b8ed408-0c1d-4ce3-af8c-05c9a872ed51","system_id":"levelo_inurba_marseille","lat":43.24387,"lon":5.37061,"is_reserved":false,"is_disabled":false,"rental_uris":{"android":"levelo://app?vid=0b8ed408-0c1d-4ce3-af8c-05c9a872ed51","ios":"levelo://app?vid=0b8ed408-0c1d-4ce3-af8c-05c9a872ed51"},"vehicle_type_id":"4","last_reported":1730377062,"current_range_meters":31200,"station_id":"ce4bhhh2rcd13ifvqfk0","pricing_plan_id":"cebpf4jnsgd1na2vs0mg"},{"bike_id":"8fbee397-c726-4d42-ae6d-7e6a955a3eb5","system_id":"levelo_inurba_marseille","lat":43.23062,"lon":5.35491,"is_reserved":false,"is_disabled":false,"rental_uris":{"android":"levelo://app?vid=8fbee397-c726-4d42-ae6d-7e6a955a3eb5","ios":"levelo://app?vid=8fbee397-c726-4d42-ae6d-7e6a955a3eb5"},"vehicle_type_id":"4","last_reported":1730377062,"current_range_meters":37600,"station_id":"cpo3342slgdg3j2ifvpg","pricing_plan_id":"cebpf4jnsgd1na2vs0mg"},{"bike_id":"8855c05e-c3e6-4187-bcf8-5772f407112d","system_id":"levelo_inurba_marseille","lat":43.28447,"lon":5.39214,"is_reserved":false,"is_disabled":false,"rental_uris":{"android":"levelo://app?vid=8855c05e-c3e6-4187-bcf8-5772f407112d","ios":"levelo://app?vid=8855c05e-c3e6-4187-bcf8-5772f407112d"},"vehicle_type_id":"4","last_reported":1730377062,"current_range_meters":22800,"station_id":"ce4bhoh2rcd13ifvqh5g","pricing_plan_id":"cebpf4jnsgd1na2vs0mg"},{"bike_id":"8066948d-672b-45dc-9b0f-a5722155fa3b","system_id":"levelo_inurba_marseille","lat":43.2993,"lon":5.36519,"is_reserved":false,"is_disabled":false,"rental_uris":{"android":"levelo://app?vid=8066948d-672b-45dc-9b0f-a5722155fa3b","ios":"levelo://app?vid=8066948d-672b-45dc-9b0f-a5722155fa3b"},"vehicle_type_id":"4","last_reported":1730377062,"current_range_meters":38800,"station_id":"ce4bgm92rcd13ifvqbr0","pricing_plan_id":"cebpf4jnsgd1na2vs0mg"},{"bike_id":"fea23d88-9bbb-4ffa-af08-7b03ca37348f","system_id":"levelo_inurba_marseille","lat":43.23176,"lon":5.39995,"is_reserved":false,"is_disabled":false,"rental_uris":{"android":"levelo://app?vid=fea23d88-9bbb-4ffa-af08-7b03ca37348f","ios":"levelo://app?vid=fea23d88-9bbb-4ffa-af08-7b03ca37348f"},"vehicle_type_id":"4","last_reported":1730377062,"current_range_meters":26000,"station_id":"ce4bhn12rcd13ifvqgqg","pricing_plan_id":"cebpf4jnsgd1na2vs0mg"},{"bike_id":"02e39b18-963f-467b-8c5c-cef232d22c0c","system_id":"levelo_inurba_marseille","lat":43.30179,"lon":5.36605,"is_reserved":false,"is_disabled":false,"rental_uris":{"android":"levelo://app?vid=02e39b18-963f-467b-8c5c-cef232d22c0c","ios":"levelo://app?vid=02e39b18-963f-467b-8c5c-cef232d22c0c"},"vehicle_type_id":"4","last_reported":1730377062,"current_range_meters":30000,"station_id":"ce4bgrh2rcd13ifvqc8g","pricing_plan_id":"cebpf4jnsgd1na2vs0mg"},{"bike_id":"160c3125-d109-49e3-a687-ede78b99dea2","system_id":"levelo_inurba_marseille","lat":43.23185,"lon":5.35542,"is_reserved":false,"is_disabled":false,"rental_uris":{"android":"levelo://app?vid=160c3125-d109-49e3-a687-ede78b99dea2","ios":"levelo://app?vid=160c3125-d109-49e3-a687-ede78b99dea2"},"vehicle_type_id":"4","last_reported":1730377062,"current_range_meters":35600,"station_id":"ce4bhu92rcd13ifvqi70","pricing_plan_id":"cebpf4jnsgd1na2vs0mg"},{"bike_id":"4d39a4ad-5d1c-41ba-8a7a-d3bdf195353a","system_id":"levelo_inurba_marseille","lat":43.27058,"lon":5.40252,"is_reserved":false,"is_disabled":false,"rental_uris":{"android":"levelo://app?vid=4d39a4ad-5d1c-41ba-8a7a-d3bdf195353a","ios":"levelo://app?vid=4d39a4ad-5d1c-41ba-8a7a-d3bdf195353a"},"vehicle_type_id":"4","last_reported":1730377062,"current_range_meters":12800,"station_id":"ce4bhk92rcd13ifvqgc0","pricing_plan_id":"cebpf4jnsgd1na2vs0mg"},{"bike_id":"e2ac1d66-9650-433b-8652-92ad9ea4813c","system_id":"levelo_inurba_marseille","lat":43.31166,"lon":5.387,"is_reserved":false,"is_disabled":false,"rental_uris":{"android":"levelo://app?vid=e2ac1d66-9650-433b-8652-92ad9ea4813c","ios":"levelo://app?vid=e2ac1d66-9650-433b-8652-92ad9ea4813c"},"vehicle_type_id":"4","last_reported":1730377062,"current_range_meters":32400,"station_id":"ce4bgv12rcd13ifvqcp0","pricing_plan_id":"cebpf4jnsgd1na2vs0mg"},{"bike_id":"d462e240-aaf0-4260-9928-fd95b888a31f","system_id":"levelo_inurba_marseille","lat":43.283648,"lon":5.386311,"is_reserved":false,"is_disabled":false,"rental_uris":{"android":"levelo://app?vid=d462e240-aaf0-4260-9928-fd95b888a31f","ios":"levelo://app?vid=d462e240-aaf0-4260-9928-fd95b888a31f"},"vehicle_type_id":"4","last_reported":1730377062,"current_range_meters":32800,"station_id":"ce4bh492rcd13ifvqdvg","pricing_plan_id":"cebpf4jnsgd1na2vs0mg"},{"bike_id":"de676a33-49f3-48b2-9289-2bc4945021ec","system_id":"levelo_inurba_marseille","lat":43.32658,"lon":5.40977,"is_reserved":false,"is_disabled":false,"rental_uris":{"android":"levelo://app?vid=de676a33-49f3-48b2-9289-2bc4945021ec","ios":"levelo://app?vid=de676a33-49f3-48b2-9289-2bc4945021ec"},"vehicle_type_id":"4","last_reported":1730377062,"current_range_meters":34000,"station_id":"ce4bhpp2rcd13ifvqhgg","pricing_plan_id":"cebpf4jnsgd1na2vs0mg"},{"bike_id":"4fa8b85a-775a-4451-b242-ad0dd1de7ba0","system_id":"levelo_inurba_marseille","lat":43.2815,"lon":5.42639,"is_reserved":false,"is_disabled":false,"rental_uris":{"android":"levelo://app?vid=4fa8b85a-775a-4451-b242-ad0dd1de7ba0","ios":"levelo://app?vid=4fa8b85a-775a-4451-b242-ad0dd1de7ba0"},"vehicle_type_id":"4","last_reported":1730377062,"current_range_meters":27600,"station_id":"ce4bhnh2rcd13ifvqgug","pricing_plan_id":"cebpf4jnsgd1na2vs0mg"},{"bike_id":"3dd8cf99-aebc-4be1-b0dc-8f1455c54275","system_id":"levelo_inurba_marseille","lat":43.30533,"lon":5.36553,"is_reserved":false,"is_disabled":false,"rental_uris":{"android":"levelo://app?vid=3dd8cf99-aebc-4be1-b0dc-8f1455c54275","ios":"levelo://app?vid=3dd8cf99-aebc-4be1-b0dc-8f1455c54275"},"vehicle_type_id":"4","last_reported":1730377062,"current_range_meters":16400,"station_id":"ce4bgs12rcd13ifvqcag","pricing_plan_id":"cebpf4jnsgd1na2vs0mg"},{"bike_id":"75b0b16b-d187-4cd2-8e35-6a8f921f7605","system_id":"levelo_inurba_marseille","lat":43.29368,"lon":5.37846,"is_reserved":false,"is_disabled":false,"rental_uris":{"android":"levelo://app?vid=75b0b16b-d187-4cd2-8e35-6a8f921f7605","ios":"levelo://app?vid=75b0b16b-d187-4cd2-8e35-6a8f921f7605"},"vehicle_type_id":"4","last_reported":1730377062,"current_range_meters":30800,"station_id":"ce4bgjh2rcd13ifvqbf0","pricing_plan_id":"cebpf4jnsgd1na2vs0mg"},{"bike_id":"f2af66c0-1048-4d56-a95a-f33eb8704251","system_id":"levelo_inurba_marseille","lat":43.30792,"lon":5.38166,"is_reserved":false,"is_disabled":false,"rental_uris":{"android":"levelo://app?vid=f2af66c0-1048-4d56-a95a-f33eb8704251","ios":"levelo://app?vid=f2af66c0-1048-4d56-a95a-f33eb8704251"},"vehicle_type_id":"4","last_reported":1730377062,"current_range_meters":20800,"station_id":"","pricing_plan_id":"cebpf4jnsgd1na2vs0mg"},{"bike_id":"7c763de4-e7ce-4040-b15f-5fc817fb3972","system_id":"levelo_inurba_marseille","lat":43.26804,"lon":5.4027,"is_reserved":false,"is_disabled":false,"rental_uris":{"android":"levelo://app?vid=7c763de4-e7ce-4040-b15f-5fc817fb3972","ios":"levelo://app?vid=7c763de4-e7ce-4040-b15f-5fc817fb3972"},"vehicle_type_id":"4","last_reported":1730377062,"current_range_meters":39200,"station_id":"ce501612rcd8frsf0b60","pricing_plan_id":"cebpf4jnsgd1na2vs0mg"},{"bike_id":"59c14d9b-4823-424d-8c3d-75071815bf43","system_id":"levelo_inurba_marseille","lat":43.24386,"lon":5.37052,"is_reserved":false,"is_disabled":false,"rental_uris":{"android":"levelo://app?vid=59c14d9b-4823-424d-8c3d-75071815bf43","ios":"levelo://app?vid=59c14d9b-4823-424d-8c3d-75071815bf43"},"vehicle_type_id":"4","last_reported":1730377062,"current_range_meters":17600,"station_id":"ce4bhhh2rcd13ifvqfk0","pricing_plan_id":"cebpf4jnsgd1na2vs0mg"},{"bike_id":"5117c6bc-c17f-4e5a-9ba8-4894fe7bd438","system_id":"levelo_inurba_marseille","lat":43.24658,"lon":5.38157,"is_reserved":false,"is_disabled":false,"rental_uris":{"android":"levelo://app?vid=5117c6bc-c17f-4e5a-9ba8-4894fe7bd438","ios":"levelo://app?vid=5117c6bc-c17f-4e5a-9ba8-4894fe7bd438"},"vehicle_type_id":"4","last_reported":1730377062,"current_range_meters":35200,"station_id":"ce4bhih2rcd13ifvqfr0","pricing_plan_id":"cebpf4jnsgd1na2vs0mg"},{"bike_id":"a5479bdb-5353-4424-ba7d-c18a19a75155","system_id":"levelo_inurba_marseille","lat":43.25935,"lon":5.40902,"is_reserved":false,"is_disabled":false,"rental_uris":{"android":"levelo://app?vid=a5479bdb-5353-4424-ba7d-c18a19a75155","ios":"levelo://app?vid=a5479bdb-5353-4424-ba7d-c18a19a75155"},"vehicle_type_id":"4","last_reported":1730377062,"current_range_meters":30800,"station_id":"ce4bhm92rcd13ifvqglg","pricing_plan_id":"cebpf4jnsgd1na2vs0mg"},{"bike_id":"8606bb86-6a1d-467a-b5d0-7fe208a7701a","system_id":"levelo_inurba_marseille","lat":43.30594,"lon":5.39355,"is_reserved":false,"is_disabled":false,"rental_uris":{"android":"levelo://app?vid=8606bb86-6a1d-467a-b5d0-7fe208a7701a","ios":"levelo://app?vid=8606bb86-6a1d-467a-b5d0-7fe208a7701a"},"vehicle_type_id":"4","last_reported":1730377062,"current_range_meters":38000,"station_id":"ce4bh0p2rcd13ifvqd80","pricing_plan_id":"cebpf4jnsgd1na2vs0mg"},{"bike_id":"aeaab20f-d580-46f9-b771-cdfa3192d1a2","system_id":"levelo_inurba_marseille","lat":43.30181,"lon":5.36617,"is_reserved":false,"is_disabled":false,"rental_uris":{"android":"levelo://app?vid=aeaab20f-d580-46f9-b771-cdfa3192d1a2","ios":"levelo://app?vid=aeaab20f-d580-46f9-b771-cdfa3192d1a2"},"vehicle_type_id":"4","last_reported":1730377062,"current_range_meters":38800,"station_id":"ce4bgrh2rcd13ifvqc8g","pricing_plan_id":"cebpf4jnsgd1na2vs0mg"},{"bike_id":"e8293b4e-059a-4396-9bed-846c599622d5","system_id":"levelo_inurba_marseille","lat":43.27163,"lon":5.40981,"is_reserved":false,"is_disabled":false,"rental_uris":{"android":"levelo://app?vid=e8293b4e-059a-4396-9bed-846c599622d5","ios":"levelo://app?vid=e8293b4e-059a-4396-9bed-846c599622d5"},"vehicle_type_id":"4","last_reported":1730377062,"current_range_meters":39200,"station_id":"ce4bhl12rcd13ifvqgf0","pricing_plan_id":"cebpf4jnsgd1na2vs0mg"},{"bike_id":"b2676636-0873-4e47-ac17-f5e4f7c2e2c8","system_id":"levelo_inurba_marseille","lat":43.27934,"lon":5.41048,"is_reserved":false,"is_disabled":false,"rental_uris":{"android":"levelo://app?vid=b2676636-0873-4e47-ac17-f5e4f7c2e2c8","ios":"levelo://app?vid=b2676636-0873-4e47-ac17-f5e4f7c2e2c8"},"vehicle_type_id":"4","last_reported":1730377062,"current_range_meters":28000,"station_id":"ce4bhnp2rcd13ifvqh0g","pricing_plan_id":"cebpf4jnsgd1na2vs0mg"},{"bike_id":"0e74805e-97ff-4990-a94d-8b9e488cb48d","system_id":"levelo_inurba_marseille","lat":43.23147,"lon":5.43721,"is_reserved":false,"is_disabled":false,"rental_uris":{"android":"levelo://app?vid=0e74805e-97ff-4990-a94d-8b9e488cb48d","ios":"levelo://app?vid=0e74805e-97ff-4990-a94d-8b9e488cb48d"},"vehicle_type_id":"4","last_reported":1730377062,"current_range_meters":16000,"station_id":"ce4bhmp2rcd13ifvqgog","pricing_plan_id":"cebpf4jnsgd1na2vs0mg"},{"bike_id":"1f891675-16b0-4a24-aaa3-e59260de9b4e","system_id":"levelo_inurba_marseille","lat":43.2593,"lon":5.40907,"is_reserved":false,"is_disabled":false,"rental_uris":{"android":"levelo://app?vid=1f891675-16b0-4a24-aaa3-e59260de9b4e","ios":"levelo://app?vid=1f891675-16b0-4a24-aaa3-e59260de9b4e"},"vehicle_type_id":"4","last_reported":1730377062,"current_range_meters":32400,"station_id":"ce4bhm92rcd13ifvqglg","pricing_plan_id":"cebpf4jnsgd1na2vs0mg"},{"bike_id":"e3015adc-66bc-4d3d-ba28-84e499260fd3","system_id":"levelo_inurba_marseille","lat":43.31369,"lon":5.36699,"is_reserved":false,"is_disabled":false,"rental_uris":{"android":"levelo://app?vid=e3015adc-66bc-4d3d-ba28-84e499260fd3","ios":"levelo://app?vid=e3015adc-66bc-4d3d-ba28-84e499260fd3"},"vehicle_type_id":"4","last_reported":1730377062,"current_range_meters":16800,"station_id":"ce4bgr92rcd13ifvqc6g","pricing_plan_id":"cebpf4jnsgd1na2vs0mg"},{"bike_id":"56d34997-1793-4eaa-a2e2-9cf806058d6e","system_id":"levelo_inurba_marseille","lat":43.28255,"lon":5.35067,"is_reserved":false,"is_disabled":false,"rental_uris":{"android":"levelo://app?vid=56d34997-1793-4eaa-a2e2-9cf806058d6e","ios":"levelo://app?vid=56d34997-1793-4eaa-a2e2-9cf806058d6e"},"vehicle_type_id":"4","last_reported":1730377062,"current_range_meters":18000,"station_id":"ce4bhbp2rcd13ifvqerg","pricing_plan_id":"cebpf4jnsgd1na2vs0mg"},{"bike_id":"2e679aa2-6222-4666-94d2-8febbbac34cf","system_id":"levelo_inurba_marseille","lat":43.28939,"lon":5.4807,"is_reserved":false,"is_disabled":false,"rental_uris":{"android":"levelo://app?vid=2e679aa2-6222-4666-94d2-8febbbac34cf","ios":"levelo://app?vid=2e679aa2-6222-4666-94d2-8febbbac34cf"},"vehicle_type_id":"4","last_reported":1730377062,"current_range_meters":12000,"station_id":"ce4bgvp2rcd13ifvqct0","pricing_plan_id":"cebpf4jnsgd1na2vs0mg"},{"bike_id":"eef61b0c-488d-46cf-aed3-8d59211de018","system_id":"levelo_inurba_marseille","lat":43.27424,"lon":5.39422,"is_reserved":false,"is_disabled":false,"rental_uris":{"android":"levelo://app?vid=eef61b0c-488d-46cf-aed3-8d59211de018","ios":"levelo://app?vid=eef61b0c-488d-46cf-aed3-8d59211de018"},"vehicle_type_id":"4","last_reported":1730377062,"current_range_meters":37600,"station_id":"ce4bhdp2rcd13ifvqf20","pricing_plan_id":"cebpf4jnsgd1na2vs0mg"},