{"last_updated":1750072200,"ttl":60,"version":"2.2","data":{"bikes":[{"bike_id":"b31f0139-170f-4194-984f-4386218a1e9d","system_id":"levelo_inurba_marseille","lat":43.33771,"lon":5.37424,"is_reserved":false,"is_disabled":true,"rental_uris":{"android":"levelo://app?vid=b31f0139-170f-4194-984f-4386218a1e9d","ios":"levelo://app?vid=b31f0139-170f-4194-984f-4386218a1e9d"},"vehicle_type_id":"4","last_reported":1750072200,"current_range_meters":0,"station_id":"","pricing_plan_id":"cebpf4jnsgd1na2vs0mg"},{"bike_id":"1acfb620-cad7-48c0-8901-d7a5b74a5b65","system_id":"levelo_inurba_marseille","lat":43.33751,"lon":5.37456,"is_reserved":false,"is_disabled":true,"rental_uris":{"android":"levelo://app?vid=1acfb620-cad7-48c0-8901-d7a5b74a5b65","ios":"levelo://app?vid=1acfb620-cad7-48c0-8901-d7a5b74a5b65"},"vehicle_type_id":"4","last_reported":1750072200,"current_range_meters":0,"station_id":"","pricing_plan_id":"cebpf4jnsgd1na2vs0mg"},{"bike_id":"bf89d78c-eb96-40d5-beb0-f402ef102cc1","system_id":"levelo_inurba_marseille","lat":43.337444,"lon":5.374475,"is_reserved":false,"is_disabled":true,"rental_uris":{"android":"levelo://app?vid=bf89d78c-eb96-40d5-beb0-f402ef102cc1","ios":"levelo://app?vid=bf89d78c-eb96-40d5-beb0-f402ef102cc1"},"vehicle_type_id":"4","last_reported":1750072200,"current_range_meters":0,"station_id":"","pricing_plan_id":"cebpf4jnsgd1na2vs0mg"},{"bike_id":"5077581b-cebb-46fc-ba69-4fa8272d4810","system_id":"levelo_inurba_marseille","lat":43.21362,"lon":5.35522,"is_reserved":false,"is_disabled":true,"rental_uris":{"android":"levelo://app?vid=5077581b-cebb-46fc-ba69-4fa8272d4810","ios":"levelo://app?vid=5077581b-cebb-46fc-ba69-4fa8272d4810"},"vehicle_type_id":"4","last_reported":1750072200,"current_range_meters":0,"station_id":"","pricing_plan_id":"cebpf4jnsgd1na2vs0mg"},{"bike_id":"a1346609-67e9-47ae-8884-6922a9bee71c","system_id":"levelo_inurba_marseille","lat":43.26382,"lon":5.42331,"is_reserved":false,"is_disabled":true,"rental_uris":{"android":"levelo://app?vid=a1346609-67e9-47ae-8884-6922a9bee71c","ios":"levelo://app?vid=a1346609-67e9-47ae-8884-6922a9bee71c"},"vehicle_type_id":"4","last_reported":1750072200,"current_range_meters":0,"station_id":"","pricing_plan_id":"cebpf4jnsgd1na2vs0mg"},{"bike_id":"0084bbd7-8a64-49e3-aecc-4e8ead3b036a","system_id":"levelo_inurba_marseille","lat":43.24631,"lon":5.43262,"is_reserved":false,"is_disabled":true,"rental_uris":{"android":"levelo://app?vid=0084bbd7-8a64-49e3-aecc-4e8ead3b036a","ios":"levelo://app?vid=0084bbd7-8a64-49e3-aecc-4e8ead3b036a"},"vehicle_type_id":"4","last_reported":1750072200,"current_range_meters":0,"station_id":"","pricing_plan_id":"cebpf4jnsgd1na2vs0mg"},{"bike_id":"ebf89cec-3e1a-4275-9cd0-a3d19d69b5cf","system_id":"levelo_inurba_marseille","lat":43.279764,"lon":5.384806,"is_reserved":false,"is_disabled":true,"rental_uris":{"android":"levelo://app?vid=ebf89cec-3e1a-4275-9cd0-a3d19d69b5cf","ios":"levelo://app?vid=ebf89cec-3e1a-4275-9cd0-a3d19d69b5cf"},"vehicle_type_id":"4","last_reported":1750072200,"current_range_meters":0,"station_id":"","pricing_plan_id":"cebpf4jnsgd1na2vs0mg"},{"bike_id":"8d5b13ba-4ed3-4fe0-9cf9-1b79b6e1ad00","system_id":"levelo_inurba_marseille","lat":43.26052,"lon":5.38735,"is_reserved":false,"is_disabled":true,"rental_uris":{"android":"levelo://app?vid=8d5b13ba-4ed3-4fe0-9cf9-1b79b6e1ad00","ios":"levelo://app?vid=8d5b13ba-4ed3-4fe0-9cf9-1b79b6e1ad00"},"vehicle_type_id":"4","last_reported":1750072200,"current_range_meters":0,"station_id":"","pricing_plan_id":"cebpf4jnsgd1na2vs0mg"},{"bike_id":"8d60347d-541c-40fb-90ca-203bf6bd520a","system_id":"levelo_inurba_marseille","lat":43.27125,"lon":5.363959,"is_reserved":false,"is_disabled":true,"rental_uris":{"android":"levelo://app?vid=8d60347d-541c-40fb-90ca-203bf6bd520a","ios":"levelo://app?vid=8d60347d-541c-40fb-90ca-203bf6bd520a"},"vehicle_type_id":"4","last_reported":1750072200,"current_range_meters":0,"station_id":"","pricing_plan_id":"cebpf4jnsgd1na2vs0mg"},{"bike_id":"98afa141-26c5-45c8-a0a6-15fd54ac73ab","system_id":"levelo_inurba_marseille","lat":43.21528,"lon":5.34736,"is_reserved":false,"is_disabled":true,"rental_uris":{"android":"levelo://app?vid=98afa141-26c5-45c8-a0a6-15fd54ac73ab","ios":"levelo://app?vid=98afa141-26c5-45c8-a0a6-15fd54ac73ab"},"vehicle_type_id":"4","last_reported":1750072200,"current_range_meters":0,"station_id":"","pricing_plan_id":"cebpf4jnsgd1na2vs0mg"},{"bike_id":"492f4bbd-1190-4ef2-b66a-479ffe91b09b","system_id":"levelo_inurba_marseille","lat":43.337444,"lon":5.374475,"is_reserved":false,"is_disabled":true,"rental_uris":{"android":"levelo://app?vid=492f4bbd-1190-4ef2-b66a-479ffe91b09b","ios":"levelo://app?vid=492f4bbd-1190-4ef2-b66a-479ffe91b09b"},"vehicle_type_id":"4","last_reported":1750072200,"current_range_meters":0,"station_id":"","pricing_plan_id":"cebpf4jnsgd1na2vs0mg"},{"bike_id":"3ae2542c-ab15-4c97-ba4a-467b6d2ef6d6","system_id":"levelo_inurba_marseille","lat":43.2616,"lon":5.388145,"is_reserved":false,"is_disabled":true,"rental_uris":{"android":"levelo://app?vid=3ae2542c-ab15-4c97-ba4a-467b6d2ef6d6","ios":"levelo://app?vid=3ae2542c-ab15-4c97-ba4a-467b6d2ef6d6"},"vehicle_type_id":"4","last_reported":1750072200,"current_range_meters":0,"station_id":"","pricing_plan_id":"cebpf4jnsgd1na2vs0mg"},{"bike_id":"6d95b2b6-9cc4-401a-8622-dc20acc8ee9b","system_id":"levelo_inurba_marseille","lat":43.29636,"lon":5.40594,"is_reserved":false,"is_disabled":true,"rental_uris":{"android":"levelo://app?vid=6d95b2b6-9cc4-401a-8622-dc20acc8ee9b","ios":"levelo://app?vid=6d95b2b6-9cc4-401a-8622-dc20acc8ee9b"},"vehicle_type_id":"4","last_reported":1750072200,"current_range_meters":0,"station_id":"ce4bh0h2rcd13ifvqd60","pricing_plan_id":"cebpf4jnsgd1na2vs0mg"},{"bike_id":"69761c75-ffdf-4670-bad7-14dd82736970","system_id":"levelo_inurba_marseille","lat":43.29301,"lon":5.36858,"is_reserved":false,"is_disabled":true,"rental_uris":{"android":"levelo://app?vid=69761c75-ffdf-4670-bad7-14dd82736970","ios":"levelo://app?vid=69761c75-ffdf-4670-bad7-14dd82736970"},"vehicle_type_id":"4","last_reported":1750072200,"current_range_meters":0,"station_id":"ce4bhbp2rcd13ifvqesg","pricing_plan_id":"cebpf4jnsgd1na2vs0mg"},{"bike_id":"2078c0c9-3606-4ae2-a19e-bbbd44327bce","system_id":"levelo_inurba_marseille","lat":43.27057,"lon":5.40257,"is_reserved":false,"is_disabled":true,"rental_uris":{"android":"levelo://app?vid=2078c0c9-3606-4ae2-a19e-bbbd44327bce","ios":"levelo://app?vid=2078c0c9-3606-4ae2-a19e-bbbd44327bce"},"vehicle_type_id":"4","last_reported":1750072200,"current_range_meters":0,"station_id":"ce4bhk92rcd13ifvqgc0","pricing_plan_id":"cebpf4jnsgd1na2vs0mg"},{"bike_id":"1a053efc-6835-4fe3-8b2d-e42486c2efbb","system_id":"levelo_inurba_marseille","lat":43.23171,"lon":5.43714,"is_reserved":false,"is_disabled":true,"rental_uris":{"android":"levelo://app?vid=1a053efc-6835-4fe3-8b2d-e42486c2efbb","ios":"levelo://app?vid=1a053efc-6835-4fe3-8b2d-e42486c2efbb"},"vehicle_type_id":"4","last_reported":1750072200,"current_range_meters":0,"station_id":"ce4bhmp2rcd13ifvqgog","pricing_plan_id":"cebpf4jnsgd1na2vs0mg"},{"bike_id":"2ff69961-ee9e-4db4-bb75-87fcaa6676a7","system_id":"levelo_inurba_marseille","lat":43.286101,"lon":5.370705,"is_reserved":false,"is_disabled":true,"rental_uris":{"android":"levelo://app?vid=2ff69961-ee9e-4db4-bb75-87fcaa6676a7","ios":"levelo://app?vid=2ff69961-ee9e-4db4-bb75-87fcaa6676a7"},"vehicle_type_id":"4","last_reported":1750072200,"current_range_meters":0,"station_id":"ce4bht12rcd13ifvqi60","pricing_plan_id":"cebpf4jnsgd1na2vs0mg"},{"bike_id":"0dee14fc-df47-4e09-8436-07dde73132a3","system_id":"levelo_inurba_marseille","lat":43.23194,"lon":5.35566,"is_reserved":false,"is_disabled":true,"rental_uris":{"android":"levelo://app?vid=0dee14fc-df47-4e09-8436-07dde73132a3","ios":"levelo://app?vid=0dee14fc-df47-4e09-8436-07dde73132a3"},"vehicle_type_id":"4","last_reported":1750072200,"current_range_meters":0,"station_id":"ce4bhu92rcd13ifvqi70","pricing_plan_id":"cebpf4jnsgd1na2vs0mg"},{"bike_id":"6a8d53e0-cc9c-435f-b4ad-a913fcfe1fea","system_id":"levelo_inurba_marseille","lat":43.269507,"lon":5.402675,"is_reserved":false,"is_disabled":true,"rental_uris":{"android":"levelo://app?vid=6a8d53e0-cc9c-435f-b4ad-a913fcfe1fea","ios":"levelo://app?vid=6a8d53e0-cc9c-435f-b4ad-a913fcfe1fea"},"vehicle_type_id":"4","last_reported":1750072200,"current_range_meters":0,"station_id":"cjm6bp8fraef2m0cb0m0","pricing_plan_id":"cebpf4jnsgd1na2vs0mg"},{"bike_id":"2ab31527-f915-4286-b3a0-0beafd2cdd50","system_id":"levelo_inurba_marseille","lat":43.30025,"lon":5.37,"is_reserved":false,"is_disabled":true,"rental_uris":{"android":"levelo://app?vid=2ab31527-f915-4286-b3a0-0beafd2cdd50","ios":"levelo://app?vid=2ab31527-f915-4286-b3a0-0beafd2cdd50"},"vehicle_type_id":"4","last_reported":1750072200,"current_range_meters":400,"station_id":"","pricing_plan_id":"cebpf4jnsgd1na2vs0mg"},{"bike_id":"b2a9f3d3-e9b0-47d4-908c-88b6fb21205f","system_id":"levelo_inurba_marseille","lat":43.27231,"lon":5.36286,"is_reserved":false,"is_disabled":true,"rental_uris":{"android":"levelo://app?vid=b2a9f3d3-e9b0-47d4-908c-88b6fb21205f","ios":"levelo://app?vid=b2a9f3d3-e9b0-47d4-908c-88b6fb21205f"},"vehicle_type_id":"4","last_reported":1750072200,"current_range_meters":400,"station_id":"","pricing_plan_id":"cebpf4jnsgd1na2vs0mg"},{"bike_id":"70695719-d19e-404f-b4b9-c10751a4193b","system_id":"levelo_inurba_marseille","lat":43.272127,"lon":5.391917,"is_reserved":false,"is_disabled":true,"rental_uris":{"android":"levelo://app?vid=70695719-d19e-404f-b4b9-c10751a4193b","ios":"levelo://app?vid=70695719-d19e-404f-b4b9-c10751a4193b"},"vehicle_type_id":"4","last_reported":1750072200,"current_range_meters":800,"station_id":"ce4bhhp2rcd13ifvqfm0","pricing_plan_id":"cebpf4jnsgd1na2vs0mg"},{"bike_id":"e54e9436-f63e-4855-86fd-3882e1991a9c","system_id":"levelo_inurba_marseille","lat":43.30934,"lon":5.40112,"is_reserved":false,"is_disabled":true,"rental_uris":{"android":"levelo://app?vid=e54e9436-f63e-4855-86fd-3882e1991a9c","ios":"levelo://app?vid=e54e9436-f63e-4855-86fd-3882e1991a9c"},"vehicle_type_id":"4","last_reported":1750072200,"current_range_meters":1200,"station_id":"ce4bgvp2rcd13ifvqct0","pricing_plan_id":"cebpf4jnsgd1na2vs0mg"},{"bike_id":"2108fa8d-5ca7-4960-beae-785ca4166cb0","system_id":"levelo_inurba_marseille","lat":43.27324,"lon":5.39085,"is_reserved":false,"is_disabled":true,"rental_uris":{"android":"levelo://app?vid=2108fa8d-5ca7-4960-beae-785ca4166cb0","ios":"levelo://app?vid=2108fa8d-5ca7-4960-beae-785ca4166cb0"},"vehicle_type_id":"4","last_reported":1750072200,"current_range_meters":1200,"station_id":"ce4bhgp2rcd13ifvqfe0","pricing_plan_id":"cebpf4jnsgd1na2vs0mg"},{"bike_id":"68d07a63-293f-4a45-9c32-d1254441174b","system_id":"levelo_inurba_marseille","lat":43.305913,"lon":5.393626,"is_reserved":false,"is_disabled":true,"rental_uris":{"android":"levelo://app?vid=68d07a63-293f-4a45-9c32-d1254441174b","ios":"levelo://app?vid=68d07a63-293f-4a45-9c32-d1254441174b"},"vehicle_type_id":"4","last_reported":1750072200,"current_range_meters":1600,"station_id":"ce4bh0p2rcd13ifvqd80","pricing_plan_id":"cebpf4jnsgd1na2vs0mg"},{"bike_id":"49d5da24-d3b6-450b-bcfd-5c43765b5024","system_id":"levelo_inurba_marseille","lat":43.336023,"lon":5.410263,"is_reserved":false,"is_disabled":true,"rental_uris":{"android":"levelo://app?vid=49d5da24-d3b6-450b-bcfd-5c43765b5024","ios":"levelo://app?vid=49d5da24-d3b6-450b-bcfd-5c43765b5024"},"vehicle_type_id":"4","last_reported":1750072200,"current_range_meters":1600,"station_id":"ce4bhqh2rcd13ifvqhmg","pricing_plan_id":"cebpf4jnsgd1na2vs0mg"},{"bike_id":"57770f92-f6f1-46ea-870c-05055e9aaac9","system_id":"levelo_inurba_marseille","lat":43.30363,"lon":5.41879,"is_reserved":false,"is_disabled":true,"rental_uris":{"android":"levelo://app?vid=57770f92-f6f1-46ea-870c-05055e9aaac9","ios":"levelo://app?vid=57770f92-f6f1-46ea-870c-05055e9aaac9"},"vehicle_type_id":"4","last_reported":1750072200,"current_range_meters":2000,"station_id":"ce4bhop2rcd13ifvqh7g","pricing_plan_id":"cebpf4jnsgd1na2vs0mg"},{"bike_id":"290bd8d7-8f45-4838-8882-a235ca12c28f","system_id":"levelo_inurba_marseille","lat":43.29537,"lon":5.3939,"is_reserved":false,"is_disabled":false,"rental_uris":{"android":"levelo://app?vid=290bd8d7-8f45-4838-8882-a235ca12c28f","ios":"levelo://app?vid=290bd8d7-8f45-4838-8882-a235ca12c28f"},"vehicle_type_id":"4","last_reported":1750072200,"current_range_meters":2800,"station_id":"ce4bh292rcd13ifvqdf0","pricing_plan_id":"cebpf4jnsgd1na2vs0mg"},{"bike_id":"21cf423b-7145-4476-96ac-756bfa0e22bc","system_id":"levelo_inurba_marseille","lat":43.28273,"lon":5.37262,"is_reserved":false,"is_disabled":false,"rental_uris":{"android":"levelo://app?vid=21cf423b-7145-4476-96ac-756bfa0e22bc","ios":"levelo://app?vid=21cf423b-7145-4476-96ac-756bfa0e22bc"},"vehicle_type_id":"4","last_reported":1750072200,"current_range_meters":3200,"station_id":"","pricing_plan_id":"cebpf4jnsgd1na2vs0mg"},{"bike_id":"cf3639e4-d3c5-4885-8175-2ad6c34d41a5","system_id":"levelo_inurba_marseille","lat":43.27224,"lon":5.39179,"is_reserved":false,"is_disabled":false,"rental_uris":{"android":"levelo://app?vid=cf3639e4-d3c5-4885-8175-2ad6c34d41a5","ios":"levelo://app?vid=cf3639e4-d3c5-4885-8175-2ad6c34d41a5"},"vehicle_type_id":"4","last_reported":1750072200,"current_range_meters":3200,"station_id":"ce4bhhp2rcd13ifvqfm0","pricing_plan_id":"cebpf4jnsgd1na2vs0mg"},{"bike_id":"68119f1d-5df1-4e72-96db-7afe48d67c14","system_id":"levelo_inurba_marseille","lat":43.30537,"lon":5.36561,"is_reserved":false,"is_disabled":false,"rental_uris":{"android":"levelo://app?vid=68119f1d-5df1-4e72-96db-7afe48d67c14","ios":"levelo://app?vid=68119f1d-5df1-4e72-96db-7afe48d67c14"},"vehicle_type_id":"4","last_reported":1750072200,"current_range_meters":3600,"station_id":"ce4bgs12rcd13ifvqcag","pricing_plan_id":"cebpf4jnsgd1na2vs0mg"},{"bike_id":"6940bfa1-c026-456b-98ca-2b03f4e2c2d9","system_id":"levelo_inurba_marseille","lat":43.28617,"lon":5.35105,"is_reserved":false,"is_disabled":false,"rental_uris":{"android":"levelo://app?vid=6940bfa1-c026-456b-98ca-2b03f4e2c2d9","ios":"levelo://app?vid=6940bfa1-c026-456b-98ca-2b03f4e2c2d9"},"vehicle_type_id":"4","last_reported":1750072200,"current_range_meters":4000,"station_id":"ce4bhch2rcd13ifvqeug","pricing_plan_id":"cebpf4jnsgd1na2vs0mg"},{"bike_id":"4f316251-87a9-4e14-91c2-5a891009e4e6","system_id":"levelo_inurba_marseille","lat":43.29848,"lon":5.36271,"is_reserved":false,"is_disabled":false,"rental_uris":{"android":"levelo://app?vid=4f316251-87a9-4e14-91c2-5a891009e4e6","ios":"levelo://app?vid=4f316251-87a9-4e14-91c2-5a891009e4e6"},"vehicle_type_id":"4","last_reported":1750072200,"current_range_meters":4400,"station_id":"ce4bgpp2rcd13ifvqc3g","pricing_plan_id":"cebpf4jnsgd1na2vs0mg"},{"bike_id":"5df394f8-20c3-47e1-b8e2-29af3e64fbbf","system_id":"levelo_inurba_marseille","lat":43.29047,"lon":5.39967,"is_reserved":false,"is_disabled":false,"rental_uris":{"android":"levelo://app?vid=5df394f8-20c3-47e1-b8e2-29af3e64fbbf","ios":"levelo://app?vid=5df394f8-20c3-47e1-b8e2-29af3e64fbbf"},"vehicle_type_id":"4","last_reported":1750072200,"current_range_meters":4800,"station_id":"ce4bh392rcd13ifvqdm0","pricing_plan_id":"cebpf4jnsgd1na2vs0mg"},{"bike_id":"8927e947-73ad-4ec2-ac9f-2389fb7ffe0b","system_id":"levelo_inurba_marseille","lat":43.30139,"lon":5.38059,"is_reserved":false,"is_disabled":false,"rental_uris":{"android":"levelo://app?vid=8927e947-73ad-4ec2-ac9f-2389fb7ffe0b","ios":"levelo://app?vid=8927e947-73ad-4ec2-ac9f-2389fb7ffe0b"},"vehicle_type_id":"4","last_reported":1750072200,"current_range_meters":5600,"station_id":"ce4bgjp2rcd13ifvqbh0","pricing_plan_id":"cebpf4jnsgd1na2vs0mg"},{"bike_id":"d03de44e-2e23-4431-b754-67bc231ba8de","system_id":"levelo_inurba_marseille","lat":43.30117,"lon":5.39838,"is_reserved":false,"is_disabled":false,"rental_uris":{"android":"levelo://app?vid=d03de44e-2e23-4431-b754-67bc231ba8de","ios":"levelo://app?vid=d03de44e-2e23-4431-b754-67bc231ba8de"},"vehicle_type_id":"4","last_reported":1750072200,"current_range_meters":5600,"station_id":"ce4bh0h2rcd13ifvqd40","pricing_plan_id":"cebpf4jnsgd1na2vs0mg"},{"bike_id":"4362039b-e843-497b-b43a-39fa9fb38eca","system_id":"levelo_inurba_marseille","lat":43.266907,"lon":5.382633,"is_reserved":false,"is_disabled":false,"rental_uris":{"android":"levelo://app?vid=4362039b-e843-497b-b43a-39fa9fb38eca","ios":"levelo://app?vid=4362039b-e843-497b-b43a-39fa9fb38eca"},"vehicle_type_id":"4","last_reported":1750072200,"current_range_meters":5600,"station_id":"ce4bhg92rcd13ifvqf90","pricing_plan_id":"cebpf4jnsgd1na2vs0mg"},{"bike_id":"6d8d7b3d-80ae-47f0-93c2-0aa88d8f30db","system_id":"levelo_inurba_marseille","lat":43.31497,"lon":5.37303,"is_reserved":false,"is_disabled":false,"rental_uris":{"android":"levelo://app?vid=6d8d7b3d-80ae-47f0-93c2-0aa88d8f30db","ios":"levelo://app?vid=6d8d7b3d-80ae-47f0-93c2-0aa88d8f30db"},"vehicle_type_id":"4","last_reported":1750072200,"current_range_meters":6000,"station_id":"ce4bgt12rcd13ifvqcd0","pricing_plan_id":"cebpf4jnsgd1na2vs0mg"},{"bike_id":"fe89e90b-41d2-42e6-a883-5e755af9533d","system_id":"levelo_inurba_marseille","lat":43.29556,"lon":5.42289,"is_reserved":false,"is_disabled":false,"rental_uris":{"android":"levelo://app?vid=fe89e90b-41d2-42e6-a883-5e755af9533d","ios":"levelo://app?vid=fe89e90b-41d2-42e6-a883-5e755af9533d"},"vehicle_type_id":"4","last_reported":1750072200,"current_range_meters":6000,"station_id":"ce4bhph2rcd13ifvqhdg","pricing_plan_id":"cebpf4jnsgd1na2vs0mg"},{"bike_id":"b9a2a7a6-6012-432c-acc6-b81462bda0d2","system_id":"levelo_inurba_marseille","lat":43.29534,"lon":5.38551,"is_reserved":false,"is_disabled":false,"rental_uris":{"android":"levelo://app?vid=b9a2a7a6-6012-432c-acc6-b81462bda0d2","ios":"levelo://app?vid=b9a2a7a6-6012-432c-acc6-b81462bda0d2"},"vehicle_type_id":"4","last_reported":1750072200,"current_range_meters":6400,"station_id":"ce4bgih2rcd13ifvqba0","pricing_plan_id":"cebpf4jnsgd1na2vs0mg"},{"bike_id":"c9ae4123-a221-465b-8157-9dfc3ba5e2cf","system_id":"levelo_inurba_marseille","lat":43.304352,"lon":5.388798,"is_reserved":false,"is_disabled":false,"rental_uris":{"android":"levelo://app?vid=c9ae4123-a221-465b-8157-9dfc3ba5e2cf","ios":"levelo://app?vid=c9ae4123-a221-465b-8157-9dfc3ba5e2cf"},"vehicle_type_id":"4","last_reported":1750072200,"current_range_meters":6400,"station_id":"ce4bgk12rcd13ifvqbi0","pricing_plan_id":"cebpf4jnsgd1na2vs0mg"},{"bike_id":"b7c488e3-67fb-4f3d-b38b-5e4d7b8d8b63","system_id":"levelo_inurba_marseille","lat":43.2481,"lon":5.37455,"is_reserved":false,"is_disabled":false,"rental_uris":{"android":"levelo://app?vid=b7c488e3-67fb-4f3d-b38b-5e4d7b8d8b63","ios":"levelo://app?vid=b7c488e3-67fb-4f3d-b38b-5e4d7b8d8b63"},"vehicle_type_id":"4","last_reported":1750072200,"current_range_meters":6400,"station_id":"ce4bhgh2rcd13ifvqfb0","pricing_plan_id":"cebpf4jnsgd1na2vs0mg"},{"bike_id":"604affe5-9f04-4fd4-97c6-3b5603344135","system_id":"levelo_inurba_marseille","lat":43.27285,"lon":5.4164,"is_reserved":false,"is_disabled":false,"rental_uris":{"android":"levelo://app?vid=604affe5-9f04-4fd4-97c6-3b5603344135","ios":"levelo://app?vid=604affe5-9f04-4fd4-97c6-3b5603344135"},"vehicle_type_id":"4","last_reported":1750072200,"current_range_meters":6800,"station_id":"","pricing_plan_id":"cebpf4jnsgd1na2vs0mg"},{"bike_id":"701c9b42-ac6b-4a75-84c9-16c1c0b2df15","system_id":"levelo_inurba_marseille","lat":43.28161,"lon":5.42641,"is_reserved":false,"is_disabled":false,"rental_uris":{"android":"levelo://app?vid=701c9b42-ac6b-4a75-84c9-16c1c0b2df15","ios":"levelo://app?vid=701c9b42-ac6b-4a75-84c9-16c1c0b2df15"},"vehicle_type_id":"4","last_reported":1750072200,"current_range_meters":6800,"station_id":"ce4bhnh2rcd13ifvqgug","pricing_plan_id":"cebpf4jnsgd1na2vs0mg"},{"bike_id":"a112d53b-ad54-4060-8f8e-fad339f5de6e","system_id":"levelo_inurba_marseille","lat":43.211937,"lon":5.350732,"is_reserved":false,"is_disabled":false,"rental_uris":{"android":"levelo://app?vid=a112d53b-ad54-4060-8f8e-fad339f5de6e","ios":"levelo://app?vid=a112d53b-ad54-4060-8f8e-fad339f5de6e"},"vehicle_type_id":"4","last_reported":1750072200,"current_range_meters":6800,"station_id":"st_cvj6sg6p6f1abm77japg","pricing_plan_id":"cebpf4jnsgd1na2vs0mg"},{"bike_id":"d97dc030-8405-4eb1-abbf-845730c8e3dc","system_id":"levelo_inurba_marseille","lat":43.21198,"lon":5.35091,"is_reserved":false,"is_disabled":false,"rental_uris":{"android":"levelo://app?vid=d97dc030-8405-4eb1-abbf-845730c8e3dc","ios":"levelo://app?vid=d97dc030-8405-4eb1-abbf-845730c8e3dc"},"vehicle_type_id":"4","last_reported":1750072200,"current_range_meters":6800,"station_id":"st_cvj6sg6p6f1abm77japg","pricing_plan_id":"cebpf4jnsgd1na2vs0mg"},{"bike_id":"387d1fed-118c-437b-bd55-020621253e35","system_id":"levelo_inurba_marseille","lat":43.24109,"lon":5.36817,"is_reserved":false,"is_disabled":false,"rental_uris":{"android":"levelo://app?vid=387d1fed-118c-437b-bd55-020621253e35","ios":"levelo://app?vid=387d1fed-118c-437b-bd55-020621253e35"},"vehicle_type_id":"4","last_reported":1750072200,"current_range_meters":7200,"station_id":"","pricing_plan_id":"cebpf4jnsgd1na2vs0mg"},{"bike_id":"aa39a4ef-792f-4ed0-9ff2-7dd6fc60c6b9","system_id":"levelo_inurba_marseille","lat":43.23183,"lon":5.39981,"is_reserved":false,"is_disabled":false,"rental_uris":{"android":"levelo://app?vid=aa39a4ef-792f-4ed0-9ff2-7dd6fc60c6b9","ios":"levelo://app?vid=aa39a4ef-792f-4ed0-9ff2-7dd6fc60c6b9"},"vehicle_type_id":"4","last_reported":1750072200,"current_range_meters":7200,"station_id":"ce4bhn12rcd13ifvqgqg","pricing_plan_id":"cebpf4jnsgd1na2vs0mg"},{"bike_id":"bfb09026-2dd3-4337-9f39-5a4c4f4ad316","system_id":"levelo_inurba_marseille","lat":43.30783,"lon":5.37647,"is_reserved":false,"is_disabled":false,"rental_uris":{"android":"levelo://app?vid=bfb09026-2dd3-4337-9f39-5a4c4f4ad316","ios":"levelo://app?vid=bfb09026-2dd3-4337-9f39-5a4c4f4ad316"},"vehicle_type_id":"4","last_reported":1750072200,"current_range_meters":8000,"station_id":"ce4bgv92rcd13ifvqcq0","pricing_plan_id":"cebpf4jnsgd1na2vs0mg"},{"bike_id":"bc517e14-9af8-4b8b-b163-4ef1c8de6414","system_id":"levelo_inurba_marseille","lat":43.28287,"lon":5.35082,"is_reserved":false,"is_disabled":false,"rental_uris":{"android":"levelo://app?vid=bc517e14-9af8-4b8b-b163-4ef1c8de6414","ios":"levelo://app?vid=bc517e14-9af8-4b8b-b163-4ef1c8de6414"},"vehicle_type_id":"4","last_reported":1750072200,"current_range_meters":8000,"station_id":"ce4bhbp2rcd13ifvqerg","pricing_plan_id":"cebpf4jnsgd1na2vs0mg"},{"bike_id":"04c235f0-835f-4d5e-83c5-e983e8584ad8","system_id":"levelo_inurba_marseille","lat":43.32322,"lon":5.36736,"is_reserved":false,"is_disabled":false,"rental_uris":{"android":"levelo://app?vid=04c235f0-835f-4d5e-83c5-e983e8584ad8","ios":"levelo://app?vid=04c235f0-835f-4d5e-83c5-e983e8584ad8"},"vehicle_type_id":"4","last_reported":1750072200,"current_range_meters":8000,"station_id":"ce4bhsh2rcd13ifvqi2g","pricing_plan_id":"cebpf4jnsgd1na2vs0mg"},{"bike_id":"63e75e14-28f2-4eec-9197-07e745a5a9b4","system_id":"levelo_inurba_marseille","lat":43.211913,"lon":5.35068,"is_reserved":false,"is_disabled":false,"rental_uris":{"android":"levelo://app?vid=63e75e14-28f2-4eec-9197-07e745a5a9b4","ios":"levelo://app?vid=63e75e14-28f2-4eec-9197-07e745a5a9b4"},"vehicle_type_id":"4","last_reported":1750072200,"current_range_meters":8000,"station_id":"st_cvj6sg6p6f1abm77japg","pricing_plan_id":"cebpf4jnsgd1na2vs0mg"},{"bike_id":"ceef76cf-08ff-4881-89a4-a1ad2c201efd","system_id":"levelo_inurba_marseille","lat":43.2959,"lon":5.36735,"is_reserved":false,"is_disabled":false,"rental_uris":{"android":"levelo://app?vid=ceef76cf-08ff-4881-89a4-a1ad2c201efd","ios":"levelo://app?vid=ceef76cf-08ff-4881-89a4-a1ad2c201efd"},"vehicle_type_id":"4","last_reported":1750072200,"current_range_meters":8400,"station_id":"ce4bgph2rcd13ifvqc2g","pricing_plan_id":"cebpf4jnsgd1na2vs0mg"},{"bike_id":"a3a803cb-c41f-4cb4-a3c5-6926b8d1af54","system_id":"levelo_inurba_marseille","lat":43.2828,"lon":5.3507,"is_reserved":false,"is_disabled":false,"rental_uris":{"android":"levelo://app?vid=a3a803cb-c41f-4cb4-a3c5-6926b8d1af54","ios":"levelo://app?vid=a3a803cb-c41f-4cb4-a3c5-6926b8d1af54"},"vehicle_type_id":"4","last_reported":1750072200,"current_range_meters":8400,"station_id":"ce4bhbp2rcd13ifvqerg","pricing_plan_id":"cebpf4jnsgd1na2vs0mg"},{"bike_id":"de97c59f-3097-46f4-b577-6568e56ca686","system_id":"levelo_inurba_marseille","lat":43.271675,"lon":5.409936,"is_reserved":false,"is_disabled":false,"rental_uris":{"android":"levelo://app?vid=de97c59f-3097-46f4-b577-6568e56ca686","ios":"levelo://app?vid=de97c59f-3097-46f4-b577-6568e56ca686"},"vehicle_type_id":"4","last_reported":1750072200,"current_range_meters":8400,"station_id":"ce4bhl12rcd13ifvqgf0","pricing_plan_id":"cebpf4jnsgd1na2vs0mg"},{"bike_id":"ab07ee61-42bc-40b0-82b6-04f59285e5b5","system_id":"levelo_inurba_marseille","lat":43.298698,"lon":5.38463,"is_reserved":false,"is_disabled":false,"rental_uris":{"android":"levelo://app?vid=ab07ee61-42bc-40b0-82b6-04f59285e5b5","ios":"levelo://app?vid=ab07ee61-42bc-40b0-82b6-04f59285e5b5"},"vehicle_type_id":"4","last_reported":1750072200,"current_range_meters":8800,"station_id":"ce4bgj92rcd13ifvqbd0","pricing_plan_id":"cebpf4jnsgd1na2vs0mg"},{"bike_id":"b61b277e-1931-422d-a650-981ffcee2141","system_id":"levelo_inurba_marseille","lat":43.28419,"lon":5.3498,"is_reserved":false,"is_disabled":false,"rental_uris":{"android":"levelo://app?vid=b61b277e-1931-422d-a650-981ffcee2141","ios":"levelo://app?vid=b61b277e-1931-422d-a650-981ffcee2141"},"vehicle_type_id":"4","last_reported":1750072200,"current_range_meters":8800,"station_id":"ce4bhbh2rcd13ifvqepg","pricing_plan_id":"cebpf4jnsgd1na2vs0mg"},{"bike_id":"d38526b8-dacb-473a-812a-39b6dd5adc09","system_id":"levelo_inurba_marseille","lat":43.286133,"lon":5.351067,"is_reserved":false,"is_disabled":false,"rental_uris":{"android":"levelo://app?vid=d38526b8-dacb-473a-812a-39b6dd5adc09","ios":"levelo://app?vid=d38526b8-dacb-473a-812a-39b6dd5adc09"},"vehicle_type_id":"4","last_reported":1750072200,"current_range_meters":8800,"station_id":"ce4bhch2rcd13ifvqeug","pricing_plan_id":"cebpf4jnsgd1na2vs0mg"},{"bike_id":"669a955f-6026-44c0-ad89-a8ce73e40693","system_id":"levelo_inurba_marseille","lat":43.27061,"lon":5.40255,"is_reserved":false,"is_disabled":false,"rental_uris":{"android":"levelo://app?vid=669a955f-6026-44c0-ad89-a8ce73e40693","ios":"levelo://app?vid=669a955f-6026-44c0-ad89-a8ce73e40693"},"vehicle_type_id":"4","last_reported":1750072200,"current_range_meters":8800,"station_id":"ce4bhk92rcd13ifvqgc0","pricing_plan_id":"cebpf4jnsgd1na2vs0mg"},{"bike_id":"5a70306b-c2f4-4b6a-a3bf-1734342af046","system_id":"levelo_inurba_marseille","lat":43.28938,"lon":5.36637,"is_reserved":false,"is_disabled":false,"rental_uris":{"android":"levelo://app?vid=5a70306b-c2f4-4b6a-a3bf-1734342af046","ios":"levelo://app?vid=5a70306b-c2f4-4b6a-a3bf-1734342af046"},"vehicle_type_id":"4","last_reported":1750072200,"current_range_meters":9200,"station_id":"ce4bhap2rcd13ifvqek0","pricing_plan_id":"cebpf4jnsgd1na2vs0mg"},{"bike_id":"256d1508-4b0c-4033-8313-e60462552bd5","system_id":"levelo_inurba_marseille","lat":43.27814,"lon":5.40716,"is_reserved":false,"is_disabled":false,"rental_uris":{"android":"levelo://app?vid=256d1508-4b0c-4033-8313-e60462552bd5","ios":"levelo://app?vid=256d1508-4b0c-4033-8313-e60462552bd5"},"vehicle_type_id":"4","last_reported":1750072200,"current_range_meters":9200,"station_id":"ce4bhnh2rcd13ifvqgtg","pricing_plan_id":"cebpf4jnsgd1na2vs0mg"},{"bike_id":"53ce1f62-6388-422b-a8a1-ec4b8c4c0874","system_id":"levelo_inurba_marseille","lat":43.30153,"lon":5.37416,"is_reserved":false,"is_disabled":false,"rental_uris":{"android":"levelo://app?vid=53ce1f62-6388-422b-a8a1-ec4b8c4c0874","ios":"levelo://app?vid=53ce1f62-6388-422b-a8a1-ec4b8c4c0874"},"vehicle_type_id":"4","last_reported":1750072200,"current_range_meters":9600,"station_id":"ce4bgs92rcd13ifvqcc0","pricing_plan_id":"cebpf4jnsgd1na2vs0mg"},{"bike_id":"998ef650-08ef-4aeb-aa52-2b23d7ab2274","system_id":"levelo_inurba_marseille","lat":43.30886,"lon":5.3965,"is_reserved":false,"is_disabled":false,"rental_uris":{"android":"levelo://app?vid=998ef650-08ef-4aeb-aa52-2b23d7ab2274","ios":"levelo://app?vid=998ef650-08ef-4aeb-aa52-2b23d7ab2274"},"vehicle_type_id":"4","last_reported":1750072200,"current_range_meters":9600,"station_id":"ce4bh012rcd13ifvqcv0","pricing_plan_id":"cebpf4jnsgd1na2vs0mg"},{"bike_id":"3114cff4-3f60-44c3-ad34-41a9456fdee7","system_id":"levelo_inurba_marseille","lat":43.29898,"lon":5.3889,"is_reserved":false,"is_disabled":false,"rental_uris":{"android":"levelo://app?vid=3114cff4-3f60-44c3-ad34-41a9456fdee7","ios":"levelo://app?vid=3114cff4-3f60-44c3-ad34-41a9456fdee7"},"vehicle_type_id":"4","last_reported":1750072200,"current_range_meters":9600,"station_id":"ce4bh392rcd13ifvqdl0","pricing_plan_id":"cebpf4jnsgd1na2vs0mg"},{"bike_id":"c8f02d05-69b4-45c0-a606-f9e5a9a17b75","system_id":"levelo_inurba_marseille","lat":43.28268,"lon":5.35061,"is_reserved":false,"is_disabled":false,"rental_uris":{"android":"levelo://app?vid=c8f02d05-69b4-45c0-a606-f9e5a9a17b75","ios":"levelo://app?vid=c8f02d05-69b4-45c0-a606-f9e5a9a17b75"},"vehicle_type_id":"4","last_reported":1750072200,"current_range_meters":9600,"station_id":"ce4bhbp2rcd13ifvqerg","pricing_plan_id":"cebpf4jnsgd1na2vs0mg"},{"bike_id":"7870d999-e864-4ddf-87b7-30fc86166447","system_id":"levelo_inurba_marseille","lat":43.24791,"lon":5.374804,"is_reserved":false,"is_disabled":false,"rental_uris":{"android":"levelo://app?vid=7870d999-e864-4ddf-87b7-30fc86166447","ios":"levelo://app?vid=7870d999-e864-4ddf-87b7-30fc86166447"},"vehicle_type_id":"4","last_reported":1750072200,"current_range_meters":9600,"station_id":"ce4bhgh2rcd13ifvqfb0","pricing_plan_id":"cebpf4jnsgd1na2vs0mg"},{"bike_id":"fd2b3757-0e4a-47bb-9b8e-b2cd0c4bee18","system_id":"levelo_inurba_marseille","lat":43.27216,"lon":5.39184,"is_reserved":false,"is_disabled":false,"rental_uris":{"android":"levelo://app?vid=fd2b3757-0e4a-47bb-9b8e-b2cd0c4bee18","ios":"levelo://app?vid=fd2b3757-0e4a-47bb-9b8e-b2cd0c4bee18"},"vehicle_type_id":"4","last_reported":1750072200,"current_range_meters":9600,"station_id":"ce4bhhp2rcd13ifvqfm0","pricing_plan_id":"cebpf4jnsgd1na2vs0mg"},{"bike_id":"3343604d-6894-4f9f-afbc-c7b7535c9d85","system_id":"levelo_inurba_marseille","lat":43.24665,"lon":5.38164,"is_reserved":false,"is_disabled":false,"rental_uris":{"android":"levelo://app?vid=3343604d-6894-4f9f-afbc-c7b7535c9d85","ios":"levelo://app?vid=3343604d-6894-4f9f-afbc-c7b7535c9d85"},"vehicle_type_id":"4","last_reported":1750072200,"current_range_meters":9600,"station_id":"ce4bhih2rcd13ifvqfr0","pricing_plan_id":"cebpf4jnsgd1na2vs0mg"},{"bike_id":"8b3cdc15-7b73-4434-86ba-fffc477eaf9b","system_id":"levelo_inurba_marseille","lat":43.32283,"lon":5.3827,"is_reserved":false,"is_disabled":false,"rental_uris":{"android":"levelo://app?vid=8b3cdc15-7b73-4434-86ba-fffc477eaf9b","ios":"levelo://app?vid=8b3cdc15-7b73-4434-86ba-fffc477eaf9b"},"vehicle_type_id":"4","last_reported":1750072200,"current_range_meters":9600,"station_id":"ce4bhr12rcd13ifvqhqg","pricing_plan_id":"cebpf4jnsgd1na2vs0mg"},{"bike_id":"48df8704-cf30-400d-bb42-eb1c3ac33831","system_id":"levelo_inurba_marseille","lat":43.2681,"lon":5.40267,"is_reserved":false,"is_disabled":false,"rental_uris":{"android":"levelo://app?vid=48df8704-cf30-400d-bb42-eb1c3ac33831","ios":"levelo://app?vid=48df8704-cf30-400d-bb42-eb1c3ac33831"},"vehicle_type_id":"4","last_reported":1750072200,"current_range_meters":9600,"station_id":"ce501612rcd8frsf0b60","pricing_plan_id":"cebpf4jnsgd1na2vs0mg"},{"bike_id":"ecb96347-0552-44fa-a8ff-566a5e34bd97","system_id":"levelo_inurba_marseille","lat":43.29682,"lon":5.37438,"is_reserved":false,"is_disabled":false,"rental_uris":{"android":"levelo://app?vid=ecb96347-0552-44fa-a8ff-566a5e34bd97","ios":"levelo://app?vid=ecb96347-0552-44fa-a8ff-566a5e34bd97"},"vehicle_type_id":"4","last_reported":1750072200,"current_range_meters":10000,"station_id":"","pricing_plan_id":"cebpf4jnsgd1na2vs0mg"},{"bike_id":"6d65cce0-4c68-4480-9248-9459cb3ab347","system_id":"levelo_inurba_marseille","lat":43.30558,"lon":5.37173,"is_reserved":false,"is_disabled":false,"rental_uris":{"android":"levelo://app?vid=6d65cce0-4c68-4480-9248-9459cb3ab347","ios":"levelo://app?vid=6d65cce0-4c68-4480-9248-9459cb3ab347"},"vehicle_type_id":"4","last_reported":1750072200,"current_range_meters":10000,"station_id":"","pricing_plan_id":"cebpf4jnsgd1na2vs0mg"},{"bike_id":"2319ce10-a51c-42ad-ad50-827b68e4f300","system_id":"levelo_inurba_marseille","lat":43.29729,"lon":5.38063,"is_reserved":false,"is_disabled":false,"rental_uris":{"android":"levelo://app?vid=2319ce10-a51c-42ad-ad50-827b68e4f300","ios":"levelo://app?vid=2319ce10-a51c-42ad-ad50-827b68e4f300"},"vehicle_type_id":"4","last_reported":1750072200,"current_range_meters":10000,"station_id":"","pricing_plan_id":"cebpf4jnsgd1na2vs0mg"},{"bike_id":"975ec9a6-fb96-45b0-a458-adafc6f964ad","system_id":"levelo_inurba_marseille","lat":43.28412,"lon":5.34985,"is_reserved":false,"is_disabled":false,"rental_uris":{"android":"levelo://app?vid=975ec9a6-fb96-45b0-a458-adafc6f964ad","ios":"levelo://app?vid=975ec9a6-fb96-45b0-a458-adafc6f964ad"},"vehicle_type_id":"4","last_reported":1750072200,"current_range_meters":10000,"station_id":"ce4bhbh2rcd13ifvqepg","pricing_plan_id":"cebpf4jnsgd1na2vs0mg"},{"bike_id":"fafa407f-f307-4e59-9d01-b95128a349ab","system_id":"levelo_inurba_marseille","lat":43.24664,"lon":5.38168,"is_reserved":false,"is_disabled":false,"rental_uris":{"android":"levelo://app?vid=fafa407f-f307-4e59-9d01-b95128a349ab","ios":"levelo://app?vid=fafa407f-f307-4e59-9d01-b95128a349ab"},"vehicle_type_id":"4","last_reported":1750072200,"current_range_meters":10000,"station_id":"ce4bhih2rcd13ifvqfr0","pricing_plan_id":"cebpf4jnsgd1na2vs0mg"},{"bike_id":"d6aff5ea-8a1a-4676-bb71-290ea4bad6f0","system_id":"levelo_inurba_marseille","lat":43.28163,"lon":5.42639,"is_reserved":false,"is_disabled":false,"rental_uris":{"android":"levelo://app?vid=d6aff5ea-8a1a-4676-bb71-290ea4bad6f0","ios":"levelo://app?vid=d6aff5ea-8a1a-4676-bb71-290ea4bad6f0"},"vehicle_type_id":"4","last_reported":1750072200,"current_range_meters":10000,"station_id":"ce4bhnh2rcd13ifvqgug","pricing_plan_id":"cebpf4jnsgd1na2vs0mg"},{"bike_id":"0fecf8d1-b936-49e1-9fed-27c11ef02d3b","system_id":"levelo_inurba_marseille","lat":43.32499,"lon":5.36563,"is_reserved":false,"is_disabled":false,"rental_uris":{"android":"levelo://app?vid=0fecf8d1-b936-49e1-9fed-27c11ef02d3b","ios":"levelo://app?vid=0fecf8d1-b936-49e1-9fed-27c11ef02d3b"},"vehicle_type_id":"4","last_reported":1750072200,"current_range_meters":10000,"station_id":"ce4bhs12rcd13ifvqhvg","pricing_plan_id":"cebpf4jnsgd1na2vs0mg"},{"bike_id":"c8e281fa-e638-4480-abdc-32759daadf6e","system_id":"levelo_inurba_marseille","lat":43.323582,"lon":5.367601,"is_reserved":false,"is_disabled":false,"rental_uris":{"android":"levelo://app?vid=c8e281fa-e638-4480-abdc-32759daadf6e","ios":"levelo://app?vid=c8e281fa-e638-4480-abdc-32759daadf6e"},"vehicle_type_id":"4","last_reported":1750072200,"current_range_meters":10000,"station_id":"ce4bhsh2rcd13ifvqi2g","pricing_plan_id":"cebpf4jnsgd1na2vs0mg"},{"bike_id":"3db42ed2-756a-4f9e-b9e7-34a1f59e7066","system_id":"levelo_inurba_marseille","lat":43.31491,"lon":5.37296,"is_reserved":false,"is_disabled":false,"rental_uris":{"android":"levelo://app?vid=3db42ed2-756a-4f9e-b9e7-34a1f59e7066","ios":"levelo://app?vid=3db42ed2-756a-4f9e-b9e7-34a1f59e7066"},"vehicle_type_id":"4","last_reported":1750072200,"current_range_meters":10800,"station_id":"ce4bgt12rcd13ifvqcd0","pricing_plan_id":"cebpf4jnsgd1na2vs0mg"},{"bike_id":"64a964ec-cac9-40af-af19-a746d40fe133","system_id":"levelo_inurba_marseille","lat":43.30953,"lon":5.3905,"is_reserved":false,"is_disabled":false,"rental_uris":{"android":"levelo://app?vid=64a964ec-cac9-40af-af19-a746d40fe133","ios":"levelo://app?vid=64a964ec-cac9-40af-af19-a746d40fe133"},"vehicle_type_id":"4","last_reported":1750072200,"current_range_meters":10800,"station_id":"ce4bgup2rcd13ifvqco0","pricing_plan_id":"cebpf4jnsgd1na2vs0mg"},{"bike_id":"86d1f452-e884-4477-928c-85b90c271557","system_id":"levelo_inurba_marseille","lat":43.28426,"lon":5.3498,"is_reserved":false,"is_disabled":false,"rental_uris":{"android":"levelo://app?vid=86d1f452-e884-4477-928c-85b90c271557","ios":"levelo://app?vid=86d1f452-e884-4477-928c-85b90c271557"},"vehicle_type_id":"4","last_reported":1750072200,"current_range_meters":10800,"station_id":"ce4bhbh2rcd13ifvqepg","pricing_plan_id":"cebpf4jnsgd1na2vs0mg"},{"bike_id":"97d23763-2fe1-4530-af2f-0bffd2b33837","system_id":"levelo_inurba_marseille","lat":43.282725,"lon":5.350605,"is_reserved":false,"is_disabled":false,"rental_uris":{"android":"levelo://app?vid=97d23763-2fe1-4530-af2f-0bffd2b33837","ios":"levelo://app?vid=97d23763-2fe1-4530-af2f-0bffd2b33837"},"vehicle_type_id":"4","last_reported":1750072200,"current_range_meters":10800,"station_id":"ce4bhbp2rcd13ifvqerg","pricing_plan_id":"cebpf4jnsgd1na2vs0mg"},{"bike_id":"10b95a7c-d378-4167-87de-21a8a686e7cd","system_id":"levelo_inurba_marseille","lat":43.25822,"lon":5.39429,"is_reserved":false,"is_disabled":false,"rental_uris":{"android":"levelo://app?vid=10b95a7c-d378-4167-87de-21a8a686e7cd","ios":"levelo://app?vid=10b95a7c-d378-4167-87de-21a8a686e7cd"},"vehicle_type_id":"4","last_reported":1750072200,"current_range_meters":10800,"station_id":"ce4bhip2rcd13ifvqft0","pricing_plan_id":"cebpf4jnsgd1na2vs0mg"},{"bike_id":"48b2083c-9111-4bd9-a0db-efedc6360004","system_id":"levelo_inurba_marseille","lat":43.32316,"lon":5.40618,"is_reserved":false,"is_disabled":false,"rental_uris":{"android":"levelo://app?vid=48b2083c-9111-4bd9-a0db-efedc6360004","ios":"levelo://app?vid=48b2083c-9111-4bd9-a0db-efedc6360004"},"vehicle_type_id":"4","last_reported":1750072200,"current_range_meters":10800,"station_id":"ce4bhq92rcd13ifvqhjg","pricing_plan_id":"cebpf4jnsgd1na2vs0mg"},{"bike_id":"34661ccd-4a50-408b-9a97-f3b31c95e9eb","system_id":"levelo_inurba_marseille","lat":43.337444,"lon":5.374475,"is_reserved":false,"is_disabled":false,"rental_uris":{"android":"levelo://app?vid=34661ccd-4a50-408b-9a97-f3b31c95e9eb","ios":"levelo://app?vid=34661ccd-4a50-408b-9a97-f3b31c95e9eb"},"vehicle_type_id":"4","last_reported":1750072200,"current_range_meters":11200,"station_id":"","pricing_plan_id":"cebpf4jnsgd1na2vs0mg"},{"bike_id":"91753df6-b383-4702-8414-24237e81fab8","system_id":"levelo_inurba_marseille","lat":43.24427,"lon":5.3716,"is_reserved":false,"is_disabled":false,"rental_uris":{"android":"levelo://app?vid=91753df6-b383-4702-8414-24237e81fab8","ios":"levelo://app?vid=91753df6-b383-4702-8414-24237e81fab8"},"vehicle_type_id":"4","last_reported":1750072200,"current_range_meters":11200,"station_id":"","pricing_plan_id":"cebpf4jnsgd1na2vs0mg"},{"bike_id":"ba7af255-67c3-48c1-8164-88f84751e6a5","system_id":"levelo_inurba_marseille","lat":43.30445,"lon":5.38908,"is_reserved":false,"is_disabled":false,"rental_uris":{"android":"levelo://app?vid=ba7af255-67c3-48c1-8164-88f84751e6a5","ios":"levelo://app?vid=ba7af255-67c3-48c1-8164-88f84751e6a5"},"vehicle_type_id":"4","last_reported":1750072200,"current_range_meters":11200,"station_id":"ce4bgk12rcd13ifvqbi0","pricing_plan_id":"cebpf4jnsgd1na2vs0mg"},{"bike_id":"c027e38b-f0a8-48d1-b7ea-908fd4a5093e","system_id":"levelo_inurba_marseille","lat":43.26957,"lon":5.38631,"is_reserved":false,"is_disabled":false,"rental_uris":{"android":"levelo://app?vid=c027e38b-f0a8-48d1-b7ea-908fd4a5093e","ios":"levelo://app?vid=c027e38b-f0a8-48d1-b7ea-908fd4a5093e"},"vehicle_type_id":"4","last_reported":1750072200,"current_range_meters":11200,"station_id":"ce4bhh92rcd13ifvqfh0","pricing_plan_id":"cebpf4jnsgd1na2vs0mg"},{"bike_id":"d48257f6-caa5-43ae-b356-6c3c678e5170","system_id":"levelo_inurba_marseille","lat":43.24391,"lon":5.37051,"is_reserved":false,"is_disabled":false,"rental_uris":{"android":"levelo://app?vid=d48257f6-caa5-43ae-b356-6c3c678e5170","ios":"levelo://app?vid=d48257f6-caa5-43ae-b356-6c3c678e5170"},"vehicle_type_id":"4","last_reported":1750072200,"current_range_meters":11200,"station_id":"ce4bhhh2rcd13ifvqfk0","pricing_plan_id":"cebpf4jnsgd1na2vs0mg"},{"bike_id":"99456bdf-8c5c-4439-8fb6-7ceee90bf60e","system_id":"levelo_inurba_marseille","lat":43.27839,"lon":5.39204,"is_reserved":false,"is_disabled":false,"rental_uris":{"android":"levelo://app?vid=99456bdf-8c5c-4439-8fb6-7ceee90bf60e","ios":"levelo://app?vid=99456bdf-8c5c-4439-8fb6-7ceee90bf60e"},"vehicle_type_id":"4","last_reported":1750072200,"current_range_meters":11200,"station_id":"ce4bhjp2rcd13ifvqga0","pricing_plan_id":"cebpf4jnsgd1na2vs0mg"},{"bike_id":"b2419117-4f1c-41a4-b3ee-8d3d2f2a3d6c","system_id":"levelo_inurba_marseille","lat":43.2465,"lon":5.38889,"is_reserved":false,"is_disabled":false,"rental_uris":{"android":"levelo://app?vid=b2419117-4f1c-41a4-b3ee-8d3d2f2a3d6c","ios":"levelo://app?vid=b2419117-4f1c-41a4-b3ee-8d3d2f2a3d6c"},"vehicle_type_id":"4","last_reported":1750072200,"current_range_meters":11600,"station_id":"ce4bhg12rcd13ifvqf60","pricing_plan_id":"cebpf4jnsgd1na2vs0mg"},{"bike_id":"6dbb6a65-6369-4c5c-a1d6-1e9157c067b0","system_id":"levelo_inurba_marseille","lat":43.25726,"lon":5.4112,"is_reserved":false,"is_disabled":false,"rental_uris":{"android":"levelo://app?vid=6dbb6a65-6369-4c5c-a1d6-1e9157c067b0","ios":"levelo://app?vid=6dbb6a65-6369-4c5c-a1d6-1e9157c067b0"},"vehicle_type_id":"4","last_reported":1750072200,"current_range_meters":11600,"station_id":"ce4bhkp2rcd13ifvqgd0","pricing_plan_id":"cebpf4jnsgd1na2vs0mg"},{"bike_id":"ff5676c8-3ed8-4967-bc57-2174d15f00fb","system_id":"levelo_inurba_marseille","lat":43.287098,"lon":5.400027,"is_reserved":false,"is_disabled":false,"rental_uris":{"android":"levelo://app?vid=ff5676c8-3ed8-4967-bc57-2174d15f00fb","ios":"levelo://app?vid=ff5676c8-3ed8-4967-bc57-2174d15f00fb"},"vehicle_type_id":"4","last_reported":1750072200,"current_range_meters":11600,"station_id":"ce4bho92rcd13ifvqh3g","pricing_plan_id":"cebpf4jnsgd1na2vs0mg"},{"bike_id":"36f7b675-3639-4183-8a18-8a942f2fdd0e","system_id":"levelo_inurba_marseille","lat":43.29905,"lon":5.43654,"is_reserved":false,"is_disabled":false,"rental_uris":{"android":"levelo://app?vid=36f7b675-3639-4183-8a18-8a942f2fdd0e","ios":"levelo://app?vid=36f7b675-3639-4183-8a18-8a942f2fdd0e"},"vehicle_type_id":"4","last_reported":1750072200,"current_range_meters":11600,"station_id":"ce4bhpp2rcd13ifvqhfg","pricing_plan_id":"cebpf4jnsgd1na2vs0mg"},{"bike_id":"0fe8d47d-0db3-437d-9239-f712b4736eb4","system_id":"levelo_inurba_marseille","lat":43.32087,"lon":5.36776,"is_reserved":false,"is_disabled":false,"rental_uris":{"android":"levelo://app?vid=0fe8d47d-0db3-437d-9239-f712b4736eb4","ios":"levelo://app?vid=0fe8d47d-0db3-437d-9239-f712b4736eb4"},"vehicle_type_id":"4","last_reported":1750072200,"current_range_meters":11600,"station_id":"ce4bhrh2rcd13ifvqhug","pricing_plan_id":"cebpf4jnsgd1na2vs0mg"},{"bike_id":"c5b3ff17-1a1d-4df4-af19-0d88ef86880b","system_id":"levelo_inurba_marseille","lat":43.29786,"lon":5.37106,"is_reserved":false,"is_disabled":false,"rental_uris":{"android":"levelo://app?vid=c5b3ff17-1a1d-4df4-af19-0d88ef86880b","ios":"levelo://app?vid=c5b3ff17-1a1d-4df4-af19-0d88ef86880b"},"vehicle_type_id":"4","last_reported":1750072200,"current_range_meters":12000,"station_id":"ce4bgop2rcd13ifvqc1g","pricing_plan_id":"cebpf4jnsgd1na2vs0mg"},{"bike_id":"b60d3ddf-394b-4c0c-9668-6a46ea0542a8","system_id":"levelo_inurba_marseille","lat":43.28416,"lon":5.34989,"is_reserved":false,"is_disabled":false,"rental_uris":{"android":"levelo://app?vid=b60d3ddf-394b-4c0c-9668-6a46ea0542a8","ios":"levelo://app?vid=b60d3ddf-394b-4c0c-9668-6a46ea0542a8"},"vehicle_type_id":"4","last_reported":1750072200,"current_range_meters":12000,"station_id":"ce4bhbh2rcd13ifvqepg","pricing_plan_id":"cebpf4jnsgd1na2vs0mg"},{"bike_id":"a03675ec-3c4c-45c8-adb1-9b1853939693","system_id":"levelo_inurba_marseille","lat":43.25582,"lon":5.3824,"is_reserved":false,"is_disabled":false,"rental_uris":{"android":"levelo://app?vid=a03675ec-3c4c-45c8-adb1-9b1853939693","ios":"levelo://app?vid=a03675ec-3c4c-45c8-adb1-9b1853939693"},"vehicle_type_id":"4","last_reported":1750072200,"current_range_meters":12000,"station_id":"ce4bhih2rcd13ifvqfs0","pricing_plan_id":"cebpf4jnsgd1na2vs0mg"},{"bike_id":"5bf19c18-d0ad-489b-bd15-9440a1d65b2d","system_id":"levelo_inurba_marseille","lat":43.211935,"lon":5.350723,"is_reserved":false,"is_disabled":false,"rental_uris":{"android":"levelo://app?vid=5bf19c18-d0ad-489b-bd15-9440a1d65b2d","ios":"levelo://app?vid=5bf19c18-d0ad-489b-bd15-9440a1d65b2d"},"vehicle_type_id":"4","last_reported":1750072200,"current_range_meters":12000,"station_id":"st_cvj6sg6p6f1abm77japg","pricing_plan_id":"cebpf4jnsgd1na2vs0mg"},{"bike_id":"293d17a2-7b6c-488f-95e0-e4e8f4c1d1e3","system_id":"levelo_inurba_marseille","lat":43.31325,"lon":5.37358,"is_reserved":false,"is_disabled":false,"rental_uris":{"android":"levelo://app?vid=293d17a2-7b6c-488f-95e0-e4e8f4c1d1e3","ios":"levelo://app?vid=293d17a2-7b6c-488f-95e0-e4e8f4c1d1e3"},"vehicle_type_id":"4","last_reported":1750072200,"current_range_meters":12400,"station_id":"","pricing_plan_id":"cebpf4jnsgd1na2vs0mg"},{"bike_id":"ef842d0e-032b-42a4-a720-b932a413ca99","system_id":"levelo_inurba_marseille","lat":43.30564,"lon":5.36511,"is_reserved":false,"is_disabled":false,"rental_uris":{"android":"levelo://app?vid=ef842d0e-032b-42a4-a720-b932a413ca99","ios":"levelo://app?vid=ef842d0e-032b-42a4-a720-b932a413ca99"},"vehicle_type_id":"4","last_reported":1750072200,"current_range_meters":12400,"station_id":"ce4bgs12rcd13ifvqcag","pricing_plan_id":"cebpf4jnsgd1na2vs0mg"},{"bike_id":"c4f1b216-173d-47ae-84f4-35315fda7c99","system_id":"levelo_inurba_marseille","lat":43.29633,"lon":5.40606,"is_reserved":false,"is_disabled":false,"rental_uris":{"android":"levelo://app?vid=c4f1b216-173d-47ae-84f4-35315fda7c99","ios":"levelo://app?vid=c4f1b216-173d-47ae-84f4-35315fda7c99"},"vehicle_type_id":"4","last_reported":1750072200,"current_range_meters":12400,"station_id":"ce4bh0h2rcd13ifvqd60","pricing_plan_id":"cebpf4jnsgd1na2vs0mg"},{"bike_id":"018b959d-1610-41c9-bd7e-1c9c934682b9","system_id":"levelo_inurba_marseille","lat":43.23967,"lon":5.36628,"is_reserved":false,"is_disabled":false,"rental_uris":{"android":"levelo://app?vid=018b959d-1610-41c9-bd7e-1c9c934682b9","ios":"levelo://app?vid=018b959d-1610-41c9-bd7e-1c9c934682b9"},"vehicle_type_id":"4","last_reported":1750072200,"current_range_meters":12400,"station_id":"ce4bhi12rcd13ifvqfp0","pricing_plan_id":"cebpf4jnsgd1na2vs0mg"},{"bike_id":"212ff905-5be0-41ac-97a9-63c0fa6717ff","system_id":"levelo_inurba_marseille","lat":43.2417,"lon":5.36392,"is_reserved":false,"is_disabled":false,"rental_uris":{"android":"levelo://app?vid=212ff905-5be0-41ac-97a9-63c0fa6717ff","ios":"levelo://app?vid=212ff905-5be0-41ac-97a9-63c0fa6717ff"},"vehicle_type_id":"4","last_reported":1750072200,"current_range_meters":12400,"station_id":"cpo36qri1sfpv3e86is0","pricing_plan_id":"cebpf4jnsgd1na2vs0mg"},{"bike_id":"2d16d2b6-c684-45ab-831f-9a77e91e8afb","system_id":"levelo_inurba_marseille","lat":43.211977,"lon":5.35063,"is_reserved":false,"is_disabled":false,"rental_uris":{"android":"levelo://app?vid=2d16d2b6-c684-45ab-831f-9a77e91e8afb","ios":"levelo://app?vid=2d16d2b6-c684-45ab-831f-9a77e91e8afb"},"vehicle_type_id":"4","last_reported":1750072200,"current_range_meters":12400,"station_id":"st_cvj6sg6p6f1abm77japg","pricing_plan_id":"cebpf4jnsgd1na2vs0mg"},{"bike_id":"a4bf7cf5-28bd-4de8-9fce-808f7647cfb6","system_id":"levelo_inurba_marseille","lat":43.22705,"lon":5.34818,"is_reserved":false,"is_disabled":false,"rental_uris":{"android":"levelo://app?vid=a4bf7cf5-28bd-4de8-9fce-808f7647cfb6","ios":"levelo://app?vid=a4bf7cf5-28bd-4de8-9fce-808f7647cfb6"},"vehicle_type_id":"4","last_reported":1750072200,"current_range_meters":12800,"station_id":"","pricing_plan_id":"cebpf4jnsgd1na2vs0mg"},{"bike_id":"a66c4499-80b2-4849-b750-619e2fe538d1","system_id":"levelo_inurba_marseille","lat":43.298463,"lon":5.362804,"is_reserved":false,"is_disabled":false,"rental_uris":{"android":"levelo://app?vid=a66c4499-80b2-4849-b750-619e2fe538d1","ios":"levelo://app?vid=a66c4499-80b2-4849-b750-619e2fe538d1"},"vehicle_type_id":"4","last_reported":1750072200,"current_range_meters":12800,"station_id":"ce4bgpp2rcd13ifvqc3g","pricing_plan_id":"cebpf4jnsgd1na2vs0mg"},{"bike_id":"30800f1b-ea19-44d0-b847-dc3bc3f1fa1e","system_id":"levelo_inurba_marseille","lat":43.31488,"lon":5.37306,"is_reserved":false,"is_disabled":false,"rental_uris":{"android":"levelo://app?vid=30800f1b-ea19-44d0-b847-dc3bc3f1fa1e","ios":"levelo://app?vid=30800f1b-ea19-44d0-b847-dc3bc3f1fa1e"},"vehicle_type_id":"4","last_reported":1750072200,"current_range_meters":12800,"station_id":"ce4bgt12rcd13ifvqcd0","pricing_plan_id":"cebpf4jnsgd1na2vs0mg"},{"bike_id":"6ee3851f-2fba-4269-9a00-d9399d6b6575","system_id":"levelo_inurba_marseille","lat":43.284207,"lon":5.34989,"is_reserved":false,"is_disabled":false,"rental_uris":{"android":"levelo://app?vid=6ee3851f-2fba-4269-9a00-d9399d6b6575","ios":"levelo://app?vid=6ee3851f-2fba-4269-9a00-d9399d6b6575"},"vehicle_type_id":"4","last_reported":1750072200,"current_range_meters":12800,"station_id":"ce4bhbh2rcd13ifvqepg","pricing_plan_id":"cebpf4jnsgd1na2vs0mg"},{"bike_id":"d739ba58-ac1f-4954-b91e-481ad88a9f91","system_id":"levelo_inurba_marseille","lat":43.243914,"lon":5.370583,"is_reserved":false,"is_disabled":false,"rental_uris":{"android":"levelo://app?vid=d739ba58-ac1f-4954-b91e-481ad88a9f91","ios":"levelo://app?vid=d739ba58-ac1f-4954-b91e-481ad88a9f91"},"vehicle_type_id":"4","last_reported":1750072200,"current_range_meters":12800,"station_id":"ce4bhhh2rcd13ifvqfk0","pricing_plan_id":"cebpf4jnsgd1na2vs0mg"},{"bike_id":"ec48c276-4c6b-4ab8-84c0-d9c0fd6ef694","system_id":"levelo_inurba_marseille","lat":43.26236,"lon":5.4045,"is_reserved":false,"is_disabled":false,"rental_uris":{"android":"levelo://app?vid=ec48c276-4c6b-4ab8-84c0-d9c0fd6ef694","ios":"levelo://app?vid=ec48c276-4c6b-4ab8-84c0-d9c0fd6ef694"},"vehicle_type_id":"4","last_reported":1750072200,"current_range_meters":12800,"station_id":"ce4bhmh2rcd13ifvqgmg","pricing_plan_id":"cebpf4jnsgd1na2vs0mg"},{"bike_id":"efd29402-1b78-4ac5-88f6-04f5ee5a096b","system_id":"levelo_inurba_marseille","lat":43.24171,"lon":5.36392,"is_reserved":false,"is_disabled":false,"rental_uris":{"android":"levelo://app?vid=efd29402-1b78-4ac5-88f6-04f5ee5a096b","ios":"levelo://app?vid=efd29402-1b78-4ac5-88f6-04f5ee5a096b"},"vehicle_type_id":"4","last_reported":1750072200,"current_range_meters":12800,"station_id":"cpo36qri1sfpv3e86is0","pricing_plan_id":"cebpf4jnsgd1na2vs0mg"},{"bike_id":"6f31c1f8-e01a-4f79-b801-d62cf614b1b9","system_id":"levelo_inurba_marseille","lat":43.25781,"lon":5.37597,"is_reserved":false,"is_disabled":false,"rental_uris":{"android":"levelo://app?vid=6f31c1f8-e01a-4f79-b801-d62cf614b1b9","ios":"levelo://app?vid=6f31c1f8-e01a-4f79-b801-d62cf614b1b9"},"vehicle_type_id":"4","last_reported":1750072200,"current_range_meters":13600,"station_id":"","pricing_plan_id":"cebpf4jnsgd1na2vs0mg"},{"bike_id":"8ba72fc0-ad69-4a2d-8c7d-2dab843633e2","system_id":"levelo_inurba_marseille","lat":43.28846,"lon":5.35847,"is_reserved":false,"is_disabled":false,"rental_uris":{"android":"levelo://app?vid=8ba72fc0-ad69-4a2d-8c7d-2dab843633e2","ios":"levelo://app?vid=8ba72fc0-ad69-4a2d-8c7d-2dab843633e2"},"vehicle_type_id":"4","last_reported":1750072200,"current_range_meters":13600,"station_id":"ce4bhb12rcd13ifvqem0","pricing_plan_id":"cebpf4jnsgd1na2vs0mg"},{"bike_id":"46d82e6a-6f70-4816-beb1-ede72333bb34","system_id":"levelo_inurba_marseille","lat":43.25727,"lon":5.41103,"is_reserved":false,"is_disabled":false,"rental_uris":{"android":"levelo://app?vid=46d82e6a-6f70-4816-beb1-ede72333bb34","ios":"levelo://app?vid=46d82e6a-6f70-4816-beb1-ede72333bb34"},"vehicle_type_id":"4","last_reported":1750072200,"current_range_meters":13600,"station_id":"ce4bhkp2rcd13ifvqgd0","pricing_plan_id":"cebpf4jnsgd1na2vs0mg"},{"bike_id":"0b9ebd98-10d1-4ed5-898b-5863bd831ded","system_id":"levelo_inurba_marseille","lat":43.259284,"lon":5.409126,"is_reserved":false,"is_disabled":false,"rental_uris":{"android":"levelo://app?vid=0b9ebd98-10d1-4ed5-898b-5863bd831ded","ios":"levelo://app?vid=0b9ebd98-10d1-4ed5-898b-5863bd831ded"},"vehicle_type_id":"4","last_reported":1750072200,"current_range_meters":13600,"station_id":"ce4bhm92rcd13ifvqglg","pricing_plan_id":"cebpf4jnsgd1na2vs0mg"},{"bike_id":"508c6318-2e37-4161-9247-29cc1ffa502e","system_id":"levelo_inurba_marseille","lat":43.3292,"lon":5.40567,"is_reserved":false,"is_disabled":false,"rental_uris":{"android":"levelo://app?vid=508c6318-2e37-4161-9247-29cc1ffa502e","ios":"levelo://app?vid=508c6318-2e37-4161-9247-29cc1ffa502e"},"vehicle_type_id":"4","last_reported":1750072200,"current_range_meters":14000,"station_id":"","pricing_plan_id":"cebpf4jnsgd1na2vs0mg"},{"bike_id":"a95b8cc8-0840-4a59-9ea9-81043a541020","system_id":"levelo_inurba_marseille","lat":43.270077,"lon":5.387614,"is_reserved":false,"is_disabled":false,"rental_uris":{"android":"levelo://app?vid=a95b8cc8-0840-4a59-9ea9-81043a541020","ios":"levelo://app?vid=a95b8cc8-0840-4a59-9ea9-81043a541020"},"vehicle_type_id":"4","last_reported":1750072200,"current_range_meters":14000,"station_id":"","pricing_plan_id":"cebpf4jnsgd1na2vs0mg"},{"bike_id":"9c2c3326-03fe-4316-a851-6df54ee811ba","system_id":"levelo_inurba_marseille","lat":43.26033,"lon":5.37545,"is_reserved":false,"is_disabled":false,"rental_uris":{"android":"levelo://app?vid=9c2c3326-03fe-4316-a851-6df54ee811ba","ios":"levelo://app?vid=9c2c3326-03fe-4316-a851-6df54ee811ba"},"vehicle_type_id":"4","last_reported":1750072200,"current_range_meters":14000,"station_id":"ce4bhgh2rcd13ifvqfa0","pricing_plan_id":"cebpf4jnsgd1na2vs0mg"},{"bike_id":"7ba55883-3aa4-4154-937b-c2a4028d6682","system_id":"levelo_inurba_marseille","lat":43.24817,"lon":5.37462,"is_reserved":false,"is_disabled":false,"rental_uris":{"android":"levelo://app?vid=7ba55883-3aa4-4154-937b-c2a4028d6682","ios":"levelo://app?vid=7ba55883-3aa4-4154-937b-c2a4028d6682"},"vehicle_type_id":"4","last_reported":1750072200,"current_range_meters":14000,"station_id":"ce4bhgh2rcd13ifvqfb0","pricing_plan_id":"cebpf4jnsgd1na2vs0mg"},{"bike_id":"f9d9f6e8-18f3-48d0-a831-37e5ef05de0f","system_id":"levelo_inurba_marseille","lat":43.2313,"lon":5.43686,"is_reserved":false,"is_disabled":false,"rental_uris":{"android":"levelo://app?vid=f9d9f6e8-18f3-48d0-a831-37e5ef05de0f","ios":"levelo://app?vid=f9d9f6e8-18f3-48d0-a831-37e5ef05de0f"},"vehicle_type_id":"4","last_reported":1750072200,"current_range_meters":14000,"station_id":"ce4bhmp2rcd13ifvqgog","pricing_plan_id":"cebpf4jnsgd1na2vs0mg"},{"bike_id":"b5f16e8e-ce62-481f-b656-308b02ba7ae6","system_id":"levelo_inurba_marseille","lat":43.29849,"lon":5.36277,"is_reserved":false,"is_disabled":false,"rental_uris":{"android":"levelo://app?vid=b5f16e8e-ce62-481f-b656-308b02ba7ae6","ios":"levelo://app?vid=b5f16e8e-ce62-481f-b656-308b02ba7ae6"},"vehicle_type_id":"4","last_reported":1750072200,"current_range_meters":14400,"station_id":"ce4bgpp2rcd13ifvqc3g","pricing_plan_id":"cebpf4jnsgd1na2vs0mg"},{"bike_id":"884bba7c-6360-42bb-b38a-2dfcb18a90c0","system_id":"levelo_inurba_marseille","lat":43.3009,"lon":5.39078,"is_reserved":false,"is_disabled":false,"rental_uris":{"android":"levelo://app?vid=884bba7c-6360-42bb-b38a-2dfcb18a90c0","ios":"levelo://app?vid=884bba7c-6360-42bb-b38a-2dfcb18a90c0"},"vehicle_type_id":"4","last_reported":1750072200,"current_range_meters":14400,"station_id":"ce4bh192rcd13ifvqdb0","pricing_plan_id":"cebpf4jnsgd1na2vs0mg"},{"bike_id":"d8318d0f-4266-45df-b780-583298efbd5c","system_id":"levelo_inurba_marseille","lat":43.28422,"lon":5.34989,"is_reserved":false,"is_disabled":false,"rental_uris":{"android":"levelo://app?vid=d8318d0f-4266-45df-b780-583298efbd5c","ios":"levelo://app?vid=d8318d0f-4266-45df-b780-583298efbd5c"},"vehicle_type_id":"4","last_reported":1750072200,"current_range_meters":14400,"station_id":"ce4bhbh2rcd13ifvqepg","pricing_plan_id":"cebpf4jnsgd1na2vs0mg"},{"bike_id":"e50f90c2-bbeb-400a-8c17-54fe0ef81832","system_id":"levelo_inurba_marseille","lat":43.28276,"lon":5.35064,"is_reserved":false,"is_disabled":false,"rental_uris":{"android":"levelo://app?vid=e50f90c2-bbeb-400a-8c17-54fe0ef81832","ios":"levelo://app?vid=e50f90c2-bbeb-400a-8c17-54fe0ef81832"},"vehicle_type_id":"4","last_reported":1750072200,"current_range_meters":14400,"station_id":"ce4bhbp2rcd13ifvqerg","pricing_plan_id":"cebpf4jnsgd1na2vs0mg"},{"bike_id":"61eaaf96-2d2b-440f-b884-6098e1bc7a07","system_id":"levelo_inurba_marseille","lat":43.32299,"lon":5.38276,"is_reserved":false,"is_disabled":false,"rental_uris":{"android":"levelo://app?vid=61eaaf96-2d2b-440f-b884-6098e1bc7a07","ios":"levelo://app?vid=61eaaf96-2d2b-440f-b884-6098e1bc7a07"},"vehicle_type_id":"4","last_reported":1750072200,"current_range_meters":14400,"station_id":"ce4bhr12rcd13ifvqhqg","pricing_plan_id":"cebpf4jnsgd1na2vs0mg"},{"bike_id":"7fc864bf-4edd-4941-afa4-6f3f7db3847c","system_id":"levelo_inurba_marseille","lat":43.21195,"lon":5.35074,"is_reserved":false,"is_disabled":false,"rental_uris":{"android":"levelo://app?vid=7fc864bf-4edd-4941-afa4-6f3f7db3847c","ios":"levelo://app?vid=7fc864bf-4edd-4941-afa4-6f3f7db3847c"},"vehicle_type_id":"4","last_reported":1750072200,"current_range_meters":14400,"station_id":"st_cvj6sg6p6f1abm77japg","pricing_plan_id":"cebpf4jnsgd1na2vs0mg"},{"bike_id":"d16f8b8f-cd06-4a8f-9282-d90913f5a4df","system_id":"levelo_inurba_marseille","lat":43.31493,"lon":5.37296,"is_reserved":false,"is_disabled":false,"rental_uris":{"android":"levelo://app?vid=d16f8b8f-cd06-4a8f-9282-d90913f5a4df","ios":"levelo://app?vid=d16f8b8f-cd06-4a8f-9282-d90913f5a4df"},"vehicle_type_id":"4","last_reported":1750072200,"current_range_meters":14800,"station_id":"ce4bgt12rcd13ifvqcd0","pricing_plan_id":"cebpf4jnsgd1na2vs0mg"},{"bike_id":"857fcb89-e874-4b6a-9400-5876da33171d","system_id":"levelo_inurba_marseille","lat":43.24169,"lon":5.3639,"is_reserved":false,"is_disabled":false,"rental_uris":{"android":"levelo://app?vid=857fcb89-e874-4b6a-9400-5876da33171d","ios":"levelo://app?vid=857fcb89-e874-4b6a-9400-5876da33171d"},"vehicle_type_id":"4","last_reported":1750072200,"current_range_meters":14800,"station_id":"cpo36qri1sfpv3e86is0","pricing_plan_id":"cebpf4jnsgd1na2vs0mg"},{"bike_id":"7b9010cb-65eb-4696-b39f-3538e90a6031","system_id":"levelo_inurba_marseille","lat":43.341863,"lon":5.374455,"is_reserved":false,"is_disabled":false,"rental_uris":{"android":"levelo://app?vid=7b9010cb-65eb-4696-b39f-3538e90a6031","ios":"levelo://app?vid=7b9010cb-65eb-4696-b39f-3538e90a6031"},"vehicle_type_id":"4","last_reported":1750072200,"current_range_meters":15200,"station_id":"","pricing_plan_id":"cebpf4jnsgd1na2vs0mg"},{"bike_id":"2df65a0a-fd79-47f9-8268-e84932c7de6d","system_id":"levelo_inurba_marseille","lat":43.33773,"lon":5.37432,"is_reserved":false,"is_disabled":false,"rental_uris":{"android":"levelo://app?vid=2df65a0a-fd79-47f9-8268-e84932c7de6d","ios":"levelo://app?vid=2df65a0a-fd79-47f9-8268-e84932c7de6d"},"vehicle_type_id":"4","last_reported":1750072200,"current_range_meters":15200,"station_id":"","pricing_plan_id":"cebpf4jnsgd1na2vs0mg"},{"bike_id":"1b9748db-e477-40ad-a5b3-6f044606f2ad","system_id":"levelo_inurba_marseille","lat":43.298936,"lon":5.436666,"is_reserved":false,"is_disabled":false,"rental_uris":{"android":"levelo://app?vid=1b9748db-e477-40ad-a5b3-6f044606f2ad","ios":"levelo://app?vid=1b9748db-e477-40ad-a5b3-6f044606f2ad"},"vehicle_type_id":"4","last_reported":1750072200,"current_range_meters":15200,"station_id":"ce4bhpp2rcd13ifvqhfg","pricing_plan_id":"cebpf4jnsgd1na2vs0mg"},{"bike_id":"5a666a82-b286-4a6b-8c27-4f992304f0f4","system_id":"levelo_inurba_marseille","lat":43.265332,"lon":5.395246,"is_reserved":false,"is_disabled":false,"rental_uris":{"android":"levelo://app?vid=5a666a82-b286-4a6b-8c27-4f992304f0f4","ios":"levelo://app?vid=5a666a82-b286-4a6b-8c27-4f992304f0f4"},"vehicle_type_id":"4","last_reported":1750072200,"current_range_meters":16000,"station_id":"","pricing_plan_id":"cebpf4jnsgd1na2vs0mg"},{"bike_id":"f718d3b0-9f68-402c-a133-da1f867d509c","system_id":"levelo_inurba_marseille","lat":43.31365,"lon":5.38493,"is_reserved":false,"is_disabled":false,"rental_uris":{"android":"levelo://app?vid=f718d3b0-9f68-402c-a133-da1f867d509c","ios":"levelo://app?vid=f718d3b0-9f68-402c-a133-da1f867d509c"},"vehicle_type_id":"4","last_reported":1750072200,"current_range_meters":16000,"station_id":"ce4bgt92rcd13ifvqcf0","pricing_plan_id":"cebpf4jnsgd1na2vs0mg"},{"bike_id":"d5fde66e-d0c8-4d86-a46d-470da0db6a36","system_id":"levelo_inurba_marseille","lat":43.27372,"lon":5.36253,"is_reserved":false,"is_disabled":false,"rental_uris":{"android":"levelo://app?vid=d5fde66e-d0c8-4d86-a46d-470da0db6a36","ios":"levelo://app?vid=d5fde66e-d0c8-4d86-a46d-470da0db6a36"},"vehicle_type_id":"4","last_reported":1750072200,"current_range_meters":16000,"station_id":"ce4bhbh2rcd13ifvqeo0","pricing_plan_id":"cebpf4jnsgd1na2vs0mg"},{"bike_id":"824c9de1-838b-423a-850c-7b2e961d5689","system_id":"levelo_inurba_marseille","lat":43.324826,"lon":5.365618,"is_reserved":false,"is_disabled":false,"rental_uris":{"android":"levelo://app?vid=824c9de1-838b-423a-850c-7b2e961d5689","ios":"levelo://app?vid=824c9de1-838b-423a-850c-7b2e961d5689"},"vehicle_type_id":"4","last_reported":1750072200,"current_range_meters":16000,"station_id":"ce4bhs12rcd13ifvqhvg","pricing_plan_id":"cebpf4jnsgd1na2vs0mg"},{"bike_id":"6f904e79-074e-44f7-a4ee-8b0cd00a4a95","system_id":"levelo_inurba_marseille","lat":43.21192,"lon":5.35073,"is_reserved":false,"is_disabled":false,"rental_uris":{"android":"levelo://app?vid=6f904e79-074e-44f7-a4ee-8b0cd00a4a95","ios":"levelo://app?vid=6f904e79-074e-44f7-a4ee-8b0cd00a4a95"},"vehicle_type_id":"4","last_reported":1750072200,"current_range_meters":16000,"station_id":"st_cvj6sg6p6f1abm77japg","pricing_plan_id":"cebpf4jnsgd1na2vs0mg"},{"bike_id":"b31d3165-d5e1-4bc6-a607-ca1a1c981148","system_id":"levelo_inurba_marseille","lat":43.27579,"lon":5.41756,"is_reserved":false,"is_disabled":false,"rental_uris":{"android":"levelo://app?vid=b31d3165-d5e1-4bc6-a607-ca1a1c981148","ios":"levelo://app?vid=b31d3165-d5e1-4bc6-a607-ca1a1c981148"},"vehicle_type_id":"4","last_reported":1750072200,"current_range_meters":16400,"station_id":"","pricing_plan_id":"cebpf4jnsgd1na2vs0mg"},{"bike_id":"a81f72c6-8c70-4099-a3c9-8157c360b7e4","system_id":"levelo_inurba_marseille","lat":43.29031,"lon":5.3864,"is_reserved":false,"is_disabled":false,"rental_uris":{"android":"levelo://app?vid=a81f72c6-8c70-4099-a3c9-8157c360b7e4","ios":"levelo://app?vid=a81f72c6-8c70-4099-a3c9-8157c360b7e4"},"vehicle_type_id":"4","last_reported":1750072200,"current_range_meters":16400,"station_id":"ce4bh4p2rcd13ifvqe0g","pricing_plan_id":"cebpf4jnsgd1na2vs0mg"},{"bike_id":"87f597a4-cc46-4064-8295-153508e6e6ed","system_id":"levelo_inurba_marseille","lat":43.26682,"lon":5.38269,"is_reserved":false,"is_disabled":false,"rental_uris":{"android":"levelo://app?vid=87f597a4-cc46-4064-8295-153508e6e6ed","ios":"levelo://app?vid=87f597a4-cc46-4064-8295-153508e6e6ed"},"vehicle_type_id":"4","last_reported":1750072200,"current_range_meters":16400,"station_id":"ce4bhg92rcd13ifvqf90","pricing_plan_id":"cebpf4jnsgd1na2vs0mg"},{"bike_id":"c02678ee-3ebe-4ca4-b98d-954b23e7274c","system_id":"levelo_inurba_marseille","lat":43.23191,"lon":5.39985,"is_reserved":false,"is_disabled":false,"rental_uris":{"android":"levelo://app?vid=c02678ee-3ebe-4ca4-b98d-954b23e7274c","ios":"levelo://app?vid=c02678ee-3ebe-4ca4-b98d-954b23e7274c"},"vehicle_type_id":"4","last_reported":1750072200,"current_range_meters":16400,"station_id":"ce4bhn12rcd13ifvqgqg","pricing_plan_id":"cebpf4jnsgd1na2vs0mg"},{"bike_id":"a8a6c345-f943-4ea0-8625-e391247775cc","system_id":"levelo_inurba_marseille","lat":43.33631,"lon":5.41033,"is_reserved":false,"is_disabled":false,"rental_uris":{"android":"levelo://app?vid=a8a6c345-f943-4ea0-8625-e391247775cc","ios":"levelo://app?vid=a8a6c345-f943-4ea0-8625-e391247775cc"},"vehicle_type_id":"4","last_reported":1750072200,"current_range_meters":16400,"station_id":"ce4bhqh2rcd13ifvqhmg","pricing_plan_id":"cebpf4jnsgd1na2vs0mg"},{"bike_id":"b200674b-2afa-40ff-b238-2359448b6baf","system_id":"levelo_inurba_marseille","lat":43.23195,"lon":5.35533,"is_reserved":false,"is_disabled":false,"rental_uris":{"android":"levelo://app?vid=b200674b-2afa-40ff-b238-2359448b6baf","ios":"levelo://app?vid=b200674b-2afa-40ff-b238-2359448b6baf"},"vehicle_type_id":"4","last_reported":1750072200,"current_range_meters":16400,"station_id":"ce4bhu92rcd13ifvqi70","pricing_plan_id":"cebpf4jnsgd1na2vs0mg"},{"bike_id":"74150b49-482b-478a-a1ce-f6148165b8f3","system_id":"levelo_inurba_marseille","lat":43.282685,"lon":5.350604,"is_reserved":false,"is_disabled":false,"rental_uris":{"android":"levelo://app?vid=74150b49-482b-478a-a1ce-f6148165b8f3","ios":"levelo://app?vid=74150b49-482b-478a-a1ce-f6148165b8f3"},"vehicle_type_id":"4","last_reported":1750072200,"current_range_meters":16800,"station_id":"","pricing_plan_id":"cebpf4jnsgd1na2vs0mg"},{"bike_id":"8d152c80-5b4c-4cd3-9670-e9f43d77fa50","system_id":"levelo_inurba_marseille","lat":43.30497,"lon":5.37921,"is_reserved":false,"is_disabled":false,"rental_uris":{"android":"levelo://app?vid=8d152c80-5b4c-4cd3-9670-e9f43d77fa50","ios":"levelo://app?vid=8d152c80-5b4c-4cd3-9670-e9f43d77fa50"},"vehicle_type_id":"4","last_reported":1750072200,"current_range_meters":16800,"station_id":"ce4bgup2rcd13ifvqcn0","pricing_plan_id":"cebpf4jnsgd1na2vs0mg"},{"bike_id":"141339b2-53ad-42d7-94ee-12201448aae0","system_id":"levelo_inurba_marseille","lat":43.28939,"lon":5.39623,"is_reserved":false,"is_disabled":false,"rental_uris":{"android":"levelo://app?vid=141339b2-53ad-42d7-94ee-12201448aae0","ios":"levelo://app?vid=141339b2-53ad-42d7-94ee-12201448aae0"},"vehicle_type_id":"4","last_reported":1750072200,"current_range_meters":16800,"station_id":"ce4bh3h2rcd13ifvqdn0","pricing_plan_id":"cebpf4jnsgd1na2vs0mg"},{"bike_id":"2443cc43-ddf7-403c-985e-d8dd08db7d75","system_id":"levelo_inurba_marseille","lat":43.266809,"lon":5.382661,"is_reserved":false,"is_disabled":false,"rental_uris":{"android":"levelo://app?vid=2443cc43-ddf7-403c-985e-d8dd08db7d75","ios":"levelo://app?vid=2443cc43-ddf7-403c-985e-d8dd08db7d75"},"vehicle_type_id":"4","last_reported":1750072200,"current_range_meters":16800,"station_id":"ce4bhg92rcd13ifvqf90","pricing_plan_id":"cebpf4jnsgd1na2vs0mg"},{"bike_id":"ebdc4600-06dc-44d0-a9e8-f84b591aa976","system_id":"levelo_inurba_marseille","lat":43.28422,"lon":5.37513,"is_reserved":false,"is_disabled":false,"rental_uris":{"android":"levelo://app?vid=ebdc4600-06dc-44d0-a9e8-f84b591aa976","ios":"levelo://app?vid=ebdc4600-06dc-44d0-a9e8-f84b591aa976"},"vehicle_type_id":"4","last_reported":1750072200,"current_range_meters":17200,"station_id":"ce4bh412rcd13ifvqds0","pricing_plan_id":"cebpf4jnsgd1na2vs0mg"},{"bike_id":"790e7dc0-04e8-4f17-81f8-b853a72835ed","system_id":"levelo_inurba_marseille","lat":43.28849,"lon":5.35847,"is_reserved":false,"is_disabled":false,"rental_uris":{"android":"levelo://app?vid=790e7dc0-04e8-4f17-81f8-b853a72835ed","ios":"levelo://app?vid=790e7dc0-04e8-4f17-81f8-b853a72835ed"},"vehicle_type_id":"4","last_reported":1750072200,"current_range_meters":17200,"station_id":"ce4bhb12rcd13ifvqem0","pricing_plan_id":"cebpf4jnsgd1na2vs0mg"},{"bike_id":"b49ba9cd-4926-4898-a297-cdabb5c00ee2","system_id":"levelo_inurba_marseille","lat":43.28427,"lon":5.34989,"is_reserved":false,"is_disabled":false,"rental_uris":{"android":"levelo://app?vid=b49ba9cd-4926-4898-a297-cdabb5c00ee2","ios":"levelo://app?vid=b49ba9cd-4926-4898-a297-cdabb5c00ee2"},"vehicle_type_id":"4","last_reported":1750072200,"current_range_meters":17200,"station_id":"ce4bhbh2rcd13ifvqepg","pricing_plan_id":"cebpf4jnsgd1na2vs0mg"},{"bike_id":"7c469ef6-3cd9-4c07-996c-52996d1a798c","system_id":"levelo_inurba_marseille","lat":43.23148,"lon":5.43718,"is_reserved":false,"is_disabled":false,"rental_uris":{"android":"levelo://app?vid=7c469ef6-3cd9-4c07-996c-52996d1a798c","ios":"levelo://app?vid=7c469ef6-3cd9-4c07-996c-52996d1a798c"},"vehicle_type_id":"4","last_reported":1750072200,"current_range_meters":17200,"station_id":"ce4bhmp2rcd13ifvqgog","pricing_plan_id":"cebpf4jnsgd1na2vs0mg"},{"bike_id":"3a4e3220-f890-43d0-8f6b-1783f08b7807","system_id":"levelo_inurba_marseille","lat":43.24174,"lon":5.39729,"is_reserved":false,"is_disabled":false,"rental_uris":{"android":"levelo://app?vid=3a4e3220-f890-43d0-8f6b-1783f08b7807","ios":"levelo://app?vid=3a4e3220-f890-43d0-8f6b-1783f08b7807"},"vehicle_type_id":"4","last_reported":1750072200,"current_range_meters":17200,"station_id":"ce4bhn12rcd13ifvqgpg","pricing_plan_id":"cebpf4jnsgd1na2vs0mg"},{"bike_id":"791d4f1c-83c3-4b7a-bc7b-8e3da4a62e2d","system_id":"levelo_inurba_marseille","lat":43.299022,"lon":5.436686,"is_reserved":false,"is_disabled":false,"rental_uris":{"android":"levelo://app?vid=791d4f1c-83c3-4b7a-bc7b-8e3da4a62e2d","ios":"levelo://app?vid=791d4f1c-83c3-4b7a-bc7b-8e3da4a62e2d"},"vehicle_type_id":"4","last_reported":1750072200,"current_range_meters":17200,"station_id":"ce4bhpp2rcd13ifvqhfg","pricing_plan_id":"cebpf4jnsgd1na2vs0mg"},{"bike_id":"26e080b7-95d2-4195-a5b0-e90ab06e9bef","system_id":"levelo_inurba_marseille","lat":43.271813,"lon":5.399853,"is_reserved":false,"is_disabled":false,"rental_uris":{"android":"levelo://app?vid=26e080b7-95d2-4195-a5b0-e90ab06e9bef","ios":"levelo://app?vid=26e080b7-95d2-4195-a5b0-e90ab06e9bef"},"vehicle_type_id":"4","last_reported":1750072200,"current_range_meters":17600,"station_id":"","pricing_plan_id":"cebpf4jnsgd1na2vs0mg"},{"bike_id":"4b88a63b-c3b4-4854-84ce-57b401c803d4","system_id":"levelo_inurba_marseille","lat":43.30913,"lon":5.36844,"is_reserved":false,"is_disabled":false,"rental_uris":{"android":"levelo://app?vid=4b88a63b-c3b4-4854-84ce-57b401c803d4","ios":"levelo://app?vid=4b88a63b-c3b4-4854-84ce-57b401c803d4"},"vehicle_type_id":"4","last_reported":1750072200,"current_range_meters":17600,"station_id":"ce4bgn92rcd13ifvqbvg","pricing_plan_id":"cebpf4jnsgd1na2vs0mg"},{"bike_id":"371b9041-9898-4624-ac60-3643bd42c174","system_id":"levelo_inurba_marseille","lat":43.30943,"lon":5.36871,"is_reserved":false,"is_disabled":false,"rental_uris":{"android":"levelo://app?vid=371b9041-9898-4624-ac60-3643bd42c174","ios":"levelo://app?vid=371b9041-9898-4624-ac60-3643bd42c174"},"vehicle_type_id":"4","last_reported":1750072200,"current_range_meters":17600,"station_id":"ce4bgn92rcd13ifvqbvg","pricing_plan_id":"cebpf4jnsgd1na2vs0mg"},{"bike_id":"69ee49a4-f077-4c61-a17c-895aa9998a59","system_id":"levelo_inurba_marseille","lat":43.28616,"lon":5.35094,"is_reserved":false,"is_disabled":false,"rental_uris":{"android":"levelo://app?vid=69ee49a4-f077-4c61-a17c-895aa9998a59","ios":"levelo://app?vid=69ee49a4-f077-4c61-a17c-895aa9998a59"},"vehicle_type_id":"4","last_reported":1750072200,"current_range_meters":17600,"station_id":"ce4bhch2rcd13ifvqeug","pricing_plan_id":"cebpf4jnsgd1na2vs0mg"},{"bike_id":"0df8b950-28cb-4ac4-a7e4-ae326df06d7e","system_id":"levelo_inurba_marseille","lat":43.2862,"lon":5.35103,"is_reserved":false,"is_disabled":false,"rental_uris":{"android":"levelo://app?vid=0df8b950-28cb-4ac4-a7e4-ae326df06d7e","ios":"levelo://app?vid=0df8b950-28cb-4ac4-a7e4-ae326df06d7e"},"vehicle_type_id":"4","last_reported":1750072200,"current_range_meters":17600,"station_id":"ce4bhch2rcd13ifvqeug","pricing_plan_id":"cebpf4jnsgd1na2vs0mg"},{"bike_id":"c2d4dd75-05e4-4622-8112-c929cd066280","system_id":"levelo_inurba_marseille","lat":43.24384,"lon":5.37051,"is_reserved":false,"is_disabled":false,"rental_uris":{"android":"levelo://app?vid=c2d4dd75-05e4-4622-8112-c929cd066280","ios":"levelo://app?vid=c2d4dd75-05e4-4622-8112-c929cd066280"},"vehicle_type_id":"4","last_reported":1750072200,"current_range_meters":17600,"station_id":"ce4bhhh2rcd13ifvqfk0","pricing_plan_id":"cebpf4jnsgd1na2vs0mg"},{"bike_id":"18505aba-73fa-40fd-9518-6738f435d62c","system_id":"levelo_inurba_marseille","lat":43.32371,"lon":5.38884,"is_reserved":false,"is_disabled":false,"rental_uris":{"android":"levelo://app?vid=18505aba-73fa-40fd-9518-6738f435d62c","ios":"levelo://app?vid=18505aba-73fa-40fd-9518-6738f435d62c"},"vehicle_type_id":"4","last_reported":1750072200,"current_range_meters":17600,"station_id":"ce4bhqp2rcd13ifvqhog","pricing_plan_id":"cebpf4jnsgd1na2vs0mg"},{"bike_id":"b2c6dc29-596d-4452-a11c-b3cc89a3b060","system_id":"levelo_inurba_marseille","lat":43.232,"lon":5.35553,"is_reserved":false,"is_disabled":false,"rental_uris":{"android":"levelo://app?vid=b2c6dc29-596d-4452-a11c-b3cc89a3b060","ios":"levelo://app?vid=b2c6dc29-596d-4452-a11c-b3cc89a3b060"},"vehicle_type_id":"4","last_reported":1750072200,"current_range_meters":17600,"station_id":"ce4bhu92rcd13ifvqi70","pricing_plan_id":"cebpf4jnsgd1na2vs0mg"},{"bike_id":"3935fe38-0428-4717-ac04-aecea5d3ffd3","system_id":"levelo_inurba_marseille","lat":43.29868,"lon":5.36295,"is_reserved":false,"is_disabled":false,"rental_uris":{"android":"levelo://app?vid=3935fe38-0428-4717-ac04-aecea5d3ffd3","ios":"levelo://app?vid=3935fe38-0428-4717-ac04-aecea5d3ffd3"},"vehicle_type_id":"4","last_reported":1750072200,"current_range_meters":18000,"station_id":"ce4bgpp2rcd13ifvqc3g","pricing_plan_id":"cebpf4jnsgd1na2vs0mg"},{"bike_id":"cbf17354-e75f-46ca-a430-5d0cae6adbaa","system_id":"levelo_inurba_marseille","lat":43.30211,"lon":5.3661,"is_reserved":false,"is_disabled":false,"rental_uris":{"android":"levelo://app?vid=cbf17354-e75f-46ca-a430-5d0cae6adbaa","ios":"levelo://app?vid=cbf17354-e75f-46ca-a430-5d0cae6adbaa"},"vehicle_type_id":"4","last_reported":1750072200,"current_range_meters":18000,"station_id":"ce4bgrh2rcd13ifvqc8g","pricing_plan_id":"cebpf4jnsgd1na2vs0mg"},{"bike_id":"d0a2838c-57f7-440d-a45b-dc092b311656","system_id":"levelo_inurba_marseille","lat":43.26204,"lon":5.37923,"is_reserved":false,"is_disabled":false,"rental_uris":{"android":"levelo://app?vid=d0a2838c-57f7-440d-a45b-dc092b311656","ios":"levelo://app?vid=d0a2838c-57f7-440d-a45b-dc092b311656"},"vehicle_type_id":"4","last_reported":1750072200,"current_range_meters":18000,"station_id":"ce4bhjp2rcd13ifvqg90","pricing_plan_id":"cebpf4jnsgd1na2vs0mg"},{"bike_id":"db696f9f-9ecc-4e26-bd9c-bd73bc64204b","system_id":"levelo_inurba_marseille","lat":43.29896,"lon":5.4366,"is_reserved":false,"is_disabled":false,"rental_uris":{"android":"levelo://app?vid=db696f9f-9ecc-4e26-bd9c-bd73bc64204b","ios":"levelo://app?vid=db696f9f-9ecc-4e26-bd9c-bd73bc64204b"},"vehicle_type_id":"4","last_reported":1750072200,"current_range_meters":18000,"station_id":"ce4bhpp2rcd13ifvqhfg","pricing_plan_id":"cebpf4jnsgd1na2vs0mg"},{"bike_id":"c20451b8-ea3d-49aa-99f8-dc989295f9b4","system_id":"levelo_inurba_marseille","lat":43.230583,"lon":5.354968,"is_reserved":false,"is_disabled":false,"rental_uris":{"android":"levelo://app?vid=c20451b8-ea3d-49aa-99f8-dc989295f9b4","ios":"levelo://app?vid=c20451b8-ea3d-49aa-99f8-dc989295f9b4"},"vehicle_type_id":"4","last_reported":1750072200,"current_range_meters":18000,"station_id":"cpo3342slgdg3j2ifvpg","pricing_plan_id":"cebpf4jnsgd1na2vs0mg"},{"bike_id":"b12f0834-9eb4-4707-8669-5067cbd09c06","system_id":"levelo_inurba_marseille","lat":43.32902,"lon":5.39084,"is_reserved":false,"is_disabled":false,"rental_uris":{"android":"levelo://app?vid=b12f0834-9eb4-4707-8669-5067cbd09c06","ios":"levelo://app?vid=b12f0834-9eb4-4707-8669-5067cbd09c06"},"vehicle_type_id":"4","last_reported":1750072200,"current_range_meters":18800,"station_id":"","pricing_plan_id":"cebpf4jnsgd1na2vs0mg"},{"bike_id":"0014d894-728c-4aec-8e0d-6ceef25f12a1","system_id":"levelo_inurba_marseille","lat":43.308038,"lon":5.38147,"is_reserved":false,"is_disabled":false,"rental_uris":{"android":"levelo://app?vid=0014d894-728c-4aec-8e0d-6ceef25f12a1","ios":"levelo://app?vid=0014d894-728c-4aec-8e0d-6ceef25f12a1"},"vehicle_type_id":"4","last_reported":1750072200,"current_range_meters":18800,"station_id":"ce4bgt12rcd13ifvqce0","pricing_plan_id":"cebpf4jnsgd1na2vs0mg"},{"bike_id":"ea8cbf0d-a744-4d5d-bd25-1fd7ee68db7e","system_id":"levelo_inurba_marseille","lat":43.28036,"lon":5.3695,"is_reserved":false,"is_disabled":false,"rental_uris":{"android":"levelo://app?vid=ea8cbf0d-a744-4d5d-bd25-1fd7ee68db7e","ios":"levelo://app?vid=ea8cbf0d-a744-4d5d-bd25-1fd7ee68db7e"},"vehicle_type_id":"4","last_reported":1750072200,"current_range_meters":18800,"station_id":"ce4bha12rcd13ifvqef0","pricing_plan_id":"cebpf4jnsgd1na2vs0mg"},{"bike_id":"015c17e9-71b7-4b78-9bdf-9db30b66f1fe","system_id":"levelo_inurba_marseille","lat":43.241727,"lon":5.39731,"is_reserved":false,"is_disabled":false,"rental_uris":{"android":"levelo://app?vid=015c17e9-71b7-4b78-9bdf-9db30b66f1fe","ios":"levelo://app?vid=015c17e9-71b7-4b78-9bdf-9db30b66f1fe"},"vehicle_type_id":"4","last_reported":1750072200,"current_range_meters":18800,"station_id":"ce4bhn12rcd13ifvqgpg","pricing_plan_id":"cebpf4jnsgd1na2vs0mg"},{"bike_id":"bbc9c365-c9a4-445f-a0b2-e261cc4009f5","system_id":"levelo_inurba_marseille","lat":43.32528,"lon":5.414386,"is_reserved":false,"is_disabled":false,"rental_uris":{"android":"levelo://app?vid=bbc9c365-c9a4-445f-a0b2-e261cc4009f5","ios":"levelo://app?vid=bbc9c365-c9a4-445f-a0b2-e261cc4009f5"},"vehicle_type_id":"4","last_reported":1750072200,"current_range_meters":18800,"station_id":"ce4bhq12rcd13ifvqhhg","pricing_plan_id":"cebpf4jnsgd1na2vs0mg"},{"bike_id":"e612b7a7-3207-4aae-b53e-c8d480fc9283","system_id":"levelo_inurba_marseille","lat":43.23194,"lon":5.35549,"is_reserved":false,"is_disabled":false,"rental_uris":{"android":"levelo://app?vid=e612b7a7-3207-4aae-b53e-c8d480fc9283","ios":"levelo://app?vid=e612b7a7-3207-4aae-b53e-c8d480fc9283"},"vehicle_type_id":"4","last_reported":1750072200,"current_range_meters":18800,"station_id":"ce4bhu92rcd13ifvqi70","pricing_plan_id":"cebpf4jnsgd1na2vs0mg"},{"bike_id":"f8f5c739-72f4-49b1-b3d4-90e1f195211d","system_id":"levelo_inurba_marseille","lat":43.211925,"lon":5.350713,"is_reserved":false,"is_disabled":false,"rental_uris":{"android":"levelo://app?vid=f8f5c739-72f4-49b1-b3d4-90e1f195211d","ios":"levelo://app?vid=f8f5c739-72f4-49b1-b3d4-90e1f195211d"},"vehicle_type_id":"4","last_reported":1750072200,"current_range_meters":18800,"station_id":"st_cvj6sg6p6f1abm77japg","pricing_plan_id":"cebpf4jnsgd1na2vs0mg"},{"bike_id":"9c06035d-5be6-4289-a05d-da0e66452421","system_id":"levelo_inurba_marseille","lat":43.337444,"lon":5.374475,"is_reserved":false,"is_disabled":false,"rental_uris":{"android":"levelo://app?vid=9c06035d-5be6-4289-a05d-da0e66452421","ios":"levelo://app?vid=9c06035d-5be6-4289-a05d-da0e66452421"},"vehicle_type_id":"4","last_reported":1750072200,"current_range_meters":19200,"station_id":"","pricing_plan_id":"cebpf4jnsgd1na2vs0mg"},{"bike_id":"87da26bd-c16c-4a9b-bb4f-3833c1797059","system_id":"levelo_inurba_marseille","lat":43.3014,"lon":5.38055,"is_reserved":false,"is_disabled":false,"rental_uris":{"android":"levelo://app?vid=87da26bd-c16c-4a9b-bb4f-3833c1797059","ios":"levelo://app?vid=87da26bd-c16c-4a9b-bb4f-3833c1797059"},"vehicle_type_id":"4","last_reported":1750072200,"current_range_meters":19200,"station_id":"ce4bgjp2rcd13ifvqbh0","pricing_plan_id":"cebpf4jnsgd1na2vs0mg"},{"bike_id":"4323e427-2364-4de6-b052-a86908cce8ba","system_id":"levelo_inurba_marseille","lat":43.3096,"lon":5.39032,"is_reserved":false,"is_disabled":false,"rental_uris":{"android":"levelo://app?vid=4323e427-2364-4de6-b052-a86908cce8ba","ios":"levelo://app?vid=4323e427-2364-4de6-b052-a86908cce8ba"},"vehicle_type_id":"4","last_reported":1750072200,"current_range_meters":19200,"station_id":"ce4bgup2rcd13ifvqco0","pricing_plan_id":"cebpf4jnsgd1na2vs0mg"},{"bike_id":"99f8b648-3b9f-4cf1-8043-bb2f703ff1b3","system_id":"levelo_inurba_marseille","lat":43.309,"lon":5.39638,"is_reserved":false,"is_disabled":false,"rental_uris":{"android":"levelo://app?vid=99f8b648-3b9f-4cf1-8043-bb2f703ff1b3","ios":"levelo://app?vid=99f8b648-3b9f-4cf1-8043-bb2f703ff1b3"},"vehicle_type_id":"4","last_reported":1750072200,"current_range_meters":19200,"station_id":"ce4bh012rcd13ifvqcv0","pricing_plan_id":"cebpf4jnsgd1na2vs0mg"},{"bike_id":"9d0ca9b6-fb3d-46dd-8058-17bda0ae4e63","system_id":"levelo_inurba_marseille","lat":43.24189,"lon":5.39742,"is_reserved":false,"is_disabled":false,"rental_uris":{"android":"levelo://app?vid=9d0ca9b6-fb3d-46dd-8058-17bda0ae4e63","ios":"levelo://app?vid=9d0ca9b6-fb3d-46dd-8058-17bda0ae4e63"},"vehicle_type_id":"4","last_reported":1750072200,"current_range_meters":19200,"station_id":"ce4bhn12rcd13ifvqgpg","pricing_plan_id":"cebpf4jnsgd1na2vs0mg"},{"bike_id":"732c24e1-3abc-48d4-8b05-2f6dacebc160","system_id":"levelo_inurba_marseille","lat":43.323548,"lon":5.367475,"is_reserved":false,"is_disabled":false,"rental_uris":{"android":"levelo://app?vid=732c24e1-3abc-48d4-8b05-2f6dacebc160","ios":"levelo://app?vid=732c24e1-3abc-48d4-8b05-2f6dacebc160"},"vehicle_type_id":"4","last_reported":1750072200,"current_range_meters":19200,"station_id":"ce4bhsh2rcd13ifvqi2g","pricing_plan_id":"cebpf4jnsgd1na2vs0mg"},{"bike_id":"2a346283-0ac4-40e7-8992-69a2c4fdd309","system_id":"levelo_inurba_marseille","lat":43.23193,"lon":5.35551,"is_reserved":false,"is_disabled":false,"rental_uris":{"android":"levelo://app?vid=2a346283-0ac4-40e7-8992-69a2c4fdd309","ios":"levelo://app?vid=2a346283-0ac4-40e7-8992-69a2c4fdd309"},"vehicle_type_id":"4","last_reported":1750072200,"current_range_meters":19200,"station_id":"ce4bhu92rcd13ifvqi70","pricing_plan_id":"cebpf4jnsgd1na2vs0mg"},{"bike_id":"5bc43ec5-1929-4869-823a-615a7e05b1f2","system_id":"levelo_inurba_marseille","lat":43.24168,"lon":5.36403,"is_reserved":false,"is_disabled":false,"rental_uris":{"android":"levelo://app?vid=5bc43ec5-1929-4869-823a-615a7e05b1f2","ios":"levelo://app?vid=5bc43ec5-1929-4869-823a-615a7e05b1f2"},"vehicle_type_id":"4","last_reported":1750072200,"current_range_meters":19200,"station_id":"cpo36qri1sfpv3e86is0","pricing_plan_id":"cebpf4jnsgd1na2vs0mg"},{"bike_id":"b38da09b-f621-4f83-85a7-31d404e707f9","system_id":"levelo_inurba_marseille","lat":43.25319,"lon":5.3939,"is_reserved":false,"is_disabled":false,"rental_uris":{"android":"levelo://app?vid=b38da09b-f621-4f83-85a7-31d404e707f9","ios":"levelo://app?vid=b38da09b-f621-4f83-85a7-31d404e707f9"},"vehicle_type_id":"4","last_reported":1750072200,"current_range_meters":19600,"station_id":"","pricing_plan_id":"cebpf4jnsgd1na2vs0mg"},{"bike_id":"0f1652d1-2afe-45c0-9d5e-72b7039f62d4","system_id":"levelo_inurba_marseille","lat":43.30427,"lon":5.38876,"is_reserved":false,"is_disabled":false,"rental_uris":{"android":"levelo://app?vid=0f1652d1-2afe-45c0-9d5e-72b7039f62d4","ios":"levelo://app?vid=0f1652d1-2afe-45c0-9d5e-72b7039f62d4"},"vehicle_type_id":"4","last_reported":1750072200,"current_range_meters":19600,"station_id":"ce4bgk12rcd13ifvqbi0","pricing_plan_id":"cebpf4jnsgd1na2vs0mg"},{"bike_id":"455d9a00-b2ae-4156-9ea2-2e01212eabf8","system_id":"levelo_inurba_marseille","lat":43.30444,"lon":5.38895,"is_reserved":false,"is_disabled":false,"rental_uris":{"android":"levelo://app?vid=455d9a00-b2ae-4156-9ea2-2e01212eabf8","ios":"levelo://app?vid=455d9a00-b2ae-4156-9ea2-2e01212eabf8"},"vehicle_type_id":"4","last_reported":1750072200,"current_range_meters":19600,"station_id":"ce4bgk12rcd13ifvqbi0","pricing_plan_id":"cebpf4jnsgd1na2vs0mg"},{"bike_id":"2486efc6-1954-47da-a063-27ce2f213763","system_id":"levelo_inurba_marseille","lat":43.31498,"lon":5.37312,"is_reserved":false,"is_disabled":false,"rental_uris":{"android":"levelo://app?vid=2486efc6-1954-47da-a063-27ce2f213763","ios":"levelo://app?vid=2486efc6-1954-47da-a063-27ce2f213763"},"vehicle_type_id":"4","last_reported":1750072200,"current_range_meters":19600,"station_id":"ce4bgt12rcd13ifvqcd0","pricing_plan_id":"cebpf4jnsgd1na2vs0mg"},{"bike_id":"bfd38bb3-b863-4522-9ca8-cfc5307e47cd","system_id":"levelo_inurba_marseille","lat":43.28363,"lon":5.38111,"is_reserved":false,"is_disabled":false,"rental_uris":{"android":"levelo://app?vid=bfd38bb3-b863-4522-9ca8-cfc5307e47cd","ios":"levelo://app?vid=bfd38bb3-b863-4522-9ca8-cfc5307e47cd"},"vehicle_type_id":"4","last_reported":1750072200,"current_range_meters":19600,"station_id":"ce4bh412rcd13ifvqdr0","pricing_plan_id":"cebpf4jnsgd1na2vs0mg"},{"bike_id":"f3e37464-3394-42cb-91dc-639eb416c4f6","system_id":"levelo_inurba_marseille","lat":43.289994,"lon":5.356176,"is_reserved":false,"is_disabled":false,"rental_uris":{"android":"levelo://app?vid=f3e37464-3394-42cb-91dc-639eb416c4f6","ios":"levelo://app?vid=f3e37464-3394-42cb-91dc-639eb416c4f6"},"vehicle_type_id":"4","last_reported":1750072200,"current_range_meters":19600,"station_id":"ce4bhb92rcd13ifvqen0","pricing_plan_id":"cebpf4jnsgd1na2vs0mg"},{"bike_id":"b839ed1b-9527-4e87-90f6-ee4ed07f790d","system_id":"levelo_inurba_marseille","lat":43.28624,"lon":5.35102,"is_reserved":false,"is_disabled":false,"rental_uris":{"android":"levelo://app?vid=b839ed1b-9527-4e87-90f6-ee4ed07f790d","ios":"levelo://app?vid=b839ed1b-9527-4e87-90f6-ee4ed07f790d"},"vehicle_type_id":"4","last_reported":1750072200,"current_range_meters":19600,"station_id":"ce4bhch2rcd13ifvqeug","pricing_plan_id":"cebpf4jnsgd1na2vs0mg"},{"bike_id":"54bc051c-3902-46df-8388-5a4ef8009d3f","system_id":"levelo_inurba_marseille","lat":43.2792,"lon":5.39578,"is_reserved":false,"is_disabled":false,"rental_uris":{"android":"levelo://app?vid=54bc051c-3902-46df-8388-5a4ef8009d3f","ios":"levelo://app?vid=54bc051c-3902-46df-8388-5a4ef8009d3f"},"vehicle_type_id":"4","last_reported":1750072200,"current_range_meters":19600,"station_id":"ce4bhf92rcd13ifvqf40","pricing_plan_id":"cebpf4jnsgd1na2vs0mg"},{"bike_id":"826f0ca3-e5fc-4cf8-8696-cb1fe62172b3","system_id":"levelo_inurba_marseille","lat":43.21213,"lon":5.35077,"is_reserved":false,"is_disabled":false,"rental_uris":{"android":"levelo://app?vid=826f0ca3-e5fc-4cf8-8696-cb1fe62172b3","ios":"levelo://app?vid=826f0ca3-e5fc-4cf8-8696-cb1fe62172b3"},"vehicle_type_id":"4","last_reported":1750072200,"current_range_meters":20000,"station_id":"","pricing_plan_id":"cebpf4jnsgd1na2vs0mg"},{"bike_id":"683e9b66-a608-4a59-b365-39504d420ed4","system_id":"levelo_inurba_marseille","lat":43.24173,"lon":5.39714,"is_reserved":false,"is_disabled":false,"rental_uris":{"android":"levelo://app?vid=683e9b66-a608-4a59-b365-39504d420ed4","ios":"levelo://app?vid=683e9b66-a608-4a59-b365-39504d420ed4"},"vehicle_type_id":"4","last_reported":1750072200,"current_range_meters":20000,"station_id":"ce4bhn12rcd13ifvqgpg","pricing_plan_id":"cebpf4jnsgd1na2vs0mg"},{"bike_id":"c8dfb0ea-7452-4653-979a-81a495939d6b","system_id":"levelo_inurba_marseille","lat":43.29898,"lon":5.4365,"is_reserved":false,"is_disabled":false,"rental_uris":{"android":"levelo://app?vid=c8dfb0ea-7452-4653-979a-81a495939d6b","ios":"levelo://app?vid=c8dfb0ea-7452-4653-979a-81a495939d6b"},"vehicle_type_id":"4","last_reported":1750072200,"current_range_meters":20000,"station_id":"ce4bhpp2rcd13ifvqhfg","pricing_plan_id":"cebpf4jnsgd1na2vs0mg"},{"bike_id":"0fd57502-c8c8-401c-abe8-478c81ce99a3","system_id":"levelo_inurba_marseille","lat":43.336026,"lon":5.410146,"is_reserved":false,"is_disabled":false,"rental_uris":{"android":"levelo://app?vid=0fd57502-c8c8-401c-abe8-478c81ce99a3","ios":"levelo://app?vid=0fd57502-c8c8-401c-abe8-478c81ce99a3"},"vehicle_type_id":"4","last_reported":1750072200,"current_range_meters":20000,"station_id":"ce4bhqh2rcd13ifvqhmg","pricing_plan_id":"cebpf4jnsgd1na2vs0mg"},{"bike_id":"0b55291d-4312-4a1f-a028-e5f112a4783d","system_id":"levelo_inurba_marseille","lat":43.324858,"lon":5.365633,"is_reserved":false,"is_disabled":false,"rental_uris":{"android":"levelo://app?vid=0b55291d-4312-4a1f-a028-e5f112a4783d","ios":"levelo://app?vid=0b55291d-4312-4a1f-a028-e5f112a4783d"},"vehicle_type_id":"4","last_reported":1750072200,"current_range_meters":20000,"station_id":"ce4bhs12rcd13ifvqhvg","pricing_plan_id":"cebpf4jnsgd1na2vs0mg"},{"bike_id":"6e109a25-b453-4c60-b595-9be2ab1913b0","system_id":"levelo_inurba_marseille","lat":43.22898,"lon":5.35385,"is_reserved":false,"is_disabled":false,"rental_uris":{"android":"levelo://app?vid=6e109a25-b453-4c60-b595-9be2ab1913b0","ios":"levelo://app?vid=6e109a25-b453-4c60-b595-9be2ab1913b0"},"vehicle_type_id":"4","last_reported":1750072200,"current_range_meters":20000,"station_id":"cpo3532slgdg3j2ikp40","pricing_plan_id":"cebpf4jnsgd1na2vs0mg"},{"bike_id":"5683c8dc-4e3e-466a-ac55-0f5a67c16820","system_id":"levelo_inurba_marseille","lat":43.337444,"lon":5.374475,"is_reserved":false,"is_disabled":false,"rental_uris":{"android":"levelo://app?vid=5683c8dc-4e3e-466a-ac55-0f5a67c16820","ios":"levelo://app?vid=5683c8dc-4e3e-466a-ac55-0f5a67c16820"},"vehicle_type_id":"4","last_reported":1750072200,"current_range_meters":20400,"station_id":"","pricing_plan_id":"cebpf4jnsgd1na2vs0mg"},{"bike_id":"65c5075f-234e-4f2a-84f5-2d8f03cb8a5d","system_id":"levelo_inurba_marseille","lat":43.3094,"lon":5.40138,"is_reserved":false,"is_disabled":false,"rental_uris":{"android":"levelo://app?vid=65c5075f-234e-4f2a-84f5-2d8f03cb8a5d","ios":"levelo://app?vid=65c5075f-234e-4f2a-84f5-2d8f03cb8a5d"},"vehicle_type_id":"4","last_reported":1750072200,"current_range_meters":20400,"station_id":"ce4bgvp2rcd13ifvqct0","pricing_plan_id":"cebpf4jnsgd1na2vs0mg"},{"bike_id":"fe3c31d1-98fe-4884-96bc-93ef9941fb84","system_id":"levelo_inurba_marseille","lat":43.29018,"lon":5.38124,"is_reserved":false,"is_disabled":false,"rental_uris":{"android":"levelo://app?vid=fe3c31d1-98fe-4884-96bc-93ef9941fb84","ios":"levelo://app?vid=fe3c31d1-98fe-4884-96bc-93ef9941fb84"},"vehicle_type_id":"4","last_reported":1750072200,"current_range_meters":20400,"station_id":"ce4bh4p2rcd13ifvqe1g","pricing_plan_id":"cebpf4jnsgd1na2vs0mg"},{"bike_id":"6c2b9b94-eaa6-429b-b303-eb9e712b6cdf","system_id":"levelo_inurba_marseille","lat":43.292,"lon":5.35803,"is_reserved":false,"is_disabled":false,"rental_uris":{"android":"levelo://app?vid=6c2b9b94-eaa6-429b-b303-eb9e712b6cdf","ios":"levelo://app?vid=6c2b9b94-eaa6-429b-b303-eb9e712b6cdf"},"vehicle_type_id":"4","last_reported":1750072200,"current_range_meters":20400,"station_id":"ce4bhb12rcd13ifvqel0","pricing_plan_id":"cebpf4jnsgd1na2vs0mg"},{"bike_id":"0b38e20b-c469-407c-b574-3f41b1104887","system_id":"levelo_inurba_marseille","lat":43.28279,"lon":5.35073,"is_reserved":false,"is_disabled":false,"rental_uris":{"android":"levelo://app?vid=0b38e20b-c469-407c-b574-3f41b1104887","ios":"levelo://app?vid=0b38e20b-c469-407c-b574-3f41b1104887"},"vehicle_type_id":"4","last_reported":1750072200,"current_range_meters":20400,"station_id":"ce4bhbp2rcd13ifvqerg","pricing_plan_id":"cebpf4jnsgd1na2vs0mg"},{"bike_id":"97115010-0da7-4152-914f-571d7586cefa","system_id":"levelo_inurba_marseille","lat":43.24391,"lon":5.37057,"is_reserved":false,"is_disabled":false,"rental_uris":{"android":"levelo://app?vid=97115010-0da7-4152-914f-571d7586cefa","ios":"levelo://app?vid=97115010-0da7-4152-914f-571d7586cefa"},"vehicle_type_id":"4","last_reported":1750072200,"current_range_meters":20400,"station_id":"ce4bhhh2rcd13ifvqfk0","pricing_plan_id":"cebpf4jnsgd1na2vs0mg"},{"bike_id":"c694ab79-7bc2-408d-90fd-811dad4ac96a","system_id":"levelo_inurba_marseille","lat":43.21747,"lon":5.34598,"is_reserved":false,"is_disabled":false,"rental_uris":{"android":"levelo://app?vid=c694ab79-7bc2-408d-90fd-811dad4ac96a","ios":"levelo://app?vid=c694ab79-7bc2-408d-90fd-811dad4ac96a"},"vehicle_type_id":"4","last_reported":1750072200,"current_range_meters":20800,"station_id":"","pricing_plan_id":"cebpf4jnsgd1na2vs0mg"},{"bike_id":"39d32260-51d5-455a-ba53-6471389bd255","system_id":"levelo_inurba_marseille","lat":43.31983,"lon":5.37629,"is_reserved":false,"is_disabled":false,"rental_uris":{"android":"levelo://app?vid=39d32260-51d5-455a-ba53-6471389bd255","ios":"levelo://app?vid=39d32260-51d5-455a-ba53-6471389bd255"},"vehicle_type_id":"4","last_reported":1750072200,"current_range_meters":20800,"station_id":"","pricing_plan_id":"cebpf4jnsgd1na2vs0mg"},{"bike_id":"bd7bc889-0ace-44ba-adc2-5e336bdf27e2","system_id":"levelo_inurba_marseille","lat":43.30977,"lon":5.37459,"is_reserved":false,"is_disabled":false,"rental_uris":{"android":"levelo://app?vid=bd7bc889-0ace-44ba-adc2-5e336bdf27e2","ios":"levelo://app?vid=bd7bc889-0ace-44ba-adc2-5e336bdf27e2"},"vehicle_type_id":"4","last_reported":1750072200,"current_range_meters":20800,"station_id":"","pricing_plan_id":"cebpf4jnsgd1na2vs0mg"},{"bike_id":"97b9f7fe-0b70-42a5-b5f7-68d0e850d535","system_id":"levelo_inurba_marseille","lat":43.29572,"lon":5.37525,"is_reserved":false,"is_disabled":false,"rental_uris":{"android":"levelo://app?vid=97b9f7fe-0b70-42a5-b5f7-68d0e850d535","ios":"levelo://app?vid=97b9f7fe-0b70-42a5-b5f7-68d0e850d535"},"vehicle_type_id":"4","last_reported":1750072200,"current_range_meters":20800,"station_id":"ce4bgh92rcd13ifvqb50","pricing_plan_id":"cebpf4jnsgd1na2vs0mg"},{"bike_id":"49f61506-3c98-4c64-9516-7b38de0788bc","system_id":"levelo_inurba_marseille","lat":43.30145,"lon":5.38058,"is_reserved":false,"is_disabled":false,"rental_uris":{"android":"levelo://app?vid=49f61506-3c98-4c64-9516-7b38de0788bc","ios":"levelo://app?vid=49f61506-3c98-4c64-9516-7b38de0788bc"},"vehicle_type_id":"4","last_reported":1750072200,"current_range_meters":20800,"station_id":"ce4bgjp2rcd13ifvqbh0","pricing_plan_id":"cebpf4jnsgd1na2vs0mg"},{"bike_id":"313b9743-aadd-4668-a9ad-116ef02c73ee","system_id":"levelo_inurba_marseille","lat":43.31496,"lon":5.37294,"is_reserved":false,"is_disabled":false,"rental_uris":{"android":"levelo://app?vid=313b9743-aadd-4668-a9ad-116ef02c73ee","ios":"levelo://app?vid=313b9743-aadd-4668-a9ad-116ef02c73ee"},"vehicle_type_id":"4","last_reported":1750072200,"current_range_meters":20800,"station_id":"ce4bgt12rcd13ifvqcd0","pricing_plan_id":"cebpf4jnsgd1na2vs0mg"},{"bike_id":"fdc20fbd-a1dd-403d-bf0e-241c47746d78","system_id":"levelo_inurba_marseille","lat":43.28364,"lon":5.38643,"is_reserved":false,"is_disabled":false,"rental_uris":{"android":"levelo://app?vid=fdc20fbd-a1dd-403d-bf0e-241c47746d78","ios":"levelo://app?vid=fdc20fbd-a1dd-403d-bf0e-241c47746d78"},"vehicle_type_id":"4","last_reported":1750072200,"current_range_meters":20800,"station_id":"ce4bh492rcd13ifvqdvg","pricing_plan_id":"cebpf4jnsgd1na2vs0mg"},{"bike_id":"b24a87ea-6197-4a3e-b55c-2221a24c5774","system_id":"levelo_inurba_marseille","lat":43.28666,"lon":5.36341,"is_reserved":false,"is_disabled":false,"rental_uris":{"android":"levelo://app?vid=b24a87ea-6197-4a3e-b55c-2221a24c5774","ios":"levelo://app?vid=b24a87ea-6197-4a3e-b55c-2221a24c5774"},"vehicle_type_id":"4","last_reported":1750072200,"current_range_meters":20800,"station_id":"ce4bhah2rcd13ifvqej0","pricing_plan_id":"cebpf4jnsgd1na2vs0mg"},{"bike_id":"01cb24d4-6ae7-41f5-a3d5-5ac05191c1a0","system_id":"levelo_inurba_marseille","lat":43.29007,"lon":5.356133,"is_reserved":false,"is_disabled":false,"rental_uris":{"android":"levelo://app?vid=01cb24d4-6ae7-41f5-a3d5-5ac05191c1a0","ios":"levelo://app?vid=01cb24d4-6ae7-41f5-a3d5-5ac05191c1a0"},"vehicle_type_id":"4","last_reported":1750072200,"current_range_meters":20800,"station_id":"ce4bhb92rcd13ifvqen0","pricing_plan_id":"cebpf4jnsgd1na2vs0mg"},{"bike_id":"71fbb4be-36b9-400d-be29-80affb13bbf4","system_id":"levelo_inurba_marseille","lat":43.27375,"lon":5.36251,"is_reserved":false,"is_disabled":false,"rental_uris":{"android":"levelo://app?vid=71fbb4be-36b9-400d-be29-80affb13bbf4","ios":"levelo://app?vid=71fbb4be-36b9-400d-be29-80affb13bbf4"},"vehicle_type_id":"4","last_reported":1750072200,"current_range_meters":20800,"station_id":"ce4bhbh2rcd13ifvqeo0","pricing_plan_id":"cebpf4jnsgd1na2vs0mg"},{"bike_id":"e12b95a9-bea1-45a3-8331-6bae508e20ca","system_id":"levelo_inurba_marseille","lat":43.28273,"lon":5.35072,"is_reserved":false,"is_disabled":false,"rental_uris":{"android":"levelo://app?vid=e12b95a9-bea1-45a3-8331-6bae508e20ca","ios":"levelo://app?vid=e12b95a9-bea1-45a3-8331-6bae508e20ca"},"vehicle_type_id":"4","last_reported":1750072200,"current_range_meters":20800,"station_id":"ce4bhbp2rcd13ifvqerg","pricing_plan_id":"cebpf4jnsgd1na2vs0mg"},{"bike_id":"8157b174-ddcc-4140-b174-6cc893f842a0","system_id":"levelo_inurba_marseille","lat":43.231878,"lon":5.399921,"is_reserved":false,"is_disabled":false,"rental_uris":{"android":"levelo://app?vid=8157b174-ddcc-4140-b174-6cc893f842a0","ios":"levelo://app?vid=8157b174-ddcc-4140-b174-6cc893f842a0"},"vehicle_type_id":"4","last_reported":1750072200,"current_range_meters":20800,"station_id":"ce4bhn12rcd13ifvqgqg","pricing_plan_id":"cebpf4jnsgd1na2vs0mg"},{"bike_id":"a893508f-9e31-4a28-bb6a-3231563fa65a","system_id":"levelo_inurba_marseille","lat":43.29891,"lon":5.43657,"is_reserved":false,"is_disabled":false,"rental_uris":{"android":"levelo://app?vid=a893508f-9e31-4a28-bb6a-3231563fa65a","ios":"levelo://app?vid=a893508f-9e31-4a28-bb6a-3231563fa65a"},"vehicle_type_id":"4","last_reported":1750072200,"current_range_meters":20800,"station_id":"ce4bhpp2rcd13ifvqhfg","pricing_plan_id":"cebpf4jnsgd1na2vs0mg"},{"bike_id":"405d8320-7129-4f91-a4a9-42fc8eee19aa","system_id":"levelo_inurba_marseille","lat":43.3014,"lon":5.38779,"is_reserved":false,"is_disabled":false,"rental_uris":{"android":"levelo://app?vid=405d8320-7129-4f91-a4a9-42fc8eee19aa","ios":"levelo://app?vid=405d8320-7129-4f91-a4a9-42fc8eee19aa"},"vehicle_type_id":"4","last_reported":1750072200,"current_range_meters":21600,"station_id":"ce4bghh2rcd13ifvqb60","pricing_plan_id":"cebpf4jnsgd1na2vs0mg"},{"bike_id":"68a473c4-8ef7-4514-aedc-8e60cdab0f8e","system_id":"levelo_inurba_marseille","lat":43.30899,"lon":5.37194,"is_reserved":false,"is_disabled":false,"rental_uris":{"android":"levelo://app?vid=68a473c4-8ef7-4514-aedc-8e60cdab0f8e","ios":"levelo://app?vid=68a473c4-8ef7-4514-aedc-8e60cdab0f8e"},"vehicle_type_id":"4","last_reported":1750072200,"current_range_meters":21600,"station_id":"ce4bguh2rcd13ifvqckg","pricing_plan_id":"cebpf4jnsgd1na2vs0mg"},{"bike_id":"4ee494cc-7f50-4f2c-9f6d-df7183a4029f","system_id":"levelo_inurba_marseille","lat":43.30209,"lon":5.39463,"is_reserved":false,"is_disabled":false,"rental_uris":{"android":"levelo://app?vid=4ee494cc-7f50-4f2c-9f6d-df7183a4029f","ios":"levelo://app?vid=4ee494cc-7f50-4f2c-9f6d-df7183a4029f"},"vehicle_type_id":"4","last_reported":1750072200,"current_range_meters":21600,"station_id":"ce4bh0p2rcd13ifvqd70","pricing_plan_id":"cebpf4jnsgd1na2vs0mg"},{"bike_id":"0f964b5f-afff-4561-9715-f3d8a7c10de8","system_id":"levelo_inurba_marseille","lat":43.27093,"lon":5.42286,"is_reserved":false,"is_disabled":false,"rental_uris":{"android":"levelo://app?vid=0f964b5f-afff-4561-9715-f3d8a7c10de8","ios":"levelo://app?vid=0f964b5f-afff-4561-9715-f3d8a7c10de8"},"vehicle_type_id":"4","last_reported":1750072200,"current_range_meters":21600,"station_id":"ce4bhk92rcd13ifvqgb0","pricing_plan_id":"cebpf4jnsgd1na2vs0mg"},{"bike_id":"80da43f5-0817-449f-832e-fb314b614a77","system_id":"levelo_inurba_marseille","lat":43.28611,"lon":5.370663,"is_reserved":false,"is_disabled":false,"rental_uris":{"android":"levelo://app?vid=80da43f5-0817-449f-832e-fb314b614a77","ios":"levelo://app?vid=80da43f5-0817-449f-832e-fb314b614a77"},"vehicle_type_id":"4","last_reported":1750072200,"current_range_meters":21600,"station_id":"ce4bht12rcd13ifvqi60","pricing_plan_id":"cebpf4jnsgd1na2vs0mg"},{"bike_id":"ae68fdc1-d736-4034-bd61-0692cb14cab1","system_id":"levelo_inurba_marseille","lat":43.21187,"lon":5.35077,"is_reserved":false,"is_disabled":false,"rental_uris":{"android":"levelo://app?vid=ae68fdc1-d736-4034-bd61-0692cb14cab1","ios":"levelo://app?vid=ae68fdc1-d736-4034-bd61-0692cb14cab1"},"vehicle_type_id":"4","last_reported":1750072200,"current_range_meters":21600,"station_id":"st_cvj6sg6p6f1abm77japg","pricing_plan_id":"cebpf4jnsgd1na2vs0mg"},