{"last_updated":1773314667,"ttl":60,"version":"2.2","data":{"bikes":[{"bike_id":"0e0f0435-44dd-45c9-b88c-8e0922341d38","system_id":"levelo_inurba_marseille","lat":43.31371,"lon":5.38506,"is_reserved":false,"is_disabled":false,"rental_uris":{"android":"levelo://app?vid=0e0f0435-44dd-45c9-b88c-8e0922341d38","ios":"levelo://app?vid=0e0f0435-44dd-45c9-b88c-8e0922341d38"},"vehicle_type_id":"4","last_reported":1773314667,"current_range_meters":37600,"station_id":"ce4bgt92rcd13ifvqcf0","pricing_plan_id":"cebpf4jnsgd1na2vs0mg"},{"bike_id":"97561389-1b78-44e2-8b1b-1f721f62890e","system_id":"levelo_inurba_marseille","lat":43.29027,"lon":5.35588,"is_reserved":false,"is_disabled":false,"rental_uris":{"android":"levelo://app?vid=97561389-1b78-44e2-8b1b-1f721f62890e","ios":"levelo://app?vid=97561389-1b78-44e2-8b1b-1f721f62890e"},"vehicle_type_id":"4","last_reported":1773314667,"current_range_meters":40000,"station_id":"ce4bhb92rcd13ifvqen0","pricing_plan_id":"cebpf4jnsgd1na2vs0mg"},{"bike_id":"4cdd6ee8-e7c8-4aab-ab00-a44db3c0fcfb","system_id":"levelo_inurba_marseille","lat":43.2637,"lon":5.41067,"is_reserved":false,"is_disabled":false,"rental_uris":{"android":"levelo://app?vid=4cdd6ee8-e7c8-4aab-ab00-a44db3c0fcfb","ios":"levelo://app?vid=4cdd6ee8-e7c8-4aab-ab00-a44db3c0fcfb"},"vehicle_type_id":"4","last_reported":1773314667,"current_range_meters":39200,"station_id":"st_d4e5ca6na9uc73bfl5fg","pricing_plan_id":"cebpf4jnsgd1na2vs0mg"},{"bike_id":"920fe5af-ce45-4e72-8675-5b619451cf1f","system_id":"levelo_inurba_marseille","lat":43.21188,"lon":5.35061,"is_reserved":false,"is_disabled":false,"rental_uris":{"android":"levelo://app?vid=920fe5af-ce45-4e72-8675-5b619451cf1f","ios":"levelo://app?vid=920fe5af-ce45-4e72-8675-5b619451cf1f"},"vehicle_type_id":"4","last_reported":1773314667,"current_range_meters":21600,"station_id":"st_cvj6sg6p6f1abm77japg","pricing_plan_id":"cebpf4jnsgd1na2vs0mg"},{"bike_id":"0551c756-ca94-4501-b375-2f058f30a99e","system_id":"levelo_inurba_marseille","lat":43.2854,"lon":5.44086,"is_reserved":false,"is_disabled":false,"rental_uris":{"android":"levelo://app?vid=0551c756-ca94-4501-b375-2f058f30a99e","ios":"levelo://app?vid=0551c756-ca94-4501-b375-2f058f30a99e"},"vehicle_type_id":"4","last_reported":1773314667,"current_range_meters":17200,"station_id":"st_d3j3df2ikq2c7380ej80","pricing_plan_id":"cebpf4jnsgd1na2vs0mg"},{"bike_id":"f793c55b-54ae-4edd-85d8-5a7d52cc231f","system_id":"levelo_inurba_marseille","lat":43.29714,"lon":5.37691,"is_reserved":false,"is_disabled":false,"rental_uris":{"android":"levelo://app?vid=f793c55b-54ae-4edd-85d8-5a7d52cc231f","ios":"levelo://app?vid=f793c55b-54ae-4edd-85d8-5a7d52cc231f"},"vehicle_type_id":"4","last_reported":1773314667,"current_range_meters":12800,"station_id":"ce4bgkh2rcd13ifvqbl0","pricing_plan_id":"cebpf4jnsgd1na2vs0mg"},{"bike_id":"47b6cd2f-83c0-435a-8450-cade692e54a7","system_id":"levelo_inurba_marseille","lat":43.27945,"lon":5.41013,"is_reserved":false,"is_disabled":false,"rental_uris":{"android":"levelo://app?vid=47b6cd2f-83c0-435a-8450-cade692e54a7","ios":"levelo://app?vid=47b6cd2f-83c0-435a-8450-cade692e54a7"},"vehicle_type_id":"4","last_reported":1773314667,"current_range_meters":39200,"station_id":"ce4bhnp2rcd13ifvqh0g","pricing_plan_id":"cebpf4jnsgd1na2vs0mg"},{"bike_id":"621823b4-a6e6-4ec9-8e73-546f9ef61641","system_id":"levelo_inurba_marseille","lat":43.2927,"lon":5.40117,"is_reserved":false,"is_disabled":true,"rental_uris":{"android":"levelo://app?vid=621823b4-a6e6-4ec9-8e73-546f9ef61641","ios":"levelo://app?vid=621823b4-a6e6-4ec9-8e73-546f9ef61641"},"vehicle_type_id":"4","last_reported":1773314667,"current_range_meters":9200,"station_id":"ce4bh312rcd13ifvqdk0","pricing_plan_id":"cebpf4jnsgd1na2vs0mg"},{"bike_id":"d5317123-9bf9-4493-ba3f-18b283994230","system_id":"levelo_inurba_marseille","lat":43.26687,"lon":5.38271,"is_reserved":false,"is_disabled":true,"rental_uris":{"android":"levelo://app?vid=d5317123-9bf9-4493-ba3f-18b283994230","ios":"levelo://app?vid=d5317123-9bf9-4493-ba3f-18b283994230"},"vehicle_type_id":"4","last_reported":1773314667,"current_range_meters":39200,"station_id":"ce4bhg92rcd13ifvqf90","pricing_plan_id":"cebpf4jnsgd1na2vs0mg"},{"bike_id":"2dde38a6-7040-4591-b258-f00f6d384fc3","system_id":"levelo_inurba_marseille","lat":43.33022,"lon":5.39052,"is_reserved":false,"is_disabled":false,"rental_uris":{"android":"levelo://app?vid=2dde38a6-7040-4591-b258-f00f6d384fc3","ios":"levelo://app?vid=2dde38a6-7040-4591-b258-f00f6d384fc3"},"vehicle_type_id":"4","last_reported":1773314667,"current_range_meters":38800,"station_id":"ce4bhr92rcd13ifvqhrg","pricing_plan_id":"cebpf4jnsgd1na2vs0mg"},{"bike_id":"e1d806d9-fc15-4ae3-8d3e-166c819a59ab","system_id":"levelo_inurba_marseille","lat":43.29099,"lon":5.38141,"is_reserved":false,"is_disabled":false,"rental_uris":{"android":"levelo://app?vid=e1d806d9-fc15-4ae3-8d3e-166c819a59ab","ios":"levelo://app?vid=e1d806d9-fc15-4ae3-8d3e-166c819a59ab"},"vehicle_type_id":"4","last_reported":1773314667,"current_range_meters":19600,"station_id":"ce4bh512rcd13ifvqe2g","pricing_plan_id":"cebpf4jnsgd1na2vs0mg"},{"bike_id":"9faea34b-1c48-4a1b-8f51-2bafe5184a50","system_id":"levelo_inurba_marseille","lat":43.28477,"lon":5.48395,"is_reserved":false,"is_disabled":false,"rental_uris":{"android":"levelo://app?vid=9faea34b-1c48-4a1b-8f51-2bafe5184a50","ios":"levelo://app?vid=9faea34b-1c48-4a1b-8f51-2bafe5184a50"},"vehicle_type_id":"4","last_reported":1773314667,"current_range_meters":31200,"station_id":"","pricing_plan_id":"cebpf4jnsgd1na2vs0mg"},{"bike_id":"bd0135ea-2cde-4c88-9947-7d16e31861df","system_id":"levelo_inurba_marseille","lat":43.30709,"lon":5.36779,"is_reserved":false,"is_disabled":false,"rental_uris":{"android":"levelo://app?vid=bd0135ea-2cde-4c88-9947-7d16e31861df","ios":"levelo://app?vid=bd0135ea-2cde-4c88-9947-7d16e31861df"},"vehicle_type_id":"4","last_reported":1773314667,"current_range_meters":28400,"station_id":"","pricing_plan_id":"cebpf4jnsgd1na2vs0mg"},{"bike_id":"d427d34d-e739-4c0f-a843-74b85111544b","system_id":"levelo_inurba_marseille","lat":43.33128,"lon":5.37704,"is_reserved":false,"is_disabled":false,"rental_uris":{"android":"levelo://app?vid=d427d34d-e739-4c0f-a843-74b85111544b","ios":"levelo://app?vid=d427d34d-e739-4c0f-a843-74b85111544b"},"vehicle_type_id":"4","last_reported":1773314667,"current_range_meters":20800,"station_id":"st_d46cu089ee8s73dldbu0","pricing_plan_id":"cebpf4jnsgd1na2vs0mg"},{"bike_id":"dbf16230-f8f8-4b46-a9ea-49d64f6bd303","system_id":"levelo_inurba_marseille","lat":43.29853,"lon":5.36308,"is_reserved":false,"is_disabled":true,"rental_uris":{"android":"levelo://app?vid=dbf16230-f8f8-4b46-a9ea-49d64f6bd303","ios":"levelo://app?vid=dbf16230-f8f8-4b46-a9ea-49d64f6bd303"},"vehicle_type_id":"4","last_reported":1773314667,"current_range_meters":38000,"station_id":"ce4bgpp2rcd13ifvqc3g","pricing_plan_id":"cebpf4jnsgd1na2vs0mg"},{"bike_id":"c943c8f2-fd97-497f-b02c-47e60712859d","system_id":"levelo_inurba_marseille","lat":43.25834,"lon":5.3945,"is_reserved":false,"is_disabled":false,"rental_uris":{"android":"levelo://app?vid=c943c8f2-fd97-497f-b02c-47e60712859d","ios":"levelo://app?vid=c943c8f2-fd97-497f-b02c-47e60712859d"},"vehicle_type_id":"4","last_reported":1773314667,"current_range_meters":24400,"station_id":"ce4bhip2rcd13ifvqft0","pricing_plan_id":"cebpf4jnsgd1na2vs0mg"},{"bike_id":"311cd375-88a1-4176-9219-fa828099384a","system_id":"levelo_inurba_marseille","lat":43.30323,"lon":5.36883,"is_reserved":false,"is_disabled":false,"rental_uris":{"android":"levelo://app?vid=311cd375-88a1-4176-9219-fa828099384a","ios":"levelo://app?vid=311cd375-88a1-4176-9219-fa828099384a"},"vehicle_type_id":"4","last_reported":1773314667,"current_range_meters":8800,"station_id":"ce4bgqh2rcd13ifvqc5g","pricing_plan_id":"cebpf4jnsgd1na2vs0mg"},{"bike_id":"b5a70d44-6cd2-4596-a9b3-e82e9858ce0d","system_id":"levelo_inurba_marseille","lat":43.30541,"lon":5.36532,"is_reserved":false,"is_disabled":false,"rental_uris":{"android":"levelo://app?vid=b5a70d44-6cd2-4596-a9b3-e82e9858ce0d","ios":"levelo://app?vid=b5a70d44-6cd2-4596-a9b3-e82e9858ce0d"},"vehicle_type_id":"4","last_reported":1773314667,"current_range_meters":39200,"station_id":"ce4bgs12rcd13ifvqcag","pricing_plan_id":"cebpf4jnsgd1na2vs0mg"},{"bike_id":"0e033376-8ded-4c5b-a90d-81f2de96f774","system_id":"levelo_inurba_marseille","lat":43.29736,"lon":5.37674,"is_reserved":false,"is_disabled":true,"rental_uris":{"android":"levelo://app?vid=0e033376-8ded-4c5b-a90d-81f2de96f774","ios":"levelo://app?vid=0e033376-8ded-4c5b-a90d-81f2de96f774"},"vehicle_type_id":"4","last_reported":1773314667,"current_range_meters":19200,"station_id":"ce4bgkh2rcd13ifvqbl0","pricing_plan_id":"cebpf4jnsgd1na2vs0mg"},{"bike_id":"fee06328-0848-48be-bb8b-947aae963eba","system_id":"levelo_inurba_marseille","lat":43.3054,"lon":5.36703,"is_reserved":false,"is_disabled":false,"rental_uris":{"android":"levelo://app?vid=fee06328-0848-48be-bb8b-947aae963eba","ios":"levelo://app?vid=fee06328-0848-48be-bb8b-947aae963eba"},"vehicle_type_id":"4","last_reported":1773314667,"current_range_meters":39200,"station_id":"ce4bgrp2rcd13ifvqc9g","pricing_plan_id":"cebpf4jnsgd1na2vs0mg"},{"bike_id":"b93a357c-54e0-4442-be00-cbc58767907f","system_id":"levelo_inurba_marseille","lat":43.3206,"lon":5.41552,"is_reserved":false,"is_disabled":false,"rental_uris":{"android":"levelo://app?vid=b93a357c-54e0-4442-be00-cbc58767907f","ios":"levelo://app?vid=b93a357c-54e0-4442-be00-cbc58767907f"},"vehicle_type_id":"4","last_reported":1773314667,"current_range_meters":37600,"station_id":"ce4bhq92rcd13ifvqhkg","pricing_plan_id":"cebpf4jnsgd1na2vs0mg"},{"bike_id":"c1ec77a3-84f4-47db-94b6-6aec401b4b2a","system_id":"levelo_inurba_marseille","lat":43.296,"lon":5.38076,"is_reserved":false,"is_disabled":false,"rental_uris":{"android":"levelo://app?vid=c1ec77a3-84f4-47db-94b6-6aec401b4b2a","ios":"levelo://app?vid=c1ec77a3-84f4-47db-94b6-6aec401b4b2a"},"vehicle_type_id":"4","last_reported":1773314667,"current_range_meters":17200,"station_id":"ce4bgl12rcd13ifvqbo0","pricing_plan_id":"cebpf4jnsgd1na2vs0mg"},{"bike_id":"20bf681e-dd28-42a1-94f9-defeb2767863","system_id":"levelo_inurba_marseille","lat":43.25872,"lon":5.39877,"is_reserved":false,"is_disabled":false,"rental_uris":{"android":"levelo://app?vid=20bf681e-dd28-42a1-94f9-defeb2767863","ios":"levelo://app?vid=20bf681e-dd28-42a1-94f9-defeb2767863"},"vehicle_type_id":"4","last_reported":1773314667,"current_range_meters":25600,"station_id":"ce4bhl92rcd13ifvqghg","pricing_plan_id":"cebpf4jnsgd1na2vs0mg"},{"bike_id":"05669888-2eb5-4504-9ab4-c74c21ea145e","system_id":"levelo_inurba_marseille","lat":43.30944,"lon":5.40137,"is_reserved":false,"is_disabled":false,"rental_uris":{"android":"levelo://app?vid=05669888-2eb5-4504-9ab4-c74c21ea145e","ios":"levelo://app?vid=05669888-2eb5-4504-9ab4-c74c21ea145e"},"vehicle_type_id":"4","last_reported":1773314667,"current_range_meters":38000,"station_id":"ce4bgvp2rcd13ifvqct0","pricing_plan_id":"cebpf4jnsgd1na2vs0mg"},{"bike_id":"8f82668e-3825-4e2d-afca-16910ac971bd","system_id":"levelo_inurba_marseille","lat":43.27918,"lon":5.39553,"is_reserved":false,"is_disabled":false,"rental_uris":{"android":"levelo://app?vid=8f82668e-3825-4e2d-afca-16910ac971bd","ios":"levelo://app?vid=8f82668e-3825-4e2d-afca-16910ac971bd"},"vehicle_type_id":"4","last_reported":1773314667,"current_range_meters":31200,"station_id":"ce4bhf92rcd13ifvqf40","pricing_plan_id":"cebpf4jnsgd1na2vs0mg"},{"bike_id":"ed701d5d-010e-43b3-aff1-bb3197aa0d5a","system_id":"levelo_inurba_marseille","lat":43.30363,"lon":5.41873,"is_reserved":false,"is_disabled":false,"rental_uris":{"android":"levelo://app?vid=ed701d5d-010e-43b3-aff1-bb3197aa0d5a","ios":"levelo://app?vid=ed701d5d-010e-43b3-aff1-bb3197aa0d5a"},"vehicle_type_id":"4","last_reported":1773314667,"current_range_meters":39200,"station_id":"ce4bhop2rcd13ifvqh7g","pricing_plan_id":"cebpf4jnsgd1na2vs0mg"},{"bike_id":"2bcc5cea-30ab-4f0d-9496-674e9f232c16","system_id":"levelo_inurba_marseille","lat":43.28979,"lon":5.37837,"is_reserved":false,"is_disabled":false,"rental_uris":{"android":"levelo://app?vid=2bcc5cea-30ab-4f0d-9496-674e9f232c16","ios":"levelo://app?vid=2bcc5cea-30ab-4f0d-9496-674e9f232c16"},"vehicle_type_id":"4","last_reported":1773314667,"current_range_meters":28000,"station_id":"ce4bh9p2rcd13ifvqed0","pricing_plan_id":"cebpf4jnsgd1na2vs0mg"},{"bike_id":"8f062b48-8a07-4921-843a-04a51859a2ee","system_id":"levelo_inurba_marseille","lat":43.29542,"lon":5.42291,"is_reserved":false,"is_disabled":false,"rental_uris":{"android":"levelo://app?vid=8f062b48-8a07-4921-843a-04a51859a2ee","ios":"levelo://app?vid=8f062b48-8a07-4921-843a-04a51859a2ee"},"vehicle_type_id":"4","last_reported":1773314667,"current_range_meters":37600,"station_id":"ce4bhph2rcd13ifvqhdg","pricing_plan_id":"cebpf4jnsgd1na2vs0mg"},{"bike_id":"2910c25c-8e17-4198-83e3-9b82182f5216","system_id":"levelo_inurba_marseille","lat":43.24136,"lon":5.3636,"is_reserved":false,"is_disabled":false,"rental_uris":{"android":"levelo://app?vid=2910c25c-8e17-4198-83e3-9b82182f5216","ios":"levelo://app?vid=2910c25c-8e17-4198-83e3-9b82182f5216"},"vehicle_type_id":"4","last_reported":1773314667,"current_range_meters":30000,"station_id":"cpo36qri1sfpv3e86is0","pricing_plan_id":"cebpf4jnsgd1na2vs0mg"},{"bike_id":"39b5f92c-6799-4b49-8a5f-14ab1abfd25a","system_id":"levelo_inurba_marseille","lat":43.31349,"lon":5.36704,"is_reserved":false,"is_disabled":false,"rental_uris":{"android":"levelo://app?vid=39b5f92c-6799-4b49-8a5f-14ab1abfd25a","ios":"levelo://app?vid=39b5f92c-6799-4b49-8a5f-14ab1abfd25a"},"vehicle_type_id":"4","last_reported":1773314667,"current_range_meters":35600,"station_id":"ce4bgr92rcd13ifvqc6g","pricing_plan_id":"cebpf4jnsgd1na2vs0mg"},{"bike_id":"0351fc46-01ea-4af2-bf07-c7417afde98b","system_id":"levelo_inurba_marseille","lat":43.27413,"lon":5.39448,"is_reserved":false,"is_disabled":false,"rental_uris":{"android":"levelo://app?vid=0351fc46-01ea-4af2-bf07-c7417afde98b","ios":"levelo://app?vid=0351fc46-01ea-4af2-bf07-c7417afde98b"},"vehicle_type_id":"4","last_reported":1773314667,"current_range_meters":32800,"station_id":"ce4bhdp2rcd13ifvqf20","pricing_plan_id":"cebpf4jnsgd1na2vs0mg"},{"bike_id":"4d63ba94-123a-40ef-a00b-9f058c52b926","system_id":"levelo_inurba_marseille","lat":43.31224,"lon":5.36857,"is_reserved":false,"is_disabled":false,"rental_uris":{"android":"levelo://app?vid=4d63ba94-123a-40ef-a00b-9f058c52b926","ios":"levelo://app?vid=4d63ba94-123a-40ef-a00b-9f058c52b926"},"vehicle_type_id":"4","last_reported":1773314667,"current_range_meters":19600,"station_id":"ce4bgl92rcd13ifvqbq0","pricing_plan_id":"cebpf4jnsgd1na2vs0mg"},{"bike_id":"23ba3335-938f-476f-a82c-5f731a0f3a9b","system_id":"levelo_inurba_marseille","lat":43.31233,"lon":5.36868,"is_reserved":false,"is_disabled":false,"rental_uris":{"android":"levelo://app?vid=23ba3335-938f-476f-a82c-5f731a0f3a9b","ios":"levelo://app?vid=23ba3335-938f-476f-a82c-5f731a0f3a9b"},"vehicle_type_id":"4","last_reported":1773314667,"current_range_meters":6800,"station_id":"ce4bgl92rcd13ifvqbq0","pricing_plan_id":"cebpf4jnsgd1na2vs0mg"},{"bike_id":"e5992785-f891-4eb7-b8cf-ab9dacd9c960","system_id":"levelo_inurba_marseille","lat":43.23056,"lon":5.35494,"is_reserved":false,"is_disabled":false,"rental_uris":{"android":"levelo://app?vid=e5992785-f891-4eb7-b8cf-ab9dacd9c960","ios":"levelo://app?vid=e5992785-f891-4eb7-b8cf-ab9dacd9c960"},"vehicle_type_id":"4","last_reported":1773314667,"current_range_meters":33600,"station_id":"cpo3342slgdg3j2ifvpg","pricing_plan_id":"cebpf4jnsgd1na2vs0mg"},{"bike_id":"cfdcc226-98a9-40cc-ab94-5dcbeb67234b","system_id":"levelo_inurba_marseille","lat":43.2992,"lon":5.3747,"is_reserved":false,"is_disabled":false,"rental_uris":{"android":"levelo://app?vid=cfdcc226-98a9-40cc-ab94-5dcbeb67234b","ios":"levelo://app?vid=cfdcc226-98a9-40cc-ab94-5dcbeb67234b"},"vehicle_type_id":"4","last_reported":1773314667,"current_range_meters":40000,"station_id":"ce4bgjh2rcd13ifvqbg0","pricing_plan_id":"cebpf4jnsgd1na2vs0mg"},{"bike_id":"ce511df9-4784-459c-acbc-9c1c2ee2387f","system_id":"levelo_inurba_marseille","lat":43.26939,"lon":5.40276,"is_reserved":false,"is_disabled":false,"rental_uris":{"android":"levelo://app?vid=ce511df9-4784-459c-acbc-9c1c2ee2387f","ios":"levelo://app?vid=ce511df9-4784-459c-acbc-9c1c2ee2387f"},"vehicle_type_id":"4","last_reported":1773314667,"current_range_meters":38000,"station_id":"cjm6bp8fraef2m0cb0m0","pricing_plan_id":"cebpf4jnsgd1na2vs0mg"},{"bike_id":"182982c2-ad4b-4720-99b5-ac2ca378f95a","system_id":"levelo_inurba_marseille","lat":43.24666,"lon":5.38142,"is_reserved":false,"is_disabled":false,"rental_uris":{"android":"levelo://app?vid=182982c2-ad4b-4720-99b5-ac2ca378f95a","ios":"levelo://app?vid=182982c2-ad4b-4720-99b5-ac2ca378f95a"},"vehicle_type_id":"4","last_reported":1773314667,"current_range_meters":39200,"station_id":"ce4bhih2rcd13ifvqfr0","pricing_plan_id":"cebpf4jnsgd1na2vs0mg"},{"bike_id":"12fb0a3b-0411-4b2b-8082-15a7f0d13467","system_id":"levelo_inurba_marseille","lat":43.25927,"lon":5.40896,"is_reserved":false,"is_disabled":false,"rental_uris":{"android":"levelo://app?vid=12fb0a3b-0411-4b2b-8082-15a7f0d13467","ios":"levelo://app?vid=12fb0a3b-0411-4b2b-8082-15a7f0d13467"},"vehicle_type_id":"4","last_reported":1773314667,"current_range_meters":39200,"station_id":"ce4bhm92rcd13ifvqglg","pricing_plan_id":"cebpf4jnsgd1na2vs0mg"},{"bike_id":"2d139dbe-4a51-46ac-bf7e-5e630dc6608b","system_id":"levelo_inurba_marseille","lat":43.30912,"lon":5.38264,"is_reserved":false,"is_disabled":false,"rental_uris":{"android":"levelo://app?vid=2d139dbe-4a51-46ac-bf7e-5e630dc6608b","ios":"levelo://app?vid=2d139dbe-4a51-46ac-bf7e-5e630dc6608b"},"vehicle_type_id":"4","last_reported":1773314667,"current_range_meters":15200,"station_id":"","pricing_plan_id":"cebpf4jnsgd1na2vs0mg"},{"bike_id":"4bb62ff6-d74f-463a-b8b6-6cc2683cb41d","system_id":"levelo_inurba_marseille","lat":43.30136,"lon":5.37422,"is_reserved":false,"is_disabled":false,"rental_uris":{"android":"levelo://app?vid=4bb62ff6-d74f-463a-b8b6-6cc2683cb41d","ios":"levelo://app?vid=4bb62ff6-d74f-463a-b8b6-6cc2683cb41d"},"vehicle_type_id":"4","last_reported":1773314667,"current_range_meters":39200,"station_id":"ce4bgs92rcd13ifvqcc0","pricing_plan_id":"cebpf4jnsgd1na2vs0mg"},{"bike_id":"1203a036-e28c-4847-b52e-5b6c307c477b","system_id":"levelo_inurba_marseille","lat":43.33165,"lon":5.37682,"is_reserved":false,"is_disabled":false,"rental_uris":{"android":"levelo://app?vid=1203a036-e28c-4847-b52e-5b6c307c477b","ios":"levelo://app?vid=1203a036-e28c-4847-b52e-5b6c307c477b"},"vehicle_type_id":"4","last_reported":1773314667,"current_range_meters":7200,"station_id":"st_d46cu089ee8s73dldbu0","pricing_plan_id":"cebpf4jnsgd1na2vs0mg"},{"bike_id":"17ce7070-d813-4eaf-a544-6259968aa271","system_id":"levelo_inurba_marseille","lat":43.31067,"lon":5.36868,"is_reserved":false,"is_disabled":false,"rental_uris":{"android":"levelo://app?vid=17ce7070-d813-4eaf-a544-6259968aa271","ios":"levelo://app?vid=17ce7070-d813-4eaf-a544-6259968aa271"},"vehicle_type_id":"4","last_reported":1773314667,"current_range_meters":6000,"station_id":"","pricing_plan_id":"cebpf4jnsgd1na2vs0mg"},{"bike_id":"2d905bc7-eab1-4a32-ba3a-7c3079c1d862","system_id":"levelo_inurba_marseille","lat":43.29092,"lon":5.38153,"is_reserved":false,"is_disabled":false,"rental_uris":{"android":"levelo://app?vid=2d905bc7-eab1-4a32-ba3a-7c3079c1d862","ios":"levelo://app?vid=2d905bc7-eab1-4a32-ba3a-7c3079c1d862"},"vehicle_type_id":"4","last_reported":1773314667,"current_range_meters":35600,"station_id":"ce4bh512rcd13ifvqe2g","pricing_plan_id":"cebpf4jnsgd1na2vs0mg"},{"bike_id":"84edac93-97f0-4f16-980c-7e1b057bc44a","system_id":"levelo_inurba_marseille","lat":43.26803,"lon":5.40242,"is_reserved":false,"is_disabled":false,"rental_uris":{"android":"levelo://app?vid=84edac93-97f0-4f16-980c-7e1b057bc44a","ios":"levelo://app?vid=84edac93-97f0-4f16-980c-7e1b057bc44a"},"vehicle_type_id":"4","last_reported":1773314667,"current_range_meters":38800,"station_id":"ce501612rcd8frsf0b60","pricing_plan_id":"cebpf4jnsgd1na2vs0mg"},{"bike_id":"ab9f1475-589e-4670-a6bb-9088a37d2d61","system_id":"levelo_inurba_marseille","lat":43.27328,"lon":5.39123,"is_reserved":false,"is_disabled":false,"rental_uris":{"android":"levelo://app?vid=ab9f1475-589e-4670-a6bb-9088a37d2d61","ios":"levelo://app?vid=ab9f1475-589e-4670-a6bb-9088a37d2d61"},"vehicle_type_id":"4","last_reported":1773314667,"current_range_meters":35600,"station_id":"ce4bhgp2rcd13ifvqfe0","pricing_plan_id":"cebpf4jnsgd1na2vs0mg"},{"bike_id":"5f994ccb-7613-4f88-b558-4e72c7693678","system_id":"levelo_inurba_marseille","lat":43.25081,"lon":5.39504,"is_reserved":false,"is_disabled":false,"rental_uris":{"android":"levelo://app?vid=5f994ccb-7613-4f88-b558-4e72c7693678","ios":"levelo://app?vid=5f994ccb-7613-4f88-b558-4e72c7693678"},"vehicle_type_id":"4","last_reported":1773314667,"current_range_meters":36000,"station_id":"ce4bhm12rcd13ifvqgkg","pricing_plan_id":"cebpf4jnsgd1na2vs0mg"},{"bike_id":"566d1d1a-0852-4e0d-907b-e1334e0d6bf9","system_id":"levelo_inurba_marseille","lat":43.23778,"lon":5.36623,"is_reserved":false,"is_disabled":false,"rental_uris":{"android":"levelo://app?vid=566d1d1a-0852-4e0d-907b-e1334e0d6bf9","ios":"levelo://app?vid=566d1d1a-0852-4e0d-907b-e1334e0d6bf9"},"vehicle_type_id":"4","last_reported":1773314667,"current_range_meters":39200,"station_id":"st_d3nk18o9ro0c73en2l3g","pricing_plan_id":"cebpf4jnsgd1na2vs0mg"},{"bike_id":"0e9228b9-7baf-4873-b556-298d8d7e2a3b","system_id":"levelo_inurba_marseille","lat":43.29779,"lon":5.39352,"is_reserved":false,"is_disabled":false,"rental_uris":{"android":"levelo://app?vid=0e9228b9-7baf-4873-b556-298d8d7e2a3b","ios":"levelo://app?vid=0e9228b9-7baf-4873-b556-298d8d7e2a3b"},"vehicle_type_id":"4","last_reported":1773314667,"current_range_meters":4400,"station_id":"chh1huq6cuj3fo74tm60","pricing_plan_id":"cebpf4jnsgd1na2vs0mg"},{"bike_id":"f96117d6-7d22-4b57-9564-78f617580e63","system_id":"levelo_inurba_marseille","lat":43.29211,"lon":5.3579,"is_reserved":false,"is_disabled":false,"rental_uris":{"android":"levelo://app?vid=f96117d6-7d22-4b57-9564-78f617580e63","ios":"levelo://app?vid=f96117d6-7d22-4b57-9564-78f617580e63"},"vehicle_type_id":"4","last_reported":1773314667,"current_range_meters":14000,"station_id":"ce4bhb12rcd13ifvqel0","pricing_plan_id":"cebpf4jnsgd1na2vs0mg"},{"bike_id":"bd2c93e2-0518-4334-81a1-4a432ce819d8","system_id":"levelo_inurba_marseille","lat":43.297896,"lon":5.393332,"is_reserved":false,"is_disabled":false,"rental_uris":{"android":"levelo://app?vid=bd2c93e2-0518-4334-81a1-4a432ce819d8","ios":"levelo://app?vid=bd2c93e2-0518-4334-81a1-4a432ce819d8"},"vehicle_type_id":"4","last_reported":1773314667,"current_range_meters":39200,"station_id":"chh1huq6cuj3fo74tm60","pricing_plan_id":"cebpf4jnsgd1na2vs0mg"},{"bike_id":"1c573354-cf53-44d3-9111-eb37080df88e","system_id":"levelo_inurba_marseille","lat":43.31569,"lon":5.37392,"is_reserved":false,"is_disabled":false,"rental_uris":{"android":"levelo://app?vid=1c573354-cf53-44d3-9111-eb37080df88e","ios":"levelo://app?vid=1c573354-cf53-44d3-9111-eb37080df88e"},"vehicle_type_id":"4","last_reported":1773314667,"current_range_meters":13600,"station_id":"","pricing_plan_id":"cebpf4jnsgd1na2vs0mg"},{"bike_id":"d46de948-bb4e-4a70-b911-cfc6e7243df5","system_id":"levelo_inurba_marseille","lat":43.25502,"lon":5.37649,"is_reserved":false,"is_disabled":false,"rental_uris":{"android":"levelo://app?vid=d46de948-bb4e-4a70-b911-cfc6e7243df5","ios":"levelo://app?vid=d46de948-bb4e-4a70-b911-cfc6e7243df5"},"vehicle_type_id":"4","last_reported":1773314667,"current_range_meters":10000,"station_id":"ce4bhh12rcd13ifvqff0","pricing_plan_id":"cebpf4jnsgd1na2vs0mg"},{"bike_id":"118f5c39-8aaa-4ebf-955d-12443e27feef","system_id":"levelo_inurba_marseille","lat":43.30539,"lon":5.36555,"is_reserved":false,"is_disabled":false,"rental_uris":{"android":"levelo://app?vid=118f5c39-8aaa-4ebf-955d-12443e27feef","ios":"levelo://app?vid=118f5c39-8aaa-4ebf-955d-12443e27feef"},"vehicle_type_id":"4","last_reported":1773314667,"current_range_meters":3200,"station_id":"ce4bgs12rcd13ifvqcag","pricing_plan_id":"cebpf4jnsgd1na2vs0mg"},{"bike_id":"290affd8-9a09-4ca7-8cc6-b1a8e5ea56f6","system_id":"levelo_inurba_marseille","lat":43.28833,"lon":5.35841,"is_reserved":false,"is_disabled":false,"rental_uris":{"android":"levelo://app?vid=290affd8-9a09-4ca7-8cc6-b1a8e5ea56f6","ios":"levelo://app?vid=290affd8-9a09-4ca7-8cc6-b1a8e5ea56f6"},"vehicle_type_id":"4","last_reported":1773314667,"current_range_meters":17200,"station_id":"ce4bhb12rcd13ifvqem0","pricing_plan_id":"cebpf4jnsgd1na2vs0mg"},{"bike_id":"20edd8aa-6859-4ff0-8255-a489b508961b","system_id":"levelo_inurba_marseille","lat":43.30134,"lon":5.38778,"is_reserved":false,"is_disabled":false,"rental_uris":{"android":"levelo://app?vid=20edd8aa-6859-4ff0-8255-a489b508961b","ios":"levelo://app?vid=20edd8aa-6859-4ff0-8255-a489b508961b"},"vehicle_type_id":"4","last_reported":1773314667,"current_range_meters":28800,"station_id":"ce4bghh2rcd13ifvqb60","pricing_plan_id":"cebpf4jnsgd1na2vs0mg"},{"bike_id":"98a69b82-3426-4662-b314-8ddb62a05de5","system_id":"levelo_inurba_marseille","lat":43.30073,"lon":5.43722,"is_reserved":false,"is_disabled":false,"rental_uris":{"android":"levelo://app?vid=98a69b82-3426-4662-b314-8ddb62a05de5","ios":"levelo://app?vid=98a69b82-3426-4662-b314-8ddb62a05de5"},"vehicle_type_id":"4","last_reported":1773314667,"current_range_meters":16400,"station_id":"","pricing_plan_id":"cebpf4jnsgd1na2vs0mg"},{"bike_id":"c6c0ebab-0295-4a0b-844e-e34d619beca3","system_id":"levelo_inurba_marseille","lat":43.23184,"lon":5.39978,"is_reserved":false,"is_disabled":false,"rental_uris":{"android":"levelo://app?vid=c6c0ebab-0295-4a0b-844e-e34d619beca3","ios":"levelo://app?vid=c6c0ebab-0295-4a0b-844e-e34d619beca3"},"vehicle_type_id":"4","last_reported":1773314667,"current_range_meters":34000,"station_id":"ce4bhn12rcd13ifvqgqg","pricing_plan_id":"cebpf4jnsgd1na2vs0mg"},{"bike_id":"7ce9cd5e-2445-4b94-a502-3aa1d9fc0a00","system_id":"levelo_inurba_marseille","lat":43.2961,"lon":5.38093,"is_reserved":false,"is_disabled":true,"rental_uris":{"android":"levelo://app?vid=7ce9cd5e-2445-4b94-a502-3aa1d9fc0a00","ios":"levelo://app?vid=7ce9cd5e-2445-4b94-a502-3aa1d9fc0a00"},"vehicle_type_id":"4","last_reported":1773314667,"current_range_meters":800,"station_id":"ce4bgl12rcd13ifvqbo0","pricing_plan_id":"cebpf4jnsgd1na2vs0mg"},{"bike_id":"a5eb7e2e-f45f-42c7-8ba3-bf76c2472338","system_id":"levelo_inurba_marseille","lat":43.30207,"lon":5.39438,"is_reserved":false,"is_disabled":false,"rental_uris":{"android":"levelo://app?vid=a5eb7e2e-f45f-42c7-8ba3-bf76c2472338","ios":"levelo://app?vid=a5eb7e2e-f45f-42c7-8ba3-bf76c2472338"},"vehicle_type_id":"4","last_reported":1773314667,"current_range_meters":20000,"station_id":"ce4bh0p2rcd13ifvqd70","pricing_plan_id":"cebpf4jnsgd1na2vs0mg"},{"bike_id":"a6bf6a0e-804b-4f95-903f-d306eb4acdb5","system_id":"levelo_inurba_marseille","lat":43.30213,"lon":5.3709,"is_reserved":false,"is_disabled":false,"rental_uris":{"android":"levelo://app?vid=a6bf6a0e-804b-4f95-903f-d306eb4acdb5","ios":"levelo://app?vid=a6bf6a0e-804b-4f95-903f-d306eb4acdb5"},"vehicle_type_id":"4","last_reported":1773314667,"current_range_meters":36000,"station_id":"","pricing_plan_id":"cebpf4jnsgd1na2vs0mg"},{"bike_id":"3d12e3f4-6b13-4168-b577-adf07acbef79","system_id":"levelo_inurba_marseille","lat":43.29215,"lon":5.36055,"is_reserved":false,"is_disabled":false,"rental_uris":{"android":"levelo://app?vid=3d12e3f4-6b13-4168-b577-adf07acbef79","ios":"levelo://app?vid=3d12e3f4-6b13-4168-b577-adf07acbef79"},"vehicle_type_id":"4","last_reported":1773314667,"current_range_meters":38400,"station_id":"ce4bhbh2rcd13ifvqeqg","pricing_plan_id":"cebpf4jnsgd1na2vs0mg"},{"bike_id":"3d236d94-cc73-4767-acdb-e504497fc2d4","system_id":"levelo_inurba_marseille","lat":43.32507,"lon":5.41453,"is_reserved":false,"is_disabled":false,"rental_uris":{"android":"levelo://app?vid=3d236d94-cc73-4767-acdb-e504497fc2d4","ios":"levelo://app?vid=3d236d94-cc73-4767-acdb-e504497fc2d4"},"vehicle_type_id":"4","last_reported":1773314667,"current_range_meters":38400,"station_id":"ce4bhq12rcd13ifvqhhg","pricing_plan_id":"cebpf4jnsgd1na2vs0mg"},{"bike_id":"93d7042a-f10b-4d13-89cf-2727391f5d25","system_id":"levelo_inurba_marseille","lat":43.26794,"lon":5.39587,"is_reserved":false,"is_disabled":false,"rental_uris":{"android":"levelo://app?vid=93d7042a-f10b-4d13-89cf-2727391f5d25","ios":"levelo://app?vid=93d7042a-f10b-4d13-89cf-2727391f5d25"},"vehicle_type_id":"4","last_reported":1773314667,"current_range_meters":13600,"station_id":"","pricing_plan_id":"cebpf4jnsgd1na2vs0mg"},{"bike_id":"b55fcb4f-56c7-4140-a04a-337c4be97265","system_id":"levelo_inurba_marseille","lat":43.27213,"lon":5.39179,"is_reserved":false,"is_disabled":false,"rental_uris":{"android":"levelo://app?vid=b55fcb4f-56c7-4140-a04a-337c4be97265","ios":"levelo://app?vid=b55fcb4f-56c7-4140-a04a-337c4be97265"},"vehicle_type_id":"4","last_reported":1773314667,"current_range_meters":38800,"station_id":"ce4bhhp2rcd13ifvqfm0","pricing_plan_id":"cebpf4jnsgd1na2vs0mg"},{"bike_id":"d9aa3ad6-f358-4ccf-9e1a-329645658448","system_id":"levelo_inurba_marseille","lat":43.3236,"lon":5.38874,"is_reserved":false,"is_disabled":false,"rental_uris":{"android":"levelo://app?vid=d9aa3ad6-f358-4ccf-9e1a-329645658448","ios":"levelo://app?vid=d9aa3ad6-f358-4ccf-9e1a-329645658448"},"vehicle_type_id":"4","last_reported":1773314667,"current_range_meters":22000,"station_id":"ce4bhqp2rcd13ifvqhog","pricing_plan_id":"cebpf4jnsgd1na2vs0mg"},{"bike_id":"bae7dc5a-44b2-4f95-95e5-e699e6a6bede","system_id":"levelo_inurba_marseille","lat":43.29592,"lon":5.3811,"is_reserved":false,"is_disabled":false,"rental_uris":{"android":"levelo://app?vid=bae7dc5a-44b2-4f95-95e5-e699e6a6bede","ios":"levelo://app?vid=bae7dc5a-44b2-4f95-95e5-e699e6a6bede"},"vehicle_type_id":"4","last_reported":1773314667,"current_range_meters":35600,"station_id":"ce4bgl12rcd13ifvqbo0","pricing_plan_id":"cebpf4jnsgd1na2vs0mg"},{"bike_id":"3d7b1bec-2a06-47da-a7d0-796cda99d14f","system_id":"levelo_inurba_marseille","lat":43.27057,"lon":5.38321,"is_reserved":false,"is_disabled":false,"rental_uris":{"android":"levelo://app?vid=3d7b1bec-2a06-47da-a7d0-796cda99d14f","ios":"levelo://app?vid=3d7b1bec-2a06-47da-a7d0-796cda99d14f"},"vehicle_type_id":"4","last_reported":1773314667,"current_range_meters":17200,"station_id":"st_d3n2fo6cfp8s73cte1j0","pricing_plan_id":"cebpf4jnsgd1na2vs0mg"},{"bike_id":"8e1792c9-be71-4aff-84a8-b5d4d46c0c03","system_id":"levelo_inurba_marseille","lat":43.30528,"lon":5.38433,"is_reserved":false,"is_disabled":false,"rental_uris":{"android":"levelo://app?vid=8e1792c9-be71-4aff-84a8-b5d4d46c0c03","ios":"levelo://app?vid=8e1792c9-be71-4aff-84a8-b5d4d46c0c03"},"vehicle_type_id":"4","last_reported":1773314667,"current_range_meters":36400,"station_id":"ce4bgg92rcd13ifvqb30","pricing_plan_id":"cebpf4jnsgd1na2vs0mg"},{"bike_id":"988db3b8-861f-418c-a7ec-7ae78131696e","system_id":"levelo_inurba_marseille","lat":43.24673,"lon":5.43351,"is_reserved":false,"is_disabled":false,"rental_uris":{"android":"levelo://app?vid=988db3b8-861f-418c-a7ec-7ae78131696e","ios":"levelo://app?vid=988db3b8-861f-418c-a7ec-7ae78131696e"},"vehicle_type_id":"4","last_reported":1773314667,"current_range_meters":26800,"station_id":"","pricing_plan_id":"cebpf4jnsgd1na2vs0mg"},{"bike_id":"dd854777-f378-4132-94e6-63027cc18b82","system_id":"levelo_inurba_marseille","lat":43.29727,"lon":5.41059,"is_reserved":false,"is_disabled":false,"rental_uris":{"android":"levelo://app?vid=dd854777-f378-4132-94e6-63027cc18b82","ios":"levelo://app?vid=dd854777-f378-4132-94e6-63027cc18b82"},"vehicle_type_id":"4","last_reported":1773314667,"current_range_meters":24800,"station_id":"","pricing_plan_id":"cebpf4jnsgd1na2vs0mg"},{"bike_id":"52a7d0b4-4ab6-4976-b8f8-3a26ddccd09a","system_id":"levelo_inurba_marseille","lat":43.28285,"lon":5.35093,"is_reserved":false,"is_disabled":false,"rental_uris":{"android":"levelo://app?vid=52a7d0b4-4ab6-4976-b8f8-3a26ddccd09a","ios":"levelo://app?vid=52a7d0b4-4ab6-4976-b8f8-3a26ddccd09a"},"vehicle_type_id":"4","last_reported":1773314667,"current_range_meters":36000,"station_id":"ce4bhbp2rcd13ifvqerg","pricing_plan_id":"cebpf4jnsgd1na2vs0mg"},{"bike_id":"35a82536-c165-4433-a2e7-59ec0df78006","system_id":"levelo_inurba_marseille","lat":43.32351,"lon":5.38884,"is_reserved":false,"is_disabled":false,"rental_uris":{"android":"levelo://app?vid=35a82536-c165-4433-a2e7-59ec0df78006","ios":"levelo://app?vid=35a82536-c165-4433-a2e7-59ec0df78006"},"vehicle_type_id":"4","last_reported":1773314667,"current_range_meters":4800,"station_id":"ce4bhqp2rcd13ifvqhog","pricing_plan_id":"cebpf4jnsgd1na2vs0mg"},{"bike_id":"85b5b118-e47b-4adc-aa0c-e9bbc2d708e9","system_id":"levelo_inurba_marseille","lat":43.27399,"lon":5.42465,"is_reserved":false,"is_disabled":false,"rental_uris":{"android":"levelo://app?vid=85b5b118-e47b-4adc-aa0c-e9bbc2d708e9","ios":"levelo://app?vid=85b5b118-e47b-4adc-aa0c-e9bbc2d708e9"},"vehicle_type_id":"4","last_reported":1773314667,"current_range_meters":18800,"station_id":"","pricing_plan_id":"cebpf4jnsgd1na2vs0mg"},{"bike_id":"3c6cc61c-3043-4c66-b7fc-8fd4c373e89e","system_id":"levelo_inurba_marseille","lat":43.3015,"lon":5.38085,"is_reserved":false,"is_disabled":false,"rental_uris":{"android":"levelo://app?vid=3c6cc61c-3043-4c66-b7fc-8fd4c373e89e","ios":"levelo://app?vid=3c6cc61c-3043-4c66-b7fc-8fd4c373e89e"},"vehicle_type_id":"4","last_reported":1773314667,"current_range_meters":22000,"station_id":"ce4bgjp2rcd13ifvqbh0","pricing_plan_id":"cebpf4jnsgd1na2vs0mg"},{"bike_id":"532f1fe9-6384-4056-88f3-ddfdd084688a","system_id":"levelo_inurba_marseille","lat":43.28979,"lon":5.42582,"is_reserved":false,"is_disabled":false,"rental_uris":{"android":"levelo://app?vid=532f1fe9-6384-4056-88f3-ddfdd084688a","ios":"levelo://app?vid=532f1fe9-6384-4056-88f3-ddfdd084688a"},"vehicle_type_id":"4","last_reported":1773314667,"current_range_meters":31200,"station_id":"","pricing_plan_id":"cebpf4jnsgd1na2vs0mg"},{"bike_id":"cefa7e87-0924-4f87-b8a6-31b204ff0616","system_id":"levelo_inurba_marseille","lat":43.29582,"lon":5.37505,"is_reserved":false,"is_disabled":true,"rental_uris":{"android":"levelo://app?vid=cefa7e87-0924-4f87-b8a6-31b204ff0616","ios":"levelo://app?vid=cefa7e87-0924-4f87-b8a6-31b204ff0616"},"vehicle_type_id":"4","last_reported":1773314667,"current_range_meters":10000,"station_id":"ce4bgh92rcd13ifvqb50","pricing_plan_id":"cebpf4jnsgd1na2vs0mg"},{"bike_id":"4c0ccf91-bafb-4cb2-ada9-07d388c5af7c","system_id":"levelo_inurba_marseille","lat":43.29621,"lon":5.37695,"is_reserved":false,"is_disabled":false,"rental_uris":{"android":"levelo://app?vid=4c0ccf91-bafb-4cb2-ada9-07d388c5af7c","ios":"levelo://app?vid=4c0ccf91-bafb-4cb2-ada9-07d388c5af7c"},"vehicle_type_id":"4","last_reported":1773314667,"current_range_meters":9200,"station_id":"ce4bgi92rcd13ifvqb90","pricing_plan_id":"cebpf4jnsgd1na2vs0mg"},{"bike_id":"fc4795bd-7fd3-4c14-9a9b-bcc5f999d4b0","system_id":"levelo_inurba_marseille","lat":43.23961,"lon":5.36616,"is_reserved":false,"is_disabled":false,"rental_uris":{"android":"levelo://app?vid=fc4795bd-7fd3-4c14-9a9b-bcc5f999d4b0","ios":"levelo://app?vid=fc4795bd-7fd3-4c14-9a9b-bcc5f999d4b0"},"vehicle_type_id":"4","last_reported":1773314667,"current_range_meters":38800,"station_id":"ce4bhi12rcd13ifvqfp0","pricing_plan_id":"cebpf4jnsgd1na2vs0mg"},{"bike_id":"5ff99a07-b306-44ef-abe3-5b9df213ee92","system_id":"levelo_inurba_marseille","lat":43.2514,"lon":5.40298,"is_reserved":false,"is_disabled":false,"rental_uris":{"android":"levelo://app?vid=5ff99a07-b306-44ef-abe3-5b9df213ee92","ios":"levelo://app?vid=5ff99a07-b306-44ef-abe3-5b9df213ee92"},"vehicle_type_id":"4","last_reported":1773314667,"current_range_meters":35600,"station_id":"ce4bhlh2rcd13ifvqgig","pricing_plan_id":"cebpf4jnsgd1na2vs0mg"},{"bike_id":"5573f956-11e3-4687-aa68-ec18dbea97ad","system_id":"levelo_inurba_marseille","lat":43.25721,"lon":5.41121,"is_reserved":false,"is_disabled":false,"rental_uris":{"android":"levelo://app?vid=5573f956-11e3-4687-aa68-ec18dbea97ad","ios":"levelo://app?vid=5573f956-11e3-4687-aa68-ec18dbea97ad"},"vehicle_type_id":"4","last_reported":1773314667,"current_range_meters":37600,"station_id":"ce4bhkp2rcd13ifvqgd0","pricing_plan_id":"cebpf4jnsgd1na2vs0mg"},{"bike_id":"d10417da-18fa-464c-8c1a-3edbe1f03711","system_id":"levelo_inurba_marseille","lat":43.30139,"lon":5.37422,"is_reserved":false,"is_disabled":false,"rental_uris":{"android":"levelo://app?vid=d10417da-18fa-464c-8c1a-3edbe1f03711","ios":"levelo://app?vid=d10417da-18fa-464c-8c1a-3edbe1f03711"},"vehicle_type_id":"4","last_reported":1773314667,"current_range_meters":38800,"station_id":"ce4bgs92rcd13ifvqcc0","pricing_plan_id":"cebpf4jnsgd1na2vs0mg"},{"bike_id":"b94c3b6d-7912-4bb7-bd16-b874ff101a3d","system_id":"levelo_inurba_marseille","lat":43.24805,"lon":5.37456,"is_reserved":false,"is_disabled":false,"rental_uris":{"android":"levelo://app?vid=b94c3b6d-7912-4bb7-bd16-b874ff101a3d","ios":"levelo://app?vid=b94c3b6d-7912-4bb7-bd16-b874ff101a3d"},"vehicle_type_id":"4","last_reported":1773314667,"current_range_meters":26000,"station_id":"ce4bhgh2rcd13ifvqfb0","pricing_plan_id":"cebpf4jnsgd1na2vs0mg"},{"bike_id":"acf3f37d-c224-4635-8d04-0096fa9cc908","system_id":"levelo_inurba_marseille","lat":43.30369,"lon":5.42483,"is_reserved":false,"is_disabled":false,"rental_uris":{"android":"levelo://app?vid=acf3f37d-c224-4635-8d04-0096fa9cc908","ios":"levelo://app?vid=acf3f37d-c224-4635-8d04-0096fa9cc908"},"vehicle_type_id":"4","last_reported":1773314667,"current_range_meters":30400,"station_id":"ce4bhoh2rcd13ifvqh6g","pricing_plan_id":"cebpf4jnsgd1na2vs0mg"},{"bike_id":"1866c223-50ab-4283-b8a6-28a247e511e9","system_id":"levelo_inurba_marseille","lat":43.32997,"lon":5.39054,"is_reserved":false,"is_disabled":false,"rental_uris":{"android":"levelo://app?vid=1866c223-50ab-4283-b8a6-28a247e511e9","ios":"levelo://app?vid=1866c223-50ab-4283-b8a6-28a247e511e9"},"vehicle_type_id":"4","last_reported":1773314667,"current_range_meters":39200,"station_id":"ce4bhr92rcd13ifvqhrg","pricing_plan_id":"cebpf4jnsgd1na2vs0mg"},{"bike_id":"846247c3-7ba9-4141-9376-a46067afdc1d","system_id":"levelo_inurba_marseille","lat":43.21183,"lon":5.35074,"is_reserved":false,"is_disabled":false,"rental_uris":{"android":"levelo://app?vid=846247c3-7ba9-4141-9376-a46067afdc1d","ios":"levelo://app?vid=846247c3-7ba9-4141-9376-a46067afdc1d"},"vehicle_type_id":"4","last_reported":1773314667,"current_range_meters":28400,"station_id":"st_cvj6sg6p6f1abm77japg","pricing_plan_id":"cebpf4jnsgd1na2vs0mg"},{"bike_id":"35109803-86f0-4893-a780-d89ba11e349f","system_id":"levelo_inurba_marseille","lat":43.29279,"lon":5.40108,"is_reserved":false,"is_disabled":false,"rental_uris":{"android":"levelo://app?vid=35109803-86f0-4893-a780-d89ba11e349f","ios":"levelo://app?vid=35109803-86f0-4893-a780-d89ba11e349f"},"vehicle_type_id":"4","last_reported":1773314667,"current_range_meters":16800,"station_id":"ce4bh312rcd13ifvqdk0","pricing_plan_id":"cebpf4jnsgd1na2vs0mg"},{"bike_id":"f557d126-e596-43ec-8d40-9d7e00f03dcf","system_id":"levelo_inurba_marseille","lat":43.29278,"lon":5.40116,"is_reserved":false,"is_disabled":false,"rental_uris":{"android":"levelo://app?vid=f557d126-e596-43ec-8d40-9d7e00f03dcf","ios":"levelo://app?vid=f557d126-e596-43ec-8d40-9d7e00f03dcf"},"vehicle_type_id":"4","last_reported":1773314667,"current_range_meters":24800,"station_id":"ce4bh312rcd13ifvqdk0","pricing_plan_id":"cebpf4jnsgd1na2vs0mg"},{"bike_id":"1a067d96-050e-44a3-8b21-d8d3429506cc","system_id":"levelo_inurba_marseille","lat":43.2767,"lon":5.38902,"is_reserved":false,"is_disabled":false,"rental_uris":{"android":"levelo://app?vid=1a067d96-050e-44a3-8b21-d8d3429506cc","ios":"levelo://app?vid=1a067d96-050e-44a3-8b21-d8d3429506cc"},"vehicle_type_id":"4","last_reported":1773314667,"current_range_meters":39200,"station_id":"ce4bhi12rcd13ifvqfo0","pricing_plan_id":"cebpf4jnsgd1na2vs0mg"},{"bike_id":"74cb2b6f-9305-47f1-bb68-6c880d035389","system_id":"levelo_inurba_marseille","lat":43.29652,"lon":5.37112,"is_reserved":false,"is_disabled":false,"rental_uris":{"android":"levelo://app?vid=74cb2b6f-9305-47f1-bb68-6c880d035389","ios":"levelo://app?vid=74cb2b6f-9305-47f1-bb68-6c880d035389"},"vehicle_type_id":"4","last_reported":1773314667,"current_range_meters":39200,"station_id":"ce4bgnh2rcd13ifvqc0g","pricing_plan_id":"cebpf4jnsgd1na2vs0mg"},{"bike_id":"8ca21b58-74ad-4b24-8718-44fd40a2cd88","system_id":"levelo_inurba_marseille","lat":43.29024,"lon":5.38125,"is_reserved":false,"is_disabled":true,"rental_uris":{"android":"levelo://app?vid=8ca21b58-74ad-4b24-8718-44fd40a2cd88","ios":"levelo://app?vid=8ca21b58-74ad-4b24-8718-44fd40a2cd88"},"vehicle_type_id":"4","last_reported":1773314667,"current_range_meters":0,"station_id":"ce4bh4p2rcd13ifvqe1g","pricing_plan_id":"cebpf4jnsgd1na2vs0mg"},{"bike_id":"665ff0f7-9c34-4bed-a0c8-a90ca1b75ea6","system_id":"levelo_inurba_marseille","lat":43.25581,"lon":5.3822,"is_reserved":false,"is_disabled":false,"rental_uris":{"android":"levelo://app?vid=665ff0f7-9c34-4bed-a0c8-a90ca1b75ea6","ios":"levelo://app?vid=665ff0f7-9c34-4bed-a0c8-a90ca1b75ea6"},"vehicle_type_id":"4","last_reported":1773314667,"current_range_meters":30800,"station_id":"ce4bhih2rcd13ifvqfs0","pricing_plan_id":"cebpf4jnsgd1na2vs0mg"},{"bike_id":"d2bcd2b3-b9c0-44b8-b65e-328220c5307e","system_id":"levelo_inurba_marseille","lat":43.29116,"lon":5.43276,"is_reserved":false,"is_disabled":false,"rental_uris":{"android":"levelo://app?vid=d2bcd2b3-b9c0-44b8-b65e-328220c5307e","ios":"levelo://app?vid=d2bcd2b3-b9c0-44b8-b65e-328220c5307e"},"vehicle_type_id":"4","last_reported":1773314667,"current_range_meters":40000,"station_id":"","pricing_plan_id":"cebpf4jnsgd1na2vs0mg"},{"bike_id":"7d538e1b-80d7-4048-8273-aeb629a41021","system_id":"levelo_inurba_marseille","lat":43.33617,"lon":5.41022,"is_reserved":false,"is_disabled":false,"rental_uris":{"android":"levelo://app?vid=7d538e1b-80d7-4048-8273-aeb629a41021","ios":"levelo://app?vid=7d538e1b-80d7-4048-8273-aeb629a41021"},"vehicle_type_id":"4","last_reported":1773314667,"current_range_meters":36800,"station_id":"ce4bhqh2rcd13ifvqhmg","pricing_plan_id":"cebpf4jnsgd1na2vs0mg"},{"bike_id":"b8f4b9ea-cff0-4c69-82aa-0114c0bd8bea","system_id":"levelo_inurba_marseille","lat":43.25942,"lon":5.40887,"is_reserved":false,"is_disabled":false,"rental_uris":{"android":"levelo://app?vid=b8f4b9ea-cff0-4c69-82aa-0114c0bd8bea","ios":"levelo://app?vid=b8f4b9ea-cff0-4c69-82aa-0114c0bd8bea"},"vehicle_type_id":"4","last_reported":1773314667,"current_range_meters":30000,"station_id":"ce4bhm92rcd13ifvqglg","pricing_plan_id":"cebpf4jnsgd1na2vs0mg"},{"bike_id":"a50db47c-b4f2-4a58-ae7d-0a4f7384612e","system_id":"levelo_inurba_marseille","lat":43.30454,"lon":5.37915,"is_reserved":false,"is_disabled":false,"rental_uris":{"android":"levelo://app?vid=a50db47c-b4f2-4a58-ae7d-0a4f7384612e","ios":"levelo://app?vid=a50db47c-b4f2-4a58-ae7d-0a4f7384612e"},"vehicle_type_id":"4","last_reported":1773314667,"current_range_meters":32400,"station_id":"ce4bgup2rcd13ifvqcn0","pricing_plan_id":"cebpf4jnsgd1na2vs0mg"},{"bike_id":"896440e6-cef8-4268-bb86-ac2c6e2de747","system_id":"levelo_inurba_marseille","lat":43.28479,"lon":5.48401,"is_reserved":false,"is_disabled":false,"rental_uris":{"android":"levelo://app?vid=896440e6-cef8-4268-bb86-ac2c6e2de747","ios":"levelo://app?vid=896440e6-cef8-4268-bb86-ac2c6e2de747"},"vehicle_type_id":"4","last_reported":1773314667,"current_range_meters":28000,"station_id":"","pricing_plan_id":"cebpf4jnsgd1na2vs0mg"},{"bike_id":"8580a08e-b65c-4c52-b8f4-18ca75420715","system_id":"levelo_inurba_marseille","lat":43.30797,"lon":5.38156,"is_reserved":false,"is_disabled":false,"rental_uris":{"android":"levelo://app?vid=8580a08e-b65c-4c52-b8f4-18ca75420715","ios":"levelo://app?vid=8580a08e-b65c-4c52-b8f4-18ca75420715"},"vehicle_type_id":"4","last_reported":1773314667,"current_range_meters":30400,"station_id":"ce4bgt12rcd13ifvqce0","pricing_plan_id":"cebpf4jnsgd1na2vs0mg"},{"bike_id":"c7edf450-6aa2-45f0-bd13-d0472387380d","system_id":"levelo_inurba_marseille","lat":43.32508,"lon":5.41463,"is_reserved":false,"is_disabled":false,"rental_uris":{"android":"levelo://app?vid=c7edf450-6aa2-45f0-bd13-d0472387380d","ios":"levelo://app?vid=c7edf450-6aa2-45f0-bd13-d0472387380d"},"vehicle_type_id":"4","last_reported":1773314667,"current_range_meters":37600,"station_id":"ce4bhq12rcd13ifvqhhg","pricing_plan_id":"cebpf4jnsgd1na2vs0mg"},{"bike_id":"2c1215f2-9624-4e50-bbbb-a53264cdd31e","system_id":"levelo_inurba_marseille","lat":43.28476,"lon":5.48355,"is_reserved":false,"is_disabled":false,"rental_uris":{"android":"levelo://app?vid=2c1215f2-9624-4e50-bbbb-a53264cdd31e","ios":"levelo://app?vid=2c1215f2-9624-4e50-bbbb-a53264cdd31e"},"vehicle_type_id":"4","last_reported":1773314667,"current_range_meters":19200,"station_id":"","pricing_plan_id":"cebpf4jnsgd1na2vs0mg"},{"bike_id":"d3021de4-6e3a-44cd-95eb-48f8bb5c9c5b","system_id":"levelo_inurba_marseille","lat":43.32499,"lon":5.38362,"is_reserved":false,"is_disabled":false,"rental_uris":{"android":"levelo://app?vid=d3021de4-6e3a-44cd-95eb-48f8bb5c9c5b","ios":"levelo://app?vid=d3021de4-6e3a-44cd-95eb-48f8bb5c9c5b"},"vehicle_type_id":"4","last_reported":1773314667,"current_range_meters":28400,"station_id":"st_d4asgbiv49dc73anf9m0","pricing_plan_id":"cebpf4jnsgd1na2vs0mg"},{"bike_id":"c1db54c2-038e-4f3d-a503-c0e3fc6c96ed","system_id":"levelo_inurba_marseille","lat":43.3354,"lon":5.37467,"is_reserved":false,"is_disabled":false,"rental_uris":{"android":"levelo://app?vid=c1db54c2-038e-4f3d-a503-c0e3fc6c96ed","ios":"levelo://app?vid=c1db54c2-038e-4f3d-a503-c0e3fc6c96ed"},"vehicle_type_id":"4","last_reported":1773314667,"current_range_meters":14400,"station_id":"st_d46tts09ee8s73dlu43g","pricing_plan_id":"cebpf4jnsgd1na2vs0mg"},{"bike_id":"a0ab89fd-d4e3-4039-8377-577b0acf001d","system_id":"levelo_inurba_marseille","lat":43.24362,"lon":5.44103,"is_reserved":false,"is_disabled":true,"rental_uris":{"android":"levelo://app?vid=a0ab89fd-d4e3-4039-8377-577b0acf001d","ios":"levelo://app?vid=a0ab89fd-d4e3-4039-8377-577b0acf001d"},"vehicle_type_id":"4","last_reported":1773314667,"current_range_meters":8400,"station_id":"","pricing_plan_id":"cebpf4jnsgd1na2vs0mg"},{"bike_id":"607e26c4-ab8e-4bfd-b1d5-07a9ab72dc71","system_id":"levelo_inurba_marseille","lat":43.30549,"lon":5.36545,"is_reserved":false,"is_disabled":false,"rental_uris":{"android":"levelo://app?vid=607e26c4-ab8e-4bfd-b1d5-07a9ab72dc71","ios":"levelo://app?vid=607e26c4-ab8e-4bfd-b1d5-07a9ab72dc71"},"vehicle_type_id":"4","last_reported":1773314667,"current_range_meters":36000,"station_id":"ce4bgs12rcd13ifvqcag","pricing_plan_id":"cebpf4jnsgd1na2vs0mg"},{"bike_id":"074abf32-ac3f-4657-8880-be02438a7ff0","system_id":"levelo_inurba_marseille","lat":43.23189,"lon":5.39969,"is_reserved":false,"is_disabled":false,"rental_uris":{"android":"levelo://app?vid=074abf32-ac3f-4657-8880-be02438a7ff0","ios":"levelo://app?vid=074abf32-ac3f-4657-8880-be02438a7ff0"},"vehicle_type_id":"4","last_reported":1773314667,"current_range_meters":39200,"station_id":"ce4bhn12rcd13ifvqgqg","pricing_plan_id":"cebpf4jnsgd1na2vs0mg"},{"bike_id":"e8b7d766-9ece-4870-a1b8-5b316a1b8e67","system_id":"levelo_inurba_marseille","lat":43.22576,"lon":5.41664,"is_reserved":false,"is_disabled":false,"rental_uris":{"android":"levelo://app?vid=e8b7d766-9ece-4870-a1b8-5b316a1b8e67","ios":"levelo://app?vid=e8b7d766-9ece-4870-a1b8-5b316a1b8e67"},"vehicle_type_id":"4","last_reported":1773314667,"current_range_meters":15200,"station_id":"st_d2o4gvlbi1j2169b742g","pricing_plan_id":"cebpf4jnsgd1na2vs0mg"},{"bike_id":"3ec29e2e-9f07-482a-be09-30e539a4dc16","system_id":"levelo_inurba_marseille","lat":43.27863,"lon":5.40636,"is_reserved":false,"is_disabled":false,"rental_uris":{"android":"levelo://app?vid=3ec29e2e-9f07-482a-be09-30e539a4dc16","ios":"levelo://app?vid=3ec29e2e-9f07-482a-be09-30e539a4dc16"},"vehicle_type_id":"4","last_reported":1773314667,"current_range_meters":40000,"station_id":"ce4bhnh2rcd13ifvqgtg","pricing_plan_id":"cebpf4jnsgd1na2vs0mg"},{"bike_id":"7fec08d5-ee68-460a-ac18-925555054430","system_id":"levelo_inurba_marseille","lat":43.24176,"lon":5.36389,"is_reserved":false,"is_disabled":false,"rental_uris":{"android":"levelo://app?vid=7fec08d5-ee68-460a-ac18-925555054430","ios":"levelo://app?vid=7fec08d5-ee68-460a-ac18-925555054430"},"vehicle_type_id":"4","last_reported":1773314667,"current_range_meters":12800,"station_id":"cpo36qri1sfpv3e86is0","pricing_plan_id":"cebpf4jnsgd1na2vs0mg"},{"bike_id":"3ecf70a0-cb4b-4cf0-a67e-bc48de80fe63","system_id":"levelo_inurba_marseille","lat":43.30161,"lon":5.38086,"is_reserved":false,"is_disabled":false,"rental_uris":{"android":"levelo://app?vid=3ecf70a0-cb4b-4cf0-a67e-bc48de80fe63","ios":"levelo://app?vid=3ecf70a0-cb4b-4cf0-a67e-bc48de80fe63"},"vehicle_type_id":"4","last_reported":1773314667,"current_range_meters":33200,"station_id":"ce4bgjp2rcd13ifvqbh0","pricing_plan_id":"cebpf4jnsgd1na2vs0mg"},{"bike_id":"042ce79c-9ecd-4951-9599-5cd7652fcf66","system_id":"levelo_inurba_marseille","lat":43.23378,"lon":5.41248,"is_reserved":false,"is_disabled":false,"rental_uris":{"android":"levelo://app?vid=042ce79c-9ecd-4951-9599-5cd7652fcf66","ios":"levelo://app?vid=042ce79c-9ecd-4951-9599-5cd7652fcf66"},"vehicle_type_id":"4","last_reported":1773314667,"current_range_meters":9600,"station_id":"","pricing_plan_id":"cebpf4jnsgd1na2vs0mg"},{"bike_id":"7d60e954-8740-4b77-8b08-34d5244da699","system_id":"levelo_inurba_marseille","lat":43.30132,"lon":5.37411,"is_reserved":false,"is_disabled":false,"rental_uris":{"android":"levelo://app?vid=7d60e954-8740-4b77-8b08-34d5244da699","ios":"levelo://app?vid=7d60e954-8740-4b77-8b08-34d5244da699"},"vehicle_type_id":"4","last_reported":1773314667,"current_range_meters":9600,"station_id":"ce4bgs92rcd13ifvqcc0","pricing_plan_id":"cebpf4jnsgd1na2vs0mg"},{"bike_id":"e50c6797-fb66-441b-97d0-c7fbbc3eb9c6","system_id":"levelo_inurba_marseille","lat":43.31718,"lon":5.43702,"is_reserved":false,"is_disabled":false,"rental_uris":{"android":"levelo://app?vid=e50c6797-fb66-441b-97d0-c7fbbc3eb9c6","ios":"levelo://app?vid=e50c6797-fb66-441b-97d0-c7fbbc3eb9c6"},"vehicle_type_id":"4","last_reported":1773314667,"current_range_meters":26800,"station_id":"ce4bhp92rcd13ifvqhcg","pricing_plan_id":"cebpf4jnsgd1na2vs0mg"},{"bike_id":"d936ee88-e6c5-41eb-94c9-c0f089a32b91","system_id":"levelo_inurba_marseille","lat":43.31182,"lon":5.37721,"is_reserved":false,"is_disabled":false,"rental_uris":{"android":"levelo://app?vid=d936ee88-e6c5-41eb-94c9-c0f089a32b91","ios":"levelo://app?vid=d936ee88-e6c5-41eb-94c9-c0f089a32b91"},"vehicle_type_id":"4","last_reported":1773314667,"current_range_meters":29600,"station_id":"","pricing_plan_id":"cebpf4jnsgd1na2vs0mg"},{"bike_id":"ae4e4d86-c7ed-495f-ae90-503c78b29086","system_id":"levelo_inurba_marseille","lat":43.29255,"lon":5.36863,"is_reserved":false,"is_disabled":false,"rental_uris":{"android":"levelo://app?vid=ae4e4d86-c7ed-495f-ae90-503c78b29086","ios":"levelo://app?vid=ae4e4d86-c7ed-495f-ae90-503c78b29086"},"vehicle_type_id":"4","last_reported":1773314667,"current_range_meters":16000,"station_id":"ce4bhbp2rcd13ifvqesg","pricing_plan_id":"cebpf4jnsgd1na2vs0mg"},{"bike_id":"e8badaa0-d513-4502-b39a-a15ea8302cd2","system_id":"levelo_inurba_marseille","lat":43.27478,"lon":5.4245,"is_reserved":false,"is_disabled":false,"rental_uris":{"android":"levelo://app?vid=e8badaa0-d513-4502-b39a-a15ea8302cd2","ios":"levelo://app?vid=e8badaa0-d513-4502-b39a-a15ea8302cd2"},"vehicle_type_id":"4","last_reported":1773314667,"current_range_meters":31200,"station_id":"ce4bhn92rcd13ifvqgrg","pricing_plan_id":"cebpf4jnsgd1na2vs0mg"},{"bike_id":"11f8cb8e-bbe5-4cae-a377-9ae04f08156a","system_id":"levelo_inurba_marseille","lat":43.30132,"lon":5.37421,"is_reserved":false,"is_disabled":false,"rental_uris":{"android":"levelo://app?vid=11f8cb8e-bbe5-4cae-a377-9ae04f08156a","ios":"levelo://app?vid=11f8cb8e-bbe5-4cae-a377-9ae04f08156a"},"vehicle_type_id":"4","last_reported":1773314667,"current_range_meters":27200,"station_id":"ce4bgs92rcd13ifvqcc0","pricing_plan_id":"cebpf4jnsgd1na2vs0mg"},{"bike_id":"7c5d90d1-8ba7-4d11-a859-9263fa5d367b","system_id":"levelo_inurba_marseille","lat":43.337444,"lon":5.374475,"is_reserved":false,"is_disabled":true,"rental_uris":{"android":"levelo://app?vid=7c5d90d1-8ba7-4d11-a859-9263fa5d367b","ios":"levelo://app?vid=7c5d90d1-8ba7-4d11-a859-9263fa5d367b"},"vehicle_type_id":"4","last_reported":1773314667,"current_range_meters":8000,"station_id":"","pricing_plan_id":"cebpf4jnsgd1na2vs0mg"},{"bike_id":"2747c85c-374e-45b4-84a4-d941c63b9167","system_id":"levelo_inurba_marseille","lat":43.31355,"lon":5.38471,"is_reserved":false,"is_disabled":false,"rental_uris":{"android":"levelo://app?vid=2747c85c-374e-45b4-84a4-d941c63b9167","ios":"levelo://app?vid=2747c85c-374e-45b4-84a4-d941c63b9167"},"vehicle_type_id":"4","last_reported":1773314667,"current_range_meters":39200,"station_id":"ce4bgt92rcd13ifvqcf0","pricing_plan_id":"cebpf4jnsgd1na2vs0mg"},{"bike_id":"b27431d4-5a07-448c-ae86-4b30066a8d4a","system_id":"levelo_inurba_marseille","lat":43.2923,"lon":5.36049,"is_reserved":false,"is_disabled":false,"rental_uris":{"android":"levelo://app?vid=b27431d4-5a07-448c-ae86-4b30066a8d4a","ios":"levelo://app?vid=b27431d4-5a07-448c-ae86-4b30066a8d4a"},"vehicle_type_id":"4","last_reported":1773314667,"current_range_meters":38000,"station_id":"ce4bhbh2rcd13ifvqeqg","pricing_plan_id":"cebpf4jnsgd1na2vs0mg"},{"bike_id":"f62cbee2-12e5-4cdd-bfbc-04088f9f32fa","system_id":"levelo_inurba_marseille","lat":43.28478,"lon":5.48393,"is_reserved":false,"is_disabled":false,"rental_uris":{"android":"levelo://app?vid=f62cbee2-12e5-4cdd-bfbc-04088f9f32fa","ios":"levelo://app?vid=f62cbee2-12e5-4cdd-bfbc-04088f9f32fa"},"vehicle_type_id":"4","last_reported":1773314667,"current_range_meters":16800,"station_id":"","pricing_plan_id":"cebpf4jnsgd1na2vs0mg"},{"bike_id":"b174f084-eeb1-4565-97fc-5d2ba56b03c6","system_id":"levelo_inurba_marseille","lat":43.26542,"lon":5.37275,"is_reserved":false,"is_disabled":false,"rental_uris":{"android":"levelo://app?vid=b174f084-eeb1-4565-97fc-5d2ba56b03c6","ios":"levelo://app?vid=b174f084-eeb1-4565-97fc-5d2ba56b03c6"},"vehicle_type_id":"4","last_reported":1773314667,"current_range_meters":21600,"station_id":"ce4bhg12rcd13ifvqf70","pricing_plan_id":"cebpf4jnsgd1na2vs0mg"},{"bike_id":"189d0b9d-d153-4529-b6d8-b512a602901a","system_id":"levelo_inurba_marseille","lat":43.30528,"lon":5.36519,"is_reserved":false,"is_disabled":false,"rental_uris":{"android":"levelo://app?vid=189d0b9d-d153-4529-b6d8-b512a602901a","ios":"levelo://app?vid=189d0b9d-d153-4529-b6d8-b512a602901a"},"vehicle_type_id":"4","last_reported":1773314667,"current_range_meters":29600,"station_id":"","pricing_plan_id":"cebpf4jnsgd1na2vs0mg"},{"bike_id":"19789858-1ce6-4714-be96-8a45f06c1294","system_id":"levelo_inurba_marseille","lat":43.29563,"lon":5.42272,"is_reserved":false,"is_disabled":false,"rental_uris":{"android":"levelo://app?vid=19789858-1ce6-4714-be96-8a45f06c1294","ios":"levelo://app?vid=19789858-1ce6-4714-be96-8a45f06c1294"},"vehicle_type_id":"4","last_reported":1773314667,"current_range_meters":39200,"station_id":"ce4bhph2rcd13ifvqhdg","pricing_plan_id":"cebpf4jnsgd1na2vs0mg"},{"bike_id":"681fca49-d7d0-4d64-ba5f-a1615360789c","system_id":"levelo_inurba_marseille","lat":43.25863,"lon":5.3946,"is_reserved":false,"is_disabled":false,"rental_uris":{"android":"levelo://app?vid=681fca49-d7d0-4d64-ba5f-a1615360789c","ios":"levelo://app?vid=681fca49-d7d0-4d64-ba5f-a1615360789c"},"vehicle_type_id":"4","last_reported":1773314667,"current_range_meters":33200,"station_id":"","pricing_plan_id":"cebpf4jnsgd1na2vs0mg"},{"bike_id":"e824a880-56b7-440e-8a54-db91d8597347","system_id":"levelo_inurba_marseille","lat":43.23193,"lon":5.35562,"is_reserved":false,"is_disabled":false,"rental_uris":{"android":"levelo://app?vid=e824a880-56b7-440e-8a54-db91d8597347","ios":"levelo://app?vid=e824a880-56b7-440e-8a54-db91d8597347"},"vehicle_type_id":"4","last_reported":1773314667,"current_range_meters":16800,"station_id":"ce4bhu92rcd13ifvqi70","pricing_plan_id":"cebpf4jnsgd1na2vs0mg"},{"bike_id":"ba3a231f-10a0-4302-b0e7-08f11861cd04","system_id":"levelo_inurba_marseille","lat":43.28472,"lon":5.48394,"is_reserved":false,"is_disabled":false,"rental_uris":{"android":"levelo://app?vid=ba3a231f-10a0-4302-b0e7-08f11861cd04","ios":"levelo://app?vid=ba3a231f-10a0-4302-b0e7-08f11861cd04"},"vehicle_type_id":"4","last_reported":1773314667,"current_range_meters":36800,"station_id":"","pricing_plan_id":"cebpf4jnsgd1na2vs0mg"},{"bike_id":"2f280020-4fd0-4c35-a3e5-87e99fea2ecd","system_id":"levelo_inurba_marseille","lat":43.29592,"lon":5.37716,"is_reserved":false,"is_disabled":true,"rental_uris":{"android":"levelo://app?vid=2f280020-4fd0-4c35-a3e5-87e99fea2ecd","ios":"levelo://app?vid=2f280020-4fd0-4c35-a3e5-87e99fea2ecd"},"vehicle_type_id":"4","last_reported":1773314667,"current_range_meters":29600,"station_id":"ce4bgi92rcd13ifvqb90","pricing_plan_id":"cebpf4jnsgd1na2vs0mg"},{"bike_id":"03f09e59-d972-46d2-824d-098cfbd29613","system_id":"levelo_inurba_marseille","lat":43.27184,"lon":5.39157,"is_reserved":false,"is_disabled":false,"rental_uris":{"android":"levelo://app?vid=03f09e59-d972-46d2-824d-098cfbd29613","ios":"levelo://app?vid=03f09e59-d972-46d2-824d-098cfbd29613"},"vehicle_type_id":"4","last_reported":1773314667,"current_range_meters":26800,"station_id":"ce4bhhp2rcd13ifvqfm0","pricing_plan_id":"cebpf4jnsgd1na2vs0mg"},{"bike_id":"be671c5b-fb45-47d4-8232-4da9e39592ca","system_id":"levelo_inurba_marseille","lat":43.24159,"lon":5.3638,"is_reserved":false,"is_disabled":false,"rental_uris":{"android":"levelo://app?vid=be671c5b-fb45-47d4-8232-4da9e39592ca","ios":"levelo://app?vid=be671c5b-fb45-47d4-8232-4da9e39592ca"},"vehicle_type_id":"4","last_reported":1773314667,"current_range_meters":16800,"station_id":"cpo36qri1sfpv3e86is0","pricing_plan_id":"cebpf4jnsgd1na2vs0mg"},{"bike_id":"352c9f7d-89b4-42e5-9e2e-76d972a274bd","system_id":"levelo_inurba_marseille","lat":43.28898,"lon":5.43236,"is_reserved":false,"is_disabled":false,"rental_uris":{"android":"levelo://app?vid=352c9f7d-89b4-42e5-9e2e-76d972a274bd","ios":"levelo://app?vid=352c9f7d-89b4-42e5-9e2e-76d972a274bd"},"vehicle_type_id":"4","last_reported":1773314667,"current_range_meters":8000,"station_id":"","pricing_plan_id":"cebpf4jnsgd1na2vs0mg"},{"bike_id":"c1627c1f-7b0b-4814-9c89-9220d9dba0f5","system_id":"levelo_inurba_marseille","lat":43.27209,"lon":5.3919,"is_reserved":false,"is_disabled":false,"rental_uris":{"android":"levelo://app?vid=c1627c1f-7b0b-4814-9c89-9220d9dba0f5","ios":"levelo://app?vid=c1627c1f-7b0b-4814-9c89-9220d9dba0f5"},"vehicle_type_id":"4","last_reported":1773314667,"current_range_meters":5600,"station_id":"ce4bhhp2rcd13ifvqfm0","pricing_plan_id":"cebpf4jnsgd1na2vs0mg"},{"bike_id":"c59a5209-1b70-42df-8250-859beecf23e1","system_id":"levelo_inurba_marseille","lat":43.23199,"lon":5.35549,"is_reserved":false,"is_disabled":false,"rental_uris":{"android":"levelo://app?vid=c59a5209-1b70-42df-8250-859beecf23e1","ios":"levelo://app?vid=c59a5209-1b70-42df-8250-859beecf23e1"},"vehicle_type_id":"4","last_reported":1773314667,"current_range_meters":36000,"station_id":"ce4bhu92rcd13ifvqi70","pricing_plan_id":"cebpf4jnsgd1na2vs0mg"},{"bike_id":"fed428a6-a508-4132-94d7-783075e10fe3","system_id":"levelo_inurba_marseille","lat":43.32361,"lon":5.36728,"is_reserved":false,"is_disabled":false,"rental_uris":{"android":"levelo://app?vid=fed428a6-a508-4132-94d7-783075e10fe3","ios":"levelo://app?vid=fed428a6-a508-4132-94d7-783075e10fe3"},"vehicle_type_id":"4","last_reported":1773314667,"current_range_meters":32000,"station_id":"ce4bhsh2rcd13ifvqi2g","pricing_plan_id":"cebpf4jnsgd1na2vs0mg"},{"bike_id":"4b8a1996-ed7a-4a25-bdf6-a383b894a1dd","system_id":"levelo_inurba_marseille","lat":43.29261,"lon":5.37641,"is_reserved":false,"is_disabled":false,"rental_uris":{"android":"levelo://app?vid=4b8a1996-ed7a-4a25-bdf6-a383b894a1dd","ios":"levelo://app?vid=4b8a1996-ed7a-4a25-bdf6-a383b894a1dd"},"vehicle_type_id":"4","last_reported":1773314667,"current_range_meters":40000,"station_id":"ce4bgi12rcd13ifvqb80","pricing_plan_id":"cebpf4jnsgd1na2vs0mg"},{"bike_id":"29a395a3-9a63-46a8-b681-a21644de9c32","system_id":"levelo_inurba_marseille","lat":43.27671,"lon":5.38892,"is_reserved":false,"is_disabled":false,"rental_uris":{"android":"levelo://app?vid=29a395a3-9a63-46a8-b681-a21644de9c32","ios":"levelo://app?vid=29a395a3-9a63-46a8-b681-a21644de9c32"},"vehicle_type_id":"4","last_reported":1773314667,"current_range_meters":36400,"station_id":"ce4bhi12rcd13ifvqfo0","pricing_plan_id":"cebpf4jnsgd1na2vs0mg"},{"bike_id":"e55c52e9-43cb-4f3d-ab3b-c275a0e2d597","system_id":"levelo_inurba_marseille","lat":43.30538,"lon":5.3654,"is_reserved":false,"is_disabled":false,"rental_uris":{"android":"levelo://app?vid=e55c52e9-43cb-4f3d-ab3b-c275a0e2d597","ios":"levelo://app?vid=e55c52e9-43cb-4f3d-ab3b-c275a0e2d597"},"vehicle_type_id":"4","last_reported":1773314667,"current_range_meters":24400,"station_id":"ce4bgs12rcd13ifvqcag","pricing_plan_id":"cebpf4jnsgd1na2vs0mg"},{"bike_id":"a6308c57-1a36-41de-bb48-5ab4640b043f","system_id":"levelo_inurba_marseille","lat":43.29604,"lon":5.36743,"is_reserved":false,"is_disabled":false,"rental_uris":{"android":"levelo://app?vid=a6308c57-1a36-41de-bb48-5ab4640b043f","ios":"levelo://app?vid=a6308c57-1a36-41de-bb48-5ab4640b043f"},"vehicle_type_id":"4","last_reported":1773314667,"current_range_meters":23200,"station_id":"ce4bgph2rcd13ifvqc2g","pricing_plan_id":"cebpf4jnsgd1na2vs0mg"},{"bike_id":"035b30d5-a74b-4e35-8731-fb649d854586","system_id":"levelo_inurba_marseille","lat":43.29232,"lon":5.36053,"is_reserved":false,"is_disabled":false,"rental_uris":{"android":"levelo://app?vid=035b30d5-a74b-4e35-8731-fb649d854586","ios":"levelo://app?vid=035b30d5-a74b-4e35-8731-fb649d854586"},"vehicle_type_id":"4","last_reported":1773314667,"current_range_meters":25600,"station_id":"ce4bhbh2rcd13ifvqeqg","pricing_plan_id":"cebpf4jnsgd1na2vs0mg"},{"bike_id":"e8e891cf-164b-4375-8667-e5eaa1ef09df","system_id":"levelo_inurba_marseille","lat":43.31765,"lon":5.39008,"is_reserved":false,"is_disabled":false,"rental_uris":{"android":"levelo://app?vid=e8e891cf-164b-4375-8667-e5eaa1ef09df","ios":"levelo://app?vid=e8e891cf-164b-4375-8667-e5eaa1ef09df"},"vehicle_type_id":"4","last_reported":1773314667,"current_range_meters":35600,"station_id":"ce4bhqp2rcd13ifvqhng","pricing_plan_id":"cebpf4jnsgd1na2vs0mg"},{"bike_id":"77044ba6-284b-43f3-8fd5-1abc415f09db","system_id":"levelo_inurba_marseille","lat":43.25576,"lon":5.38236,"is_reserved":false,"is_disabled":false,"rental_uris":{"android":"levelo://app?vid=77044ba6-284b-43f3-8fd5-1abc415f09db","ios":"levelo://app?vid=77044ba6-284b-43f3-8fd5-1abc415f09db"},"vehicle_type_id":"4","last_reported":1773314667,"current_range_meters":38000,"station_id":"ce4bhih2rcd13ifvqfs0","pricing_plan_id":"cebpf4jnsgd1na2vs0mg"},{"bike_id":"a540b441-3928-4042-84dc-78cbd8de6fd0","system_id":"levelo_inurba_marseille","lat":43.24413,"lon":5.37043,"is_reserved":false,"is_disabled":false,"rental_uris":{"android":"levelo://app?vid=a540b441-3928-4042-84dc-78cbd8de6fd0","ios":"levelo://app?vid=a540b441-3928-4042-84dc-78cbd8de6fd0"},"vehicle_type_id":"4","last_reported":1773314667,"current_range_meters":30800,"station_id":"ce4bhhh2rcd13ifvqfk0","pricing_plan_id":"cebpf4jnsgd1na2vs0mg"},{"bike_id":"32bd028c-4df1-4648-ba2a-263dd3d46a56","system_id":"levelo_inurba_marseille","lat":43.277,"lon":5.38878,"is_reserved":false,"is_disabled":false,"rental_uris":{"android":"levelo://app?vid=32bd028c-4df1-4648-ba2a-263dd3d46a56","ios":"levelo://app?vid=32bd028c-4df1-4648-ba2a-263dd3d46a56"},"vehicle_type_id":"4","last_reported":1773314667,"current_range_meters":39200,"station_id":"ce4bhi12rcd13ifvqfo0","pricing_plan_id":"cebpf4jnsgd1na2vs0mg"},{"bike_id":"08131f05-e3b5-4642-99ed-147f9e94babc","system_id":"levelo_inurba_marseille","lat":43.29592,"lon":5.37727,"is_reserved":false,"is_disabled":false,"rental_uris":{"android":"levelo://app?vid=08131f05-e3b5-4642-99ed-147f9e94babc","ios":"levelo://app?vid=08131f05-e3b5-4642-99ed-147f9e94babc"},"vehicle_type_id":"4","last_reported":1773314667,"current_range_meters":27600,"station_id":"ce4bgi92rcd13ifvqb90","pricing_plan_id":"cebpf4jnsgd1na2vs0mg"},{"bike_id":"63b76f93-5fb3-4f91-9d99-0d4fa059e5c5","system_id":"levelo_inurba_marseille","lat":43.25001,"lon":5.38925,"is_reserved":false,"is_disabled":false,"rental_uris":{"android":"levelo://app?vid=63b76f93-5fb3-4f91-9d99-0d4fa059e5c5","ios":"levelo://app?vid=63b76f93-5fb3-4f91-9d99-0d4fa059e5c5"},"vehicle_type_id":"4","last_reported":1773314667,"current_range_meters":26800,"station_id":"ce4bhgp2rcd13ifvqfd0","pricing_plan_id":"cebpf4jnsgd1na2vs0mg"},{"bike_id":"4d9955e1-63cd-4eb1-84d6-f2acfdd55e89","system_id":"levelo_inurba_marseille","lat":43.28413,"lon":5.34983,"is_reserved":false,"is_disabled":false,"rental_uris":{"android":"levelo://app?vid=4d9955e1-63cd-4eb1-84d6-f2acfdd55e89","ios":"levelo://app?vid=4d9955e1-63cd-4eb1-84d6-f2acfdd55e89"},"vehicle_type_id":"4","last_reported":1773314667,"current_range_meters":15200,"station_id":"ce4bhbh2rcd13ifvqepg","pricing_plan_id":"cebpf4jnsgd1na2vs0mg"},{"bike_id":"37697a96-75d5-4623-ac11-50bd2a045c5f","system_id":"levelo_inurba_marseille","lat":43.24407,"lon":5.37059,"is_reserved":false,"is_disabled":false,"rental_uris":{"android":"levelo://app?vid=37697a96-75d5-4623-ac11-50bd2a045c5f","ios":"levelo://app?vid=37697a96-75d5-4623-ac11-50bd2a045c5f"},"vehicle_type_id":"4","last_reported":1773314667,"current_range_meters":37600,"station_id":"ce4bhhh2rcd13ifvqfk0","pricing_plan_id":"cebpf4jnsgd1na2vs0mg"},{"bike_id":"d70e7c8d-7228-4bba-bc24-c8ffa4cc6c2a","system_id":"levelo_inurba_marseille","lat":43.24382,"lon":5.37996,"is_reserved":false,"is_disabled":false,"rental_uris":{"android":"levelo://app?vid=d70e7c8d-7228-4bba-bc24-c8ffa4cc6c2a","ios":"levelo://app?vid=d70e7c8d-7228-4bba-bc24-c8ffa4cc6c2a"},"vehicle_type_id":"4","last_reported":1773314667,"current_range_meters":19600,"station_id":"","pricing_plan_id":"cebpf4jnsgd1na2vs0mg"},{"bike_id":"d551195e-f5b0-490f-bac9-9dae68d902a4","system_id":"levelo_inurba_marseille","lat":43.21745,"lon":5.34602,"is_reserved":false,"is_disabled":false,"rental_uris":{"android":"levelo://app?vid=d551195e-f5b0-490f-bac9-9dae68d902a4","ios":"levelo://app?vid=d551195e-f5b0-490f-bac9-9dae68d902a4"},"vehicle_type_id":"4","last_reported":1773314667,"current_range_meters":33600,"station_id":"st_cvj6r9ubvosntc0bgbag","pricing_plan_id":"cebpf4jnsgd1na2vs0mg"},{"bike_id":"0a2f9b28-6219-4106-b011-3026133a767c","system_id":"levelo_inurba_marseille","lat":43.29567,"lon":5.38144,"is_reserved":false,"is_disabled":true,"rental_uris":{"android":"levelo://app?vid=0a2f9b28-6219-4106-b011-3026133a767c","ios":"levelo://app?vid=0a2f9b28-6219-4106-b011-3026133a767c"},"vehicle_type_id":"4","last_reported":1773314667,"current_range_meters":35200,"station_id":"ce4bgl12rcd13ifvqbo0","pricing_plan_id":"cebpf4jnsgd1na2vs0mg"},{"bike_id":"de9f5ea3-1c64-41f7-966d-7a991e6dbd13","system_id":"levelo_inurba_marseille","lat":43.30392,"lon":5.42473,"is_reserved":false,"is_disabled":false,"rental_uris":{"android":"levelo://app?vid=de9f5ea3-1c64-41f7-966d-7a991e6dbd13","ios":"levelo://app?vid=de9f5ea3-1c64-41f7-966d-7a991e6dbd13"},"vehicle_type_id":"4","last_reported":1773314667,"current_range_meters":29600,"station_id":"ce4bhoh2rcd13ifvqh6g","pricing_plan_id":"cebpf4jnsgd1na2vs0mg"},{"bike_id":"b79e4b1c-9a3a-4c7d-8ab8-29773779acd1","system_id":"levelo_inurba_marseille","lat":43.27945,"lon":5.41051,"is_reserved":false,"is_disabled":false,"rental_uris":{"android":"levelo://app?vid=b79e4b1c-9a3a-4c7d-8ab8-29773779acd1","ios":"levelo://app?vid=b79e4b1c-9a3a-4c7d-8ab8-29773779acd1"},"vehicle_type_id":"4","last_reported":1773314667,"current_range_meters":24400,"station_id":"ce4bhnp2rcd13ifvqh0g","pricing_plan_id":"cebpf4jnsgd1na2vs0mg"},{"bike_id":"9a5db9a5-a7cc-44bf-b9a0-2078598269a0","system_id":"levelo_inurba_marseille","lat":43.28927,"lon":5.38407,"is_reserved":false,"is_disabled":false,"rental_uris":{"android":"levelo://app?vid=9a5db9a5-a7cc-44bf-b9a0-2078598269a0","ios":"levelo://app?vid=9a5db9a5-a7cc-44bf-b9a0-2078598269a0"},"vehicle_type_id":"4","last_reported":1773314667,"current_range_meters":16400,"station_id":"ce4bh612rcd13ifvqe6g","pricing_plan_id":"cebpf4jnsgd1na2vs0mg"},{"bike_id":"faa28bd2-fc63-4516-8dff-61c10db01d75","system_id":"levelo_inurba_marseille","lat":43.237772,"lon":5.366283,"is_reserved":false,"is_disabled":false,"rental_uris":{"android":"levelo://app?vid=faa28bd2-fc63-4516-8dff-61c10db01d75","ios":"levelo://app?vid=faa28bd2-fc63-4516-8dff-61c10db01d75"},"vehicle_type_id":"4","last_reported":1773314667,"current_range_meters":33200,"station_id":"st_d3nk18o9ro0c73en2l3g","pricing_plan_id":"cebpf4jnsgd1na2vs0mg"},{"bike_id":"c73dc152-9938-46ce-972e-77003c30697b","system_id":"levelo_inurba_marseille","lat":43.2583,"lon":5.39445,"is_reserved":false,"is_disabled":false,"rental_uris":{"android":"levelo://app?vid=c73dc152-9938-46ce-972e-77003c30697b","ios":"levelo://app?vid=c73dc152-9938-46ce-972e-77003c30697b"},"vehicle_type_id":"4","last_reported":1773314667,"current_range_meters":37600,"station_id":"ce4bhip2rcd13ifvqft0","pricing_plan_id":"cebpf4jnsgd1na2vs0mg"},{"bike_id":"e17b8e76-0f76-40aa-a687-3f87eeadab84","system_id":"levelo_inurba_marseille","lat":43.2681,"lon":5.4027,"is_reserved":false,"is_disabled":false,"rental_uris":{"android":"levelo://app?vid=e17b8e76-0f76-40aa-a687-3f87eeadab84","ios":"levelo://app?vid=e17b8e76-0f76-40aa-a687-3f87eeadab84"},"vehicle_type_id":"4","last_reported":1773314667,"current_range_meters":32400,"station_id":"ce501612rcd8frsf0b60","pricing_plan_id":"cebpf4jnsgd1na2vs0mg"},{"bike_id":"e58a0337-ccee-4dc0-b528-1696aeec6127","system_id":"levelo_inurba_marseille","lat":43.27845,"lon":5.39198,"is_reserved":false,"is_disabled":false,"rental_uris":{"android":"levelo://app?vid=e58a0337-ccee-4dc0-b528-1696aeec6127","ios":"levelo://app?vid=e58a0337-ccee-4dc0-b528-1696aeec6127"},"vehicle_type_id":"4","last_reported":1773314667,"current_range_meters":38800,"station_id":"ce4bhjp2rcd13ifvqga0","pricing_plan_id":"cebpf4jnsgd1na2vs0mg"},{"bike_id":"a975d39d-4a14-4e0c-8235-9aa6495c9757","system_id":"levelo_inurba_marseille","lat":43.27398,"lon":5.4248,"is_reserved":false,"is_disabled":true,"rental_uris":{"android":"levelo://app?vid=a975d39d-4a14-4e0c-8235-9aa6495c9757","ios":"levelo://app?vid=a975d39d-4a14-4e0c-8235-9aa6495c9757"},"vehicle_type_id":"4","last_reported":1773314667,"current_range_meters":30400,"station_id":"","pricing_plan_id":"cebpf4jnsgd1na2vs0mg"},{"bike_id":"42c23f21-e078-4684-bab5-a30fd2bf0118","system_id":"levelo_inurba_marseille","lat":43.29712,"lon":5.37697,"is_reserved":false,"is_disabled":true,"rental_uris":{"android":"levelo://app?vid=42c23f21-e078-4684-bab5-a30fd2bf0118","ios":"levelo://app?vid=42c23f21-e078-4684-bab5-a30fd2bf0118"},"vehicle_type_id":"4","last_reported":1773314667,"current_range_meters":39200,"station_id":"ce4bgkh2rcd13ifvqbl0","pricing_plan_id":"cebpf4jnsgd1na2vs0mg"},{"bike_id":"4d521e09-5edf-45b8-8ab0-d2eba4966a81","system_id":"levelo_inurba_marseille","lat":43.30429,"lon":5.38887,"is_reserved":false,"is_disabled":false,"rental_uris":{"android":"levelo://app?vid=4d521e09-5edf-45b8-8ab0-d2eba4966a81","ios":"levelo://app?vid=4d521e09-5edf-45b8-8ab0-d2eba4966a81"},"vehicle_type_id":"4","last_reported":1773314667,"current_range_meters":20000,"station_id":"ce4bgk12rcd13ifvqbi0","pricing_plan_id":"cebpf4jnsgd1na2vs0mg"},{"bike_id":"bee871d3-07ca-4830-9795-16242e3d8f72","system_id":"levelo_inurba_marseille","lat":43.27493,"lon":5.42431,"is_reserved":false,"is_disabled":false,"rental_uris":{"android":"levelo://app?vid=bee871d3-07ca-4830-9795-16242e3d8f72","ios":"levelo://app?vid=bee871d3-07ca-4830-9795-16242e3d8f72"},"vehicle_type_id":"4","last_reported":1773314667,"current_range_meters":33600,"station_id":"ce4bhn92rcd13ifvqgrg","pricing_plan_id":"cebpf4jnsgd1na2vs0mg"},{"bike_id":"648ef0c3-dc3d-4c0b-a0fa-86816163a300","system_id":"levelo_inurba_marseille","lat":43.25024,"lon":5.38933,"is_reserved":false,"is_disabled":false,"rental_uris":{"android":"levelo://app?vid=648ef0c3-dc3d-4c0b-a0fa-86816163a300","ios":"levelo://app?vid=648ef0c3-dc3d-4c0b-a0fa-86816163a300"},"vehicle_type_id":"4","last_reported":1773314667,"current_range_meters":39200,"station_id":"ce4bhgp2rcd13ifvqfd0","pricing_plan_id":"cebpf4jnsgd1na2vs0mg"},{"bike_id":"1d8bd080-4764-4a99-af88-76c9f3d5b098","system_id":"levelo_inurba_marseille","lat":43.31324,"lon":5.39691,"is_reserved":false,"is_disabled":false,"rental_uris":{"android":"levelo://app?vid=1d8bd080-4764-4a99-af88-76c9f3d5b098","ios":"levelo://app?vid=1d8bd080-4764-4a99-af88-76c9f3d5b098"},"vehicle_type_id":"4","last_reported":1773314667,"current_range_meters":26000,"station_id":"ce4bgvp2rcd13ifvqcu0","pricing_plan_id":"cebpf4jnsgd1na2vs0mg"},{"bike_id":"8353becb-09ec-45b5-a24b-8f6218c436aa","system_id":"levelo_inurba_marseille","lat":43.241833,"lon":5.397251,"is_reserved":false,"is_disabled":true,"rental_uris":{"android":"levelo://app?vid=8353becb-09ec-45b5-a24b-8f6218c436aa","ios":"levelo://app?vid=8353becb-09ec-45b5-a24b-8f6218c436aa"},"vehicle_type_id":"4","last_reported":1773314667,"current_range_meters":8000,"station_id":"ce4bhn12rcd13ifvqgpg","pricing_plan_id":"cebpf4jnsgd1na2vs0mg"},{"bike_id":"e99c9edd-3050-4618-8d36-cd73b8428723","system_id":"levelo_inurba_marseille","lat":43.34142,"lon":5.40888,"is_reserved":false,"is_disabled":false,"rental_uris":{"android":"levelo://app?vid=e99c9edd-3050-4618-8d36-cd73b8428723","ios":"levelo://app?vid=e99c9edd-3050-4618-8d36-cd73b8428723"},"vehicle_type_id":"4","last_reported":1773314667,"current_range_meters":38400,"station_id":"ce4bhqh2rcd13ifvqhlg","pricing_plan_id":"cebpf4jnsgd1na2vs0mg"},{"bike_id":"54bf9eed-4ee5-4a7a-8e08-f054363abff2","system_id":"levelo_inurba_marseille","lat":43.23147,"lon":5.43707,"is_reserved":false,"is_disabled":false,"rental_uris":{"android":"levelo://app?vid=54bf9eed-4ee5-4a7a-8e08-f054363abff2","ios":"levelo://app?vid=54bf9eed-4ee5-4a7a-8e08-f054363abff2"},"vehicle_type_id":"4","last_reported":1773314667,"current_range_meters":20000,"station_id":"ce4bhmp2rcd13ifvqgog","pricing_plan_id":"cebpf4jnsgd1na2vs0mg"},{"bike_id":"eaea9a02-90be-4a9f-b6d8-28175064e3dd","system_id":"levelo_inurba_marseille","lat":43.2742,"lon":5.39382,"is_reserved":false,"is_disabled":false,"rental_uris":{"android":"levelo://app?vid=eaea9a02-90be-4a9f-b6d8-28175064e3dd","ios":"levelo://app?vid=eaea9a02-90be-4a9f-b6d8-28175064e3dd"},"vehicle_type_id":"4","last_reported":1773314667,"current_range_meters":38400,"station_id":"ce4bhdp2rcd13ifvqf20","pricing_plan_id":"cebpf4jnsgd1na2vs0mg"},{"bike_id":"22851193-2dc4-42f2-8eb5-e7d0f3df0f19","system_id":"levelo_inurba_marseille","lat":43.25717,"lon":5.41097,"is_reserved":false,"is_disabled":false,"rental_uris":{"android":"levelo://app?vid=22851193-2dc4-42f2-8eb5-e7d0f3df0f19","ios":"levelo://app?vid=22851193-2dc4-42f2-8eb5-e7d0f3df0f19"},"vehicle_type_id":"4","last_reported":1773314667,"current_range_meters":33200,"station_id":"ce4bhkp2rcd13ifvqgd0","pricing_plan_id":"cebpf4jnsgd1na2vs0mg"},{"bike_id":"69ae792e-4755-4e12-ad06-71d1e8cc427c","system_id":"levelo_inurba_marseille","lat":43.29578,"lon":5.36748,"is_reserved":false,"is_disabled":false,"rental_uris":{"android":"levelo://app?vid=69ae792e-4755-4e12-ad06-71d1e8cc427c","ios":"levelo://app?vid=69ae792e-4755-4e12-ad06-71d1e8cc427c"},"vehicle_type_id":"4","last_reported":1773314667,"current_range_meters":20000,"station_id":"ce4bgph2rcd13ifvqc2g","pricing_plan_id":"cebpf4jnsgd1na2vs0mg"},{"bike_id":"a63d22a1-9803-47da-97c5-9eb5069b8019","system_id":"levelo_inurba_marseille","lat":43.25824,"lon":5.39438,"is_reserved":false,"is_disabled":false,"rental_uris":{"android":"levelo://app?vid=a63d22a1-9803-47da-97c5-9eb5069b8019","ios":"levelo://app?vid=a63d22a1-9803-47da-97c5-9eb5069b8019"},"vehicle_type_id":"4","last_reported":1773314667,"current_range_meters":37600,"station_id":"ce4bhip2rcd13ifvqft0","pricing_plan_id":"cebpf4jnsgd1na2vs0mg"},{"bike_id":"c60a1f6e-b77b-4b54-9406-84b147463065","system_id":"levelo_inurba_marseille","lat":43.25001,"lon":5.38922,"is_reserved":false,"is_disabled":false,"rental_uris":{"android":"levelo://app?vid=c60a1f6e-b77b-4b54-9406-84b147463065","ios":"levelo://app?vid=c60a1f6e-b77b-4b54-9406-84b147463065"},"vehicle_type_id":"4","last_reported":1773314667,"current_range_meters":38000,"station_id":"ce4bhgp2rcd13ifvqfd0","pricing_plan_id":"cebpf4jnsgd1na2vs0mg"},{"bike_id":"712f73a5-ccbd-4df8-a2bf-f8199628c205","system_id":"levelo_inurba_marseille","lat":43.25932,"lon":5.4092,"is_reserved":false,"is_disabled":false,"rental_uris":{"android":"levelo://app?vid=712f73a5-ccbd-4df8-a2bf-f8199628c205","ios":"levelo://app?vid=712f73a5-ccbd-4df8-a2bf-f8199628c205"},"vehicle_type_id":"4","last_reported":1773314667,"current_range_meters":39200,"station_id":"ce4bhm92rcd13ifvqglg","pricing_plan_id":"cebpf4jnsgd1na2vs0mg"},{"bike_id":"83cfba9f-efeb-47ab-979a-b88615e72865","system_id":"levelo_inurba_marseille","lat":43.27205,"lon":5.39202,"is_reserved":false,"is_disabled":false,"rental_uris":{"android":"levelo://app?vid=83cfba9f-efeb-47ab-979a-b88615e72865","ios":"levelo://app?vid=83cfba9f-efeb-47ab-979a-b88615e72865"},"vehicle_type_id":"4","last_reported":1773314667,"current_range_meters":39200,"station_id":"ce4bhhp2rcd13ifvqfm0","pricing_plan_id":"cebpf4jnsgd1na2vs0mg"},{"bike_id":"8b2e521b-1101-44fe-9d4a-0344f080c81c","system_id":"levelo_inurba_marseille","lat":43.28476,"lon":5.48397,"is_reserved":false,"is_disabled":false,"rental_uris":{"android":"levelo://app?vid=8b2e521b-1101-44fe-9d4a-0344f080c81c","ios":"levelo://app?vid=8b2e521b-1101-44fe-9d4a-0344f080c81c"},"vehicle_type_id":"4","last_reported":1773314667,"current_range_meters":33600,"station_id":"","pricing_plan_id":"cebpf4jnsgd1na2vs0mg"},{"bike_id":"e30fa2eb-dc4a-4b8c-9010-74938e7e140d","system_id":"levelo_inurba_marseille","lat":43.21749,"lon":5.34602,"is_reserved":false,"is_disabled":true,"rental_uris":{"android":"levelo://app?vid=e30fa2eb-dc4a-4b8c-9010-74938e7e140d","ios":"levelo://app?vid=e30fa2eb-dc4a-4b8c-9010-74938e7e140d"},"vehicle_type_id":"4","last_reported":1773314667,"current_range_meters":400,"station_id":"st_cvj6r9ubvosntc0bgbag","pricing_plan_id":"cebpf4jnsgd1na2vs0mg"},{"bike_id":"7814c3e3-4ac3-4b10-8dfa-88d309b2e93b","system_id":"levelo_inurba_marseille","lat":43.26795,"lon":5.39445,"is_reserved":false,"is_disabled":false,"rental_uris":{"android":"levelo://app?vid=7814c3e3-4ac3-4b10-8dfa-88d309b2e93b","ios":"levelo://app?vid=7814c3e3-4ac3-4b10-8dfa-88d309b2e93b"},"vehicle_type_id":"4","last_reported":1773314667,"current_range_meters":38800,"station_id":"ce4bhh12rcd13ifvqfg0","pricing_plan_id":"cebpf4jnsgd1na2vs0mg"},{"bike_id":"1697678c-c8a4-4c47-ade7-901915c540a8","system_id":"levelo_inurba_marseille","lat":43.29588,"lon":5.38095,"is_reserved":false,"is_disabled":true,"rental_uris":{"android":"levelo://app?vid=1697678c-c8a4-4c47-ade7-901915c540a8","ios":"levelo://app?vid=1697678c-c8a4-4c47-ade7-901915c540a8"},"vehicle_type_id":"4","last_reported":1773314667,"current_range_meters":2800,"station_id":"ce4bgl12rcd13ifvqbo0","pricing_plan_id":"cebpf4jnsgd1na2vs0mg"},{"bike_id":"9eefabd5-f8a6-452a-a42b-8533547fe70c","system_id":"levelo_inurba_marseille","lat":43.27197,"lon":5.39171,"is_reserved":false,"is_disabled":false,"rental_uris":{"android":"levelo://app?vid=9eefabd5-f8a6-452a-a42b-8533547fe70c","ios":"levelo://app?vid=9eefabd5-f8a6-452a-a42b-8533547fe70c"},"vehicle_type_id":"4","last_reported":1773314667,"current_range_meters":10000,"station_id":"ce4bhhp2rcd13ifvqfm0","pricing_plan_id":"cebpf4jnsgd1na2vs0mg"},{"bike_id":"37795a5e-05a3-4708-a88c-10a303415360","system_id":"levelo_inurba_marseille","lat":43.25112,"lon":5.40317,"is_reserved":false,"is_disabled":false,"rental_uris":{"android":"levelo://app?vid=37795a5e-05a3-4708-a88c-10a303415360","ios":"levelo://app?vid=37795a5e-05a3-4708-a88c-10a303415360"},"vehicle_type_id":"4","last_reported":1773314667,"current_range_meters":35200,"station_id":"ce4bhlh2rcd13ifvqgig","pricing_plan_id":"cebpf4jnsgd1na2vs0mg"},{"bike_id":"b25d2da3-e55a-45fd-ac7e-cf696fba5f30","system_id":"levelo_inurba_marseille","lat":43.27482,"lon":5.42478,"is_reserved":false,"is_disabled":false,"rental_uris":{"android":"levelo://app?vid=b25d2da3-e55a-45fd-ac7e-cf696fba5f30","ios":"levelo://app?vid=b25d2da3-e55a-45fd-ac7e-cf696fba5f30"},"vehicle_type_id":"4","last_reported":1773314667,"current_range_meters":3600,"station_id":"ce4bhn92rcd13ifvqgrg","pricing_plan_id":"cebpf4jnsgd1na2vs0mg"},{"bike_id":"279b31e6-f012-4d9c-a7c8-086a36e72b5f","system_id":"levelo_inurba_marseille","lat":43.29525,"lon":5.38535,"is_reserved":false,"is_disabled":true,"rental_uris":{"android":"levelo://app?vid=279b31e6-f012-4d9c-a7c8-086a36e72b5f","ios":"levelo://app?vid=279b31e6-f012-4d9c-a7c8-086a36e72b5f"},"vehicle_type_id":"4","last_reported":1773314667,"current_range_meters":20000,"station_id":"ce4bgih2rcd13ifvqba0","pricing_plan_id":"cebpf4jnsgd1na2vs0mg"},{"bike_id":"98d1559e-d2bf-470b-aa3b-e89fc9e63aa5","system_id":"levelo_inurba_marseille","lat":43.24076,"lon":5.37722,"is_reserved":false,"is_disabled":false,"rental_uris":{"android":"levelo://app?vid=98d1559e-d2bf-470b-aa3b-e89fc9e63aa5","ios":"levelo://app?vid=98d1559e-d2bf-470b-aa3b-e89fc9e63aa5"},"vehicle_type_id":"4","last_reported":1773314667,"current_range_meters":26800,"station_id":"ce4bhnp2rcd13ifvqgvg","pricing_plan_id":"cebpf4jnsgd1na2vs0mg"},{"bike_id":"65a7fe50-2450-4c8f-8e44-981be7bdae37","system_id":"levelo_inurba_marseille","lat":43.24731,"lon":5.38232,"is_reserved":false,"is_disabled":false,"rental_uris":{"android":"levelo://app?vid=65a7fe50-2450-4c8f-8e44-981be7bdae37","ios":"levelo://app?vid=65a7fe50-2450-4c8f-8e44-981be7bdae37"},"vehicle_type_id":"4","last_reported":1773314667,"current_range_meters":16400,"station_id":"","pricing_plan_id":"cebpf4jnsgd1na2vs0mg"},{"bike_id":"d02665ab-d65f-47fa-a858-71c81c1727d7","system_id":"levelo_inurba_marseille","lat":43.28411,"lon":5.34979,"is_reserved":false,"is_disabled":false,"rental_uris":{"android":"levelo://app?vid=d02665ab-d65f-47fa-a858-71c81c1727d7","ios":"levelo://app?vid=d02665ab-d65f-47fa-a858-71c81c1727d7"},"vehicle_type_id":"4","last_reported":1773314667,"current_range_meters":39200,"station_id":"ce4bhbh2rcd13ifvqepg","pricing_plan_id":"cebpf4jnsgd1na2vs0mg"},{"bike_id":"faa9ffd8-51c8-4df5-a666-1ac16fd61c7f","system_id":"levelo_inurba_marseille","lat":43.24653,"lon":5.38156,"is_reserved":false,"is_disabled":false,"rental_uris":{"android":"levelo://app?vid=faa9ffd8-51c8-4df5-a666-1ac16fd61c7f","ios":"levelo://app?vid=faa9ffd8-51c8-4df5-a666-1ac16fd61c7f"},"vehicle_type_id":"4","last_reported":1773314667,"current_range_meters":18000,"station_id":"ce4bhih2rcd13ifvqfr0","pricing_plan_id":"cebpf4jnsgd1na2vs0mg"},{"bike_id":"43437f22-1a1b-499f-95f6-8f7455ef3186","system_id":"levelo_inurba_marseille","lat":43.2963,"lon":5.37166,"is_reserved":false,"is_disabled":false,"rental_uris":{"android":"levelo://app?vid=43437f22-1a1b-499f-95f6-8f7455ef3186","ios":"levelo://app?vid=43437f22-1a1b-499f-95f6-8f7455ef3186"},"vehicle_type_id":"4","last_reported":1773314667,"current_range_meters":38400,"station_id":"ce4bgnh2rcd13ifvqc0g","pricing_plan_id":"cebpf4jnsgd1na2vs0mg"},{"bike_id":"f22c52de-85e2-4725-84cb-177fac779387","system_id":"levelo_inurba_marseille","lat":43.30545,"lon":5.36557,"is_reserved":false,"is_disabled":false,"rental_uris":{"android":"levelo://app?vid=f22c52de-85e2-4725-84cb-177fac779387","ios":"levelo://app?vid=f22c52de-85e2-4725-84cb-177fac779387"},"vehicle_type_id":"4","last_reported":1773314667,"current_range_meters":32800,"station_id":"ce4bgs12rcd13ifvqcag","pricing_plan_id":"cebpf4jnsgd1na2vs0mg"},{"bike_id":"0d885400-9f2b-4b20-b925-1afc4ed51363","system_id":"levelo_inurba_marseille","lat":43.29153,"lon":5.37151,"is_reserved":false,"is_disabled":false,"rental_uris":{"android":"levelo://app?vid=0d885400-9f2b-4b20-b925-1afc4ed51363","ios":"levelo://app?vid=0d885400-9f2b-4b20-b925-1afc4ed51363"},"vehicle_type_id":"4","last_reported":1773314667,"current_range_meters":11200,"station_id":"ce4bha92rcd13ifvqeh0","pricing_plan_id":"cebpf4jnsgd1na2vs0mg"},{"bike_id":"2ec0d240-9fa8-4251-9c9b-1cc6d98b3d6c","system_id":"levelo_inurba_marseille","lat":43.25578,"lon":5.3823,"is_reserved":false,"is_disabled":false,"rental_uris":{"android":"levelo://app?vid=2ec0d240-9fa8-4251-9c9b-1cc6d98b3d6c","ios":"levelo://app?vid=2ec0d240-9fa8-4251-9c9b-1cc6d98b3d6c"},"vehicle_type_id":"4","last_reported":1773314667,"current_range_meters":25600,"station_id":"ce4bhih2rcd13ifvqfs0","pricing_plan_id":"cebpf4jnsgd1na2vs0mg"},{"bike_id":"26a6b2e2-002a-4072-a1a2-b594f4e8b66c","system_id":"levelo_inurba_marseille","lat":43.30881,"lon":5.37312,"is_reserved":false,"is_disabled":false,"rental_uris":{"android":"levelo://app?vid=26a6b2e2-002a-4072-a1a2-b594f4e8b66c","ios":"levelo://app?vid=26a6b2e2-002a-4072-a1a2-b594f4e8b66c"},"vehicle_type_id":"4","last_reported":1773314667,"current_range_meters":29600,"station_id":"","pricing_plan_id":"cebpf4jnsgd1na2vs0mg"},{"bike_id":"5427f33b-9c12-4d35-9e4f-95e705df3b08","system_id":"levelo_inurba_marseille","lat":43.29637,"lon":5.37176,"is_reserved":false,"is_disabled":false,"rental_uris":{"android":"levelo://app?vid=5427f33b-9c12-4d35-9e4f-95e705df3b08","ios":"levelo://app?vid=5427f33b-9c12-4d35-9e4f-95e705df3b08"},"vehicle_type_id":"4","last_reported":1773314667,"current_range_meters":39200,"station_id":"ce4bgnh2rcd13ifvqc0g","pricing_plan_id":"cebpf4jnsgd1na2vs0mg"},{"bike_id":"1445cfca-2724-4b39-a1db-eda5037e9849","system_id":"levelo_inurba_marseille","lat":43.27207,"lon":5.39172,"is_reserved":false,"is_disabled":false,"rental_uris":{"android":"levelo://app?vid=1445cfca-2724-4b39-a1db-eda5037e9849","ios":"levelo://app?vid=1445cfca-2724-4b39-a1db-eda5037e9849"},"vehicle_type_id":"4","last_reported":1773314667,"current_range_meters":39200,"station_id":"ce4bhhp2rcd13ifvqfm0","pricing_plan_id":"cebpf4jnsgd1na2vs0mg"},{"bike_id":"43dec2c9-0ed1-464f-872a-fff85f3760db","system_id":"levelo_inurba_marseille","lat":43.29578,"lon":5.36697,"is_reserved":false,"is_disabled":false,"rental_uris":{"android":"levelo://app?vid=43dec2c9-0ed1-464f-872a-fff85f3760db","ios":"levelo://app?vid=43dec2c9-0ed1-464f-872a-fff85f3760db"},"vehicle_type_id":"4","last_reported":1773314667,"current_range_meters":28800,"station_id":"ce4bgph2rcd13ifvqc2g","pricing_plan_id":"cebpf4jnsgd1na2vs0mg"},{"bike_id":"b3ec3554-eb1f-4735-9561-8fa9053610e4","system_id":"levelo_inurba_marseille","lat":43.24397,"lon":5.37055,"is_reserved":false,"is_disabled":false,"rental_uris":{"android":"levelo://app?vid=b3ec3554-eb1f-4735-9561-8fa9053610e4","ios":"levelo://app?vid=b3ec3554-eb1f-4735-9561-8fa9053610e4"},"vehicle_type_id":"4","last_reported":1773314667,"current_range_meters":40000,"station_id":"ce4bhhh2rcd13ifvqfk0","pricing_plan_id":"cebpf4jnsgd1na2vs0mg"},{"bike_id":"90bd2d1f-82d1-4564-b345-0f67ac79399c","system_id":"levelo_inurba_marseille","lat":43.30287,"lon":5.37696,"is_reserved":false,"is_disabled":false,"rental_uris":{"android":"levelo://app?vid=90bd2d1f-82d1-4564-b345-0f67ac79399c","ios":"levelo://app?vid=90bd2d1f-82d1-4564-b345-0f67ac79399c"},"vehicle_type_id":"4","last_reported":1773314667,"current_range_meters":8400,"station_id":"ce4bguh2rcd13ifvqcj0","pricing_plan_id":"cebpf4jnsgd1na2vs0mg"},{"bike_id":"f7dafe7c-4b45-481f-a427-ab6708f3f1d8","system_id":"levelo_inurba_marseille","lat":43.28155,"lon":5.42628,"is_reserved":false,"is_disabled":false,"rental_uris":{"android":"levelo://app?vid=f7dafe7c-4b45-481f-a427-ab6708f3f1d8","ios":"levelo://app?vid=f7dafe7c-4b45-481f-a427-ab6708f3f1d8"},"vehicle_type_id":"4","last_reported":1773314667,"current_range_meters":39200,"station_id":"ce4bhnh2rcd13ifvqgug","pricing_plan_id":"cebpf4jnsgd1na2vs0mg"},{"bike_id":"2514dc96-4ba4-42aa-86e2-7c0bded13ca0","system_id":"levelo_inurba_marseille","lat":43.26206,"lon":5.37444,"is_reserved":false,"is_disabled":false,"rental_uris":{"android":"levelo://app?vid=2514dc96-4ba4-42aa-86e2-7c0bded13ca0","ios":"levelo://app?vid=2514dc96-4ba4-42aa-86e2-7c0bded13ca0"},"vehicle_type_id":"4","last_reported":1773314667,"current_range_meters":30400,"station_id":"ce4bhgp2rcd13ifvqfc0","pricing_plan_id":"cebpf4jnsgd1na2vs0mg"},{"bike_id":"e9d6ece2-abf5-4f9e-9fc2-8d847339ebec","system_id":"levelo_inurba_marseille","lat":43.29525,"lon":5.37495,"is_reserved":false,"is_disabled":false,"rental_uris":{"android":"levelo://app?vid=e9d6ece2-abf5-4f9e-9fc2-8d847339ebec","ios":"levelo://app?vid=e9d6ece2-abf5-4f9e-9fc2-8d847339ebec"},"vehicle_type_id":"4","last_reported":1773314667,"current_range_meters":8000,"station_id":"ce4bgkp2rcd13ifvqbmg","pricing_plan_id":"cebpf4jnsgd1na2vs0mg"},{"bike_id":"4cd63f56-88f2-44dc-8d79-97be63a73aac","system_id":"levelo_inurba_marseille","lat":43.33152,"lon":5.37685,"is_reserved":false,"is_disabled":false,"rental_uris":{"android":"levelo://app?vid=4cd63f56-88f2-44dc-8d79-97be63a73aac","ios":"levelo://app?vid=4cd63f56-88f2-44dc-8d79-97be63a73aac"},"vehicle_type_id":"4","last_reported":1773314667,"current_range_meters":9600,"station_id":"st_d46cu089ee8s73dldbu0","pricing_plan_id":"cebpf4jnsgd1na2vs0mg"},{"bike_id":"4bfb174a-06d3-4562-9b73-992b914fe592","system_id":"levelo_inurba_marseille","lat":43.31344,"lon":5.36732,"is_reserved":false,"is_disabled":false,"rental_uris":{"android":"levelo://app?vid=4bfb174a-06d3-4562-9b73-992b914fe592","ios":"levelo://app?vid=4bfb174a-06d3-4562-9b73-992b914fe592"},"vehicle_type_id":"4","last_reported":1773314667,"current_range_meters":40000,"station_id":"ce4bgr92rcd13ifvqc6g","pricing_plan_id":"cebpf4jnsgd1na2vs0mg"},{"bike_id":"75e0c3d8-221f-4cde-923b-2af9189bd83e","system_id":"levelo_inurba_marseille","lat":43.28348,"lon":5.38106,"is_reserved":false,"is_disabled":false,"rental_uris":{"android":"levelo://app?vid=75e0c3d8-221f-4cde-923b-2af9189bd83e","ios":"levelo://app?vid=75e0c3d8-221f-4cde-923b-2af9189bd83e"},"vehicle_type_id":"4","last_reported":1773314667,"current_range_meters":33200,"station_id":"ce4bh412rcd13ifvqdr0","pricing_plan_id":"cebpf4jnsgd1na2vs0mg"},{"bike_id":"099c98f1-3c97-4f83-88ef-7c3cc743f3f7","system_id":"levelo_inurba_marseille","lat":43.26222,"lon":5.3744,"is_reserved":false,"is_disabled":false,"rental_uris":{"android":"levelo://app?vid=099c98f1-3c97-4f83-88ef-7c3cc743f3f7","ios":"levelo://app?vid=099c98f1-3c97-4f83-88ef-7c3cc743f3f7"},"vehicle_type_id":"4","last_reported":1773314667,"current_range_meters":39200,"station_id":"ce4bhgp2rcd13ifvqfc0","pricing_plan_id":"cebpf4jnsgd1na2vs0mg"},{"bike_id":"3d06c2fe-a971-4660-91da-da3c39c76241","system_id":"levelo_inurba_marseille","lat":43.33609,"lon":5.41016,"is_reserved":false,"is_disabled":false,"rental_uris":{"android":"levelo://app?vid=3d06c2fe-a971-4660-91da-da3c39c76241","ios":"levelo://app?vid=3d06c2fe-a971-4660-91da-da3c39c76241"},"vehicle_type_id":"4","last_reported":1773314667,"current_range_meters":39200,"station_id":"ce4bhqh2rcd13ifvqhmg","pricing_plan_id":"cebpf4jnsgd1na2vs0mg"},{"bike_id":"05e28071-265b-4d5c-bcaf-12dc4f5c6740","system_id":"levelo_inurba_marseille","lat":43.27363,"lon":5.36255,"is_reserved":false,"is_disabled":false,"rental_uris":{"android":"levelo://app?vid=05e28071-265b-4d5c-bcaf-12dc4f5c6740","ios":"levelo://app?vid=05e28071-265b-4d5c-bcaf-12dc4f5c6740"},"vehicle_type_id":"4","last_reported":1773314667,"current_range_meters":39200,"station_id":"ce4bhbh2rcd13ifvqeo0","pricing_plan_id":"cebpf4jnsgd1na2vs0mg"},{"bike_id":"fec8704e-579f-4fd4-adbf-52fc3cc5788d","system_id":"levelo_inurba_marseille","lat":43.27208,"lon":5.39192,"is_reserved":false,"is_disabled":true,"rental_uris":{"android":"levelo://app?vid=fec8704e-579f-4fd4-adbf-52fc3cc5788d","ios":"levelo://app?vid=fec8704e-579f-4fd4-adbf-52fc3cc5788d"},"vehicle_type_id":"4","last_reported":1773314667,"current_range_meters":0,"station_id":"ce4bhhp2rcd13ifvqfm0","pricing_plan_id":"cebpf4jnsgd1na2vs0mg"},{"bike_id":"6b41a219-32bf-4113-b301-48dc7a990838","system_id":"levelo_inurba_marseille","lat":43.29803,"lon":5.44095,"is_reserved":false,"is_disabled":true,"rental_uris":{"android":"levelo://app?vid=6b41a219-32bf-4113-b301-48dc7a990838","ios":"levelo://app?vid=6b41a219-32bf-4113-b301-48dc7a990838"},"vehicle_type_id":"4","last_reported":1773314667,"current_range_meters":0,"station_id":"st_d3jp68qikq2c7381ktn0","pricing_plan_id":"cebpf4jnsgd1na2vs0mg"},{"bike_id":"4c6cb9a7-cc45-478a-b829-2a28119f111e","system_id":"levelo_inurba_marseille","lat":43.27699,"lon":5.38916,"is_reserved":false,"is_disabled":false,"rental_uris":{"android":"levelo://app?vid=4c6cb9a7-cc45-478a-b829-2a28119f111e","ios":"levelo://app?vid=4c6cb9a7-cc45-478a-b829-2a28119f111e"},"vehicle_type_id":"4","last_reported":1773314667,"current_range_meters":8000,"station_id":"ce4bhi12rcd13ifvqfo0","pricing_plan_id":"cebpf4jnsgd1na2vs0mg"},{"bike_id":"1860051d-ebfa-4ef0-851b-02847655affa","system_id":"levelo_inurba_marseille","lat":43.24405,"lon":5.37072,"is_reserved":false,"is_disabled":false,"rental_uris":{"android":"levelo://app?vid=1860051d-ebfa-4ef0-851b-02847655affa","ios":"levelo://app?vid=1860051d-ebfa-4ef0-851b-02847655affa"},"vehicle_type_id":"4","last_reported":1773314667,"current_range_meters":40000,"station_id":"ce4bhhh2rcd13ifvqfk0","pricing_plan_id":"cebpf4jnsgd1na2vs0mg"},{"bike_id":"e8772245-6b5f-42a3-99fc-7a5edfe7805a","system_id":"levelo_inurba_marseille","lat":43.30143,"lon":5.37417,"is_reserved":false,"is_disabled":false,"rental_uris":{"android":"levelo://app?vid=e8772245-6b5f-42a3-99fc-7a5edfe7805a","ios":"levelo://app?vid=e8772245-6b5f-42a3-99fc-7a5edfe7805a"},"vehicle_type_id":"4","last_reported":1773314667,"current_range_meters":6800,"station_id":"ce4bgs92rcd13ifvqcc0","pricing_plan_id":"cebpf4jnsgd1na2vs0mg"},{"bike_id":"584fbef1-6615-47cd-9631-0c42ca1274e3","system_id":"levelo_inurba_marseille","lat":43.28147,"lon":5.37892,"is_reserved":false,"is_disabled":false,"rental_uris":{"android":"levelo://app?vid=584fbef1-6615-47cd-9631-0c42ca1274e3","ios":"levelo://app?vid=584fbef1-6615-47cd-9631-0c42ca1274e3"},"vehicle_type_id":"4","last_reported":1773314667,"current_range_meters":11200,"station_id":"","pricing_plan_id":"cebpf4jnsgd1na2vs0mg"},{"bike_id":"61d8cf09-cad2-4ecf-a4a5-b740782ddea5","system_id":"levelo_inurba_marseille","lat":43.31241,"lon":5.36862,"is_reserved":false,"is_disabled":false,"rental_uris":{"android":"levelo://app?vid=61d8cf09-cad2-4ecf-a4a5-b740782ddea5","ios":"levelo://app?vid=61d8cf09-cad2-4ecf-a4a5-b740782ddea5"},"vehicle_type_id":"4","last_reported":1773314667,"current_range_meters":12400,"station_id":"ce4bgl92rcd13ifvqbq0","pricing_plan_id":"cebpf4jnsgd1na2vs0mg"},{"bike_id":"eee030f9-7359-435a-8db7-cd8193b34512","system_id":"levelo_inurba_marseille","lat":43.26062,"lon":5.3939,"is_reserved":false,"is_disabled":false,"rental_uris":{"android":"levelo://app?vid=eee030f9-7359-435a-8db7-cd8193b34512","ios":"levelo://app?vid=eee030f9-7359-435a-8db7-cd8193b34512"},"vehicle_type_id":"4","last_reported":1773314667,"current_range_meters":28000,"station_id":"ce4bhh92rcd13ifvqfj0","pricing_plan_id":"cebpf4jnsgd1na2vs0mg"},{"bike_id":"cfaef447-9386-4767-8dcb-c0c8ae7cd219","system_id":"levelo_inurba_marseille","lat":43.29083,"lon":5.38137,"is_reserved":false,"is_disabled":false,"rental_uris":{"android":"levelo://app?vid=cfaef447-9386-4767-8dcb-c0c8ae7cd219","ios":"levelo://app?vid=cfaef447-9386-4767-8dcb-c0c8ae7cd219"},"vehicle_type_id":"4","last_reported":1773314667,"current_range_meters":39200,"station_id":"ce4bh512rcd13ifvqe2g","pricing_plan_id":"cebpf4jnsgd1na2vs0mg"},{"bike_id":"e1953514-6bba-4fb4-94e4-40c57b362e06","system_id":"levelo_inurba_marseille","lat":43.28,"lon":5.40003,"is_reserved":false,"is_disabled":false,"rental_uris":{"android":"levelo://app?vid=e1953514-6bba-4fb4-94e4-40c57b362e06","ios":"levelo://app?vid=e1953514-6bba-4fb4-94e4-40c57b362e06"},"vehicle_type_id":"4","last_reported":1773314667,"current_range_meters":16800,"station_id":"ce4bho92rcd13ifvqh4g","pricing_plan_id":"cebpf4jnsgd1na2vs0mg"},{"bike_id":"2bcd2751-b625-4400-99b8-fde9a48785cf","system_id":"levelo_inurba_marseille","lat":43.31491,"lon":5.37307,"is_reserved":false,"is_disabled":false,"rental_uris":{"android":"levelo://app?vid=2bcd2751-b625-4400-99b8-fde9a48785cf","ios":"levelo://app?vid=2bcd2751-b625-4400-99b8-fde9a48785cf"},"vehicle_type_id":"4","last_reported":1773314667,"current_range_meters":30000,"station_id":"ce4bgt12rcd13ifvqcd0","pricing_plan_id":"cebpf4jnsgd1na2vs0mg"},{"bike_id":"82cfcbb4-c2dc-4303-8d5e-622e80657082","system_id":"levelo_inurba_marseille","lat":43.29832,"lon":5.36258,"is_reserved":false,"is_disabled":false,"rental_uris":{"android":"levelo://app?vid=82cfcbb4-c2dc-4303-8d5e-622e80657082","ios":"levelo://app?vid=82cfcbb4-c2dc-4303-8d5e-622e80657082"},"vehicle_type_id":"4","last_reported":1773314667,"current_range_meters":36800,"station_id":"ce4bgpp2rcd13ifvqc3g","pricing_plan_id":"cebpf4jnsgd1na2vs0mg"},{"bike_id":"238929cf-87db-4b8d-8cba-0300ed95835f","system_id":"levelo_inurba_marseille","lat":43.24397,"lon":5.37023,"is_reserved":false,"is_disabled":false,"rental_uris":{"android":"levelo://app?vid=238929cf-87db-4b8d-8cba-0300ed95835f","ios":"levelo://app?vid=238929cf-87db-4b8d-8cba-0300ed95835f"},"vehicle_type_id":"4","last_reported":1773314667,"current_range_meters":34800,"station_id":"ce4bhhh2rcd13ifvqfk0","pricing_plan_id":"cebpf4jnsgd1na2vs0mg"},{"bike_id":"a1955bf3-14c7-4872-b5c1-6accbfbc0f11","system_id":"levelo_inurba_marseille","lat":43.26946,"lon":5.40256,"is_reserved":false,"is_disabled":false,"rental_uris":{"android":"levelo://app?vid=a1955bf3-14c7-4872-b5c1-6accbfbc0f11","ios":"levelo://app?vid=a1955bf3-14c7-4872-b5c1-6accbfbc0f11"},"vehicle_type_id":"4","last_reported":1773314667,"current_range_meters":38400,"station_id":"cjm6bp8fraef2m0cb0m0","pricing_plan_id":"cebpf4jnsgd1na2vs0mg"},{"bike_id":"69b0e357-e7e5-4ce6-af5c-c544a779e2b2","system_id":"levelo_inurba_marseille","lat":43.3247,"lon":5.36579,"is_reserved":false,"is_disabled":false,"rental_uris":{"android":"levelo://app?vid=69b0e357-e7e5-4ce6-af5c-c544a779e2b2","ios":"levelo://app?vid=69b0e357-e7e5-4ce6-af5c-c544a779e2b2"},"vehicle_type_id":"4","last_reported":1773314667,"current_range_meters":38000,"station_id":"ce4bhs12rcd13ifvqhvg","pricing_plan_id":"cebpf4jnsgd1na2vs0mg"},{"bike_id":"ed11cec7-d8aa-4619-9034-3ce79c84664c","system_id":"levelo_inurba_marseille","lat":43.25126,"lon":5.40298,"is_reserved":false,"is_disabled":false,"rental_uris":{"android":"levelo://app?vid=ed11cec7-d8aa-4619-9034-3ce79c84664c","ios":"levelo://app?vid=ed11cec7-d8aa-4619-9034-3ce79c84664c"},"vehicle_type_id":"4","last_reported":1773314667,"current_range_meters":7200,"station_id":"ce4bhlh2rcd13ifvqgig","pricing_plan_id":"cebpf4jnsgd1na2vs0mg"},{"bike_id":"959b5f04-3730-4b18-8dd4-99e86cc41a2d","system_id":"levelo_inurba_marseille","lat":43.2656,"lon":5.3728,"is_reserved":false,"is_disabled":false,"rental_uris":{"android":"levelo://app?vid=959b5f04-3730-4b18-8dd4-99e86cc41a2d","ios":"levelo://app?vid=959b5f04-3730-4b18-8dd4-99e86cc41a2d"},"vehicle_type_id":"4","last_reported":1773314667,"current_range_meters":27600,"station_id":"ce4bhg12rcd13ifvqf70","pricing_plan_id":"cebpf4jnsgd1na2vs0mg"},{"bike_id":"cba60e58-48d2-4695-a218-c3d3f13631d8","system_id":"levelo_inurba_marseille","lat":43.29277,"lon":5.36847,"is_reserved":false,"is_disabled":false,"rental_uris":{"android":"levelo://app?vid=cba60e58-48d2-4695-a218-c3d3f13631d8","ios":"levelo://app?vid=cba60e58-48d2-4695-a218-c3d3f13631d8"},"vehicle_type_id":"4","last_reported":1773314667,"current_range_meters":12400,"station_id":"ce4bhbp2rcd13ifvqesg","pricing_plan_id":"cebpf4jnsgd1na2vs0mg"},