{"last_updated":1742217647,"ttl":60,"version":"2.2","data":{"bikes":[{"bike_id":"7374fd42-e093-45e7-9da6-7722bdad32a8","system_id":"levelo_inurba_marseille","lat":43.30619,"lon":5.37235,"is_reserved":false,"is_disabled":false,"rental_uris":{"android":"levelo://app?vid=7374fd42-e093-45e7-9da6-7722bdad32a8","ios":"levelo://app?vid=7374fd42-e093-45e7-9da6-7722bdad32a8"},"vehicle_type_id":"4","last_reported":1742217647,"current_range_meters":2800,"station_id":"ce4bgqh2rcd13ifvqc4g","pricing_plan_id":"cebpf4jnsgd1na2vs0mg"},{"bike_id":"4dc7c341-f4d4-4d42-8c98-2591f2af101d","system_id":"levelo_inurba_marseille","lat":43.26785,"lon":5.39407,"is_reserved":false,"is_disabled":false,"rental_uris":{"android":"levelo://app?vid=4dc7c341-f4d4-4d42-8c98-2591f2af101d","ios":"levelo://app?vid=4dc7c341-f4d4-4d42-8c98-2591f2af101d"},"vehicle_type_id":"4","last_reported":1742217647,"current_range_meters":2000,"station_id":"ce4bhh12rcd13ifvqfg0","pricing_plan_id":"cebpf4jnsgd1na2vs0mg"},{"bike_id":"2c031c6b-dbba-4371-a971-1e9df65cc8dd","system_id":"levelo_inurba_marseille","lat":43.30143,"lon":5.37431,"is_reserved":false,"is_disabled":false,"rental_uris":{"android":"levelo://app?vid=2c031c6b-dbba-4371-a971-1e9df65cc8dd","ios":"levelo://app?vid=2c031c6b-dbba-4371-a971-1e9df65cc8dd"},"vehicle_type_id":"4","last_reported":1742217647,"current_range_meters":2800,"station_id":"ce4bgs92rcd13ifvqcc0","pricing_plan_id":"cebpf4jnsgd1na2vs0mg"},{"bike_id":"e8242d0d-3b15-4ca0-b108-ab68f9d5c098","system_id":"levelo_inurba_marseille","lat":43.28273,"lon":5.35071,"is_reserved":false,"is_disabled":false,"rental_uris":{"android":"levelo://app?vid=e8242d0d-3b15-4ca0-b108-ab68f9d5c098","ios":"levelo://app?vid=e8242d0d-3b15-4ca0-b108-ab68f9d5c098"},"vehicle_type_id":"4","last_reported":1742217647,"current_range_meters":2800,"station_id":"ce4bhbp2rcd13ifvqerg","pricing_plan_id":"cebpf4jnsgd1na2vs0mg"},{"bike_id":"9f0e331b-7720-465a-93e4-35c6b8e1b067","system_id":"levelo_inurba_marseille","lat":43.30466,"lon":5.38917,"is_reserved":false,"is_disabled":true,"rental_uris":{"android":"levelo://app?vid=9f0e331b-7720-465a-93e4-35c6b8e1b067","ios":"levelo://app?vid=9f0e331b-7720-465a-93e4-35c6b8e1b067"},"vehicle_type_id":"4","last_reported":1742217647,"current_range_meters":2800,"station_id":"ce4bgk12rcd13ifvqbi0","pricing_plan_id":"cebpf4jnsgd1na2vs0mg"},{"bike_id":"992594b2-1129-40ab-9b5d-fdd5eac5d05f","system_id":"levelo_inurba_marseille","lat":43.31695,"lon":5.37599,"is_reserved":false,"is_disabled":false,"rental_uris":{"android":"levelo://app?vid=992594b2-1129-40ab-9b5d-fdd5eac5d05f","ios":"levelo://app?vid=992594b2-1129-40ab-9b5d-fdd5eac5d05f"},"vehicle_type_id":"4","last_reported":1742217647,"current_range_meters":3200,"station_id":"","pricing_plan_id":"cebpf4jnsgd1na2vs0mg"},{"bike_id":"d8c4eeb1-7702-42d9-a2cf-4055ac17f159","system_id":"levelo_inurba_marseille","lat":43.2785,"lon":5.39188,"is_reserved":false,"is_disabled":true,"rental_uris":{"android":"levelo://app?vid=d8c4eeb1-7702-42d9-a2cf-4055ac17f159","ios":"levelo://app?vid=d8c4eeb1-7702-42d9-a2cf-4055ac17f159"},"vehicle_type_id":"4","last_reported":1742217647,"current_range_meters":3200,"station_id":"ce4bhjp2rcd13ifvqga0","pricing_plan_id":"cebpf4jnsgd1na2vs0mg"},{"bike_id":"4d1f4bb8-a3e3-4b6a-aea4-cac1ed8dbe09","system_id":"levelo_inurba_marseille","lat":43.29364,"lon":5.37843,"is_reserved":false,"is_disabled":false,"rental_uris":{"android":"levelo://app?vid=4d1f4bb8-a3e3-4b6a-aea4-cac1ed8dbe09","ios":"levelo://app?vid=4d1f4bb8-a3e3-4b6a-aea4-cac1ed8dbe09"},"vehicle_type_id":"4","last_reported":1742217647,"current_range_meters":3200,"station_id":"ce4bgjh2rcd13ifvqbf0","pricing_plan_id":"cebpf4jnsgd1na2vs0mg"},{"bike_id":"f07cf91c-4ce1-416f-b756-cf69c263e3f4","system_id":"levelo_inurba_marseille","lat":43.26063,"lon":5.39395,"is_reserved":false,"is_disabled":false,"rental_uris":{"android":"levelo://app?vid=f07cf91c-4ce1-416f-b756-cf69c263e3f4","ios":"levelo://app?vid=f07cf91c-4ce1-416f-b756-cf69c263e3f4"},"vehicle_type_id":"4","last_reported":1742217647,"current_range_meters":3200,"station_id":"ce4bhh92rcd13ifvqfj0","pricing_plan_id":"cebpf4jnsgd1na2vs0mg"},{"bike_id":"3afaeaa0-de01-4ef1-a795-6fcf60b2fa59","system_id":"levelo_inurba_marseille","lat":43.22929,"lon":5.35377,"is_reserved":false,"is_disabled":true,"rental_uris":{"android":"levelo://app?vid=3afaeaa0-de01-4ef1-a795-6fcf60b2fa59","ios":"levelo://app?vid=3afaeaa0-de01-4ef1-a795-6fcf60b2fa59"},"vehicle_type_id":"4","last_reported":1742217647,"current_range_meters":3600,"station_id":"cpo3532slgdg3j2ikp40","pricing_plan_id":"cebpf4jnsgd1na2vs0mg"},{"bike_id":"56067116-2e10-4d24-be8b-5d5e126272ed","system_id":"levelo_inurba_marseille","lat":43.2871,"lon":5.37944,"is_reserved":false,"is_disabled":false,"rental_uris":{"android":"levelo://app?vid=56067116-2e10-4d24-be8b-5d5e126272ed","ios":"levelo://app?vid=56067116-2e10-4d24-be8b-5d5e126272ed"},"vehicle_type_id":"4","last_reported":1742217647,"current_range_meters":3600,"station_id":"ce4bh9p2rcd13ifvqec0","pricing_plan_id":"cebpf4jnsgd1na2vs0mg"},{"bike_id":"ac556628-cefa-4656-a60e-0e6e9ec4dd93","system_id":"levelo_inurba_marseille","lat":43.29844,"lon":5.36272,"is_reserved":false,"is_disabled":false,"rental_uris":{"android":"levelo://app?vid=ac556628-cefa-4656-a60e-0e6e9ec4dd93","ios":"levelo://app?vid=ac556628-cefa-4656-a60e-0e6e9ec4dd93"},"vehicle_type_id":"4","last_reported":1742217647,"current_range_meters":4000,"station_id":"ce4bgpp2rcd13ifvqc3g","pricing_plan_id":"cebpf4jnsgd1na2vs0mg"},{"bike_id":"7fd671fe-3be9-44c3-b8fd-2448067a8a15","system_id":"levelo_inurba_marseille","lat":43.2984,"lon":5.36271,"is_reserved":false,"is_disabled":false,"rental_uris":{"android":"levelo://app?vid=7fd671fe-3be9-44c3-b8fd-2448067a8a15","ios":"levelo://app?vid=7fd671fe-3be9-44c3-b8fd-2448067a8a15"},"vehicle_type_id":"4","last_reported":1742217647,"current_range_meters":4000,"station_id":"ce4bgpp2rcd13ifvqc3g","pricing_plan_id":"cebpf4jnsgd1na2vs0mg"},{"bike_id":"2c80c324-e998-4153-891b-3dea4176fd9b","system_id":"levelo_inurba_marseille","lat":43.32365,"lon":5.42048,"is_reserved":false,"is_disabled":false,"rental_uris":{"android":"levelo://app?vid=2c80c324-e998-4153-891b-3dea4176fd9b","ios":"levelo://app?vid=2c80c324-e998-4153-891b-3dea4176fd9b"},"vehicle_type_id":"4","last_reported":1742217647,"current_range_meters":4000,"station_id":"","pricing_plan_id":"cebpf4jnsgd1na2vs0mg"},{"bike_id":"e861d49f-d931-4550-ba8a-c92d596f3560","system_id":"levelo_inurba_marseille","lat":43.29031,"lon":5.37803,"is_reserved":false,"is_disabled":true,"rental_uris":{"android":"levelo://app?vid=e861d49f-d931-4550-ba8a-c92d596f3560","ios":"levelo://app?vid=e861d49f-d931-4550-ba8a-c92d596f3560"},"vehicle_type_id":"4","last_reported":1742217647,"current_range_meters":4000,"station_id":"","pricing_plan_id":"cebpf4jnsgd1na2vs0mg"},{"bike_id":"fe2c08eb-fd91-43a9-9198-dd9123d66972","system_id":"levelo_inurba_marseille","lat":43.28948,"lon":5.36613,"is_reserved":false,"is_disabled":false,"rental_uris":{"android":"levelo://app?vid=fe2c08eb-fd91-43a9-9198-dd9123d66972","ios":"levelo://app?vid=fe2c08eb-fd91-43a9-9198-dd9123d66972"},"vehicle_type_id":"4","last_reported":1742217647,"current_range_meters":4400,"station_id":"ce4bhap2rcd13ifvqek0","pricing_plan_id":"cebpf4jnsgd1na2vs0mg"},{"bike_id":"1359ff26-eec5-443c-875e-3650e12c80c5","system_id":"levelo_inurba_marseille","lat":43.29529,"lon":5.37509,"is_reserved":false,"is_disabled":false,"rental_uris":{"android":"levelo://app?vid=1359ff26-eec5-443c-875e-3650e12c80c5","ios":"levelo://app?vid=1359ff26-eec5-443c-875e-3650e12c80c5"},"vehicle_type_id":"4","last_reported":1742217647,"current_range_meters":4400,"station_id":"ce4bgkp2rcd13ifvqbmg","pricing_plan_id":"cebpf4jnsgd1na2vs0mg"},{"bike_id":"9b1a33b0-0d40-450c-93c2-51d769e59150","system_id":"levelo_inurba_marseille","lat":43.29033,"lon":5.35637,"is_reserved":false,"is_disabled":false,"rental_uris":{"android":"levelo://app?vid=9b1a33b0-0d40-450c-93c2-51d769e59150","ios":"levelo://app?vid=9b1a33b0-0d40-450c-93c2-51d769e59150"},"vehicle_type_id":"4","last_reported":1742217647,"current_range_meters":4400,"station_id":"ce4bhb92rcd13ifvqen0","pricing_plan_id":"cebpf4jnsgd1na2vs0mg"},{"bike_id":"ad17602d-b58e-4b15-af5c-669b7923fa10","system_id":"levelo_inurba_marseille","lat":43.258243,"lon":5.394409,"is_reserved":false,"is_disabled":false,"rental_uris":{"android":"levelo://app?vid=ad17602d-b58e-4b15-af5c-669b7923fa10","ios":"levelo://app?vid=ad17602d-b58e-4b15-af5c-669b7923fa10"},"vehicle_type_id":"4","last_reported":1742217647,"current_range_meters":6800,"station_id":"ce4bhgh2rcd13ifvqfb0","pricing_plan_id":"cebpf4jnsgd1na2vs0mg"},{"bike_id":"e33497be-14d3-4e13-b3cd-b8d621070490","system_id":"levelo_inurba_marseille","lat":43.27415,"lon":5.42046,"is_reserved":false,"is_disabled":false,"rental_uris":{"android":"levelo://app?vid=e33497be-14d3-4e13-b3cd-b8d621070490","ios":"levelo://app?vid=e33497be-14d3-4e13-b3cd-b8d621070490"},"vehicle_type_id":"4","last_reported":1742217647,"current_range_meters":4400,"station_id":"","pricing_plan_id":"cebpf4jnsgd1na2vs0mg"},{"bike_id":"75eca607-f4fe-4195-b2a5-9ee078b9149d","system_id":"levelo_inurba_marseille","lat":43.29548,"lon":5.42269,"is_reserved":false,"is_disabled":false,"rental_uris":{"android":"levelo://app?vid=75eca607-f4fe-4195-b2a5-9ee078b9149d","ios":"levelo://app?vid=75eca607-f4fe-4195-b2a5-9ee078b9149d"},"vehicle_type_id":"4","last_reported":1742217647,"current_range_meters":4800,"station_id":"ce4bhph2rcd13ifvqhdg","pricing_plan_id":"cebpf4jnsgd1na2vs0mg"},{"bike_id":"dd118b9f-4854-4c7b-9819-bde200858bd1","system_id":"levelo_inurba_marseille","lat":43.23171,"lon":5.39957,"is_reserved":false,"is_disabled":false,"rental_uris":{"android":"levelo://app?vid=dd118b9f-4854-4c7b-9819-bde200858bd1","ios":"levelo://app?vid=dd118b9f-4854-4c7b-9819-bde200858bd1"},"vehicle_type_id":"4","last_reported":1742217647,"current_range_meters":4800,"station_id":"ce4bhn12rcd13ifvqgqg","pricing_plan_id":"cebpf4jnsgd1na2vs0mg"},{"bike_id":"76f822d5-be56-4bfb-bc4b-02443a6e266d","system_id":"levelo_inurba_marseille","lat":43.27174,"lon":5.40995,"is_reserved":false,"is_disabled":false,"rental_uris":{"android":"levelo://app?vid=76f822d5-be56-4bfb-bc4b-02443a6e266d","ios":"levelo://app?vid=76f822d5-be56-4bfb-bc4b-02443a6e266d"},"vehicle_type_id":"4","last_reported":1742217647,"current_range_meters":4800,"station_id":"ce4bhl12rcd13ifvqgf0","pricing_plan_id":"cebpf4jnsgd1na2vs0mg"},{"bike_id":"73966eeb-0b49-439c-b788-74620544c5f7","system_id":"levelo_inurba_marseille","lat":43.29636,"lon":5.38115,"is_reserved":false,"is_disabled":false,"rental_uris":{"android":"levelo://app?vid=73966eeb-0b49-439c-b788-74620544c5f7","ios":"levelo://app?vid=73966eeb-0b49-439c-b788-74620544c5f7"},"vehicle_type_id":"4","last_reported":1742217647,"current_range_meters":4800,"station_id":"ce4bgl12rcd13ifvqbo0","pricing_plan_id":"cebpf4jnsgd1na2vs0mg"},{"bike_id":"c872a9ae-53c5-47d3-878e-dc7d469c0919","system_id":"levelo_inurba_marseille","lat":43.31393,"lon":5.36701,"is_reserved":false,"is_disabled":false,"rental_uris":{"android":"levelo://app?vid=c872a9ae-53c5-47d3-878e-dc7d469c0919","ios":"levelo://app?vid=c872a9ae-53c5-47d3-878e-dc7d469c0919"},"vehicle_type_id":"4","last_reported":1742217647,"current_range_meters":4800,"station_id":"","pricing_plan_id":"cebpf4jnsgd1na2vs0mg"},{"bike_id":"47e6f451-db65-435b-9c03-f5ec5540ca2d","system_id":"levelo_inurba_marseille","lat":43.32096,"lon":5.36747,"is_reserved":false,"is_disabled":false,"rental_uris":{"android":"levelo://app?vid=47e6f451-db65-435b-9c03-f5ec5540ca2d","ios":"levelo://app?vid=47e6f451-db65-435b-9c03-f5ec5540ca2d"},"vehicle_type_id":"4","last_reported":1742217647,"current_range_meters":4800,"station_id":"ce4bhrh2rcd13ifvqhug","pricing_plan_id":"cebpf4jnsgd1na2vs0mg"},{"bike_id":"e0511ca9-2203-4d4d-87a3-85244be99416","system_id":"levelo_inurba_marseille","lat":43.31229,"lon":5.36856,"is_reserved":false,"is_disabled":false,"rental_uris":{"android":"levelo://app?vid=e0511ca9-2203-4d4d-87a3-85244be99416","ios":"levelo://app?vid=e0511ca9-2203-4d4d-87a3-85244be99416"},"vehicle_type_id":"4","last_reported":1742217647,"current_range_meters":4800,"station_id":"ce4bgl92rcd13ifvqbq0","pricing_plan_id":"cebpf4jnsgd1na2vs0mg"},{"bike_id":"aeb7cd2c-d72e-4254-af6a-bc4478c424e0","system_id":"levelo_inurba_marseille","lat":43.28403,"lon":5.37519,"is_reserved":false,"is_disabled":false,"rental_uris":{"android":"levelo://app?vid=aeb7cd2c-d72e-4254-af6a-bc4478c424e0","ios":"levelo://app?vid=aeb7cd2c-d72e-4254-af6a-bc4478c424e0"},"vehicle_type_id":"4","last_reported":1742217647,"current_range_meters":3600,"station_id":"ce4bh412rcd13ifvqds0","pricing_plan_id":"cebpf4jnsgd1na2vs0mg"},{"bike_id":"da4af89f-b57e-4338-a2dc-1fb2e55820b1","system_id":"levelo_inurba_marseille","lat":43.23049,"lon":5.35502,"is_reserved":false,"is_disabled":false,"rental_uris":{"android":"levelo://app?vid=da4af89f-b57e-4338-a2dc-1fb2e55820b1","ios":"levelo://app?vid=da4af89f-b57e-4338-a2dc-1fb2e55820b1"},"vehicle_type_id":"4","last_reported":1742217647,"current_range_meters":5600,"station_id":"cpo3342slgdg3j2ifvpg","pricing_plan_id":"cebpf4jnsgd1na2vs0mg"},{"bike_id":"3f44aaf3-c3c5-4262-be70-b6d2d34dc61b","system_id":"levelo_inurba_marseille","lat":43.29585,"lon":5.3752,"is_reserved":false,"is_disabled":true,"rental_uris":{"android":"levelo://app?vid=3f44aaf3-c3c5-4262-be70-b6d2d34dc61b","ios":"levelo://app?vid=3f44aaf3-c3c5-4262-be70-b6d2d34dc61b"},"vehicle_type_id":"4","last_reported":1742217647,"current_range_meters":5600,"station_id":"ce4bgh92rcd13ifvqb50","pricing_plan_id":"cebpf4jnsgd1na2vs0mg"},{"bike_id":"41b45d5f-f872-4bf9-9d42-64076d5c3fc2","system_id":"levelo_inurba_marseille","lat":43.24082,"lon":5.37744,"is_reserved":false,"is_disabled":false,"rental_uris":{"android":"levelo://app?vid=41b45d5f-f872-4bf9-9d42-64076d5c3fc2","ios":"levelo://app?vid=41b45d5f-f872-4bf9-9d42-64076d5c3fc2"},"vehicle_type_id":"4","last_reported":1742217647,"current_range_meters":5600,"station_id":"ce4bhnp2rcd13ifvqgvg","pricing_plan_id":"cebpf4jnsgd1na2vs0mg"},{"bike_id":"2b3fd806-69a8-4cf4-bde7-58e0aee79e8f","system_id":"levelo_inurba_marseille","lat":43.3127,"lon":5.40162,"is_reserved":false,"is_disabled":false,"rental_uris":{"android":"levelo://app?vid=2b3fd806-69a8-4cf4-bde7-58e0aee79e8f","ios":"levelo://app?vid=2b3fd806-69a8-4cf4-bde7-58e0aee79e8f"},"vehicle_type_id":"4","last_reported":1742217647,"current_range_meters":5600,"station_id":"ce4bh092rcd13ifvqd30","pricing_plan_id":"cebpf4jnsgd1na2vs0mg"},{"bike_id":"8324bf5f-604a-4693-8fb1-54fe221c3dd6","system_id":"levelo_inurba_marseille","lat":43.29419,"lon":5.38622,"is_reserved":false,"is_disabled":false,"rental_uris":{"android":"levelo://app?vid=8324bf5f-604a-4693-8fb1-54fe221c3dd6","ios":"levelo://app?vid=8324bf5f-604a-4693-8fb1-54fe221c3dd6"},"vehicle_type_id":"4","last_reported":1742217647,"current_range_meters":5600,"station_id":"ce4bh2h2rcd13ifvqdh0","pricing_plan_id":"cebpf4jnsgd1na2vs0mg"},{"bike_id":"3dc65b1c-f5f9-4fa9-a4f2-eae89280a97b","system_id":"levelo_inurba_marseille","lat":43.24571,"lon":5.37496,"is_reserved":false,"is_disabled":false,"rental_uris":{"android":"levelo://app?vid=3dc65b1c-f5f9-4fa9-a4f2-eae89280a97b","ios":"levelo://app?vid=3dc65b1c-f5f9-4fa9-a4f2-eae89280a97b"},"vehicle_type_id":"4","last_reported":1742217647,"current_range_meters":5600,"station_id":"ce4bhlh2rcd13ifvqgig","pricing_plan_id":"cebpf4jnsgd1na2vs0mg"},{"bike_id":"4d27fc31-38c0-4e8f-8755-a0997e119c09","system_id":"levelo_inurba_marseille","lat":43.25005,"lon":5.38932,"is_reserved":false,"is_disabled":false,"rental_uris":{"android":"levelo://app?vid=4d27fc31-38c0-4e8f-8755-a0997e119c09","ios":"levelo://app?vid=4d27fc31-38c0-4e8f-8755-a0997e119c09"},"vehicle_type_id":"4","last_reported":1742217647,"current_range_meters":5600,"station_id":"ce4bhgp2rcd13ifvqfd0","pricing_plan_id":"cebpf4jnsgd1na2vs0mg"},{"bike_id":"8ba87235-a34b-48f5-9938-70fca1d983e1","system_id":"levelo_inurba_marseille","lat":43.23192,"lon":5.35558,"is_reserved":false,"is_disabled":false,"rental_uris":{"android":"levelo://app?vid=8ba87235-a34b-48f5-9938-70fca1d983e1","ios":"levelo://app?vid=8ba87235-a34b-48f5-9938-70fca1d983e1"},"vehicle_type_id":"4","last_reported":1742217647,"current_range_meters":5600,"station_id":"ce4bhu92rcd13ifvqi70","pricing_plan_id":"cebpf4jnsgd1na2vs0mg"},{"bike_id":"b2dde6db-9cdf-4a47-8df4-a09a115dd967","system_id":"levelo_inurba_marseille","lat":43.23128,"lon":5.4373,"is_reserved":false,"is_disabled":false,"rental_uris":{"android":"levelo://app?vid=b2dde6db-9cdf-4a47-8df4-a09a115dd967","ios":"levelo://app?vid=b2dde6db-9cdf-4a47-8df4-a09a115dd967"},"vehicle_type_id":"4","last_reported":1742217647,"current_range_meters":6000,"station_id":"ce4bhmp2rcd13ifvqgog","pricing_plan_id":"cebpf4jnsgd1na2vs0mg"},{"bike_id":"5d3dbd3a-1365-40c0-af69-8ba2c314a313","system_id":"levelo_inurba_marseille","lat":43.29911,"lon":5.43664,"is_reserved":false,"is_disabled":false,"rental_uris":{"android":"levelo://app?vid=5d3dbd3a-1365-40c0-af69-8ba2c314a313","ios":"levelo://app?vid=5d3dbd3a-1365-40c0-af69-8ba2c314a313"},"vehicle_type_id":"4","last_reported":1742217647,"current_range_meters":6000,"station_id":"ce4bhpp2rcd13ifvqhfg","pricing_plan_id":"cebpf4jnsgd1na2vs0mg"},{"bike_id":"6ae6f76c-6a01-4d75-9d3f-dfa610803a78","system_id":"levelo_inurba_marseille","lat":43.23064,"lon":5.35493,"is_reserved":false,"is_disabled":false,"rental_uris":{"android":"levelo://app?vid=6ae6f76c-6a01-4d75-9d3f-dfa610803a78","ios":"levelo://app?vid=6ae6f76c-6a01-4d75-9d3f-dfa610803a78"},"vehicle_type_id":"4","last_reported":1742217647,"current_range_meters":6000,"station_id":"cpo3342slgdg3j2ifvpg","pricing_plan_id":"cebpf4jnsgd1na2vs0mg"},{"bike_id":"436163ae-329e-4516-a54b-ab951f1eae33","system_id":"levelo_inurba_marseille","lat":43.25584,"lon":5.38233,"is_reserved":false,"is_disabled":false,"rental_uris":{"android":"levelo://app?vid=436163ae-329e-4516-a54b-ab951f1eae33","ios":"levelo://app?vid=436163ae-329e-4516-a54b-ab951f1eae33"},"vehicle_type_id":"4","last_reported":1742217647,"current_range_meters":6000,"station_id":"ce4bhih2rcd13ifvqfs0","pricing_plan_id":"cebpf4jnsgd1na2vs0mg"},{"bike_id":"d87d01b0-53bb-405d-a34e-24df13294a43","system_id":"levelo_inurba_marseille","lat":43.29188,"lon":5.39314,"is_reserved":false,"is_disabled":true,"rental_uris":{"android":"levelo://app?vid=d87d01b0-53bb-405d-a34e-24df13294a43","ios":"levelo://app?vid=d87d01b0-53bb-405d-a34e-24df13294a43"},"vehicle_type_id":"4","last_reported":1742217647,"current_range_meters":6000,"station_id":"ce4bh192rcd13ifvqdd0","pricing_plan_id":"cebpf4jnsgd1na2vs0mg"},{"bike_id":"5be9a1f5-43e5-44fe-8fe5-fcea0272093f","system_id":"levelo_inurba_marseille","lat":43.24184,"lon":5.39709,"is_reserved":false,"is_disabled":false,"rental_uris":{"android":"levelo://app?vid=5be9a1f5-43e5-44fe-8fe5-fcea0272093f","ios":"levelo://app?vid=5be9a1f5-43e5-44fe-8fe5-fcea0272093f"},"vehicle_type_id":"4","last_reported":1742217647,"current_range_meters":6000,"station_id":"ce4bhn12rcd13ifvqgpg","pricing_plan_id":"cebpf4jnsgd1na2vs0mg"},{"bike_id":"c6417bd9-8de2-420a-b779-adb6c99e948c","system_id":"levelo_inurba_marseille","lat":43.28614,"lon":5.35113,"is_reserved":false,"is_disabled":false,"rental_uris":{"android":"levelo://app?vid=c6417bd9-8de2-420a-b779-adb6c99e948c","ios":"levelo://app?vid=c6417bd9-8de2-420a-b779-adb6c99e948c"},"vehicle_type_id":"4","last_reported":1742217647,"current_range_meters":6000,"station_id":"ce4bhch2rcd13ifvqeug","pricing_plan_id":"cebpf4jnsgd1na2vs0mg"},{"bike_id":"20e0a5b3-595b-4a82-b23f-00884f840406","system_id":"levelo_inurba_marseille","lat":43.2315,"lon":5.43708,"is_reserved":false,"is_disabled":false,"rental_uris":{"android":"levelo://app?vid=20e0a5b3-595b-4a82-b23f-00884f840406","ios":"levelo://app?vid=20e0a5b3-595b-4a82-b23f-00884f840406"},"vehicle_type_id":"4","last_reported":1742217647,"current_range_meters":6000,"station_id":"ce4bhmp2rcd13ifvqgog","pricing_plan_id":"cebpf4jnsgd1na2vs0mg"},{"bike_id":"f762fd6f-ca69-45f6-995f-65c0e25825a3","system_id":"levelo_inurba_marseille","lat":43.32537,"lon":5.41464,"is_reserved":false,"is_disabled":true,"rental_uris":{"android":"levelo://app?vid=f762fd6f-ca69-45f6-995f-65c0e25825a3","ios":"levelo://app?vid=f762fd6f-ca69-45f6-995f-65c0e25825a3"},"vehicle_type_id":"4","last_reported":1742217647,"current_range_meters":6400,"station_id":"ce4bhq12rcd13ifvqhhg","pricing_plan_id":"cebpf4jnsgd1na2vs0mg"},{"bike_id":"2e0249ac-9c10-4b51-92cf-1732e023fddf","system_id":"levelo_inurba_marseille","lat":43.32104,"lon":5.36772,"is_reserved":false,"is_disabled":false,"rental_uris":{"android":"levelo://app?vid=2e0249ac-9c10-4b51-92cf-1732e023fddf","ios":"levelo://app?vid=2e0249ac-9c10-4b51-92cf-1732e023fddf"},"vehicle_type_id":"4","last_reported":1742217647,"current_range_meters":6400,"station_id":"ce4bhrh2rcd13ifvqhug","pricing_plan_id":"cebpf4jnsgd1na2vs0mg"},{"bike_id":"5d33ee2e-ab8c-4d48-b2e3-8df7c0b816e1","system_id":"levelo_inurba_marseille","lat":43.23062,"lon":5.35493,"is_reserved":false,"is_disabled":false,"rental_uris":{"android":"levelo://app?vid=5d33ee2e-ab8c-4d48-b2e3-8df7c0b816e1","ios":"levelo://app?vid=5d33ee2e-ab8c-4d48-b2e3-8df7c0b816e1"},"vehicle_type_id":"4","last_reported":1742217647,"current_range_meters":6400,"station_id":"cpo3342slgdg3j2ifvpg","pricing_plan_id":"cebpf4jnsgd1na2vs0mg"},{"bike_id":"2c897759-a57a-4e44-ad77-2a9cda24660c","system_id":"levelo_inurba_marseille","lat":43.24058,"lon":5.37721,"is_reserved":false,"is_disabled":false,"rental_uris":{"android":"levelo://app?vid=2c897759-a57a-4e44-ad77-2a9cda24660c","ios":"levelo://app?vid=2c897759-a57a-4e44-ad77-2a9cda24660c"},"vehicle_type_id":"4","last_reported":1742217647,"current_range_meters":6400,"station_id":"ce4bhnp2rcd13ifvqgvg","pricing_plan_id":"cebpf4jnsgd1na2vs0mg"},{"bike_id":"57ef593f-f618-45ca-8b97-31a47543ae66","system_id":"levelo_inurba_marseille","lat":43.29281,"lon":5.372074,"is_reserved":false,"is_disabled":false,"rental_uris":{"android":"levelo://app?vid=57ef593f-f618-45ca-8b97-31a47543ae66","ios":"levelo://app?vid=57ef593f-f618-45ca-8b97-31a47543ae66"},"vehicle_type_id":"4","last_reported":1742217647,"current_range_meters":6400,"station_id":"ce4bgi12rcd13ifvqb70","pricing_plan_id":"cebpf4jnsgd1na2vs0mg"},{"bike_id":"04e5e5b7-50fc-4eb1-90d6-364e3b03b2d6","system_id":"levelo_inurba_marseille","lat":43.24084,"lon":5.37734,"is_reserved":false,"is_disabled":true,"rental_uris":{"android":"levelo://app?vid=04e5e5b7-50fc-4eb1-90d6-364e3b03b2d6","ios":"levelo://app?vid=04e5e5b7-50fc-4eb1-90d6-364e3b03b2d6"},"vehicle_type_id":"4","last_reported":1742217647,"current_range_meters":6400,"station_id":"ce4bhnp2rcd13ifvqgvg","pricing_plan_id":"cebpf4jnsgd1na2vs0mg"},{"bike_id":"9641c2ba-2d48-4fa3-a44d-37cb7a609cec","system_id":"levelo_inurba_marseille","lat":43.33512,"lon":5.39641,"is_reserved":false,"is_disabled":false,"rental_uris":{"android":"levelo://app?vid=9641c2ba-2d48-4fa3-a44d-37cb7a609cec","ios":"levelo://app?vid=9641c2ba-2d48-4fa3-a44d-37cb7a609cec"},"vehicle_type_id":"4","last_reported":1742217647,"current_range_meters":6400,"station_id":"","pricing_plan_id":"cebpf4jnsgd1na2vs0mg"},{"bike_id":"40bb7b1c-9567-436b-b3ff-2280be9e6595","system_id":"levelo_inurba_marseille","lat":43.30958,"lon":5.39032,"is_reserved":false,"is_disabled":false,"rental_uris":{"android":"levelo://app?vid=40bb7b1c-9567-436b-b3ff-2280be9e6595","ios":"levelo://app?vid=40bb7b1c-9567-436b-b3ff-2280be9e6595"},"vehicle_type_id":"4","last_reported":1742217647,"current_range_meters":6400,"station_id":"ce4bgup2rcd13ifvqco0","pricing_plan_id":"cebpf4jnsgd1na2vs0mg"},{"bike_id":"ad611920-9c6c-4343-811a-613204b58de8","system_id":"levelo_inurba_marseille","lat":43.2649,"lon":5.3954,"is_reserved":false,"is_disabled":false,"rental_uris":{"android":"levelo://app?vid=ad611920-9c6c-4343-811a-613204b58de8","ios":"levelo://app?vid=ad611920-9c6c-4343-811a-613204b58de8"},"vehicle_type_id":"4","last_reported":1742217647,"current_range_meters":6400,"station_id":"ce4bhi12rcd13ifvqfq0","pricing_plan_id":"cebpf4jnsgd1na2vs0mg"},{"bike_id":"c4ec09b2-6d7f-446a-8363-18b996e380b7","system_id":"levelo_inurba_marseille","lat":43.23155,"lon":5.43695,"is_reserved":false,"is_disabled":false,"rental_uris":{"android":"levelo://app?vid=c4ec09b2-6d7f-446a-8363-18b996e380b7","ios":"levelo://app?vid=c4ec09b2-6d7f-446a-8363-18b996e380b7"},"vehicle_type_id":"4","last_reported":1742217647,"current_range_meters":6400,"station_id":"ce4bhmp2rcd13ifvqgog","pricing_plan_id":"cebpf4jnsgd1na2vs0mg"},{"bike_id":"f3eb6a65-a610-4e3f-9466-127bf5275334","system_id":"levelo_inurba_marseille","lat":43.23141,"lon":5.43707,"is_reserved":false,"is_disabled":false,"rental_uris":{"android":"levelo://app?vid=f3eb6a65-a610-4e3f-9466-127bf5275334","ios":"levelo://app?vid=f3eb6a65-a610-4e3f-9466-127bf5275334"},"vehicle_type_id":"4","last_reported":1742217647,"current_range_meters":6800,"station_id":"ce4bhmp2rcd13ifvqgog","pricing_plan_id":"cebpf4jnsgd1na2vs0mg"},{"bike_id":"b6d520f3-d2b4-4ce1-9377-d372a1b38591","system_id":"levelo_inurba_marseille","lat":43.27221,"lon":5.39183,"is_reserved":false,"is_disabled":false,"rental_uris":{"android":"levelo://app?vid=b6d520f3-d2b4-4ce1-9377-d372a1b38591","ios":"levelo://app?vid=b6d520f3-d2b4-4ce1-9377-d372a1b38591"},"vehicle_type_id":"4","last_reported":1742217647,"current_range_meters":6800,"station_id":"ce4bhhp2rcd13ifvqfm0","pricing_plan_id":"cebpf4jnsgd1na2vs0mg"},{"bike_id":"168f1937-90dc-4016-83c3-a1ae20920ffb","system_id":"levelo_inurba_marseille","lat":43.28001,"lon":5.41665,"is_reserved":false,"is_disabled":false,"rental_uris":{"android":"levelo://app?vid=168f1937-90dc-4016-83c3-a1ae20920ffb","ios":"levelo://app?vid=168f1937-90dc-4016-83c3-a1ae20920ffb"},"vehicle_type_id":"4","last_reported":1742217647,"current_range_meters":2000,"station_id":"ce4bho12rcd13ifvqh1g","pricing_plan_id":"cebpf4jnsgd1na2vs0mg"},{"bike_id":"e759a84b-3e9f-405d-89bb-cd07af5329a1","system_id":"levelo_inurba_marseille","lat":43.30891,"lon":5.39662,"is_reserved":false,"is_disabled":false,"rental_uris":{"android":"levelo://app?vid=e759a84b-3e9f-405d-89bb-cd07af5329a1","ios":"levelo://app?vid=e759a84b-3e9f-405d-89bb-cd07af5329a1"},"vehicle_type_id":"4","last_reported":1742217647,"current_range_meters":6400,"station_id":"ce4bh012rcd13ifvqcv0","pricing_plan_id":"cebpf4jnsgd1na2vs0mg"},{"bike_id":"447544f0-279f-4afc-a12d-578de38add3e","system_id":"levelo_inurba_marseille","lat":43.30801,"lon":5.38176,"is_reserved":false,"is_disabled":false,"rental_uris":{"android":"levelo://app?vid=447544f0-279f-4afc-a12d-578de38add3e","ios":"levelo://app?vid=447544f0-279f-4afc-a12d-578de38add3e"},"vehicle_type_id":"4","last_reported":1742217647,"current_range_meters":6800,"station_id":"ce4bgt12rcd13ifvqce0","pricing_plan_id":"cebpf4jnsgd1na2vs0mg"},{"bike_id":"9ac31914-6ff5-4c95-9268-e8040c244383","system_id":"levelo_inurba_marseille","lat":43.3363,"lon":5.40962,"is_reserved":false,"is_disabled":false,"rental_uris":{"android":"levelo://app?vid=9ac31914-6ff5-4c95-9268-e8040c244383","ios":"levelo://app?vid=9ac31914-6ff5-4c95-9268-e8040c244383"},"vehicle_type_id":"4","last_reported":1742217647,"current_range_meters":6800,"station_id":"ce4bhqh2rcd13ifvqhmg","pricing_plan_id":"cebpf4jnsgd1na2vs0mg"},{"bike_id":"1e30ec68-8074-40f6-8949-74f66bcbb666","system_id":"levelo_inurba_marseille","lat":43.3123,"lon":5.36848,"is_reserved":false,"is_disabled":false,"rental_uris":{"android":"levelo://app?vid=1e30ec68-8074-40f6-8949-74f66bcbb666","ios":"levelo://app?vid=1e30ec68-8074-40f6-8949-74f66bcbb666"},"vehicle_type_id":"4","last_reported":1742217647,"current_range_meters":6800,"station_id":"ce4bgl92rcd13ifvqbq0","pricing_plan_id":"cebpf4jnsgd1na2vs0mg"},{"bike_id":"f31da457-6e9b-4ad6-be1d-5ffba7cbc733","system_id":"levelo_inurba_marseille","lat":43.25007,"lon":5.3891,"is_reserved":false,"is_disabled":false,"rental_uris":{"android":"levelo://app?vid=f31da457-6e9b-4ad6-be1d-5ffba7cbc733","ios":"levelo://app?vid=f31da457-6e9b-4ad6-be1d-5ffba7cbc733"},"vehicle_type_id":"4","last_reported":1742217647,"current_range_meters":6800,"station_id":"ce4bhgp2rcd13ifvqfd0","pricing_plan_id":"cebpf4jnsgd1na2vs0mg"},{"bike_id":"1f2ca29d-df46-4c07-80be-ce982efa349b","system_id":"levelo_inurba_marseille","lat":43.23086,"lon":5.35478,"is_reserved":false,"is_disabled":false,"rental_uris":{"android":"levelo://app?vid=1f2ca29d-df46-4c07-80be-ce982efa349b","ios":"levelo://app?vid=1f2ca29d-df46-4c07-80be-ce982efa349b"},"vehicle_type_id":"4","last_reported":1742217647,"current_range_meters":6800,"station_id":"cpo3342slgdg3j2ifvpg","pricing_plan_id":"cebpf4jnsgd1na2vs0mg"},{"bike_id":"c4c57120-0c34-4017-b5c7-ae7ab8207760","system_id":"levelo_inurba_marseille","lat":43.28426,"lon":5.34994,"is_reserved":false,"is_disabled":false,"rental_uris":{"android":"levelo://app?vid=c4c57120-0c34-4017-b5c7-ae7ab8207760","ios":"levelo://app?vid=c4c57120-0c34-4017-b5c7-ae7ab8207760"},"vehicle_type_id":"4","last_reported":1742217647,"current_range_meters":6800,"station_id":"ce4bhbh2rcd13ifvqepg","pricing_plan_id":"cebpf4jnsgd1na2vs0mg"},{"bike_id":"cc15e210-f7bf-4599-93be-6ee01d8146d0","system_id":"levelo_inurba_marseille","lat":43.23148,"lon":5.43714,"is_reserved":false,"is_disabled":false,"rental_uris":{"android":"levelo://app?vid=cc15e210-f7bf-4599-93be-6ee01d8146d0","ios":"levelo://app?vid=cc15e210-f7bf-4599-93be-6ee01d8146d0"},"vehicle_type_id":"4","last_reported":1742217647,"current_range_meters":7200,"station_id":"ce4bhmp2rcd13ifvqgog","pricing_plan_id":"cebpf4jnsgd1na2vs0mg"},{"bike_id":"5a14338c-3bd8-41df-b649-06e806759699","system_id":"levelo_inurba_marseille","lat":43.2396,"lon":5.3663,"is_reserved":false,"is_disabled":false,"rental_uris":{"android":"levelo://app?vid=5a14338c-3bd8-41df-b649-06e806759699","ios":"levelo://app?vid=5a14338c-3bd8-41df-b649-06e806759699"},"vehicle_type_id":"4","last_reported":1742217647,"current_range_meters":7200,"station_id":"ce4bhi12rcd13ifvqfp0","pricing_plan_id":"cebpf4jnsgd1na2vs0mg"},{"bike_id":"f4be2b37-4232-4f37-8b85-a0f7ba5f5355","system_id":"levelo_inurba_marseille","lat":43.29035,"lon":5.37567,"is_reserved":false,"is_disabled":false,"rental_uris":{"android":"levelo://app?vid=f4be2b37-4232-4f37-8b85-a0f7ba5f5355","ios":"levelo://app?vid=f4be2b37-4232-4f37-8b85-a0f7ba5f5355"},"vehicle_type_id":"4","last_reported":1742217647,"current_range_meters":5600,"station_id":"ce4bh692rcd13ifvqe90","pricing_plan_id":"cebpf4jnsgd1na2vs0mg"},{"bike_id":"87d6949a-7669-4ab4-af12-63e799db8d8c","system_id":"levelo_inurba_marseille","lat":43.25707,"lon":5.41094,"is_reserved":false,"is_disabled":false,"rental_uris":{"android":"levelo://app?vid=87d6949a-7669-4ab4-af12-63e799db8d8c","ios":"levelo://app?vid=87d6949a-7669-4ab4-af12-63e799db8d8c"},"vehicle_type_id":"4","last_reported":1742217647,"current_range_meters":7200,"station_id":"ce4bhkp2rcd13ifvqgd0","pricing_plan_id":"cebpf4jnsgd1na2vs0mg"},{"bike_id":"0db3ea64-8287-42c3-88e4-e6d0ffcd324b","system_id":"levelo_inurba_marseille","lat":43.31222,"lon":5.36859,"is_reserved":false,"is_disabled":false,"rental_uris":{"android":"levelo://app?vid=0db3ea64-8287-42c3-88e4-e6d0ffcd324b","ios":"levelo://app?vid=0db3ea64-8287-42c3-88e4-e6d0ffcd324b"},"vehicle_type_id":"4","last_reported":1742217647,"current_range_meters":6800,"station_id":"ce4bgl92rcd13ifvqbq0","pricing_plan_id":"cebpf4jnsgd1na2vs0mg"},{"bike_id":"293c9cae-94c0-44e9-b836-39985d1f650f","system_id":"levelo_inurba_marseille","lat":43.302689,"lon":5.400591,"is_reserved":false,"is_disabled":false,"rental_uris":{"android":"levelo://app?vid=293c9cae-94c0-44e9-b836-39985d1f650f","ios":"levelo://app?vid=293c9cae-94c0-44e9-b836-39985d1f650f"},"vehicle_type_id":"4","last_reported":1742217647,"current_range_meters":7200,"station_id":"ce4bgvh2rcd13ifvqcs0","pricing_plan_id":"cebpf4jnsgd1na2vs0mg"},{"bike_id":"d62841a2-6dc2-4a3c-a2b1-52e5b3d95014","system_id":"levelo_inurba_marseille","lat":43.2659,"lon":5.39027,"is_reserved":false,"is_disabled":false,"rental_uris":{"android":"levelo://app?vid=d62841a2-6dc2-4a3c-a2b1-52e5b3d95014","ios":"levelo://app?vid=d62841a2-6dc2-4a3c-a2b1-52e5b3d95014"},"vehicle_type_id":"4","last_reported":1742217647,"current_range_meters":7200,"station_id":"ce4bhe12rcd13ifvqf30","pricing_plan_id":"cebpf4jnsgd1na2vs0mg"},{"bike_id":"97951525-03b3-4793-b432-111c105c0ba6","system_id":"levelo_inurba_marseille","lat":43.29453,"lon":5.3862,"is_reserved":false,"is_disabled":false,"rental_uris":{"android":"levelo://app?vid=97951525-03b3-4793-b432-111c105c0ba6","ios":"levelo://app?vid=97951525-03b3-4793-b432-111c105c0ba6"},"vehicle_type_id":"4","last_reported":1742217647,"current_range_meters":7200,"station_id":"ce4bh2h2rcd13ifvqdh0","pricing_plan_id":"cebpf4jnsgd1na2vs0mg"},{"bike_id":"14cd229a-e82f-4d5d-bc54-5bd7b491925a","system_id":"levelo_inurba_marseille","lat":43.23189,"lon":5.39954,"is_reserved":false,"is_disabled":false,"rental_uris":{"android":"levelo://app?vid=14cd229a-e82f-4d5d-bc54-5bd7b491925a","ios":"levelo://app?vid=14cd229a-e82f-4d5d-bc54-5bd7b491925a"},"vehicle_type_id":"4","last_reported":1742217647,"current_range_meters":7200,"station_id":"ce4bhn12rcd13ifvqgqg","pricing_plan_id":"cebpf4jnsgd1na2vs0mg"},{"bike_id":"e8abda8e-f91d-4997-a00a-19030cb9f77f","system_id":"levelo_inurba_marseille","lat":43.24203,"lon":5.39727,"is_reserved":false,"is_disabled":false,"rental_uris":{"android":"levelo://app?vid=e8abda8e-f91d-4997-a00a-19030cb9f77f","ios":"levelo://app?vid=e8abda8e-f91d-4997-a00a-19030cb9f77f"},"vehicle_type_id":"4","last_reported":1742217647,"current_range_meters":7200,"station_id":"ce4bhn12rcd13ifvqgpg","pricing_plan_id":"cebpf4jnsgd1na2vs0mg"},{"bike_id":"c6676698-7026-410e-8100-88640ee593b2","system_id":"levelo_inurba_marseille","lat":43.27218,"lon":5.40993,"is_reserved":false,"is_disabled":true,"rental_uris":{"android":"levelo://app?vid=c6676698-7026-410e-8100-88640ee593b2","ios":"levelo://app?vid=c6676698-7026-410e-8100-88640ee593b2"},"vehicle_type_id":"4","last_reported":1742217647,"current_range_meters":7200,"station_id":"","pricing_plan_id":"cebpf4jnsgd1na2vs0mg"},{"bike_id":"52bbeb73-bd2c-4192-958a-ff2110dccfbc","system_id":"levelo_inurba_marseille","lat":43.25113,"lon":5.40319,"is_reserved":false,"is_disabled":false,"rental_uris":{"android":"levelo://app?vid=52bbeb73-bd2c-4192-958a-ff2110dccfbc","ios":"levelo://app?vid=52bbeb73-bd2c-4192-958a-ff2110dccfbc"},"vehicle_type_id":"4","last_reported":1742217647,"current_range_meters":6400,"station_id":"ce4bhlh2rcd13ifvqgig","pricing_plan_id":"cebpf4jnsgd1na2vs0mg"},{"bike_id":"b216cadd-985e-4afe-9079-e59b8876573e","system_id":"levelo_inurba_marseille","lat":43.290916,"lon":5.381223,"is_reserved":false,"is_disabled":false,"rental_uris":{"android":"levelo://app?vid=b216cadd-985e-4afe-9079-e59b8876573e","ios":"levelo://app?vid=b216cadd-985e-4afe-9079-e59b8876573e"},"vehicle_type_id":"4","last_reported":1742217647,"current_range_meters":7200,"station_id":"ce4bh512rcd13ifvqe2g","pricing_plan_id":"cebpf4jnsgd1na2vs0mg"},{"bike_id":"574c6264-9ead-4067-9d53-ef9ca0765d8a","system_id":"levelo_inurba_marseille","lat":43.25948,"lon":5.40901,"is_reserved":false,"is_disabled":false,"rental_uris":{"android":"levelo://app?vid=574c6264-9ead-4067-9d53-ef9ca0765d8a","ios":"levelo://app?vid=574c6264-9ead-4067-9d53-ef9ca0765d8a"},"vehicle_type_id":"4","last_reported":1742217647,"current_range_meters":7200,"station_id":"ce4bhm92rcd13ifvqglg","pricing_plan_id":"cebpf4jnsgd1na2vs0mg"},{"bike_id":"6d51086a-8359-4d5b-93ea-ef70cdaead58","system_id":"levelo_inurba_marseille","lat":43.2936,"lon":5.37851,"is_reserved":false,"is_disabled":false,"rental_uris":{"android":"levelo://app?vid=6d51086a-8359-4d5b-93ea-ef70cdaead58","ios":"levelo://app?vid=6d51086a-8359-4d5b-93ea-ef70cdaead58"},"vehicle_type_id":"4","last_reported":1742217647,"current_range_meters":7200,"station_id":"ce4bgjh2rcd13ifvqbf0","pricing_plan_id":"cebpf4jnsgd1na2vs0mg"},{"bike_id":"7a2a856a-591c-425f-b3d4-2f090643ef3e","system_id":"levelo_inurba_marseille","lat":43.31282,"lon":5.40165,"is_reserved":false,"is_disabled":true,"rental_uris":{"android":"levelo://app?vid=7a2a856a-591c-425f-b3d4-2f090643ef3e","ios":"levelo://app?vid=7a2a856a-591c-425f-b3d4-2f090643ef3e"},"vehicle_type_id":"4","last_reported":1742217647,"current_range_meters":7200,"station_id":"ce4bh092rcd13ifvqd30","pricing_plan_id":"cebpf4jnsgd1na2vs0mg"},{"bike_id":"4355c6b2-0a7a-4a05-9dfc-d193737da0f6","system_id":"levelo_inurba_marseille","lat":43.29602,"lon":5.38105,"is_reserved":false,"is_disabled":false,"rental_uris":{"android":"levelo://app?vid=4355c6b2-0a7a-4a05-9dfc-d193737da0f6","ios":"levelo://app?vid=4355c6b2-0a7a-4a05-9dfc-d193737da0f6"},"vehicle_type_id":"4","last_reported":1742217647,"current_range_meters":8000,"station_id":"ce4bgl12rcd13ifvqbo0","pricing_plan_id":"cebpf4jnsgd1na2vs0mg"},{"bike_id":"abd48a52-c8cc-4abb-a801-8dce64155a4a","system_id":"levelo_inurba_marseille","lat":43.24997,"lon":5.38945,"is_reserved":false,"is_disabled":false,"rental_uris":{"android":"levelo://app?vid=abd48a52-c8cc-4abb-a801-8dce64155a4a","ios":"levelo://app?vid=abd48a52-c8cc-4abb-a801-8dce64155a4a"},"vehicle_type_id":"4","last_reported":1742217647,"current_range_meters":8000,"station_id":"ce4bhgp2rcd13ifvqfd0","pricing_plan_id":"cebpf4jnsgd1na2vs0mg"},{"bike_id":"1478c4e2-acc4-49fc-91bf-704cb3e1a868","system_id":"levelo_inurba_marseille","lat":43.27697,"lon":5.38884,"is_reserved":false,"is_disabled":false,"rental_uris":{"android":"levelo://app?vid=1478c4e2-acc4-49fc-91bf-704cb3e1a868","ios":"levelo://app?vid=1478c4e2-acc4-49fc-91bf-704cb3e1a868"},"vehicle_type_id":"4","last_reported":1742217647,"current_range_meters":8000,"station_id":"ce4bhi12rcd13ifvqfo0","pricing_plan_id":"cebpf4jnsgd1na2vs0mg"},{"bike_id":"60a0c90d-4c7c-4d58-92ae-6e45c1d8be3d","system_id":"levelo_inurba_marseille","lat":43.2953,"lon":5.39028,"is_reserved":false,"is_disabled":false,"rental_uris":{"android":"levelo://app?vid=60a0c90d-4c7c-4d58-92ae-6e45c1d8be3d","ios":"levelo://app?vid=60a0c90d-4c7c-4d58-92ae-6e45c1d8be3d"},"vehicle_type_id":"4","last_reported":1742217647,"current_range_meters":8400,"station_id":"ce4bh3p2rcd13ifvqdp0","pricing_plan_id":"cebpf4jnsgd1na2vs0mg"},{"bike_id":"8328075f-d508-4d51-8cda-eb51cdd3db9d","system_id":"levelo_inurba_marseille","lat":43.32105,"lon":5.36783,"is_reserved":false,"is_disabled":false,"rental_uris":{"android":"levelo://app?vid=8328075f-d508-4d51-8cda-eb51cdd3db9d","ios":"levelo://app?vid=8328075f-d508-4d51-8cda-eb51cdd3db9d"},"vehicle_type_id":"4","last_reported":1742217647,"current_range_meters":8000,"station_id":"ce4bhrh2rcd13ifvqhug","pricing_plan_id":"cebpf4jnsgd1na2vs0mg"},{"bike_id":"8abf5c72-692f-4fd9-8537-22fe861d9366","system_id":"levelo_inurba_marseille","lat":43.32363,"lon":5.36772,"is_reserved":false,"is_disabled":false,"rental_uris":{"android":"levelo://app?vid=8abf5c72-692f-4fd9-8537-22fe861d9366","ios":"levelo://app?vid=8abf5c72-692f-4fd9-8537-22fe861d9366"},"vehicle_type_id":"4","last_reported":1742217647,"current_range_meters":8000,"station_id":"ce4bhsh2rcd13ifvqi2g","pricing_plan_id":"cebpf4jnsgd1na2vs0mg"},{"bike_id":"5caa044b-d691-453d-baa4-c350897c9f29","system_id":"levelo_inurba_marseille","lat":43.28627,"lon":5.35109,"is_reserved":false,"is_disabled":false,"rental_uris":{"android":"levelo://app?vid=5caa044b-d691-453d-baa4-c350897c9f29","ios":"levelo://app?vid=5caa044b-d691-453d-baa4-c350897c9f29"},"vehicle_type_id":"4","last_reported":1742217647,"current_range_meters":8000,"station_id":"ce4bhch2rcd13ifvqeug","pricing_plan_id":"cebpf4jnsgd1na2vs0mg"},{"bike_id":"ae452b57-1af6-4866-8bc7-6007a89c2f67","system_id":"levelo_inurba_marseille","lat":43.246553,"lon":5.388862,"is_reserved":false,"is_disabled":false,"rental_uris":{"android":"levelo://app?vid=ae452b57-1af6-4866-8bc7-6007a89c2f67","ios":"levelo://app?vid=ae452b57-1af6-4866-8bc7-6007a89c2f67"},"vehicle_type_id":"4","last_reported":1742217647,"current_range_meters":8000,"station_id":"ce4bhg12rcd13ifvqf60","pricing_plan_id":"cebpf4jnsgd1na2vs0mg"},{"bike_id":"acdd7e3b-1e6f-4bbf-8299-e2b183b09397","system_id":"levelo_inurba_marseille","lat":43.292145,"lon":5.394621,"is_reserved":false,"is_disabled":false,"rental_uris":{"android":"levelo://app?vid=acdd7e3b-1e6f-4bbf-8299-e2b183b09397","ios":"levelo://app?vid=acdd7e3b-1e6f-4bbf-8299-e2b183b09397"},"vehicle_type_id":"4","last_reported":1742217647,"current_range_meters":7200,"station_id":"ce4bgvh2rcd13ifvqcs0","pricing_plan_id":"cebpf4jnsgd1na2vs0mg"},{"bike_id":"b29a0463-5e75-49d5-8955-7693d791a747","system_id":"levelo_inurba_marseille","lat":43.27632,"lon":5.36115,"is_reserved":false,"is_disabled":false,"rental_uris":{"android":"levelo://app?vid=b29a0463-5e75-49d5-8955-7693d791a747","ios":"levelo://app?vid=b29a0463-5e75-49d5-8955-7693d791a747"},"vehicle_type_id":"4","last_reported":1742217647,"current_range_meters":8000,"station_id":"ce4bgj92rcd13ifvqbe0","pricing_plan_id":"cebpf4jnsgd1na2vs0mg"},{"bike_id":"74620aff-b1f0-4b60-8841-bc8a0a2edc3e","system_id":"levelo_inurba_marseille","lat":43.23204,"lon":5.35548,"is_reserved":false,"is_disabled":false,"rental_uris":{"android":"levelo://app?vid=74620aff-b1f0-4b60-8841-bc8a0a2edc3e","ios":"levelo://app?vid=74620aff-b1f0-4b60-8841-bc8a0a2edc3e"},"vehicle_type_id":"4","last_reported":1742217647,"current_range_meters":8400,"station_id":"ce4bhu92rcd13ifvqi70","pricing_plan_id":"cebpf4jnsgd1na2vs0mg"},{"bike_id":"21794262-8da4-490a-953b-4fa755e02469","system_id":"levelo_inurba_marseille","lat":43.29041,"lon":5.39959,"is_reserved":false,"is_disabled":true,"rental_uris":{"android":"levelo://app?vid=21794262-8da4-490a-953b-4fa755e02469","ios":"levelo://app?vid=21794262-8da4-490a-953b-4fa755e02469"},"vehicle_type_id":"4","last_reported":1742217647,"current_range_meters":8400,"station_id":"ce4bh392rcd13ifvqdm0","pricing_plan_id":"cebpf4jnsgd1na2vs0mg"},{"bike_id":"b06b1727-338c-453c-98e4-9eaeb6bb495e","system_id":"levelo_inurba_marseille","lat":43.27902,"lon":5.38013,"is_reserved":false,"is_disabled":false,"rental_uris":{"android":"levelo://app?vid=b06b1727-338c-453c-98e4-9eaeb6bb495e","ios":"levelo://app?vid=b06b1727-338c-453c-98e4-9eaeb6bb495e"},"vehicle_type_id":"4","last_reported":1742217647,"current_range_meters":8400,"station_id":"ce4bhf92rcd13ifvqf50","pricing_plan_id":"cebpf4jnsgd1na2vs0mg"},{"bike_id":"8d542ee4-838b-4699-8232-94c9bd1cf6b1","system_id":"levelo_inurba_marseille","lat":43.23155,"lon":5.43706,"is_reserved":false,"is_disabled":false,"rental_uris":{"android":"levelo://app?vid=8d542ee4-838b-4699-8232-94c9bd1cf6b1","ios":"levelo://app?vid=8d542ee4-838b-4699-8232-94c9bd1cf6b1"},"vehicle_type_id":"4","last_reported":1742217647,"current_range_meters":8400,"station_id":"ce4bhmp2rcd13ifvqgog","pricing_plan_id":"cebpf4jnsgd1na2vs0mg"},{"bike_id":"ef9b20c2-24a5-462d-8f71-a0b89cbc915f","system_id":"levelo_inurba_marseille","lat":43.26026,"lon":5.4174,"is_reserved":false,"is_disabled":false,"rental_uris":{"android":"levelo://app?vid=ef9b20c2-24a5-462d-8f71-a0b89cbc915f","ios":"levelo://app?vid=ef9b20c2-24a5-462d-8f71-a0b89cbc915f"},"vehicle_type_id":"4","last_reported":1742217647,"current_range_meters":8400,"station_id":"","pricing_plan_id":"cebpf4jnsgd1na2vs0mg"},{"bike_id":"d331a051-0e16-4f8d-b5a3-95cd5967a90b","system_id":"levelo_inurba_marseille","lat":43.24638,"lon":5.38167,"is_reserved":false,"is_disabled":false,"rental_uris":{"android":"levelo://app?vid=d331a051-0e16-4f8d-b5a3-95cd5967a90b","ios":"levelo://app?vid=d331a051-0e16-4f8d-b5a3-95cd5967a90b"},"vehicle_type_id":"4","last_reported":1742217647,"current_range_meters":8400,"station_id":"ce4bhih2rcd13ifvqfr0","pricing_plan_id":"cebpf4jnsgd1na2vs0mg"},{"bike_id":"2fe6b5d4-c6f7-40d2-9a0b-4798d57f392b","system_id":"levelo_inurba_marseille","lat":43.2308,"lon":5.35477,"is_reserved":false,"is_disabled":false,"rental_uris":{"android":"levelo://app?vid=2fe6b5d4-c6f7-40d2-9a0b-4798d57f392b","ios":"levelo://app?vid=2fe6b5d4-c6f7-40d2-9a0b-4798d57f392b"},"vehicle_type_id":"4","last_reported":1742217647,"current_range_meters":8400,"station_id":"cpo3342slgdg3j2ifvpg","pricing_plan_id":"cebpf4jnsgd1na2vs0mg"},{"bike_id":"e39f083d-4542-4f7b-9173-1e8fe9e09597","system_id":"levelo_inurba_marseille","lat":43.27501,"lon":5.42452,"is_reserved":false,"is_disabled":true,"rental_uris":{"android":"levelo://app?vid=e39f083d-4542-4f7b-9173-1e8fe9e09597","ios":"levelo://app?vid=e39f083d-4542-4f7b-9173-1e8fe9e09597"},"vehicle_type_id":"4","last_reported":1742217647,"current_range_meters":8400,"station_id":"ce4bhn92rcd13ifvqgrg","pricing_plan_id":"cebpf4jnsgd1na2vs0mg"},{"bike_id":"021238b5-2b9d-46d2-b80c-a5e816fdc135","system_id":"levelo_inurba_marseille","lat":43.29516,"lon":5.42483,"is_reserved":false,"is_disabled":false,"rental_uris":{"android":"levelo://app?vid=021238b5-2b9d-46d2-b80c-a5e816fdc135","ios":"levelo://app?vid=021238b5-2b9d-46d2-b80c-a5e816fdc135"},"vehicle_type_id":"4","last_reported":1742217647,"current_range_meters":8400,"station_id":"","pricing_plan_id":"cebpf4jnsgd1na2vs0mg"},{"bike_id":"55c06cd5-a41c-4356-8822-ae0a6cd44f9f","system_id":"levelo_inurba_marseille","lat":43.24671,"lon":5.38168,"is_reserved":false,"is_disabled":false,"rental_uris":{"android":"levelo://app?vid=55c06cd5-a41c-4356-8822-ae0a6cd44f9f","ios":"levelo://app?vid=55c06cd5-a41c-4356-8822-ae0a6cd44f9f"},"vehicle_type_id":"4","last_reported":1742217647,"current_range_meters":8400,"station_id":"ce4bhih2rcd13ifvqfr0","pricing_plan_id":"cebpf4jnsgd1na2vs0mg"},{"bike_id":"706f1cef-8e9b-45d5-be65-fab94aa4791b","system_id":"levelo_inurba_marseille","lat":43.2293,"lon":5.35386,"is_reserved":false,"is_disabled":false,"rental_uris":{"android":"levelo://app?vid=706f1cef-8e9b-45d5-be65-fab94aa4791b","ios":"levelo://app?vid=706f1cef-8e9b-45d5-be65-fab94aa4791b"},"vehicle_type_id":"4","last_reported":1742217647,"current_range_meters":8400,"station_id":"cpo3532slgdg3j2ikp40","pricing_plan_id":"cebpf4jnsgd1na2vs0mg"},{"bike_id":"a561f3af-dc1c-4af4-b9a4-ead55b35e495","system_id":"levelo_inurba_marseille","lat":43.23193,"lon":5.35551,"is_reserved":false,"is_disabled":false,"rental_uris":{"android":"levelo://app?vid=a561f3af-dc1c-4af4-b9a4-ead55b35e495","ios":"levelo://app?vid=a561f3af-dc1c-4af4-b9a4-ead55b35e495"},"vehicle_type_id":"4","last_reported":1742217647,"current_range_meters":8400,"station_id":"ce4bhu92rcd13ifvqi70","pricing_plan_id":"cebpf4jnsgd1na2vs0mg"},{"bike_id":"5ae3389f-4861-401c-8ef6-b6dce59ed540","system_id":"levelo_inurba_marseille","lat":43.32087,"lon":5.36775,"is_reserved":false,"is_disabled":false,"rental_uris":{"android":"levelo://app?vid=5ae3389f-4861-401c-8ef6-b6dce59ed540","ios":"levelo://app?vid=5ae3389f-4861-401c-8ef6-b6dce59ed540"},"vehicle_type_id":"4","last_reported":1742217647,"current_range_meters":8400,"station_id":"ce4bhrh2rcd13ifvqhug","pricing_plan_id":"cebpf4jnsgd1na2vs0mg"},{"bike_id":"9666e4f9-8178-4941-81ad-7ee139f33ed8","system_id":"levelo_inurba_marseille","lat":43.28484,"lon":5.38562,"is_reserved":false,"is_disabled":false,"rental_uris":{"android":"levelo://app?vid=9666e4f9-8178-4941-81ad-7ee139f33ed8","ios":"levelo://app?vid=9666e4f9-8178-4941-81ad-7ee139f33ed8"},"vehicle_type_id":"4","last_reported":1742217647,"current_range_meters":8000,"station_id":"ce4bh8p2rcd13ifvqeb0","pricing_plan_id":"cebpf4jnsgd1na2vs0mg"},{"bike_id":"4a82e9fa-897e-4db9-9848-eca7bdecdfdc","system_id":"levelo_inurba_marseille","lat":43.27924,"lon":5.38234,"is_reserved":false,"is_disabled":false,"rental_uris":{"android":"levelo://app?vid=4a82e9fa-897e-4db9-9848-eca7bdecdfdc","ios":"levelo://app?vid=4a82e9fa-897e-4db9-9848-eca7bdecdfdc"},"vehicle_type_id":"4","last_reported":1742217647,"current_range_meters":8400,"station_id":"","pricing_plan_id":"cebpf4jnsgd1na2vs0mg"},{"bike_id":"28cd485d-7b67-4a3d-b0db-5885c982a401","system_id":"levelo_inurba_marseille","lat":43.27212,"lon":5.39198,"is_reserved":false,"is_disabled":false,"rental_uris":{"android":"levelo://app?vid=28cd485d-7b67-4a3d-b0db-5885c982a401","ios":"levelo://app?vid=28cd485d-7b67-4a3d-b0db-5885c982a401"},"vehicle_type_id":"4","last_reported":1742217647,"current_range_meters":8400,"station_id":"ce4bhhp2rcd13ifvqfm0","pricing_plan_id":"cebpf4jnsgd1na2vs0mg"},{"bike_id":"8364c51f-736e-4bc2-a38b-e66d27942162","system_id":"levelo_inurba_marseille","lat":43.27076,"lon":5.42282,"is_reserved":false,"is_disabled":false,"rental_uris":{"android":"levelo://app?vid=8364c51f-736e-4bc2-a38b-e66d27942162","ios":"levelo://app?vid=8364c51f-736e-4bc2-a38b-e66d27942162"},"vehicle_type_id":"4","last_reported":1742217647,"current_range_meters":8800,"station_id":"ce4bhk92rcd13ifvqgb0","pricing_plan_id":"cebpf4jnsgd1na2vs0mg"},{"bike_id":"c0b7321f-eb27-4ea2-95ad-80da601ae6c7","system_id":"levelo_inurba_marseille","lat":43.23158,"lon":5.43715,"is_reserved":false,"is_disabled":false,"rental_uris":{"android":"levelo://app?vid=c0b7321f-eb27-4ea2-95ad-80da601ae6c7","ios":"levelo://app?vid=c0b7321f-eb27-4ea2-95ad-80da601ae6c7"},"vehicle_type_id":"4","last_reported":1742217647,"current_range_meters":8400,"station_id":"ce4bhmp2rcd13ifvqgog","pricing_plan_id":"cebpf4jnsgd1na2vs0mg"},{"bike_id":"b1caf000-cb2b-4aa7-9447-b41fe156b415","system_id":"levelo_inurba_marseille","lat":43.25912,"lon":5.40899,"is_reserved":false,"is_disabled":false,"rental_uris":{"android":"levelo://app?vid=b1caf000-cb2b-4aa7-9447-b41fe156b415","ios":"levelo://app?vid=b1caf000-cb2b-4aa7-9447-b41fe156b415"},"vehicle_type_id":"4","last_reported":1742217647,"current_range_meters":8400,"station_id":"ce4bhm92rcd13ifvqglg","pricing_plan_id":"cebpf4jnsgd1na2vs0mg"},{"bike_id":"1439fc8e-79e5-4856-8384-16d63dad9552","system_id":"levelo_inurba_marseille","lat":43.28617,"lon":5.35107,"is_reserved":false,"is_disabled":false,"rental_uris":{"android":"levelo://app?vid=1439fc8e-79e5-4856-8384-16d63dad9552","ios":"levelo://app?vid=1439fc8e-79e5-4856-8384-16d63dad9552"},"vehicle_type_id":"4","last_reported":1742217647,"current_range_meters":8400,"station_id":"ce4bhch2rcd13ifvqeug","pricing_plan_id":"cebpf4jnsgd1na2vs0mg"},{"bike_id":"4ffdacba-034c-421f-8d42-ca57612cd8c0","system_id":"levelo_inurba_marseille","lat":43.32361,"lon":5.36761,"is_reserved":false,"is_disabled":false,"rental_uris":{"android":"levelo://app?vid=4ffdacba-034c-421f-8d42-ca57612cd8c0","ios":"levelo://app?vid=4ffdacba-034c-421f-8d42-ca57612cd8c0"},"vehicle_type_id":"4","last_reported":1742217647,"current_range_meters":8400,"station_id":"ce4bhsh2rcd13ifvqi2g","pricing_plan_id":"cebpf4jnsgd1na2vs0mg"},{"bike_id":"788282d7-0afb-47a4-afa7-639e58ee5f39","system_id":"levelo_inurba_marseille","lat":43.29873,"lon":5.3973,"is_reserved":false,"is_disabled":false,"rental_uris":{"android":"levelo://app?vid=788282d7-0afb-47a4-afa7-639e58ee5f39","ios":"levelo://app?vid=788282d7-0afb-47a4-afa7-639e58ee5f39"},"vehicle_type_id":"4","last_reported":1742217647,"current_range_meters":8800,"station_id":"ce4bh0h2rcd13ifvqd50","pricing_plan_id":"cebpf4jnsgd1na2vs0mg"},{"bike_id":"844e17a9-fd1c-4251-aac4-bea3451aaf59","system_id":"levelo_inurba_marseille","lat":43.30203,"lon":5.39468,"is_reserved":false,"is_disabled":false,"rental_uris":{"android":"levelo://app?vid=844e17a9-fd1c-4251-aac4-bea3451aaf59","ios":"levelo://app?vid=844e17a9-fd1c-4251-aac4-bea3451aaf59"},"vehicle_type_id":"4","last_reported":1742217647,"current_range_meters":8800,"station_id":"ce4bh0p2rcd13ifvqd70","pricing_plan_id":"cebpf4jnsgd1na2vs0mg"},{"bike_id":"e6986305-9225-4858-a625-fc098819c742","system_id":"levelo_inurba_marseille","lat":43.24075,"lon":5.37757,"is_reserved":false,"is_disabled":false,"rental_uris":{"android":"levelo://app?vid=e6986305-9225-4858-a625-fc098819c742","ios":"levelo://app?vid=e6986305-9225-4858-a625-fc098819c742"},"vehicle_type_id":"4","last_reported":1742217647,"current_range_meters":8800,"station_id":"ce4bhnp2rcd13ifvqgvg","pricing_plan_id":"cebpf4jnsgd1na2vs0mg"},{"bike_id":"21ea14e4-e712-4c55-80e9-78ee64e17fba","system_id":"levelo_inurba_marseille","lat":43.23159,"lon":5.43695,"is_reserved":false,"is_disabled":false,"rental_uris":{"android":"levelo://app?vid=21ea14e4-e712-4c55-80e9-78ee64e17fba","ios":"levelo://app?vid=21ea14e4-e712-4c55-80e9-78ee64e17fba"},"vehicle_type_id":"4","last_reported":1742217647,"current_range_meters":8800,"station_id":"ce4bhmp2rcd13ifvqgog","pricing_plan_id":"cebpf4jnsgd1na2vs0mg"},{"bike_id":"a8e753ae-fd7b-4fcf-8096-fb267ba3ab5d","system_id":"levelo_inurba_marseille","lat":43.26953,"lon":5.38652,"is_reserved":false,"is_disabled":false,"rental_uris":{"android":"levelo://app?vid=a8e753ae-fd7b-4fcf-8096-fb267ba3ab5d","ios":"levelo://app?vid=a8e753ae-fd7b-4fcf-8096-fb267ba3ab5d"},"vehicle_type_id":"4","last_reported":1742217647,"current_range_meters":8800,"station_id":"ce4bhh92rcd13ifvqfh0","pricing_plan_id":"cebpf4jnsgd1na2vs0mg"},{"bike_id":"2b7011fc-7dee-42c2-86d6-7293fa23c29b","system_id":"levelo_inurba_marseille","lat":43.286136,"lon":5.35108,"is_reserved":false,"is_disabled":true,"rental_uris":{"android":"levelo://app?vid=2b7011fc-7dee-42c2-86d6-7293fa23c29b","ios":"levelo://app?vid=2b7011fc-7dee-42c2-86d6-7293fa23c29b"},"vehicle_type_id":"4","last_reported":1742217647,"current_range_meters":8800,"station_id":"","pricing_plan_id":"cebpf4jnsgd1na2vs0mg"},{"bike_id":"fd4bbcf1-e740-4b18-bbe6-38cacb3051d9","system_id":"levelo_inurba_marseille","lat":43.23185,"lon":5.3999,"is_reserved":false,"is_disabled":false,"rental_uris":{"android":"levelo://app?vid=fd4bbcf1-e740-4b18-bbe6-38cacb3051d9","ios":"levelo://app?vid=fd4bbcf1-e740-4b18-bbe6-38cacb3051d9"},"vehicle_type_id":"4","last_reported":1742217647,"current_range_meters":8800,"station_id":"ce4bhn12rcd13ifvqgqg","pricing_plan_id":"cebpf4jnsgd1na2vs0mg"},{"bike_id":"0e61515f-adf0-47af-875c-c2df33e52fae","system_id":"levelo_inurba_marseille","lat":43.244,"lon":5.37046,"is_reserved":false,"is_disabled":false,"rental_uris":{"android":"levelo://app?vid=0e61515f-adf0-47af-875c-c2df33e52fae","ios":"levelo://app?vid=0e61515f-adf0-47af-875c-c2df33e52fae"},"vehicle_type_id":"4","last_reported":1742217647,"current_range_meters":8800,"station_id":"ce4bhhh2rcd13ifvqfk0","pricing_plan_id":"cebpf4jnsgd1na2vs0mg"},{"bike_id":"6302a215-8ba8-4804-9ad5-db555dba718d","system_id":"levelo_inurba_marseille","lat":43.33613,"lon":5.41037,"is_reserved":false,"is_disabled":false,"rental_uris":{"android":"levelo://app?vid=6302a215-8ba8-4804-9ad5-db555dba718d","ios":"levelo://app?vid=6302a215-8ba8-4804-9ad5-db555dba718d"},"vehicle_type_id":"4","last_reported":1742217647,"current_range_meters":8800,"station_id":"ce4bhqh2rcd13ifvqhmg","pricing_plan_id":"cebpf4jnsgd1na2vs0mg"},{"bike_id":"ce4e440a-8a7e-4873-978a-dab6e5f56641","system_id":"levelo_inurba_marseille","lat":43.28723,"lon":5.37955,"is_reserved":false,"is_disabled":false,"rental_uris":{"android":"levelo://app?vid=ce4e440a-8a7e-4873-978a-dab6e5f56641","ios":"levelo://app?vid=ce4e440a-8a7e-4873-978a-dab6e5f56641"},"vehicle_type_id":"4","last_reported":1742217647,"current_range_meters":8800,"station_id":"ce4bh9p2rcd13ifvqec0","pricing_plan_id":"cebpf4jnsgd1na2vs0mg"},{"bike_id":"3246214a-499f-4337-bcd5-cdb4d8fbd389","system_id":"levelo_inurba_marseille","lat":43.29723,"lon":5.36607,"is_reserved":false,"is_disabled":false,"rental_uris":{"android":"levelo://app?vid=3246214a-499f-4337-bcd5-cdb4d8fbd389","ios":"levelo://app?vid=3246214a-499f-4337-bcd5-cdb4d8fbd389"},"vehicle_type_id":"4","last_reported":1742217647,"current_range_meters":10000,"station_id":"ce4bgn12rcd13ifvqbt0","pricing_plan_id":"cebpf4jnsgd1na2vs0mg"},{"bike_id":"aea1cf0e-9cc2-4a5a-87f9-a40fa19131b3","system_id":"levelo_inurba_marseille","lat":43.27895,"lon":5.38015,"is_reserved":false,"is_disabled":false,"rental_uris":{"android":"levelo://app?vid=aea1cf0e-9cc2-4a5a-87f9-a40fa19131b3","ios":"levelo://app?vid=aea1cf0e-9cc2-4a5a-87f9-a40fa19131b3"},"vehicle_type_id":"4","last_reported":1742217647,"current_range_meters":8800,"station_id":"ce4bhf92rcd13ifvqf50","pricing_plan_id":"cebpf4jnsgd1na2vs0mg"},{"bike_id":"0a018086-283c-4259-a1ff-a9304b066761","system_id":"levelo_inurba_marseille","lat":43.25006,"lon":5.38924,"is_reserved":false,"is_disabled":false,"rental_uris":{"android":"levelo://app?vid=0a018086-283c-4259-a1ff-a9304b066761","ios":"levelo://app?vid=0a018086-283c-4259-a1ff-a9304b066761"},"vehicle_type_id":"4","last_reported":1742217647,"current_range_meters":8800,"station_id":"ce4bhgp2rcd13ifvqfd0","pricing_plan_id":"cebpf4jnsgd1na2vs0mg"},{"bike_id":"0260f2ba-fccf-4f55-b5f3-fbeec1864119","system_id":"levelo_inurba_marseille","lat":43.28615,"lon":5.35107,"is_reserved":false,"is_disabled":false,"rental_uris":{"android":"levelo://app?vid=0260f2ba-fccf-4f55-b5f3-fbeec1864119","ios":"levelo://app?vid=0260f2ba-fccf-4f55-b5f3-fbeec1864119"},"vehicle_type_id":"4","last_reported":1742217647,"current_range_meters":9200,"station_id":"ce4bhch2rcd13ifvqeug","pricing_plan_id":"cebpf4jnsgd1na2vs0mg"},{"bike_id":"6159c795-6d81-4b8b-8fab-2630566d509f","system_id":"levelo_inurba_marseille","lat":43.31702,"lon":5.37734,"is_reserved":false,"is_disabled":false,"rental_uris":{"android":"levelo://app?vid=6159c795-6d81-4b8b-8fab-2630566d509f","ios":"levelo://app?vid=6159c795-6d81-4b8b-8fab-2630566d509f"},"vehicle_type_id":"4","last_reported":1742217647,"current_range_meters":9200,"station_id":"ce4bgth2rcd13ifvqch0","pricing_plan_id":"cebpf4jnsgd1na2vs0mg"},{"bike_id":"f25939fc-48b1-44d4-aa1d-97d9274c9eb5","system_id":"levelo_inurba_marseille","lat":43.24669,"lon":5.38149,"is_reserved":false,"is_disabled":false,"rental_uris":{"android":"levelo://app?vid=f25939fc-48b1-44d4-aa1d-97d9274c9eb5","ios":"levelo://app?vid=f25939fc-48b1-44d4-aa1d-97d9274c9eb5"},"vehicle_type_id":"4","last_reported":1742217647,"current_range_meters":9200,"station_id":"ce4bhih2rcd13ifvqfr0","pricing_plan_id":"cebpf4jnsgd1na2vs0mg"},{"bike_id":"e0e721b1-c009-4a6b-a340-c83a0d53ecc1","system_id":"levelo_inurba_marseille","lat":43.3235,"lon":5.36795,"is_reserved":false,"is_disabled":false,"rental_uris":{"android":"levelo://app?vid=e0e721b1-c009-4a6b-a340-c83a0d53ecc1","ios":"levelo://app?vid=e0e721b1-c009-4a6b-a340-c83a0d53ecc1"},"vehicle_type_id":"4","last_reported":1742217647,"current_range_meters":9200,"station_id":"ce4bhsh2rcd13ifvqi2g","pricing_plan_id":"cebpf4jnsgd1na2vs0mg"},{"bike_id":"bbbdcaa6-b405-4405-8e78-41d074342c51","system_id":"levelo_inurba_marseille","lat":43.27071,"lon":5.42283,"is_reserved":false,"is_disabled":false,"rental_uris":{"android":"levelo://app?vid=bbbdcaa6-b405-4405-8e78-41d074342c51","ios":"levelo://app?vid=bbbdcaa6-b405-4405-8e78-41d074342c51"},"vehicle_type_id":"4","last_reported":1742217647,"current_range_meters":9200,"station_id":"ce4bhk92rcd13ifvqgb0","pricing_plan_id":"cebpf4jnsgd1na2vs0mg"},{"bike_id":"e6a3a5f9-3e59-4b02-80b2-e28b90fba89e","system_id":"levelo_inurba_marseille","lat":43.24166,"lon":5.36406,"is_reserved":false,"is_disabled":false,"rental_uris":{"android":"levelo://app?vid=e6a3a5f9-3e59-4b02-80b2-e28b90fba89e","ios":"levelo://app?vid=e6a3a5f9-3e59-4b02-80b2-e28b90fba89e"},"vehicle_type_id":"4","last_reported":1742217647,"current_range_meters":9200,"station_id":"cpo36qri1sfpv3e86is0","pricing_plan_id":"cebpf4jnsgd1na2vs0mg"},{"bike_id":"649a1820-3813-4ab9-ab93-b0221a9c1c04","system_id":"levelo_inurba_marseille","lat":43.27237,"lon":5.39169,"is_reserved":false,"is_disabled":false,"rental_uris":{"android":"levelo://app?vid=649a1820-3813-4ab9-ab93-b0221a9c1c04","ios":"levelo://app?vid=649a1820-3813-4ab9-ab93-b0221a9c1c04"},"vehicle_type_id":"4","last_reported":1742217647,"current_range_meters":9200,"station_id":"ce4bhhp2rcd13ifvqfm0","pricing_plan_id":"cebpf4jnsgd1na2vs0mg"},{"bike_id":"3f3917b2-0edf-47a4-83c9-ca8fcf5cba45","system_id":"levelo_inurba_marseille","lat":43.27648,"lon":5.42482,"is_reserved":false,"is_disabled":false,"rental_uris":{"android":"levelo://app?vid=3f3917b2-0edf-47a4-83c9-ca8fcf5cba45","ios":"levelo://app?vid=3f3917b2-0edf-47a4-83c9-ca8fcf5cba45"},"vehicle_type_id":"4","last_reported":1742217647,"current_range_meters":9200,"station_id":"","pricing_plan_id":"cebpf4jnsgd1na2vs0mg"},{"bike_id":"c532d59e-39e8-43d7-9452-2db466e08640","system_id":"levelo_inurba_marseille","lat":43.23158,"lon":5.43698,"is_reserved":false,"is_disabled":false,"rental_uris":{"android":"levelo://app?vid=c532d59e-39e8-43d7-9452-2db466e08640","ios":"levelo://app?vid=c532d59e-39e8-43d7-9452-2db466e08640"},"vehicle_type_id":"4","last_reported":1742217647,"current_range_meters":9600,"station_id":"ce4bhmp2rcd13ifvqgog","pricing_plan_id":"cebpf4jnsgd1na2vs0mg"},{"bike_id":"50d3fb50-53c2-44e1-bef8-18f5aa8d15f1","system_id":"levelo_inurba_marseille","lat":43.28931,"lon":5.36397,"is_reserved":false,"is_disabled":false,"rental_uris":{"android":"levelo://app?vid=50d3fb50-53c2-44e1-bef8-18f5aa8d15f1","ios":"levelo://app?vid=50d3fb50-53c2-44e1-bef8-18f5aa8d15f1"},"vehicle_type_id":"4","last_reported":1742217647,"current_range_meters":9600,"station_id":"ce4bhc92rcd13ifvqetg","pricing_plan_id":"cebpf4jnsgd1na2vs0mg"},{"bike_id":"73ba6054-b256-49f9-a881-8617a962027d","system_id":"levelo_inurba_marseille","lat":43.23069,"lon":5.35502,"is_reserved":false,"is_disabled":false,"rental_uris":{"android":"levelo://app?vid=73ba6054-b256-49f9-a881-8617a962027d","ios":"levelo://app?vid=73ba6054-b256-49f9-a881-8617a962027d"},"vehicle_type_id":"4","last_reported":1742217647,"current_range_meters":9600,"station_id":"cpo3342slgdg3j2ifvpg","pricing_plan_id":"cebpf4jnsgd1na2vs0mg"},{"bike_id":"62399145-9ad9-4901-bac2-91a881fc5d30","system_id":"levelo_inurba_marseille","lat":43.23156,"lon":5.4371,"is_reserved":false,"is_disabled":false,"rental_uris":{"android":"levelo://app?vid=62399145-9ad9-4901-bac2-91a881fc5d30","ios":"levelo://app?vid=62399145-9ad9-4901-bac2-91a881fc5d30"},"vehicle_type_id":"4","last_reported":1742217647,"current_range_meters":9600,"station_id":"ce4bhmp2rcd13ifvqgog","pricing_plan_id":"cebpf4jnsgd1na2vs0mg"},{"bike_id":"4fdd7dba-c701-40c6-beda-a6dbb8b758c4","system_id":"levelo_inurba_marseille","lat":43.32662,"lon":5.40992,"is_reserved":false,"is_disabled":false,"rental_uris":{"android":"levelo://app?vid=4fdd7dba-c701-40c6-beda-a6dbb8b758c4","ios":"levelo://app?vid=4fdd7dba-c701-40c6-beda-a6dbb8b758c4"},"vehicle_type_id":"4","last_reported":1742217647,"current_range_meters":15200,"station_id":"ce4bhpp2rcd13ifvqhgg","pricing_plan_id":"cebpf4jnsgd1na2vs0mg"},{"bike_id":"c6f1f80f-0759-415e-a7c3-e2794de19051","system_id":"levelo_inurba_marseille","lat":43.29886,"lon":5.39734,"is_reserved":false,"is_disabled":false,"rental_uris":{"android":"levelo://app?vid=c6f1f80f-0759-415e-a7c3-e2794de19051","ios":"levelo://app?vid=c6f1f80f-0759-415e-a7c3-e2794de19051"},"vehicle_type_id":"4","last_reported":1742217647,"current_range_meters":9600,"station_id":"ce4bh0h2rcd13ifvqd50","pricing_plan_id":"cebpf4jnsgd1na2vs0mg"},{"bike_id":"b54a649d-2707-4569-87ee-d2c230e19409","system_id":"levelo_inurba_marseille","lat":43.274624,"lon":5.408979,"is_reserved":false,"is_disabled":false,"rental_uris":{"android":"levelo://app?vid=b54a649d-2707-4569-87ee-d2c230e19409","ios":"levelo://app?vid=b54a649d-2707-4569-87ee-d2c230e19409"},"vehicle_type_id":"4","last_reported":1742217647,"current_range_meters":9600,"station_id":"","pricing_plan_id":"cebpf4jnsgd1na2vs0mg"},{"bike_id":"09511895-870f-47d2-8083-55ec7065b1a0","system_id":"levelo_inurba_marseille","lat":43.24178,"lon":5.3973,"is_reserved":false,"is_disabled":false,"rental_uris":{"android":"levelo://app?vid=09511895-870f-47d2-8083-55ec7065b1a0","ios":"levelo://app?vid=09511895-870f-47d2-8083-55ec7065b1a0"},"vehicle_type_id":"4","last_reported":1742217647,"current_range_meters":9600,"station_id":"ce4bhn12rcd13ifvqgpg","pricing_plan_id":"cebpf4jnsgd1na2vs0mg"},{"bike_id":"1ecb9fc8-c55f-4906-a6b3-3b2b095fb135","system_id":"levelo_inurba_marseille","lat":43.29551,"lon":5.42289,"is_reserved":false,"is_disabled":false,"rental_uris":{"android":"levelo://app?vid=1ecb9fc8-c55f-4906-a6b3-3b2b095fb135","ios":"levelo://app?vid=1ecb9fc8-c55f-4906-a6b3-3b2b095fb135"},"vehicle_type_id":"4","last_reported":1742217647,"current_range_meters":9600,"station_id":"ce4bhph2rcd13ifvqhdg","pricing_plan_id":"cebpf4jnsgd1na2vs0mg"},{"bike_id":"dd117a7c-a536-40a1-91af-43693b0b8fe5","system_id":"levelo_inurba_marseille","lat":43.25831,"lon":5.40989,"is_reserved":false,"is_disabled":false,"rental_uris":{"android":"levelo://app?vid=dd117a7c-a536-40a1-91af-43693b0b8fe5","ios":"levelo://app?vid=dd117a7c-a536-40a1-91af-43693b0b8fe5"},"vehicle_type_id":"4","last_reported":1742217647,"current_range_meters":9600,"station_id":"","pricing_plan_id":"cebpf4jnsgd1na2vs0mg"},{"bike_id":"d4acbc82-7c78-4fa2-a39a-1a2501cae6c6","system_id":"levelo_inurba_marseille","lat":43.27319,"lon":5.3907,"is_reserved":false,"is_disabled":false,"rental_uris":{"android":"levelo://app?vid=d4acbc82-7c78-4fa2-a39a-1a2501cae6c6","ios":"levelo://app?vid=d4acbc82-7c78-4fa2-a39a-1a2501cae6c6"},"vehicle_type_id":"4","last_reported":1742217647,"current_range_meters":9600,"station_id":"ce4bhgp2rcd13ifvqfe0","pricing_plan_id":"cebpf4jnsgd1na2vs0mg"},{"bike_id":"85d87f2d-ca0f-405a-bce8-a1269c2dc06e","system_id":"levelo_inurba_marseille","lat":43.26964,"lon":5.38619,"is_reserved":false,"is_disabled":true,"rental_uris":{"android":"levelo://app?vid=85d87f2d-ca0f-405a-bce8-a1269c2dc06e","ios":"levelo://app?vid=85d87f2d-ca0f-405a-bce8-a1269c2dc06e"},"vehicle_type_id":"4","last_reported":1742217647,"current_range_meters":9600,"station_id":"ce4bhh92rcd13ifvqfh0","pricing_plan_id":"cebpf4jnsgd1na2vs0mg"},{"bike_id":"3a5d4bac-eeb5-4a6e-be33-c7cec73fd3c8","system_id":"levelo_inurba_marseille","lat":43.24183,"lon":5.39728,"is_reserved":false,"is_disabled":false,"rental_uris":{"android":"levelo://app?vid=3a5d4bac-eeb5-4a6e-be33-c7cec73fd3c8","ios":"levelo://app?vid=3a5d4bac-eeb5-4a6e-be33-c7cec73fd3c8"},"vehicle_type_id":"4","last_reported":1742217647,"current_range_meters":12000,"station_id":"ce4bhn12rcd13ifvqgpg","pricing_plan_id":"cebpf4jnsgd1na2vs0mg"},{"bike_id":"2caf4a9a-0fdc-4be8-99c3-92290684314e","system_id":"levelo_inurba_marseille","lat":43.25009,"lon":5.38954,"is_reserved":false,"is_disabled":false,"rental_uris":{"android":"levelo://app?vid=2caf4a9a-0fdc-4be8-99c3-92290684314e","ios":"levelo://app?vid=2caf4a9a-0fdc-4be8-99c3-92290684314e"},"vehicle_type_id":"4","last_reported":1742217647,"current_range_meters":10000,"station_id":"ce4bhgp2rcd13ifvqfd0","pricing_plan_id":"cebpf4jnsgd1na2vs0mg"},{"bike_id":"6d8e8090-a4c7-4966-a3f4-a833922b9e5a","system_id":"levelo_inurba_marseille","lat":43.2319,"lon":5.35557,"is_reserved":false,"is_disabled":false,"rental_uris":{"android":"levelo://app?vid=6d8e8090-a4c7-4966-a3f4-a833922b9e5a","ios":"levelo://app?vid=6d8e8090-a4c7-4966-a3f4-a833922b9e5a"},"vehicle_type_id":"4","last_reported":1742217647,"current_range_meters":10000,"station_id":"ce4bhu92rcd13ifvqi70","pricing_plan_id":"cebpf4jnsgd1na2vs0mg"},{"bike_id":"e72faea1-e859-44c6-a170-a93b09222aa0","system_id":"levelo_inurba_marseille","lat":43.24391,"lon":5.37068,"is_reserved":false,"is_disabled":false,"rental_uris":{"android":"levelo://app?vid=e72faea1-e859-44c6-a170-a93b09222aa0","ios":"levelo://app?vid=e72faea1-e859-44c6-a170-a93b09222aa0"},"vehicle_type_id":"4","last_reported":1742217647,"current_range_meters":10000,"station_id":"ce4bhhh2rcd13ifvqfk0","pricing_plan_id":"cebpf4jnsgd1na2vs0mg"},{"bike_id":"71ab1ae7-62b1-4d42-aa0f-dcde40ca280e","system_id":"levelo_inurba_marseille","lat":43.25929,"lon":5.40875,"is_reserved":false,"is_disabled":false,"rental_uris":{"android":"levelo://app?vid=71ab1ae7-62b1-4d42-aa0f-dcde40ca280e","ios":"levelo://app?vid=71ab1ae7-62b1-4d42-aa0f-dcde40ca280e"},"vehicle_type_id":"4","last_reported":1742217647,"current_range_meters":10000,"station_id":"ce4bhm92rcd13ifvqglg","pricing_plan_id":"cebpf4jnsgd1na2vs0mg"},{"bike_id":"85243c15-2c9b-4159-9d9b-4f8d5cc5647b","system_id":"levelo_inurba_marseille","lat":43.31351,"lon":5.36725,"is_reserved":false,"is_disabled":false,"rental_uris":{"android":"levelo://app?vid=85243c15-2c9b-4159-9d9b-4f8d5cc5647b","ios":"levelo://app?vid=85243c15-2c9b-4159-9d9b-4f8d5cc5647b"},"vehicle_type_id":"4","last_reported":1742217647,"current_range_meters":10000,"station_id":"ce4bgr92rcd13ifvqc6g","pricing_plan_id":"cebpf4jnsgd1na2vs0mg"},{"bike_id":"5290cf9b-4ec9-4278-897d-dc5057c89e22","system_id":"levelo_inurba_marseille","lat":43.24051,"lon":5.37724,"is_reserved":false,"is_disabled":false,"rental_uris":{"android":"levelo://app?vid=5290cf9b-4ec9-4278-897d-dc5057c89e22","ios":"levelo://app?vid=5290cf9b-4ec9-4278-897d-dc5057c89e22"},"vehicle_type_id":"4","last_reported":1742217647,"current_range_meters":10000,"station_id":"ce4bhnp2rcd13ifvqgvg","pricing_plan_id":"cebpf4jnsgd1na2vs0mg"},{"bike_id":"e4729e80-6ebe-4a50-a0c4-6223ad1758ad","system_id":"levelo_inurba_marseille","lat":43.29008,"lon":5.35599,"is_reserved":false,"is_disabled":false,"rental_uris":{"android":"levelo://app?vid=e4729e80-6ebe-4a50-a0c4-6223ad1758ad","ios":"levelo://app?vid=e4729e80-6ebe-4a50-a0c4-6223ad1758ad"},"vehicle_type_id":"4","last_reported":1742217647,"current_range_meters":10800,"station_id":"ce4bhb92rcd13ifvqen0","pricing_plan_id":"cebpf4jnsgd1na2vs0mg"},{"bike_id":"70cae1f3-5abb-4f8b-b484-647e3631bfaa","system_id":"levelo_inurba_marseille","lat":43.28155,"lon":5.4267,"is_reserved":false,"is_disabled":false,"rental_uris":{"android":"levelo://app?vid=70cae1f3-5abb-4f8b-b484-647e3631bfaa","ios":"levelo://app?vid=70cae1f3-5abb-4f8b-b484-647e3631bfaa"},"vehicle_type_id":"4","last_reported":1742217647,"current_range_meters":10000,"station_id":"ce4bhnh2rcd13ifvqgug","pricing_plan_id":"cebpf4jnsgd1na2vs0mg"},{"bike_id":"fa5f15ab-8994-45e1-84de-31aa4c8b3ced","system_id":"levelo_inurba_marseille","lat":43.23194,"lon":5.35558,"is_reserved":false,"is_disabled":false,"rental_uris":{"android":"levelo://app?vid=fa5f15ab-8994-45e1-84de-31aa4c8b3ced","ios":"levelo://app?vid=fa5f15ab-8994-45e1-84de-31aa4c8b3ced"},"vehicle_type_id":"4","last_reported":1742217647,"current_range_meters":10000,"station_id":"ce4bhu92rcd13ifvqi70","pricing_plan_id":"cebpf4jnsgd1na2vs0mg"},{"bike_id":"f8592d8e-8510-4e2c-9aa0-4589df657211","system_id":"levelo_inurba_marseille","lat":43.29301,"lon":5.3746,"is_reserved":false,"is_disabled":false,"rental_uris":{"android":"levelo://app?vid=f8592d8e-8510-4e2c-9aa0-4589df657211","ios":"levelo://app?vid=f8592d8e-8510-4e2c-9aa0-4589df657211"},"vehicle_type_id":"4","last_reported":1742217647,"current_range_meters":10000,"station_id":"ce4bgi12rcd13ifvqb70","pricing_plan_id":"cebpf4jnsgd1na2vs0mg"},{"bike_id":"01704ef1-d72e-4237-b336-b600e39559e9","system_id":"levelo_inurba_marseille","lat":43.29714,"lon":5.36611,"is_reserved":false,"is_disabled":false,"rental_uris":{"android":"levelo://app?vid=01704ef1-d72e-4237-b336-b600e39559e9","ios":"levelo://app?vid=01704ef1-d72e-4237-b336-b600e39559e9"},"vehicle_type_id":"4","last_reported":1742217647,"current_range_meters":10000,"station_id":"ce4bgn12rcd13ifvqbt0","pricing_plan_id":"cebpf4jnsgd1na2vs0mg"},{"bike_id":"de1b7e62-8d5c-4c27-ab69-ab3656bad2d0","system_id":"levelo_inurba_marseille","lat":43.29848,"lon":5.36266,"is_reserved":false,"is_disabled":false,"rental_uris":{"android":"levelo://app?vid=de1b7e62-8d5c-4c27-ab69-ab3656bad2d0","ios":"levelo://app?vid=de1b7e62-8d5c-4c27-ab69-ab3656bad2d0"},"vehicle_type_id":"4","last_reported":1742217647,"current_range_meters":10000,"station_id":"ce4bgpp2rcd13ifvqc3g","pricing_plan_id":"cebpf4jnsgd1na2vs0mg"},{"bike_id":"3af385d1-ed7e-4da2-992d-bbbbe658eef2","system_id":"levelo_inurba_marseille","lat":43.24808,"lon":5.37465,"is_reserved":false,"is_disabled":false,"rental_uris":{"android":"levelo://app?vid=3af385d1-ed7e-4da2-992d-bbbbe658eef2","ios":"levelo://app?vid=3af385d1-ed7e-4da2-992d-bbbbe658eef2"},"vehicle_type_id":"4","last_reported":1742217647,"current_range_meters":10000,"station_id":"ce4bhgh2rcd13ifvqfb0","pricing_plan_id":"cebpf4jnsgd1na2vs0mg"},{"bike_id":"4b30209a-21ec-4c6b-a71b-f9ce8a87487b","system_id":"levelo_inurba_marseille","lat":43.29021,"lon":5.35563,"is_reserved":false,"is_disabled":false,"rental_uris":{"android":"levelo://app?vid=4b30209a-21ec-4c6b-a71b-f9ce8a87487b","ios":"levelo://app?vid=4b30209a-21ec-4c6b-a71b-f9ce8a87487b"},"vehicle_type_id":"4","last_reported":1742217647,"current_range_meters":10000,"station_id":"ce4bhb92rcd13ifvqen0","pricing_plan_id":"cebpf4jnsgd1na2vs0mg"},{"bike_id":"4c9ce101-6311-4f50-a93b-22fe0b11a9b9","system_id":"levelo_inurba_marseille","lat":43.25728,"lon":5.41111,"is_reserved":false,"is_disabled":false,"rental_uris":{"android":"levelo://app?vid=4c9ce101-6311-4f50-a93b-22fe0b11a9b9","ios":"levelo://app?vid=4c9ce101-6311-4f50-a93b-22fe0b11a9b9"},"vehicle_type_id":"4","last_reported":1742217647,"current_range_meters":10000,"station_id":"ce4bhkp2rcd13ifvqgd0","pricing_plan_id":"cebpf4jnsgd1na2vs0mg"},{"bike_id":"4d37376e-5944-402f-8fbb-7d0f48a208aa","system_id":"levelo_inurba_marseille","lat":43.3237,"lon":5.36756,"is_reserved":false,"is_disabled":false,"rental_uris":{"android":"levelo://app?vid=4d37376e-5944-402f-8fbb-7d0f48a208aa","ios":"levelo://app?vid=4d37376e-5944-402f-8fbb-7d0f48a208aa"},"vehicle_type_id":"4","last_reported":1742217647,"current_range_meters":10000,"station_id":"ce4bhsh2rcd13ifvqi2g","pricing_plan_id":"cebpf4jnsgd1na2vs0mg"},{"bike_id":"e4018e7f-984a-4a81-8c81-0a0b88277d4f","system_id":"levelo_inurba_marseille","lat":43.27495,"lon":5.42455,"is_reserved":false,"is_disabled":false,"rental_uris":{"android":"levelo://app?vid=e4018e7f-984a-4a81-8c81-0a0b88277d4f","ios":"levelo://app?vid=e4018e7f-984a-4a81-8c81-0a0b88277d4f"},"vehicle_type_id":"4","last_reported":1742217647,"current_range_meters":10000,"station_id":"ce4bhn92rcd13ifvqgrg","pricing_plan_id":"cebpf4jnsgd1na2vs0mg"},{"bike_id":"1460fbd7-6c3d-45e9-b958-6c76133910f5","system_id":"levelo_inurba_marseille","lat":43.29595,"lon":5.38097,"is_reserved":false,"is_disabled":false,"rental_uris":{"android":"levelo://app?vid=1460fbd7-6c3d-45e9-b958-6c76133910f5","ios":"levelo://app?vid=1460fbd7-6c3d-45e9-b958-6c76133910f5"},"vehicle_type_id":"4","last_reported":1742217647,"current_range_meters":11200,"station_id":"ce4bgl12rcd13ifvqbo0","pricing_plan_id":"cebpf4jnsgd1na2vs0mg"},{"bike_id":"6be5c534-e78c-44ce-a796-ecbfa18631e5","system_id":"levelo_inurba_marseille","lat":43.32541,"lon":5.41424,"is_reserved":false,"is_disabled":false,"rental_uris":{"android":"levelo://app?vid=6be5c534-e78c-44ce-a796-ecbfa18631e5","ios":"levelo://app?vid=6be5c534-e78c-44ce-a796-ecbfa18631e5"},"vehicle_type_id":"4","last_reported":1742217647,"current_range_meters":10800,"station_id":"ce4bhq12rcd13ifvqhhg","pricing_plan_id":"cebpf4jnsgd1na2vs0mg"},{"bike_id":"703447d3-0a6e-4767-a0f7-81222e2c6326","system_id":"levelo_inurba_marseille","lat":43.28165,"lon":5.42627,"is_reserved":false,"is_disabled":false,"rental_uris":{"android":"levelo://app?vid=703447d3-0a6e-4767-a0f7-81222e2c6326","ios":"levelo://app?vid=703447d3-0a6e-4767-a0f7-81222e2c6326"},"vehicle_type_id":"4","last_reported":1742217647,"current_range_meters":10800,"station_id":"ce4bhnh2rcd13ifvqgug","pricing_plan_id":"cebpf4jnsgd1na2vs0mg"},{"bike_id":"d155b6d7-4f04-4869-a663-a1baa5b8f97e","system_id":"levelo_inurba_marseille","lat":43.231964,"lon":5.355619,"is_reserved":false,"is_disabled":false,"rental_uris":{"android":"levelo://app?vid=d155b6d7-4f04-4869-a663-a1baa5b8f97e","ios":"levelo://app?vid=d155b6d7-4f04-4869-a663-a1baa5b8f97e"},"vehicle_type_id":"4","last_reported":1742217647,"current_range_meters":10800,"station_id":"ce4bhu92rcd13ifvqi70","pricing_plan_id":"cebpf4jnsgd1na2vs0mg"},{"bike_id":"d7eda30e-0b17-4e75-a771-115d48ffa128","system_id":"levelo_inurba_marseille","lat":43.32551,"lon":5.41435,"is_reserved":false,"is_disabled":false,"rental_uris":{"android":"levelo://app?vid=d7eda30e-0b17-4e75-a771-115d48ffa128","ios":"levelo://app?vid=d7eda30e-0b17-4e75-a771-115d48ffa128"},"vehicle_type_id":"4","last_reported":1742217647,"current_range_meters":11200,"station_id":"ce4bhq12rcd13ifvqhhg","pricing_plan_id":"cebpf4jnsgd1na2vs0mg"},{"bike_id":"209295ac-02c1-4000-90fe-83130498d382","system_id":"levelo_inurba_marseille","lat":43.28666,"lon":5.3635,"is_reserved":false,"is_disabled":false,"rental_uris":{"android":"levelo://app?vid=209295ac-02c1-4000-90fe-83130498d382","ios":"levelo://app?vid=209295ac-02c1-4000-90fe-83130498d382"},"vehicle_type_id":"4","last_reported":1742217647,"current_range_meters":10000,"station_id":"ce4bhah2rcd13ifvqej0","pricing_plan_id":"cebpf4jnsgd1na2vs0mg"},{"bike_id":"fdd56a3e-db28-485a-ba53-21439e7aa6ca","system_id":"levelo_inurba_marseille","lat":43.23151,"lon":5.43722,"is_reserved":false,"is_disabled":false,"rental_uris":{"android":"levelo://app?vid=fdd56a3e-db28-485a-ba53-21439e7aa6ca","ios":"levelo://app?vid=fdd56a3e-db28-485a-ba53-21439e7aa6ca"},"vehicle_type_id":"4","last_reported":1742217647,"current_range_meters":10800,"station_id":"ce4bhmp2rcd13ifvqgog","pricing_plan_id":"cebpf4jnsgd1na2vs0mg"},{"bike_id":"b55321be-5e7f-4c9c-a34e-5267160bc086","system_id":"levelo_inurba_marseille","lat":43.2894,"lon":5.38407,"is_reserved":false,"is_disabled":false,"rental_uris":{"android":"levelo://app?vid=b55321be-5e7f-4c9c-a34e-5267160bc086","ios":"levelo://app?vid=b55321be-5e7f-4c9c-a34e-5267160bc086"},"vehicle_type_id":"4","last_reported":1742217647,"current_range_meters":9600,"station_id":"ce4bh612rcd13ifvqe6g","pricing_plan_id":"cebpf4jnsgd1na2vs0mg"},{"bike_id":"06120ea7-2990-43e5-9eb1-dcd086d95c02","system_id":"levelo_inurba_marseille","lat":43.26556,"lon":5.37288,"is_reserved":false,"is_disabled":false,"rental_uris":{"android":"levelo://app?vid=06120ea7-2990-43e5-9eb1-dcd086d95c02","ios":"levelo://app?vid=06120ea7-2990-43e5-9eb1-dcd086d95c02"},"vehicle_type_id":"4","last_reported":1742217647,"current_range_meters":10800,"station_id":"ce4bhg12rcd13ifvqf70","pricing_plan_id":"cebpf4jnsgd1na2vs0mg"},{"bike_id":"00620a36-546f-4468-8a2c-399aef8da33b","system_id":"levelo_inurba_marseille","lat":43.28161,"lon":5.42654,"is_reserved":false,"is_disabled":false,"rental_uris":{"android":"levelo://app?vid=00620a36-546f-4468-8a2c-399aef8da33b","ios":"levelo://app?vid=00620a36-546f-4468-8a2c-399aef8da33b"},"vehicle_type_id":"4","last_reported":1742217647,"current_range_meters":10800,"station_id":"ce4bhnh2rcd13ifvqgug","pricing_plan_id":"cebpf4jnsgd1na2vs0mg"},{"bike_id":"aec1e65c-daab-454b-8910-46f19c20e587","system_id":"levelo_inurba_marseille","lat":43.25919,"lon":5.40906,"is_reserved":false,"is_disabled":false,"rental_uris":{"android":"levelo://app?vid=aec1e65c-daab-454b-8910-46f19c20e587","ios":"levelo://app?vid=aec1e65c-daab-454b-8910-46f19c20e587"},"vehicle_type_id":"4","last_reported":1742217647,"current_range_meters":10800,"station_id":"ce4bhm92rcd13ifvqglg","pricing_plan_id":"cebpf4jnsgd1na2vs0mg"},{"bike_id":"745bf1fb-b506-4d10-bdd8-60b8592e170b","system_id":"levelo_inurba_marseille","lat":43.27983,"lon":5.38747,"is_reserved":false,"is_disabled":false,"rental_uris":{"android":"levelo://app?vid=745bf1fb-b506-4d10-bdd8-60b8592e170b","ios":"levelo://app?vid=745bf1fb-b506-4d10-bdd8-60b8592e170b"},"vehicle_type_id":"4","last_reported":1742217647,"current_range_meters":11200,"station_id":"ce4bhg12rcd13ifvqf80","pricing_plan_id":"cebpf4jnsgd1na2vs0mg"},{"bike_id":"b1b41327-66f3-4983-ac80-93a6af2a034d","system_id":"levelo_inurba_marseille","lat":43.23083,"lon":5.35488,"is_reserved":false,"is_disabled":false,"rental_uris":{"android":"levelo://app?vid=b1b41327-66f3-4983-ac80-93a6af2a034d","ios":"levelo://app?vid=b1b41327-66f3-4983-ac80-93a6af2a034d"},"vehicle_type_id":"4","last_reported":1742217647,"current_range_meters":11200,"station_id":"cpo3342slgdg3j2ifvpg","pricing_plan_id":"cebpf4jnsgd1na2vs0mg"},{"bike_id":"fddb55d4-2f6d-458b-a063-69a98e83f2fb","system_id":"levelo_inurba_marseille","lat":43.24172,"lon":5.39718,"is_reserved":false,"is_disabled":false,"rental_uris":{"android":"levelo://app?vid=fddb55d4-2f6d-458b-a063-69a98e83f2fb","ios":"levelo://app?vid=fddb55d4-2f6d-458b-a063-69a98e83f2fb"},"vehicle_type_id":"4","last_reported":1742217647,"current_range_meters":11200,"station_id":"ce4bhn12rcd13ifvqgpg","pricing_plan_id":"cebpf4jnsgd1na2vs0mg"},{"bike_id":"c5c89790-9e08-4f14-863a-9a50df7240d9","system_id":"levelo_inurba_marseille","lat":43.29847,"lon":5.36271,"is_reserved":false,"is_disabled":false,"rental_uris":{"android":"levelo://app?vid=c5c89790-9e08-4f14-863a-9a50df7240d9","ios":"levelo://app?vid=c5c89790-9e08-4f14-863a-9a50df7240d9"},"vehicle_type_id":"4","last_reported":1742217647,"current_range_meters":11200,"station_id":"ce4bgpp2rcd13ifvqc3g","pricing_plan_id":"cebpf4jnsgd1na2vs0mg"},{"bike_id":"3d5016d1-6687-4220-aa49-28bbd107ce48","system_id":"levelo_inurba_marseille","lat":43.25912,"lon":5.4089,"is_reserved":false,"is_disabled":false,"rental_uris":{"android":"levelo://app?vid=3d5016d1-6687-4220-aa49-28bbd107ce48","ios":"levelo://app?vid=3d5016d1-6687-4220-aa49-28bbd107ce48"},"vehicle_type_id":"4","last_reported":1742217647,"current_range_meters":11200,"station_id":"ce4bhm92rcd13ifvqglg","pricing_plan_id":"cebpf4jnsgd1na2vs0mg"},{"bike_id":"1e6bba5d-5a6b-47c1-964a-fc01f3515e69","system_id":"levelo_inurba_marseille","lat":43.23147,"lon":5.4371,"is_reserved":false,"is_disabled":false,"rental_uris":{"android":"levelo://app?vid=1e6bba5d-5a6b-47c1-964a-fc01f3515e69","ios":"levelo://app?vid=1e6bba5d-5a6b-47c1-964a-fc01f3515e69"},"vehicle_type_id":"4","last_reported":1742217647,"current_range_meters":11200,"station_id":"ce4bhmp2rcd13ifvqgog","pricing_plan_id":"cebpf4jnsgd1na2vs0mg"},{"bike_id":"cb155ed2-94cd-4561-91d1-e32e534c079a","system_id":"levelo_inurba_marseille","lat":43.32492,"lon":5.36579,"is_reserved":false,"is_disabled":false,"rental_uris":{"android":"levelo://app?vid=cb155ed2-94cd-4561-91d1-e32e534c079a","ios":"levelo://app?vid=cb155ed2-94cd-4561-91d1-e32e534c079a"},"vehicle_type_id":"4","last_reported":1742217647,"current_range_meters":11200,"station_id":"ce4bhs12rcd13ifvqhvg","pricing_plan_id":"cebpf4jnsgd1na2vs0mg"},{"bike_id":"67d70f56-5fd7-4f91-99f3-d829519aef53","system_id":"levelo_inurba_marseille","lat":43.25582,"lon":5.38224,"is_reserved":false,"is_disabled":false,"rental_uris":{"android":"levelo://app?vid=67d70f56-5fd7-4f91-99f3-d829519aef53","ios":"levelo://app?vid=67d70f56-5fd7-4f91-99f3-d829519aef53"},"vehicle_type_id":"4","last_reported":1742217647,"current_range_meters":10800,"station_id":"ce4bhih2rcd13ifvqfs0","pricing_plan_id":"cebpf4jnsgd1na2vs0mg"},{"bike_id":"fdff2ba3-7461-4cff-b875-77cc2a2df3f9","system_id":"levelo_inurba_marseille","lat":43.24169,"lon":5.36399,"is_reserved":false,"is_disabled":false,"rental_uris":{"android":"levelo://app?vid=fdff2ba3-7461-4cff-b875-77cc2a2df3f9","ios":"levelo://app?vid=fdff2ba3-7461-4cff-b875-77cc2a2df3f9"},"vehicle_type_id":"4","last_reported":1742217647,"current_range_meters":11200,"station_id":"cpo36qri1sfpv3e86is0","pricing_plan_id":"cebpf4jnsgd1na2vs0mg"},{"bike_id":"0d3accb9-853e-4df0-b9d8-4607b8048f46","system_id":"levelo_inurba_marseille","lat":43.24167,"lon":5.36393,"is_reserved":false,"is_disabled":false,"rental_uris":{"android":"levelo://app?vid=0d3accb9-853e-4df0-b9d8-4607b8048f46","ios":"levelo://app?vid=0d3accb9-853e-4df0-b9d8-4607b8048f46"},"vehicle_type_id":"4","last_reported":1742217647,"current_range_meters":11200,"station_id":"cpo36qri1sfpv3e86is0","pricing_plan_id":"cebpf4jnsgd1na2vs0mg"},{"bike_id":"6f269e2d-5984-437a-a538-7f120c4fc7dd","system_id":"levelo_inurba_marseille","lat":43.23059,"lon":5.35496,"is_reserved":false,"is_disabled":false,"rental_uris":{"android":"levelo://app?vid=6f269e2d-5984-437a-a538-7f120c4fc7dd","ios":"levelo://app?vid=6f269e2d-5984-437a-a538-7f120c4fc7dd"},"vehicle_type_id":"4","last_reported":1742217647,"current_range_meters":11200,"station_id":"cpo3342slgdg3j2ifvpg","pricing_plan_id":"cebpf4jnsgd1na2vs0mg"},{"bike_id":"8fe7e33b-57fc-439c-ba02-015988635c80","system_id":"levelo_inurba_marseille","lat":43.27092,"lon":5.42284,"is_reserved":false,"is_disabled":true,"rental_uris":{"android":"levelo://app?vid=8fe7e33b-57fc-439c-ba02-015988635c80","ios":"levelo://app?vid=8fe7e33b-57fc-439c-ba02-015988635c80"},"vehicle_type_id":"4","last_reported":1742217647,"current_range_meters":11200,"station_id":"ce4bhk92rcd13ifvqgb0","pricing_plan_id":"cebpf4jnsgd1na2vs0mg"},{"bike_id":"286da521-aa1d-485a-8adb-321b712ff550","system_id":"levelo_inurba_marseille","lat":43.23151,"lon":5.43719,"is_reserved":false,"is_disabled":false,"rental_uris":{"android":"levelo://app?vid=286da521-aa1d-485a-8adb-321b712ff550","ios":"levelo://app?vid=286da521-aa1d-485a-8adb-321b712ff550"},"vehicle_type_id":"4","last_reported":1742217647,"current_range_meters":11200,"station_id":"ce4bhmp2rcd13ifvqgog","pricing_plan_id":"cebpf4jnsgd1na2vs0mg"},{"bike_id":"e891484b-d037-4d24-8eaa-aee233e0de52","system_id":"levelo_inurba_marseille","lat":43.30012,"lon":5.39727,"is_reserved":false,"is_disabled":false,"rental_uris":{"android":"levelo://app?vid=e891484b-d037-4d24-8eaa-aee233e0de52","ios":"levelo://app?vid=e891484b-d037-4d24-8eaa-aee233e0de52"},"vehicle_type_id":"4","last_reported":1742217647,"current_range_meters":11200,"station_id":"ce4bh3h2rcd13ifvqdo0","pricing_plan_id":"cebpf4jnsgd1na2vs0mg"},{"bike_id":"50d5a895-aeab-4551-8d24-4548fb8a1c51","system_id":"levelo_inurba_marseille","lat":43.2791,"lon":5.38016,"is_reserved":false,"is_disabled":false,"rental_uris":{"android":"levelo://app?vid=50d5a895-aeab-4551-8d24-4548fb8a1c51","ios":"levelo://app?vid=50d5a895-aeab-4551-8d24-4548fb8a1c51"},"vehicle_type_id":"4","last_reported":1742217647,"current_range_meters":11600,"station_id":"ce4bhf92rcd13ifvqf50","pricing_plan_id":"cebpf4jnsgd1na2vs0mg"},{"bike_id":"be16e40a-5767-44ed-aa75-2a81c0e433d3","system_id":"levelo_inurba_marseille","lat":43.32535,"lon":5.41473,"is_reserved":false,"is_disabled":false,"rental_uris":{"android":"levelo://app?vid=be16e40a-5767-44ed-aa75-2a81c0e433d3","ios":"levelo://app?vid=be16e40a-5767-44ed-aa75-2a81c0e433d3"},"vehicle_type_id":"4","last_reported":1742217647,"current_range_meters":11600,"station_id":"ce4bhq12rcd13ifvqhhg","pricing_plan_id":"cebpf4jnsgd1na2vs0mg"},{"bike_id":"43a2a964-6a95-46a9-9281-21b762125c1c","system_id":"levelo_inurba_marseille","lat":43.28356,"lon":5.38103,"is_reserved":false,"is_disabled":false,"rental_uris":{"android":"levelo://app?vid=43a2a964-6a95-46a9-9281-21b762125c1c","ios":"levelo://app?vid=43a2a964-6a95-46a9-9281-21b762125c1c"},"vehicle_type_id":"4","last_reported":1742217647,"current_range_meters":11200,"station_id":"ce4bh412rcd13ifvqdr0","pricing_plan_id":"cebpf4jnsgd1na2vs0mg"},{"bike_id":"e5314b9e-4031-4979-b91b-763bb4fd48e9","system_id":"levelo_inurba_marseille","lat":43.29989,"lon":5.37181,"is_reserved":false,"is_disabled":false,"rental_uris":{"android":"levelo://app?vid=e5314b9e-4031-4979-b91b-763bb4fd48e9","ios":"levelo://app?vid=e5314b9e-4031-4979-b91b-763bb4fd48e9"},"vehicle_type_id":"4","last_reported":1742217647,"current_range_meters":11600,"station_id":"ce4bgr92rcd13ifvqc7g","pricing_plan_id":"cebpf4jnsgd1na2vs0mg"},{"bike_id":"2665cc4b-07ed-4ae6-a66f-2b09983c709d","system_id":"levelo_inurba_marseille","lat":43.33761,"lon":5.37489,"is_reserved":false,"is_disabled":false,"rental_uris":{"android":"levelo://app?vid=2665cc4b-07ed-4ae6-a66f-2b09983c709d","ios":"levelo://app?vid=2665cc4b-07ed-4ae6-a66f-2b09983c709d"},"vehicle_type_id":"4","last_reported":1742217647,"current_range_meters":11600,"station_id":"","pricing_plan_id":"cebpf4jnsgd1na2vs0mg"},{"bike_id":"c91b0f0d-47ab-4fc4-93f9-5e2a4fe252a9","system_id":"levelo_inurba_marseille","lat":43.28555,"lon":5.39504,"is_reserved":false,"is_disabled":false,"rental_uris":{"android":"levelo://app?vid=c91b0f0d-47ab-4fc4-93f9-5e2a4fe252a9","ios":"levelo://app?vid=c91b0f0d-47ab-4fc4-93f9-5e2a4fe252a9"},"vehicle_type_id":"4","last_reported":1742217647,"current_range_meters":10800,"station_id":"ce4bh292rcd13ifvqdg0","pricing_plan_id":"cebpf4jnsgd1na2vs0mg"},{"bike_id":"046e0e11-6582-455c-a5b9-ec2710b17d1d","system_id":"levelo_inurba_marseille","lat":43.28942,"lon":5.39625,"is_reserved":false,"is_disabled":false,"rental_uris":{"android":"levelo://app?vid=046e0e11-6582-455c-a5b9-ec2710b17d1d","ios":"levelo://app?vid=046e0e11-6582-455c-a5b9-ec2710b17d1d"},"vehicle_type_id":"4","last_reported":1742217647,"current_range_meters":11600,"station_id":"ce4bh3h2rcd13ifvqdn0","pricing_plan_id":"cebpf4jnsgd1na2vs0mg"},{"bike_id":"7a8a8ccb-b5ee-4bab-9535-af226cc12302","system_id":"levelo_inurba_marseille","lat":43.29072,"lon":5.42356,"is_reserved":false,"is_disabled":false,"rental_uris":{"android":"levelo://app?vid=7a8a8ccb-b5ee-4bab-9535-af226cc12302","ios":"levelo://app?vid=7a8a8ccb-b5ee-4bab-9535-af226cc12302"},"vehicle_type_id":"4","last_reported":1742217647,"current_range_meters":11600,"station_id":"","pricing_plan_id":"cebpf4jnsgd1na2vs0mg"},{"bike_id":"593f0f80-f0f8-4be5-90a3-684a7f8897bf","system_id":"levelo_inurba_marseille","lat":43.25921,"lon":5.40896,"is_reserved":false,"is_disabled":false,"rental_uris":{"android":"levelo://app?vid=593f0f80-f0f8-4be5-90a3-684a7f8897bf","ios":"levelo://app?vid=593f0f80-f0f8-4be5-90a3-684a7f8897bf"},"vehicle_type_id":"4","last_reported":1742217647,"current_range_meters":11600,"station_id":"ce4bhm92rcd13ifvqglg","pricing_plan_id":"cebpf4jnsgd1na2vs0mg"},{"bike_id":"67d3102b-c6e8-4de1-ad4d-8c59c3584187","system_id":"levelo_inurba_marseille","lat":43.32535,"lon":5.41447,"is_reserved":false,"is_disabled":false,"rental_uris":{"android":"levelo://app?vid=67d3102b-c6e8-4de1-ad4d-8c59c3584187","ios":"levelo://app?vid=67d3102b-c6e8-4de1-ad4d-8c59c3584187"},"vehicle_type_id":"4","last_reported":1742217647,"current_range_meters":11600,"station_id":"ce4bhq12rcd13ifvqhhg","pricing_plan_id":"cebpf4jnsgd1na2vs0mg"},{"bike_id":"ba17eb78-f062-4f77-b8b0-1a4a31d62a9e","system_id":"levelo_inurba_marseille","lat":43.25719,"lon":5.41088,"is_reserved":false,"is_disabled":true,"rental_uris":{"android":"levelo://app?vid=ba17eb78-f062-4f77-b8b0-1a4a31d62a9e","ios":"levelo://app?vid=ba17eb78-f062-4f77-b8b0-1a4a31d62a9e"},"vehicle_type_id":"4","last_reported":1742217647,"current_range_meters":11600,"station_id":"ce4bhkp2rcd13ifvqgd0","pricing_plan_id":"cebpf4jnsgd1na2vs0mg"},{"bike_id":"912ac4d8-5298-419b-a9a5-9d89bc22bdbe","system_id":"levelo_inurba_marseille","lat":43.27316,"lon":5.3909,"is_reserved":false,"is_disabled":false,"rental_uris":{"android":"levelo://app?vid=912ac4d8-5298-419b-a9a5-9d89bc22bdbe","ios":"levelo://app?vid=912ac4d8-5298-419b-a9a5-9d89bc22bdbe"},"vehicle_type_id":"4","last_reported":1742217647,"current_range_meters":11200,"station_id":"ce4bhgp2rcd13ifvqfe0","pricing_plan_id":"cebpf4jnsgd1na2vs0mg"},{"bike_id":"2ad812b8-7202-46c8-add0-fc37ecf23044","system_id":"levelo_inurba_marseille","lat":43.28728,"lon":5.37299,"is_reserved":false,"is_disabled":false,"rental_uris":{"android":"levelo://app?vid=2ad812b8-7202-46c8-add0-fc37ecf23044","ios":"levelo://app?vid=2ad812b8-7202-46c8-add0-fc37ecf23044"},"vehicle_type_id":"4","last_reported":1742217647,"current_range_meters":12000,"station_id":"ce4bh3p2rcd13ifvqdq0","pricing_plan_id":"cebpf4jnsgd1na2vs0mg"},{"bike_id":"5c07f3ca-a9f9-47ce-89e2-28a4e4e57955","system_id":"levelo_inurba_marseille","lat":43.26577,"lon":5.39043,"is_reserved":false,"is_disabled":false,"rental_uris":{"android":"levelo://app?vid=5c07f3ca-a9f9-47ce-89e2-28a4e4e57955","ios":"levelo://app?vid=5c07f3ca-a9f9-47ce-89e2-28a4e4e57955"},"vehicle_type_id":"4","last_reported":1742217647,"current_range_meters":12000,"station_id":"ce4bhe12rcd13ifvqf30","pricing_plan_id":"cebpf4jnsgd1na2vs0mg"},{"bike_id":"7ba1e3fe-e301-487b-a701-faf19b9271bc","system_id":"levelo_inurba_marseille","lat":43.25846,"lon":5.40984,"is_reserved":false,"is_disabled":false,"rental_uris":{"android":"levelo://app?vid=7ba1e3fe-e301-487b-a701-faf19b9271bc","ios":"levelo://app?vid=7ba1e3fe-e301-487b-a701-faf19b9271bc"},"vehicle_type_id":"4","last_reported":1742217647,"current_range_meters":12000,"station_id":"","pricing_plan_id":"cebpf4jnsgd1na2vs0mg"},{"bike_id":"d990743a-3b81-40cd-acf4-2d2a5513326c","system_id":"levelo_inurba_marseille","lat":43.32466,"lon":5.36571,"is_reserved":false,"is_disabled":false,"rental_uris":{"android":"levelo://app?vid=d990743a-3b81-40cd-acf4-2d2a5513326c","ios":"levelo://app?vid=d990743a-3b81-40cd-acf4-2d2a5513326c"},"vehicle_type_id":"4","last_reported":1742217647,"current_range_meters":12000,"station_id":"ce4bhs12rcd13ifvqhvg","pricing_plan_id":"cebpf4jnsgd1na2vs0mg"},{"bike_id":"d26a309c-0c38-479d-a3b1-6466685e919d","system_id":"levelo_inurba_marseille","lat":43.29952,"lon":5.36489,"is_reserved":false,"is_disabled":false,"rental_uris":{"android":"levelo://app?vid=d26a309c-0c38-479d-a3b1-6466685e919d","ios":"levelo://app?vid=d26a309c-0c38-479d-a3b1-6466685e919d"},"vehicle_type_id":"4","last_reported":1742217647,"current_range_meters":12000,"station_id":"","pricing_plan_id":"cebpf4jnsgd1na2vs0mg"},{"bike_id":"cb151f2f-c8d4-493c-8040-3bc4d320acac","system_id":"levelo_inurba_marseille","lat":43.30796,"lon":5.38161,"is_reserved":false,"is_disabled":true,"rental_uris":{"android":"levelo://app?vid=cb151f2f-c8d4-493c-8040-3bc4d320acac","ios":"levelo://app?vid=cb151f2f-c8d4-493c-8040-3bc4d320acac"},"vehicle_type_id":"4","last_reported":1742217647,"current_range_meters":12000,"station_id":"ce4bgt12rcd13ifvqce0","pricing_plan_id":"cebpf4jnsgd1na2vs0mg"},{"bike_id":"8a65cfcd-66b5-48eb-a18f-bd5ef9f3d6b5","system_id":"levelo_inurba_marseille","lat":43.27204,"lon":5.39181,"is_reserved":false,"is_disabled":false,"rental_uris":{"android":"levelo://app?vid=8a65cfcd-66b5-48eb-a18f-bd5ef9f3d6b5","ios":"levelo://app?vid=8a65cfcd-66b5-48eb-a18f-bd5ef9f3d6b5"},"vehicle_type_id":"4","last_reported":1742217647,"current_range_meters":12000,"station_id":"ce4bhhp2rcd13ifvqfm0","pricing_plan_id":"cebpf4jnsgd1na2vs0mg"},{"bike_id":"c251d167-5c53-460b-a6c9-dec3c8741eaf","system_id":"levelo_inurba_marseille","lat":43.27507,"lon":5.42444,"is_reserved":false,"is_disabled":false,"rental_uris":{"android":"levelo://app?vid=c251d167-5c53-460b-a6c9-dec3c8741eaf","ios":"levelo://app?vid=c251d167-5c53-460b-a6c9-dec3c8741eaf"},"vehicle_type_id":"4","last_reported":1742217647,"current_range_meters":12000,"station_id":"ce4bhn92rcd13ifvqgrg","pricing_plan_id":"cebpf4jnsgd1na2vs0mg"},{"bike_id":"8aca1820-8a86-4ff8-94af-a0810b205045","system_id":"levelo_inurba_marseille","lat":43.29915,"lon":5.37475,"is_reserved":false,"is_disabled":false,"rental_uris":{"android":"levelo://app?vid=8aca1820-8a86-4ff8-94af-a0810b205045","ios":"levelo://app?vid=8aca1820-8a86-4ff8-94af-a0810b205045"},"vehicle_type_id":"4","last_reported":1742217647,"current_range_meters":12000,"station_id":"ce4bgjh2rcd13ifvqbg0","pricing_plan_id":"cebpf4jnsgd1na2vs0mg"},{"bike_id":"5506b406-3ff3-4719-be12-35f92911cc84","system_id":"levelo_inurba_marseille","lat":43.24074,"lon":5.37746,"is_reserved":false,"is_disabled":false,"rental_uris":{"android":"levelo://app?vid=5506b406-3ff3-4719-be12-35f92911cc84","ios":"levelo://app?vid=5506b406-3ff3-4719-be12-35f92911cc84"},"vehicle_type_id":"4","last_reported":1742217647,"current_range_meters":12000,"station_id":"ce4bhnp2rcd13ifvqgvg","pricing_plan_id":"cebpf4jnsgd1na2vs0mg"},{"bike_id":"acb56ef8-5666-4e7e-89de-c1c09910662b","system_id":"levelo_inurba_marseille","lat":43.25084,"lon":5.39514,"is_reserved":false,"is_disabled":false,"rental_uris":{"android":"levelo://app?vid=acb56ef8-5666-4e7e-89de-c1c09910662b","ios":"levelo://app?vid=acb56ef8-5666-4e7e-89de-c1c09910662b"},"vehicle_type_id":"4","last_reported":1742217647,"current_range_meters":12400,"station_id":"ce4bhm12rcd13ifvqgkg","pricing_plan_id":"cebpf4jnsgd1na2vs0mg"},{"bike_id":"9dcb622a-e621-4cef-b659-02a845217b91","system_id":"levelo_inurba_marseille","lat":43.32368,"lon":5.38889,"is_reserved":false,"is_disabled":false,"rental_uris":{"android":"levelo://app?vid=9dcb622a-e621-4cef-b659-02a845217b91","ios":"levelo://app?vid=9dcb622a-e621-4cef-b659-02a845217b91"},"vehicle_type_id":"4","last_reported":1742217647,"current_range_meters":12400,"station_id":"ce4bhqp2rcd13ifvqhog","pricing_plan_id":"cebpf4jnsgd1na2vs0mg"},{"bike_id":"8826fe7c-d97b-4817-9555-04b6da7b8307","system_id":"levelo_inurba_marseille","lat":43.25094,"lon":5.39526,"is_reserved":false,"is_disabled":false,"rental_uris":{"android":"levelo://app?vid=8826fe7c-d97b-4817-9555-04b6da7b8307","ios":"levelo://app?vid=8826fe7c-d97b-4817-9555-04b6da7b8307"},"vehicle_type_id":"4","last_reported":1742217647,"current_range_meters":12400,"station_id":"ce4bhm12rcd13ifvqgkg","pricing_plan_id":"cebpf4jnsgd1na2vs0mg"},{"bike_id":"60a9e383-51fc-4536-825f-92ebe39a749e","system_id":"levelo_inurba_marseille","lat":43.26922,"lon":5.38926,"is_reserved":false,"is_disabled":false,"rental_uris":{"android":"levelo://app?vid=60a9e383-51fc-4536-825f-92ebe39a749e","ios":"levelo://app?vid=60a9e383-51fc-4536-825f-92ebe39a749e"},"vehicle_type_id":"4","last_reported":1742217647,"current_range_meters":12400,"station_id":"ce4bhhh2rcd13ifvqfl0","pricing_plan_id":"cebpf4jnsgd1na2vs0mg"},{"bike_id":"de836014-b98c-485c-a2d2-e285e161186e","system_id":"levelo_inurba_marseille","lat":43.30148,"lon":5.37397,"is_reserved":false,"is_disabled":false,"rental_uris":{"android":"levelo://app?vid=de836014-b98c-485c-a2d2-e285e161186e","ios":"levelo://app?vid=de836014-b98c-485c-a2d2-e285e161186e"},"vehicle_type_id":"4","last_reported":1742217647,"current_range_meters":12400,"station_id":"ce4bgs92rcd13ifvqcc0","pricing_plan_id":"cebpf4jnsgd1na2vs0mg"},{"bike_id":"bf53558a-323c-40e3-9c37-ac64ba388e1c","system_id":"levelo_inurba_marseille","lat":43.23962,"lon":5.36634,"is_reserved":false,"is_disabled":false,"rental_uris":{"android":"levelo://app?vid=bf53558a-323c-40e3-9c37-ac64ba388e1c","ios":"levelo://app?vid=bf53558a-323c-40e3-9c37-ac64ba388e1c"},"vehicle_type_id":"4","last_reported":1742217647,"current_range_meters":12400,"station_id":"ce4bhi12rcd13ifvqfp0","pricing_plan_id":"cebpf4jnsgd1na2vs0mg"},{"bike_id":"2ae331a6-cfa7-49d6-83c7-aaaf1c079f8b","system_id":"levelo_inurba_marseille","lat":43.26691,"lon":5.38281,"is_reserved":false,"is_disabled":false,"rental_uris":{"android":"levelo://app?vid=2ae331a6-cfa7-49d6-83c7-aaaf1c079f8b","ios":"levelo://app?vid=2ae331a6-cfa7-49d6-83c7-aaaf1c079f8b"},"vehicle_type_id":"4","last_reported":1742217647,"current_range_meters":12400,"station_id":"ce4bhg92rcd13ifvqf90","pricing_plan_id":"cebpf4jnsgd1na2vs0mg"},{"bike_id":"ee54ac11-db4c-4dd1-9f8e-34ff11e58d2c","system_id":"levelo_inurba_marseille","lat":43.26675,"lon":5.38225,"is_reserved":false,"is_disabled":false,"rental_uris":{"android":"levelo://app?vid=ee54ac11-db4c-4dd1-9f8e-34ff11e58d2c","ios":"levelo://app?vid=ee54ac11-db4c-4dd1-9f8e-34ff11e58d2c"},"vehicle_type_id":"4","last_reported":1742217647,"current_range_meters":12400,"station_id":"ce4bhg92rcd13ifvqf90","pricing_plan_id":"cebpf4jnsgd1na2vs0mg"},{"bike_id":"bb751c44-4140-45b8-b023-3f0e4fb18b86","system_id":"levelo_inurba_marseille","lat":43.30304,"lon":5.37696,"is_reserved":false,"is_disabled":true,"rental_uris":{"android":"levelo://app?vid=bb751c44-4140-45b8-b023-3f0e4fb18b86","ios":"levelo://app?vid=bb751c44-4140-45b8-b023-3f0e4fb18b86"},"vehicle_type_id":"4","last_reported":1742217647,"current_range_meters":12800,"station_id":"ce4bguh2rcd13ifvqcj0","pricing_plan_id":"cebpf4jnsgd1na2vs0mg"},{"bike_id":"434d036b-f569-4a07-960b-f7a1d0862195","system_id":"levelo_inurba_marseille","lat":43.24084,"lon":5.37748,"is_reserved":false,"is_disabled":false,"rental_uris":{"android":"levelo://app?vid=434d036b-f569-4a07-960b-f7a1d0862195","ios":"levelo://app?vid=434d036b-f569-4a07-960b-f7a1d0862195"},"vehicle_type_id":"4","last_reported":1742217647,"current_range_meters":12800,"station_id":"ce4bhnp2rcd13ifvqgvg","pricing_plan_id":"cebpf4jnsgd1na2vs0mg"},{"bike_id":"7ea70f8a-f3e8-47a3-ae01-cb6b0f40d7ee","system_id":"levelo_inurba_marseille","lat":43.28459,"lon":5.35882,"is_reserved":false,"is_disabled":false,"rental_uris":{"android":"levelo://app?vid=7ea70f8a-f3e8-47a3-ae01-cb6b0f40d7ee","ios":"levelo://app?vid=7ea70f8a-f3e8-47a3-ae01-cb6b0f40d7ee"},