{"last_updated":1728983395,"ttl":60,"version":"2.2","data":{"bikes":[{"bike_id":"0f17ba94-61a5-416d-97f8-423171077f45","system_id":"levelo_inurba_marseille","lat":43.30666,"lon":5.38181,"is_reserved":false,"is_disabled":false,"rental_uris":{"android":"levelo://app?vid=0f17ba94-61a5-416d-97f8-423171077f45","ios":"levelo://app?vid=0f17ba94-61a5-416d-97f8-423171077f45"},"vehicle_type_id":"4","last_reported":1728983395,"current_range_meters":32400,"station_id":"","pricing_plan_id":"cebpf4jnsgd1na2vs0mg"},{"bike_id":"ca19aae3-ddc9-46d5-8241-83affcfa7618","system_id":"levelo_inurba_marseille","lat":43.25928,"lon":5.40916,"is_reserved":false,"is_disabled":false,"rental_uris":{"android":"levelo://app?vid=ca19aae3-ddc9-46d5-8241-83affcfa7618","ios":"levelo://app?vid=ca19aae3-ddc9-46d5-8241-83affcfa7618"},"vehicle_type_id":"4","last_reported":1728983395,"current_range_meters":14000,"station_id":"ce4bhm92rcd13ifvqglg","pricing_plan_id":"cebpf4jnsgd1na2vs0mg"},{"bike_id":"67ca123a-9ec0-456f-926a-887b730e6918","system_id":"levelo_inurba_marseille","lat":43.2582,"lon":5.39436,"is_reserved":false,"is_disabled":false,"rental_uris":{"android":"levelo://app?vid=67ca123a-9ec0-456f-926a-887b730e6918","ios":"levelo://app?vid=67ca123a-9ec0-456f-926a-887b730e6918"},"vehicle_type_id":"4","last_reported":1728983395,"current_range_meters":16800,"station_id":"ce4bhip2rcd13ifvqft0","pricing_plan_id":"cebpf4jnsgd1na2vs0mg"},{"bike_id":"ac788206-ab8f-4ef0-a827-047740674c33","system_id":"levelo_inurba_marseille","lat":43.30417,"lon":5.3793,"is_reserved":false,"is_disabled":false,"rental_uris":{"android":"levelo://app?vid=ac788206-ab8f-4ef0-a827-047740674c33","ios":"levelo://app?vid=ac788206-ab8f-4ef0-a827-047740674c33"},"vehicle_type_id":"4","last_reported":1728983395,"current_range_meters":21600,"station_id":"","pricing_plan_id":"cebpf4jnsgd1na2vs0mg"},{"bike_id":"3f231685-3ca7-4aff-9bf1-413aef655857","system_id":"levelo_inurba_marseille","lat":43.29849,"lon":5.36284,"is_reserved":false,"is_disabled":false,"rental_uris":{"android":"levelo://app?vid=3f231685-3ca7-4aff-9bf1-413aef655857","ios":"levelo://app?vid=3f231685-3ca7-4aff-9bf1-413aef655857"},"vehicle_type_id":"4","last_reported":1728983395,"current_range_meters":32000,"station_id":"ce4bgpp2rcd13ifvqc3g","pricing_plan_id":"cebpf4jnsgd1na2vs0mg"},{"bike_id":"b032b697-070f-4813-a148-7b8a295092bd","system_id":"levelo_inurba_marseille","lat":43.31271,"lon":5.401729,"is_reserved":false,"is_disabled":false,"rental_uris":{"android":"levelo://app?vid=b032b697-070f-4813-a148-7b8a295092bd","ios":"levelo://app?vid=b032b697-070f-4813-a148-7b8a295092bd"},"vehicle_type_id":"4","last_reported":1728983395,"current_range_meters":20000,"station_id":"ce4bh092rcd13ifvqd30","pricing_plan_id":"cebpf4jnsgd1na2vs0mg"},{"bike_id":"67f02e37-9ccd-406b-ae0d-61bb03bfb08f","system_id":"levelo_inurba_marseille","lat":43.3014,"lon":5.37413,"is_reserved":false,"is_disabled":false,"rental_uris":{"android":"levelo://app?vid=67f02e37-9ccd-406b-ae0d-61bb03bfb08f","ios":"levelo://app?vid=67f02e37-9ccd-406b-ae0d-61bb03bfb08f"},"vehicle_type_id":"4","last_reported":1728983395,"current_range_meters":27600,"station_id":"ce4bgs92rcd13ifvqcc0","pricing_plan_id":"cebpf4jnsgd1na2vs0mg"},{"bike_id":"b4617106-0736-4c17-89f2-c5b65568db83","system_id":"levelo_inurba_marseille","lat":43.302982,"lon":5.392147,"is_reserved":false,"is_disabled":false,"rental_uris":{"android":"levelo://app?vid=b4617106-0736-4c17-89f2-c5b65568db83","ios":"levelo://app?vid=b4617106-0736-4c17-89f2-c5b65568db83"},"vehicle_type_id":"4","last_reported":1728983395,"current_range_meters":13600,"station_id":"ce4bgkh2rcd13ifvqbk0","pricing_plan_id":"cebpf4jnsgd1na2vs0mg"},{"bike_id":"43ac3172-8da3-4723-81be-0dac7024c470","system_id":"levelo_inurba_marseille","lat":43.31343,"lon":5.36711,"is_reserved":false,"is_disabled":false,"rental_uris":{"android":"levelo://app?vid=43ac3172-8da3-4723-81be-0dac7024c470","ios":"levelo://app?vid=43ac3172-8da3-4723-81be-0dac7024c470"},"vehicle_type_id":"4","last_reported":1728983395,"current_range_meters":27600,"station_id":"ce4bgr92rcd13ifvqc6g","pricing_plan_id":"cebpf4jnsgd1na2vs0mg"},{"bike_id":"62bde370-d1b4-4ee8-957e-073317cb0de4","system_id":"levelo_inurba_marseille","lat":43.30599,"lon":5.37213,"is_reserved":false,"is_disabled":false,"rental_uris":{"android":"levelo://app?vid=62bde370-d1b4-4ee8-957e-073317cb0de4","ios":"levelo://app?vid=62bde370-d1b4-4ee8-957e-073317cb0de4"},"vehicle_type_id":"4","last_reported":1728983395,"current_range_meters":22400,"station_id":"ce4bgqh2rcd13ifvqc4g","pricing_plan_id":"cebpf4jnsgd1na2vs0mg"},{"bike_id":"2f1c8dfb-a85e-4c1d-a938-6c27f229a9f7","system_id":"levelo_inurba_marseille","lat":43.29303,"lon":5.36977,"is_reserved":false,"is_disabled":false,"rental_uris":{"android":"levelo://app?vid=2f1c8dfb-a85e-4c1d-a938-6c27f229a9f7","ios":"levelo://app?vid=2f1c8dfb-a85e-4c1d-a938-6c27f229a9f7"},"vehicle_type_id":"4","last_reported":1728983395,"current_range_meters":33600,"station_id":"ce4bhbp2rcd13ifvqesg","pricing_plan_id":"cebpf4jnsgd1na2vs0mg"},{"bike_id":"c68392a0-2043-4a69-9831-98039d40c9e5","system_id":"levelo_inurba_marseille","lat":43.24542,"lon":5.39518,"is_reserved":false,"is_disabled":false,"rental_uris":{"android":"levelo://app?vid=c68392a0-2043-4a69-9831-98039d40c9e5","ios":"levelo://app?vid=c68392a0-2043-4a69-9831-98039d40c9e5"},"vehicle_type_id":"4","last_reported":1728983395,"current_range_meters":25200,"station_id":"ce4bhlp2rcd13ifvqgjg","pricing_plan_id":"cebpf4jnsgd1na2vs0mg"},{"bike_id":"8a517f02-76e7-44ac-8e62-44597a75555c","system_id":"levelo_inurba_marseille","lat":43.2606,"lon":5.39395,"is_reserved":false,"is_disabled":false,"rental_uris":{"android":"levelo://app?vid=8a517f02-76e7-44ac-8e62-44597a75555c","ios":"levelo://app?vid=8a517f02-76e7-44ac-8e62-44597a75555c"},"vehicle_type_id":"4","last_reported":1728983395,"current_range_meters":28000,"station_id":"ce4bhh92rcd13ifvqfj0","pricing_plan_id":"cebpf4jnsgd1na2vs0mg"},{"bike_id":"978e1708-2f3b-4d72-b415-dbe1cfaa8617","system_id":"levelo_inurba_marseille","lat":43.25938,"lon":5.40902,"is_reserved":false,"is_disabled":false,"rental_uris":{"android":"levelo://app?vid=978e1708-2f3b-4d72-b415-dbe1cfaa8617","ios":"levelo://app?vid=978e1708-2f3b-4d72-b415-dbe1cfaa8617"},"vehicle_type_id":"4","last_reported":1728983395,"current_range_meters":10800,"station_id":"ce4bhm92rcd13ifvqglg","pricing_plan_id":"cebpf4jnsgd1na2vs0mg"},{"bike_id":"3f108dd6-6175-42b0-b99f-4499dfbd7d0d","system_id":"levelo_inurba_marseille","lat":43.25577,"lon":5.38241,"is_reserved":false,"is_disabled":false,"rental_uris":{"android":"levelo://app?vid=3f108dd6-6175-42b0-b99f-4499dfbd7d0d","ios":"levelo://app?vid=3f108dd6-6175-42b0-b99f-4499dfbd7d0d"},"vehicle_type_id":"4","last_reported":1728983395,"current_range_meters":8000,"station_id":"ce4bhih2rcd13ifvqfs0","pricing_plan_id":"cebpf4jnsgd1na2vs0mg"},{"bike_id":"766ac888-97d9-4579-af20-80c104def2ea","system_id":"levelo_inurba_marseille","lat":43.30803,"lon":5.38153,"is_reserved":false,"is_disabled":false,"rental_uris":{"android":"levelo://app?vid=766ac888-97d9-4579-af20-80c104def2ea","ios":"levelo://app?vid=766ac888-97d9-4579-af20-80c104def2ea"},"vehicle_type_id":"4","last_reported":1728983395,"current_range_meters":38000,"station_id":"ce4bgt12rcd13ifvqce0","pricing_plan_id":"cebpf4jnsgd1na2vs0mg"},{"bike_id":"4dc8c72a-7777-4587-8f29-bfbecc307684","system_id":"levelo_inurba_marseille","lat":43.25822,"lon":5.39438,"is_reserved":false,"is_disabled":false,"rental_uris":{"android":"levelo://app?vid=4dc8c72a-7777-4587-8f29-bfbecc307684","ios":"levelo://app?vid=4dc8c72a-7777-4587-8f29-bfbecc307684"},"vehicle_type_id":"4","last_reported":1728983395,"current_range_meters":37600,"station_id":"ce4bhip2rcd13ifvqft0","pricing_plan_id":"cebpf4jnsgd1na2vs0mg"},{"bike_id":"dc708d54-fb0e-4db7-85d4-ed7ccb8a3271","system_id":"levelo_inurba_marseille","lat":43.29904,"lon":5.37473,"is_reserved":false,"is_disabled":false,"rental_uris":{"android":"levelo://app?vid=dc708d54-fb0e-4db7-85d4-ed7ccb8a3271","ios":"levelo://app?vid=dc708d54-fb0e-4db7-85d4-ed7ccb8a3271"},"vehicle_type_id":"4","last_reported":1728983395,"current_range_meters":37600,"station_id":"ce4bgjh2rcd13ifvqbg0","pricing_plan_id":"cebpf4jnsgd1na2vs0mg"},{"bike_id":"9b19335f-d20a-4738-a040-4a85afd24918","system_id":"levelo_inurba_marseille","lat":43.310766,"lon":5.38357,"is_reserved":false,"is_disabled":false,"rental_uris":{"android":"levelo://app?vid=9b19335f-d20a-4738-a040-4a85afd24918","ios":"levelo://app?vid=9b19335f-d20a-4738-a040-4a85afd24918"},"vehicle_type_id":"4","last_reported":1728983395,"current_range_meters":25200,"station_id":"ce4bgv92rcd13ifvqcr0","pricing_plan_id":"cebpf4jnsgd1na2vs0mg"},{"bike_id":"56a5f83e-eabc-41a3-8d2a-a7df99852345","system_id":"levelo_inurba_marseille","lat":43.30158,"lon":5.39789,"is_reserved":false,"is_disabled":false,"rental_uris":{"android":"levelo://app?vid=56a5f83e-eabc-41a3-8d2a-a7df99852345","ios":"levelo://app?vid=56a5f83e-eabc-41a3-8d2a-a7df99852345"},"vehicle_type_id":"4","last_reported":1728983395,"current_range_meters":22800,"station_id":"ce4bh0h2rcd13ifvqd40","pricing_plan_id":"cebpf4jnsgd1na2vs0mg"},{"bike_id":"1d1a5305-93eb-48bd-aca5-91c26433821c","system_id":"levelo_inurba_marseille","lat":43.30538,"lon":5.36534,"is_reserved":false,"is_disabled":false,"rental_uris":{"android":"levelo://app?vid=1d1a5305-93eb-48bd-aca5-91c26433821c","ios":"levelo://app?vid=1d1a5305-93eb-48bd-aca5-91c26433821c"},"vehicle_type_id":"4","last_reported":1728983395,"current_range_meters":35600,"station_id":"ce4bgs12rcd13ifvqcag","pricing_plan_id":"cebpf4jnsgd1na2vs0mg"},{"bike_id":"1aab628b-6467-4722-8afc-f5f60198bb91","system_id":"levelo_inurba_marseille","lat":43.30539,"lon":5.3654,"is_reserved":false,"is_disabled":false,"rental_uris":{"android":"levelo://app?vid=1aab628b-6467-4722-8afc-f5f60198bb91","ios":"levelo://app?vid=1aab628b-6467-4722-8afc-f5f60198bb91"},"vehicle_type_id":"4","last_reported":1728983395,"current_range_meters":36400,"station_id":"ce4bgs12rcd13ifvqcag","pricing_plan_id":"cebpf4jnsgd1na2vs0mg"},{"bike_id":"770b4181-5ae9-4e74-aecc-59e1c212b00e","system_id":"levelo_inurba_marseille","lat":43.29845,"lon":5.36277,"is_reserved":false,"is_disabled":false,"rental_uris":{"android":"levelo://app?vid=770b4181-5ae9-4e74-aecc-59e1c212b00e","ios":"levelo://app?vid=770b4181-5ae9-4e74-aecc-59e1c212b00e"},"vehicle_type_id":"4","last_reported":1728983395,"current_range_meters":34800,"station_id":"ce4bgpp2rcd13ifvqc3g","pricing_plan_id":"cebpf4jnsgd1na2vs0mg"},{"bike_id":"bf8b5881-6af7-4dcb-aef0-67846a6a2053","system_id":"levelo_inurba_marseille","lat":43.3096,"lon":5.39025,"is_reserved":false,"is_disabled":false,"rental_uris":{"android":"levelo://app?vid=bf8b5881-6af7-4dcb-aef0-67846a6a2053","ios":"levelo://app?vid=bf8b5881-6af7-4dcb-aef0-67846a6a2053"},"vehicle_type_id":"4","last_reported":1728983395,"current_range_meters":9200,"station_id":"ce4bgup2rcd13ifvqco0","pricing_plan_id":"cebpf4jnsgd1na2vs0mg"},{"bike_id":"ff7b5be1-e1ad-45b9-abeb-a9343678f1cf","system_id":"levelo_inurba_marseille","lat":43.2861,"lon":5.37055,"is_reserved":false,"is_disabled":false,"rental_uris":{"android":"levelo://app?vid=ff7b5be1-e1ad-45b9-abeb-a9343678f1cf","ios":"levelo://app?vid=ff7b5be1-e1ad-45b9-abeb-a9343678f1cf"},"vehicle_type_id":"4","last_reported":1728983395,"current_range_meters":38400,"station_id":"ce4bht12rcd13ifvqi60","pricing_plan_id":"cebpf4jnsgd1na2vs0mg"},{"bike_id":"1bc8d6d7-6774-4cf4-8df2-323977b86ee3","system_id":"levelo_inurba_marseille","lat":43.26551,"lon":5.37282,"is_reserved":false,"is_disabled":false,"rental_uris":{"android":"levelo://app?vid=1bc8d6d7-6774-4cf4-8df2-323977b86ee3","ios":"levelo://app?vid=1bc8d6d7-6774-4cf4-8df2-323977b86ee3"},"vehicle_type_id":"4","last_reported":1728983395,"current_range_meters":17600,"station_id":"ce4bhg12rcd13ifvqf70","pricing_plan_id":"cebpf4jnsgd1na2vs0mg"},{"bike_id":"ecd3a153-9e78-44f4-b2a0-9fd6a15fefd8","system_id":"levelo_inurba_marseille","lat":43.28433,"lon":5.39172,"is_reserved":false,"is_disabled":false,"rental_uris":{"android":"levelo://app?vid=ecd3a153-9e78-44f4-b2a0-9fd6a15fefd8","ios":"levelo://app?vid=ecd3a153-9e78-44f4-b2a0-9fd6a15fefd8"},"vehicle_type_id":"4","last_reported":1728983395,"current_range_meters":12000,"station_id":"ce4bhoh2rcd13ifvqh5g","pricing_plan_id":"cebpf4jnsgd1na2vs0mg"},{"bike_id":"1c9343e4-7b78-402e-b1fe-6599c269887e","system_id":"levelo_inurba_marseille","lat":43.314515,"lon":5.37384,"is_reserved":false,"is_disabled":false,"rental_uris":{"android":"levelo://app?vid=1c9343e4-7b78-402e-b1fe-6599c269887e","ios":"levelo://app?vid=1c9343e4-7b78-402e-b1fe-6599c269887e"},"vehicle_type_id":"4","last_reported":1728983395,"current_range_meters":24400,"station_id":"","pricing_plan_id":"cebpf4jnsgd1na2vs0mg"},{"bike_id":"219c8012-7a38-4be5-a341-0af90cfd6d36","system_id":"levelo_inurba_marseille","lat":43.26563,"lon":5.39009,"is_reserved":false,"is_disabled":false,"rental_uris":{"android":"levelo://app?vid=219c8012-7a38-4be5-a341-0af90cfd6d36","ios":"levelo://app?vid=219c8012-7a38-4be5-a341-0af90cfd6d36"},"vehicle_type_id":"4","last_reported":1728983395,"current_range_meters":32800,"station_id":"ce4bhe12rcd13ifvqf30","pricing_plan_id":"cebpf4jnsgd1na2vs0mg"},{"bike_id":"a092af6b-400a-4a74-a70c-dbac53c8520b","system_id":"levelo_inurba_marseille","lat":43.29086,"lon":5.37171,"is_reserved":false,"is_disabled":false,"rental_uris":{"android":"levelo://app?vid=a092af6b-400a-4a74-a70c-dbac53c8520b","ios":"levelo://app?vid=a092af6b-400a-4a74-a70c-dbac53c8520b"},"vehicle_type_id":"4","last_reported":1728983395,"current_range_meters":18800,"station_id":"ce4bh5p2rcd13ifvqe4g","pricing_plan_id":"cebpf4jnsgd1na2vs0mg"},{"bike_id":"8369f64c-ff5a-49d3-a478-5bb158e22868","system_id":"levelo_inurba_marseille","lat":43.28921,"lon":5.36382,"is_reserved":false,"is_disabled":false,"rental_uris":{"android":"levelo://app?vid=8369f64c-ff5a-49d3-a478-5bb158e22868","ios":"levelo://app?vid=8369f64c-ff5a-49d3-a478-5bb158e22868"},"vehicle_type_id":"4","last_reported":1728983395,"current_range_meters":37600,"station_id":"ce4bhc92rcd13ifvqetg","pricing_plan_id":"cebpf4jnsgd1na2vs0mg"},{"bike_id":"e9f99190-66a3-46b7-a3ac-4f6b670b602e","system_id":"levelo_inurba_marseille","lat":43.33755,"lon":5.37446,"is_reserved":false,"is_disabled":false,"rental_uris":{"android":"levelo://app?vid=e9f99190-66a3-46b7-a3ac-4f6b670b602e","ios":"levelo://app?vid=e9f99190-66a3-46b7-a3ac-4f6b670b602e"},"vehicle_type_id":"4","last_reported":1728983395,"current_range_meters":30800,"station_id":"","pricing_plan_id":"cebpf4jnsgd1na2vs0mg"},{"bike_id":"d09c4005-1df4-4b76-9022-4d9a61607881","system_id":"levelo_inurba_marseille","lat":43.29924,"lon":5.36546,"is_reserved":false,"is_disabled":false,"rental_uris":{"android":"levelo://app?vid=d09c4005-1df4-4b76-9022-4d9a61607881","ios":"levelo://app?vid=d09c4005-1df4-4b76-9022-4d9a61607881"},"vehicle_type_id":"4","last_reported":1728983395,"current_range_meters":17200,"station_id":"ce4bgm92rcd13ifvqbr0","pricing_plan_id":"cebpf4jnsgd1na2vs0mg"},{"bike_id":"01278a9e-9df9-414f-9298-8fc23308687f","system_id":"levelo_inurba_marseille","lat":43.30915,"lon":5.3686,"is_reserved":false,"is_disabled":false,"rental_uris":{"android":"levelo://app?vid=01278a9e-9df9-414f-9298-8fc23308687f","ios":"levelo://app?vid=01278a9e-9df9-414f-9298-8fc23308687f"},"vehicle_type_id":"4","last_reported":1728983395,"current_range_meters":38800,"station_id":"ce4bgn92rcd13ifvqbvg","pricing_plan_id":"cebpf4jnsgd1na2vs0mg"},{"bike_id":"399273f8-2c83-412c-a0c5-a084efa601b0","system_id":"levelo_inurba_marseille","lat":43.28463,"lon":5.3842,"is_reserved":false,"is_disabled":false,"rental_uris":{"android":"levelo://app?vid=399273f8-2c83-412c-a0c5-a084efa601b0","ios":"levelo://app?vid=399273f8-2c83-412c-a0c5-a084efa601b0"},"vehicle_type_id":"4","last_reported":1728983395,"current_range_meters":37600,"station_id":"ce4bh512rcd13ifvqe3g","pricing_plan_id":"cebpf4jnsgd1na2vs0mg"},{"bike_id":"e0e2a9d7-b00a-4e50-8175-1326b408ebe5","system_id":"levelo_inurba_marseille","lat":43.26197,"lon":5.37926,"is_reserved":false,"is_disabled":false,"rental_uris":{"android":"levelo://app?vid=e0e2a9d7-b00a-4e50-8175-1326b408ebe5","ios":"levelo://app?vid=e0e2a9d7-b00a-4e50-8175-1326b408ebe5"},"vehicle_type_id":"4","last_reported":1728983395,"current_range_meters":30000,"station_id":"ce4bhjp2rcd13ifvqg90","pricing_plan_id":"cebpf4jnsgd1na2vs0mg"},{"bike_id":"f9c6f96e-6cf6-4d93-9c67-60886b1ee015","system_id":"levelo_inurba_marseille","lat":43.30909,"lon":5.36849,"is_reserved":false,"is_disabled":false,"rental_uris":{"android":"levelo://app?vid=f9c6f96e-6cf6-4d93-9c67-60886b1ee015","ios":"levelo://app?vid=f9c6f96e-6cf6-4d93-9c67-60886b1ee015"},"vehicle_type_id":"4","last_reported":1728983395,"current_range_meters":39200,"station_id":"ce4bgn92rcd13ifvqbvg","pricing_plan_id":"cebpf4jnsgd1na2vs0mg"},{"bike_id":"29650af2-85bd-4ade-80e8-da3e8d511002","system_id":"levelo_inurba_marseille","lat":43.28996,"lon":5.3559,"is_reserved":false,"is_disabled":false,"rental_uris":{"android":"levelo://app?vid=29650af2-85bd-4ade-80e8-da3e8d511002","ios":"levelo://app?vid=29650af2-85bd-4ade-80e8-da3e8d511002"},"vehicle_type_id":"4","last_reported":1728983395,"current_range_meters":37600,"station_id":"ce4bhb92rcd13ifvqen0","pricing_plan_id":"cebpf4jnsgd1na2vs0mg"},{"bike_id":"028fce04-55e9-4ec3-b4a5-1b566b48b26b","system_id":"levelo_inurba_marseille","lat":43.32524,"lon":5.41454,"is_reserved":false,"is_disabled":false,"rental_uris":{"android":"levelo://app?vid=028fce04-55e9-4ec3-b4a5-1b566b48b26b","ios":"levelo://app?vid=028fce04-55e9-4ec3-b4a5-1b566b48b26b"},"vehicle_type_id":"4","last_reported":1728983395,"current_range_meters":28800,"station_id":"ce4bhq12rcd13ifvqhhg","pricing_plan_id":"cebpf4jnsgd1na2vs0mg"},{"bike_id":"c1a1afd4-50c7-4a88-a370-43899b911066","system_id":"levelo_inurba_marseille","lat":43.32533,"lon":5.41436,"is_reserved":false,"is_disabled":false,"rental_uris":{"android":"levelo://app?vid=c1a1afd4-50c7-4a88-a370-43899b911066","ios":"levelo://app?vid=c1a1afd4-50c7-4a88-a370-43899b911066"},"vehicle_type_id":"4","last_reported":1728983395,"current_range_meters":3600,"station_id":"ce4bhq12rcd13ifvqhhg","pricing_plan_id":"cebpf4jnsgd1na2vs0mg"},{"bike_id":"31d120bf-8cc6-45ef-b3e1-50f1d4517b6b","system_id":"levelo_inurba_marseille","lat":43.3056,"lon":5.36718,"is_reserved":false,"is_disabled":false,"rental_uris":{"android":"levelo://app?vid=31d120bf-8cc6-45ef-b3e1-50f1d4517b6b","ios":"levelo://app?vid=31d120bf-8cc6-45ef-b3e1-50f1d4517b6b"},"vehicle_type_id":"4","last_reported":1728983395,"current_range_meters":18800,"station_id":"ce4bgrp2rcd13ifvqc9g","pricing_plan_id":"cebpf4jnsgd1na2vs0mg"},{"bike_id":"236eac17-f8e0-4e4a-bc15-bde91f02d950","system_id":"levelo_inurba_marseille","lat":43.33606,"lon":5.41024,"is_reserved":false,"is_disabled":false,"rental_uris":{"android":"levelo://app?vid=236eac17-f8e0-4e4a-bc15-bde91f02d950","ios":"levelo://app?vid=236eac17-f8e0-4e4a-bc15-bde91f02d950"},"vehicle_type_id":"4","last_reported":1728983395,"current_range_meters":26800,"station_id":"ce4bhqh2rcd13ifvqhmg","pricing_plan_id":"cebpf4jnsgd1na2vs0mg"},{"bike_id":"89198ecf-9ad5-429c-84dc-a279ee6e8f88","system_id":"levelo_inurba_marseille","lat":43.33749,"lon":5.37454,"is_reserved":false,"is_disabled":false,"rental_uris":{"android":"levelo://app?vid=89198ecf-9ad5-429c-84dc-a279ee6e8f88","ios":"levelo://app?vid=89198ecf-9ad5-429c-84dc-a279ee6e8f88"},"vehicle_type_id":"4","last_reported":1728983395,"current_range_meters":36400,"station_id":"","pricing_plan_id":"cebpf4jnsgd1na2vs0mg"},{"bike_id":"8fdd4147-e848-49f0-9c54-870bdb6cb1f5","system_id":"levelo_inurba_marseille","lat":43.33608,"lon":5.41027,"is_reserved":false,"is_disabled":false,"rental_uris":{"android":"levelo://app?vid=8fdd4147-e848-49f0-9c54-870bdb6cb1f5","ios":"levelo://app?vid=8fdd4147-e848-49f0-9c54-870bdb6cb1f5"},"vehicle_type_id":"4","last_reported":1728983395,"current_range_meters":36000,"station_id":"ce4bhqh2rcd13ifvqhmg","pricing_plan_id":"cebpf4jnsgd1na2vs0mg"},{"bike_id":"76445514-dd6c-426b-941e-789afb2f2c25","system_id":"levelo_inurba_marseille","lat":43.336,"lon":5.41029,"is_reserved":false,"is_disabled":false,"rental_uris":{"android":"levelo://app?vid=76445514-dd6c-426b-941e-789afb2f2c25","ios":"levelo://app?vid=76445514-dd6c-426b-941e-789afb2f2c25"},"vehicle_type_id":"4","last_reported":1728983395,"current_range_meters":39200,"station_id":"ce4bhqh2rcd13ifvqhmg","pricing_plan_id":"cebpf4jnsgd1na2vs0mg"},{"bike_id":"70d8c5a0-0514-401e-bb3f-6278d2b10405","system_id":"levelo_inurba_marseille","lat":43.26951,"lon":5.38634,"is_reserved":false,"is_disabled":false,"rental_uris":{"android":"levelo://app?vid=70d8c5a0-0514-401e-bb3f-6278d2b10405","ios":"levelo://app?vid=70d8c5a0-0514-401e-bb3f-6278d2b10405"},"vehicle_type_id":"4","last_reported":1728983395,"current_range_meters":38400,"station_id":"ce4bhh92rcd13ifvqfh0","pricing_plan_id":"cebpf4jnsgd1na2vs0mg"},{"bike_id":"dbb9c770-b19e-409e-852c-5cc110ac1a41","system_id":"levelo_inurba_marseille","lat":43.30311,"lon":5.36896,"is_reserved":false,"is_disabled":false,"rental_uris":{"android":"levelo://app?vid=dbb9c770-b19e-409e-852c-5cc110ac1a41","ios":"levelo://app?vid=dbb9c770-b19e-409e-852c-5cc110ac1a41"},"vehicle_type_id":"4","last_reported":1728983395,"current_range_meters":38000,"station_id":"ce4bgqh2rcd13ifvqc5g","pricing_plan_id":"cebpf4jnsgd1na2vs0mg"},{"bike_id":"eb5e2a80-e4f0-490c-a49d-148ab8b2d56f","system_id":"levelo_inurba_marseille","lat":43.27938,"lon":5.4104,"is_reserved":false,"is_disabled":false,"rental_uris":{"android":"levelo://app?vid=eb5e2a80-e4f0-490c-a49d-148ab8b2d56f","ios":"levelo://app?vid=eb5e2a80-e4f0-490c-a49d-148ab8b2d56f"},"vehicle_type_id":"4","last_reported":1728983395,"current_range_meters":18000,"station_id":"ce4bhnp2rcd13ifvqh0g","pricing_plan_id":"cebpf4jnsgd1na2vs0mg"},{"bike_id":"496a1568-ce42-4df3-a711-5ac45d8ef568","system_id":"levelo_inurba_marseille","lat":43.25576,"lon":5.38239,"is_reserved":false,"is_disabled":false,"rental_uris":{"android":"levelo://app?vid=496a1568-ce42-4df3-a711-5ac45d8ef568","ios":"levelo://app?vid=496a1568-ce42-4df3-a711-5ac45d8ef568"},"vehicle_type_id":"4","last_reported":1728983395,"current_range_meters":25200,"station_id":"ce4bhih2rcd13ifvqfs0","pricing_plan_id":"cebpf4jnsgd1na2vs0mg"},{"bike_id":"27521189-a10b-488a-82b8-973812fa95e1","system_id":"levelo_inurba_marseille","lat":43.32479,"lon":5.36569,"is_reserved":false,"is_disabled":false,"rental_uris":{"android":"levelo://app?vid=27521189-a10b-488a-82b8-973812fa95e1","ios":"levelo://app?vid=27521189-a10b-488a-82b8-973812fa95e1"},"vehicle_type_id":"4","last_reported":1728983395,"current_range_meters":36800,"station_id":"ce4bhs12rcd13ifvqhvg","pricing_plan_id":"cebpf4jnsgd1na2vs0mg"},{"bike_id":"e0de1318-b1a6-4e5c-969a-0ed85a96e106","system_id":"levelo_inurba_marseille","lat":43.32527,"lon":5.41442,"is_reserved":false,"is_disabled":false,"rental_uris":{"android":"levelo://app?vid=e0de1318-b1a6-4e5c-969a-0ed85a96e106","ios":"levelo://app?vid=e0de1318-b1a6-4e5c-969a-0ed85a96e106"},"vehicle_type_id":"4","last_reported":1728983395,"current_range_meters":18800,"station_id":"ce4bhq12rcd13ifvqhhg","pricing_plan_id":"cebpf4jnsgd1na2vs0mg"},{"bike_id":"4958bc6b-0611-407c-bfea-b8509e93da6b","system_id":"levelo_inurba_marseille","lat":43.26678,"lon":5.38265,"is_reserved":false,"is_disabled":false,"rental_uris":{"android":"levelo://app?vid=4958bc6b-0611-407c-bfea-b8509e93da6b","ios":"levelo://app?vid=4958bc6b-0611-407c-bfea-b8509e93da6b"},"vehicle_type_id":"4","last_reported":1728983395,"current_range_meters":18800,"station_id":"ce4bhg92rcd13ifvqf90","pricing_plan_id":"cebpf4jnsgd1na2vs0mg"},{"bike_id":"c80bffdd-5af6-417a-8b44-520a51e21254","system_id":"levelo_inurba_marseille","lat":43.30535,"lon":5.36539,"is_reserved":false,"is_disabled":false,"rental_uris":{"android":"levelo://app?vid=c80bffdd-5af6-417a-8b44-520a51e21254","ios":"levelo://app?vid=c80bffdd-5af6-417a-8b44-520a51e21254"},"vehicle_type_id":"4","last_reported":1728983395,"current_range_meters":10800,"station_id":"ce4bgs12rcd13ifvqcag","pricing_plan_id":"cebpf4jnsgd1na2vs0mg"},{"bike_id":"807e9962-cc69-4406-acf5-9033fba73963","system_id":"levelo_inurba_marseille","lat":43.27493,"lon":5.42447,"is_reserved":false,"is_disabled":false,"rental_uris":{"android":"levelo://app?vid=807e9962-cc69-4406-acf5-9033fba73963","ios":"levelo://app?vid=807e9962-cc69-4406-acf5-9033fba73963"},"vehicle_type_id":"4","last_reported":1728983395,"current_range_meters":16400,"station_id":"ce4bhn92rcd13ifvqgrg","pricing_plan_id":"cebpf4jnsgd1na2vs0mg"},{"bike_id":"21a10f5c-fa50-4faa-9a51-a878542590bd","system_id":"levelo_inurba_marseille","lat":43.28466,"lon":5.38417,"is_reserved":false,"is_disabled":false,"rental_uris":{"android":"levelo://app?vid=21a10f5c-fa50-4faa-9a51-a878542590bd","ios":"levelo://app?vid=21a10f5c-fa50-4faa-9a51-a878542590bd"},"vehicle_type_id":"4","last_reported":1728983395,"current_range_meters":38800,"station_id":"ce4bh512rcd13ifvqe3g","pricing_plan_id":"cebpf4jnsgd1na2vs0mg"},{"bike_id":"25867c2e-8c56-4001-b38a-a41c75e210f4","system_id":"levelo_inurba_marseille","lat":43.321,"lon":5.36776,"is_reserved":false,"is_disabled":false,"rental_uris":{"android":"levelo://app?vid=25867c2e-8c56-4001-b38a-a41c75e210f4","ios":"levelo://app?vid=25867c2e-8c56-4001-b38a-a41c75e210f4"},"vehicle_type_id":"4","last_reported":1728983395,"current_range_meters":2000,"station_id":"ce4bhrh2rcd13ifvqhug","pricing_plan_id":"cebpf4jnsgd1na2vs0mg"},{"bike_id":"07983113-c166-4cf8-9b16-535408113a36","system_id":"levelo_inurba_marseille","lat":43.25582,"lon":5.38238,"is_reserved":false,"is_disabled":false,"rental_uris":{"android":"levelo://app?vid=07983113-c166-4cf8-9b16-535408113a36","ios":"levelo://app?vid=07983113-c166-4cf8-9b16-535408113a36"},"vehicle_type_id":"4","last_reported":1728983395,"current_range_meters":11200,"station_id":"ce4bhih2rcd13ifvqfs0","pricing_plan_id":"cebpf4jnsgd1na2vs0mg"},{"bike_id":"fce15e3d-4c31-4116-9b1f-66edcf55692b","system_id":"levelo_inurba_marseille","lat":43.29518,"lon":5.37494,"is_reserved":false,"is_disabled":false,"rental_uris":{"android":"levelo://app?vid=fce15e3d-4c31-4116-9b1f-66edcf55692b","ios":"levelo://app?vid=fce15e3d-4c31-4116-9b1f-66edcf55692b"},"vehicle_type_id":"4","last_reported":1728983395,"current_range_meters":7200,"station_id":"ce4bgkp2rcd13ifvqbmg","pricing_plan_id":"cebpf4jnsgd1na2vs0mg"},{"bike_id":"57a8c062-6799-49f8-a772-d2a3af263f1e","system_id":"levelo_inurba_marseille","lat":43.26955,"lon":5.38632,"is_reserved":false,"is_disabled":false,"rental_uris":{"android":"levelo://app?vid=57a8c062-6799-49f8-a772-d2a3af263f1e","ios":"levelo://app?vid=57a8c062-6799-49f8-a772-d2a3af263f1e"},"vehicle_type_id":"4","last_reported":1728983395,"current_range_meters":25600,"station_id":"ce4bhh92rcd13ifvqfh0","pricing_plan_id":"cebpf4jnsgd1na2vs0mg"},{"bike_id":"a2eb58c6-dd46-4b5a-b81d-fe3714bbcfc9","system_id":"levelo_inurba_marseille","lat":43.23956,"lon":5.36623,"is_reserved":false,"is_disabled":false,"rental_uris":{"android":"levelo://app?vid=a2eb58c6-dd46-4b5a-b81d-fe3714bbcfc9","ios":"levelo://app?vid=a2eb58c6-dd46-4b5a-b81d-fe3714bbcfc9"},"vehicle_type_id":"4","last_reported":1728983395,"current_range_meters":8400,"station_id":"ce4bhi12rcd13ifvqfp0","pricing_plan_id":"cebpf4jnsgd1na2vs0mg"},{"bike_id":"f023582d-9726-41ca-a508-42bc7926f78e","system_id":"levelo_inurba_marseille","lat":43.29303,"lon":5.37167,"is_reserved":false,"is_disabled":false,"rental_uris":{"android":"levelo://app?vid=f023582d-9726-41ca-a508-42bc7926f78e","ios":"levelo://app?vid=f023582d-9726-41ca-a508-42bc7926f78e"},"vehicle_type_id":"4","last_reported":1728983395,"current_range_meters":38800,"station_id":"ce4bgh92rcd13ifvqb40","pricing_plan_id":"cebpf4jnsgd1na2vs0mg"},{"bike_id":"2cccbc72-8d38-4f82-9015-6c75eeaec646","system_id":"levelo_inurba_marseille","lat":43.29035,"lon":5.3757,"is_reserved":false,"is_disabled":false,"rental_uris":{"android":"levelo://app?vid=2cccbc72-8d38-4f82-9015-6c75eeaec646","ios":"levelo://app?vid=2cccbc72-8d38-4f82-9015-6c75eeaec646"},"vehicle_type_id":"4","last_reported":1728983395,"current_range_meters":38000,"station_id":"ce4bh692rcd13ifvqe90","pricing_plan_id":"cebpf4jnsgd1na2vs0mg"},{"bike_id":"5a21f166-c886-4c2b-8cdc-2f284466828d","system_id":"levelo_inurba_marseille","lat":43.27353,"lon":5.42401,"is_reserved":false,"is_disabled":false,"rental_uris":{"android":"levelo://app?vid=5a21f166-c886-4c2b-8cdc-2f284466828d","ios":"levelo://app?vid=5a21f166-c886-4c2b-8cdc-2f284466828d"},"vehicle_type_id":"4","last_reported":1728983395,"current_range_meters":32400,"station_id":"","pricing_plan_id":"cebpf4jnsgd1na2vs0mg"},{"bike_id":"995213a4-b0e8-4737-b0b6-5f59e564978e","system_id":"levelo_inurba_marseille","lat":43.33604,"lon":5.41022,"is_reserved":false,"is_disabled":false,"rental_uris":{"android":"levelo://app?vid=995213a4-b0e8-4737-b0b6-5f59e564978e","ios":"levelo://app?vid=995213a4-b0e8-4737-b0b6-5f59e564978e"},"vehicle_type_id":"4","last_reported":1728983395,"current_range_meters":8000,"station_id":"ce4bhqh2rcd13ifvqhmg","pricing_plan_id":"cebpf4jnsgd1na2vs0mg"},{"bike_id":"b178b062-35cd-4f92-91db-f4ae171fe0ea","system_id":"levelo_inurba_marseille","lat":43.292851,"lon":5.368404,"is_reserved":false,"is_disabled":false,"rental_uris":{"android":"levelo://app?vid=b178b062-35cd-4f92-91db-f4ae171fe0ea","ios":"levelo://app?vid=b178b062-35cd-4f92-91db-f4ae171fe0ea"},"vehicle_type_id":"4","last_reported":1728983395,"current_range_meters":10800,"station_id":"","pricing_plan_id":"cebpf4jnsgd1na2vs0mg"},{"bike_id":"4e07868a-d68e-497f-a19c-e5a2e95c71ff","system_id":"levelo_inurba_marseille","lat":43.30542,"lon":5.36696,"is_reserved":false,"is_disabled":false,"rental_uris":{"android":"levelo://app?vid=4e07868a-d68e-497f-a19c-e5a2e95c71ff","ios":"levelo://app?vid=4e07868a-d68e-497f-a19c-e5a2e95c71ff"},"vehicle_type_id":"4","last_reported":1728983395,"current_range_meters":7200,"station_id":"ce4bgrp2rcd13ifvqc9g","pricing_plan_id":"cebpf4jnsgd1na2vs0mg"},{"bike_id":"9608ff6b-d6d3-475c-8e87-168884443bd8","system_id":"levelo_inurba_marseille","lat":43.31352,"lon":5.36683,"is_reserved":false,"is_disabled":false,"rental_uris":{"android":"levelo://app?vid=9608ff6b-d6d3-475c-8e87-168884443bd8","ios":"levelo://app?vid=9608ff6b-d6d3-475c-8e87-168884443bd8"},"vehicle_type_id":"4","last_reported":1728983395,"current_range_meters":4400,"station_id":"ce4bgr92rcd13ifvqc6g","pricing_plan_id":"cebpf4jnsgd1na2vs0mg"},{"bike_id":"c0670d96-b06e-446b-a07e-6b5eeebc59d7","system_id":"levelo_inurba_marseille","lat":43.274948,"lon":5.424466,"is_reserved":false,"is_disabled":false,"rental_uris":{"android":"levelo://app?vid=c0670d96-b06e-446b-a07e-6b5eeebc59d7","ios":"levelo://app?vid=c0670d96-b06e-446b-a07e-6b5eeebc59d7"},"vehicle_type_id":"4","last_reported":1728983395,"current_range_meters":12800,"station_id":"ce4bhn92rcd13ifvqgrg","pricing_plan_id":"cebpf4jnsgd1na2vs0mg"},{"bike_id":"485372db-c927-43ac-8631-871bcbd82cc0","system_id":"levelo_inurba_marseille","lat":43.24067,"lon":5.37754,"is_reserved":false,"is_disabled":false,"rental_uris":{"android":"levelo://app?vid=485372db-c927-43ac-8631-871bcbd82cc0","ios":"levelo://app?vid=485372db-c927-43ac-8631-871bcbd82cc0"},"vehicle_type_id":"4","last_reported":1728983395,"current_range_meters":12000,"station_id":"ce4bhnp2rcd13ifvqgvg","pricing_plan_id":"cebpf4jnsgd1na2vs0mg"},{"bike_id":"e90a9e82-771b-44fd-b815-fb34b11e990c","system_id":"levelo_inurba_marseille","lat":43.23152,"lon":5.43719,"is_reserved":false,"is_disabled":false,"rental_uris":{"android":"levelo://app?vid=e90a9e82-771b-44fd-b815-fb34b11e990c","ios":"levelo://app?vid=e90a9e82-771b-44fd-b815-fb34b11e990c"},"vehicle_type_id":"4","last_reported":1728983395,"current_range_meters":14000,"station_id":"ce4bhmp2rcd13ifvqgog","pricing_plan_id":"cebpf4jnsgd1na2vs0mg"},{"bike_id":"02c903ab-53e0-41d9-a4f7-29b840913cfb","system_id":"levelo_inurba_marseille","lat":43.25088,"lon":5.39517,"is_reserved":false,"is_disabled":false,"rental_uris":{"android":"levelo://app?vid=02c903ab-53e0-41d9-a4f7-29b840913cfb","ios":"levelo://app?vid=02c903ab-53e0-41d9-a4f7-29b840913cfb"},"vehicle_type_id":"4","last_reported":1728983395,"current_range_meters":16400,"station_id":"ce4bhm12rcd13ifvqgkg","pricing_plan_id":"cebpf4jnsgd1na2vs0mg"},{"bike_id":"a0d3d324-fa7e-4417-aee7-85012ecab44e","system_id":"levelo_inurba_marseille","lat":43.34192,"lon":5.44514,"is_reserved":false,"is_disabled":false,"rental_uris":{"android":"levelo://app?vid=a0d3d324-fa7e-4417-aee7-85012ecab44e","ios":"levelo://app?vid=a0d3d324-fa7e-4417-aee7-85012ecab44e"},"vehicle_type_id":"4","last_reported":1728983395,"current_range_meters":24400,"station_id":"","pricing_plan_id":"cebpf4jnsgd1na2vs0mg"},{"bike_id":"724c8533-6c2a-4d58-9645-9dc7cc8cde49","system_id":"levelo_inurba_marseille","lat":43.27183,"lon":5.40993,"is_reserved":false,"is_disabled":false,"rental_uris":{"android":"levelo://app?vid=724c8533-6c2a-4d58-9645-9dc7cc8cde49","ios":"levelo://app?vid=724c8533-6c2a-4d58-9645-9dc7cc8cde49"},"vehicle_type_id":"4","last_reported":1728983395,"current_range_meters":38000,"station_id":"ce4bhl12rcd13ifvqgf0","pricing_plan_id":"cebpf4jnsgd1na2vs0mg"},{"bike_id":"e857dc67-7178-40ce-b4c7-c51d9c28d7e0","system_id":"levelo_inurba_marseille","lat":43.30597,"lon":5.37246,"is_reserved":false,"is_disabled":false,"rental_uris":{"android":"levelo://app?vid=e857dc67-7178-40ce-b4c7-c51d9c28d7e0","ios":"levelo://app?vid=e857dc67-7178-40ce-b4c7-c51d9c28d7e0"},"vehicle_type_id":"4","last_reported":1728983395,"current_range_meters":28000,"station_id":"ce4bgqh2rcd13ifvqc4g","pricing_plan_id":"cebpf4jnsgd1na2vs0mg"},{"bike_id":"663de26c-85c0-43c6-b9ed-43edcf569b7f","system_id":"levelo_inurba_marseille","lat":43.27491,"lon":5.42447,"is_reserved":false,"is_disabled":false,"rental_uris":{"android":"levelo://app?vid=663de26c-85c0-43c6-b9ed-43edcf569b7f","ios":"levelo://app?vid=663de26c-85c0-43c6-b9ed-43edcf569b7f"},"vehicle_type_id":"4","last_reported":1728983395,"current_range_meters":27200,"station_id":"ce4bhn92rcd13ifvqgrg","pricing_plan_id":"cebpf4jnsgd1na2vs0mg"},{"bike_id":"47fee1a8-e2f4-40ff-bff0-9b791a85981d","system_id":"levelo_inurba_marseille","lat":43.30136,"lon":5.38067,"is_reserved":false,"is_disabled":false,"rental_uris":{"android":"levelo://app?vid=47fee1a8-e2f4-40ff-bff0-9b791a85981d","ios":"levelo://app?vid=47fee1a8-e2f4-40ff-bff0-9b791a85981d"},"vehicle_type_id":"4","last_reported":1728983395,"current_range_meters":16400,"station_id":"ce4bgjp2rcd13ifvqbh0","pricing_plan_id":"cebpf4jnsgd1na2vs0mg"},{"bike_id":"2029b8e5-ceff-421f-a585-646be9909808","system_id":"levelo_inurba_marseille","lat":43.26063,"lon":5.39395,"is_reserved":false,"is_disabled":false,"rental_uris":{"android":"levelo://app?vid=2029b8e5-ceff-421f-a585-646be9909808","ios":"levelo://app?vid=2029b8e5-ceff-421f-a585-646be9909808"},"vehicle_type_id":"4","last_reported":1728983395,"current_range_meters":30400,"station_id":"ce4bhh92rcd13ifvqfj0","pricing_plan_id":"cebpf4jnsgd1na2vs0mg"},{"bike_id":"6c5c4e7b-281a-4f07-b940-638412526f38","system_id":"levelo_inurba_marseille","lat":43.295903,"lon":5.367306,"is_reserved":false,"is_disabled":false,"rental_uris":{"android":"levelo://app?vid=6c5c4e7b-281a-4f07-b940-638412526f38","ios":"levelo://app?vid=6c5c4e7b-281a-4f07-b940-638412526f38"},"vehicle_type_id":"4","last_reported":1728983395,"current_range_meters":15200,"station_id":"ce4bgph2rcd13ifvqc2g","pricing_plan_id":"cebpf4jnsgd1na2vs0mg"},{"bike_id":"fa7fbc43-c187-4e74-95e7-0eb093c0e307","system_id":"levelo_inurba_marseille","lat":43.33606,"lon":5.41033,"is_reserved":false,"is_disabled":false,"rental_uris":{"android":"levelo://app?vid=fa7fbc43-c187-4e74-95e7-0eb093c0e307","ios":"levelo://app?vid=fa7fbc43-c187-4e74-95e7-0eb093c0e307"},"vehicle_type_id":"4","last_reported":1728983395,"current_range_meters":24400,"station_id":"ce4bhqh2rcd13ifvqhmg","pricing_plan_id":"cebpf4jnsgd1na2vs0mg"},{"bike_id":"216d179f-2265-4032-b054-9d91298cd3d5","system_id":"levelo_inurba_marseille","lat":43.26949,"lon":5.38615,"is_reserved":false,"is_disabled":false,"rental_uris":{"android":"levelo://app?vid=216d179f-2265-4032-b054-9d91298cd3d5","ios":"levelo://app?vid=216d179f-2265-4032-b054-9d91298cd3d5"},"vehicle_type_id":"4","last_reported":1728983395,"current_range_meters":29600,"station_id":"ce4bhh92rcd13ifvqfh0","pricing_plan_id":"cebpf4jnsgd1na2vs0mg"},{"bike_id":"8f1473c8-5614-4fe5-9a08-5f8d5d6a0adb","system_id":"levelo_inurba_marseille","lat":43.32109,"lon":5.36766,"is_reserved":false,"is_disabled":false,"rental_uris":{"android":"levelo://app?vid=8f1473c8-5614-4fe5-9a08-5f8d5d6a0adb","ios":"levelo://app?vid=8f1473c8-5614-4fe5-9a08-5f8d5d6a0adb"},"vehicle_type_id":"4","last_reported":1728983395,"current_range_meters":27200,"station_id":"ce4bhrh2rcd13ifvqhug","pricing_plan_id":"cebpf4jnsgd1na2vs0mg"},{"bike_id":"62efa3cd-9522-490f-841e-a1ce0ad54acb","system_id":"levelo_inurba_marseille","lat":43.23155,"lon":5.43709,"is_reserved":false,"is_disabled":false,"rental_uris":{"android":"levelo://app?vid=62efa3cd-9522-490f-841e-a1ce0ad54acb","ios":"levelo://app?vid=62efa3cd-9522-490f-841e-a1ce0ad54acb"},"vehicle_type_id":"4","last_reported":1728983395,"current_range_meters":29600,"station_id":"ce4bhmp2rcd13ifvqgog","pricing_plan_id":"cebpf4jnsgd1na2vs0mg"},{"bike_id":"06bd8e3b-65e1-4389-97a4-35fe24bebce2","system_id":"levelo_inurba_marseille","lat":43.29553,"lon":5.42296,"is_reserved":false,"is_disabled":false,"rental_uris":{"android":"levelo://app?vid=06bd8e3b-65e1-4389-97a4-35fe24bebce2","ios":"levelo://app?vid=06bd8e3b-65e1-4389-97a4-35fe24bebce2"},"vehicle_type_id":"4","last_reported":1728983395,"current_range_meters":8400,"station_id":"ce4bhph2rcd13ifvqhdg","pricing_plan_id":"cebpf4jnsgd1na2vs0mg"},{"bike_id":"c37962f3-0bbd-4382-9569-66c39b8297a7","system_id":"levelo_inurba_marseille","lat":43.29899,"lon":5.43668,"is_reserved":false,"is_disabled":false,"rental_uris":{"android":"levelo://app?vid=c37962f3-0bbd-4382-9569-66c39b8297a7","ios":"levelo://app?vid=c37962f3-0bbd-4382-9569-66c39b8297a7"},"vehicle_type_id":"4","last_reported":1728983395,"current_range_meters":7200,"station_id":"ce4bhpp2rcd13ifvqhfg","pricing_plan_id":"cebpf4jnsgd1na2vs0mg"},{"bike_id":"4096b05b-82d6-4b39-8e37-b7938f7f75a2","system_id":"levelo_inurba_marseille","lat":43.28999,"lon":5.3561,"is_reserved":false,"is_disabled":false,"rental_uris":{"android":"levelo://app?vid=4096b05b-82d6-4b39-8e37-b7938f7f75a2","ios":"levelo://app?vid=4096b05b-82d6-4b39-8e37-b7938f7f75a2"},"vehicle_type_id":"4","last_reported":1728983395,"current_range_meters":38400,"station_id":"ce4bhb92rcd13ifvqen0","pricing_plan_id":"cebpf4jnsgd1na2vs0mg"},{"bike_id":"1adfaefa-f834-4d15-ab18-47f58376145c","system_id":"levelo_inurba_marseille","lat":43.29511,"lon":5.37508,"is_reserved":false,"is_disabled":false,"rental_uris":{"android":"levelo://app?vid=1adfaefa-f834-4d15-ab18-47f58376145c","ios":"levelo://app?vid=1adfaefa-f834-4d15-ab18-47f58376145c"},"vehicle_type_id":"4","last_reported":1728983395,"current_range_meters":14400,"station_id":"ce4bgkp2rcd13ifvqbmg","pricing_plan_id":"cebpf4jnsgd1na2vs0mg"},{"bike_id":"1ed4e0ee-c515-444f-afc8-9b2401d51f67","system_id":"levelo_inurba_marseille","lat":43.27311,"lon":5.39081,"is_reserved":false,"is_disabled":false,"rental_uris":{"android":"levelo://app?vid=1ed4e0ee-c515-444f-afc8-9b2401d51f67","ios":"levelo://app?vid=1ed4e0ee-c515-444f-afc8-9b2401d51f67"},"vehicle_type_id":"4","last_reported":1728983395,"current_range_meters":38000,"station_id":"ce4bhgp2rcd13ifvqfe0","pricing_plan_id":"cebpf4jnsgd1na2vs0mg"},{"bike_id":"453ff30b-5109-4f9b-a0ee-199c4668928b","system_id":"levelo_inurba_marseille","lat":43.31345,"lon":5.36706,"is_reserved":false,"is_disabled":false,"rental_uris":{"android":"levelo://app?vid=453ff30b-5109-4f9b-a0ee-199c4668928b","ios":"levelo://app?vid=453ff30b-5109-4f9b-a0ee-199c4668928b"},"vehicle_type_id":"4","last_reported":1728983395,"current_range_meters":36000,"station_id":"ce4bgr92rcd13ifvqc6g","pricing_plan_id":"cebpf4jnsgd1na2vs0mg"},{"bike_id":"9c75a2c9-809f-4518-b812-6dfc1ac280df","system_id":"levelo_inurba_marseille","lat":43.337444,"lon":5.374475,"is_reserved":false,"is_disabled":false,"rental_uris":{"android":"levelo://app?vid=9c75a2c9-809f-4518-b812-6dfc1ac280df","ios":"levelo://app?vid=9c75a2c9-809f-4518-b812-6dfc1ac280df"},"vehicle_type_id":"4","last_reported":1728983395,"current_range_meters":21600,"station_id":"","pricing_plan_id":"cebpf4jnsgd1na2vs0mg"},{"bike_id":"8fff6307-2dd1-450e-9fa4-c335ee8c6e79","system_id":"levelo_inurba_marseille","lat":43.27486,"lon":5.42462,"is_reserved":false,"is_disabled":false,"rental_uris":{"android":"levelo://app?vid=8fff6307-2dd1-450e-9fa4-c335ee8c6e79","ios":"levelo://app?vid=8fff6307-2dd1-450e-9fa4-c335ee8c6e79"},"vehicle_type_id":"4","last_reported":1728983395,"current_range_meters":19600,"station_id":"ce4bhn92rcd13ifvqgrg","pricing_plan_id":"cebpf4jnsgd1na2vs0mg"},{"bike_id":"3d21cd32-6499-466f-a4bf-ca07bc52bda8","system_id":"levelo_inurba_marseille","lat":43.26202,"lon":5.37929,"is_reserved":false,"is_disabled":false,"rental_uris":{"android":"levelo://app?vid=3d21cd32-6499-466f-a4bf-ca07bc52bda8","ios":"levelo://app?vid=3d21cd32-6499-466f-a4bf-ca07bc52bda8"},"vehicle_type_id":"4","last_reported":1728983395,"current_range_meters":25200,"station_id":"ce4bhjp2rcd13ifvqg90","pricing_plan_id":"cebpf4jnsgd1na2vs0mg"},{"bike_id":"ac8db1d7-3c94-466e-a0d7-c930d8e6d191","system_id":"levelo_inurba_marseille","lat":43.30548,"lon":5.36709,"is_reserved":false,"is_disabled":false,"rental_uris":{"android":"levelo://app?vid=ac8db1d7-3c94-466e-a0d7-c930d8e6d191","ios":"levelo://app?vid=ac8db1d7-3c94-466e-a0d7-c930d8e6d191"},"vehicle_type_id":"4","last_reported":1728983395,"current_range_meters":19600,"station_id":"ce4bgrp2rcd13ifvqc9g","pricing_plan_id":"cebpf4jnsgd1na2vs0mg"},{"bike_id":"675d5183-f496-4ca7-82b0-64ffd16e6734","system_id":"levelo_inurba_marseille","lat":43.27495,"lon":5.42454,"is_reserved":false,"is_disabled":false,"rental_uris":{"android":"levelo://app?vid=675d5183-f496-4ca7-82b0-64ffd16e6734","ios":"levelo://app?vid=675d5183-f496-4ca7-82b0-64ffd16e6734"},"vehicle_type_id":"4","last_reported":1728983395,"current_range_meters":8000,"station_id":"ce4bhn92rcd13ifvqgrg","pricing_plan_id":"cebpf4jnsgd1na2vs0mg"},{"bike_id":"0db09599-4f78-4513-9b88-b0d7d355a4c6","system_id":"levelo_inurba_marseille","lat":43.33722,"lon":5.39178,"is_reserved":false,"is_disabled":false,"rental_uris":{"android":"levelo://app?vid=0db09599-4f78-4513-9b88-b0d7d355a4c6","ios":"levelo://app?vid=0db09599-4f78-4513-9b88-b0d7d355a4c6"},"vehicle_type_id":"4","last_reported":1728983395,"current_range_meters":39200,"station_id":"ce4bhr92rcd13ifvqhsg","pricing_plan_id":"cebpf4jnsgd1na2vs0mg"},{"bike_id":"de17feb1-7736-402e-9deb-e917acf16eef","system_id":"levelo_inurba_marseille","lat":43.279503,"lon":5.387642,"is_reserved":false,"is_disabled":false,"rental_uris":{"android":"levelo://app?vid=de17feb1-7736-402e-9deb-e917acf16eef","ios":"levelo://app?vid=de17feb1-7736-402e-9deb-e917acf16eef"},"vehicle_type_id":"4","last_reported":1728983395,"current_range_meters":30000,"station_id":"ce4bhg12rcd13ifvqf80","pricing_plan_id":"cebpf4jnsgd1na2vs0mg"},{"bike_id":"64cd4264-8143-4cfb-8679-a25c71d32aba","system_id":"levelo_inurba_marseille","lat":43.2318,"lon":5.39984,"is_reserved":false,"is_disabled":false,"rental_uris":{"android":"levelo://app?vid=64cd4264-8143-4cfb-8679-a25c71d32aba","ios":"levelo://app?vid=64cd4264-8143-4cfb-8679-a25c71d32aba"},"vehicle_type_id":"4","last_reported":1728983395,"current_range_meters":33200,"station_id":"ce4bhn12rcd13ifvqgqg","pricing_plan_id":"cebpf4jnsgd1na2vs0mg"},{"bike_id":"e043ac16-f754-4642-b077-d2e254dc22ac","system_id":"levelo_inurba_marseille","lat":43.30314,"lon":5.3689,"is_reserved":false,"is_disabled":false,"rental_uris":{"android":"levelo://app?vid=e043ac16-f754-4642-b077-d2e254dc22ac","ios":"levelo://app?vid=e043ac16-f754-4642-b077-d2e254dc22ac"},"vehicle_type_id":"4","last_reported":1728983395,"current_range_meters":30000,"station_id":"ce4bgqh2rcd13ifvqc5g","pricing_plan_id":"cebpf4jnsgd1na2vs0mg"},{"bike_id":"cc1684e5-e2b0-4b56-b26c-32a6bf19b8ea","system_id":"levelo_inurba_marseille","lat":43.26682,"lon":5.38266,"is_reserved":false,"is_disabled":false,"rental_uris":{"android":"levelo://app?vid=cc1684e5-e2b0-4b56-b26c-32a6bf19b8ea","ios":"levelo://app?vid=cc1684e5-e2b0-4b56-b26c-32a6bf19b8ea"},"vehicle_type_id":"4","last_reported":1728983395,"current_range_meters":19200,"station_id":"ce4bhg92rcd13ifvqf90","pricing_plan_id":"cebpf4jnsgd1na2vs0mg"},{"bike_id":"2140b6a3-5118-4150-823e-9225aeb56201","system_id":"levelo_inurba_marseille","lat":43.23196,"lon":5.35546,"is_reserved":false,"is_disabled":false,"rental_uris":{"android":"levelo://app?vid=2140b6a3-5118-4150-823e-9225aeb56201","ios":"levelo://app?vid=2140b6a3-5118-4150-823e-9225aeb56201"},"vehicle_type_id":"4","last_reported":1728983395,"current_range_meters":8400,"station_id":"ce4bhu92rcd13ifvqi70","pricing_plan_id":"cebpf4jnsgd1na2vs0mg"},{"bike_id":"ea90227c-842e-4143-b8dc-fe74683c474f","system_id":"levelo_inurba_marseille","lat":43.25937,"lon":5.40904,"is_reserved":false,"is_disabled":false,"rental_uris":{"android":"levelo://app?vid=ea90227c-842e-4143-b8dc-fe74683c474f","ios":"levelo://app?vid=ea90227c-842e-4143-b8dc-fe74683c474f"},"vehicle_type_id":"4","last_reported":1728983395,"current_range_meters":32000,"station_id":"ce4bhm92rcd13ifvqglg","pricing_plan_id":"cebpf4jnsgd1na2vs0mg"},{"bike_id":"fd7c8041-1d73-495f-8d47-e8956e9d4329","system_id":"levelo_inurba_marseille","lat":43.29963,"lon":5.38481,"is_reserved":false,"is_disabled":false,"rental_uris":{"android":"levelo://app?vid=fd7c8041-1d73-495f-8d47-e8956e9d4329","ios":"levelo://app?vid=fd7c8041-1d73-495f-8d47-e8956e9d4329"},"vehicle_type_id":"4","last_reported":1728983395,"current_range_meters":38000,"station_id":"ce4bgj92rcd13ifvqbd0","pricing_plan_id":"cebpf4jnsgd1na2vs0mg"},{"bike_id":"4c251e63-bc87-4cd7-a975-784126679ffc","system_id":"levelo_inurba_marseille","lat":43.30535,"lon":5.36701,"is_reserved":false,"is_disabled":false,"rental_uris":{"android":"levelo://app?vid=4c251e63-bc87-4cd7-a975-784126679ffc","ios":"levelo://app?vid=4c251e63-bc87-4cd7-a975-784126679ffc"},"vehicle_type_id":"4","last_reported":1728983395,"current_range_meters":34800,"station_id":"ce4bgrp2rcd13ifvqc9g","pricing_plan_id":"cebpf4jnsgd1na2vs0mg"},{"bike_id":"3fbd22ce-a1a9-4563-ae9c-b63397637752","system_id":"levelo_inurba_marseille","lat":43.337444,"lon":5.374475,"is_reserved":false,"is_disabled":false,"rental_uris":{"android":"levelo://app?vid=3fbd22ce-a1a9-4563-ae9c-b63397637752","ios":"levelo://app?vid=3fbd22ce-a1a9-4563-ae9c-b63397637752"},"vehicle_type_id":"4","last_reported":1728983395,"current_range_meters":19600,"station_id":"","pricing_plan_id":"cebpf4jnsgd1na2vs0mg"},{"bike_id":"b21c6fa4-3536-40e8-a673-f4abc1663a3f","system_id":"levelo_inurba_marseille","lat":43.29185,"lon":5.39326,"is_reserved":false,"is_disabled":false,"rental_uris":{"android":"levelo://app?vid=b21c6fa4-3536-40e8-a673-f4abc1663a3f","ios":"levelo://app?vid=b21c6fa4-3536-40e8-a673-f4abc1663a3f"},"vehicle_type_id":"4","last_reported":1728983395,"current_range_meters":13600,"station_id":"ce4bh192rcd13ifvqdd0","pricing_plan_id":"cebpf4jnsgd1na2vs0mg"},{"bike_id":"bc965413-5022-4f14-a435-2c22cfcd6979","system_id":"levelo_inurba_marseille","lat":43.23146,"lon":5.43723,"is_reserved":false,"is_disabled":false,"rental_uris":{"android":"levelo://app?vid=bc965413-5022-4f14-a435-2c22cfcd6979","ios":"levelo://app?vid=bc965413-5022-4f14-a435-2c22cfcd6979"},"vehicle_type_id":"4","last_reported":1728983395,"current_range_meters":16400,"station_id":"ce4bhmp2rcd13ifvqgog","pricing_plan_id":"cebpf4jnsgd1na2vs0mg"},{"bike_id":"0b203320-747c-4cc9-a48b-df40eca1f3a6","system_id":"levelo_inurba_marseille","lat":43.29978,"lon":5.38485,"is_reserved":false,"is_disabled":false,"rental_uris":{"android":"levelo://app?vid=0b203320-747c-4cc9-a48b-df40eca1f3a6","ios":"levelo://app?vid=0b203320-747c-4cc9-a48b-df40eca1f3a6"},"vehicle_type_id":"4","last_reported":1728983395,"current_range_meters":38800,"station_id":"ce4bgj92rcd13ifvqbd0","pricing_plan_id":"cebpf4jnsgd1na2vs0mg"},{"bike_id":"822e5772-0ab2-4531-869d-b15dc8912cf2","system_id":"levelo_inurba_marseille","lat":43.3055,"lon":5.36704,"is_reserved":false,"is_disabled":false,"rental_uris":{"android":"levelo://app?vid=822e5772-0ab2-4531-869d-b15dc8912cf2","ios":"levelo://app?vid=822e5772-0ab2-4531-869d-b15dc8912cf2"},"vehicle_type_id":"4","last_reported":1728983395,"current_range_meters":38000,"station_id":"ce4bgrp2rcd13ifvqc9g","pricing_plan_id":"cebpf4jnsgd1na2vs0mg"},{"bike_id":"fb854491-5e80-4840-b3c8-0756a412720c","system_id":"levelo_inurba_marseille","lat":43.23148,"lon":5.43717,"is_reserved":false,"is_disabled":false,"rental_uris":{"android":"levelo://app?vid=fb854491-5e80-4840-b3c8-0756a412720c","ios":"levelo://app?vid=fb854491-5e80-4840-b3c8-0756a412720c"},"vehicle_type_id":"4","last_reported":1728983395,"current_range_meters":38000,"station_id":"ce4bhmp2rcd13ifvqgog","pricing_plan_id":"cebpf4jnsgd1na2vs0mg"},{"bike_id":"1be83bc4-0f3b-40c5-b922-0acf5ac1e3f6","system_id":"levelo_inurba_marseille","lat":43.2962,"lon":5.37711,"is_reserved":false,"is_disabled":false,"rental_uris":{"android":"levelo://app?vid=1be83bc4-0f3b-40c5-b922-0acf5ac1e3f6","ios":"levelo://app?vid=1be83bc4-0f3b-40c5-b922-0acf5ac1e3f6"},"vehicle_type_id":"4","last_reported":1728983395,"current_range_meters":37600,"station_id":"ce4bgi92rcd13ifvqb90","pricing_plan_id":"cebpf4jnsgd1na2vs0mg"},{"bike_id":"337e242e-51a2-4522-bc59-0004a8992788","system_id":"levelo_inurba_marseille","lat":43.27905,"lon":5.39574,"is_reserved":false,"is_disabled":false,"rental_uris":{"android":"levelo://app?vid=337e242e-51a2-4522-bc59-0004a8992788","ios":"levelo://app?vid=337e242e-51a2-4522-bc59-0004a8992788"},"vehicle_type_id":"4","last_reported":1728983395,"current_range_meters":16400,"station_id":"ce4bhf92rcd13ifvqf40","pricing_plan_id":"cebpf4jnsgd1na2vs0mg"},{"bike_id":"e9d42937-a4b2-4a84-a233-384773796211","system_id":"levelo_inurba_marseille","lat":43.25932,"lon":5.40913,"is_reserved":false,"is_disabled":false,"rental_uris":{"android":"levelo://app?vid=e9d42937-a4b2-4a84-a233-384773796211","ios":"levelo://app?vid=e9d42937-a4b2-4a84-a233-384773796211"},"vehicle_type_id":"4","last_reported":1728983395,"current_range_meters":20800,"station_id":"ce4bhm92rcd13ifvqglg","pricing_plan_id":"cebpf4jnsgd1na2vs0mg"},{"bike_id":"7cc5db3f-7c40-48b0-ab8a-ef1e22f35aea","system_id":"levelo_inurba_marseille","lat":43.30141,"lon":5.37403,"is_reserved":false,"is_disabled":false,"rental_uris":{"android":"levelo://app?vid=7cc5db3f-7c40-48b0-ab8a-ef1e22f35aea","ios":"levelo://app?vid=7cc5db3f-7c40-48b0-ab8a-ef1e22f35aea"},"vehicle_type_id":"4","last_reported":1728983395,"current_range_meters":24000,"station_id":"ce4bgs92rcd13ifvqcc0","pricing_plan_id":"cebpf4jnsgd1na2vs0mg"},{"bike_id":"ac1802f2-e0c7-4553-8f9e-27953027561d","system_id":"levelo_inurba_marseille","lat":43.32547,"lon":5.41437,"is_reserved":false,"is_disabled":false,"rental_uris":{"android":"levelo://app?vid=ac1802f2-e0c7-4553-8f9e-27953027561d","ios":"levelo://app?vid=ac1802f2-e0c7-4553-8f9e-27953027561d"},"vehicle_type_id":"4","last_reported":1728983395,"current_range_meters":9200,"station_id":"ce4bhq12rcd13ifvqhhg","pricing_plan_id":"cebpf4jnsgd1na2vs0mg"},{"bike_id":"47fba401-8923-4e44-a249-9013a4c9ac24","system_id":"levelo_inurba_marseille","lat":43.255013,"lon":5.376504,"is_reserved":false,"is_disabled":false,"rental_uris":{"android":"levelo://app?vid=47fba401-8923-4e44-a249-9013a4c9ac24","ios":"levelo://app?vid=47fba401-8923-4e44-a249-9013a4c9ac24"},"vehicle_type_id":"4","last_reported":1728983395,"current_range_meters":24400,"station_id":"ce4bhh12rcd13ifvqff0","pricing_plan_id":"cebpf4jnsgd1na2vs0mg"},{"bike_id":"668d051a-56e1-409a-89a4-e25a07a71d33","system_id":"levelo_inurba_marseille","lat":43.29782,"lon":5.38104,"is_reserved":false,"is_disabled":false,"rental_uris":{"android":"levelo://app?vid=668d051a-56e1-409a-89a4-e25a07a71d33","ios":"levelo://app?vid=668d051a-56e1-409a-89a4-e25a07a71d33"},"vehicle_type_id":"4","last_reported":1728983395,"current_range_meters":9200,"station_id":"ce4bgip2rcd13ifvqbb0","pricing_plan_id":"cebpf4jnsgd1na2vs0mg"},{"bike_id":"d47463b0-6813-4565-8760-307b0795d4e6","system_id":"levelo_inurba_marseille","lat":43.28154,"lon":5.42638,"is_reserved":false,"is_disabled":false,"rental_uris":{"android":"levelo://app?vid=d47463b0-6813-4565-8760-307b0795d4e6","ios":"levelo://app?vid=d47463b0-6813-4565-8760-307b0795d4e6"},"vehicle_type_id":"4","last_reported":1728983395,"current_range_meters":20400,"station_id":"ce4bhnh2rcd13ifvqgug","pricing_plan_id":"cebpf4jnsgd1na2vs0mg"},{"bike_id":"76465980-7a9a-4872-9297-9b3aa19725f4","system_id":"levelo_inurba_marseille","lat":43.336,"lon":5.41034,"is_reserved":false,"is_disabled":false,"rental_uris":{"android":"levelo://app?vid=76465980-7a9a-4872-9297-9b3aa19725f4","ios":"levelo://app?vid=76465980-7a9a-4872-9297-9b3aa19725f4"},"vehicle_type_id":"4","last_reported":1728983395,"current_range_meters":6800,"station_id":"ce4bhqh2rcd13ifvqhmg","pricing_plan_id":"cebpf4jnsgd1na2vs0mg"},{"bike_id":"e01e41b6-906b-4d38-bd47-8409331ef9cb","system_id":"levelo_inurba_marseille","lat":43.24164,"lon":5.36399,"is_reserved":false,"is_disabled":false,"rental_uris":{"android":"levelo://app?vid=e01e41b6-906b-4d38-bd47-8409331ef9cb","ios":"levelo://app?vid=e01e41b6-906b-4d38-bd47-8409331ef9cb"},"vehicle_type_id":"4","last_reported":1728983395,"current_range_meters":33600,"station_id":"cpo36qri1sfpv3e86is0","pricing_plan_id":"cebpf4jnsgd1na2vs0mg"},{"bike_id":"36fa1a71-6a1c-486c-acf9-1be7a8c9be5b","system_id":"levelo_inurba_marseille","lat":43.29637,"lon":5.40592,"is_reserved":false,"is_disabled":false,"rental_uris":{"android":"levelo://app?vid=36fa1a71-6a1c-486c-acf9-1be7a8c9be5b","ios":"levelo://app?vid=36fa1a71-6a1c-486c-acf9-1be7a8c9be5b"},"vehicle_type_id":"4","last_reported":1728983395,"current_range_meters":38000,"station_id":"ce4bh0h2rcd13ifvqd60","pricing_plan_id":"cebpf4jnsgd1na2vs0mg"},{"bike_id":"e3ed0c6f-17a1-4b35-bcea-8e6b56203f80","system_id":"levelo_inurba_marseille","lat":43.25935,"lon":5.40893,"is_reserved":false,"is_disabled":false,"rental_uris":{"android":"levelo://app?vid=e3ed0c6f-17a1-4b35-bcea-8e6b56203f80","ios":"levelo://app?vid=e3ed0c6f-17a1-4b35-bcea-8e6b56203f80"},"vehicle_type_id":"4","last_reported":1728983395,"current_range_meters":28000,"station_id":"ce4bhm92rcd13ifvqglg","pricing_plan_id":"cebpf4jnsgd1na2vs0mg"},{"bike_id":"89211ee2-076f-4df3-92bd-cd8885f2e76d","system_id":"levelo_inurba_marseille","lat":43.23194,"lon":5.35555,"is_reserved":false,"is_disabled":false,"rental_uris":{"android":"levelo://app?vid=89211ee2-076f-4df3-92bd-cd8885f2e76d","ios":"levelo://app?vid=89211ee2-076f-4df3-92bd-cd8885f2e76d"},"vehicle_type_id":"4","last_reported":1728983395,"current_range_meters":38800,"station_id":"ce4bhu92rcd13ifvqi70","pricing_plan_id":"cebpf4jnsgd1na2vs0mg"},{"bike_id":"ce9d0675-d631-4c06-b642-b36bc8ba8ca3","system_id":"levelo_inurba_marseille","lat":43.33725,"lon":5.39194,"is_reserved":false,"is_disabled":false,"rental_uris":{"android":"levelo://app?vid=ce9d0675-d631-4c06-b642-b36bc8ba8ca3","ios":"levelo://app?vid=ce9d0675-d631-4c06-b642-b36bc8ba8ca3"},"vehicle_type_id":"4","last_reported":1728983395,"current_range_meters":37600,"station_id":"ce4bhr92rcd13ifvqhsg","pricing_plan_id":"cebpf4jnsgd1na2vs0mg"},{"bike_id":"678c26db-dcb1-4396-b0d0-b38d54cca5ee","system_id":"levelo_inurba_marseille","lat":43.24806,"lon":5.37451,"is_reserved":false,"is_disabled":false,"rental_uris":{"android":"levelo://app?vid=678c26db-dcb1-4396-b0d0-b38d54cca5ee","ios":"levelo://app?vid=678c26db-dcb1-4396-b0d0-b38d54cca5ee"},"vehicle_type_id":"4","last_reported":1728983395,"current_range_meters":9600,"station_id":"ce4bhgh2rcd13ifvqfb0","pricing_plan_id":"cebpf4jnsgd1na2vs0mg"},{"bike_id":"80bea031-e504-4274-8a75-1f93de28d735","system_id":"levelo_inurba_marseille","lat":43.29413,"lon":5.38627,"is_reserved":false,"is_disabled":false,"rental_uris":{"android":"levelo://app?vid=80bea031-e504-4274-8a75-1f93de28d735","ios":"levelo://app?vid=80bea031-e504-4274-8a75-1f93de28d735"},"vehicle_type_id":"4","last_reported":1728983395,"current_range_meters":20400,"station_id":"ce4bh2h2rcd13ifvqdh0","pricing_plan_id":"cebpf4jnsgd1na2vs0mg"},{"bike_id":"0d0d937b-3a8e-40bd-9e28-5b5a701c3e4a","system_id":"levelo_inurba_marseille","lat":43.26197,"lon":5.37928,"is_reserved":false,"is_disabled":false,"rental_uris":{"android":"levelo://app?vid=0d0d937b-3a8e-40bd-9e28-5b5a701c3e4a","ios":"levelo://app?vid=0d0d937b-3a8e-40bd-9e28-5b5a701c3e4a"},"vehicle_type_id":"4","last_reported":1728983395,"current_range_meters":18000,"station_id":"ce4bhjp2rcd13ifvqg90","pricing_plan_id":"cebpf4jnsgd1na2vs0mg"},{"bike_id":"d2f93f55-1bfc-4fcf-afc0-1e2ba98f7c28","system_id":"levelo_inurba_marseille","lat":43.30546,"lon":5.36709,"is_reserved":false,"is_disabled":false,"rental_uris":{"android":"levelo://app?vid=d2f93f55-1bfc-4fcf-afc0-1e2ba98f7c28","ios":"levelo://app?vid=d2f93f55-1bfc-4fcf-afc0-1e2ba98f7c28"},"vehicle_type_id":"4","last_reported":1728983395,"current_range_meters":32800,"station_id":"ce4bgrp2rcd13ifvqc9g","pricing_plan_id":"cebpf4jnsgd1na2vs0mg"},{"bike_id":"1403e5e9-3d47-43ff-80bd-a012f5947031","system_id":"levelo_inurba_marseille","lat":43.29963,"lon":5.38496,"is_reserved":false,"is_disabled":false,"rental_uris":{"android":"levelo://app?vid=1403e5e9-3d47-43ff-80bd-a012f5947031","ios":"levelo://app?vid=1403e5e9-3d47-43ff-80bd-a012f5947031"},"vehicle_type_id":"4","last_reported":1728983395,"current_range_meters":26800,"station_id":"ce4bgj92rcd13ifvqbd0","pricing_plan_id":"cebpf4jnsgd1na2vs0mg"},{"bike_id":"d36ab0ff-210a-4155-855a-bdf3cca1b9af","system_id":"levelo_inurba_marseille","lat":43.2594,"lon":5.40907,"is_reserved":false,"is_disabled":false,"rental_uris":{"android":"levelo://app?vid=d36ab0ff-210a-4155-855a-bdf3cca1b9af","ios":"levelo://app?vid=d36ab0ff-210a-4155-855a-bdf3cca1b9af"},"vehicle_type_id":"4","last_reported":1728983395,"current_range_meters":28000,"station_id":"ce4bhm92rcd13ifvqglg","pricing_plan_id":"cebpf4jnsgd1na2vs0mg"},{"bike_id":"8b35e8e1-6aec-4bc4-8536-8a14fe052e65","system_id":"levelo_inurba_marseille","lat":43.28437,"lon":5.3919,"is_reserved":false,"is_disabled":false,"rental_uris":{"android":"levelo://app?vid=8b35e8e1-6aec-4bc4-8536-8a14fe052e65","ios":"levelo://app?vid=8b35e8e1-6aec-4bc4-8536-8a14fe052e65"},"vehicle_type_id":"4","last_reported":1728983395,"current_range_meters":33200,"station_id":"ce4bhoh2rcd13ifvqh5g","pricing_plan_id":"cebpf4jnsgd1na2vs0mg"},{"bike_id":"c620684a-3a98-46a6-a3e2-625a11908b9f","system_id":"levelo_inurba_marseille","lat":43.27813,"lon":5.40706,"is_reserved":false,"is_disabled":false,"rental_uris":{"android":"levelo://app?vid=c620684a-3a98-46a6-a3e2-625a11908b9f","ios":"levelo://app?vid=c620684a-3a98-46a6-a3e2-625a11908b9f"},"vehicle_type_id":"4","last_reported":1728983395,"current_range_meters":12000,"station_id":"ce4bhnh2rcd13ifvqgtg","pricing_plan_id":"cebpf4jnsgd1na2vs0mg"},{"bike_id":"9c4870ef-8189-49c9-8051-0aef7043e5cd","system_id":"levelo_inurba_marseille","lat":43.25937,"lon":5.40894,"is_reserved":false,"is_disabled":false,"rental_uris":{"android":"levelo://app?vid=9c4870ef-8189-49c9-8051-0aef7043e5cd","ios":"levelo://app?vid=9c4870ef-8189-49c9-8051-0aef7043e5cd"},"vehicle_type_id":"4","last_reported":1728983395,"current_range_meters":5600,"station_id":"ce4bhm92rcd13ifvqglg","pricing_plan_id":"cebpf4jnsgd1na2vs0mg"},{"bike_id":"1b2237ff-3ef6-46aa-b779-5ad09a7d0fc4","system_id":"levelo_inurba_marseille","lat":43.327718,"lon":5.413642,"is_reserved":false,"is_disabled":false,"rental_uris":{"android":"levelo://app?vid=1b2237ff-3ef6-46aa-b779-5ad09a7d0fc4","ios":"levelo://app?vid=1b2237ff-3ef6-46aa-b779-5ad09a7d0fc4"},"vehicle_type_id":"4","last_reported":1728983395,"current_range_meters":9600,"station_id":"ce4bhq12rcd13ifvqhhg","pricing_plan_id":"cebpf4jnsgd1na2vs0mg"},{"bike_id":"70fc60a6-b8a1-49de-8a6e-1b532dfb0edc","system_id":"levelo_inurba_marseille","lat":43.32488,"lon":5.36565,"is_reserved":false,"is_disabled":false,"rental_uris":{"android":"levelo://app?vid=70fc60a6-b8a1-49de-8a6e-1b532dfb0edc","ios":"levelo://app?vid=70fc60a6-b8a1-49de-8a6e-1b532dfb0edc"},"vehicle_type_id":"4","last_reported":1728983395,"current_range_meters":11600,"station_id":"ce4bhs12rcd13ifvqhvg","pricing_plan_id":"cebpf4jnsgd1na2vs0mg"},{"bike_id":"b6761712-cd33-437e-83c8-811ce3c1e59f","system_id":"levelo_inurba_marseille","lat":43.23959,"lon":5.36643,"is_reserved":false,"is_disabled":false,"rental_uris":{"android":"levelo://app?vid=b6761712-cd33-437e-83c8-811ce3c1e59f","ios":"levelo://app?vid=b6761712-cd33-437e-83c8-811ce3c1e59f"},"vehicle_type_id":"4","last_reported":1728983395,"current_range_meters":31200,"station_id":"ce4bhi12rcd13ifvqfp0","pricing_plan_id":"cebpf4jnsgd1na2vs0mg"},{"bike_id":"7bc84ff3-a7c0-463b-803f-ad33b3503208","system_id":"levelo_inurba_marseille","lat":43.25818,"lon":5.39436,"is_reserved":false,"is_disabled":false,"rental_uris":{"android":"levelo://app?vid=7bc84ff3-a7c0-463b-803f-ad33b3503208","ios":"levelo://app?vid=7bc84ff3-a7c0-463b-803f-ad33b3503208"},"vehicle_type_id":"4","last_reported":1728983395,"current_range_meters":31200,"station_id":"ce4bhip2rcd13ifvqft0","pricing_plan_id":"cebpf4jnsgd1na2vs0mg"},{"bike_id":"1d4809c7-50a5-471c-a2a9-7c2622bdf17d","system_id":"levelo_inurba_marseille","lat":43.26945,"lon":5.38631,"is_reserved":false,"is_disabled":false,"rental_uris":{"android":"levelo://app?vid=1d4809c7-50a5-471c-a2a9-7c2622bdf17d","ios":"levelo://app?vid=1d4809c7-50a5-471c-a2a9-7c2622bdf17d"},"vehicle_type_id":"4","last_reported":1728983395,"current_range_meters":38800,"station_id":"ce4bhh92rcd13ifvqfh0","pricing_plan_id":"cebpf4jnsgd1na2vs0mg"},{"bike_id":"ff96eee3-1ac8-4888-9ae7-e4b6cc8154af","system_id":"levelo_inurba_marseille","lat":43.33739,"lon":5.3746,"is_reserved":false,"is_disabled":false,"rental_uris":{"android":"levelo://app?vid=ff96eee3-1ac8-4888-9ae7-e4b6cc8154af","ios":"levelo://app?vid=ff96eee3-1ac8-4888-9ae7-e4b6cc8154af"},"vehicle_type_id":"4","last_reported":1728983395,"current_range_meters":34800,"station_id":"","pricing_plan_id":"cebpf4jnsgd1na2vs0mg"},{"bike_id":"342e1942-2d97-4b1e-a725-9986f3fd7423","system_id":"levelo_inurba_marseille","lat":43.31221,"lon":5.36866,"is_reserved":false,"is_disabled":false,"rental_uris":{"android":"levelo://app?vid=342e1942-2d97-4b1e-a725-9986f3fd7423","ios":"levelo://app?vid=342e1942-2d97-4b1e-a725-9986f3fd7423"},"vehicle_type_id":"4","last_reported":1728983395,"current_range_meters":20400,"station_id":"ce4bgl92rcd13ifvqbq0","pricing_plan_id":"cebpf4jnsgd1na2vs0mg"},{"bike_id":"18466dd1-f83e-4b92-8f8e-056250979eea","system_id":"levelo_inurba_marseille","lat":43.30944,"lon":5.39046,"is_reserved":false,"is_disabled":false,"rental_uris":{"android":"levelo://app?vid=18466dd1-f83e-4b92-8f8e-056250979eea","ios":"levelo://app?vid=18466dd1-f83e-4b92-8f8e-056250979eea"},"vehicle_type_id":"4","last_reported":1728983395,"current_range_meters":32400,"station_id":"ce4bgup2rcd13ifvqco0","pricing_plan_id":"cebpf4jnsgd1na2vs0mg"},{"bike_id":"8bde9570-fe99-48ac-863a-7621d2391e10","system_id":"levelo_inurba_marseille","lat":43.25088,"lon":5.37546,"is_reserved":false,"is_disabled":false,"rental_uris":{"android":"levelo://app?vid=8bde9570-fe99-48ac-863a-7621d2391e10","ios":"levelo://app?vid=8bde9570-fe99-48ac-863a-7621d2391e10"},"vehicle_type_id":"4","last_reported":1728983395,"current_range_meters":12400,"station_id":"","pricing_plan_id":"cebpf4jnsgd1na2vs0mg"},{"bike_id":"92e9a629-7865-4b24-b20f-1a84c40473a6","system_id":"levelo_inurba_marseille","lat":43.30133,"lon":5.37424,"is_reserved":false,"is_disabled":false,"rental_uris":{"android":"levelo://app?vid=92e9a629-7865-4b24-b20f-1a84c40473a6","ios":"levelo://app?vid=92e9a629-7865-4b24-b20f-1a84c40473a6"},"vehicle_type_id":"4","last_reported":1728983395,"current_range_meters":12000,"station_id":"ce4bgs92rcd13ifvqcc0","pricing_plan_id":"cebpf4jnsgd1na2vs0mg"},{"bike_id":"c821bb0f-18bb-403d-ac0b-91f127cd3cdb","system_id":"levelo_inurba_marseille","lat":43.30547,"lon":5.36546,"is_reserved":false,"is_disabled":false,"rental_uris":{"android":"levelo://app?vid=c821bb0f-18bb-403d-ac0b-91f127cd3cdb","ios":"levelo://app?vid=c821bb0f-18bb-403d-ac0b-91f127cd3cdb"},"vehicle_type_id":"4","last_reported":1728983395,"current_range_meters":27600,"station_id":"ce4bgs12rcd13ifvqcag","pricing_plan_id":"cebpf4jnsgd1na2vs0mg"},{"bike_id":"15ac64ea-00bc-4d0f-8e51-984e9c175736","system_id":"levelo_inurba_marseille","lat":43.34142,"lon":5.40903,"is_reserved":false,"is_disabled":false,"rental_uris":{"android":"levelo://app?vid=15ac64ea-00bc-4d0f-8e51-984e9c175736","ios":"levelo://app?vid=15ac64ea-00bc-4d0f-8e51-984e9c175736"},"vehicle_type_id":"4","last_reported":1728983395,"current_range_meters":9600,"station_id":"ce4bhqh2rcd13ifvqhlg","pricing_plan_id":"cebpf4jnsgd1na2vs0mg"},{"bike_id":"00c53683-72aa-4d58-bb91-f404eef9456a","system_id":"levelo_inurba_marseille","lat":43.26947,"lon":5.3863,"is_reserved":false,"is_disabled":false,"rental_uris":{"android":"levelo://app?vid=00c53683-72aa-4d58-bb91-f404eef9456a","ios":"levelo://app?vid=00c53683-72aa-4d58-bb91-f404eef9456a"},"vehicle_type_id":"4","last_reported":1728983395,"current_range_meters":39200,"station_id":"ce4bhh92rcd13ifvqfh0","pricing_plan_id":"cebpf4jnsgd1na2vs0mg"},{"bike_id":"e8e8118d-3d5e-42fd-9096-f73e58a1fa57","system_id":"levelo_inurba_marseille","lat":43.29845,"lon":5.36272,"is_reserved":false,"is_disabled":false,"rental_uris":{"android":"levelo://app?vid=e8e8118d-3d5e-42fd-9096-f73e58a1fa57","ios":"levelo://app?vid=e8e8118d-3d5e-42fd-9096-f73e58a1fa57"},"vehicle_type_id":"4","last_reported":1728983395,"current_range_meters":34800,"station_id":"ce4bgpp2rcd13ifvqc3g","pricing_plan_id":"cebpf4jnsgd1na2vs0mg"},{"bike_id":"11ec8ca7-d1e6-4d8e-a20f-14a831d8b14b","system_id":"levelo_inurba_marseille","lat":43.29633,"lon":5.37706,"is_reserved":false,"is_disabled":false,"rental_uris":{"android":"levelo://app?vid=11ec8ca7-d1e6-4d8e-a20f-14a831d8b14b","ios":"levelo://app?vid=11ec8ca7-d1e6-4d8e-a20f-14a831d8b14b"},"vehicle_type_id":"4","last_reported":1728983395,"current_range_meters":19200,"station_id":"ce4bgi92rcd13ifvqb90","pricing_plan_id":"cebpf4jnsgd1na2vs0mg"},{"bike_id":"10a515f5-de6d-4ebd-ab68-7237fe828660","system_id":"levelo_inurba_marseille","lat":43.30912,"lon":5.3685,"is_reserved":false,"is_disabled":false,"rental_uris":{"android":"levelo://app?vid=10a515f5-de6d-4ebd-ab68-7237fe828660","ios":"levelo://app?vid=10a515f5-de6d-4ebd-ab68-7237fe828660"},"vehicle_type_id":"4","last_reported":1728983395,"current_range_meters":37600,"station_id":"ce4bgn92rcd13ifvqbvg","pricing_plan_id":"cebpf4jnsgd1na2vs0mg"},{"bike_id":"e55ce7e2-8e60-47b5-844e-977029bd08ba","system_id":"levelo_inurba_marseille","lat":43.29557,"lon":5.4228,"is_reserved":false,"is_disabled":false,"rental_uris":{"android":"levelo://app?vid=e55ce7e2-8e60-47b5-844e-977029bd08ba","ios":"levelo://app?vid=e55ce7e2-8e60-47b5-844e-977029bd08ba"},"vehicle_type_id":"4","last_reported":1728983395,"current_range_meters":38800,"station_id":"ce4bhph2rcd13ifvqhdg","pricing_plan_id":"cebpf4jnsgd1na2vs0mg"},{"bike_id":"5faa1710-807a-452c-a38a-87bd032b08b3","system_id":"levelo_inurba_marseille","lat":43.28917,"lon":5.384193,"is_reserved":false,"is_disabled":false,"rental_uris":{"android":"levelo://app?vid=5faa1710-807a-452c-a38a-87bd032b08b3","ios":"levelo://app?vid=5faa1710-807a-452c-a38a-87bd032b08b3"},"vehicle_type_id":"4","last_reported":1728983395,"current_range_meters":20800,"station_id":"ce4bh612rcd13ifvqe6g","pricing_plan_id":"cebpf4jnsgd1na2vs0mg"},{"bike_id":"292b9425-1372-40d4-bf0a-fe57aa779a41","system_id":"levelo_inurba_marseille","lat":43.23063,"lon":5.35495,"is_reserved":false,"is_disabled":false,"rental_uris":{"android":"levelo://app?vid=292b9425-1372-40d4-bf0a-fe57aa779a41","ios":"levelo://app?vid=292b9425-1372-40d4-bf0a-fe57aa779a41"},"vehicle_type_id":"4","last_reported":1728983395,"current_range_meters":34800,"station_id":"cpo3342slgdg3j2ifvpg","pricing_plan_id":"cebpf4jnsgd1na2vs0mg"},{"bike_id":"88598f63-0871-4fe2-9dcf-a97c7fbe86b7","system_id":"levelo_inurba_marseille","lat":43.31214,"lon":5.36869,"is_reserved":false,"is_disabled":false,"rental_uris":{"android":"levelo://app?vid=88598f63-0871-4fe2-9dcf-a97c7fbe86b7","ios":"levelo://app?vid=88598f63-0871-4fe2-9dcf-a97c7fbe86b7"},"vehicle_type_id":"4","last_reported":1728983395,"current_range_meters":35600,"station_id":"ce4bgl92rcd13ifvqbq0","pricing_plan_id":"cebpf4jnsgd1na2vs0mg"},{"bike_id":"d7639349-3039-4e75-b9f1-7bdf94bac016","system_id":"levelo_inurba_marseille","lat":43.25931,"lon":5.40902,"is_reserved":false,"is_disabled":false,"rental_uris":{"android":"levelo://app?vid=d7639349-3039-4e75-b9f1-7bdf94bac016","ios":"levelo://app?vid=d7639349-3039-4e75-b9f1-7bdf94bac016"},"vehicle_type_id":"4","last_reported":1728983395,"current_range_meters":6400,"station_id":"ce4bhm92rcd13ifvqglg","pricing_plan_id":"cebpf4jnsgd1na2vs0mg"},{"bike_id":"d1f2595e-bc95-40bc-b6d0-ad15417381d7","system_id":"levelo_inurba_marseille","lat":43.29706,"lon":5.36609,"is_reserved":false,"is_disabled":false,"rental_uris":{"android":"levelo://app?vid=d1f2595e-bc95-40bc-b6d0-ad15417381d7","ios":"levelo://app?vid=d1f2595e-bc95-40bc-b6d0-ad15417381d7"},"vehicle_type_id":"4","last_reported":1728983395,"current_range_meters":30800,"station_id":"ce4bgn12rcd13ifvqbt0","pricing_plan_id":"cebpf4jnsgd1na2vs0mg"},{"bike_id":"d8597bf4-185f-46b0-9306-434905261110","system_id":"levelo_inurba_marseille","lat":43.28264,"lon":5.35056,"is_reserved":false,"is_disabled":false,"rental_uris":{"android":"levelo://app?vid=d8597bf4-185f-46b0-9306-434905261110","ios":"levelo://app?vid=d8597bf4-185f-46b0-9306-434905261110"},"vehicle_type_id":"4","last_reported":1728983395,"current_range_meters":36000,"station_id":"ce4bhbp2rcd13ifvqerg","pricing_plan_id":"cebpf4jnsgd1na2vs0mg"},{"bike_id":"c5e798d3-87ab-41f0-ae21-de3af1a16c66","system_id":"levelo_inurba_marseille","lat":43.28848,"lon":5.35844,"is_reserved":false,"is_disabled":false,"rental_uris":{"android":"levelo://app?vid=c5e798d3-87ab-41f0-ae21-de3af1a16c66","ios":"levelo://app?vid=c5e798d3-87ab-41f0-ae21-de3af1a16c66"},"vehicle_type_id":"4","last_reported":1728983395,"current_range_meters":6000,"station_id":"ce4bhb12rcd13ifvqem0","pricing_plan_id":"cebpf4jnsgd1na2vs0mg"},{"bike_id":"1063b00b-63b6-4d39-8a0f-000feff661b8","system_id":"levelo_inurba_marseille","lat":43.296134,"lon":5.405951,"is_reserved":false,"is_disabled":false,"rental_uris":{"android":"levelo://app?vid=1063b00b-63b6-4d39-8a0f-000feff661b8","ios":"levelo://app?vid=1063b00b-63b6-4d39-8a0f-000feff661b8"},"vehicle_type_id":"4","last_reported":1728983395,"current_range_meters":20000,"station_id":"ce4bh0h2rcd13ifvqd60","pricing_plan_id":"cebpf4jnsgd1na2vs0mg"},{"bike_id":"008bdcf3-4213-435a-8020-86527f705df2","system_id":"levelo_inurba_marseille","lat":43.32106,"lon":5.36775,"is_reserved":false,"is_disabled":false,"rental_uris":{"android":"levelo://app?vid=008bdcf3-4213-435a-8020-86527f705df2","ios":"levelo://app?vid=008bdcf3-4213-435a-8020-86527f705df2"},"vehicle_type_id":"4","last_reported":1728983395,"current_range_meters":10000,"station_id":"ce4bhrh2rcd13ifvqhug","pricing_plan_id":"cebpf4jnsgd1na2vs0mg"},{"bike_id":"e42a5c5b-19d2-48bc-8dfc-c8514ef28621","system_id":"levelo_inurba_marseille","lat":43.24169,"lon":5.36399,"is_reserved":false,"is_disabled":false,"rental_uris":{"android":"levelo://app?vid=e42a5c5b-19d2-48bc-8dfc-c8514ef28621","ios":"levelo://app?vid=e42a5c5b-19d2-48bc-8dfc-c8514ef28621"},"vehicle_type_id":"4","last_reported":1728983395,"current_range_meters":26800,"station_id":"cpo36qri1sfpv3e86is0","pricing_plan_id":"cebpf4jnsgd1na2vs0mg"},{"bike_id":"f46e13eb-53bd-4892-988e-fd8fb01bffba","system_id":"levelo_inurba_marseille","lat":43.24179,"lon":5.39733,"is_reserved":false,"is_disabled":false,"rental_uris":{"android":"levelo://app?vid=f46e13eb-53bd-4892-988e-fd8fb01bffba","ios":"levelo://app?vid=f46e13eb-53bd-4892-988e-fd8fb01bffba"},"vehicle_type_id":"4","last_reported":1728983395,"current_range_meters":20800,"station_id":"ce4bhn12rcd13ifvqgpg","pricing_plan_id":"cebpf4jnsgd1na2vs0mg"},{"bike_id":"1989161d-8386-47b1-87a5-b86d93dc477e","system_id":"levelo_inurba_marseille","lat":43.25932,"lon":5.40904,"is_reserved":false,"is_disabled":false,"rental_uris":{"android":"levelo://app?vid=1989161d-8386-47b1-87a5-b86d93dc477e","ios":"levelo://app?vid=1989161d-8386-47b1-87a5-b86d93dc477e"},"vehicle_type_id":"4","last_reported":1728983395,"current_range_meters":34000,"station_id":"ce4bhm92rcd13ifvqglg","pricing_plan_id":"cebpf4jnsgd1na2vs0mg"},{"bike_id":"350852ba-2da5-4abd-9400-1b3f92a7b7ba","system_id":"levelo_inurba_marseille","lat":43.30278,"lon":5.37709,"is_reserved":false,"is_disabled":false,"rental_uris":{"android":"levelo://app?vid=350852ba-2da5-4abd-9400-1b3f92a7b7ba","ios":"levelo://app?vid=350852ba-2da5-4abd-9400-1b3f92a7b7ba"},"vehicle_type_id":"4","last_reported":1728983395,"current_range_meters":20000,"station_id":"ce4bguh2rcd13ifvqcj0","pricing_plan_id":"cebpf4jnsgd1na2vs0mg"},{"bike_id":"25f4bf2b-b653-49f4-8941-e4f3e57743f7","system_id":"levelo_inurba_marseille","lat":43.30533,"lon":5.36699,"is_reserved":false,"is_disabled":false,"rental_uris":{"android":"levelo://app?vid=25f4bf2b-b653-49f4-8941-e4f3e57743f7","ios":"levelo://app?vid=25f4bf2b-b653-49f4-8941-e4f3e57743f7"},"vehicle_type_id":"4","last_reported":1728983395,"current_range_meters":34800,"station_id":"ce4bgrp2rcd13ifvqc9g","pricing_plan_id":"cebpf4jnsgd1na2vs0mg"},{"bike_id":"0bb0b55b-1db0-4f04-9cae-5decd1e52b8e","system_id":"levelo_inurba_marseille","lat":43.23159,"lon":5.43698,"is_reserved":false,"is_disabled":false,"rental_uris":{"android":"levelo://app?vid=0bb0b55b-1db0-4f04-9cae-5decd1e52b8e","ios":"levelo://app?vid=0bb0b55b-1db0-4f04-9cae-5decd1e52b8e"},"vehicle_type_id":"4","last_reported":1728983395,"current_range_meters":22800,"station_id":"ce4bhmp2rcd13ifvqgog","pricing_plan_id":"cebpf4jnsgd1na2vs0mg"},{"bike_id":"49f9a3f1-fdfb-458b-9a8f-5b2e185c582b","system_id":"levelo_inurba_marseille","lat":43.30143,"lon":5.38071,"is_reserved":false,"is_disabled":false,"rental_uris":{"android":"levelo://app?vid=49f9a3f1-fdfb-458b-9a8f-5b2e185c582b","ios":"levelo://app?vid=49f9a3f1-fdfb-458b-9a8f-5b2e185c582b"},"vehicle_type_id":"4","last_reported":1728983395,"current_range_meters":28800,"station_id":"ce4bgjp2rcd13ifvqbh0","pricing_plan_id":"cebpf4jnsgd1na2vs0mg"},{"bike_id":"abbd4e5b-0ffa-4ec5-97b7-2323fcdc2fbb","system_id":"levelo_inurba_marseille","lat":43.2846,"lon":5.38413,"is_reserved":false,"is_disabled":false,"rental_uris":{"android":"levelo://app?vid=abbd4e5b-0ffa-4ec5-97b7-2323fcdc2fbb","ios":"levelo://app?vid=abbd4e5b-0ffa-4ec5-97b7-2323fcdc2fbb"},"vehicle_type_id":"4","last_reported":1728983395,"current_range_meters":38800,"station_id":"ce4bh512rcd13ifvqe3g","pricing_plan_id":"cebpf4jnsgd1na2vs0mg"},{"bike_id":"eecd106e-ff8f-409e-9c56-21b66ef3f2f6","system_id":"levelo_inurba_marseille","lat":43.32039,"lon":5.41573,"is_reserved":false,"is_disabled":false,"rental_uris":{"android":"levelo://app?vid=eecd106e-ff8f-409e-9c56-21b66ef3f2f6","ios":"levelo://app?vid=eecd106e-ff8f-409e-9c56-21b66ef3f2f6"},"vehicle_type_id":"4","last_reported":1728983395,"current_range_meters":37600,"station_id":"ce4bhq92rcd13ifvqhkg","pricing_plan_id":"cebpf4jnsgd1na2vs0mg"},{"bike_id":"1b5cd61f-8783-43f8-b628-f683e5b86f00","system_id":"levelo_inurba_marseille","lat":43.26678,"lon":5.38259,"is_reserved":false,"is_disabled":false,"rental_uris":{"android":"levelo://app?vid=1b5cd61f-8783-43f8-b628-f683e5b86f00","ios":"levelo://app?vid=1b5cd61f-8783-43f8-b628-f683e5b86f00"},"vehicle_type_id":"4","last_reported":1728983395,"current_range_meters":31200,"station_id":"ce4bhg92rcd13ifvqf90","pricing_plan_id":"cebpf4jnsgd1na2vs0mg"},{"bike_id":"d06f24f3-1961-4c39-8b26-c72733863fe9","system_id":"levelo_inurba_marseille","lat":43.33781,"lon":5.37443,"is_reserved":false,"is_disabled":false,"rental_uris":{"android":"levelo://app?vid=d06f24f3-1961-4c39-8b26-c72733863fe9","ios":"levelo://app?vid=d06f24f3-1961-4c39-8b26-c72733863fe9"},"vehicle_type_id":"4","last_reported":1728983395,"current_range_meters":25200,"station_id":"","pricing_plan_id":"cebpf4jnsgd1na2vs0mg"},{"bike_id":"a7ce9ce1-7367-48ab-a192-ca36480fc2a1","system_id":"levelo_inurba_marseille","lat":43.29934,"lon":5.36549,"is_reserved":false,"is_disabled":false,"rental_uris":{"android":"levelo://app?vid=a7ce9ce1-7367-48ab-a192-ca36480fc2a1","ios":"levelo://app?vid=a7ce9ce1-7367-48ab-a192-ca36480fc2a1"},"vehicle_type_id":"4","last_reported":1728983395,"current_range_meters":25600,"station_id":"ce4bgm92rcd13ifvqbr0","pricing_plan_id":"cebpf4jnsgd1na2vs0mg"},{"bike_id":"0890d159-05ac-4ed1-813d-96237021dab0","system_id":"levelo_inurba_marseille","lat":43.24647,"lon":5.38888,"is_reserved":false,"is_disabled":false,"rental_uris":{"android":"levelo://app?vid=0890d159-05ac-4ed1-813d-96237021dab0","ios":"levelo://app?vid=0890d159-05ac-4ed1-813d-96237021dab0"},"vehicle_type_id":"4","last_reported":1728983395,"current_range_meters":32800,"station_id":"ce4bhg12rcd13ifvqf60","pricing_plan_id":"cebpf4jnsgd1na2vs0mg"},{"bike_id":"57fb27fe-c111-441a-9f36-4b5c1f7c32eb","system_id":"levelo_inurba_marseille","lat":43.29221,"lon":5.36043,"is_reserved":false,"is_disabled":false,"rental_uris":{"android":"levelo://app?vid=57fb27fe-c111-441a-9f36-4b5c1f7c32eb","ios":"levelo://app?vid=57fb27fe-c111-441a-9f36-4b5c1f7c32eb"},"vehicle_type_id":"4","last_reported":1728983395,"current_range_meters":38800,"station_id":"ce4bhbh2rcd13ifvqeqg","pricing_plan_id":"cebpf4jnsgd1na2vs0mg"},{"bike_id":"d002f577-9b2f-48fe-9edd-c65fad906ea1","system_id":"levelo_inurba_marseille","lat":43.25103,"lon":5.40316,"is_reserved":false,"is_disabled":false,"rental_uris":{"android":"levelo://app?vid=d002f577-9b2f-48fe-9edd-c65fad906ea1","ios":"levelo://app?vid=d002f577-9b2f-48fe-9edd-c65fad906ea1"},"vehicle_type_id":"4","last_reported":1728983395,"current_range_meters":8000,"station_id":"ce4bhlh2rcd13ifvqgig","pricing_plan_id":"cebpf4jnsgd1na2vs0mg"},{"bike_id":"6efba074-b0d3-4049-9312-9c911ac7f13d","system_id":"levelo_inurba_marseille","lat":43.28431,"lon":5.38423,"is_reserved":false,"is_disabled":false,"rental_uris":{"android":"levelo://app?vid=6efba074-b0d3-4049-9312-9c911ac7f13d","ios":"levelo://app?vid=6efba074-b0d3-4049-9312-9c911ac7f13d"},"vehicle_type_id":"4","last_reported":1728983395,"current_range_meters":36400,"station_id":"ce4bh512rcd13ifvqe3g","pricing_plan_id":"cebpf4jnsgd1na2vs0mg"},{"bike_id":"d41309ab-1a1f-4395-acaa-455483c3f8e1","system_id":"levelo_inurba_marseille","lat":43.23195,"lon":5.3555,"is_reserved":false,"is_disabled":false,"rental_uris":{"android":"levelo://app?vid=d41309ab-1a1f-4395-acaa-455483c3f8e1","ios":"levelo://app?vid=d41309ab-1a1f-4395-acaa-455483c3f8e1"},"vehicle_type_id":"4","last_reported":1728983395,"current_range_meters":34000,"station_id":"ce4bhu92rcd13ifvqi70","pricing_plan_id":"cebpf4jnsgd1na2vs0mg"},{"bike_id":"39b707b7-e53b-4ad1-be37-0df2a563b2c2","system_id":"levelo_inurba_marseille","lat":43.31339,"lon":5.36716,"is_reserved":false,"is_disabled":false,"rental_uris":{"android":"levelo://app?vid=39b707b7-e53b-4ad1-be37-0df2a563b2c2","ios":"levelo://app?vid=39b707b7-e53b-4ad1-be37-0df2a563b2c2"},"vehicle_type_id":"4","last_reported":1728983395,"current_range_meters":39200,"station_id":"ce4bgr92rcd13ifvqc6g","pricing_plan_id":"cebpf4jnsgd1na2vs0mg"},{"bike_id":"b32d881c-dea4-4af7-a6e6-04f085ad531a","system_id":"levelo_inurba_marseille","lat":43.23152,"lon":5.43712,"is_reserved":false,"is_disabled":false,"rental_uris":{"android":"levelo://app?vid=b32d881c-dea4-4af7-a6e6-04f085ad531a","ios":"levelo://app?vid=b32d881c-dea4-4af7-a6e6-04f085ad531a"},"vehicle_type_id":"4","last_reported":1728983395,"current_range_meters":2800,"station_id":"ce4bhmp2rcd13ifvqgog","pricing_plan_id":"cebpf4jnsgd1na2vs0mg"},{"bike_id":"1bb1abad-af21-41e3-8a22-78174e32a017","system_id":"levelo_inurba_marseille","lat":43.24082,"lon":5.37752,"is_reserved":false,"is_disabled":false,"rental_uris":{"android":"levelo://app?vid=1bb1abad-af21-41e3-8a22-78174e32a017","ios":"levelo://app?vid=1bb1abad-af21-41e3-8a22-78174e32a017"},"vehicle_type_id":"4","last_reported":1728983395,"current_range_meters":14800,"station_id":"ce4bhnp2rcd13ifvqgvg","pricing_plan_id":"cebpf4jnsgd1na2vs0mg"},{"bike_id":"4541705b-123e-4e6f-8dd6-ae40b6b53c55","system_id":"levelo_inurba_marseille","lat":43.28152,"lon":5.42637,"is_reserved":false,"is_disabled":false,"rental_uris":{"android":"levelo://app?vid=4541705b-123e-4e6f-8dd6-ae40b6b53c55","ios":"levelo://app?vid=4541705b-123e-4e6f-8dd6-ae40b6b53c55"},"vehicle_type_id":"4","last_reported":1728983395,"current_range_meters":8400,"station_id":"ce4bhnh2rcd13ifvqgug","pricing_plan_id":"cebpf4jnsgd1na2vs0mg"},{"bike_id":"eb0a6061-cbff-4804-8f00-2a8405b8de41","system_id":"levelo_inurba_marseille","lat":43.29968,"lon":5.38491,"is_reserved":false,"is_disabled":false,"rental_uris":{"android":"levelo://app?vid=eb0a6061-cbff-4804-8f00-2a8405b8de41","ios":"levelo://app?vid=eb0a6061-cbff-4804-8f00-2a8405b8de41"},"vehicle_type_id":"4","last_reported":1728983395,"current_range_meters":6800,"station_id":"ce4bgj92rcd13ifvqbd0","pricing_plan_id":"cebpf4jnsgd1na2vs0mg"},{"bike_id":"959d1b06-35ac-48d8-b261-e6ce8993e793","system_id":"levelo_inurba_marseille","lat":43.272,"lon":5.39187,"is_reserved":false,"is_disabled":false,"rental_uris":{"android":"levelo://app?vid=959d1b06-35ac-48d8-b261-e6ce8993e793","ios":"levelo://app?vid=959d1b06-35ac-48d8-b261-e6ce8993e793"},"vehicle_type_id":"4","last_reported":1728983395,"current_range_meters":17600,"station_id":"ce4bhhp2rcd13ifvqfm0","pricing_plan_id":"cebpf4jnsgd1na2vs0mg"},{"bike_id":"1236bbf7-ed03-4263-9ab4-884e4d68a5c4","system_id":"levelo_inurba_marseille","lat":43.32485,"lon":5.36558,"is_reserved":false,"is_disabled":false,"rental_uris":{"android":"levelo://app?vid=1236bbf7-ed03-4263-9ab4-884e4d68a5c4","ios":"levelo://app?vid=1236bbf7-ed03-4263-9ab4-884e4d68a5c4"},"vehicle_type_id":"4","last_reported":1728983395,"current_range_meters":38800,"station_id":"ce4bhs12rcd13ifvqhvg","pricing_plan_id":"cebpf4jnsgd1na2vs0mg"},{"bike_id":"48754b73-279d-4053-9335-cce60df3b794","system_id":"levelo_inurba_marseille","lat":43.23152,"lon":5.43722,"is_reserved":false,"is_disabled":false,"rental_uris":{"android":"levelo://app?vid=48754b73-279d-4053-9335-cce60df3b794","ios":"levelo://app?vid=48754b73-279d-4053-9335-cce60df3b794"},"vehicle_type_id":"4","last_reported":1728983395,"current_range_meters":24000,"station_id":"ce4bhmp2rcd13ifvqgog","pricing_plan_id":"cebpf4jnsgd1na2vs0mg"},{"bike_id":"96268d7b-e5bb-404d-9980-d6be567372d0","system_id":"levelo_inurba_marseille","lat":43.23196,"lon":5.35551,"is_reserved":false,"is_disabled":false,"rental_uris":{"android":"levelo://app?vid=96268d7b-e5bb-404d-9980-d6be567372d0","ios":"levelo://app?vid=96268d7b-e5bb-404d-9980-d6be567372d0"},"vehicle_type_id":"4","last_reported":1728983395,"current_range_meters":20000,"station_id":"ce4bhu92rcd13ifvqi70","pricing_plan_id":"cebpf4jnsgd1na2vs0mg"},{"bike_id":"63b533f7-f2b8-45a1-b9e6-f454e3192bd6","system_id":"levelo_inurba_marseille","lat":43.28153,"lon":5.42639,"is_reserved":false,"is_disabled":false,"rental_uris":{"android":"levelo://app?vid=63b533f7-f2b8-45a1-b9e6-f454e3192bd6","ios":"levelo://app?vid=63b533f7-f2b8-45a1-b9e6-f454e3192bd6"},"vehicle_type_id":"4","last_reported":1728983395,"current_range_meters":29600,"station_id":"ce4bhnh2rcd13ifvqgug","pricing_plan_id":"cebpf4jnsgd1na2vs0mg"},{"bike_id":"aa24e686-c4b3-4e16-bd17-034a8270bcf1","system_id":"levelo_inurba_marseille","lat":43.2984,"lon":5.36267,"is_reserved":false,"is_disabled":false,"rental_uris":{"android":"levelo://app?vid=aa24e686-c4b3-4e16-bd17-034a8270bcf1","ios":"levelo://app?vid=aa24e686-c4b3-4e16-bd17-034a8270bcf1"},"vehicle_type_id":"4","last_reported":1728983395,"current_range_meters":16000,"station_id":"ce4bgpp2rcd13ifvqc3g","pricing_plan_id":"cebpf4jnsgd1na2vs0mg"},{"bike_id":"42ddf1a3-c9fa-4405-9d7e-8b919329a107","system_id":"levelo_inurba_marseille","lat":43.30549,"lon":5.36542,"is_reserved":false,"is_disabled":false,"rental_uris":{"android":"levelo://app?vid=42ddf1a3-c9fa-4405-9d7e-8b919329a107","ios":"levelo://app?vid=42ddf1a3-c9fa-4405-9d7e-8b919329a107"},"vehicle_type_id":"4","last_reported":1728983395,"current_range_meters":39200,"station_id":"ce4bgs12rcd13ifvqcag","pricing_plan_id":"cebpf4jnsgd1na2vs0mg"},{"bike_id":"c7b21cf6-e6ef-4a95-b2ab-92111a1993c5","system_id":"levelo_inurba_marseille","lat":43.27978,"lon":5.4167,"is_reserved":false,"is_disabled":false,"rental_uris":{"android":"levelo://app?vid=c7b21cf6-e6ef-4a95-b2ab-92111a1993c5","ios":"levelo://app?vid=c7b21cf6-e6ef-4a95-b2ab-92111a1993c5"},"vehicle_type_id":"4","last_reported":1728983395,"current_range_meters":27200,"station_id":"ce4bho12rcd13ifvqh1g","pricing_plan_id":"cebpf4jnsgd1na2vs0mg"},{"bike_id":"4c0eae8f-fb78-42e3-9cf9-594cfc4b55bc","system_id":"levelo_inurba_marseille","lat":43.24074,"lon":5.37761,"is_reserved":false,"is_disabled":false,"rental_uris":{"android":"levelo://app?vid=4c0eae8f-fb78-42e3-9cf9-594cfc4b55bc","ios":"levelo://app?vid=4c0eae8f-fb78-42e3-9cf9-594cfc4b55bc"},"vehicle_type_id":"4","last_reported":1728983395,"current_range_meters":8400,"station_id":"ce4bhnp2rcd13ifvqgvg","pricing_plan_id":"cebpf4jnsgd1na2vs0mg"},{"bike_id":"5ac4b365-d20a-45e0-acfe-e7e86ca60b8f","system_id":"levelo_inurba_marseille","lat":43.25929,"lon":5.40904,"is_reserved":false,"is_disabled":false,"rental_uris":{"android":"levelo://app?vid=5ac4b365-d20a-45e0-acfe-e7e86ca60b8f","ios":"levelo://app?vid=5ac4b365-d20a-45e0-acfe-e7e86ca60b8f"},"vehicle_type_id":"4","last_reported":1728983395,"current_range_meters":36800,"station_id":"ce4bhm92rcd13ifvqglg","pricing_plan_id":"cebpf4jnsgd1na2vs0mg"},{"bike_id":"b8a150cc-6842-4ed1-a6b2-264cbeb395b7","system_id":"levelo_inurba_marseille","lat":43.25114,"lon":5.4031,"is_reserved":false,"is_disabled":false,"rental_uris":{"android":"levelo://app?vid=b8a150cc-6842-4ed1-a6b2-264cbeb395b7","ios":"levelo://app?vid=b8a150cc-6842-4ed1-a6b2-264cbeb395b7"},"vehicle_type_id":"4","last_reported":1728983395,"current_range_meters":6000,"station_id":"ce4bhlh2rcd13ifvqgig","pricing_plan_id":"cebpf4jnsgd1na2vs0mg"},{"bike_id":"1c9d6b2d-f9d9-407a-b4e3-6d7aceeb5cbc","system_id":"levelo_inurba_marseille","lat":43.24073,"lon":5.37756,"is_reserved":false,"is_disabled":false,"rental_uris":{"android":"levelo://app?vid=1c9d6b2d-f9d9-407a-b4e3-6d7aceeb5cbc","ios":"levelo://app?vid=1c9d6b2d-f9d9-407a-b4e3-6d7aceeb5cbc"},"vehicle_type_id":"4","last_reported":1728983395,"current_range_meters":20000,"station_id":"ce4bhnp2rcd13ifvqgvg","pricing_plan_id":"cebpf4jnsgd1na2vs0mg"},{"bike_id":"1af2813b-98a0-4b62-aaf8-89652b30f639","system_id":"levelo_inurba_marseille","lat":43.22933,"lon":5.35381,"is_reserved":false,"is_disabled":false,"rental_uris":{"android":"levelo://app?vid=1af2813b-98a0-4b62-aaf8-89652b30f639","ios":"levelo://app?vid=1af2813b-98a0-4b62-aaf8-89652b30f639"},"vehicle_type_id":"4","last_reported":1728983395,"current_range_meters":30800,"station_id":"cpo3532slgdg3j2ikp40","pricing_plan_id":"cebpf4jnsgd1na2vs0mg"},{"bike_id":"e933622d-50e9-4399-b2c7-6b78123dd26c","system_id":"levelo_inurba_marseille","lat":43.25936,"lon":5.40895,"is_reserved":false,"is_disabled":false,"rental_uris":{"android":"levelo://app?vid=e933622d-50e9-4399-b2c7-6b78123dd26c","ios":"levelo://app?vid=e933622d-50e9-4399-b2c7-6b78123dd26c"},"vehicle_type_id":"4","last_reported":1728983395,"current_range_meters":6000,"station_id":"ce4bhm92rcd13ifvqglg","pricing_plan_id":"cebpf4jnsgd1na2vs0mg"},{"bike_id":"f93454e1-a669-4c63-a4ca-b572042c7971","system_id":"levelo_inurba_marseille","lat":43.23192,"lon":5.35558,"is_reserved":false,"is_disabled":false,"rental_uris":{"android":"levelo://app?vid=f93454e1-a669-4c63-a4ca-b572042c7971","ios":"levelo://app?vid=f93454e1-a669-4c63-a4ca-b572042c7971"},"vehicle_type_id":"4","last_reported":1728983395,"current_range_meters":26000,"station_id":"ce4bhu92rcd13ifvqi70","pricing_plan_id":"cebpf4jnsgd1na2vs0mg"},{"bike_id":"ab38c6ee-afe2-452b-b152-733408083f03","system_id":"levelo_inurba_marseille","lat":43.24074,"lon":5.37756,"is_reserved":false,"is_disabled":false,"rental_uris":{"android":"levelo://app?vid=ab38c6ee-afe2-452b-b152-733408083f03","ios":"levelo://app?vid=ab38c6ee-afe2-452b-b152-733408083f03"},"vehicle_type_id":"4","last_reported":1728983395,"current_range_meters":29600,"station_id":"ce4bhnp2rcd13ifvqgvg","pricing_plan_id":"cebpf4jnsgd1na2vs0mg"},{"bike_id":"d944e946-a63b-4a1b-bd3b-f717ac7d49e5","system_id":"levelo_inurba_marseille","lat":43.24077,"lon":5.3776,"is_reserved":false,"is_disabled":false,"rental_uris":{"android":"levelo://app?vid=d944e946-a63b-4a1b-bd3b-f717ac7d49e5","ios":"levelo://app?vid=d944e946-a63b-4a1b-bd3b-f717ac7d49e5"},"vehicle_type_id":"4","last_reported":1728983395,"current_range_meters":28400,"station_id":"ce4bhnp2rcd13ifvqgvg","pricing_plan_id":"cebpf4jnsgd1na2vs0mg"},{"bike_id":"84a7ecad-524c-4981-b34a-3c528bb082cc","system_id":"levelo_inurba_marseille","lat":43.2936,"lon":5.37853,"is_reserved":false,"is_disabled":false,"rental_uris":{"android":"levelo://app?vid=84a7ecad-524c-4981-b34a-3c528bb082cc","ios":"levelo://app?vid=84a7ecad-524c-4981-b34a-3c528bb082cc"},"vehicle_type_id":"4","last_reported":1728983395,"current_range_meters":22400,"station_id":"ce4bgjh2rcd13ifvqbf0","pricing_plan_id":"cebpf4jnsgd1na2vs0mg"},{"bike_id":"346a4576-9c75-4c5d-aeeb-fb9f5577597b","system_id":"levelo_inurba_marseille","lat":43.28463,"lon":5.38413,"is_reserved":false,"is_disabled":false,"rental_uris":{"android":"levelo://app?vid=346a4576-9c75-4c5d-aeeb-fb9f5577597b","ios":"levelo://app?vid=346a4576-9c75-4c5d-aeeb-fb9f5577597b"},"vehicle_type_id":"4","last_reported":1728983395,"current_range_meters":37600,"station_id":"ce4bh512rcd13ifvqe3g","pricing_plan_id":"cebpf4jnsgd1na2vs0mg"},{"bike_id":"57bc6541-dce3-40de-b918-ceb0411c6d81","system_id":"levelo_inurba_marseille","lat":43.23154,"lon":5.43708,"is_reserved":false,"is_disabled":false,"rental_uris":{"android":"levelo://app?vid=57bc6541-dce3-40de-b918-ceb0411c6d81","ios":"levelo://app?vid=57bc6541-dce3-40de-b918-ceb0411c6d81"},"vehicle_type_id":"4","last_reported":1728983395,"current_range_meters":14000,"station_id":"ce4bhmp2rcd13ifvqgog","pricing_plan_id":"cebpf4jnsgd1na2vs0mg"},{"bike_id":"980dd20d-ea8e-4d17-8d49-cb7530a8e92a","system_id":"levelo_inurba_marseille","lat":43.26487,"lon":5.39536,"is_reserved":false,"is_disabled":false,"rental_uris":{"android":"levelo://app?vid=980dd20d-ea8e-4d17-8d49-cb7530a8e92a","ios":"levelo://app?vid=980dd20d-ea8e-4d17-8d49-cb7530a8e92a"},"vehicle_type_id":"4","last_reported":1728983395,"current_range_meters":13600,"station_id":"ce4bhi12rcd13ifvqfq0","pricing_plan_id":"cebpf4jnsgd1na2vs0mg"},{"bike_id":"07627880-a567-4ef2-a10e-5c547246c697","system_id":"levelo_inurba_marseille","lat":43.2919,"lon":5.39312,"is_reserved":false,"is_disabled":false,"rental_uris":{"android":"levelo://app?vid=07627880-a567-4ef2-a10e-5c547246c697","ios":"levelo://app?vid=07627880-a567-4ef2-a10e-5c547246c697"},"vehicle_type_id":"4","last_reported":1728983395,"current_range_meters":28400,"station_id":"ce4bh192rcd13ifvqdd0","pricing_plan_id":"cebpf4jnsgd1na2vs0mg"},{"bike_id":"6a344486-14e7-432e-98bf-b8beed8e06c6","system_id":"levelo_inurba_marseille","lat":43.32336,"lon":5.38328,"is_reserved":false,"is_disabled":false,"rental_uris":{"android":"levelo://app?vid=6a344486-14e7-432e-98bf-b8beed8e06c6","ios":"levelo://app?vid=6a344486-14e7-432e-98bf-b8beed8e06c6"},"vehicle_type_id":"4","last_reported":1728983395,"current_range_meters":31200,"station_id":"","pricing_plan_id":"cebpf4jnsgd1na2vs0mg"},{"bike_id":"b383ffd3-a66b-41e7-bdb1-0e83a35145ad","system_id":"levelo_inurba_marseille","lat":43.28268,"lon":5.35055,"is_reserved":false,"is_disabled":false,"rental_uris":{"android":"levelo://app?vid=b383ffd3-a66b-41e7-bdb1-0e83a35145ad","ios":"levelo://app?vid=b383ffd3-a66b-41e7-bdb1-0e83a35145ad"},"vehicle_type_id":"4","last_reported":1728983395,"current_range_meters":10800,"station_id":"ce4bhbp2rcd13ifvqerg","pricing_plan_id":"cebpf4jnsgd1na2vs0mg"},{"bike_id":"1c29ea6a-d424-450d-9c36-6b427ab42330","system_id":"levelo_inurba_marseille","lat":43.34146,"lon":5.40896,"is_reserved":false,"is_disabled":false,"rental_uris":{"android":"levelo://app?vid=1c29ea6a-d424-450d-9c36-6b427ab42330","ios":"levelo://app?vid=1c29ea6a-d424-450d-9c36-6b427ab42330"},"vehicle_type_id":"4","last_reported":1728983395,"current_range_meters":39200,"station_id":"ce4bhqh2rcd13ifvqhlg","pricing_plan_id":"cebpf4jnsgd1na2vs0mg"},{"bike_id":"79ddf1f5-186b-4457-a77e-9d424f43d6e3","system_id":"levelo_inurba_marseille","lat":43.24069,"lon":5.37747,"is_reserved":false,"is_disabled":false,"rental_uris":{"android":"levelo://app?vid=79ddf1f5-186b-4457-a77e-9d424f43d6e3","ios":"levelo://app?vid=79ddf1f5-186b-4457-a77e-9d424f43d6e3"},"vehicle_type_id":"4","last_reported":1728983395,"current_range_meters":15200,"station_id":"ce4bhnp2rcd13ifvqgvg","pricing_plan_id":"cebpf4jnsgd1na2vs0mg"},{"bike_id":"5c7e50bf-99f6-4642-8d4f-2425806695a2","system_id":"levelo_inurba_marseille","lat":43.29975,"lon":5.38473,"is_reserved":false,"is_disabled":false,"rental_uris":{"android":"levelo://app?vid=5c7e50bf-99f6-4642-8d4f-2425806695a2","ios":"levelo://app?vid=5c7e50bf-99f6-4642-8d4f-2425806695a2"},"vehicle_type_id":"4","last_reported":1728983395,"current_range_meters":38000,"station_id":"ce4bgj92rcd13ifvqbd0","pricing_plan_id":"cebpf4jnsgd1na2vs0mg"},{"bike_id":"21ce9b67-fbf1-4b19-a726-0795e5cf3979","system_id":"levelo_inurba_marseille","lat":43.25081,"lon":5.39516,"is_reserved":false,"is_disabled":false,"rental_uris":{"android":"levelo://app?vid=21ce9b67-fbf1-4b19-a726-0795e5cf3979","ios":"levelo://app?vid=21ce9b67-fbf1-4b19-a726-0795e5cf3979"},"vehicle_type_id":"4","last_reported":1728983395,"current_range_meters":36800,"station_id":"ce4bhm12rcd13ifvqgkg","pricing_plan_id":"cebpf4jnsgd1na2vs0mg"},{"bike_id":"a2aa7cfa-fbb9-4f50-9cbb-114f2bd6ac23","system_id":"levelo_inurba_marseille","lat":43.31493,"lon":5.37256,"is_reserved":false,"is_disabled":false,"rental_uris":{"android":"levelo://app?vid=a2aa7cfa-fbb9-4f50-9cbb-114f2bd6ac23","ios":"levelo://app?vid=a2aa7cfa-fbb9-4f50-9cbb-114f2bd6ac23"},"vehicle_type_id":"4","last_reported":1728983395,"current_range_meters":25200,"station_id":"ce4bgt12rcd13ifvqcd0","pricing_plan_id":"cebpf4jnsgd1na2vs0mg"},{"bike_id":"9e3b9459-a505-432a-8c57-3f144d658fbc","system_id":"levelo_inurba_marseille","lat":43.27904,"lon":5.38007,"is_reserved":false,"is_disabled":false,"rental_uris":{"android":"levelo://app?vid=9e3b9459-a505-432a-8c57-3f144d658fbc","ios":"levelo://app?vid=9e3b9459-a505-432a-8c57-3f144d658fbc"},"vehicle_type_id":"4","last_reported":1728983395,"current_range_meters":38800,"station_id":"ce4bhf92rcd13ifvqf50","pricing_plan_id":"cebpf4jnsgd1na2vs0mg"},{"bike_id":"c42bf49b-1fdc-4c7e-9ac9-0642271ce8f6","system_id":"levelo_inurba_marseille","lat":43.2749,"lon":5.42456,"is_reserved":false,"is_disabled":false,"rental_uris":{"android":"levelo://app?vid=c42bf49b-1fdc-4c7e-9ac9-0642271ce8f6","ios":"levelo://app?vid=c42bf49b-1fdc-4c7e-9ac9-0642271ce8f6"},"vehicle_type_id":"4","last_reported":1728983395,"current_range_meters":6000,"station_id":"ce4bhn92rcd13ifvqgrg","pricing_plan_id":"cebpf4jnsgd1na2vs0mg"},{"bike_id":"9a5400ef-f283-4e78-a237-cfd664a7878d","system_id":"levelo_inurba_marseille","lat":43.299622,"lon":5.384818,"is_reserved":false,"is_disabled":false,"rental_uris":{"android":"levelo://app?vid=9a5400ef-f283-4e78-a237-cfd664a7878d","ios":"levelo://app?vid=9a5400ef-f283-4e78-a237-cfd664a7878d"},"vehicle_type_id":"4","last_reported":1728983395,"current_range_meters":16400,"station_id":"ce4bh5p2rcd13ifvqe4g","pricing_plan_id":"cebpf4jnsgd1na2vs0mg"},{"bike_id":"754da881-cbc9-4b35-beb2-51d368048841","system_id":"levelo_inurba_marseille","lat":43.33722,"lon":5.37446,"is_reserved":false,"is_disabled":false,"rental_uris":{"android":"levelo://app?vid=754da881-cbc9-4b35-beb2-51d368048841","ios":"levelo://app?vid=754da881-cbc9-4b35-beb2-51d368048841"},"vehicle_type_id":"4","last_reported":1728983395,"current_range_meters":36800,"station_id":"","pricing_plan_id":"cebpf4jnsgd1na2vs0mg"},{"bike_id":"b1b3d20a-9ab4-4b8c-be65-a2d6d339412d","system_id":"levelo_inurba_marseille","lat":43.299602,"lon":5.384856,"is_reserved":false,"is_disabled":false,"rental_uris":{"android":"levelo://app?vid=b1b3d20a-9ab4-4b8c-be65-a2d6d339412d","ios":"levelo://app?vid=b1b3d20a-9ab4-4b8c-be65-a2d6d339412d"},"vehicle_type_id":"4","last_reported":1728983395,"current_range_meters":8800,"station_id":"ce4bgj92rcd13ifvqbd0","pricing_plan_id":"cebpf4jnsgd1na2vs0mg"},{"bike_id":"996aeef4-ef61-443c-9e98-4ef75b6646e3","system_id":"levelo_inurba_marseille","lat":43.30314,"lon":5.3689,"is_reserved":false,"is_disabled":false,"rental_uris":{"android":"levelo://app?vid=996aeef4-ef61-443c-9e98-4ef75b6646e3","ios":"levelo://app?vid=996aeef4-ef61-443c-9e98-4ef75b6646e3"},"vehicle_type_id":"4","last_reported":1728983395,"current_range_meters":38000,"station_id":"ce4bgqh2rcd13ifvqc5g","pricing_plan_id":"cebpf4jnsgd1na2vs0mg"},{"bike_id":"0f8786e1-d19f-4e2e-9a78-62d0d23793dc","system_id":"levelo_inurba_marseille","lat":43.23151,"lon":5.43723,"is_reserved":false,"is_disabled":false,"rental_uris":{"android":"levelo://app?vid=0f8786e1-d19f-4e2e-9a78-62d0d23793dc","ios":"levelo://app?vid=0f8786e1-d19f-4e2e-9a78-62d0d23793dc"},"vehicle_type_id":"4","last_reported":1728983395,"current_range_meters":26000,"station_id":"ce4bhmp2rcd13ifvqgog","pricing_plan_id":"cebpf4jnsgd1na2vs0mg"},{"bike_id":"dde86e9c-08ab-447e-8977-98fcc15ceb96","system_id":"levelo_inurba_marseille","lat":43.24082,"lon":5.37754,"is_reserved":false,"is_disabled":false,"rental_uris":{"android":"levelo://app?vid=dde86e9c-08ab-447e-8977-98fcc15ceb96","ios":"levelo://app?vid=dde86e9c-08ab-447e-8977-98fcc15ceb96"},"vehicle_type_id":"4","last_reported":1728983395,"current_range_meters":12800,"station_id":"ce4bhnp2rcd13ifvqgvg","pricing_plan_id":"cebpf4jnsgd1na2vs0mg"},{"bike_id":"b1ce1002-a0c8-4871-8eed-d8113342009a","system_id":"levelo_inurba_marseille","lat":43.29578,"lon":5.36744,"is_reserved":false,"is_disabled":false,"rental_uris":{"android":"levelo://app?vid=b1ce1002-a0c8-4871-8eed-d8113342009a","ios":"levelo://app?vid=b1ce1002-a0c8-4871-8eed-d8113342009a"},"vehicle_type_id":"4","last_reported":1728983395,"current_range_meters":26000,"station_id":"ce4bgph2rcd13ifvqc2g","pricing_plan_id":"cebpf4jnsgd1na2vs0mg"},{"bike_id":"80004c0b-1888-4bc4-861c-1bb18fe1efd7","system_id":"levelo_inurba_marseille","lat":43.29552,"lon":5.42287,"is_reserved":false,"is_disabled":false,"rental_uris":{"android":"levelo://app?vid=80004c0b-1888-4bc4-861c-1bb18fe1efd7","ios":"levelo://app?vid=80004c0b-1888-4bc4-861c-1bb18fe1efd7"},"vehicle_type_id":"4","last_reported":1728983395,"current_range_meters":38800,"station_id":"ce4bhph2rcd13ifvqhdg","pricing_plan_id":"cebpf4jnsgd1na2vs0mg"},{"bike_id":"025c7901-36d6-400e-8cd5-dc801340b22e","system_id":"levelo_inurba_marseille","lat":43.26927,"lon":5.40259,"is_reserved":false,"is_disabled":false,"rental_uris":{"android":"levelo://app?vid=025c7901-36d6-400e-8cd5-dc801340b22e","ios":"levelo://app?vid=025c7901-36d6-400e-8cd5-dc801340b22e"},"vehicle_type_id":"4","last_reported":1728983395,"current_range_meters":38800,"station_id":"cjm6bp8fraef2m0cb0m0","pricing_plan_id":"cebpf4jnsgd1na2vs0mg"},