{"last_updated":1770056940,"ttl":60,"version":"2.2","data":{"bikes":[{"bike_id":"81cddbe1-5b72-48ed-a7a4-1031532f66af","system_id":"levelo_inurba_marseille","lat":43.24813,"lon":5.37451,"is_reserved":false,"is_disabled":false,"rental_uris":{"android":"levelo://app?vid=81cddbe1-5b72-48ed-a7a4-1031532f66af","ios":"levelo://app?vid=81cddbe1-5b72-48ed-a7a4-1031532f66af"},"vehicle_type_id":"4","last_reported":1770056940,"current_range_meters":2800,"station_id":"ce4bhgh2rcd13ifvqfb0","pricing_plan_id":"cebpf4jnsgd1na2vs0mg"},{"bike_id":"d7bb52bf-9888-4e53-9c7d-d39210203af0","system_id":"levelo_inurba_marseille","lat":43.26055,"lon":5.39394,"is_reserved":false,"is_disabled":false,"rental_uris":{"android":"levelo://app?vid=d7bb52bf-9888-4e53-9c7d-d39210203af0","ios":"levelo://app?vid=d7bb52bf-9888-4e53-9c7d-d39210203af0"},"vehicle_type_id":"4","last_reported":1770056940,"current_range_meters":2800,"station_id":"ce4bhh92rcd13ifvqfj0","pricing_plan_id":"cebpf4jnsgd1na2vs0mg"},{"bike_id":"fe96b3e6-31d2-4dd0-93a5-43e5f652f8f8","system_id":"levelo_inurba_marseille","lat":43.26222,"lon":5.4046,"is_reserved":false,"is_disabled":false,"rental_uris":{"android":"levelo://app?vid=fe96b3e6-31d2-4dd0-93a5-43e5f652f8f8","ios":"levelo://app?vid=fe96b3e6-31d2-4dd0-93a5-43e5f652f8f8"},"vehicle_type_id":"4","last_reported":1770056940,"current_range_meters":2800,"station_id":"ce4bhmh2rcd13ifvqgmg","pricing_plan_id":"cebpf4jnsgd1na2vs0mg"},{"bike_id":"72489c9e-01d3-484c-a253-4279fe296b12","system_id":"levelo_inurba_marseille","lat":43.23183,"lon":5.35578,"is_reserved":false,"is_disabled":false,"rental_uris":{"android":"levelo://app?vid=72489c9e-01d3-484c-a253-4279fe296b12","ios":"levelo://app?vid=72489c9e-01d3-484c-a253-4279fe296b12"},"vehicle_type_id":"4","last_reported":1770056940,"current_range_meters":2800,"station_id":"ce4bhu92rcd13ifvqi70","pricing_plan_id":"cebpf4jnsgd1na2vs0mg"},{"bike_id":"815932e9-3490-41c8-9f18-17529b2fcd92","system_id":"levelo_inurba_marseille","lat":43.23159,"lon":5.43699,"is_reserved":false,"is_disabled":false,"rental_uris":{"android":"levelo://app?vid=815932e9-3490-41c8-9f18-17529b2fcd92","ios":"levelo://app?vid=815932e9-3490-41c8-9f18-17529b2fcd92"},"vehicle_type_id":"4","last_reported":1770056940,"current_range_meters":2800,"station_id":"ce4bhmp2rcd13ifvqgog","pricing_plan_id":"cebpf4jnsgd1na2vs0mg"},{"bike_id":"dc83fd8c-9a41-4e58-baef-0cb158ff8a3e","system_id":"levelo_inurba_marseille","lat":43.29968,"lon":5.38498,"is_reserved":false,"is_disabled":false,"rental_uris":{"android":"levelo://app?vid=dc83fd8c-9a41-4e58-baef-0cb158ff8a3e","ios":"levelo://app?vid=dc83fd8c-9a41-4e58-baef-0cb158ff8a3e"},"vehicle_type_id":"4","last_reported":1770056940,"current_range_meters":2800,"station_id":"ce4bgj92rcd13ifvqbd0","pricing_plan_id":"cebpf4jnsgd1na2vs0mg"},{"bike_id":"0398f9ac-4213-4f68-b419-f7bff731c5c6","system_id":"levelo_inurba_marseille","lat":43.33368,"lon":5.43133,"is_reserved":false,"is_disabled":false,"rental_uris":{"android":"levelo://app?vid=0398f9ac-4213-4f68-b419-f7bff731c5c6","ios":"levelo://app?vid=0398f9ac-4213-4f68-b419-f7bff731c5c6"},"vehicle_type_id":"4","last_reported":1770056940,"current_range_meters":3200,"station_id":"","pricing_plan_id":"cebpf4jnsgd1na2vs0mg"},{"bike_id":"9e86feb9-2cb2-4cb9-8149-ccc1b1ec04d0","system_id":"levelo_inurba_marseille","lat":43.3066,"lon":5.40085,"is_reserved":false,"is_disabled":false,"rental_uris":{"android":"levelo://app?vid=9e86feb9-2cb2-4cb9-8149-ccc1b1ec04d0","ios":"levelo://app?vid=9e86feb9-2cb2-4cb9-8149-ccc1b1ec04d0"},"vehicle_type_id":"4","last_reported":1770056940,"current_range_meters":3200,"station_id":"ce4bh112rcd13ifvqda0","pricing_plan_id":"cebpf4jnsgd1na2vs0mg"},{"bike_id":"3145bee7-9947-4048-a6c8-4a6751fb3e81","system_id":"levelo_inurba_marseille","lat":43.25517,"lon":5.3765,"is_reserved":false,"is_disabled":false,"rental_uris":{"android":"levelo://app?vid=3145bee7-9947-4048-a6c8-4a6751fb3e81","ios":"levelo://app?vid=3145bee7-9947-4048-a6c8-4a6751fb3e81"},"vehicle_type_id":"4","last_reported":1770056940,"current_range_meters":3200,"station_id":"ce4bhh12rcd13ifvqff0","pricing_plan_id":"cebpf4jnsgd1na2vs0mg"},{"bike_id":"560693d2-1b87-4014-8c3f-6605ba402eb6","system_id":"levelo_inurba_marseille","lat":43.24549,"lon":5.39521,"is_reserved":false,"is_disabled":false,"rental_uris":{"android":"levelo://app?vid=560693d2-1b87-4014-8c3f-6605ba402eb6","ios":"levelo://app?vid=560693d2-1b87-4014-8c3f-6605ba402eb6"},"vehicle_type_id":"4","last_reported":1770056940,"current_range_meters":3200,"station_id":"ce4bhlp2rcd13ifvqgjg","pricing_plan_id":"cebpf4jnsgd1na2vs0mg"},{"bike_id":"637b915d-60b9-4796-9bb5-f9845c8d4a81","system_id":"levelo_inurba_marseille","lat":43.23029,"lon":5.35501,"is_reserved":false,"is_disabled":false,"rental_uris":{"android":"levelo://app?vid=637b915d-60b9-4796-9bb5-f9845c8d4a81","ios":"levelo://app?vid=637b915d-60b9-4796-9bb5-f9845c8d4a81"},"vehicle_type_id":"4","last_reported":1770056940,"current_range_meters":3200,"station_id":"cpo3342slgdg3j2ifvpg","pricing_plan_id":"cebpf4jnsgd1na2vs0mg"},{"bike_id":"d0ce876f-4532-462c-9c29-e674a02453f0","system_id":"levelo_inurba_marseille","lat":43.27378,"lon":5.36249,"is_reserved":false,"is_disabled":false,"rental_uris":{"android":"levelo://app?vid=d0ce876f-4532-462c-9c29-e674a02453f0","ios":"levelo://app?vid=d0ce876f-4532-462c-9c29-e674a02453f0"},"vehicle_type_id":"4","last_reported":1770056940,"current_range_meters":3200,"station_id":"ce4bhbh2rcd13ifvqeo0","pricing_plan_id":"cebpf4jnsgd1na2vs0mg"},{"bike_id":"5bff3515-a705-40c8-b65b-c11d89c6d400","system_id":"levelo_inurba_marseille","lat":43.24179,"lon":5.39726,"is_reserved":false,"is_disabled":false,"rental_uris":{"android":"levelo://app?vid=5bff3515-a705-40c8-b65b-c11d89c6d400","ios":"levelo://app?vid=5bff3515-a705-40c8-b65b-c11d89c6d400"},"vehicle_type_id":"4","last_reported":1770056940,"current_range_meters":3600,"station_id":"ce4bhn12rcd13ifvqgpg","pricing_plan_id":"cebpf4jnsgd1na2vs0mg"},{"bike_id":"70aad063-ceac-4b3b-8a1d-80471a1d623b","system_id":"levelo_inurba_marseille","lat":43.23059,"lon":5.35486,"is_reserved":false,"is_disabled":false,"rental_uris":{"android":"levelo://app?vid=70aad063-ceac-4b3b-8a1d-80471a1d623b","ios":"levelo://app?vid=70aad063-ceac-4b3b-8a1d-80471a1d623b"},"vehicle_type_id":"4","last_reported":1770056940,"current_range_meters":3600,"station_id":"cpo3342slgdg3j2ifvpg","pricing_plan_id":"cebpf4jnsgd1na2vs0mg"},{"bike_id":"1f26521f-96c7-4695-a6b6-cd40543db4db","system_id":"levelo_inurba_marseille","lat":43.24014,"lon":5.37797,"is_reserved":false,"is_disabled":true,"rental_uris":{"android":"levelo://app?vid=1f26521f-96c7-4695-a6b6-cd40543db4db","ios":"levelo://app?vid=1f26521f-96c7-4695-a6b6-cd40543db4db"},"vehicle_type_id":"4","last_reported":1770056940,"current_range_meters":3600,"station_id":"ce4bhnp2rcd13ifvqgvg","pricing_plan_id":"cebpf4jnsgd1na2vs0mg"},{"bike_id":"b327d0f9-e910-4cd3-a345-f7ea449db020","system_id":"levelo_inurba_marseille","lat":43.24407,"lon":5.37056,"is_reserved":false,"is_disabled":false,"rental_uris":{"android":"levelo://app?vid=b327d0f9-e910-4cd3-a345-f7ea449db020","ios":"levelo://app?vid=b327d0f9-e910-4cd3-a345-f7ea449db020"},"vehicle_type_id":"4","last_reported":1770056940,"current_range_meters":3600,"station_id":"ce4bhhh2rcd13ifvqfk0","pricing_plan_id":"cebpf4jnsgd1na2vs0mg"},{"bike_id":"20f8dacb-5cfb-411b-aac6-04b0743b3a2b","system_id":"levelo_inurba_marseille","lat":43.25662,"lon":5.37643,"is_reserved":false,"is_disabled":false,"rental_uris":{"android":"levelo://app?vid=20f8dacb-5cfb-411b-aac6-04b0743b3a2b","ios":"levelo://app?vid=20f8dacb-5cfb-411b-aac6-04b0743b3a2b"},"vehicle_type_id":"4","last_reported":1770056940,"current_range_meters":3600,"station_id":"","pricing_plan_id":"cebpf4jnsgd1na2vs0mg"},{"bike_id":"8cb63d74-5527-4e1c-a81c-7b5c8f6175d4","system_id":"levelo_inurba_marseille","lat":43.312748,"lon":5.401768,"is_reserved":false,"is_disabled":false,"rental_uris":{"android":"levelo://app?vid=8cb63d74-5527-4e1c-a81c-7b5c8f6175d4","ios":"levelo://app?vid=8cb63d74-5527-4e1c-a81c-7b5c8f6175d4"},"vehicle_type_id":"4","last_reported":1770056940,"current_range_meters":3600,"station_id":"ce4bh092rcd13ifvqd30","pricing_plan_id":"cebpf4jnsgd1na2vs0mg"},{"bike_id":"8401dd38-67e3-4f52-852b-c5ed2c9817e4","system_id":"levelo_inurba_marseille","lat":43.27941,"lon":5.41041,"is_reserved":false,"is_disabled":false,"rental_uris":{"android":"levelo://app?vid=8401dd38-67e3-4f52-852b-c5ed2c9817e4","ios":"levelo://app?vid=8401dd38-67e3-4f52-852b-c5ed2c9817e4"},"vehicle_type_id":"4","last_reported":1770056940,"current_range_meters":3600,"station_id":"ce4bhnp2rcd13ifvqh0g","pricing_plan_id":"cebpf4jnsgd1na2vs0mg"},{"bike_id":"64342d69-ab30-4801-8539-fc98ba700298","system_id":"levelo_inurba_marseille","lat":43.24808,"lon":5.37448,"is_reserved":false,"is_disabled":false,"rental_uris":{"android":"levelo://app?vid=64342d69-ab30-4801-8539-fc98ba700298","ios":"levelo://app?vid=64342d69-ab30-4801-8539-fc98ba700298"},"vehicle_type_id":"4","last_reported":1770056940,"current_range_meters":4000,"station_id":"ce4bhgh2rcd13ifvqfb0","pricing_plan_id":"cebpf4jnsgd1na2vs0mg"},{"bike_id":"376232b5-fd9d-4a27-a8c8-b8a78b760878","system_id":"levelo_inurba_marseille","lat":43.24183,"lon":5.39706,"is_reserved":false,"is_disabled":false,"rental_uris":{"android":"levelo://app?vid=376232b5-fd9d-4a27-a8c8-b8a78b760878","ios":"levelo://app?vid=376232b5-fd9d-4a27-a8c8-b8a78b760878"},"vehicle_type_id":"4","last_reported":1770056940,"current_range_meters":4000,"station_id":"ce4bhn12rcd13ifvqgpg","pricing_plan_id":"cebpf4jnsgd1na2vs0mg"},{"bike_id":"e76b3d8e-b3d4-4100-9a39-297c53b12c01","system_id":"levelo_inurba_marseille","lat":43.29532,"lon":5.375,"is_reserved":false,"is_disabled":false,"rental_uris":{"android":"levelo://app?vid=e76b3d8e-b3d4-4100-9a39-297c53b12c01","ios":"levelo://app?vid=e76b3d8e-b3d4-4100-9a39-297c53b12c01"},"vehicle_type_id":"4","last_reported":1770056940,"current_range_meters":4000,"station_id":"ce4bgkp2rcd13ifvqbmg","pricing_plan_id":"cebpf4jnsgd1na2vs0mg"},{"bike_id":"a1f01d0e-daec-4baf-acde-adf9612a1a61","system_id":"levelo_inurba_marseille","lat":43.265785,"lon":5.39016,"is_reserved":false,"is_disabled":false,"rental_uris":{"android":"levelo://app?vid=a1f01d0e-daec-4baf-acde-adf9612a1a61","ios":"levelo://app?vid=a1f01d0e-daec-4baf-acde-adf9612a1a61"},"vehicle_type_id":"4","last_reported":1770056940,"current_range_meters":4000,"station_id":"ce4bhe12rcd13ifvqf30","pricing_plan_id":"cebpf4jnsgd1na2vs0mg"},{"bike_id":"f92823b8-4fef-4833-b634-08b82223de18","system_id":"levelo_inurba_marseille","lat":43.2319,"lon":5.3999,"is_reserved":false,"is_disabled":false,"rental_uris":{"android":"levelo://app?vid=f92823b8-4fef-4833-b634-08b82223de18","ios":"levelo://app?vid=f92823b8-4fef-4833-b634-08b82223de18"},"vehicle_type_id":"4","last_reported":1770056940,"current_range_meters":4000,"station_id":"ce4bhn12rcd13ifvqgqg","pricing_plan_id":"cebpf4jnsgd1na2vs0mg"},{"bike_id":"a6ab1dbd-7d2f-441a-88b2-8e2bc94dc087","system_id":"levelo_inurba_marseille","lat":43.24986,"lon":5.38961,"is_reserved":false,"is_disabled":false,"rental_uris":{"android":"levelo://app?vid=a6ab1dbd-7d2f-441a-88b2-8e2bc94dc087","ios":"levelo://app?vid=a6ab1dbd-7d2f-441a-88b2-8e2bc94dc087"},"vehicle_type_id":"4","last_reported":1770056940,"current_range_meters":4000,"station_id":"ce4bhgp2rcd13ifvqfd0","pricing_plan_id":"cebpf4jnsgd1na2vs0mg"},{"bike_id":"6cf3fcf2-b494-4520-b7ac-d6b5ea5dd1dd","system_id":"levelo_inurba_marseille","lat":43.30674,"lon":5.36568,"is_reserved":false,"is_disabled":true,"rental_uris":{"android":"levelo://app?vid=6cf3fcf2-b494-4520-b7ac-d6b5ea5dd1dd","ios":"levelo://app?vid=6cf3fcf2-b494-4520-b7ac-d6b5ea5dd1dd"},"vehicle_type_id":"4","last_reported":1770056940,"current_range_meters":4000,"station_id":"ce4bgs12rcd13ifvqcag","pricing_plan_id":"cebpf4jnsgd1na2vs0mg"},{"bike_id":"79812d79-066c-4d3c-91f1-ee83530e917c","system_id":"levelo_inurba_marseille","lat":43.240778,"lon":5.377432,"is_reserved":false,"is_disabled":false,"rental_uris":{"android":"levelo://app?vid=79812d79-066c-4d3c-91f1-ee83530e917c","ios":"levelo://app?vid=79812d79-066c-4d3c-91f1-ee83530e917c"},"vehicle_type_id":"4","last_reported":1770056940,"current_range_meters":4000,"station_id":"ce4bhnp2rcd13ifvqgvg","pricing_plan_id":"cebpf4jnsgd1na2vs0mg"},{"bike_id":"11a4253c-c87d-43fc-b4fa-6f18163ba935","system_id":"levelo_inurba_marseille","lat":43.28512,"lon":5.48391,"is_reserved":false,"is_disabled":false,"rental_uris":{"android":"levelo://app?vid=11a4253c-c87d-43fc-b4fa-6f18163ba935","ios":"levelo://app?vid=11a4253c-c87d-43fc-b4fa-6f18163ba935"},"vehicle_type_id":"4","last_reported":1770056940,"current_range_meters":4000,"station_id":"st_d3svhcjqgbts73a3dn0g","pricing_plan_id":"cebpf4jnsgd1na2vs0mg"},{"bike_id":"83024df0-1ebb-4f12-ada8-19c6b6f1d40a","system_id":"levelo_inurba_marseille","lat":43.28159,"lon":5.42638,"is_reserved":false,"is_disabled":false,"rental_uris":{"android":"levelo://app?vid=83024df0-1ebb-4f12-ada8-19c6b6f1d40a","ios":"levelo://app?vid=83024df0-1ebb-4f12-ada8-19c6b6f1d40a"},"vehicle_type_id":"4","last_reported":1770056940,"current_range_meters":4400,"station_id":"ce4bhnh2rcd13ifvqgug","pricing_plan_id":"cebpf4jnsgd1na2vs0mg"},{"bike_id":"61d232a6-c72b-43f7-8d84-c786e5f463d1","system_id":"levelo_inurba_marseille","lat":43.25927,"lon":5.40888,"is_reserved":false,"is_disabled":false,"rental_uris":{"android":"levelo://app?vid=61d232a6-c72b-43f7-8d84-c786e5f463d1","ios":"levelo://app?vid=61d232a6-c72b-43f7-8d84-c786e5f463d1"},"vehicle_type_id":"4","last_reported":1770056940,"current_range_meters":4400,"station_id":"ce4bhm92rcd13ifvqglg","pricing_plan_id":"cebpf4jnsgd1na2vs0mg"},{"bike_id":"c08fb5ce-410b-4e3b-bd2b-37b604cc356e","system_id":"levelo_inurba_marseille","lat":43.309182,"lon":5.401478,"is_reserved":false,"is_disabled":false,"rental_uris":{"android":"levelo://app?vid=c08fb5ce-410b-4e3b-bd2b-37b604cc356e","ios":"levelo://app?vid=c08fb5ce-410b-4e3b-bd2b-37b604cc356e"},"vehicle_type_id":"4","last_reported":1770056940,"current_range_meters":4400,"station_id":"ce4bgvp2rcd13ifvqct0","pricing_plan_id":"cebpf4jnsgd1na2vs0mg"},{"bike_id":"e96133eb-f771-40b1-ae3b-574adab8fad6","system_id":"levelo_inurba_marseille","lat":43.279938,"lon":5.40004,"is_reserved":false,"is_disabled":false,"rental_uris":{"android":"levelo://app?vid=e96133eb-f771-40b1-ae3b-574adab8fad6","ios":"levelo://app?vid=e96133eb-f771-40b1-ae3b-574adab8fad6"},"vehicle_type_id":"4","last_reported":1770056940,"current_range_meters":4400,"station_id":"ce4bho92rcd13ifvqh4g","pricing_plan_id":"cebpf4jnsgd1na2vs0mg"},{"bike_id":"8627f7e3-95b0-48aa-8d02-4dad162dfa1b","system_id":"levelo_inurba_marseille","lat":43.26556,"lon":5.37277,"is_reserved":false,"is_disabled":false,"rental_uris":{"android":"levelo://app?vid=8627f7e3-95b0-48aa-8d02-4dad162dfa1b","ios":"levelo://app?vid=8627f7e3-95b0-48aa-8d02-4dad162dfa1b"},"vehicle_type_id":"4","last_reported":1770056940,"current_range_meters":4400,"station_id":"ce4bhg12rcd13ifvqf70","pricing_plan_id":"cebpf4jnsgd1na2vs0mg"},{"bike_id":"0830e9a7-a744-43b1-8872-2a8033326e31","system_id":"levelo_inurba_marseille","lat":43.24078,"lon":5.37749,"is_reserved":false,"is_disabled":false,"rental_uris":{"android":"levelo://app?vid=0830e9a7-a744-43b1-8872-2a8033326e31","ios":"levelo://app?vid=0830e9a7-a744-43b1-8872-2a8033326e31"},"vehicle_type_id":"4","last_reported":1770056940,"current_range_meters":4800,"station_id":"ce4bhnp2rcd13ifvqgvg","pricing_plan_id":"cebpf4jnsgd1na2vs0mg"},{"bike_id":"7e8ce13a-d5d2-43d6-b821-ba3c9c440f78","system_id":"levelo_inurba_marseille","lat":43.31394,"lon":5.36724,"is_reserved":false,"is_disabled":false,"rental_uris":{"android":"levelo://app?vid=7e8ce13a-d5d2-43d6-b821-ba3c9c440f78","ios":"levelo://app?vid=7e8ce13a-d5d2-43d6-b821-ba3c9c440f78"},"vehicle_type_id":"4","last_reported":1770056940,"current_range_meters":4800,"station_id":"ce4bgr92rcd13ifvqc6g","pricing_plan_id":"cebpf4jnsgd1na2vs0mg"},{"bike_id":"caec583a-6768-49bf-a58a-63877e3b3870","system_id":"levelo_inurba_marseille","lat":43.2406,"lon":5.36373,"is_reserved":false,"is_disabled":false,"rental_uris":{"android":"levelo://app?vid=caec583a-6768-49bf-a58a-63877e3b3870","ios":"levelo://app?vid=caec583a-6768-49bf-a58a-63877e3b3870"},"vehicle_type_id":"4","last_reported":1770056940,"current_range_meters":4800,"station_id":"","pricing_plan_id":"cebpf4jnsgd1na2vs0mg"},{"bike_id":"15285b76-e89c-4253-a87a-a7346641cc09","system_id":"levelo_inurba_marseille","lat":43.25575,"lon":5.38257,"is_reserved":false,"is_disabled":false,"rental_uris":{"android":"levelo://app?vid=15285b76-e89c-4253-a87a-a7346641cc09","ios":"levelo://app?vid=15285b76-e89c-4253-a87a-a7346641cc09"},"vehicle_type_id":"4","last_reported":1770056940,"current_range_meters":4800,"station_id":"ce4bhih2rcd13ifvqfs0","pricing_plan_id":"cebpf4jnsgd1na2vs0mg"},{"bike_id":"33cfd768-2ed8-4c90-a060-322f7c560d2a","system_id":"levelo_inurba_marseille","lat":43.24818,"lon":5.38465,"is_reserved":false,"is_disabled":false,"rental_uris":{"android":"levelo://app?vid=33cfd768-2ed8-4c90-a060-322f7c560d2a","ios":"levelo://app?vid=33cfd768-2ed8-4c90-a060-322f7c560d2a"},"vehicle_type_id":"4","last_reported":1770056940,"current_range_meters":4800,"station_id":"","pricing_plan_id":"cebpf4jnsgd1na2vs0mg"},{"bike_id":"01e73d6e-952d-4b90-bff8-e5173ce59dd7","system_id":"levelo_inurba_marseille","lat":43.29543,"lon":5.38523,"is_reserved":false,"is_disabled":true,"rental_uris":{"android":"levelo://app?vid=01e73d6e-952d-4b90-bff8-e5173ce59dd7","ios":"levelo://app?vid=01e73d6e-952d-4b90-bff8-e5173ce59dd7"},"vehicle_type_id":"4","last_reported":1770056940,"current_range_meters":4800,"station_id":"ce4bgih2rcd13ifvqba0","pricing_plan_id":"cebpf4jnsgd1na2vs0mg"},{"bike_id":"6ddb3c6a-28ae-4574-a949-d0f46ca957c2","system_id":"levelo_inurba_marseille","lat":43.28157,"lon":5.42637,"is_reserved":false,"is_disabled":true,"rental_uris":{"android":"levelo://app?vid=6ddb3c6a-28ae-4574-a949-d0f46ca957c2","ios":"levelo://app?vid=6ddb3c6a-28ae-4574-a949-d0f46ca957c2"},"vehicle_type_id":"4","last_reported":1770056940,"current_range_meters":4800,"station_id":"ce4bhnh2rcd13ifvqgug","pricing_plan_id":"cebpf4jnsgd1na2vs0mg"},{"bike_id":"07682c61-84a7-4768-96cf-64e723026de5","system_id":"levelo_inurba_marseille","lat":43.27502,"lon":5.41587,"is_reserved":false,"is_disabled":false,"rental_uris":{"android":"levelo://app?vid=07682c61-84a7-4768-96cf-64e723026de5","ios":"levelo://app?vid=07682c61-84a7-4768-96cf-64e723026de5"},"vehicle_type_id":"4","last_reported":1770056940,"current_range_meters":4800,"station_id":"","pricing_plan_id":"cebpf4jnsgd1na2vs0mg"},{"bike_id":"6c0586b2-d2df-4be0-be2b-dbdce7fdef39","system_id":"levelo_inurba_marseille","lat":43.28919,"lon":5.38385,"is_reserved":false,"is_disabled":false,"rental_uris":{"android":"levelo://app?vid=6c0586b2-d2df-4be0-be2b-dbdce7fdef39","ios":"levelo://app?vid=6c0586b2-d2df-4be0-be2b-dbdce7fdef39"},"vehicle_type_id":"4","last_reported":1770056940,"current_range_meters":4800,"station_id":"ce4bh612rcd13ifvqe6g","pricing_plan_id":"cebpf4jnsgd1na2vs0mg"},{"bike_id":"a688c20c-c1fc-427b-95f8-09d787e81d38","system_id":"levelo_inurba_marseille","lat":43.23146,"lon":5.4371,"is_reserved":false,"is_disabled":false,"rental_uris":{"android":"levelo://app?vid=a688c20c-c1fc-427b-95f8-09d787e81d38","ios":"levelo://app?vid=a688c20c-c1fc-427b-95f8-09d787e81d38"},"vehicle_type_id":"4","last_reported":1770056940,"current_range_meters":4800,"station_id":"ce4bhmp2rcd13ifvqgog","pricing_plan_id":"cebpf4jnsgd1na2vs0mg"},{"bike_id":"c266ef69-6db6-403b-bc66-e28d169430e3","system_id":"levelo_inurba_marseille","lat":43.24391,"lon":5.37077,"is_reserved":false,"is_disabled":false,"rental_uris":{"android":"levelo://app?vid=c266ef69-6db6-403b-bc66-e28d169430e3","ios":"levelo://app?vid=c266ef69-6db6-403b-bc66-e28d169430e3"},"vehicle_type_id":"4","last_reported":1770056940,"current_range_meters":4800,"station_id":"ce4bhhh2rcd13ifvqfk0","pricing_plan_id":"cebpf4jnsgd1na2vs0mg"},{"bike_id":"1b204181-222d-4067-86e4-48096500f801","system_id":"levelo_inurba_marseille","lat":43.292942,"lon":5.371314,"is_reserved":false,"is_disabled":false,"rental_uris":{"android":"levelo://app?vid=1b204181-222d-4067-86e4-48096500f801","ios":"levelo://app?vid=1b204181-222d-4067-86e4-48096500f801"},"vehicle_type_id":"4","last_reported":1770056940,"current_range_meters":5600,"station_id":"ce4bgh92rcd13ifvqb40","pricing_plan_id":"cebpf4jnsgd1na2vs0mg"},{"bike_id":"4ca8c262-60e7-4200-bd20-4bb597bb3d81","system_id":"levelo_inurba_marseille","lat":43.31359,"lon":5.38488,"is_reserved":false,"is_disabled":false,"rental_uris":{"android":"levelo://app?vid=4ca8c262-60e7-4200-bd20-4bb597bb3d81","ios":"levelo://app?vid=4ca8c262-60e7-4200-bd20-4bb597bb3d81"},"vehicle_type_id":"4","last_reported":1770056940,"current_range_meters":5600,"station_id":"ce4bgt92rcd13ifvqcf0","pricing_plan_id":"cebpf4jnsgd1na2vs0mg"},{"bike_id":"e9aa3b92-3aba-4ae3-8119-395c95a0d91b","system_id":"levelo_inurba_marseille","lat":43.24388,"lon":5.37065,"is_reserved":false,"is_disabled":false,"rental_uris":{"android":"levelo://app?vid=e9aa3b92-3aba-4ae3-8119-395c95a0d91b","ios":"levelo://app?vid=e9aa3b92-3aba-4ae3-8119-395c95a0d91b"},"vehicle_type_id":"4","last_reported":1770056940,"current_range_meters":5600,"station_id":"ce4bhhh2rcd13ifvqfk0","pricing_plan_id":"cebpf4jnsgd1na2vs0mg"},{"bike_id":"e22e1f26-0b48-4184-a7ce-d50ac63de7a5","system_id":"levelo_inurba_marseille","lat":43.22574,"lon":5.41624,"is_reserved":false,"is_disabled":false,"rental_uris":{"android":"levelo://app?vid=e22e1f26-0b48-4184-a7ce-d50ac63de7a5","ios":"levelo://app?vid=e22e1f26-0b48-4184-a7ce-d50ac63de7a5"},"vehicle_type_id":"4","last_reported":1770056940,"current_range_meters":5600,"station_id":"st_d2o4gvlbi1j2169b742g","pricing_plan_id":"cebpf4jnsgd1na2vs0mg"},{"bike_id":"8cb17e9d-6956-4db9-870e-851f50514412","system_id":"levelo_inurba_marseille","lat":43.32108,"lon":5.36714,"is_reserved":false,"is_disabled":false,"rental_uris":{"android":"levelo://app?vid=8cb17e9d-6956-4db9-870e-851f50514412","ios":"levelo://app?vid=8cb17e9d-6956-4db9-870e-851f50514412"},"vehicle_type_id":"4","last_reported":1770056940,"current_range_meters":5600,"station_id":"ce4bhrh2rcd13ifvqhug","pricing_plan_id":"cebpf4jnsgd1na2vs0mg"},{"bike_id":"0c37f209-4da2-456d-badb-27f46c6c7d3c","system_id":"levelo_inurba_marseille","lat":43.3031,"lon":5.36892,"is_reserved":false,"is_disabled":false,"rental_uris":{"android":"levelo://app?vid=0c37f209-4da2-456d-badb-27f46c6c7d3c","ios":"levelo://app?vid=0c37f209-4da2-456d-badb-27f46c6c7d3c"},"vehicle_type_id":"4","last_reported":1770056940,"current_range_meters":5600,"station_id":"ce4bgqh2rcd13ifvqc5g","pricing_plan_id":"cebpf4jnsgd1na2vs0mg"},{"bike_id":"424d0d3d-de1c-4125-82ac-0faa3cd4c48d","system_id":"levelo_inurba_marseille","lat":43.30904,"lon":5.37152,"is_reserved":false,"is_disabled":false,"rental_uris":{"android":"levelo://app?vid=424d0d3d-de1c-4125-82ac-0faa3cd4c48d","ios":"levelo://app?vid=424d0d3d-de1c-4125-82ac-0faa3cd4c48d"},"vehicle_type_id":"4","last_reported":1770056940,"current_range_meters":5600,"station_id":"ce4bguh2rcd13ifvqckg","pricing_plan_id":"cebpf4jnsgd1na2vs0mg"},{"bike_id":"3eedbc32-e6fe-4748-89e7-30383a43cb8a","system_id":"levelo_inurba_marseille","lat":43.27992,"lon":5.41657,"is_reserved":false,"is_disabled":false,"rental_uris":{"android":"levelo://app?vid=3eedbc32-e6fe-4748-89e7-30383a43cb8a","ios":"levelo://app?vid=3eedbc32-e6fe-4748-89e7-30383a43cb8a"},"vehicle_type_id":"4","last_reported":1770056940,"current_range_meters":5600,"station_id":"ce4bho12rcd13ifvqh1g","pricing_plan_id":"cebpf4jnsgd1na2vs0mg"},{"bike_id":"7481b2d9-a077-4efb-aae8-c8d680676399","system_id":"levelo_inurba_marseille","lat":43.28346,"lon":5.38115,"is_reserved":false,"is_disabled":false,"rental_uris":{"android":"levelo://app?vid=7481b2d9-a077-4efb-aae8-c8d680676399","ios":"levelo://app?vid=7481b2d9-a077-4efb-aae8-c8d680676399"},"vehicle_type_id":"4","last_reported":1770056940,"current_range_meters":5600,"station_id":"ce4bh412rcd13ifvqdr0","pricing_plan_id":"cebpf4jnsgd1na2vs0mg"},{"bike_id":"cbe5f632-f95e-4ffb-9f92-e743ffab6e3e","system_id":"levelo_inurba_marseille","lat":43.28868,"lon":5.425148,"is_reserved":false,"is_disabled":false,"rental_uris":{"android":"levelo://app?vid=cbe5f632-f95e-4ffb-9f92-e743ffab6e3e","ios":"levelo://app?vid=cbe5f632-f95e-4ffb-9f92-e743ffab6e3e"},"vehicle_type_id":"4","last_reported":1770056940,"current_range_meters":5600,"station_id":"st_d3b462108ojc7389ooeg","pricing_plan_id":"cebpf4jnsgd1na2vs0mg"},{"bike_id":"079547f6-9ece-4634-a325-d80c601692e4","system_id":"levelo_inurba_marseille","lat":43.27365,"lon":5.36254,"is_reserved":false,"is_disabled":false,"rental_uris":{"android":"levelo://app?vid=079547f6-9ece-4634-a325-d80c601692e4","ios":"levelo://app?vid=079547f6-9ece-4634-a325-d80c601692e4"},"vehicle_type_id":"4","last_reported":1770056940,"current_range_meters":5600,"station_id":"ce4bhbh2rcd13ifvqeo0","pricing_plan_id":"cebpf4jnsgd1na2vs0mg"},{"bike_id":"e149fd15-8b21-4d9f-9c5b-93bd5e0afa84","system_id":"levelo_inurba_marseille","lat":43.27319,"lon":5.39084,"is_reserved":false,"is_disabled":false,"rental_uris":{"android":"levelo://app?vid=e149fd15-8b21-4d9f-9c5b-93bd5e0afa84","ios":"levelo://app?vid=e149fd15-8b21-4d9f-9c5b-93bd5e0afa84"},"vehicle_type_id":"4","last_reported":1770056940,"current_range_meters":5600,"station_id":"ce4bhgp2rcd13ifvqfe0","pricing_plan_id":"cebpf4jnsgd1na2vs0mg"},{"bike_id":"3b2a0495-d056-4726-ad48-0a57214f6b42","system_id":"levelo_inurba_marseille","lat":43.31176,"lon":5.36839,"is_reserved":false,"is_disabled":false,"rental_uris":{"android":"levelo://app?vid=3b2a0495-d056-4726-ad48-0a57214f6b42","ios":"levelo://app?vid=3b2a0495-d056-4726-ad48-0a57214f6b42"},"vehicle_type_id":"4","last_reported":1770056940,"current_range_meters":6000,"station_id":"","pricing_plan_id":"cebpf4jnsgd1na2vs0mg"},{"bike_id":"437958b3-1fc1-421f-a410-c2cb6fec2333","system_id":"levelo_inurba_marseille","lat":43.24811,"lon":5.37451,"is_reserved":false,"is_disabled":false,"rental_uris":{"android":"levelo://app?vid=437958b3-1fc1-421f-a410-c2cb6fec2333","ios":"levelo://app?vid=437958b3-1fc1-421f-a410-c2cb6fec2333"},"vehicle_type_id":"4","last_reported":1770056940,"current_range_meters":6000,"station_id":"ce4bhgh2rcd13ifvqfb0","pricing_plan_id":"cebpf4jnsgd1na2vs0mg"},{"bike_id":"e25162d3-4d5d-419d-b20d-2ec1bcdee6fb","system_id":"levelo_inurba_marseille","lat":43.31048,"lon":5.37186,"is_reserved":false,"is_disabled":false,"rental_uris":{"android":"levelo://app?vid=e25162d3-4d5d-419d-b20d-2ec1bcdee6fb","ios":"levelo://app?vid=e25162d3-4d5d-419d-b20d-2ec1bcdee6fb"},"vehicle_type_id":"4","last_reported":1770056940,"current_range_meters":6000,"station_id":"st_d4kl2rp97mjs73e7tdfg","pricing_plan_id":"cebpf4jnsgd1na2vs0mg"},{"bike_id":"97d7ba2a-e0c0-4688-aeb6-9dc8e7c2bb8b","system_id":"levelo_inurba_marseille","lat":43.28178,"lon":5.34971,"is_reserved":false,"is_disabled":false,"rental_uris":{"android":"levelo://app?vid=97d7ba2a-e0c0-4688-aeb6-9dc8e7c2bb8b","ios":"levelo://app?vid=97d7ba2a-e0c0-4688-aeb6-9dc8e7c2bb8b"},"vehicle_type_id":"4","last_reported":1770056940,"current_range_meters":6000,"station_id":"","pricing_plan_id":"cebpf4jnsgd1na2vs0mg"},{"bike_id":"e9a8ad83-a2d5-4795-8073-fda176633ed6","system_id":"levelo_inurba_marseille","lat":43.26702,"lon":5.38256,"is_reserved":false,"is_disabled":false,"rental_uris":{"android":"levelo://app?vid=e9a8ad83-a2d5-4795-8073-fda176633ed6","ios":"levelo://app?vid=e9a8ad83-a2d5-4795-8073-fda176633ed6"},"vehicle_type_id":"4","last_reported":1770056940,"current_range_meters":6400,"station_id":"ce4bhg92rcd13ifvqf90","pricing_plan_id":"cebpf4jnsgd1na2vs0mg"},{"bike_id":"c20ed702-3481-4da1-8980-6cf2971f3757","system_id":"levelo_inurba_marseille","lat":43.28478,"lon":5.48406,"is_reserved":false,"is_disabled":false,"rental_uris":{"android":"levelo://app?vid=c20ed702-3481-4da1-8980-6cf2971f3757","ios":"levelo://app?vid=c20ed702-3481-4da1-8980-6cf2971f3757"},"vehicle_type_id":"4","last_reported":1770056940,"current_range_meters":6400,"station_id":"st_d3svhcjqgbts73a3dn0g","pricing_plan_id":"cebpf4jnsgd1na2vs0mg"},{"bike_id":"20ab15c6-cd2b-4147-ad23-6e4e82e00a52","system_id":"levelo_inurba_marseille","lat":43.26541,"lon":5.37279,"is_reserved":false,"is_disabled":false,"rental_uris":{"android":"levelo://app?vid=20ab15c6-cd2b-4147-ad23-6e4e82e00a52","ios":"levelo://app?vid=20ab15c6-cd2b-4147-ad23-6e4e82e00a52"},"vehicle_type_id":"4","last_reported":1770056940,"current_range_meters":6400,"station_id":"ce4bhg12rcd13ifvqf70","pricing_plan_id":"cebpf4jnsgd1na2vs0mg"},{"bike_id":"a408d5d2-5427-46e8-87f7-6b2377b7fcd5","system_id":"levelo_inurba_marseille","lat":43.259354,"lon":5.409087,"is_reserved":false,"is_disabled":false,"rental_uris":{"android":"levelo://app?vid=a408d5d2-5427-46e8-87f7-6b2377b7fcd5","ios":"levelo://app?vid=a408d5d2-5427-46e8-87f7-6b2377b7fcd5"},"vehicle_type_id":"4","last_reported":1770056940,"current_range_meters":6400,"station_id":"ce4bhm92rcd13ifvqglg","pricing_plan_id":"cebpf4jnsgd1na2vs0mg"},{"bike_id":"fda17309-67c6-493d-a11a-fed18f5561b2","system_id":"levelo_inurba_marseille","lat":43.25054,"lon":5.38893,"is_reserved":false,"is_disabled":false,"rental_uris":{"android":"levelo://app?vid=fda17309-67c6-493d-a11a-fed18f5561b2","ios":"levelo://app?vid=fda17309-67c6-493d-a11a-fed18f5561b2"},"vehicle_type_id":"4","last_reported":1770056940,"current_range_meters":6400,"station_id":"","pricing_plan_id":"cebpf4jnsgd1na2vs0mg"},{"bike_id":"8e17897f-aa86-4517-a1e7-41bb2cad72b6","system_id":"levelo_inurba_marseille","lat":43.30154,"lon":5.381,"is_reserved":false,"is_disabled":false,"rental_uris":{"android":"levelo://app?vid=8e17897f-aa86-4517-a1e7-41bb2cad72b6","ios":"levelo://app?vid=8e17897f-aa86-4517-a1e7-41bb2cad72b6"},"vehicle_type_id":"4","last_reported":1770056940,"current_range_meters":6400,"station_id":"ce4bgjp2rcd13ifvqbh0","pricing_plan_id":"cebpf4jnsgd1na2vs0mg"},{"bike_id":"b4c97001-49df-4aa6-8dd3-4844e9bfa652","system_id":"levelo_inurba_marseille","lat":43.24073,"lon":5.37748,"is_reserved":false,"is_disabled":false,"rental_uris":{"android":"levelo://app?vid=b4c97001-49df-4aa6-8dd3-4844e9bfa652","ios":"levelo://app?vid=b4c97001-49df-4aa6-8dd3-4844e9bfa652"},"vehicle_type_id":"4","last_reported":1770056940,"current_range_meters":6400,"station_id":"ce4bhnp2rcd13ifvqgvg","pricing_plan_id":"cebpf4jnsgd1na2vs0mg"},{"bike_id":"24512b05-d889-4799-932a-3af211c12d39","system_id":"levelo_inurba_marseille","lat":43.27375,"lon":5.36255,"is_reserved":false,"is_disabled":false,"rental_uris":{"android":"levelo://app?vid=24512b05-d889-4799-932a-3af211c12d39","ios":"levelo://app?vid=24512b05-d889-4799-932a-3af211c12d39"},"vehicle_type_id":"4","last_reported":1770056940,"current_range_meters":6800,"station_id":"ce4bhbh2rcd13ifvqeo0","pricing_plan_id":"cebpf4jnsgd1na2vs0mg"},{"bike_id":"a8b33ee5-98b1-4b91-a976-d816491fae12","system_id":"levelo_inurba_marseille","lat":43.267801,"lon":5.394171,"is_reserved":false,"is_disabled":true,"rental_uris":{"android":"levelo://app?vid=a8b33ee5-98b1-4b91-a976-d816491fae12","ios":"levelo://app?vid=a8b33ee5-98b1-4b91-a976-d816491fae12"},"vehicle_type_id":"4","last_reported":1770056940,"current_range_meters":6800,"station_id":"ce4bhh12rcd13ifvqfg0","pricing_plan_id":"cebpf4jnsgd1na2vs0mg"},{"bike_id":"325d9984-4029-4d00-8c76-8002734e01d5","system_id":"levelo_inurba_marseille","lat":43.2804,"lon":5.36942,"is_reserved":false,"is_disabled":false,"rental_uris":{"android":"levelo://app?vid=325d9984-4029-4d00-8c76-8002734e01d5","ios":"levelo://app?vid=325d9984-4029-4d00-8c76-8002734e01d5"},"vehicle_type_id":"4","last_reported":1770056940,"current_range_meters":6800,"station_id":"ce4bha12rcd13ifvqef0","pricing_plan_id":"cebpf4jnsgd1na2vs0mg"},{"bike_id":"def5b153-ad87-4d73-8e23-5629581b9804","system_id":"levelo_inurba_marseille","lat":43.26515,"lon":5.39547,"is_reserved":false,"is_disabled":false,"rental_uris":{"android":"levelo://app?vid=def5b153-ad87-4d73-8e23-5629581b9804","ios":"levelo://app?vid=def5b153-ad87-4d73-8e23-5629581b9804"},"vehicle_type_id":"4","last_reported":1770056940,"current_range_meters":6800,"station_id":"ce4bhi12rcd13ifvqfq0","pricing_plan_id":"cebpf4jnsgd1na2vs0mg"},{"bike_id":"81675ce0-40e0-484f-b5d0-d332c2114be4","system_id":"levelo_inurba_marseille","lat":43.26771,"lon":5.39413,"is_reserved":false,"is_disabled":false,"rental_uris":{"android":"levelo://app?vid=81675ce0-40e0-484f-b5d0-d332c2114be4","ios":"levelo://app?vid=81675ce0-40e0-484f-b5d0-d332c2114be4"},"vehicle_type_id":"4","last_reported":1770056940,"current_range_meters":6800,"station_id":"ce4bhh12rcd13ifvqfg0","pricing_plan_id":"cebpf4jnsgd1na2vs0mg"},{"bike_id":"b163a954-4c36-4104-b455-807b6fc9d458","system_id":"levelo_inurba_marseille","lat":43.26217,"lon":5.37449,"is_reserved":false,"is_disabled":false,"rental_uris":{"android":"levelo://app?vid=b163a954-4c36-4104-b455-807b6fc9d458","ios":"levelo://app?vid=b163a954-4c36-4104-b455-807b6fc9d458"},"vehicle_type_id":"4","last_reported":1770056940,"current_range_meters":6800,"station_id":"ce4bhgp2rcd13ifvqfc0","pricing_plan_id":"cebpf4jnsgd1na2vs0mg"},{"bike_id":"0b29bd96-af36-409b-85f4-994b381fba73","system_id":"levelo_inurba_marseille","lat":43.29886,"lon":5.38413,"is_reserved":false,"is_disabled":false,"rental_uris":{"android":"levelo://app?vid=0b29bd96-af36-409b-85f4-994b381fba73","ios":"levelo://app?vid=0b29bd96-af36-409b-85f4-994b381fba73"},"vehicle_type_id":"4","last_reported":1770056940,"current_range_meters":6800,"station_id":"","pricing_plan_id":"cebpf4jnsgd1na2vs0mg"},{"bike_id":"498925b7-5c1b-4bf1-a053-60e9a71a743b","system_id":"levelo_inurba_marseille","lat":43.29537,"lon":5.375,"is_reserved":false,"is_disabled":false,"rental_uris":{"android":"levelo://app?vid=498925b7-5c1b-4bf1-a053-60e9a71a743b","ios":"levelo://app?vid=498925b7-5c1b-4bf1-a053-60e9a71a743b"},"vehicle_type_id":"4","last_reported":1770056940,"current_range_meters":6800,"station_id":"ce4bgkp2rcd13ifvqbmg","pricing_plan_id":"cebpf4jnsgd1na2vs0mg"},{"bike_id":"27c2ee02-095b-4efa-aefc-348543972b6e","system_id":"levelo_inurba_marseille","lat":43.301,"lon":5.39087,"is_reserved":false,"is_disabled":true,"rental_uris":{"android":"levelo://app?vid=27c2ee02-095b-4efa-aefc-348543972b6e","ios":"levelo://app?vid=27c2ee02-095b-4efa-aefc-348543972b6e"},"vehicle_type_id":"4","last_reported":1770056940,"current_range_meters":6800,"station_id":"ce4bh192rcd13ifvqdb0","pricing_plan_id":"cebpf4jnsgd1na2vs0mg"},{"bike_id":"7e7cded1-d7df-4b4d-9ff3-49738118bd9d","system_id":"levelo_inurba_marseille","lat":43.2534,"lon":5.42168,"is_reserved":false,"is_disabled":false,"rental_uris":{"android":"levelo://app?vid=7e7cded1-d7df-4b4d-9ff3-49738118bd9d","ios":"levelo://app?vid=7e7cded1-d7df-4b4d-9ff3-49738118bd9d"},"vehicle_type_id":"4","last_reported":1770056940,"current_range_meters":6800,"station_id":"st_d2m65c5bi1j21697t3ng","pricing_plan_id":"cebpf4jnsgd1na2vs0mg"},{"bike_id":"f8b088f0-ca1a-438b-b5e9-6417de7330aa","system_id":"levelo_inurba_marseille","lat":43.29167,"lon":5.37157,"is_reserved":false,"is_disabled":false,"rental_uris":{"android":"levelo://app?vid=f8b088f0-ca1a-438b-b5e9-6417de7330aa","ios":"levelo://app?vid=f8b088f0-ca1a-438b-b5e9-6417de7330aa"},"vehicle_type_id":"4","last_reported":1770056940,"current_range_meters":6800,"station_id":"ce4bha92rcd13ifvqeh0","pricing_plan_id":"cebpf4jnsgd1na2vs0mg"},{"bike_id":"ca319e52-4042-4559-98a3-1b1ef07500d1","system_id":"levelo_inurba_marseille","lat":43.30324,"lon":5.40428,"is_reserved":false,"is_disabled":false,"rental_uris":{"android":"levelo://app?vid=ca319e52-4042-4559-98a3-1b1ef07500d1","ios":"levelo://app?vid=ca319e52-4042-4559-98a3-1b1ef07500d1"},"vehicle_type_id":"4","last_reported":1770056940,"current_range_meters":6800,"station_id":"ce4bh012rcd13ifvqd10","pricing_plan_id":"cebpf4jnsgd1na2vs0mg"},{"bike_id":"68f7d7cb-f337-4b83-9eb9-b67afeeefe21","system_id":"levelo_inurba_marseille","lat":43.24998,"lon":5.3893,"is_reserved":false,"is_disabled":false,"rental_uris":{"android":"levelo://app?vid=68f7d7cb-f337-4b83-9eb9-b67afeeefe21","ios":"levelo://app?vid=68f7d7cb-f337-4b83-9eb9-b67afeeefe21"},"vehicle_type_id":"4","last_reported":1770056940,"current_range_meters":6800,"station_id":"ce4bhgp2rcd13ifvqfd0","pricing_plan_id":"cebpf4jnsgd1na2vs0mg"},{"bike_id":"dfb7cc79-8510-46d4-921c-b52269205d9c","system_id":"levelo_inurba_marseille","lat":43.28471,"lon":5.38424,"is_reserved":false,"is_disabled":false,"rental_uris":{"android":"levelo://app?vid=dfb7cc79-8510-46d4-921c-b52269205d9c","ios":"levelo://app?vid=dfb7cc79-8510-46d4-921c-b52269205d9c"},"vehicle_type_id":"4","last_reported":1770056940,"current_range_meters":6800,"station_id":"ce4bh512rcd13ifvqe3g","pricing_plan_id":"cebpf4jnsgd1na2vs0mg"},{"bike_id":"3a2e60d6-e96f-43ff-946d-9dda353364f6","system_id":"levelo_inurba_marseille","lat":43.31041,"lon":5.37185,"is_reserved":false,"is_disabled":false,"rental_uris":{"android":"levelo://app?vid=3a2e60d6-e96f-43ff-946d-9dda353364f6","ios":"levelo://app?vid=3a2e60d6-e96f-43ff-946d-9dda353364f6"},"vehicle_type_id":"4","last_reported":1770056940,"current_range_meters":6800,"station_id":"st_d4kl2rp97mjs73e7tdfg","pricing_plan_id":"cebpf4jnsgd1na2vs0mg"},{"bike_id":"fa45b11c-493e-4e22-97ac-c56d700b1328","system_id":"levelo_inurba_marseille","lat":43.29274,"lon":5.38445,"is_reserved":false,"is_disabled":false,"rental_uris":{"android":"levelo://app?vid=fa45b11c-493e-4e22-97ac-c56d700b1328","ios":"levelo://app?vid=fa45b11c-493e-4e22-97ac-c56d700b1328"},"vehicle_type_id":"4","last_reported":1770056940,"current_range_meters":6800,"station_id":"ce4bh692rcd13ifvqea0","pricing_plan_id":"cebpf4jnsgd1na2vs0mg"},{"bike_id":"6e11a266-36e7-4957-9519-66b62e07609e","system_id":"levelo_inurba_marseille","lat":43.27206,"lon":5.39181,"is_reserved":false,"is_disabled":false,"rental_uris":{"android":"levelo://app?vid=6e11a266-36e7-4957-9519-66b62e07609e","ios":"levelo://app?vid=6e11a266-36e7-4957-9519-66b62e07609e"},"vehicle_type_id":"4","last_reported":1770056940,"current_range_meters":7200,"station_id":"ce4bhhp2rcd13ifvqfm0","pricing_plan_id":"cebpf4jnsgd1na2vs0mg"},{"bike_id":"53cd4e05-1f7b-413b-adfa-c3d0aea88356","system_id":"levelo_inurba_marseille","lat":43.29019,"lon":5.38627,"is_reserved":false,"is_disabled":false,"rental_uris":{"android":"levelo://app?vid=53cd4e05-1f7b-413b-adfa-c3d0aea88356","ios":"levelo://app?vid=53cd4e05-1f7b-413b-adfa-c3d0aea88356"},"vehicle_type_id":"4","last_reported":1770056940,"current_range_meters":7200,"station_id":"ce4bh4p2rcd13ifvqe0g","pricing_plan_id":"cebpf4jnsgd1na2vs0mg"},{"bike_id":"b81cf0a9-60ff-4ac2-9c33-32ff258c0032","system_id":"levelo_inurba_marseille","lat":43.2841,"lon":5.34988,"is_reserved":false,"is_disabled":false,"rental_uris":{"android":"levelo://app?vid=b81cf0a9-60ff-4ac2-9c33-32ff258c0032","ios":"levelo://app?vid=b81cf0a9-60ff-4ac2-9c33-32ff258c0032"},"vehicle_type_id":"4","last_reported":1770056940,"current_range_meters":7200,"station_id":"ce4bhbh2rcd13ifvqepg","pricing_plan_id":"cebpf4jnsgd1na2vs0mg"},{"bike_id":"448aac68-1f9e-4017-99cd-3bab5b285023","system_id":"levelo_inurba_marseille","lat":43.27387,"lon":5.36262,"is_reserved":false,"is_disabled":false,"rental_uris":{"android":"levelo://app?vid=448aac68-1f9e-4017-99cd-3bab5b285023","ios":"levelo://app?vid=448aac68-1f9e-4017-99cd-3bab5b285023"},"vehicle_type_id":"4","last_reported":1770056940,"current_range_meters":7200,"station_id":"ce4bhbh2rcd13ifvqeo0","pricing_plan_id":"cebpf4jnsgd1na2vs0mg"},{"bike_id":"132c2e4f-f164-4506-8200-75a72b5316b3","system_id":"levelo_inurba_marseille","lat":43.2259,"lon":5.41549,"is_reserved":false,"is_disabled":false,"rental_uris":{"android":"levelo://app?vid=132c2e4f-f164-4506-8200-75a72b5316b3","ios":"levelo://app?vid=132c2e4f-f164-4506-8200-75a72b5316b3"},"vehicle_type_id":"4","last_reported":1770056940,"current_range_meters":7200,"station_id":"","pricing_plan_id":"cebpf4jnsgd1na2vs0mg"},{"bike_id":"b4b49109-c680-49e7-b78f-0963342a85a5","system_id":"levelo_inurba_marseille","lat":43.30576,"lon":5.36523,"is_reserved":false,"is_disabled":false,"rental_uris":{"android":"levelo://app?vid=b4b49109-c680-49e7-b78f-0963342a85a5","ios":"levelo://app?vid=b4b49109-c680-49e7-b78f-0963342a85a5"},"vehicle_type_id":"4","last_reported":1770056940,"current_range_meters":7200,"station_id":"ce4bgs12rcd13ifvqcag","pricing_plan_id":"cebpf4jnsgd1na2vs0mg"},{"bike_id":"225e9d09-83ee-4f1c-a930-a97429c83cb7","system_id":"levelo_inurba_marseille","lat":43.23196,"lon":5.35553,"is_reserved":false,"is_disabled":false,"rental_uris":{"android":"levelo://app?vid=225e9d09-83ee-4f1c-a930-a97429c83cb7","ios":"levelo://app?vid=225e9d09-83ee-4f1c-a930-a97429c83cb7"},"vehicle_type_id":"4","last_reported":1770056940,"current_range_meters":7200,"station_id":"ce4bhu92rcd13ifvqi70","pricing_plan_id":"cebpf4jnsgd1na2vs0mg"},{"bike_id":"6a131f0d-6128-445c-99a5-319bcf3a622a","system_id":"levelo_inurba_marseille","lat":43.28477,"lon":5.48401,"is_reserved":false,"is_disabled":false,"rental_uris":{"android":"levelo://app?vid=6a131f0d-6128-445c-99a5-319bcf3a622a","ios":"levelo://app?vid=6a131f0d-6128-445c-99a5-319bcf3a622a"},"vehicle_type_id":"4","last_reported":1770056940,"current_range_meters":7200,"station_id":"st_d3svhcjqgbts73a3dn0g","pricing_plan_id":"cebpf4jnsgd1na2vs0mg"},{"bike_id":"ae2277f7-56f5-4ced-9543-fa73149d50cc","system_id":"levelo_inurba_marseille","lat":43.27814,"lon":5.40696,"is_reserved":false,"is_disabled":false,"rental_uris":{"android":"levelo://app?vid=ae2277f7-56f5-4ced-9543-fa73149d50cc","ios":"levelo://app?vid=ae2277f7-56f5-4ced-9543-fa73149d50cc"},"vehicle_type_id":"4","last_reported":1770056940,"current_range_meters":7200,"station_id":"ce4bhnh2rcd13ifvqgtg","pricing_plan_id":"cebpf4jnsgd1na2vs0mg"},{"bike_id":"9cbcf585-a58e-4938-b69e-d4c3022c57ef","system_id":"levelo_inurba_marseille","lat":43.24024,"lon":5.37747,"is_reserved":false,"is_disabled":false,"rental_uris":{"android":"levelo://app?vid=9cbcf585-a58e-4938-b69e-d4c3022c57ef","ios":"levelo://app?vid=9cbcf585-a58e-4938-b69e-d4c3022c57ef"},"vehicle_type_id":"4","last_reported":1770056940,"current_range_meters":7200,"station_id":"","pricing_plan_id":"cebpf4jnsgd1na2vs0mg"},{"bike_id":"91604460-68c0-4492-894c-a238619d1f72","system_id":"levelo_inurba_marseille","lat":43.23204,"lon":5.35545,"is_reserved":false,"is_disabled":false,"rental_uris":{"android":"levelo://app?vid=91604460-68c0-4492-894c-a238619d1f72","ios":"levelo://app?vid=91604460-68c0-4492-894c-a238619d1f72"},"vehicle_type_id":"4","last_reported":1770056940,"current_range_meters":7200,"station_id":"ce4bhu92rcd13ifvqi70","pricing_plan_id":"cebpf4jnsgd1na2vs0mg"},{"bike_id":"02b06200-6f0c-4fbe-a288-f34e85c983a1","system_id":"levelo_inurba_marseille","lat":43.23782,"lon":5.36633,"is_reserved":false,"is_disabled":false,"rental_uris":{"android":"levelo://app?vid=02b06200-6f0c-4fbe-a288-f34e85c983a1","ios":"levelo://app?vid=02b06200-6f0c-4fbe-a288-f34e85c983a1"},"vehicle_type_id":"4","last_reported":1770056940,"current_range_meters":8000,"station_id":"st_d3nk18o9ro0c73en2l3g","pricing_plan_id":"cebpf4jnsgd1na2vs0mg"},{"bike_id":"10e73840-0113-4738-bebf-5ddae0627736","system_id":"levelo_inurba_marseille","lat":43.30431,"lon":5.38888,"is_reserved":false,"is_disabled":false,"rental_uris":{"android":"levelo://app?vid=10e73840-0113-4738-bebf-5ddae0627736","ios":"levelo://app?vid=10e73840-0113-4738-bebf-5ddae0627736"},"vehicle_type_id":"4","last_reported":1770056940,"current_range_meters":8000,"station_id":"ce4bgk12rcd13ifvqbi0","pricing_plan_id":"cebpf4jnsgd1na2vs0mg"},{"bike_id":"f40b24a5-bf74-4433-adfa-9cc7e924510b","system_id":"levelo_inurba_marseille","lat":43.29733,"lon":5.37848,"is_reserved":false,"is_disabled":false,"rental_uris":{"android":"levelo://app?vid=f40b24a5-bf74-4433-adfa-9cc7e924510b","ios":"levelo://app?vid=f40b24a5-bf74-4433-adfa-9cc7e924510b"},"vehicle_type_id":"4","last_reported":1770056940,"current_range_meters":8000,"station_id":"","pricing_plan_id":"cebpf4jnsgd1na2vs0mg"},{"bike_id":"2fcc2686-9a43-4c0c-86f4-434c58cd2f97","system_id":"levelo_inurba_marseille","lat":43.29026,"lon":5.38639,"is_reserved":false,"is_disabled":false,"rental_uris":{"android":"levelo://app?vid=2fcc2686-9a43-4c0c-86f4-434c58cd2f97","ios":"levelo://app?vid=2fcc2686-9a43-4c0c-86f4-434c58cd2f97"},"vehicle_type_id":"4","last_reported":1770056940,"current_range_meters":8000,"station_id":"ce4bh4p2rcd13ifvqe0g","pricing_plan_id":"cebpf4jnsgd1na2vs0mg"},{"bike_id":"89dacfb9-9707-42fe-a9c8-524d3751d080","system_id":"levelo_inurba_marseille","lat":43.23153,"lon":5.43701,"is_reserved":false,"is_disabled":false,"rental_uris":{"android":"levelo://app?vid=89dacfb9-9707-42fe-a9c8-524d3751d080","ios":"levelo://app?vid=89dacfb9-9707-42fe-a9c8-524d3751d080"},"vehicle_type_id":"4","last_reported":1770056940,"current_range_meters":8000,"station_id":"ce4bhmp2rcd13ifvqgog","pricing_plan_id":"cebpf4jnsgd1na2vs0mg"},{"bike_id":"76154380-766b-4767-81b3-83dc44f40b7b","system_id":"levelo_inurba_marseille","lat":43.335445,"lon":5.374669,"is_reserved":false,"is_disabled":false,"rental_uris":{"android":"levelo://app?vid=76154380-766b-4767-81b3-83dc44f40b7b","ios":"levelo://app?vid=76154380-766b-4767-81b3-83dc44f40b7b"},"vehicle_type_id":"4","last_reported":1770056940,"current_range_meters":8000,"station_id":"st_d46tts09ee8s73dlu43g","pricing_plan_id":"cebpf4jnsgd1na2vs0mg"},{"bike_id":"ed02cb4c-388a-4f26-a459-0831f95c479b","system_id":"levelo_inurba_marseille","lat":43.29895,"lon":5.43664,"is_reserved":false,"is_disabled":false,"rental_uris":{"android":"levelo://app?vid=ed02cb4c-388a-4f26-a459-0831f95c479b","ios":"levelo://app?vid=ed02cb4c-388a-4f26-a459-0831f95c479b"},"vehicle_type_id":"4","last_reported":1770056940,"current_range_meters":8000,"station_id":"ce4bhpp2rcd13ifvqhfg","pricing_plan_id":"cebpf4jnsgd1na2vs0mg"},{"bike_id":"f8b90001-ffd3-489f-9646-3ea4d3953b76","system_id":"levelo_inurba_marseille","lat":43.27804,"lon":5.40713,"is_reserved":false,"is_disabled":false,"rental_uris":{"android":"levelo://app?vid=f8b90001-ffd3-489f-9646-3ea4d3953b76","ios":"levelo://app?vid=f8b90001-ffd3-489f-9646-3ea4d3953b76"},"vehicle_type_id":"4","last_reported":1770056940,"current_range_meters":8000,"station_id":"ce4bhnh2rcd13ifvqgtg","pricing_plan_id":"cebpf4jnsgd1na2vs0mg"},{"bike_id":"d6ff0c2e-1b73-4afa-8f0f-7ada026e25d1","system_id":"levelo_inurba_marseille","lat":43.294776,"lon":5.376062,"is_reserved":false,"is_disabled":false,"rental_uris":{"android":"levelo://app?vid=d6ff0c2e-1b73-4afa-8f0f-7ada026e25d1","ios":"levelo://app?vid=d6ff0c2e-1b73-4afa-8f0f-7ada026e25d1"},"vehicle_type_id":"4","last_reported":1770056940,"current_range_meters":8000,"station_id":"","pricing_plan_id":"cebpf4jnsgd1na2vs0mg"},{"bike_id":"dd789ece-b6e4-4c2e-b0c1-877c84b17297","system_id":"levelo_inurba_marseille","lat":43.21186,"lon":5.35076,"is_reserved":false,"is_disabled":false,"rental_uris":{"android":"levelo://app?vid=dd789ece-b6e4-4c2e-b0c1-877c84b17297","ios":"levelo://app?vid=dd789ece-b6e4-4c2e-b0c1-877c84b17297"},"vehicle_type_id":"4","last_reported":1770056940,"current_range_meters":8000,"station_id":"st_cvj6sg6p6f1abm77japg","pricing_plan_id":"cebpf4jnsgd1na2vs0mg"},{"bike_id":"ea5a711f-2b73-4543-828e-0dd0db27a325","system_id":"levelo_inurba_marseille","lat":43.28218,"lon":5.3906,"is_reserved":false,"is_disabled":false,"rental_uris":{"android":"levelo://app?vid=ea5a711f-2b73-4543-828e-0dd0db27a325","ios":"levelo://app?vid=ea5a711f-2b73-4543-828e-0dd0db27a325"},"vehicle_type_id":"4","last_reported":1770056940,"current_range_meters":8000,"station_id":"ce4bhn92rcd13ifvqgsg","pricing_plan_id":"cebpf4jnsgd1na2vs0mg"},{"bike_id":"dd31698a-3042-473a-bd53-ac0632646f44","system_id":"levelo_inurba_marseille","lat":43.24475,"lon":5.42535,"is_reserved":false,"is_disabled":false,"rental_uris":{"android":"levelo://app?vid=dd31698a-3042-473a-bd53-ac0632646f44","ios":"levelo://app?vid=dd31698a-3042-473a-bd53-ac0632646f44"},"vehicle_type_id":"4","last_reported":1770056940,"current_range_meters":8000,"station_id":"st_d4a3vfp97mjs738cd8kg","pricing_plan_id":"cebpf4jnsgd1na2vs0mg"},{"bike_id":"135cdecc-814d-464c-a0fd-daed6274b032","system_id":"levelo_inurba_marseille","lat":43.29839,"lon":5.3628,"is_reserved":false,"is_disabled":false,"rental_uris":{"android":"levelo://app?vid=135cdecc-814d-464c-a0fd-daed6274b032","ios":"levelo://app?vid=135cdecc-814d-464c-a0fd-daed6274b032"},"vehicle_type_id":"4","last_reported":1770056940,"current_range_meters":8000,"station_id":"ce4bgpp2rcd13ifvqc3g","pricing_plan_id":"cebpf4jnsgd1na2vs0mg"},{"bike_id":"d1786d71-cdac-413b-898f-401144ede37d","system_id":"levelo_inurba_marseille","lat":43.25336,"lon":5.42168,"is_reserved":false,"is_disabled":false,"rental_uris":{"android":"levelo://app?vid=d1786d71-cdac-413b-898f-401144ede37d","ios":"levelo://app?vid=d1786d71-cdac-413b-898f-401144ede37d"},"vehicle_type_id":"4","last_reported":1770056940,"current_range_meters":8000,"station_id":"st_d2m65c5bi1j21697t3ng","pricing_plan_id":"cebpf4jnsgd1na2vs0mg"},{"bike_id":"5dae8e7a-771c-417a-921b-2f019b85b891","system_id":"levelo_inurba_marseille","lat":43.29893,"lon":5.4368,"is_reserved":false,"is_disabled":false,"rental_uris":{"android":"levelo://app?vid=5dae8e7a-771c-417a-921b-2f019b85b891","ios":"levelo://app?vid=5dae8e7a-771c-417a-921b-2f019b85b891"},"vehicle_type_id":"4","last_reported":1770056940,"current_range_meters":8000,"station_id":"ce4bhpp2rcd13ifvqhfg","pricing_plan_id":"cebpf4jnsgd1na2vs0mg"},{"bike_id":"bd4832ab-4826-48ba-b8bd-4c736bb28b7b","system_id":"levelo_inurba_marseille","lat":43.25332,"lon":5.42177,"is_reserved":false,"is_disabled":false,"rental_uris":{"android":"levelo://app?vid=bd4832ab-4826-48ba-b8bd-4c736bb28b7b","ios":"levelo://app?vid=bd4832ab-4826-48ba-b8bd-4c736bb28b7b"},"vehicle_type_id":"4","last_reported":1770056940,"current_range_meters":8000,"station_id":"st_d2m65c5bi1j21697t3ng","pricing_plan_id":"cebpf4jnsgd1na2vs0mg"},{"bike_id":"fb6d0c92-aa07-41c5-bb64-ff22908e7b14","system_id":"levelo_inurba_marseille","lat":43.33543,"lon":5.37464,"is_reserved":false,"is_disabled":false,"rental_uris":{"android":"levelo://app?vid=fb6d0c92-aa07-41c5-bb64-ff22908e7b14","ios":"levelo://app?vid=fb6d0c92-aa07-41c5-bb64-ff22908e7b14"},"vehicle_type_id":"4","last_reported":1770056940,"current_range_meters":8000,"station_id":"st_d46tts09ee8s73dlu43g","pricing_plan_id":"cebpf4jnsgd1na2vs0mg"},{"bike_id":"6dcbafdd-a1b9-4d04-af91-285dc70eef9b","system_id":"levelo_inurba_marseille","lat":43.21743,"lon":5.34609,"is_reserved":false,"is_disabled":false,"rental_uris":{"android":"levelo://app?vid=6dcbafdd-a1b9-4d04-af91-285dc70eef9b","ios":"levelo://app?vid=6dcbafdd-a1b9-4d04-af91-285dc70eef9b"},"vehicle_type_id":"4","last_reported":1770056940,"current_range_meters":8400,"station_id":"","pricing_plan_id":"cebpf4jnsgd1na2vs0mg"},{"bike_id":"69ea6e2d-4157-4b02-a9be-2880f031fac1","system_id":"levelo_inurba_marseille","lat":43.30157,"lon":5.39862,"is_reserved":false,"is_disabled":false,"rental_uris":{"android":"levelo://app?vid=69ea6e2d-4157-4b02-a9be-2880f031fac1","ios":"levelo://app?vid=69ea6e2d-4157-4b02-a9be-2880f031fac1"},"vehicle_type_id":"4","last_reported":1770056940,"current_range_meters":8400,"station_id":"ce4bh0h2rcd13ifvqd40","pricing_plan_id":"cebpf4jnsgd1na2vs0mg"},{"bike_id":"23af0394-5a4b-41c7-a956-1b9443f015ff","system_id":"levelo_inurba_marseille","lat":43.33142,"lon":5.37702,"is_reserved":false,"is_disabled":false,"rental_uris":{"android":"levelo://app?vid=23af0394-5a4b-41c7-a956-1b9443f015ff","ios":"levelo://app?vid=23af0394-5a4b-41c7-a956-1b9443f015ff"},"vehicle_type_id":"4","last_reported":1770056940,"current_range_meters":8400,"station_id":"st_d46cu089ee8s73dldbu0","pricing_plan_id":"cebpf4jnsgd1na2vs0mg"},{"bike_id":"cef9edb7-4d2e-4ab7-9675-6b816e961933","system_id":"levelo_inurba_marseille","lat":43.24168,"lon":5.39704,"is_reserved":false,"is_disabled":false,"rental_uris":{"android":"levelo://app?vid=cef9edb7-4d2e-4ab7-9675-6b816e961933","ios":"levelo://app?vid=cef9edb7-4d2e-4ab7-9675-6b816e961933"},"vehicle_type_id":"4","last_reported":1770056940,"current_range_meters":8400,"station_id":"ce4bhn12rcd13ifvqgpg","pricing_plan_id":"cebpf4jnsgd1na2vs0mg"},{"bike_id":"9436c3fb-a74e-4fd5-8b2a-988e84b82382","system_id":"levelo_inurba_marseille","lat":43.24178,"lon":5.39723,"is_reserved":false,"is_disabled":false,"rental_uris":{"android":"levelo://app?vid=9436c3fb-a74e-4fd5-8b2a-988e84b82382","ios":"levelo://app?vid=9436c3fb-a74e-4fd5-8b2a-988e84b82382"},"vehicle_type_id":"4","last_reported":1770056940,"current_range_meters":8400,"station_id":"ce4bhn12rcd13ifvqgpg","pricing_plan_id":"cebpf4jnsgd1na2vs0mg"},{"bike_id":"33155caa-8021-4913-a666-e828c4426fe1","system_id":"levelo_inurba_marseille","lat":43.23206,"lon":5.35543,"is_reserved":false,"is_disabled":false,"rental_uris":{"android":"levelo://app?vid=33155caa-8021-4913-a666-e828c4426fe1","ios":"levelo://app?vid=33155caa-8021-4913-a666-e828c4426fe1"},"vehicle_type_id":"4","last_reported":1770056940,"current_range_meters":8400,"station_id":"ce4bhu92rcd13ifvqi70","pricing_plan_id":"cebpf4jnsgd1na2vs0mg"},{"bike_id":"c064017f-7a4a-402a-af05-ad48496d8e11","system_id":"levelo_inurba_marseille","lat":43.255769,"lon":5.382321,"is_reserved":false,"is_disabled":false,"rental_uris":{"android":"levelo://app?vid=c064017f-7a4a-402a-af05-ad48496d8e11","ios":"levelo://app?vid=c064017f-7a4a-402a-af05-ad48496d8e11"},"vehicle_type_id":"4","last_reported":1770056940,"current_range_meters":8400,"station_id":"ce4bhih2rcd13ifvqfs0","pricing_plan_id":"cebpf4jnsgd1na2vs0mg"},{"bike_id":"23aa10f2-ced9-4cc9-b468-7f0d30263b76","system_id":"levelo_inurba_marseille","lat":43.30509,"lon":5.36522,"is_reserved":false,"is_disabled":false,"rental_uris":{"android":"levelo://app?vid=23aa10f2-ced9-4cc9-b468-7f0d30263b76","ios":"levelo://app?vid=23aa10f2-ced9-4cc9-b468-7f0d30263b76"},"vehicle_type_id":"4","last_reported":1770056940,"current_range_meters":8400,"station_id":"","pricing_plan_id":"cebpf4jnsgd1na2vs0mg"},{"bike_id":"a10dea78-e1e6-409b-b364-8f3987b99113","system_id":"levelo_inurba_marseille","lat":43.287121,"lon":5.379392,"is_reserved":false,"is_disabled":false,"rental_uris":{"android":"levelo://app?vid=a10dea78-e1e6-409b-b364-8f3987b99113","ios":"levelo://app?vid=a10dea78-e1e6-409b-b364-8f3987b99113"},"vehicle_type_id":"4","last_reported":1770056940,"current_range_meters":8800,"station_id":"","pricing_plan_id":"cebpf4jnsgd1na2vs0mg"},{"bike_id":"9c2508a9-b968-4bec-819a-5127bc67b58d","system_id":"levelo_inurba_marseille","lat":43.28416,"lon":5.37525,"is_reserved":false,"is_disabled":true,"rental_uris":{"android":"levelo://app?vid=9c2508a9-b968-4bec-819a-5127bc67b58d","ios":"levelo://app?vid=9c2508a9-b968-4bec-819a-5127bc67b58d"},"vehicle_type_id":"4","last_reported":1770056940,"current_range_meters":8800,"station_id":"ce4bh412rcd13ifvqds0","pricing_plan_id":"cebpf4jnsgd1na2vs0mg"},{"bike_id":"8d9d214d-16a2-4854-91bf-d2caaadf9f42","system_id":"levelo_inurba_marseille","lat":43.23164,"lon":5.43689,"is_reserved":false,"is_disabled":false,"rental_uris":{"android":"levelo://app?vid=8d9d214d-16a2-4854-91bf-d2caaadf9f42","ios":"levelo://app?vid=8d9d214d-16a2-4854-91bf-d2caaadf9f42"},"vehicle_type_id":"4","last_reported":1770056940,"current_range_meters":8800,"station_id":"ce4bhmp2rcd13ifvqgog","pricing_plan_id":"cebpf4jnsgd1na2vs0mg"},{"bike_id":"e13fe901-fa61-48e1-a308-6e74de5d5031","system_id":"levelo_inurba_marseille","lat":43.297623,"lon":5.42786,"is_reserved":false,"is_disabled":false,"rental_uris":{"android":"levelo://app?vid=e13fe901-fa61-48e1-a308-6e74de5d5031","ios":"levelo://app?vid=e13fe901-fa61-48e1-a308-6e74de5d5031"},"vehicle_type_id":"4","last_reported":1770056940,"current_range_meters":8800,"station_id":"st_d3md5207bmas73dh9klg","pricing_plan_id":"cebpf4jnsgd1na2vs0mg"},{"bike_id":"f4e5f7a0-ae06-4bf2-bd65-b667cb0cc4a3","system_id":"levelo_inurba_marseille","lat":43.30924,"lon":5.40137,"is_reserved":false,"is_disabled":false,"rental_uris":{"android":"levelo://app?vid=f4e5f7a0-ae06-4bf2-bd65-b667cb0cc4a3","ios":"levelo://app?vid=f4e5f7a0-ae06-4bf2-bd65-b667cb0cc4a3"},"vehicle_type_id":"4","last_reported":1770056940,"current_range_meters":8800,"station_id":"ce4bgvp2rcd13ifvqct0","pricing_plan_id":"cebpf4jnsgd1na2vs0mg"},{"bike_id":"e13e4fd6-69c7-424a-a277-aa3fe3ab93cc","system_id":"levelo_inurba_marseille","lat":43.31165,"lon":5.38713,"is_reserved":false,"is_disabled":false,"rental_uris":{"android":"levelo://app?vid=e13e4fd6-69c7-424a-a277-aa3fe3ab93cc","ios":"levelo://app?vid=e13e4fd6-69c7-424a-a277-aa3fe3ab93cc"},"vehicle_type_id":"4","last_reported":1770056940,"current_range_meters":8800,"station_id":"ce4bgv12rcd13ifvqcp0","pricing_plan_id":"cebpf4jnsgd1na2vs0mg"},{"bike_id":"67d94700-218b-4e1b-9b09-f23953a1fdd8","system_id":"levelo_inurba_marseille","lat":43.26219,"lon":5.40444,"is_reserved":false,"is_disabled":false,"rental_uris":{"android":"levelo://app?vid=67d94700-218b-4e1b-9b09-f23953a1fdd8","ios":"levelo://app?vid=67d94700-218b-4e1b-9b09-f23953a1fdd8"},"vehicle_type_id":"4","last_reported":1770056940,"current_range_meters":8800,"station_id":"ce4bhmh2rcd13ifvqgmg","pricing_plan_id":"cebpf4jnsgd1na2vs0mg"},{"bike_id":"b0d93303-81f2-4939-a8a5-d433286e13fa","system_id":"levelo_inurba_marseille","lat":43.27061,"lon":5.38305,"is_reserved":false,"is_disabled":false,"rental_uris":{"android":"levelo://app?vid=b0d93303-81f2-4939-a8a5-d433286e13fa","ios":"levelo://app?vid=b0d93303-81f2-4939-a8a5-d433286e13fa"},"vehicle_type_id":"4","last_reported":1770056940,"current_range_meters":8800,"station_id":"st_d3n2fo6cfp8s73cte1j0","pricing_plan_id":"cebpf4jnsgd1na2vs0mg"},{"bike_id":"c06d136a-eef8-4061-9def-d5361fa32260","system_id":"levelo_inurba_marseille","lat":43.32481,"lon":5.36549,"is_reserved":false,"is_disabled":false,"rental_uris":{"android":"levelo://app?vid=c06d136a-eef8-4061-9def-d5361fa32260","ios":"levelo://app?vid=c06d136a-eef8-4061-9def-d5361fa32260"},"vehicle_type_id":"4","last_reported":1770056940,"current_range_meters":8800,"station_id":"ce4bhs12rcd13ifvqhvg","pricing_plan_id":"cebpf4jnsgd1na2vs0mg"},{"bike_id":"e9c5afc7-c303-4df3-a0d1-811595814b02","system_id":"levelo_inurba_marseille","lat":43.24072,"lon":5.37755,"is_reserved":false,"is_disabled":false,"rental_uris":{"android":"levelo://app?vid=e9c5afc7-c303-4df3-a0d1-811595814b02","ios":"levelo://app?vid=e9c5afc7-c303-4df3-a0d1-811595814b02"},"vehicle_type_id":"4","last_reported":1770056940,"current_range_meters":8800,"station_id":"ce4bhnp2rcd13ifvqgvg","pricing_plan_id":"cebpf4jnsgd1na2vs0mg"},{"bike_id":"dc8b8f8d-3b68-40cb-9565-8f7614c37d7f","system_id":"levelo_inurba_marseille","lat":43.25591,"lon":5.3824,"is_reserved":false,"is_disabled":false,"rental_uris":{"android":"levelo://app?vid=dc8b8f8d-3b68-40cb-9565-8f7614c37d7f","ios":"levelo://app?vid=dc8b8f8d-3b68-40cb-9565-8f7614c37d7f"},"vehicle_type_id":"4","last_reported":1770056940,"current_range_meters":8800,"station_id":"ce4bhih2rcd13ifvqfs0","pricing_plan_id":"cebpf4jnsgd1na2vs0mg"},{"bike_id":"e5039c56-5199-4176-914c-6032a6fc6ed3","system_id":"levelo_inurba_marseille","lat":43.24804,"lon":5.37454,"is_reserved":false,"is_disabled":false,"rental_uris":{"android":"levelo://app?vid=e5039c56-5199-4176-914c-6032a6fc6ed3","ios":"levelo://app?vid=e5039c56-5199-4176-914c-6032a6fc6ed3"},"vehicle_type_id":"4","last_reported":1770056940,"current_range_meters":8800,"station_id":"ce4bhgh2rcd13ifvqfb0","pricing_plan_id":"cebpf4jnsgd1na2vs0mg"},{"bike_id":"39e34071-1f76-445c-91f2-187764720849","system_id":"levelo_inurba_marseille","lat":43.21786,"lon":5.34525,"is_reserved":false,"is_disabled":false,"rental_uris":{"android":"levelo://app?vid=39e34071-1f76-445c-91f2-187764720849","ios":"levelo://app?vid=39e34071-1f76-445c-91f2-187764720849"},"vehicle_type_id":"4","last_reported":1770056940,"current_range_meters":8800,"station_id":"","pricing_plan_id":"cebpf4jnsgd1na2vs0mg"},{"bike_id":"4dd6841e-e470-4207-bb73-65a47c0e81c5","system_id":"levelo_inurba_marseille","lat":43.31164,"lon":5.3802,"is_reserved":false,"is_disabled":false,"rental_uris":{"android":"levelo://app?vid=4dd6841e-e470-4207-bb73-65a47c0e81c5","ios":"levelo://app?vid=4dd6841e-e470-4207-bb73-65a47c0e81c5"},"vehicle_type_id":"4","last_reported":1770056940,"current_range_meters":8800,"station_id":"","pricing_plan_id":"cebpf4jnsgd1na2vs0mg"},{"bike_id":"9ede7f02-b7e5-4592-92c0-07143ca08c00","system_id":"levelo_inurba_marseille","lat":43.31273,"lon":5.36831,"is_reserved":false,"is_disabled":false,"rental_uris":{"android":"levelo://app?vid=9ede7f02-b7e5-4592-92c0-07143ca08c00","ios":"levelo://app?vid=9ede7f02-b7e5-4592-92c0-07143ca08c00"},"vehicle_type_id":"4","last_reported":1770056940,"current_range_meters":8800,"station_id":"","pricing_plan_id":"cebpf4jnsgd1na2vs0mg"},{"bike_id":"f8e7e4d9-f87a-42a2-9144-b6886b943f25","system_id":"levelo_inurba_marseille","lat":43.24998,"lon":5.38943,"is_reserved":false,"is_disabled":false,"rental_uris":{"android":"levelo://app?vid=f8e7e4d9-f87a-42a2-9144-b6886b943f25","ios":"levelo://app?vid=f8e7e4d9-f87a-42a2-9144-b6886b943f25"},"vehicle_type_id":"4","last_reported":1770056940,"current_range_meters":9200,"station_id":"ce4bhgp2rcd13ifvqfd0","pricing_plan_id":"cebpf4jnsgd1na2vs0mg"},{"bike_id":"768f9509-0c5e-4bbb-8d87-02aae8a1cda6","system_id":"levelo_inurba_marseille","lat":43.28,"lon":5.40008,"is_reserved":false,"is_disabled":false,"rental_uris":{"android":"levelo://app?vid=768f9509-0c5e-4bbb-8d87-02aae8a1cda6","ios":"levelo://app?vid=768f9509-0c5e-4bbb-8d87-02aae8a1cda6"},"vehicle_type_id":"4","last_reported":1770056940,"current_range_meters":9200,"station_id":"ce4bho92rcd13ifvqh4g","pricing_plan_id":"cebpf4jnsgd1na2vs0mg"},{"bike_id":"f29c9eca-7f54-4755-b637-531b69f02ad6","system_id":"levelo_inurba_marseille","lat":43.26287,"lon":5.3985,"is_reserved":false,"is_disabled":false,"rental_uris":{"android":"levelo://app?vid=f29c9eca-7f54-4755-b637-531b69f02ad6","ios":"levelo://app?vid=f29c9eca-7f54-4755-b637-531b69f02ad6"},"vehicle_type_id":"4","last_reported":1770056940,"current_range_meters":9200,"station_id":"","pricing_plan_id":"cebpf4jnsgd1na2vs0mg"},{"bike_id":"79534d48-e26f-4999-a98b-9bc2adced944","system_id":"levelo_inurba_marseille","lat":43.294325,"lon":5.42928,"is_reserved":false,"is_disabled":false,"rental_uris":{"android":"levelo://app?vid=79534d48-e26f-4999-a98b-9bc2adced944","ios":"levelo://app?vid=79534d48-e26f-4999-a98b-9bc2adced944"},"vehicle_type_id":"4","last_reported":1770056940,"current_range_meters":9200,"station_id":"","pricing_plan_id":"cebpf4jnsgd1na2vs0mg"},{"bike_id":"eee54609-a6c8-4bc7-a936-6a1b442519d3","system_id":"levelo_inurba_marseille","lat":43.31055,"lon":5.37178,"is_reserved":false,"is_disabled":false,"rental_uris":{"android":"levelo://app?vid=eee54609-a6c8-4bc7-a936-6a1b442519d3","ios":"levelo://app?vid=eee54609-a6c8-4bc7-a936-6a1b442519d3"},"vehicle_type_id":"4","last_reported":1770056940,"current_range_meters":9200,"station_id":"st_d4kl2rp97mjs73e7tdfg","pricing_plan_id":"cebpf4jnsgd1na2vs0mg"},{"bike_id":"62e27a91-d1f4-4b1a-b2a6-3405a804b362","system_id":"levelo_inurba_marseille","lat":43.27087,"lon":5.4229,"is_reserved":false,"is_disabled":false,"rental_uris":{"android":"levelo://app?vid=62e27a91-d1f4-4b1a-b2a6-3405a804b362","ios":"levelo://app?vid=62e27a91-d1f4-4b1a-b2a6-3405a804b362"},"vehicle_type_id":"4","last_reported":1770056940,"current_range_meters":9200,"station_id":"ce4bhk92rcd13ifvqgb0","pricing_plan_id":"cebpf4jnsgd1na2vs0mg"},{"bike_id":"51cbf713-f79b-4c2d-9d8b-9a1117324cc6","system_id":"levelo_inurba_marseille","lat":43.29003,"lon":5.35606,"is_reserved":false,"is_disabled":false,"rental_uris":{"android":"levelo://app?vid=51cbf713-f79b-4c2d-9d8b-9a1117324cc6","ios":"levelo://app?vid=51cbf713-f79b-4c2d-9d8b-9a1117324cc6"},"vehicle_type_id":"4","last_reported":1770056940,"current_range_meters":9200,"station_id":"ce4bhb92rcd13ifvqen0","pricing_plan_id":"cebpf4jnsgd1na2vs0mg"},{"bike_id":"7b91dc79-c2d2-465d-936e-8c47a1e07166","system_id":"levelo_inurba_marseille","lat":43.28473,"lon":5.3841,"is_reserved":false,"is_disabled":false,"rental_uris":{"android":"levelo://app?vid=7b91dc79-c2d2-465d-936e-8c47a1e07166","ios":"levelo://app?vid=7b91dc79-c2d2-465d-936e-8c47a1e07166"},"vehicle_type_id":"4","last_reported":1770056940,"current_range_meters":9200,"station_id":"ce4bh512rcd13ifvqe3g","pricing_plan_id":"cebpf4jnsgd1na2vs0mg"},{"bike_id":"daa78333-34b3-465a-a380-48c596d26926","system_id":"levelo_inurba_marseille","lat":43.3249,"lon":5.38296,"is_reserved":false,"is_disabled":false,"rental_uris":{"android":"levelo://app?vid=daa78333-34b3-465a-a380-48c596d26926","ios":"levelo://app?vid=daa78333-34b3-465a-a380-48c596d26926"},"vehicle_type_id":"4","last_reported":1770056940,"current_range_meters":9200,"station_id":"st_d4asgbiv49dc73anf9m0","pricing_plan_id":"cebpf4jnsgd1na2vs0mg"},{"bike_id":"405ea4a7-897c-4c33-b952-8c30fed84872","system_id":"levelo_inurba_marseille","lat":43.28483,"lon":5.38445,"is_reserved":false,"is_disabled":false,"rental_uris":{"android":"levelo://app?vid=405ea4a7-897c-4c33-b952-8c30fed84872","ios":"levelo://app?vid=405ea4a7-897c-4c33-b952-8c30fed84872"},"vehicle_type_id":"4","last_reported":1770056940,"current_range_meters":9200,"station_id":"ce4bh512rcd13ifvqe3g","pricing_plan_id":"cebpf4jnsgd1na2vs0mg"},{"bike_id":"6cfd418b-ac08-4209-982c-221a5d220b32","system_id":"levelo_inurba_marseille","lat":43.293,"lon":5.37166,"is_reserved":false,"is_disabled":false,"rental_uris":{"android":"levelo://app?vid=6cfd418b-ac08-4209-982c-221a5d220b32","ios":"levelo://app?vid=6cfd418b-ac08-4209-982c-221a5d220b32"},"vehicle_type_id":"4","last_reported":1770056940,"current_range_meters":9600,"station_id":"ce4bgh92rcd13ifvqb40","pricing_plan_id":"cebpf4jnsgd1na2vs0mg"},{"bike_id":"fd4003f9-ae57-43d9-af54-09e855d38b22","system_id":"levelo_inurba_marseille","lat":43.28555,"lon":5.44075,"is_reserved":false,"is_disabled":false,"rental_uris":{"android":"levelo://app?vid=fd4003f9-ae57-43d9-af54-09e855d38b22","ios":"levelo://app?vid=fd4003f9-ae57-43d9-af54-09e855d38b22"},"vehicle_type_id":"4","last_reported":1770056940,"current_range_meters":9600,"station_id":"st_d3j3df2ikq2c7380ej80","pricing_plan_id":"cebpf4jnsgd1na2vs0mg"},{"bike_id":"67949cb0-ad73-42aa-8494-c2a7d6735f87","system_id":"levelo_inurba_marseille","lat":43.31195,"lon":5.36876,"is_reserved":false,"is_disabled":false,"rental_uris":{"android":"levelo://app?vid=67949cb0-ad73-42aa-8494-c2a7d6735f87","ios":"levelo://app?vid=67949cb0-ad73-42aa-8494-c2a7d6735f87"},"vehicle_type_id":"4","last_reported":1770056940,"current_range_meters":9600,"station_id":"ce4bgl92rcd13ifvqbq0","pricing_plan_id":"cebpf4jnsgd1na2vs0mg"},{"bike_id":"edf4f51c-68ef-4f08-84cd-84df0fbe4f1a","system_id":"levelo_inurba_marseille","lat":43.29177,"lon":5.37156,"is_reserved":false,"is_disabled":false,"rental_uris":{"android":"levelo://app?vid=edf4f51c-68ef-4f08-84cd-84df0fbe4f1a","ios":"levelo://app?vid=edf4f51c-68ef-4f08-84cd-84df0fbe4f1a"},"vehicle_type_id":"4","last_reported":1770056940,"current_range_meters":9600,"station_id":"ce4bha92rcd13ifvqeh0","pricing_plan_id":"cebpf4jnsgd1na2vs0mg"},{"bike_id":"f5719670-69be-477b-95ca-2b5784a93d78","system_id":"levelo_inurba_marseille","lat":43.28571,"lon":5.39496,"is_reserved":false,"is_disabled":false,"rental_uris":{"android":"levelo://app?vid=f5719670-69be-477b-95ca-2b5784a93d78","ios":"levelo://app?vid=f5719670-69be-477b-95ca-2b5784a93d78"},"vehicle_type_id":"4","last_reported":1770056940,"current_range_meters":9600,"station_id":"ce4bh292rcd13ifvqdg0","pricing_plan_id":"cebpf4jnsgd1na2vs0mg"},{"bike_id":"dca930cd-8edd-4084-aa6f-af5fb496ef62","system_id":"levelo_inurba_marseille","lat":43.25331,"lon":5.42174,"is_reserved":false,"is_disabled":false,"rental_uris":{"android":"levelo://app?vid=dca930cd-8edd-4084-aa6f-af5fb496ef62","ios":"levelo://app?vid=dca930cd-8edd-4084-aa6f-af5fb496ef62"},"vehicle_type_id":"4","last_reported":1770056940,"current_range_meters":9600,"station_id":"st_d2m65c5bi1j21697t3ng","pricing_plan_id":"cebpf4jnsgd1na2vs0mg"},{"bike_id":"eacab8c5-ae8d-4933-89ca-bb8acaba05e8","system_id":"levelo_inurba_marseille","lat":43.2481,"lon":5.37455,"is_reserved":false,"is_disabled":false,"rental_uris":{"android":"levelo://app?vid=eacab8c5-ae8d-4933-89ca-bb8acaba05e8","ios":"levelo://app?vid=eacab8c5-ae8d-4933-89ca-bb8acaba05e8"},"vehicle_type_id":"4","last_reported":1770056940,"current_range_meters":9600,"station_id":"ce4bhgh2rcd13ifvqfb0","pricing_plan_id":"cebpf4jnsgd1na2vs0mg"},{"bike_id":"db4a7c18-fb00-49e4-812f-82d588271c3d","system_id":"levelo_inurba_marseille","lat":43.29891,"lon":5.37493,"is_reserved":false,"is_disabled":false,"rental_uris":{"android":"levelo://app?vid=db4a7c18-fb00-49e4-812f-82d588271c3d","ios":"levelo://app?vid=db4a7c18-fb00-49e4-812f-82d588271c3d"},"vehicle_type_id":"4","last_reported":1770056940,"current_range_meters":9600,"station_id":"","pricing_plan_id":"cebpf4jnsgd1na2vs0mg"},{"bike_id":"2c0bc4db-f557-470b-bd8a-9520318620b0","system_id":"levelo_inurba_marseille","lat":43.28414,"lon":5.34998,"is_reserved":false,"is_disabled":false,"rental_uris":{"android":"levelo://app?vid=2c0bc4db-f557-470b-bd8a-9520318620b0","ios":"levelo://app?vid=2c0bc4db-f557-470b-bd8a-9520318620b0"},"vehicle_type_id":"4","last_reported":1770056940,"current_range_meters":9600,"station_id":"ce4bhbh2rcd13ifvqepg","pricing_plan_id":"cebpf4jnsgd1na2vs0mg"},{"bike_id":"8de4ce8c-7695-4774-a805-e03769faf1ea","system_id":"levelo_inurba_marseille","lat":43.25578,"lon":5.38226,"is_reserved":false,"is_disabled":false,"rental_uris":{"android":"levelo://app?vid=8de4ce8c-7695-4774-a805-e03769faf1ea","ios":"levelo://app?vid=8de4ce8c-7695-4774-a805-e03769faf1ea"},"vehicle_type_id":"4","last_reported":1770056940,"current_range_meters":9600,"station_id":"ce4bhih2rcd13ifvqfs0","pricing_plan_id":"cebpf4jnsgd1na2vs0mg"},{"bike_id":"3ce871a0-823d-47d6-87f8-8ef4cc2a6659","system_id":"levelo_inurba_marseille","lat":43.26393,"lon":5.41071,"is_reserved":false,"is_disabled":false,"rental_uris":{"android":"levelo://app?vid=3ce871a0-823d-47d6-87f8-8ef4cc2a6659","ios":"levelo://app?vid=3ce871a0-823d-47d6-87f8-8ef4cc2a6659"},"vehicle_type_id":"4","last_reported":1770056940,"current_range_meters":9600,"station_id":"st_d4e5ca6na9uc73bfl5fg","pricing_plan_id":"cebpf4jnsgd1na2vs0mg"},{"bike_id":"6ddf7e79-fc33-436a-9f2e-0297899e5607","system_id":"levelo_inurba_marseille","lat":43.28478,"lon":5.48393,"is_reserved":false,"is_disabled":false,"rental_uris":{"android":"levelo://app?vid=6ddf7e79-fc33-436a-9f2e-0297899e5607","ios":"levelo://app?vid=6ddf7e79-fc33-436a-9f2e-0297899e5607"},"vehicle_type_id":"4","last_reported":1770056940,"current_range_meters":9600,"station_id":"st_d3svhcjqgbts73a3dn0g","pricing_plan_id":"cebpf4jnsgd1na2vs0mg"},{"bike_id":"be616c8a-7d9f-44f2-9914-b719781dfdee","system_id":"levelo_inurba_marseille","lat":43.23961,"lon":5.36663,"is_reserved":false,"is_disabled":false,"rental_uris":{"android":"levelo://app?vid=be616c8a-7d9f-44f2-9914-b719781dfdee","ios":"levelo://app?vid=be616c8a-7d9f-44f2-9914-b719781dfdee"},"vehicle_type_id":"4","last_reported":1770056940,"current_range_meters":9600,"station_id":"ce4bhi12rcd13ifvqfp0","pricing_plan_id":"cebpf4jnsgd1na2vs0mg"},{"bike_id":"37c558c9-e355-4c5f-95d4-4edef0566b9c","system_id":"levelo_inurba_marseille","lat":43.2467,"lon":5.3815,"is_reserved":false,"is_disabled":false,"rental_uris":{"android":"levelo://app?vid=37c558c9-e355-4c5f-95d4-4edef0566b9c","ios":"levelo://app?vid=37c558c9-e355-4c5f-95d4-4edef0566b9c"},"vehicle_type_id":"4","last_reported":1770056940,"current_range_meters":9600,"station_id":"ce4bhih2rcd13ifvqfr0","pricing_plan_id":"cebpf4jnsgd1na2vs0mg"},{"bike_id":"549d637b-91c5-48ec-83fa-865a463b6a4b","system_id":"levelo_inurba_marseille","lat":43.23191,"lon":5.3555,"is_reserved":false,"is_disabled":false,"rental_uris":{"android":"levelo://app?vid=549d637b-91c5-48ec-83fa-865a463b6a4b","ios":"levelo://app?vid=549d637b-91c5-48ec-83fa-865a463b6a4b"},"vehicle_type_id":"4","last_reported":1770056940,"current_range_meters":9600,"station_id":"ce4bhu92rcd13ifvqi70","pricing_plan_id":"cebpf4jnsgd1na2vs0mg"},{"bike_id":"5b3811ef-5681-4c18-aac4-a62920f9a85c","system_id":"levelo_inurba_marseille","lat":43.28474,"lon":5.51494,"is_reserved":false,"is_disabled":false,"rental_uris":{"android":"levelo://app?vid=5b3811ef-5681-4c18-aac4-a62920f9a85c","ios":"levelo://app?vid=5b3811ef-5681-4c18-aac4-a62920f9a85c"},"vehicle_type_id":"4","last_reported":1770056940,"current_range_meters":9600,"station_id":"","pricing_plan_id":"cebpf4jnsgd1na2vs0mg"},{"bike_id":"34e4497e-004e-4d33-b563-df43c3f1dff0","system_id":"levelo_inurba_marseille","lat":43.291483,"lon":5.388187,"is_reserved":false,"is_disabled":false,"rental_uris":{"android":"levelo://app?vid=34e4497e-004e-4d33-b563-df43c3f1dff0","ios":"levelo://app?vid=34e4497e-004e-4d33-b563-df43c3f1dff0"},"vehicle_type_id":"4","last_reported":1770056940,"current_range_meters":9600,"station_id":"ce4bh4p2rcd13ifvqe0g","pricing_plan_id":"cebpf4jnsgd1na2vs0mg"},{"bike_id":"1bff195f-878b-4a6e-8675-61979ef9dcf7","system_id":"levelo_inurba_marseille","lat":43.232,"lon":5.35539,"is_reserved":false,"is_disabled":false,"rental_uris":{"android":"levelo://app?vid=1bff195f-878b-4a6e-8675-61979ef9dcf7","ios":"levelo://app?vid=1bff195f-878b-4a6e-8675-61979ef9dcf7"},"vehicle_type_id":"4","last_reported":1770056940,"current_range_meters":9600,"station_id":"ce4bhu92rcd13ifvqi70","pricing_plan_id":"cebpf4jnsgd1na2vs0mg"},{"bike_id":"3f210b8c-6442-4a5b-823a-e369f1d4c826","system_id":"levelo_inurba_marseille","lat":43.31184,"lon":5.38723,"is_reserved":false,"is_disabled":false,"rental_uris":{"android":"levelo://app?vid=3f210b8c-6442-4a5b-823a-e369f1d4c826","ios":"levelo://app?vid=3f210b8c-6442-4a5b-823a-e369f1d4c826"},"vehicle_type_id":"4","last_reported":1770056940,"current_range_meters":9600,"station_id":"ce4bgv12rcd13ifvqcp0","pricing_plan_id":"cebpf4jnsgd1na2vs0mg"},{"bike_id":"deb9e4eb-a481-4dbd-9838-7e21c4114a77","system_id":"levelo_inurba_marseille","lat":43.24627,"lon":5.38909,"is_reserved":false,"is_disabled":false,"rental_uris":{"android":"levelo://app?vid=deb9e4eb-a481-4dbd-9838-7e21c4114a77","ios":"levelo://app?vid=deb9e4eb-a481-4dbd-9838-7e21c4114a77"},"vehicle_type_id":"4","last_reported":1770056940,"current_range_meters":9600,"station_id":"ce4bhg12rcd13ifvqf60","pricing_plan_id":"cebpf4jnsgd1na2vs0mg"},{"bike_id":"98d6ca1b-2adc-4a1b-96ed-1ac6786d8ddf","system_id":"levelo_inurba_marseille","lat":43.24171,"lon":5.39694,"is_reserved":false,"is_disabled":false,"rental_uris":{"android":"levelo://app?vid=98d6ca1b-2adc-4a1b-96ed-1ac6786d8ddf","ios":"levelo://app?vid=98d6ca1b-2adc-4a1b-96ed-1ac6786d8ddf"},"vehicle_type_id":"4","last_reported":1770056940,"current_range_meters":9600,"station_id":"ce4bhn12rcd13ifvqgpg","pricing_plan_id":"cebpf4jnsgd1na2vs0mg"},{"bike_id":"032d1622-f10e-4e31-9323-899def03e537","system_id":"levelo_inurba_marseille","lat":43.31056,"lon":5.3717,"is_reserved":false,"is_disabled":true,"rental_uris":{"android":"levelo://app?vid=032d1622-f10e-4e31-9323-899def03e537","ios":"levelo://app?vid=032d1622-f10e-4e31-9323-899def03e537"},"vehicle_type_id":"4","last_reported":1770056940,"current_range_meters":9600,"station_id":"st_d4kl2rp97mjs73e7tdfg","pricing_plan_id":"cebpf4jnsgd1na2vs0mg"},{"bike_id":"c3537afe-33b5-44a6-bdd4-d9291185f261","system_id":"levelo_inurba_marseille","lat":43.30438,"lon":5.39746,"is_reserved":false,"is_disabled":false,"rental_uris":{"android":"levelo://app?vid=c3537afe-33b5-44a6-bdd4-d9291185f261","ios":"levelo://app?vid=c3537afe-33b5-44a6-bdd4-d9291185f261"},"vehicle_type_id":"4","last_reported":1770056940,"current_range_meters":9600,"station_id":"ce4bh092rcd13ifvqd20","pricing_plan_id":"cebpf4jnsgd1na2vs0mg"},{"bike_id":"8300bb2e-96f4-4e9e-92a9-a4d1e04694a4","system_id":"levelo_inurba_marseille","lat":43.23152,"lon":5.43705,"is_reserved":false,"is_disabled":false,"rental_uris":{"android":"levelo://app?vid=8300bb2e-96f4-4e9e-92a9-a4d1e04694a4","ios":"levelo://app?vid=8300bb2e-96f4-4e9e-92a9-a4d1e04694a4"},"vehicle_type_id":"4","last_reported":1770056940,"current_range_meters":10000,"station_id":"ce4bhmp2rcd13ifvqgog","pricing_plan_id":"cebpf4jnsgd1na2vs0mg"},{"bike_id":"c3ba0fed-3d29-4191-b8a3-c899b1e9e5ad","system_id":"levelo_inurba_marseille","lat":43.25575,"lon":5.38259,"is_reserved":false,"is_disabled":false,"rental_uris":{"android":"levelo://app?vid=c3ba0fed-3d29-4191-b8a3-c899b1e9e5ad","ios":"levelo://app?vid=c3ba0fed-3d29-4191-b8a3-c899b1e9e5ad"},"vehicle_type_id":"4","last_reported":1770056940,"current_range_meters":10000,"station_id":"ce4bhih2rcd13ifvqfs0","pricing_plan_id":"cebpf4jnsgd1na2vs0mg"},{"bike_id":"68d2a9d1-2044-4f9c-8e7b-e4d9640d90af","system_id":"levelo_inurba_marseille","lat":43.2971,"lon":5.37957,"is_reserved":false,"is_disabled":false,"rental_uris":{"android":"levelo://app?vid=68d2a9d1-2044-4f9c-8e7b-e4d9640d90af","ios":"levelo://app?vid=68d2a9d1-2044-4f9c-8e7b-e4d9640d90af"},"vehicle_type_id":"4","last_reported":1770056940,"current_range_meters":10000,"station_id":"","pricing_plan_id":"cebpf4jnsgd1na2vs0mg"},{"bike_id":"cc7be9e8-a1a0-4f68-8d42-c70d6cdd5d6b","system_id":"levelo_inurba_marseille","lat":43.29555,"lon":5.42286,"is_reserved":false,"is_disabled":false,"rental_uris":{"android":"levelo://app?vid=cc7be9e8-a1a0-4f68-8d42-c70d6cdd5d6b","ios":"levelo://app?vid=cc7be9e8-a1a0-4f68-8d42-c70d6cdd5d6b"},"vehicle_type_id":"4","last_reported":1770056940,"current_range_meters":10000,"station_id":"ce4bhph2rcd13ifvqhdg","pricing_plan_id":"cebpf4jnsgd1na2vs0mg"},{"bike_id":"bc05a65d-563d-445c-a4c3-de287896e1a2","system_id":"levelo_inurba_marseille","lat":43.25333,"lon":5.42162,"is_reserved":false,"is_disabled":false,"rental_uris":{"android":"levelo://app?vid=bc05a65d-563d-445c-a4c3-de287896e1a2","ios":"levelo://app?vid=bc05a65d-563d-445c-a4c3-de287896e1a2"},"vehicle_type_id":"4","last_reported":1770056940,"current_range_meters":10000,"station_id":"st_d2m65c5bi1j21697t3ng","pricing_plan_id":"cebpf4jnsgd1na2vs0mg"},{"bike_id":"8549a1d1-68eb-4349-9b09-4c0cf211ff20","system_id":"levelo_inurba_marseille","lat":43.29941,"lon":5.36552,"is_reserved":false,"is_disabled":false,"rental_uris":{"android":"levelo://app?vid=8549a1d1-68eb-4349-9b09-4c0cf211ff20","ios":"levelo://app?vid=8549a1d1-68eb-4349-9b09-4c0cf211ff20"},"vehicle_type_id":"4","last_reported":1770056940,"current_range_meters":10000,"station_id":"ce4bgm92rcd13ifvqbr0","pricing_plan_id":"cebpf4jnsgd1na2vs0mg"},{"bike_id":"18d1a03c-71f9-47bc-804b-7e0c3eef0ad0","system_id":"levelo_inurba_marseille","lat":43.30133,"lon":5.43119,"is_reserved":false,"is_disabled":false,"rental_uris":{"android":"levelo://app?vid=18d1a03c-71f9-47bc-804b-7e0c3eef0ad0","ios":"levelo://app?vid=18d1a03c-71f9-47bc-804b-7e0c3eef0ad0"},"vehicle_type_id":"4","last_reported":1770056940,"current_range_meters":10000,"station_id":"st_d3js3co5814s73ftftug","pricing_plan_id":"cebpf4jnsgd1na2vs0mg"},{"bike_id":"004217b9-d0df-4be3-b36e-32cfa6b0fb50","system_id":"levelo_inurba_marseille","lat":43.24643,"lon":5.43139,"is_reserved":false,"is_disabled":false,"rental_uris":{"android":"levelo://app?vid=004217b9-d0df-4be3-b36e-32cfa6b0fb50","ios":"levelo://app?vid=004217b9-d0df-4be3-b36e-32cfa6b0fb50"},"vehicle_type_id":"4","last_reported":1770056940,"current_range_meters":10000,"station_id":"st_d2m6c4gdas8pm72e190g","pricing_plan_id":"cebpf4jnsgd1na2vs0mg"},{"bike_id":"75fc3246-c27e-40e8-979e-08030e06e7ea","system_id":"levelo_inurba_marseille","lat":43.28569,"lon":5.39494,"is_reserved":false,"is_disabled":false,"rental_uris":{"android":"levelo://app?vid=75fc3246-c27e-40e8-979e-08030e06e7ea","ios":"levelo://app?vid=75fc3246-c27e-40e8-979e-08030e06e7ea"},"vehicle_type_id":"4","last_reported":1770056940,"current_range_meters":10000,"station_id":"ce4bh292rcd13ifvqdg0","pricing_plan_id":"cebpf4jnsgd1na2vs0mg"},{"bike_id":"516e2bc3-f128-4718-ba98-f720d54f9fcb","system_id":"levelo_inurba_marseille","lat":43.29532,"lon":5.39046,"is_reserved":false,"is_disabled":false,"rental_uris":{"android":"levelo://app?vid=516e2bc3-f128-4718-ba98-f720d54f9fcb","ios":"levelo://app?vid=516e2bc3-f128-4718-ba98-f720d54f9fcb"},"vehicle_type_id":"4","last_reported":1770056940,"current_range_meters":10000,"station_id":"ce4bh3p2rcd13ifvqdp0","pricing_plan_id":"cebpf4jnsgd1na2vs0mg"},{"bike_id":"6648b726-248a-4235-8962-e02d3f57c3f3","system_id":"levelo_inurba_marseille","lat":43.25006,"lon":5.38932,"is_reserved":false,"is_disabled":false,"rental_uris":{"android":"levelo://app?vid=6648b726-248a-4235-8962-e02d3f57c3f3","ios":"levelo://app?vid=6648b726-248a-4235-8962-e02d3f57c3f3"},"vehicle_type_id":"4","last_reported":1770056940,"current_range_meters":10000,"station_id":"ce4bhgp2rcd13ifvqfd0","pricing_plan_id":"cebpf4jnsgd1na2vs0mg"},{"bike_id":"1e18de4d-43f8-4d9b-8e22-41974ddf36d0","system_id":"levelo_inurba_marseille","lat":43.335388,"lon":5.374626,"is_reserved":false,"is_disabled":false,"rental_uris":{"android":"levelo://app?vid=1e18de4d-43f8-4d9b-8e22-41974ddf36d0","ios":"levelo://app?vid=1e18de4d-43f8-4d9b-8e22-41974ddf36d0"},"vehicle_type_id":"4","last_reported":1770056940,"current_range_meters":10000,"station_id":"st_d46tts09ee8s73dlu43g","pricing_plan_id":"cebpf4jnsgd1na2vs0mg"},{"bike_id":"7409e760-85b4-4fbe-9ac1-c71657f4de83","system_id":"levelo_inurba_marseille","lat":43.25011,"lon":5.38932,"is_reserved":false,"is_disabled":false,"rental_uris":{"android":"levelo://app?vid=7409e760-85b4-4fbe-9ac1-c71657f4de83","ios":"levelo://app?vid=7409e760-85b4-4fbe-9ac1-c71657f4de83"},"vehicle_type_id":"4","last_reported":1770056940,"current_range_meters":10000,"station_id":"ce4bhgp2rcd13ifvqfd0","pricing_plan_id":"cebpf4jnsgd1na2vs0mg"},{"bike_id":"c04d02e9-4522-4664-80d1-72f19e30f66b","system_id":"levelo_inurba_marseille","lat":43.25297,"lon":5.38594,"is_reserved":false,"is_disabled":false,"rental_uris":{"android":"levelo://app?vid=c04d02e9-4522-4664-80d1-72f19e30f66b","ios":"levelo://app?vid=c04d02e9-4522-4664-80d1-72f19e30f66b"},"vehicle_type_id":"4","last_reported":1770056940,"current_range_meters":10000,"station_id":"","pricing_plan_id":"cebpf4jnsgd1na2vs0mg"},{"bike_id":"ff993dad-26eb-416e-b7a7-73f77dba7757","system_id":"levelo_inurba_marseille","lat":43.29847,"lon":5.36275,"is_reserved":false,"is_disabled":false,"rental_uris":{"android":"levelo://app?vid=ff993dad-26eb-416e-b7a7-73f77dba7757","ios":"levelo://app?vid=ff993dad-26eb-416e-b7a7-73f77dba7757"},"vehicle_type_id":"4","last_reported":1770056940,"current_range_meters":10000,"station_id":"ce4bgpp2rcd13ifvqc3g","pricing_plan_id":"cebpf4jnsgd1na2vs0mg"},{"bike_id":"7bc3df38-9791-4650-8af3-6c26288c972c","system_id":"levelo_inurba_marseille","lat":43.30507,"lon":5.3976,"is_reserved":false,"is_disabled":false,"rental_uris":{"android":"levelo://app?vid=7bc3df38-9791-4650-8af3-6c26288c972c","ios":"levelo://app?vid=7bc3df38-9791-4650-8af3-6c26288c972c"},"vehicle_type_id":"4","last_reported":1770056940,"current_range_meters":10000,"station_id":"","pricing_plan_id":"cebpf4jnsgd1na2vs0mg"},{"bike_id":"98fce53e-2f71-43cb-b9de-a1e78e7dc72e","system_id":"levelo_inurba_marseille","lat":43.23197,"lon":5.4,"is_reserved":false,"is_disabled":false,"rental_uris":{"android":"levelo://app?vid=98fce53e-2f71-43cb-b9de-a1e78e7dc72e","ios":"levelo://app?vid=98fce53e-2f71-43cb-b9de-a1e78e7dc72e"},"vehicle_type_id":"4","last_reported":1770056940,"current_range_meters":10800,"station_id":"ce4bhn12rcd13ifvqgqg","pricing_plan_id":"cebpf4jnsgd1na2vs0mg"},{"bike_id":"90cafb22-43f6-47bb-9e80-c8fa9891709f","system_id":"levelo_inurba_marseille","lat":43.2621,"lon":5.37919,"is_reserved":false,"is_disabled":false,"rental_uris":{"android":"levelo://app?vid=90cafb22-43f6-47bb-9e80-c8fa9891709f","ios":"levelo://app?vid=90cafb22-43f6-47bb-9e80-c8fa9891709f"},"vehicle_type_id":"4","last_reported":1770056940,"current_range_meters":10800,"station_id":"ce4bhjp2rcd13ifvqg90","pricing_plan_id":"cebpf4jnsgd1na2vs0mg"},{"bike_id":"d546fffc-a24b-47f2-83bb-918a57fc3fa5","system_id":"levelo_inurba_marseille","lat":43.29774,"lon":5.38109,"is_reserved":false,"is_disabled":false,"rental_uris":{"android":"levelo://app?vid=d546fffc-a24b-47f2-83bb-918a57fc3fa5","ios":"levelo://app?vid=d546fffc-a24b-47f2-83bb-918a57fc3fa5"},"vehicle_type_id":"4","last_reported":1770056940,"current_range_meters":10800,"station_id":"ce4bgip2rcd13ifvqbb0","pricing_plan_id":"cebpf4jnsgd1na2vs0mg"},{"bike_id":"3b15ef1d-d491-4377-b134-a5b139ed4414","system_id":"levelo_inurba_marseille","lat":43.29415,"lon":5.37405,"is_reserved":false,"is_disabled":false,"rental_uris":{"android":"levelo://app?vid=3b15ef1d-d491-4377-b134-a5b139ed4414","ios":"levelo://app?vid=3b15ef1d-d491-4377-b134-a5b139ed4414"},"vehicle_type_id":"4","last_reported":1770056940,"current_range_meters":10800,"station_id":"","pricing_plan_id":"cebpf4jnsgd1na2vs0mg"},{"bike_id":"492bbe2c-b177-4e84-a708-afdd6158ecf7","system_id":"levelo_inurba_marseille","lat":43.30938,"lon":5.4014,"is_reserved":false,"is_disabled":false,"rental_uris":{"android":"levelo://app?vid=492bbe2c-b177-4e84-a708-afdd6158ecf7","ios":"levelo://app?vid=492bbe2c-b177-4e84-a708-afdd6158ecf7"},"vehicle_type_id":"4","last_reported":1770056940,"current_range_meters":10800,"station_id":"ce4bgvp2rcd13ifvqct0","pricing_plan_id":"cebpf4jnsgd1na2vs0mg"},{"bike_id":"ba3390f5-14ed-4160-abcf-8bea19885613","system_id":"levelo_inurba_marseille","lat":43.28478,"lon":5.48389,"is_reserved":false,"is_disabled":false,"rental_uris":{"android":"levelo://app?vid=ba3390f5-14ed-4160-abcf-8bea19885613","ios":"levelo://app?vid=ba3390f5-14ed-4160-abcf-8bea19885613"},"vehicle_type_id":"4","last_reported":1770056940,"current_range_meters":10800,"station_id":"st_d3svhcjqgbts73a3dn0g","pricing_plan_id":"cebpf4jnsgd1na2vs0mg"},{"bike_id":"e103f84f-e4a4-41a8-81dd-4c2061418fc5","system_id":"levelo_inurba_marseille","lat":43.28348,"lon":5.38106,"is_reserved":false,"is_disabled":false,"rental_uris":{"android":"levelo://app?vid=e103f84f-e4a4-41a8-81dd-4c2061418fc5","ios":"levelo://app?vid=e103f84f-e4a4-41a8-81dd-4c2061418fc5"},"vehicle_type_id":"4","last_reported":1770056940,"current_range_meters":10800,"station_id":"ce4bh412rcd13ifvqdr0","pricing_plan_id":"cebpf4jnsgd1na2vs0mg"},{"bike_id":"454ec198-d273-438b-b7dc-8d61915cb03a","system_id":"levelo_inurba_marseille","lat":43.23176,"lon":5.43678,"is_reserved":false,"is_disabled":false,"rental_uris":{"android":"levelo://app?vid=454ec198-d273-438b-b7dc-8d61915cb03a","ios":"levelo://app?vid=454ec198-d273-438b-b7dc-8d61915cb03a"},"vehicle_type_id":"4","last_reported":1770056940,"current_range_meters":10800,"station_id":"ce4bhmp2rcd13ifvqgog","pricing_plan_id":"cebpf4jnsgd1na2vs0mg"},{"bike_id":"530b3fec-7af4-45eb-bf12-cc02b58eae44","system_id":"levelo_inurba_marseille","lat":43.24656,"lon":5.38144,"is_reserved":false,"is_disabled":false,"rental_uris":{"android":"levelo://app?vid=530b3fec-7af4-45eb-bf12-cc02b58eae44","ios":"levelo://app?vid=530b3fec-7af4-45eb-bf12-cc02b58eae44"},"vehicle_type_id":"4","last_reported":1770056940,"current_range_meters":10800,"station_id":"ce4bhih2rcd13ifvqfr0","pricing_plan_id":"cebpf4jnsgd1na2vs0mg"},{"bike_id":"ea0966ad-e5a2-499d-8c44-687d36efb095","system_id":"levelo_inurba_marseille","lat":43.29913,"lon":5.37461,"is_reserved":false,"is_disabled":false,"rental_uris":{"android":"levelo://app?vid=ea0966ad-e5a2-499d-8c44-687d36efb095","ios":"levelo://app?vid=ea0966ad-e5a2-499d-8c44-687d36efb095"},"vehicle_type_id":"4","last_reported":1770056940,"current_range_meters":10800,"station_id":"ce4bgjh2rcd13ifvqbg0","pricing_plan_id":"cebpf4jnsgd1na2vs0mg"},{"bike_id":"b886faeb-2ae5-4849-a4c7-c906741f8bf1","system_id":"levelo_inurba_marseille","lat":43.2657,"lon":5.40319,"is_reserved":false,"is_disabled":false,"rental_uris":{"android":"levelo://app?vid=b886faeb-2ae5-4849-a4c7-c906741f8bf1","ios":"levelo://app?vid=b886faeb-2ae5-4849-a4c7-c906741f8bf1"},"vehicle_type_id":"4","last_reported":1770056940,"current_range_meters":10800,"station_id":"ce4bhmp2rcd13ifvqgng","pricing_plan_id":"cebpf4jnsgd1na2vs0mg"},{"bike_id":"444b7964-d637-4bc2-bbcf-ca0cd5725763","system_id":"levelo_inurba_marseille","lat":43.27364,"lon":5.3901,"is_reserved":false,"is_disabled":true,"rental_uris":{"android":"levelo://app?vid=444b7964-d637-4bc2-bbcf-ca0cd5725763","ios":"levelo://app?vid=444b7964-d637-4bc2-bbcf-ca0cd5725763"},"vehicle_type_id":"4","last_reported":1770056940,"current_range_meters":10800,"station_id":"","pricing_plan_id":"cebpf4jnsgd1na2vs0mg"},{"bike_id":"db2ab0f1-6ab6-4fcf-bf0c-47adcb722970","system_id":"levelo_inurba_marseille","lat":43.26376,"lon":5.41074,"is_reserved":false,"is_disabled":false,"rental_uris":{"android":"levelo://app?vid=db2ab0f1-6ab6-4fcf-bf0c-47adcb722970","ios":"levelo://app?vid=db2ab0f1-6ab6-4fcf-bf0c-47adcb722970"},"vehicle_type_id":"4","last_reported":1770056940,"current_range_meters":10800,"station_id":"st_d4e5ca6na9uc73bfl5fg","pricing_plan_id":"cebpf4jnsgd1na2vs0mg"},{"bike_id":"df412393-06d8-4950-b829-2cac49f0d03a","system_id":"levelo_inurba_marseille","lat":43.30423,"lon":5.39754,"is_reserved":false,"is_disabled":false,"rental_uris":{"android":"levelo://app?vid=df412393-06d8-4950-b829-2cac49f0d03a","ios":"levelo://app?vid=df412393-06d8-4950-b829-2cac49f0d03a"},"vehicle_type_id":"4","last_reported":1770056940,"current_range_meters":10800,"station_id":"ce4bh092rcd13ifvqd20","pricing_plan_id":"cebpf4jnsgd1na2vs0mg"},{"bike_id":"53ffb5c2-3e2a-4a17-b03a-29d28fb95024","system_id":"levelo_inurba_marseille","lat":43.299,"lon":5.43676,"is_reserved":false,"is_disabled":false,"rental_uris":{"android":"levelo://app?vid=53ffb5c2-3e2a-4a17-b03a-29d28fb95024","ios":"levelo://app?vid=53ffb5c2-3e2a-4a17-b03a-29d28fb95024"},"vehicle_type_id":"4","last_reported":1770056940,"current_range_meters":10800,"station_id":"ce4bhpp2rcd13ifvqhfg","pricing_plan_id":"cebpf4jnsgd1na2vs0mg"},{"bike_id":"151047fe-b117-41cf-9416-4f91d0d3c1a9","system_id":"levelo_inurba_marseille","lat":43.31856,"lon":5.36908,"is_reserved":false,"is_disabled":false,"rental_uris":{"android":"levelo://app?vid=151047fe-b117-41cf-9416-4f91d0d3c1a9","ios":"levelo://app?vid=151047fe-b117-41cf-9416-4f91d0d3c1a9"},"vehicle_type_id":"4","last_reported":1770056940,"current_range_meters":11200,"station_id":"","pricing_plan_id":"cebpf4jnsgd1na2vs0mg"},{"bike_id":"242256f5-f0bd-4204-9565-2087ceacdda5","system_id":"levelo_inurba_marseille","lat":43.2256,"lon":5.41628,"is_reserved":false,"is_disabled":false,"rental_uris":{"android":"levelo://app?vid=242256f5-f0bd-4204-9565-2087ceacdda5","ios":"levelo://app?vid=242256f5-f0bd-4204-9565-2087ceacdda5"},"vehicle_type_id":"4","last_reported":1770056940,"current_range_meters":11200,"station_id":"st_d2o4gvlbi1j2169b742g","pricing_plan_id":"cebpf4jnsgd1na2vs0mg"},{"bike_id":"d8713cd3-8269-4863-9601-8c0f629eacef","system_id":"levelo_inurba_marseille","lat":43.24675,"lon":5.38157,"is_reserved":false,"is_disabled":false,"rental_uris":{"android":"levelo://app?vid=d8713cd3-8269-4863-9601-8c0f629eacef","ios":"levelo://app?vid=d8713cd3-8269-4863-9601-8c0f629eacef"},"vehicle_type_id":"4","last_reported":1770056940,"current_range_meters":11200,"station_id":"ce4bhih2rcd13ifvqfr0","pricing_plan_id":"cebpf4jnsgd1na2vs0mg"},{"bike_id":"7f77f6a6-911c-44cf-97f5-71224b3633e0","system_id":"levelo_inurba_marseille","lat":43.25198,"lon":5.38025,"is_reserved":false,"is_disabled":false,"rental_uris":{"android":"levelo://app?vid=7f77f6a6-911c-44cf-97f5-71224b3633e0","ios":"levelo://app?vid=7f77f6a6-911c-44cf-97f5-71224b3633e0"},"vehicle_type_id":"4","last_reported":1770056940,"current_range_meters":11200,"station_id":"","pricing_plan_id":"cebpf4jnsgd1na2vs0mg"},{"bike_id":"658d0b20-6292-4d6c-85b2-b3938e69fd12","system_id":"levelo_inurba_marseille","lat":43.28266,"lon":5.38577,"is_reserved":false,"is_disabled":false,"rental_uris":{"android":"levelo://app?vid=658d0b20-6292-4d6c-85b2-b3938e69fd12","ios":"levelo://app?vid=658d0b20-6292-4d6c-85b2-b3938e69fd12"},"vehicle_type_id":"4","last_reported":1770056940,"current_range_meters":11200,"station_id":"","pricing_plan_id":"cebpf4jnsgd1na2vs0mg"},{"bike_id":"ef30bb24-f45f-400c-9967-a2a3b2da1488","system_id":"levelo_inurba_marseille","lat":43.28288,"lon":5.39434,"is_reserved":false,"is_disabled":false,"rental_uris":{"android":"levelo://app?vid=ef30bb24-f45f-400c-9967-a2a3b2da1488","ios":"levelo://app?vid=ef30bb24-f45f-400c-9967-a2a3b2da1488"},"vehicle_type_id":"4","last_reported":1770056940,"current_range_meters":11200,"station_id":"","pricing_plan_id":"cebpf4jnsgd1na2vs0mg"},{"bike_id":"fba83296-cf08-4ba9-8267-d1dc13133a44","system_id":"levelo_inurba_marseille","lat":43.26162,"lon":5.40299,"is_reserved":false,"is_disabled":false,"rental_uris":{"android":"levelo://app?vid=fba83296-cf08-4ba9-8267-d1dc13133a44","ios":"levelo://app?vid=fba83296-cf08-4ba9-8267-d1dc13133a44"},"vehicle_type_id":"4","last_reported":1770056940,"current_range_meters":11200,"station_id":"ce4bhmh2rcd13ifvqgmg","pricing_plan_id":"cebpf4jnsgd1na2vs0mg"},{"bike_id":"ccad5bb8-727e-4e27-b0cc-7b2f496ea109","system_id":"levelo_inurba_marseille","lat":43.29553,"lon":5.42276,"is_reserved":false,"is_disabled":false,"rental_uris":{"android":"levelo://app?vid=ccad5bb8-727e-4e27-b0cc-7b2f496ea109","ios":"levelo://app?vid=ccad5bb8-727e-4e27-b0cc-7b2f496ea109"},"vehicle_type_id":"4","last_reported":1770056940,"current_range_meters":11200,"station_id":"ce4bhph2rcd13ifvqhdg","pricing_plan_id":"cebpf4jnsgd1na2vs0mg"},{"bike_id":"5ffc162c-3876-4a49-af02-3661f44effbb","system_id":"levelo_inurba_marseille","lat":43.2848,"lon":5.48384,"is_reserved":false,"is_disabled":false,"rental_uris":{"android":"levelo://app?vid=5ffc162c-3876-4a49-af02-3661f44effbb","ios":"levelo://app?vid=5ffc162c-3876-4a49-af02-3661f44effbb"},"vehicle_type_id":"4","last_reported":1770056940,"current_range_meters":11200,"station_id":"st_d3svhcjqgbts73a3dn0g","pricing_plan_id":"cebpf4jnsgd1na2vs0mg"},{"bike_id":"105bfbdd-2a4c-4255-bcc2-6dcbd4ccd07a","system_id":"levelo_inurba_marseille","lat":43.278133,"lon":5.407104,"is_reserved":false,"is_disabled":false,"rental_uris":{"android":"levelo://app?vid=105bfbdd-2a4c-4255-bcc2-6dcbd4ccd07a","ios":"levelo://app?vid=105bfbdd-2a4c-4255-bcc2-6dcbd4ccd07a"},"vehicle_type_id":"4","last_reported":1770056940,"current_range_meters":11600,"station_id":"ce4bhnh2rcd13ifvqgtg","pricing_plan_id":"cebpf4jnsgd1na2vs0mg"},{"bike_id":"5892fc85-7848-4ac6-9041-3115ffbc60b4","system_id":"levelo_inurba_marseille","lat":43.24679,"lon":5.38138,"is_reserved":false,"is_disabled":false,"rental_uris":{"android":"levelo://app?vid=5892fc85-7848-4ac6-9041-3115ffbc60b4","ios":"levelo://app?vid=5892fc85-7848-4ac6-9041-3115ffbc60b4"},"vehicle_type_id":"4","last_reported":1770056940,"current_range_meters":11600,"station_id":"ce4bhih2rcd13ifvqfr0","pricing_plan_id":"cebpf4jnsgd1na2vs0mg"},{"bike_id":"128c25e0-a9f7-4b25-a528-c9d67b1546c5","system_id":"levelo_inurba_marseille","lat":43.24044,"lon":5.37754,"is_reserved":false,"is_disabled":false,"rental_uris":{"android":"levelo://app?vid=128c25e0-a9f7-4b25-a528-c9d67b1546c5","ios":"levelo://app?vid=128c25e0-a9f7-4b25-a528-c9d67b1546c5"},"vehicle_type_id":"4","last_reported":1770056940,"current_range_meters":11600,"station_id":"ce4bhnp2rcd13ifvqgvg","pricing_plan_id":"cebpf4jnsgd1na2vs0mg"},{"bike_id":"f2f4bc54-9dbe-48b2-90ee-17217929a54b","system_id":"levelo_inurba_marseille","lat":43.30442,"lon":5.38884,"is_reserved":false,"is_disabled":false,"rental_uris":{"android":"levelo://app?vid=f2f4bc54-9dbe-48b2-90ee-17217929a54b","ios":"levelo://app?vid=f2f4bc54-9dbe-48b2-90ee-17217929a54b"},"vehicle_type_id":"4","last_reported":1770056940,"current_range_meters":11600,"station_id":"ce4bgk12rcd13ifvqbi0","pricing_plan_id":"cebpf4jnsgd1na2vs0mg"},{"bike_id":"5ccb9994-6641-4b01-9707-ec7a4643ca75","system_id":"levelo_inurba_marseille","lat":43.29294,"lon":5.37164,"is_reserved":false,"is_disabled":false,"rental_uris":{"android":"levelo://app?vid=5ccb9994-6641-4b01-9707-ec7a4643ca75","ios":"levelo://app?vid=5ccb9994-6641-4b01-9707-ec7a4643ca75"},"vehicle_type_id":"4","last_reported":1770056940,"current_range_meters":11600,"station_id":"ce4bgh92rcd13ifvqb40","pricing_plan_id":"cebpf4jnsgd1na2vs0mg"},{"bike_id":"4c7f8a28-857e-4592-bbe1-acfc605592d3","system_id":"levelo_inurba_marseille","lat":43.29228,"lon":5.42519,"is_reserved":false,"is_disabled":false,"rental_uris":{"android":"levelo://app?vid=4c7f8a28-857e-4592-bbe1-acfc605592d3","ios":"levelo://app?vid=4c7f8a28-857e-4592-bbe1-acfc605592d3"},"vehicle_type_id":"4","last_reported":1770056940,"current_range_meters":11600,"station_id":"","pricing_plan_id":"cebpf4jnsgd1na2vs0mg"},{"bike_id":"a5eda67a-1af7-4789-9b16-aa7217c90cd3","system_id":"levelo_inurba_marseille","lat":43.23716,"lon":5.40154,"is_reserved":false,"is_disabled":false,"rental_uris":{"android":"levelo://app?vid=a5eda67a-1af7-4789-9b16-aa7217c90cd3","ios":"levelo://app?vid=a5eda67a-1af7-4789-9b16-aa7217c90cd3"},"vehicle_type_id":"4","last_reported":1770056940,"current_range_meters":11600,"station_id":"","pricing_plan_id":"cebpf4jnsgd1na2vs0mg"},{"bike_id":"f4d722df-05cc-468f-b04c-85113682728b","system_id":"levelo_inurba_marseille","lat":43.31226,"lon":5.36838,"is_reserved":false,"is_disabled":false,"rental_uris":{"android":"levelo://app?vid=f4d722df-05cc-468f-b04c-85113682728b","ios":"levelo://app?vid=f4d722df-05cc-468f-b04c-85113682728b"},"vehicle_type_id":"4","last_reported":1770056940,"current_range_meters":11600,"station_id":"ce4bgl92rcd13ifvqbq0","pricing_plan_id":"cebpf4jnsgd1na2vs0mg"},{"bike_id":"904425c1-affb-4103-ac85-a5cf6c4ddc66","system_id":"levelo_inurba_marseille","lat":43.31068,"lon":5.38356,"is_reserved":false,"is_disabled":false,"rental_uris":{"android":"levelo://app?vid=904425c1-affb-4103-ac85-a5cf6c4ddc66","ios":"levelo://app?vid=904425c1-affb-4103-ac85-a5cf6c4ddc66"},"vehicle_type_id":"4","last_reported":1770056940,"current_range_meters":11600,"station_id":"ce4bgv92rcd13ifvqcr0","pricing_plan_id":"cebpf4jnsgd1na2vs0mg"},{"bike_id":"43b4dd52-5f40-488a-8ef1-ee614ae1c61c","system_id":"levelo_inurba_marseille","lat":43.336077,"lon":5.410441,"is_reserved":false,"is_disabled":false,"rental_uris":{"android":"levelo://app?vid=43b4dd52-5f40-488a-8ef1-ee614ae1c61c","ios":"levelo://app?vid=43b4dd52-5f40-488a-8ef1-ee614ae1c61c"},"vehicle_type_id":"4","last_reported":1770056940,"current_range_meters":11600,"station_id":"ce4bhqh2rcd13ifvqhmg","pricing_plan_id":"cebpf4jnsgd1na2vs0mg"},{"bike_id":"5396fda1-c3a0-4d51-8ba0-cfe497a166d7","system_id":"levelo_inurba_marseille","lat":43.26557,"lon":5.38986,"is_reserved":false,"is_disabled":false,"rental_uris":{"android":"levelo://app?vid=5396fda1-c3a0-4d51-8ba0-cfe497a166d7","ios":"levelo://app?vid=5396fda1-c3a0-4d51-8ba0-cfe497a166d7"},"vehicle_type_id":"4","last_reported":1770056940,"current_range_meters":11600,"station_id":"ce4bhe12rcd13ifvqf30","pricing_plan_id":"cebpf4jnsgd1na2vs0mg"},{"bike_id":"151d7496-2b87-4d1d-beec-0e24d5bad8b8","system_id":"levelo_inurba_marseille","lat":43.29525,"lon":5.394,"is_reserved":false,"is_disabled":false,"rental_uris":{"android":"levelo://app?vid=151d7496-2b87-4d1d-beec-0e24d5bad8b8","ios":"levelo://app?vid=151d7496-2b87-4d1d-beec-0e24d5bad8b8"},"vehicle_type_id":"4","last_reported":1770056940,"current_range_meters":11600,"station_id":"ce4bh292rcd13ifvqdf0","pricing_plan_id":"cebpf4jnsgd1na2vs0mg"},{"bike_id":"8e312380-e745-433d-90b9-ff07a309073d","system_id":"levelo_inurba_marseille","lat":43.24801,"lon":5.37451,"is_reserved":false,"is_disabled":false,"rental_uris":{"android":"levelo://app?vid=8e312380-e745-433d-90b9-ff07a309073d","ios":"levelo://app?vid=8e312380-e745-433d-90b9-ff07a309073d"},"vehicle_type_id":"4","last_reported":1770056940,"current_range_meters":12000,"station_id":"ce4bhgh2rcd13ifvqfb0","pricing_plan_id":"cebpf4jnsgd1na2vs0mg"},