{"last_updated":1713388082,"ttl":30,"version":"2.2","data":{"bikes":[{"bike_id":"a1e77aa0-a7d3-4a85-92cf-10384991fc53","system_id":"levelo_inurba_marseille","lat":43.31351,"lon":5.36713,"is_reserved":false,"is_disabled":false,"rental_uris":{"android":"levelo://app?vid=a1e77aa0-a7d3-4a85-92cf-10384991fc53","ios":"levelo://app?vid=a1e77aa0-a7d3-4a85-92cf-10384991fc53"},"vehicle_type_id":"4","last_reported":1713388083,"current_range_meters":0,"station_id":"ce4bgr92rcd13ifvqc6g","pricing_plan_id":"cebpf4jnsgd1na2vs0mg"},{"bike_id":"e777aad2-b094-4b08-8266-bf872ff7d3f4","system_id":"levelo_inurba_marseille","lat":43.312239,"lon":5.368562,"is_reserved":false,"is_disabled":false,"rental_uris":{"android":"levelo://app?vid=e777aad2-b094-4b08-8266-bf872ff7d3f4","ios":"levelo://app?vid=e777aad2-b094-4b08-8266-bf872ff7d3f4"},"vehicle_type_id":"4","last_reported":1713388083,"current_range_meters":400,"station_id":"ce4bgl92rcd13ifvqbq0","pricing_plan_id":"cebpf4jnsgd1na2vs0mg"},{"bike_id":"262823f0-bb4f-4ec2-86dc-189c741d5d27","system_id":"levelo_inurba_marseille","lat":43.309076,"lon":5.368465,"is_reserved":false,"is_disabled":false,"rental_uris":{"android":"levelo://app?vid=262823f0-bb4f-4ec2-86dc-189c741d5d27","ios":"levelo://app?vid=262823f0-bb4f-4ec2-86dc-189c741d5d27"},"vehicle_type_id":"4","last_reported":1713388083,"current_range_meters":5200,"station_id":"ce4bgn92rcd13ifvqbvg","pricing_plan_id":"cebpf4jnsgd1na2vs0mg"},{"bike_id":"7a76ac97-9ab4-48ee-a466-9be8d7b9f7b6","system_id":"levelo_inurba_marseille","lat":43.31339,"lon":5.37282,"is_reserved":false,"is_disabled":false,"rental_uris":{"android":"levelo://app?vid=7a76ac97-9ab4-48ee-a466-9be8d7b9f7b6","ios":"levelo://app?vid=7a76ac97-9ab4-48ee-a466-9be8d7b9f7b6"},"vehicle_type_id":"4","last_reported":1713388083,"current_range_meters":14400,"station_id":"","pricing_plan_id":"cebpf4jnsgd1na2vs0mg"},{"bike_id":"246883bb-532f-4679-9732-8b481816d1e7","system_id":"levelo_inurba_marseille","lat":43.314811,"lon":5.373104,"is_reserved":false,"is_disabled":false,"rental_uris":{"android":"levelo://app?vid=246883bb-532f-4679-9732-8b481816d1e7","ios":"levelo://app?vid=246883bb-532f-4679-9732-8b481816d1e7"},"vehicle_type_id":"4","last_reported":1713388083,"current_range_meters":20400,"station_id":"ce4bgt12rcd13ifvqcd0","pricing_plan_id":"cebpf4jnsgd1na2vs0mg"},{"bike_id":"583648fc-9add-4455-96d8-1e5eb5065a7c","system_id":"levelo_inurba_marseille","lat":43.314811,"lon":5.373103,"is_reserved":false,"is_disabled":false,"rental_uris":{"android":"levelo://app?vid=583648fc-9add-4455-96d8-1e5eb5065a7c","ios":"levelo://app?vid=583648fc-9add-4455-96d8-1e5eb5065a7c"},"vehicle_type_id":"4","last_reported":1713388083,"current_range_meters":0,"station_id":"ce4bgt12rcd13ifvqcd0","pricing_plan_id":"cebpf4jnsgd1na2vs0mg"},{"bike_id":"f7e14073-5083-4173-aafd-eab0c6d0df23","system_id":"levelo_inurba_marseille","lat":43.315289,"lon":5.380349,"is_reserved":false,"is_disabled":false,"rental_uris":{"android":"levelo://app?vid=f7e14073-5083-4173-aafd-eab0c6d0df23","ios":"levelo://app?vid=f7e14073-5083-4173-aafd-eab0c6d0df23"},"vehicle_type_id":"4","last_reported":1713388083,"current_range_meters":10800,"station_id":"ce4bhsp2rcd13ifvqi50","pricing_plan_id":"cebpf4jnsgd1na2vs0mg"},{"bike_id":"50c2df5d-5bb5-43cf-a454-8ca400998c1c","system_id":"levelo_inurba_marseille","lat":43.309034,"lon":5.371783,"is_reserved":false,"is_disabled":false,"rental_uris":{"android":"levelo://app?vid=50c2df5d-5bb5-43cf-a454-8ca400998c1c","ios":"levelo://app?vid=50c2df5d-5bb5-43cf-a454-8ca400998c1c"},"vehicle_type_id":"4","last_reported":1713388083,"current_range_meters":30000,"station_id":"ce4bguh2rcd13ifvqckg","pricing_plan_id":"cebpf4jnsgd1na2vs0mg"},{"bike_id":"381b9313-5c27-4279-9b79-c1b83b28443e","system_id":"levelo_inurba_marseille","lat":43.309039,"lon":5.371797,"is_reserved":false,"is_disabled":false,"rental_uris":{"android":"levelo://app?vid=381b9313-5c27-4279-9b79-c1b83b28443e","ios":"levelo://app?vid=381b9313-5c27-4279-9b79-c1b83b28443e"},"vehicle_type_id":"4","last_reported":1713388083,"current_range_meters":18000,"station_id":"ce4bguh2rcd13ifvqckg","pricing_plan_id":"cebpf4jnsgd1na2vs0mg"},{"bike_id":"52f22b5a-486d-4c62-a4ac-137bfb2f235e","system_id":"levelo_inurba_marseille","lat":43.30554,"lon":5.36534,"is_reserved":false,"is_disabled":false,"rental_uris":{"android":"levelo://app?vid=52f22b5a-486d-4c62-a4ac-137bfb2f235e","ios":"levelo://app?vid=52f22b5a-486d-4c62-a4ac-137bfb2f235e"},"vehicle_type_id":"4","last_reported":1713388083,"current_range_meters":28400,"station_id":"","pricing_plan_id":"cebpf4jnsgd1na2vs0mg"},{"bike_id":"8cd28707-e8cf-46d7-80cc-a309603c9931","system_id":"levelo_inurba_marseille","lat":43.311125,"lon":5.377624,"is_reserved":false,"is_disabled":false,"rental_uris":{"android":"levelo://app?vid=8cd28707-e8cf-46d7-80cc-a309603c9931","ios":"levelo://app?vid=8cd28707-e8cf-46d7-80cc-a309603c9931"},"vehicle_type_id":"4","last_reported":1713388083,"current_range_meters":0,"station_id":"ce4bgt92rcd13ifvqcg0","pricing_plan_id":"cebpf4jnsgd1na2vs0mg"},{"bike_id":"71b65339-6b13-4e47-9e85-3cfcd095267f","system_id":"levelo_inurba_marseille","lat":43.311125,"lon":5.377624,"is_reserved":false,"is_disabled":false,"rental_uris":{"android":"levelo://app?vid=71b65339-6b13-4e47-9e85-3cfcd095267f","ios":"levelo://app?vid=71b65339-6b13-4e47-9e85-3cfcd095267f"},"vehicle_type_id":"4","last_reported":1713388083,"current_range_meters":4000,"station_id":"ce4bgt92rcd13ifvqcg0","pricing_plan_id":"cebpf4jnsgd1na2vs0mg"},{"bike_id":"6f6161ff-aa3f-4076-bcb2-4c3a624a170a","system_id":"levelo_inurba_marseille","lat":43.311125,"lon":5.377624,"is_reserved":false,"is_disabled":false,"rental_uris":{"android":"levelo://app?vid=6f6161ff-aa3f-4076-bcb2-4c3a624a170a","ios":"levelo://app?vid=6f6161ff-aa3f-4076-bcb2-4c3a624a170a"},"vehicle_type_id":"4","last_reported":1713388083,"current_range_meters":28400,"station_id":"ce4bgt92rcd13ifvqcg0","pricing_plan_id":"cebpf4jnsgd1na2vs0mg"},{"bike_id":"b32cd1f0-9d32-4d04-9aab-dc79dcdcf347","system_id":"levelo_inurba_marseille","lat":43.311125,"lon":5.377624,"is_reserved":false,"is_disabled":false,"rental_uris":{"android":"levelo://app?vid=b32cd1f0-9d32-4d04-9aab-dc79dcdcf347","ios":"levelo://app?vid=b32cd1f0-9d32-4d04-9aab-dc79dcdcf347"},"vehicle_type_id":"4","last_reported":1713388083,"current_range_meters":1200,"station_id":"ce4bgt92rcd13ifvqcg0","pricing_plan_id":"cebpf4jnsgd1na2vs0mg"},{"bike_id":"894b6731-0d45-4ce5-aadb-37025b76f227","system_id":"levelo_inurba_marseille","lat":43.311125,"lon":5.377624,"is_reserved":false,"is_disabled":false,"rental_uris":{"android":"levelo://app?vid=894b6731-0d45-4ce5-aadb-37025b76f227","ios":"levelo://app?vid=894b6731-0d45-4ce5-aadb-37025b76f227"},"vehicle_type_id":"4","last_reported":1713388083,"current_range_meters":17200,"station_id":"ce4bgt92rcd13ifvqcg0","pricing_plan_id":"cebpf4jnsgd1na2vs0mg"},{"bike_id":"38c3a9aa-a319-4559-8849-56585697adb0","system_id":"levelo_inurba_marseille","lat":43.311125,"lon":5.377624,"is_reserved":false,"is_disabled":false,"rental_uris":{"android":"levelo://app?vid=38c3a9aa-a319-4559-8849-56585697adb0","ios":"levelo://app?vid=38c3a9aa-a319-4559-8849-56585697adb0"},"vehicle_type_id":"4","last_reported":1713388083,"current_range_meters":16400,"station_id":"ce4bgt92rcd13ifvqcg0","pricing_plan_id":"cebpf4jnsgd1na2vs0mg"},{"bike_id":"ce86f89b-8fdd-4b4c-be51-e70968fbc93b","system_id":"levelo_inurba_marseille","lat":43.307945,"lon":5.376487,"is_reserved":false,"is_disabled":false,"rental_uris":{"android":"levelo://app?vid=ce86f89b-8fdd-4b4c-be51-e70968fbc93b","ios":"levelo://app?vid=ce86f89b-8fdd-4b4c-be51-e70968fbc93b"},"vehicle_type_id":"4","last_reported":1713388083,"current_range_meters":22000,"station_id":"ce4bgv92rcd13ifvqcq0","pricing_plan_id":"cebpf4jnsgd1na2vs0mg"},{"bike_id":"8d826c26-006d-4a3a-95e9-63589001d083","system_id":"levelo_inurba_marseille","lat":43.30781,"lon":5.37651,"is_reserved":false,"is_disabled":false,"rental_uris":{"android":"levelo://app?vid=8d826c26-006d-4a3a-95e9-63589001d083","ios":"levelo://app?vid=8d826c26-006d-4a3a-95e9-63589001d083"},"vehicle_type_id":"4","last_reported":1713388083,"current_range_meters":27200,"station_id":"ce4bgv92rcd13ifvqcq0","pricing_plan_id":"cebpf4jnsgd1na2vs0mg"},{"bike_id":"e47d81bb-063a-43a7-8cca-76c2986fff7e","system_id":"levelo_inurba_marseille","lat":43.307945,"lon":5.376487,"is_reserved":false,"is_disabled":false,"rental_uris":{"android":"levelo://app?vid=e47d81bb-063a-43a7-8cca-76c2986fff7e","ios":"levelo://app?vid=e47d81bb-063a-43a7-8cca-76c2986fff7e"},"vehicle_type_id":"4","last_reported":1713388083,"current_range_meters":11200,"station_id":"ce4bgv92rcd13ifvqcq0","pricing_plan_id":"cebpf4jnsgd1na2vs0mg"},{"bike_id":"5f44488a-88ec-49b2-bee6-3c0626c0fbac","system_id":"levelo_inurba_marseille","lat":43.317075,"lon":5.377367,"is_reserved":false,"is_disabled":false,"rental_uris":{"android":"levelo://app?vid=5f44488a-88ec-49b2-bee6-3c0626c0fbac","ios":"levelo://app?vid=5f44488a-88ec-49b2-bee6-3c0626c0fbac"},"vehicle_type_id":"4","last_reported":1713388083,"current_range_meters":6800,"station_id":"ce4bgth2rcd13ifvqch0","pricing_plan_id":"cebpf4jnsgd1na2vs0mg"},{"bike_id":"fbb8464a-713c-4a0a-b06c-9116a7fc2e59","system_id":"levelo_inurba_marseille","lat":43.317075,"lon":5.377367,"is_reserved":false,"is_disabled":false,"rental_uris":{"android":"levelo://app?vid=fbb8464a-713c-4a0a-b06c-9116a7fc2e59","ios":"levelo://app?vid=fbb8464a-713c-4a0a-b06c-9116a7fc2e59"},"vehicle_type_id":"4","last_reported":1713388083,"current_range_meters":16400,"station_id":"ce4bgth2rcd13ifvqch0","pricing_plan_id":"cebpf4jnsgd1na2vs0mg"},{"bike_id":"4c1d3d42-2aa7-4df6-adf6-5165eefcd157","system_id":"levelo_inurba_marseille","lat":43.317075,"lon":5.377367,"is_reserved":false,"is_disabled":false,"rental_uris":{"android":"levelo://app?vid=4c1d3d42-2aa7-4df6-adf6-5165eefcd157","ios":"levelo://app?vid=4c1d3d42-2aa7-4df6-adf6-5165eefcd157"},"vehicle_type_id":"4","last_reported":1713388083,"current_range_meters":800,"station_id":"ce4bgth2rcd13ifvqch0","pricing_plan_id":"cebpf4jnsgd1na2vs0mg"},{"bike_id":"bee8e9da-0701-47bf-afcd-9c04190ff22c","system_id":"levelo_inurba_marseille","lat":43.317075,"lon":5.377367,"is_reserved":false,"is_disabled":false,"rental_uris":{"android":"levelo://app?vid=bee8e9da-0701-47bf-afcd-9c04190ff22c","ios":"levelo://app?vid=bee8e9da-0701-47bf-afcd-9c04190ff22c"},"vehicle_type_id":"4","last_reported":1713388083,"current_range_meters":6800,"station_id":"ce4bgth2rcd13ifvqch0","pricing_plan_id":"cebpf4jnsgd1na2vs0mg"},{"bike_id":"8e1342a2-de23-4fa6-a10f-010afc912687","system_id":"levelo_inurba_marseille","lat":43.317075,"lon":5.377367,"is_reserved":false,"is_disabled":false,"rental_uris":{"android":"levelo://app?vid=8e1342a2-de23-4fa6-a10f-010afc912687","ios":"levelo://app?vid=8e1342a2-de23-4fa6-a10f-010afc912687"},"vehicle_type_id":"4","last_reported":1713388083,"current_range_meters":14000,"station_id":"ce4bgth2rcd13ifvqch0","pricing_plan_id":"cebpf4jnsgd1na2vs0mg"},{"bike_id":"e07c981e-638b-4ba6-ac96-fe5ee9e5a164","system_id":"levelo_inurba_marseille","lat":43.317075,"lon":5.377367,"is_reserved":false,"is_disabled":false,"rental_uris":{"android":"levelo://app?vid=e07c981e-638b-4ba6-ac96-fe5ee9e5a164","ios":"levelo://app?vid=e07c981e-638b-4ba6-ac96-fe5ee9e5a164"},"vehicle_type_id":"4","last_reported":1713388083,"current_range_meters":31200,"station_id":"ce4bgth2rcd13ifvqch0","pricing_plan_id":"cebpf4jnsgd1na2vs0mg"},{"bike_id":"e00f5c9c-82f1-4595-be09-fbbeee63189b","system_id":"levelo_inurba_marseille","lat":43.317075,"lon":5.377367,"is_reserved":false,"is_disabled":false,"rental_uris":{"android":"levelo://app?vid=e00f5c9c-82f1-4595-be09-fbbeee63189b","ios":"levelo://app?vid=e00f5c9c-82f1-4595-be09-fbbeee63189b"},"vehicle_type_id":"4","last_reported":1713388083,"current_range_meters":31200,"station_id":"ce4bgth2rcd13ifvqch0","pricing_plan_id":"cebpf4jnsgd1na2vs0mg"},{"bike_id":"1318186f-a486-4651-8972-8d8dc1a08d29","system_id":"levelo_inurba_marseille","lat":43.303158,"lon":5.36896,"is_reserved":false,"is_disabled":false,"rental_uris":{"android":"levelo://app?vid=1318186f-a486-4651-8972-8d8dc1a08d29","ios":"levelo://app?vid=1318186f-a486-4651-8972-8d8dc1a08d29"},"vehicle_type_id":"4","last_reported":1713388083,"current_range_meters":0,"station_id":"ce4bgqh2rcd13ifvqc5g","pricing_plan_id":"cebpf4jnsgd1na2vs0mg"},{"bike_id":"885d16bb-559d-4b55-9f00-116154d68cfd","system_id":"levelo_inurba_marseille","lat":43.303046,"lon":5.368981,"is_reserved":false,"is_disabled":false,"rental_uris":{"android":"levelo://app?vid=885d16bb-559d-4b55-9f00-116154d68cfd","ios":"levelo://app?vid=885d16bb-559d-4b55-9f00-116154d68cfd"},"vehicle_type_id":"4","last_reported":1713388083,"current_range_meters":5600,"station_id":"ce4bgqh2rcd13ifvqc5g","pricing_plan_id":"cebpf4jnsgd1na2vs0mg"},{"bike_id":"01359525-8ee3-4431-83ce-9dc5da79037f","system_id":"levelo_inurba_marseille","lat":43.315289,"lon":5.380349,"is_reserved":false,"is_disabled":false,"rental_uris":{"android":"levelo://app?vid=01359525-8ee3-4431-83ce-9dc5da79037f","ios":"levelo://app?vid=01359525-8ee3-4431-83ce-9dc5da79037f"},"vehicle_type_id":"4","last_reported":1713388083,"current_range_meters":6800,"station_id":"ce4bhsp2rcd13ifvqi50","pricing_plan_id":"cebpf4jnsgd1na2vs0mg"},{"bike_id":"8730e1ec-78f5-457b-a871-67ce03bf68c5","system_id":"levelo_inurba_marseille","lat":43.315289,"lon":5.380349,"is_reserved":false,"is_disabled":false,"rental_uris":{"android":"levelo://app?vid=8730e1ec-78f5-457b-a871-67ce03bf68c5","ios":"levelo://app?vid=8730e1ec-78f5-457b-a871-67ce03bf68c5"},"vehicle_type_id":"4","last_reported":1713388083,"current_range_meters":15200,"station_id":"ce4bhsp2rcd13ifvqi50","pricing_plan_id":"cebpf4jnsgd1na2vs0mg"},{"bike_id":"6259b3f4-c079-4a8f-9977-927bf520d560","system_id":"levelo_inurba_marseille","lat":43.315289,"lon":5.380349,"is_reserved":false,"is_disabled":false,"rental_uris":{"android":"levelo://app?vid=6259b3f4-c079-4a8f-9977-927bf520d560","ios":"levelo://app?vid=6259b3f4-c079-4a8f-9977-927bf520d560"},"vehicle_type_id":"4","last_reported":1713388083,"current_range_meters":10000,"station_id":"ce4bhsp2rcd13ifvqi50","pricing_plan_id":"cebpf4jnsgd1na2vs0mg"},{"bike_id":"bef97fed-895d-4639-85d9-12f1477f4ad3","system_id":"levelo_inurba_marseille","lat":43.301939,"lon":5.366286,"is_reserved":false,"is_disabled":false,"rental_uris":{"android":"levelo://app?vid=bef97fed-895d-4639-85d9-12f1477f4ad3","ios":"levelo://app?vid=bef97fed-895d-4639-85d9-12f1477f4ad3"},"vehicle_type_id":"4","last_reported":1713388083,"current_range_meters":16400,"station_id":"ce4bgrh2rcd13ifvqc8g","pricing_plan_id":"cebpf4jnsgd1na2vs0mg"},{"bike_id":"5c3d3d44-77a2-4a0a-a921-c35de7db95b7","system_id":"levelo_inurba_marseille","lat":43.301939,"lon":5.366286,"is_reserved":false,"is_disabled":false,"rental_uris":{"android":"levelo://app?vid=5c3d3d44-77a2-4a0a-a921-c35de7db95b7","ios":"levelo://app?vid=5c3d3d44-77a2-4a0a-a921-c35de7db95b7"},"vehicle_type_id":"4","last_reported":1713388083,"current_range_meters":28000,"station_id":"ce4bgrh2rcd13ifvqc8g","pricing_plan_id":"cebpf4jnsgd1na2vs0mg"},{"bike_id":"86705de3-3350-4a62-ae3f-4a2526686237","system_id":"levelo_inurba_marseille","lat":43.301939,"lon":5.366286,"is_reserved":false,"is_disabled":false,"rental_uris":{"android":"levelo://app?vid=86705de3-3350-4a62-ae3f-4a2526686237","ios":"levelo://app?vid=86705de3-3350-4a62-ae3f-4a2526686237"},"vehicle_type_id":"4","last_reported":1713388083,"current_range_meters":12000,"station_id":"ce4bgrh2rcd13ifvqc8g","pricing_plan_id":"cebpf4jnsgd1na2vs0mg"},{"bike_id":"545f804c-508f-4edd-a677-84fc933c8716","system_id":"levelo_inurba_marseille","lat":43.308012,"lon":5.381511,"is_reserved":false,"is_disabled":false,"rental_uris":{"android":"levelo://app?vid=545f804c-508f-4edd-a677-84fc933c8716","ios":"levelo://app?vid=545f804c-508f-4edd-a677-84fc933c8716"},"vehicle_type_id":"4","last_reported":1713388083,"current_range_meters":2000,"station_id":"ce4bgt12rcd13ifvqce0","pricing_plan_id":"cebpf4jnsgd1na2vs0mg"},{"bike_id":"474525dc-99c8-49dd-a4ec-bf353f39ecc7","system_id":"levelo_inurba_marseille","lat":43.308012,"lon":5.381511,"is_reserved":false,"is_disabled":false,"rental_uris":{"android":"levelo://app?vid=474525dc-99c8-49dd-a4ec-bf353f39ecc7","ios":"levelo://app?vid=474525dc-99c8-49dd-a4ec-bf353f39ecc7"},"vehicle_type_id":"4","last_reported":1713388083,"current_range_meters":8400,"station_id":"ce4bgt12rcd13ifvqce0","pricing_plan_id":"cebpf4jnsgd1na2vs0mg"},{"bike_id":"2c010bec-e312-4e1a-8094-47f9f393f242","system_id":"levelo_inurba_marseille","lat":43.308012,"lon":5.381511,"is_reserved":false,"is_disabled":false,"rental_uris":{"android":"levelo://app?vid=2c010bec-e312-4e1a-8094-47f9f393f242","ios":"levelo://app?vid=2c010bec-e312-4e1a-8094-47f9f393f242"},"vehicle_type_id":"4","last_reported":1713388083,"current_range_meters":13600,"station_id":"ce4bgt12rcd13ifvqce0","pricing_plan_id":"cebpf4jnsgd1na2vs0mg"},{"bike_id":"6b2ac776-9495-4cd4-bbae-eac90b27dc61","system_id":"levelo_inurba_marseille","lat":43.308012,"lon":5.381511,"is_reserved":false,"is_disabled":false,"rental_uris":{"android":"levelo://app?vid=6b2ac776-9495-4cd4-bbae-eac90b27dc61","ios":"levelo://app?vid=6b2ac776-9495-4cd4-bbae-eac90b27dc61"},"vehicle_type_id":"4","last_reported":1713388083,"current_range_meters":20400,"station_id":"ce4bgt12rcd13ifvqce0","pricing_plan_id":"cebpf4jnsgd1na2vs0mg"},{"bike_id":"192d3e40-06f9-4aab-84fd-2ff8d5caf743","system_id":"levelo_inurba_marseille","lat":43.308012,"lon":5.381511,"is_reserved":false,"is_disabled":false,"rental_uris":{"android":"levelo://app?vid=192d3e40-06f9-4aab-84fd-2ff8d5caf743","ios":"levelo://app?vid=192d3e40-06f9-4aab-84fd-2ff8d5caf743"},"vehicle_type_id":"4","last_reported":1713388083,"current_range_meters":14000,"station_id":"ce4bgt12rcd13ifvqce0","pricing_plan_id":"cebpf4jnsgd1na2vs0mg"},{"bike_id":"aead9c86-0d95-451a-be09-abd6ca4a7c51","system_id":"levelo_inurba_marseille","lat":43.308012,"lon":5.381511,"is_reserved":false,"is_disabled":false,"rental_uris":{"android":"levelo://app?vid=aead9c86-0d95-451a-be09-abd6ca4a7c51","ios":"levelo://app?vid=aead9c86-0d95-451a-be09-abd6ca4a7c51"},"vehicle_type_id":"4","last_reported":1713388083,"current_range_meters":9200,"station_id":"ce4bgt12rcd13ifvqce0","pricing_plan_id":"cebpf4jnsgd1na2vs0mg"},{"bike_id":"db143ab5-dec8-40dd-a621-e2d05978584f","system_id":"levelo_inurba_marseille","lat":43.308012,"lon":5.381511,"is_reserved":false,"is_disabled":false,"rental_uris":{"android":"levelo://app?vid=db143ab5-dec8-40dd-a621-e2d05978584f","ios":"levelo://app?vid=db143ab5-dec8-40dd-a621-e2d05978584f"},"vehicle_type_id":"4","last_reported":1713388083,"current_range_meters":24000,"station_id":"ce4bgt12rcd13ifvqce0","pricing_plan_id":"cebpf4jnsgd1na2vs0mg"},{"bike_id":"24902cf2-e17e-4e65-9431-95ba9170c960","system_id":"levelo_inurba_marseille","lat":43.308012,"lon":5.381511,"is_reserved":false,"is_disabled":false,"rental_uris":{"android":"levelo://app?vid=24902cf2-e17e-4e65-9431-95ba9170c960","ios":"levelo://app?vid=24902cf2-e17e-4e65-9431-95ba9170c960"},"vehicle_type_id":"4","last_reported":1713388083,"current_range_meters":31200,"station_id":"ce4bgt12rcd13ifvqce0","pricing_plan_id":"cebpf4jnsgd1na2vs0mg"},{"bike_id":"929a6257-f236-47f1-ad5b-5547f7e77cec","system_id":"levelo_inurba_marseille","lat":43.304606,"lon":5.379026,"is_reserved":false,"is_disabled":false,"rental_uris":{"android":"levelo://app?vid=929a6257-f236-47f1-ad5b-5547f7e77cec","ios":"levelo://app?vid=929a6257-f236-47f1-ad5b-5547f7e77cec"},"vehicle_type_id":"4","last_reported":1713388083,"current_range_meters":17600,"station_id":"ce4bgup2rcd13ifvqcn0","pricing_plan_id":"cebpf4jnsgd1na2vs0mg"},{"bike_id":"bdd5fc7e-d9fd-4a61-a4e9-353797c4a696","system_id":"levelo_inurba_marseille","lat":43.324771,"lon":5.36557,"is_reserved":false,"is_disabled":false,"rental_uris":{"android":"levelo://app?vid=bdd5fc7e-d9fd-4a61-a4e9-353797c4a696","ios":"levelo://app?vid=bdd5fc7e-d9fd-4a61-a4e9-353797c4a696"},"vehicle_type_id":"4","last_reported":1713388083,"current_range_meters":14000,"station_id":"ce4bhs12rcd13ifvqhvg","pricing_plan_id":"cebpf4jnsgd1na2vs0mg"},{"bike_id":"2361f870-47a0-4ae4-a065-afb3cf02f8b1","system_id":"levelo_inurba_marseille","lat":43.324771,"lon":5.36557,"is_reserved":false,"is_disabled":false,"rental_uris":{"android":"levelo://app?vid=2361f870-47a0-4ae4-a065-afb3cf02f8b1","ios":"levelo://app?vid=2361f870-47a0-4ae4-a065-afb3cf02f8b1"},"vehicle_type_id":"4","last_reported":1713388083,"current_range_meters":17600,"station_id":"ce4bhs12rcd13ifvqhvg","pricing_plan_id":"cebpf4jnsgd1na2vs0mg"},{"bike_id":"9650e995-0d72-455f-838e-dca00d5136ce","system_id":"levelo_inurba_marseille","lat":43.324771,"lon":5.36557,"is_reserved":false,"is_disabled":false,"rental_uris":{"android":"levelo://app?vid=9650e995-0d72-455f-838e-dca00d5136ce","ios":"levelo://app?vid=9650e995-0d72-455f-838e-dca00d5136ce"},"vehicle_type_id":"4","last_reported":1713388083,"current_range_meters":24000,"station_id":"ce4bhs12rcd13ifvqhvg","pricing_plan_id":"cebpf4jnsgd1na2vs0mg"},{"bike_id":"a51b9dbd-b6b4-4e62-aede-beb536c98b5a","system_id":"levelo_inurba_marseille","lat":43.324878,"lon":5.365678,"is_reserved":false,"is_disabled":false,"rental_uris":{"android":"levelo://app?vid=a51b9dbd-b6b4-4e62-aede-beb536c98b5a","ios":"levelo://app?vid=a51b9dbd-b6b4-4e62-aede-beb536c98b5a"},"vehicle_type_id":"4","last_reported":1713388083,"current_range_meters":6400,"station_id":"ce4bhs12rcd13ifvqhvg","pricing_plan_id":"cebpf4jnsgd1na2vs0mg"},{"bike_id":"6850d3ac-6118-46b8-87a3-283cb8f13775","system_id":"levelo_inurba_marseille","lat":43.324771,"lon":5.36557,"is_reserved":false,"is_disabled":false,"rental_uris":{"android":"levelo://app?vid=6850d3ac-6118-46b8-87a3-283cb8f13775","ios":"levelo://app?vid=6850d3ac-6118-46b8-87a3-283cb8f13775"},"vehicle_type_id":"4","last_reported":1713388083,"current_range_meters":9200,"station_id":"ce4bhs12rcd13ifvqhvg","pricing_plan_id":"cebpf4jnsgd1na2vs0mg"},{"bike_id":"bada93fb-f3e7-4072-b03f-debca43b0142","system_id":"levelo_inurba_marseille","lat":43.32491,"lon":5.36559,"is_reserved":false,"is_disabled":false,"rental_uris":{"android":"levelo://app?vid=bada93fb-f3e7-4072-b03f-debca43b0142","ios":"levelo://app?vid=bada93fb-f3e7-4072-b03f-debca43b0142"},"vehicle_type_id":"4","last_reported":1713388083,"current_range_meters":400,"station_id":"ce4bhs12rcd13ifvqhvg","pricing_plan_id":"cebpf4jnsgd1na2vs0mg"},{"bike_id":"d986bd22-f831-4a7d-a74f-59573012fbf0","system_id":"levelo_inurba_marseille","lat":43.310786,"lon":5.383553,"is_reserved":false,"is_disabled":false,"rental_uris":{"android":"levelo://app?vid=d986bd22-f831-4a7d-a74f-59573012fbf0","ios":"levelo://app?vid=d986bd22-f831-4a7d-a74f-59573012fbf0"},"vehicle_type_id":"4","last_reported":1713388083,"current_range_meters":11200,"station_id":"ce4bgv92rcd13ifvqcr0","pricing_plan_id":"cebpf4jnsgd1na2vs0mg"},{"bike_id":"99024cdb-4f25-418d-b680-ffecdfd31c32","system_id":"levelo_inurba_marseille","lat":43.302784,"lon":5.377158,"is_reserved":false,"is_disabled":false,"rental_uris":{"android":"levelo://app?vid=99024cdb-4f25-418d-b680-ffecdfd31c32","ios":"levelo://app?vid=99024cdb-4f25-418d-b680-ffecdfd31c32"},"vehicle_type_id":"4","last_reported":1713388083,"current_range_meters":5600,"station_id":"ce4bguh2rcd13ifvqcj0","pricing_plan_id":"cebpf4jnsgd1na2vs0mg"},{"bike_id":"51e207f8-7df5-4810-a4e2-d6134d500fe5","system_id":"levelo_inurba_marseille","lat":43.302784,"lon":5.377158,"is_reserved":false,"is_disabled":false,"rental_uris":{"android":"levelo://app?vid=51e207f8-7df5-4810-a4e2-d6134d500fe5","ios":"levelo://app?vid=51e207f8-7df5-4810-a4e2-d6134d500fe5"},"vehicle_type_id":"4","last_reported":1713388083,"current_range_meters":18800,"station_id":"ce4bguh2rcd13ifvqcj0","pricing_plan_id":"cebpf4jnsgd1na2vs0mg"},{"bike_id":"b8feb9d2-3951-40e7-a9aa-7b5fd456b9c5","system_id":"levelo_inurba_marseille","lat":43.310804,"lon":5.38359,"is_reserved":false,"is_disabled":false,"rental_uris":{"android":"levelo://app?vid=b8feb9d2-3951-40e7-a9aa-7b5fd456b9c5","ios":"levelo://app?vid=b8feb9d2-3951-40e7-a9aa-7b5fd456b9c5"},"vehicle_type_id":"4","last_reported":1713388083,"current_range_meters":9600,"station_id":"ce4bgv92rcd13ifvqcr0","pricing_plan_id":"cebpf4jnsgd1na2vs0mg"},{"bike_id":"a31a9ace-59be-4a38-9ee4-bd2de146c1af","system_id":"levelo_inurba_marseille","lat":43.310804,"lon":5.38359,"is_reserved":false,"is_disabled":false,"rental_uris":{"android":"levelo://app?vid=a31a9ace-59be-4a38-9ee4-bd2de146c1af","ios":"levelo://app?vid=a31a9ace-59be-4a38-9ee4-bd2de146c1af"},"vehicle_type_id":"4","last_reported":1713388083,"current_range_meters":20400,"station_id":"ce4bgv92rcd13ifvqcr0","pricing_plan_id":"cebpf4jnsgd1na2vs0mg"},{"bike_id":"9d351e48-66f1-4a32-ab2d-887111a0b14c","system_id":"levelo_inurba_marseille","lat":43.310804,"lon":5.38359,"is_reserved":false,"is_disabled":false,"rental_uris":{"android":"levelo://app?vid=9d351e48-66f1-4a32-ab2d-887111a0b14c","ios":"levelo://app?vid=9d351e48-66f1-4a32-ab2d-887111a0b14c"},"vehicle_type_id":"4","last_reported":1713388083,"current_range_meters":16400,"station_id":"ce4bgv92rcd13ifvqcr0","pricing_plan_id":"cebpf4jnsgd1na2vs0mg"},{"bike_id":"b34cca82-54c4-4e7a-a429-9f5ca4cb48bc","system_id":"levelo_inurba_marseille","lat":43.310804,"lon":5.38359,"is_reserved":false,"is_disabled":false,"rental_uris":{"android":"levelo://app?vid=b34cca82-54c4-4e7a-a429-9f5ca4cb48bc","ios":"levelo://app?vid=b34cca82-54c4-4e7a-a429-9f5ca4cb48bc"},"vehicle_type_id":"4","last_reported":1713388083,"current_range_meters":7200,"station_id":"ce4bgv92rcd13ifvqcr0","pricing_plan_id":"cebpf4jnsgd1na2vs0mg"},{"bike_id":"cab6c3b8-ed94-412e-9856-9fd7fe60542c","system_id":"levelo_inurba_marseille","lat":43.302784,"lon":5.377158,"is_reserved":false,"is_disabled":false,"rental_uris":{"android":"levelo://app?vid=cab6c3b8-ed94-412e-9856-9fd7fe60542c","ios":"levelo://app?vid=cab6c3b8-ed94-412e-9856-9fd7fe60542c"},"vehicle_type_id":"4","last_reported":1713388083,"current_range_meters":28000,"station_id":"ce4bguh2rcd13ifvqcj0","pricing_plan_id":"cebpf4jnsgd1na2vs0mg"},{"bike_id":"be83422b-2994-41a5-b1a3-433c8e09e4ba","system_id":"levelo_inurba_marseille","lat":43.30143,"lon":5.37413,"is_reserved":false,"is_disabled":false,"rental_uris":{"android":"levelo://app?vid=be83422b-2994-41a5-b1a3-433c8e09e4ba","ios":"levelo://app?vid=be83422b-2994-41a5-b1a3-433c8e09e4ba"},"vehicle_type_id":"4","last_reported":1713388083,"current_range_meters":8000,"station_id":"ce4bgs92rcd13ifvqcc0","pricing_plan_id":"cebpf4jnsgd1na2vs0mg"},{"bike_id":"6e11d5c1-9424-4970-aac5-1380420791dd","system_id":"levelo_inurba_marseille","lat":43.301429,"lon":5.37413,"is_reserved":false,"is_disabled":false,"rental_uris":{"android":"levelo://app?vid=6e11d5c1-9424-4970-aac5-1380420791dd","ios":"levelo://app?vid=6e11d5c1-9424-4970-aac5-1380420791dd"},"vehicle_type_id":"4","last_reported":1713388083,"current_range_meters":1600,"station_id":"ce4bgs92rcd13ifvqcc0","pricing_plan_id":"cebpf4jnsgd1na2vs0mg"},{"bike_id":"a8126705-3842-4c0e-80d7-ae82fbe12515","system_id":"levelo_inurba_marseille","lat":43.301429,"lon":5.37413,"is_reserved":false,"is_disabled":false,"rental_uris":{"android":"levelo://app?vid=a8126705-3842-4c0e-80d7-ae82fbe12515","ios":"levelo://app?vid=a8126705-3842-4c0e-80d7-ae82fbe12515"},"vehicle_type_id":"4","last_reported":1713388083,"current_range_meters":14800,"station_id":"ce4bgs92rcd13ifvqcc0","pricing_plan_id":"cebpf4jnsgd1na2vs0mg"},{"bike_id":"5e0422c4-4db2-4cd5-8ec6-f1a5f73617e2","system_id":"levelo_inurba_marseille","lat":43.305614,"lon":5.38141,"is_reserved":false,"is_disabled":false,"rental_uris":{"android":"levelo://app?vid=5e0422c4-4db2-4cd5-8ec6-f1a5f73617e2","ios":"levelo://app?vid=5e0422c4-4db2-4cd5-8ec6-f1a5f73617e2"},"vehicle_type_id":"4","last_reported":1713388083,"current_range_meters":17600,"station_id":"","pricing_plan_id":"cebpf4jnsgd1na2vs0mg"},{"bike_id":"334e3407-4f9b-4b57-a5ef-39033f25d948","system_id":"levelo_inurba_marseille","lat":43.319935,"lon":5.381699,"is_reserved":false,"is_disabled":false,"rental_uris":{"android":"levelo://app?vid=334e3407-4f9b-4b57-a5ef-39033f25d948","ios":"levelo://app?vid=334e3407-4f9b-4b57-a5ef-39033f25d948"},"vehicle_type_id":"4","last_reported":1713388083,"current_range_meters":20000,"station_id":"ce4bhr12rcd13ifvqhpg","pricing_plan_id":"cebpf4jnsgd1na2vs0mg"},{"bike_id":"ce7fa476-bb4f-43d3-8318-023d7f9567ab","system_id":"levelo_inurba_marseille","lat":43.319935,"lon":5.381699,"is_reserved":false,"is_disabled":false,"rental_uris":{"android":"levelo://app?vid=ce7fa476-bb4f-43d3-8318-023d7f9567ab","ios":"levelo://app?vid=ce7fa476-bb4f-43d3-8318-023d7f9567ab"},"vehicle_type_id":"4","last_reported":1713388083,"current_range_meters":18800,"station_id":"ce4bhr12rcd13ifvqhpg","pricing_plan_id":"cebpf4jnsgd1na2vs0mg"},{"bike_id":"d212c281-3522-420a-b06f-b80966290c73","system_id":"levelo_inurba_marseille","lat":43.319935,"lon":5.381699,"is_reserved":false,"is_disabled":false,"rental_uris":{"android":"levelo://app?vid=d212c281-3522-420a-b06f-b80966290c73","ios":"levelo://app?vid=d212c281-3522-420a-b06f-b80966290c73"},"vehicle_type_id":"4","last_reported":1713388083,"current_range_meters":23600,"station_id":"ce4bhr12rcd13ifvqhpg","pricing_plan_id":"cebpf4jnsgd1na2vs0mg"},{"bike_id":"eb084826-c14b-4714-abc5-e75cc896773b","system_id":"levelo_inurba_marseille","lat":43.319935,"lon":5.381699,"is_reserved":false,"is_disabled":false,"rental_uris":{"android":"levelo://app?vid=eb084826-c14b-4714-abc5-e75cc896773b","ios":"levelo://app?vid=eb084826-c14b-4714-abc5-e75cc896773b"},"vehicle_type_id":"4","last_reported":1713388083,"current_range_meters":9200,"station_id":"ce4bhr12rcd13ifvqhpg","pricing_plan_id":"cebpf4jnsgd1na2vs0mg"},{"bike_id":"8608e23e-7f9a-414f-ad7e-86dba4433338","system_id":"levelo_inurba_marseille","lat":43.319935,"lon":5.381699,"is_reserved":false,"is_disabled":false,"rental_uris":{"android":"levelo://app?vid=8608e23e-7f9a-414f-ad7e-86dba4433338","ios":"levelo://app?vid=8608e23e-7f9a-414f-ad7e-86dba4433338"},"vehicle_type_id":"4","last_reported":1713388083,"current_range_meters":12400,"station_id":"ce4bhr12rcd13ifvqhpg","pricing_plan_id":"cebpf4jnsgd1na2vs0mg"},{"bike_id":"b81b1e3e-2172-4dfd-8720-aafb0057bf12","system_id":"levelo_inurba_marseille","lat":43.319935,"lon":5.381699,"is_reserved":false,"is_disabled":false,"rental_uris":{"android":"levelo://app?vid=b81b1e3e-2172-4dfd-8720-aafb0057bf12","ios":"levelo://app?vid=b81b1e3e-2172-4dfd-8720-aafb0057bf12"},"vehicle_type_id":"4","last_reported":1713388083,"current_range_meters":8400,"station_id":"ce4bhr12rcd13ifvqhpg","pricing_plan_id":"cebpf4jnsgd1na2vs0mg"},{"bike_id":"f020809e-e197-4eb4-9e13-8310c8f35000","system_id":"levelo_inurba_marseille","lat":43.31996,"lon":5.38149,"is_reserved":false,"is_disabled":false,"rental_uris":{"android":"levelo://app?vid=f020809e-e197-4eb4-9e13-8310c8f35000","ios":"levelo://app?vid=f020809e-e197-4eb4-9e13-8310c8f35000"},"vehicle_type_id":"4","last_reported":1713388083,"current_range_meters":9200,"station_id":"ce4bhr12rcd13ifvqhpg","pricing_plan_id":"cebpf4jnsgd1na2vs0mg"},{"bike_id":"9ddf28a5-aa30-4141-a69c-67a9ed2e8e98","system_id":"levelo_inurba_marseille","lat":43.319935,"lon":5.381699,"is_reserved":false,"is_disabled":false,"rental_uris":{"android":"levelo://app?vid=9ddf28a5-aa30-4141-a69c-67a9ed2e8e98","ios":"levelo://app?vid=9ddf28a5-aa30-4141-a69c-67a9ed2e8e98"},"vehicle_type_id":"4","last_reported":1713388083,"current_range_meters":23600,"station_id":"ce4bhr12rcd13ifvqhpg","pricing_plan_id":"cebpf4jnsgd1na2vs0mg"},{"bike_id":"fc2df9fc-0879-4333-955e-d7f8d52b1a38","system_id":"levelo_inurba_marseille","lat":43.319935,"lon":5.381699,"is_reserved":false,"is_disabled":false,"rental_uris":{"android":"levelo://app?vid=fc2df9fc-0879-4333-955e-d7f8d52b1a38","ios":"levelo://app?vid=fc2df9fc-0879-4333-955e-d7f8d52b1a38"},"vehicle_type_id":"4","last_reported":1713388083,"current_range_meters":400,"station_id":"ce4bhr12rcd13ifvqhpg","pricing_plan_id":"cebpf4jnsgd1na2vs0mg"},{"bike_id":"f1a17ac3-bf0f-4378-ae6f-719bc9a96880","system_id":"levelo_inurba_marseille","lat":43.319935,"lon":5.381699,"is_reserved":false,"is_disabled":false,"rental_uris":{"android":"levelo://app?vid=f1a17ac3-bf0f-4378-ae6f-719bc9a96880","ios":"levelo://app?vid=f1a17ac3-bf0f-4378-ae6f-719bc9a96880"},"vehicle_type_id":"4","last_reported":1713388083,"current_range_meters":1200,"station_id":"ce4bhr12rcd13ifvqhpg","pricing_plan_id":"cebpf4jnsgd1na2vs0mg"},{"bike_id":"8ce762a3-5d5b-4cf2-afa1-d3fa5bbc8b07","system_id":"levelo_inurba_marseille","lat":43.32004,"lon":5.38156,"is_reserved":false,"is_disabled":false,"rental_uris":{"android":"levelo://app?vid=8ce762a3-5d5b-4cf2-afa1-d3fa5bbc8b07","ios":"levelo://app?vid=8ce762a3-5d5b-4cf2-afa1-d3fa5bbc8b07"},"vehicle_type_id":"4","last_reported":1713388083,"current_range_meters":8400,"station_id":"ce4bhr12rcd13ifvqhpg","pricing_plan_id":"cebpf4jnsgd1na2vs0mg"},{"bike_id":"592f0002-f51e-454a-948b-76b054acb9a8","system_id":"levelo_inurba_marseille","lat":43.319935,"lon":5.381699,"is_reserved":false,"is_disabled":false,"rental_uris":{"android":"levelo://app?vid=592f0002-f51e-454a-948b-76b054acb9a8","ios":"levelo://app?vid=592f0002-f51e-454a-948b-76b054acb9a8"},"vehicle_type_id":"4","last_reported":1713388083,"current_range_meters":14400,"station_id":"ce4bhr12rcd13ifvqhpg","pricing_plan_id":"cebpf4jnsgd1na2vs0mg"},{"bike_id":"a7f1b00f-26ff-404c-8811-6a3369faeea1","system_id":"levelo_inurba_marseille","lat":43.319935,"lon":5.381699,"is_reserved":false,"is_disabled":false,"rental_uris":{"android":"levelo://app?vid=a7f1b00f-26ff-404c-8811-6a3369faeea1","ios":"levelo://app?vid=a7f1b00f-26ff-404c-8811-6a3369faeea1"},"vehicle_type_id":"4","last_reported":1713388083,"current_range_meters":19200,"station_id":"ce4bhr12rcd13ifvqhpg","pricing_plan_id":"cebpf4jnsgd1na2vs0mg"},{"bike_id":"1cc39bba-192c-4bcc-b37f-24dc500d85ff","system_id":"levelo_inurba_marseille","lat":43.31362,"lon":5.38499,"is_reserved":false,"is_disabled":false,"rental_uris":{"android":"levelo://app?vid=1cc39bba-192c-4bcc-b37f-24dc500d85ff","ios":"levelo://app?vid=1cc39bba-192c-4bcc-b37f-24dc500d85ff"},"vehicle_type_id":"4","last_reported":1713388083,"current_range_meters":4400,"station_id":"ce4bgt92rcd13ifvqcf0","pricing_plan_id":"cebpf4jnsgd1na2vs0mg"},{"bike_id":"7a6e1c2e-307f-44da-ab4b-7057ef8b4cbd","system_id":"levelo_inurba_marseille","lat":43.313571,"lon":5.384829,"is_reserved":false,"is_disabled":false,"rental_uris":{"android":"levelo://app?vid=7a6e1c2e-307f-44da-ab4b-7057ef8b4cbd","ios":"levelo://app?vid=7a6e1c2e-307f-44da-ab4b-7057ef8b4cbd"},"vehicle_type_id":"4","last_reported":1713388083,"current_range_meters":24400,"station_id":"ce4bgt92rcd13ifvqcf0","pricing_plan_id":"cebpf4jnsgd1na2vs0mg"},{"bike_id":"2a94eaa5-1722-4e60-83d1-6ca05bb6f3f5","system_id":"levelo_inurba_marseille","lat":43.299222,"lon":5.365554,"is_reserved":false,"is_disabled":false,"rental_uris":{"android":"levelo://app?vid=2a94eaa5-1722-4e60-83d1-6ca05bb6f3f5","ios":"levelo://app?vid=2a94eaa5-1722-4e60-83d1-6ca05bb6f3f5"},"vehicle_type_id":"4","last_reported":1713388083,"current_range_meters":21600,"station_id":"ce4bgm92rcd13ifvqbr0","pricing_plan_id":"cebpf4jnsgd1na2vs0mg"},{"bike_id":"f5dc74d8-eb18-44b1-ae94-1dce09a7e3ce","system_id":"levelo_inurba_marseille","lat":43.299724,"lon":5.371829,"is_reserved":false,"is_disabled":false,"rental_uris":{"android":"levelo://app?vid=f5dc74d8-eb18-44b1-ae94-1dce09a7e3ce","ios":"levelo://app?vid=f5dc74d8-eb18-44b1-ae94-1dce09a7e3ce"},"vehicle_type_id":"4","last_reported":1713388083,"current_range_meters":27200,"station_id":"ce4bgr92rcd13ifvqc7g","pricing_plan_id":"cebpf4jnsgd1na2vs0mg"},{"bike_id":"3753b1ce-a44d-42b8-9ac1-d5fa7c6eb3ec","system_id":"levelo_inurba_marseille","lat":43.299724,"lon":5.371829,"is_reserved":false,"is_disabled":false,"rental_uris":{"android":"levelo://app?vid=3753b1ce-a44d-42b8-9ac1-d5fa7c6eb3ec","ios":"levelo://app?vid=3753b1ce-a44d-42b8-9ac1-d5fa7c6eb3ec"},"vehicle_type_id":"4","last_reported":1713388083,"current_range_meters":28800,"station_id":"ce4bgr92rcd13ifvqc7g","pricing_plan_id":"cebpf4jnsgd1na2vs0mg"},{"bike_id":"79b1484c-7ca2-4a8d-b15b-2987062d3cb2","system_id":"levelo_inurba_marseille","lat":43.300094,"lon":5.376567,"is_reserved":false,"is_disabled":false,"rental_uris":{"android":"levelo://app?vid=79b1484c-7ca2-4a8d-b15b-2987062d3cb2","ios":"levelo://app?vid=79b1484c-7ca2-4a8d-b15b-2987062d3cb2"},"vehicle_type_id":"4","last_reported":1713388083,"current_range_meters":24000,"station_id":"","pricing_plan_id":"cebpf4jnsgd1na2vs0mg"},{"bike_id":"e130b02e-3c4d-460e-b9c4-20980ae89568","system_id":"levelo_inurba_marseille","lat":43.3054,"lon":5.38434,"is_reserved":false,"is_disabled":false,"rental_uris":{"android":"levelo://app?vid=e130b02e-3c4d-460e-b9c4-20980ae89568","ios":"levelo://app?vid=e130b02e-3c4d-460e-b9c4-20980ae89568"},"vehicle_type_id":"4","last_reported":1713388083,"current_range_meters":0,"station_id":"ce4bgg92rcd13ifvqb30","pricing_plan_id":"cebpf4jnsgd1na2vs0mg"},{"bike_id":"399494aa-8c1e-4905-ac13-95b182cb9832","system_id":"levelo_inurba_marseille","lat":43.311722,"lon":5.387247,"is_reserved":false,"is_disabled":false,"rental_uris":{"android":"levelo://app?vid=399494aa-8c1e-4905-ac13-95b182cb9832","ios":"levelo://app?vid=399494aa-8c1e-4905-ac13-95b182cb9832"},"vehicle_type_id":"4","last_reported":1713388083,"current_range_meters":12800,"station_id":"ce4bgv12rcd13ifvqcp0","pricing_plan_id":"cebpf4jnsgd1na2vs0mg"},{"bike_id":"4bf84e78-46ef-4b35-a381-92b53adea192","system_id":"levelo_inurba_marseille","lat":43.311722,"lon":5.387247,"is_reserved":false,"is_disabled":false,"rental_uris":{"android":"levelo://app?vid=4bf84e78-46ef-4b35-a381-92b53adea192","ios":"levelo://app?vid=4bf84e78-46ef-4b35-a381-92b53adea192"},"vehicle_type_id":"4","last_reported":1713388083,"current_range_meters":21600,"station_id":"ce4bgv12rcd13ifvqcp0","pricing_plan_id":"cebpf4jnsgd1na2vs0mg"},{"bike_id":"25245ad1-bee3-407f-83e1-b7057fd74cc3","system_id":"levelo_inurba_marseille","lat":43.311722,"lon":5.387247,"is_reserved":false,"is_disabled":false,"rental_uris":{"android":"levelo://app?vid=25245ad1-bee3-407f-83e1-b7057fd74cc3","ios":"levelo://app?vid=25245ad1-bee3-407f-83e1-b7057fd74cc3"},"vehicle_type_id":"4","last_reported":1713388083,"current_range_meters":30400,"station_id":"ce4bgv12rcd13ifvqcp0","pricing_plan_id":"cebpf4jnsgd1na2vs0mg"},{"bike_id":"eb048834-5330-4cb5-872c-81ec68b930ba","system_id":"levelo_inurba_marseille","lat":43.311722,"lon":5.387247,"is_reserved":false,"is_disabled":false,"rental_uris":{"android":"levelo://app?vid=eb048834-5330-4cb5-872c-81ec68b930ba","ios":"levelo://app?vid=eb048834-5330-4cb5-872c-81ec68b930ba"},"vehicle_type_id":"4","last_reported":1713388083,"current_range_meters":14800,"station_id":"ce4bgv12rcd13ifvqcp0","pricing_plan_id":"cebpf4jnsgd1na2vs0mg"},{"bike_id":"80ea55d7-c610-4883-a8a9-1fc39ca82327","system_id":"levelo_inurba_marseille","lat":43.311722,"lon":5.387247,"is_reserved":false,"is_disabled":false,"rental_uris":{"android":"levelo://app?vid=80ea55d7-c610-4883-a8a9-1fc39ca82327","ios":"levelo://app?vid=80ea55d7-c610-4883-a8a9-1fc39ca82327"},"vehicle_type_id":"4","last_reported":1713388083,"current_range_meters":21200,"station_id":"ce4bgv12rcd13ifvqcp0","pricing_plan_id":"cebpf4jnsgd1na2vs0mg"},{"bike_id":"3de02f77-f3c0-476d-a4d4-fbecd456b2ad","system_id":"levelo_inurba_marseille","lat":43.311722,"lon":5.387247,"is_reserved":false,"is_disabled":false,"rental_uris":{"android":"levelo://app?vid=3de02f77-f3c0-476d-a4d4-fbecd456b2ad","ios":"levelo://app?vid=3de02f77-f3c0-476d-a4d4-fbecd456b2ad"},"vehicle_type_id":"4","last_reported":1713388083,"current_range_meters":0,"station_id":"ce4bgv12rcd13ifvqcp0","pricing_plan_id":"cebpf4jnsgd1na2vs0mg"},{"bike_id":"7d61ec06-9395-4362-b671-e7b8489f284d","system_id":"levelo_inurba_marseille","lat":43.297794,"lon":5.370888,"is_reserved":false,"is_disabled":false,"rental_uris":{"android":"levelo://app?vid=7d61ec06-9395-4362-b671-e7b8489f284d","ios":"levelo://app?vid=7d61ec06-9395-4362-b671-e7b8489f284d"},"vehicle_type_id":"4","last_reported":1713388083,"current_range_meters":24400,"station_id":"ce4bgop2rcd13ifvqc1g","pricing_plan_id":"cebpf4jnsgd1na2vs0mg"},{"bike_id":"be087829-a49d-47d1-82b5-5993f22d13ee","system_id":"levelo_inurba_marseille","lat":43.322872,"lon":5.382756,"is_reserved":false,"is_disabled":false,"rental_uris":{"android":"levelo://app?vid=be087829-a49d-47d1-82b5-5993f22d13ee","ios":"levelo://app?vid=be087829-a49d-47d1-82b5-5993f22d13ee"},"vehicle_type_id":"4","last_reported":1713388083,"current_range_meters":17600,"station_id":"ce4bhr12rcd13ifvqhqg","pricing_plan_id":"cebpf4jnsgd1na2vs0mg"},{"bike_id":"7d5fd475-d045-43ea-a449-bbf319400056","system_id":"levelo_inurba_marseille","lat":43.30212,"lon":5.38195,"is_reserved":false,"is_disabled":false,"rental_uris":{"android":"levelo://app?vid=7d5fd475-d045-43ea-a449-bbf319400056","ios":"levelo://app?vid=7d5fd475-d045-43ea-a449-bbf319400056"},"vehicle_type_id":"4","last_reported":1713388083,"current_range_meters":6400,"station_id":"","pricing_plan_id":"cebpf4jnsgd1na2vs0mg"},{"bike_id":"2a620900-9642-4580-86ac-ff21d5906f7a","system_id":"levelo_inurba_marseille","lat":43.322872,"lon":5.382756,"is_reserved":false,"is_disabled":false,"rental_uris":{"android":"levelo://app?vid=2a620900-9642-4580-86ac-ff21d5906f7a","ios":"levelo://app?vid=2a620900-9642-4580-86ac-ff21d5906f7a"},"vehicle_type_id":"4","last_reported":1713388083,"current_range_meters":11600,"station_id":"ce4bhr12rcd13ifvqhqg","pricing_plan_id":"cebpf4jnsgd1na2vs0mg"},{"bike_id":"273624cd-ceb0-4ac9-9ac5-f846ca8b3853","system_id":"levelo_inurba_marseille","lat":43.322872,"lon":5.382756,"is_reserved":false,"is_disabled":false,"rental_uris":{"android":"levelo://app?vid=273624cd-ceb0-4ac9-9ac5-f846ca8b3853","ios":"levelo://app?vid=273624cd-ceb0-4ac9-9ac5-f846ca8b3853"},"vehicle_type_id":"4","last_reported":1713388083,"current_range_meters":0,"station_id":"ce4bhr12rcd13ifvqhqg","pricing_plan_id":"cebpf4jnsgd1na2vs0mg"},{"bike_id":"3791d0fc-3fbc-4499-8da1-29f4627ac9c5","system_id":"levelo_inurba_marseille","lat":43.322872,"lon":5.382756,"is_reserved":false,"is_disabled":false,"rental_uris":{"android":"levelo://app?vid=3791d0fc-3fbc-4499-8da1-29f4627ac9c5","ios":"levelo://app?vid=3791d0fc-3fbc-4499-8da1-29f4627ac9c5"},"vehicle_type_id":"4","last_reported":1713388083,"current_range_meters":800,"station_id":"ce4bhr12rcd13ifvqhqg","pricing_plan_id":"cebpf4jnsgd1na2vs0mg"},{"bike_id":"e6ab72cf-f560-4717-91c1-42b63f3ee6c8","system_id":"levelo_inurba_marseille","lat":43.322872,"lon":5.382756,"is_reserved":false,"is_disabled":false,"rental_uris":{"android":"levelo://app?vid=e6ab72cf-f560-4717-91c1-42b63f3ee6c8","ios":"levelo://app?vid=e6ab72cf-f560-4717-91c1-42b63f3ee6c8"},"vehicle_type_id":"4","last_reported":1713388083,"current_range_meters":31200,"station_id":"ce4bhr12rcd13ifvqhqg","pricing_plan_id":"cebpf4jnsgd1na2vs0mg"},{"bike_id":"50c48fd1-1d17-430a-a7e2-4475109305e2","system_id":"levelo_inurba_marseille","lat":43.322872,"lon":5.382756,"is_reserved":false,"is_disabled":false,"rental_uris":{"android":"levelo://app?vid=50c48fd1-1d17-430a-a7e2-4475109305e2","ios":"levelo://app?vid=50c48fd1-1d17-430a-a7e2-4475109305e2"},"vehicle_type_id":"4","last_reported":1713388083,"current_range_meters":19600,"station_id":"ce4bhr12rcd13ifvqhqg","pricing_plan_id":"cebpf4jnsgd1na2vs0mg"},{"bike_id":"6c4d1a0b-97b3-4e86-87c5-6e727d67c919","system_id":"levelo_inurba_marseille","lat":43.322872,"lon":5.382756,"is_reserved":false,"is_disabled":false,"rental_uris":{"android":"levelo://app?vid=6c4d1a0b-97b3-4e86-87c5-6e727d67c919","ios":"levelo://app?vid=6c4d1a0b-97b3-4e86-87c5-6e727d67c919"},"vehicle_type_id":"4","last_reported":1713388083,"current_range_meters":31200,"station_id":"ce4bhr12rcd13ifvqhqg","pricing_plan_id":"cebpf4jnsgd1na2vs0mg"},{"bike_id":"5cbd8620-e35c-41c9-bc63-a8e24e363d9c","system_id":"levelo_inurba_marseille","lat":43.296485,"lon":5.36667,"is_reserved":false,"is_disabled":false,"rental_uris":{"android":"levelo://app?vid=5cbd8620-e35c-41c9-bc63-a8e24e363d9c","ios":"levelo://app?vid=5cbd8620-e35c-41c9-bc63-a8e24e363d9c"},"vehicle_type_id":"4","last_reported":1713388083,"current_range_meters":10800,"station_id":"","pricing_plan_id":"cebpf4jnsgd1na2vs0mg"},{"bike_id":"f67fe519-a40b-4686-be09-ab176fb8d42c","system_id":"levelo_inurba_marseille","lat":43.321453,"lon":5.38676,"is_reserved":false,"is_disabled":false,"rental_uris":{"android":"levelo://app?vid=f67fe519-a40b-4686-be09-ab176fb8d42c","ios":"levelo://app?vid=f67fe519-a40b-4686-be09-ab176fb8d42c"},"vehicle_type_id":"4","last_reported":1713388083,"current_range_meters":12400,"station_id":"","pricing_plan_id":"cebpf4jnsgd1na2vs0mg"},{"bike_id":"7b446caa-0b81-4144-8648-20489668bf82","system_id":"levelo_inurba_marseille","lat":43.279742,"lon":5.38744,"is_reserved":false,"is_disabled":false,"rental_uris":{"android":"levelo://app?vid=7b446caa-0b81-4144-8648-20489668bf82","ios":"levelo://app?vid=7b446caa-0b81-4144-8648-20489668bf82"},"vehicle_type_id":"4","last_reported":1713388083,"current_range_meters":23600,"station_id":"ce4bhg12rcd13ifvqf80","pricing_plan_id":"cebpf4jnsgd1na2vs0mg"},{"bike_id":"170ddbbd-e421-4b33-9c8e-aef15fc113c8","system_id":"levelo_inurba_marseille","lat":43.287154,"lon":5.399979,"is_reserved":false,"is_disabled":false,"rental_uris":{"android":"levelo://app?vid=170ddbbd-e421-4b33-9c8e-aef15fc113c8","ios":"levelo://app?vid=170ddbbd-e421-4b33-9c8e-aef15fc113c8"},"vehicle_type_id":"4","last_reported":1713388083,"current_range_meters":400,"station_id":"ce4bho92rcd13ifvqh3g","pricing_plan_id":"cebpf4jnsgd1na2vs0mg"},{"bike_id":"bfdeaaba-fe35-46de-b925-88b134a23a26","system_id":"levelo_inurba_marseille","lat":43.29882,"lon":5.381136,"is_reserved":false,"is_disabled":false,"rental_uris":{"android":"levelo://app?vid=bfdeaaba-fe35-46de-b925-88b134a23a26","ios":"levelo://app?vid=bfdeaaba-fe35-46de-b925-88b134a23a26"},"vehicle_type_id":"4","last_reported":1713388083,"current_range_meters":20000,"station_id":"ce4bgj12rcd13ifvqbc0","pricing_plan_id":"cebpf4jnsgd1na2vs0mg"},{"bike_id":"0d91e0b9-89a2-4c49-8e61-b7d378399a95","system_id":"levelo_inurba_marseille","lat":43.309589,"lon":5.390258,"is_reserved":false,"is_disabled":false,"rental_uris":{"android":"levelo://app?vid=0d91e0b9-89a2-4c49-8e61-b7d378399a95","ios":"levelo://app?vid=0d91e0b9-89a2-4c49-8e61-b7d378399a95"},"vehicle_type_id":"4","last_reported":1713388083,"current_range_meters":9200,"station_id":"ce4bgup2rcd13ifvqco0","pricing_plan_id":"cebpf4jnsgd1na2vs0mg"},{"bike_id":"e54f94e2-93db-45a9-b19c-080c7d1aac30","system_id":"levelo_inurba_marseille","lat":43.317557,"lon":5.390173,"is_reserved":false,"is_disabled":false,"rental_uris":{"android":"levelo://app?vid=e54f94e2-93db-45a9-b19c-080c7d1aac30","ios":"levelo://app?vid=e54f94e2-93db-45a9-b19c-080c7d1aac30"},"vehicle_type_id":"4","last_reported":1713388083,"current_range_meters":1200,"station_id":"ce4bhqp2rcd13ifvqhng","pricing_plan_id":"cebpf4jnsgd1na2vs0mg"},{"bike_id":"0ad9583c-f24b-4141-b175-4061c995c09c","system_id":"levelo_inurba_marseille","lat":43.317557,"lon":5.390173,"is_reserved":false,"is_disabled":false,"rental_uris":{"android":"levelo://app?vid=0ad9583c-f24b-4141-b175-4061c995c09c","ios":"levelo://app?vid=0ad9583c-f24b-4141-b175-4061c995c09c"},"vehicle_type_id":"4","last_reported":1713388083,"current_range_meters":24000,"station_id":"ce4bhqp2rcd13ifvqhng","pricing_plan_id":"cebpf4jnsgd1na2vs0mg"},{"bike_id":"e6245ced-6502-4282-bc2f-4c0ec54f7906","system_id":"levelo_inurba_marseille","lat":43.317557,"lon":5.390173,"is_reserved":false,"is_disabled":false,"rental_uris":{"android":"levelo://app?vid=e6245ced-6502-4282-bc2f-4c0ec54f7906","ios":"levelo://app?vid=e6245ced-6502-4282-bc2f-4c0ec54f7906"},"vehicle_type_id":"4","last_reported":1713388083,"current_range_meters":30400,"station_id":"ce4bhqp2rcd13ifvqhng","pricing_plan_id":"cebpf4jnsgd1na2vs0mg"},{"bike_id":"899fb601-44ca-4449-a205-2cfbdf408918","system_id":"levelo_inurba_marseille","lat":43.298768,"lon":5.43643,"is_reserved":false,"is_disabled":false,"rental_uris":{"android":"levelo://app?vid=899fb601-44ca-4449-a205-2cfbdf408918","ios":"levelo://app?vid=899fb601-44ca-4449-a205-2cfbdf408918"},"vehicle_type_id":"4","last_reported":1713388083,"current_range_meters":6000,"station_id":"ce4bhpp2rcd13ifvqhfg","pricing_plan_id":"cebpf4jnsgd1na2vs0mg"},{"bike_id":"4a1b6299-b899-41e6-8c81-fa154c18c529","system_id":"levelo_inurba_marseille","lat":43.304274,"lon":5.388873,"is_reserved":false,"is_disabled":false,"rental_uris":{"android":"levelo://app?vid=4a1b6299-b899-41e6-8c81-fa154c18c529","ios":"levelo://app?vid=4a1b6299-b899-41e6-8c81-fa154c18c529"},"vehicle_type_id":"4","last_reported":1713388083,"current_range_meters":0,"station_id":"ce4bgk12rcd13ifvqbi0","pricing_plan_id":"cebpf4jnsgd1na2vs0mg"},{"bike_id":"1609b739-13c5-407d-8c5d-4931ed2016a4","system_id":"levelo_inurba_marseille","lat":43.304274,"lon":5.388873,"is_reserved":false,"is_disabled":false,"rental_uris":{"android":"levelo://app?vid=1609b739-13c5-407d-8c5d-4931ed2016a4","ios":"levelo://app?vid=1609b739-13c5-407d-8c5d-4931ed2016a4"},"vehicle_type_id":"4","last_reported":1713388083,"current_range_meters":0,"station_id":"ce4bgk12rcd13ifvqbi0","pricing_plan_id":"cebpf4jnsgd1na2vs0mg"},{"bike_id":"c14fbef5-3575-4829-9d17-0a3d7f85eb41","system_id":"levelo_inurba_marseille","lat":43.304274,"lon":5.388873,"is_reserved":false,"is_disabled":false,"rental_uris":{"android":"levelo://app?vid=c14fbef5-3575-4829-9d17-0a3d7f85eb41","ios":"levelo://app?vid=c14fbef5-3575-4829-9d17-0a3d7f85eb41"},"vehicle_type_id":"4","last_reported":1713388083,"current_range_meters":24000,"station_id":"ce4bgk12rcd13ifvqbi0","pricing_plan_id":"cebpf4jnsgd1na2vs0mg"},{"bike_id":"d410cfa7-a5de-4b2d-8c02-4e9c77bb2e3d","system_id":"levelo_inurba_marseille","lat":43.304278,"lon":5.388868,"is_reserved":false,"is_disabled":false,"rental_uris":{"android":"levelo://app?vid=d410cfa7-a5de-4b2d-8c02-4e9c77bb2e3d","ios":"levelo://app?vid=d410cfa7-a5de-4b2d-8c02-4e9c77bb2e3d"},"vehicle_type_id":"4","last_reported":1713388083,"current_range_meters":29200,"station_id":"ce4bgk12rcd13ifvqbi0","pricing_plan_id":"cebpf4jnsgd1na2vs0mg"},{"bike_id":"4eb574d4-43ac-46fe-ac30-8c2643c65202","system_id":"levelo_inurba_marseille","lat":43.304274,"lon":5.388873,"is_reserved":false,"is_disabled":false,"rental_uris":{"android":"levelo://app?vid=4eb574d4-43ac-46fe-ac30-8c2643c65202","ios":"levelo://app?vid=4eb574d4-43ac-46fe-ac30-8c2643c65202"},"vehicle_type_id":"4","last_reported":1713388083,"current_range_meters":31200,"station_id":"ce4bgk12rcd13ifvqbi0","pricing_plan_id":"cebpf4jnsgd1na2vs0mg"},{"bike_id":"0b4cd589-dce6-41ca-a87e-fb288045cef7","system_id":"levelo_inurba_marseille","lat":43.295713,"lon":5.399639,"is_reserved":false,"is_disabled":false,"rental_uris":{"android":"levelo://app?vid=0b4cd589-dce6-41ca-a87e-fb288045cef7","ios":"levelo://app?vid=0b4cd589-dce6-41ca-a87e-fb288045cef7"},"vehicle_type_id":"4","last_reported":1713388083,"current_range_meters":16400,"station_id":"ce4bh312rcd13ifvqdj0","pricing_plan_id":"cebpf4jnsgd1na2vs0mg"},{"bike_id":"a0df9dd1-81ab-441d-8574-6e2f372ea756","system_id":"levelo_inurba_marseille","lat":43.303002,"lon":5.392142,"is_reserved":false,"is_disabled":false,"rental_uris":{"android":"levelo://app?vid=a0df9dd1-81ab-441d-8574-6e2f372ea756","ios":"levelo://app?vid=a0df9dd1-81ab-441d-8574-6e2f372ea756"},"vehicle_type_id":"4","last_reported":1713388083,"current_range_meters":5600,"station_id":"ce4bgkh2rcd13ifvqbk0","pricing_plan_id":"cebpf4jnsgd1na2vs0mg"},{"bike_id":"5a11c1a0-b0a1-4c79-a6be-adec026ea403","system_id":"levelo_inurba_marseille","lat":43.304274,"lon":5.388873,"is_reserved":false,"is_disabled":false,"rental_uris":{"android":"levelo://app?vid=5a11c1a0-b0a1-4c79-a6be-adec026ea403","ios":"levelo://app?vid=5a11c1a0-b0a1-4c79-a6be-adec026ea403"},"vehicle_type_id":"4","last_reported":1713388083,"current_range_meters":4800,"station_id":"ce4bgk12rcd13ifvqbi0","pricing_plan_id":"cebpf4jnsgd1na2vs0mg"},{"bike_id":"cf462bad-200b-4d44-b09b-4ccde3ea162e","system_id":"levelo_inurba_marseille","lat":43.304274,"lon":5.388873,"is_reserved":false,"is_disabled":false,"rental_uris":{"android":"levelo://app?vid=cf462bad-200b-4d44-b09b-4ccde3ea162e","ios":"levelo://app?vid=cf462bad-200b-4d44-b09b-4ccde3ea162e"},"vehicle_type_id":"4","last_reported":1713388083,"current_range_meters":24000,"station_id":"ce4bgk12rcd13ifvqbi0","pricing_plan_id":"cebpf4jnsgd1na2vs0mg"},{"bike_id":"f7837371-7930-4090-af57-0f8eb7df0223","system_id":"levelo_inurba_marseille","lat":43.32367,"lon":5.388836,"is_reserved":false,"is_disabled":false,"rental_uris":{"android":"levelo://app?vid=f7837371-7930-4090-af57-0f8eb7df0223","ios":"levelo://app?vid=f7837371-7930-4090-af57-0f8eb7df0223"},"vehicle_type_id":"4","last_reported":1713388083,"current_range_meters":28800,"station_id":"ce4bhqp2rcd13ifvqhog","pricing_plan_id":"cebpf4jnsgd1na2vs0mg"},{"bike_id":"2507d039-283c-4515-bced-f26a28c54abf","system_id":"levelo_inurba_marseille","lat":43.32367,"lon":5.388836,"is_reserved":false,"is_disabled":false,"rental_uris":{"android":"levelo://app?vid=2507d039-283c-4515-bced-f26a28c54abf","ios":"levelo://app?vid=2507d039-283c-4515-bced-f26a28c54abf"},"vehicle_type_id":"4","last_reported":1713388083,"current_range_meters":22400,"station_id":"ce4bhqp2rcd13ifvqhog","pricing_plan_id":"cebpf4jnsgd1na2vs0mg"},{"bike_id":"567908ff-af7a-470f-a67e-14cb4efdd25b","system_id":"levelo_inurba_marseille","lat":43.32367,"lon":5.388836,"is_reserved":false,"is_disabled":false,"rental_uris":{"android":"levelo://app?vid=567908ff-af7a-470f-a67e-14cb4efdd25b","ios":"levelo://app?vid=567908ff-af7a-470f-a67e-14cb4efdd25b"},"vehicle_type_id":"4","last_reported":1713388083,"current_range_meters":0,"station_id":"ce4bhqp2rcd13ifvqhog","pricing_plan_id":"cebpf4jnsgd1na2vs0mg"},{"bike_id":"5c49d390-3d20-4baf-a763-62af3ad53292","system_id":"levelo_inurba_marseille","lat":43.32368,"lon":5.38886,"is_reserved":false,"is_disabled":false,"rental_uris":{"android":"levelo://app?vid=5c49d390-3d20-4baf-a763-62af3ad53292","ios":"levelo://app?vid=5c49d390-3d20-4baf-a763-62af3ad53292"},"vehicle_type_id":"4","last_reported":1713388083,"current_range_meters":10400,"station_id":"ce4bhqp2rcd13ifvqhog","pricing_plan_id":"cebpf4jnsgd1na2vs0mg"},{"bike_id":"ee3f6774-dd2d-4629-83b9-e1175c492c7c","system_id":"levelo_inurba_marseille","lat":43.32367,"lon":5.388836,"is_reserved":false,"is_disabled":false,"rental_uris":{"android":"levelo://app?vid=ee3f6774-dd2d-4629-83b9-e1175c492c7c","ios":"levelo://app?vid=ee3f6774-dd2d-4629-83b9-e1175c492c7c"},"vehicle_type_id":"4","last_reported":1713388083,"current_range_meters":8000,"station_id":"ce4bhqp2rcd13ifvqhog","pricing_plan_id":"cebpf4jnsgd1na2vs0mg"},{"bike_id":"47cea0d7-d32f-4905-99ee-66d9522440d5","system_id":"levelo_inurba_marseille","lat":43.32367,"lon":5.388836,"is_reserved":false,"is_disabled":false,"rental_uris":{"android":"levelo://app?vid=47cea0d7-d32f-4905-99ee-66d9522440d5","ios":"levelo://app?vid=47cea0d7-d32f-4905-99ee-66d9522440d5"},"vehicle_type_id":"4","last_reported":1713388083,"current_range_meters":14800,"station_id":"ce4bhqp2rcd13ifvqhog","pricing_plan_id":"cebpf4jnsgd1na2vs0mg"},{"bike_id":"2fd18721-eafa-4b9b-acaf-bc12db32e2b5","system_id":"levelo_inurba_marseille","lat":43.29602,"lon":5.381084,"is_reserved":false,"is_disabled":false,"rental_uris":{"android":"levelo://app?vid=2fd18721-eafa-4b9b-acaf-bc12db32e2b5","ios":"levelo://app?vid=2fd18721-eafa-4b9b-acaf-bc12db32e2b5"},"vehicle_type_id":"4","last_reported":1713388083,"current_range_meters":4000,"station_id":"ce4bgl12rcd13ifvqbo0","pricing_plan_id":"cebpf4jnsgd1na2vs0mg"},{"bike_id":"1b178693-69a6-4cd4-a232-fd6b66657980","system_id":"levelo_inurba_marseille","lat":43.293249,"lon":5.371578,"is_reserved":false,"is_disabled":false,"rental_uris":{"android":"levelo://app?vid=1b178693-69a6-4cd4-a232-fd6b66657980","ios":"levelo://app?vid=1b178693-69a6-4cd4-a232-fd6b66657980"},"vehicle_type_id":"4","last_reported":1713388083,"current_range_meters":8400,"station_id":"ce4bgh92rcd13ifvqb40","pricing_plan_id":"cebpf4jnsgd1na2vs0mg"},{"bike_id":"c5fbdaae-981b-488a-9b2c-824dcb8c69f1","system_id":"levelo_inurba_marseille","lat":43.29309,"lon":5.37176,"is_reserved":false,"is_disabled":false,"rental_uris":{"android":"levelo://app?vid=c5fbdaae-981b-488a-9b2c-824dcb8c69f1","ios":"levelo://app?vid=c5fbdaae-981b-488a-9b2c-824dcb8c69f1"},"vehicle_type_id":"4","last_reported":1713388083,"current_range_meters":3200,"station_id":"ce4bgh92rcd13ifvqb40","pricing_plan_id":"cebpf4jnsgd1na2vs0mg"},{"bike_id":"672391c7-d7ed-4ba6-970c-25129cc93e2c","system_id":"levelo_inurba_marseille","lat":43.29305,"lon":5.37171,"is_reserved":false,"is_disabled":false,"rental_uris":{"android":"levelo://app?vid=672391c7-d7ed-4ba6-970c-25129cc93e2c","ios":"levelo://app?vid=672391c7-d7ed-4ba6-970c-25129cc93e2c"},"vehicle_type_id":"4","last_reported":1713388083,"current_range_meters":4400,"station_id":"ce4bgh92rcd13ifvqb40","pricing_plan_id":"cebpf4jnsgd1na2vs0mg"},{"bike_id":"87a82499-311d-4fad-91e8-0c2d02d1443d","system_id":"levelo_inurba_marseille","lat":43.302992,"lon":5.392136,"is_reserved":false,"is_disabled":false,"rental_uris":{"android":"levelo://app?vid=87a82499-311d-4fad-91e8-0c2d02d1443d","ios":"levelo://app?vid=87a82499-311d-4fad-91e8-0c2d02d1443d"},"vehicle_type_id":"4","last_reported":1713388083,"current_range_meters":7600,"station_id":"ce4bgkh2rcd13ifvqbk0","pricing_plan_id":"cebpf4jnsgd1na2vs0mg"},{"bike_id":"a82429c4-d956-4d13-b7e4-c143bc5360d0","system_id":"levelo_inurba_marseille","lat":43.29367,"lon":5.37865,"is_reserved":false,"is_disabled":false,"rental_uris":{"android":"levelo://app?vid=a82429c4-d956-4d13-b7e4-c143bc5360d0","ios":"levelo://app?vid=a82429c4-d956-4d13-b7e4-c143bc5360d0"},"vehicle_type_id":"4","last_reported":1713388083,"current_range_meters":28400,"station_id":"ce4bgjh2rcd13ifvqbf0","pricing_plan_id":"cebpf4jnsgd1na2vs0mg"},{"bike_id":"0f388a68-1825-4022-a9d8-3d258f15019a","system_id":"levelo_inurba_marseille","lat":43.300852,"lon":5.390859,"is_reserved":false,"is_disabled":false,"rental_uris":{"android":"levelo://app?vid=0f388a68-1825-4022-a9d8-3d258f15019a","ios":"levelo://app?vid=0f388a68-1825-4022-a9d8-3d258f15019a"},"vehicle_type_id":"4","last_reported":1713388083,"current_range_meters":16400,"station_id":"ce4bh192rcd13ifvqdb0","pricing_plan_id":"cebpf4jnsgd1na2vs0mg"},{"bike_id":"2eb1fd04-97b6-481a-a8ed-ea4b0ba02e53","system_id":"levelo_inurba_marseille","lat":43.300852,"lon":5.390859,"is_reserved":false,"is_disabled":false,"rental_uris":{"android":"levelo://app?vid=2eb1fd04-97b6-481a-a8ed-ea4b0ba02e53","ios":"levelo://app?vid=2eb1fd04-97b6-481a-a8ed-ea4b0ba02e53"},"vehicle_type_id":"4","last_reported":1713388083,"current_range_meters":2400,"station_id":"ce4bh192rcd13ifvqdb0","pricing_plan_id":"cebpf4jnsgd1na2vs0mg"},{"bike_id":"e971208d-ae64-41a3-bfdb-2860c96e4a0b","system_id":"levelo_inurba_marseille","lat":43.30085,"lon":5.390856,"is_reserved":false,"is_disabled":false,"rental_uris":{"android":"levelo://app?vid=e971208d-ae64-41a3-bfdb-2860c96e4a0b","ios":"levelo://app?vid=e971208d-ae64-41a3-bfdb-2860c96e4a0b"},"vehicle_type_id":"4","last_reported":1713388083,"current_range_meters":28000,"station_id":"ce4bh192rcd13ifvqdb0","pricing_plan_id":"cebpf4jnsgd1na2vs0mg"},{"bike_id":"2349e14a-b3b0-48f7-9326-3774a64bd127","system_id":"levelo_inurba_marseille","lat":43.291675,"lon":5.371583,"is_reserved":false,"is_disabled":false,"rental_uris":{"android":"levelo://app?vid=2349e14a-b3b0-48f7-9326-3774a64bd127","ios":"levelo://app?vid=2349e14a-b3b0-48f7-9326-3774a64bd127"},"vehicle_type_id":"4","last_reported":1713388083,"current_range_meters":5200,"station_id":"ce4bha92rcd13ifvqeh0","pricing_plan_id":"cebpf4jnsgd1na2vs0mg"},{"bike_id":"37625a74-2145-4b01-a6dd-1a0fdcdc0d0a","system_id":"levelo_inurba_marseille","lat":43.291675,"lon":5.371583,"is_reserved":false,"is_disabled":false,"rental_uris":{"android":"levelo://app?vid=37625a74-2145-4b01-a6dd-1a0fdcdc0d0a","ios":"levelo://app?vid=37625a74-2145-4b01-a6dd-1a0fdcdc0d0a"},"vehicle_type_id":"4","last_reported":1713388083,"current_range_meters":23600,"station_id":"ce4bha92rcd13ifvqeh0","pricing_plan_id":"cebpf4jnsgd1na2vs0mg"},{"bike_id":"c47eeb31-5b5d-4015-8c00-505ab36c993c","system_id":"levelo_inurba_marseille","lat":43.291675,"lon":5.371583,"is_reserved":false,"is_disabled":false,"rental_uris":{"android":"levelo://app?vid=c47eeb31-5b5d-4015-8c00-505ab36c993c","ios":"levelo://app?vid=c47eeb31-5b5d-4015-8c00-505ab36c993c"},"vehicle_type_id":"4","last_reported":1713388083,"current_range_meters":23600,"station_id":"ce4bha92rcd13ifvqeh0","pricing_plan_id":"cebpf4jnsgd1na2vs0mg"},{"bike_id":"fb08ffd4-954e-404c-9d80-b5af432a6dca","system_id":"levelo_inurba_marseille","lat":43.291671,"lon":5.371575,"is_reserved":false,"is_disabled":false,"rental_uris":{"android":"levelo://app?vid=fb08ffd4-954e-404c-9d80-b5af432a6dca","ios":"levelo://app?vid=fb08ffd4-954e-404c-9d80-b5af432a6dca"},"vehicle_type_id":"4","last_reported":1713388083,"current_range_meters":10400,"station_id":"ce4bha92rcd13ifvqeh0","pricing_plan_id":"cebpf4jnsgd1na2vs0mg"},{"bike_id":"dcc6eb97-50dd-45ee-aa7a-68fe0925e478","system_id":"levelo_inurba_marseille","lat":43.29876,"lon":5.38903,"is_reserved":false,"is_disabled":false,"rental_uris":{"android":"levelo://app?vid=dcc6eb97-50dd-45ee-aa7a-68fe0925e478","ios":"levelo://app?vid=dcc6eb97-50dd-45ee-aa7a-68fe0925e478"},"vehicle_type_id":"4","last_reported":1713388083,"current_range_meters":23600,"station_id":"ce4bh392rcd13ifvqdl0","pricing_plan_id":"cebpf4jnsgd1na2vs0mg"},{"bike_id":"0510c6d3-d41d-4a0a-89e0-dd609c3d0217","system_id":"levelo_inurba_marseille","lat":43.298764,"lon":5.388973,"is_reserved":false,"is_disabled":false,"rental_uris":{"android":"levelo://app?vid=0510c6d3-d41d-4a0a-89e0-dd609c3d0217","ios":"levelo://app?vid=0510c6d3-d41d-4a0a-89e0-dd609c3d0217"},"vehicle_type_id":"4","last_reported":1713388083,"current_range_meters":7200,"station_id":"ce4bh392rcd13ifvqdl0","pricing_plan_id":"cebpf4jnsgd1na2vs0mg"},{"bike_id":"02869303-044f-416e-b123-85611ac2c876","system_id":"levelo_inurba_marseille","lat":43.291675,"lon":5.371583,"is_reserved":false,"is_disabled":false,"rental_uris":{"android":"levelo://app?vid=02869303-044f-416e-b123-85611ac2c876","ios":"levelo://app?vid=02869303-044f-416e-b123-85611ac2c876"},"vehicle_type_id":"4","last_reported":1713388083,"current_range_meters":0,"station_id":"ce4bha92rcd13ifvqeh0","pricing_plan_id":"cebpf4jnsgd1na2vs0mg"},{"bike_id":"e517c8fd-e3ce-4a38-98d7-32838f03d9d8","system_id":"levelo_inurba_marseille","lat":43.298764,"lon":5.388973,"is_reserved":false,"is_disabled":false,"rental_uris":{"android":"levelo://app?vid=e517c8fd-e3ce-4a38-98d7-32838f03d9d8","ios":"levelo://app?vid=e517c8fd-e3ce-4a38-98d7-32838f03d9d8"},"vehicle_type_id":"4","last_reported":1713388083,"current_range_meters":19600,"station_id":"ce4bh392rcd13ifvqdl0","pricing_plan_id":"cebpf4jnsgd1na2vs0mg"},{"bike_id":"67f10ab0-1a4a-484f-bf45-f9f31f7ef193","system_id":"levelo_inurba_marseille","lat":43.291653,"lon":5.371465,"is_reserved":false,"is_disabled":false,"rental_uris":{"android":"levelo://app?vid=67f10ab0-1a4a-484f-bf45-f9f31f7ef193","ios":"levelo://app?vid=67f10ab0-1a4a-484f-bf45-f9f31f7ef193"},"vehicle_type_id":"4","last_reported":1713388083,"current_range_meters":30400,"station_id":"ce4bha92rcd13ifvqeh0","pricing_plan_id":"cebpf4jnsgd1na2vs0mg"},{"bike_id":"48f6aced-b005-4c95-9aaf-1d36878d1c01","system_id":"levelo_inurba_marseille","lat":43.298764,"lon":5.388973,"is_reserved":false,"is_disabled":false,"rental_uris":{"android":"levelo://app?vid=48f6aced-b005-4c95-9aaf-1d36878d1c01","ios":"levelo://app?vid=48f6aced-b005-4c95-9aaf-1d36878d1c01"},"vehicle_type_id":"4","last_reported":1713388083,"current_range_meters":18400,"station_id":"ce4bh392rcd13ifvqdl0","pricing_plan_id":"cebpf4jnsgd1na2vs0mg"},{"bike_id":"556aaa1a-22ec-4b98-b2fb-e6e9ca966684","system_id":"levelo_inurba_marseille","lat":43.298764,"lon":5.388973,"is_reserved":false,"is_disabled":false,"rental_uris":{"android":"levelo://app?vid=556aaa1a-22ec-4b98-b2fb-e6e9ca966684","ios":"levelo://app?vid=556aaa1a-22ec-4b98-b2fb-e6e9ca966684"},"vehicle_type_id":"4","last_reported":1713388083,"current_range_meters":19200,"station_id":"ce4bh392rcd13ifvqdl0","pricing_plan_id":"cebpf4jnsgd1na2vs0mg"},{"bike_id":"f50aafa2-0063-4da8-9633-288683c5aca6","system_id":"levelo_inurba_marseille","lat":43.298764,"lon":5.388973,"is_reserved":false,"is_disabled":false,"rental_uris":{"android":"levelo://app?vid=f50aafa2-0063-4da8-9633-288683c5aca6","ios":"levelo://app?vid=f50aafa2-0063-4da8-9633-288683c5aca6"},"vehicle_type_id":"4","last_reported":1713388083,"current_range_meters":24400,"station_id":"ce4bh392rcd13ifvqdl0","pricing_plan_id":"cebpf4jnsgd1na2vs0mg"},{"bike_id":"01f09620-eaec-4b53-b082-f8b294445808","system_id":"levelo_inurba_marseille","lat":43.292005,"lon":5.357875,"is_reserved":false,"is_disabled":false,"rental_uris":{"android":"levelo://app?vid=01f09620-eaec-4b53-b082-f8b294445808","ios":"levelo://app?vid=01f09620-eaec-4b53-b082-f8b294445808"},"vehicle_type_id":"4","last_reported":1713388083,"current_range_meters":23600,"station_id":"ce4bhb12rcd13ifvqel0","pricing_plan_id":"cebpf4jnsgd1na2vs0mg"},{"bike_id":"cd5c3be6-2076-4c0a-8ecb-3e1acd9ea4c6","system_id":"levelo_inurba_marseille","lat":43.292005,"lon":5.357875,"is_reserved":false,"is_disabled":false,"rental_uris":{"android":"levelo://app?vid=cd5c3be6-2076-4c0a-8ecb-3e1acd9ea4c6","ios":"levelo://app?vid=cd5c3be6-2076-4c0a-8ecb-3e1acd9ea4c6"},"vehicle_type_id":"4","last_reported":1713388083,"current_range_meters":20000,"station_id":"ce4bhb12rcd13ifvqel0","pricing_plan_id":"cebpf4jnsgd1na2vs0mg"},{"bike_id":"268a4c5a-7ac6-48b5-8c49-8f3d9014bbb2","system_id":"levelo_inurba_marseille","lat":43.309047,"lon":5.396551,"is_reserved":false,"is_disabled":false,"rental_uris":{"android":"levelo://app?vid=268a4c5a-7ac6-48b5-8c49-8f3d9014bbb2","ios":"levelo://app?vid=268a4c5a-7ac6-48b5-8c49-8f3d9014bbb2"},"vehicle_type_id":"4","last_reported":1713388083,"current_range_meters":31200,"station_id":"ce4bh012rcd13ifvqcv0","pricing_plan_id":"cebpf4jnsgd1na2vs0mg"},{"bike_id":"4b9bf3d7-1ecd-454c-a1b1-0fcbddc5fd8e","system_id":"levelo_inurba_marseille","lat":43.313291,"lon":5.396838,"is_reserved":false,"is_disabled":false,"rental_uris":{"android":"levelo://app?vid=4b9bf3d7-1ecd-454c-a1b1-0fcbddc5fd8e","ios":"levelo://app?vid=4b9bf3d7-1ecd-454c-a1b1-0fcbddc5fd8e"},"vehicle_type_id":"4","last_reported":1713388083,"current_range_meters":6000,"station_id":"ce4bgvp2rcd13ifvqcu0","pricing_plan_id":"cebpf4jnsgd1na2vs0mg"},{"bike_id":"3964d1cc-c736-40a1-97dd-7344ddf29ac3","system_id":"levelo_inurba_marseille","lat":43.309047,"lon":5.396551,"is_reserved":false,"is_disabled":false,"rental_uris":{"android":"levelo://app?vid=3964d1cc-c736-40a1-97dd-7344ddf29ac3","ios":"levelo://app?vid=3964d1cc-c736-40a1-97dd-7344ddf29ac3"},"vehicle_type_id":"4","last_reported":1713388083,"current_range_meters":10800,"station_id":"ce4bh012rcd13ifvqcv0","pricing_plan_id":"cebpf4jnsgd1na2vs0mg"},{"bike_id":"403c3eb4-f29e-458b-aa8b-0bcd36f03df8","system_id":"levelo_inurba_marseille","lat":43.309038,"lon":5.396546,"is_reserved":false,"is_disabled":false,"rental_uris":{"android":"levelo://app?vid=403c3eb4-f29e-458b-aa8b-0bcd36f03df8","ios":"levelo://app?vid=403c3eb4-f29e-458b-aa8b-0bcd36f03df8"},"vehicle_type_id":"4","last_reported":1713388083,"current_range_meters":14800,"station_id":"ce4bh012rcd13ifvqcv0","pricing_plan_id":"cebpf4jnsgd1na2vs0mg"},{"bike_id":"802b576a-8419-404c-a30c-ac5216bf02fe","system_id":"levelo_inurba_marseille","lat":43.309038,"lon":5.396546,"is_reserved":false,"is_disabled":false,"rental_uris":{"android":"levelo://app?vid=802b576a-8419-404c-a30c-ac5216bf02fe","ios":"levelo://app?vid=802b576a-8419-404c-a30c-ac5216bf02fe"},"vehicle_type_id":"4","last_reported":1713388083,"current_range_meters":14800,"station_id":"ce4bh012rcd13ifvqcv0","pricing_plan_id":"cebpf4jnsgd1na2vs0mg"},{"bike_id":"819d184c-cd29-4b3d-8040-6f6e9f93ab00","system_id":"levelo_inurba_marseille","lat":43.313291,"lon":5.396838,"is_reserved":false,"is_disabled":false,"rental_uris":{"android":"levelo://app?vid=819d184c-cd29-4b3d-8040-6f6e9f93ab00","ios":"levelo://app?vid=819d184c-cd29-4b3d-8040-6f6e9f93ab00"},"vehicle_type_id":"4","last_reported":1713388083,"current_range_meters":2400,"station_id":"ce4bgvp2rcd13ifvqcu0","pricing_plan_id":"cebpf4jnsgd1na2vs0mg"},{"bike_id":"9fa474a5-81bf-4bb5-803b-50c696430964","system_id":"levelo_inurba_marseille","lat":43.309038,"lon":5.396546,"is_reserved":false,"is_disabled":false,"rental_uris":{"android":"levelo://app?vid=9fa474a5-81bf-4bb5-803b-50c696430964","ios":"levelo://app?vid=9fa474a5-81bf-4bb5-803b-50c696430964"},"vehicle_type_id":"4","last_reported":1713388083,"current_range_meters":12400,"station_id":"ce4bh012rcd13ifvqcv0","pricing_plan_id":"cebpf4jnsgd1na2vs0mg"},{"bike_id":"57e2721c-d1a6-4596-9f5e-aa32afa21f10","system_id":"levelo_inurba_marseille","lat":43.309038,"lon":5.396546,"is_reserved":false,"is_disabled":false,"rental_uris":{"android":"levelo://app?vid=57e2721c-d1a6-4596-9f5e-aa32afa21f10","ios":"levelo://app?vid=57e2721c-d1a6-4596-9f5e-aa32afa21f10"},"vehicle_type_id":"4","last_reported":1713388083,"current_range_meters":13200,"station_id":"ce4bh012rcd13ifvqcv0","pricing_plan_id":"cebpf4jnsgd1na2vs0mg"},{"bike_id":"60e64a94-26b1-477b-ac63-c81beb040e12","system_id":"levelo_inurba_marseille","lat":43.313291,"lon":5.396838,"is_reserved":false,"is_disabled":false,"rental_uris":{"android":"levelo://app?vid=60e64a94-26b1-477b-ac63-c81beb040e12","ios":"levelo://app?vid=60e64a94-26b1-477b-ac63-c81beb040e12"},"vehicle_type_id":"4","last_reported":1713388083,"current_range_meters":21600,"station_id":"ce4bgvp2rcd13ifvqcu0","pricing_plan_id":"cebpf4jnsgd1na2vs0mg"},{"bike_id":"ccd5edea-581f-4ddf-86be-84d4c168e1be","system_id":"levelo_inurba_marseille","lat":43.309038,"lon":5.396546,"is_reserved":false,"is_disabled":false,"rental_uris":{"android":"levelo://app?vid=ccd5edea-581f-4ddf-86be-84d4c168e1be","ios":"levelo://app?vid=ccd5edea-581f-4ddf-86be-84d4c168e1be"},"vehicle_type_id":"4","last_reported":1713388083,"current_range_meters":17200,"station_id":"ce4bh012rcd13ifvqcv0","pricing_plan_id":"cebpf4jnsgd1na2vs0mg"},{"bike_id":"f0d35847-9d5d-44d1-8728-a7b8550e0eaa","system_id":"levelo_inurba_marseille","lat":43.309047,"lon":5.396551,"is_reserved":false,"is_disabled":false,"rental_uris":{"android":"levelo://app?vid=f0d35847-9d5d-44d1-8728-a7b8550e0eaa","ios":"levelo://app?vid=f0d35847-9d5d-44d1-8728-a7b8550e0eaa"},"vehicle_type_id":"4","last_reported":1713388083,"current_range_meters":20800,"station_id":"ce4bh012rcd13ifvqcv0","pricing_plan_id":"cebpf4jnsgd1na2vs0mg"},{"bike_id":"a1c1a92d-82a8-458a-8b25-f5a502544865","system_id":"levelo_inurba_marseille","lat":43.309038,"lon":5.396546,"is_reserved":false,"is_disabled":false,"rental_uris":{"android":"levelo://app?vid=a1c1a92d-82a8-458a-8b25-f5a502544865","ios":"levelo://app?vid=a1c1a92d-82a8-458a-8b25-f5a502544865"},"vehicle_type_id":"4","last_reported":1713388083,"current_range_meters":7200,"station_id":"ce4bh012rcd13ifvqcv0","pricing_plan_id":"cebpf4jnsgd1na2vs0mg"},{"bike_id":"facdf649-88e1-435b-9784-e19130e99b37","system_id":"levelo_inurba_marseille","lat":43.313291,"lon":5.396838,"is_reserved":false,"is_disabled":false,"rental_uris":{"android":"levelo://app?vid=facdf649-88e1-435b-9784-e19130e99b37","ios":"levelo://app?vid=facdf649-88e1-435b-9784-e19130e99b37"},"vehicle_type_id":"4","last_reported":1713388083,"current_range_meters":18000,"station_id":"ce4bgvp2rcd13ifvqcu0","pricing_plan_id":"cebpf4jnsgd1na2vs0mg"},{"bike_id":"f138e66e-b881-45f3-910e-cc9c80501305","system_id":"levelo_inurba_marseille","lat":43.313291,"lon":5.396838,"is_reserved":false,"is_disabled":false,"rental_uris":{"android":"levelo://app?vid=f138e66e-b881-45f3-910e-cc9c80501305","ios":"levelo://app?vid=f138e66e-b881-45f3-910e-cc9c80501305"},"vehicle_type_id":"4","last_reported":1713388083,"current_range_meters":25600,"station_id":"ce4bgvp2rcd13ifvqcu0","pricing_plan_id":"cebpf4jnsgd1na2vs0mg"},{"bike_id":"0813441f-9e5c-460b-9812-c3da01b935d6","system_id":"levelo_inurba_marseille","lat":43.289184,"lon":5.366408,"is_reserved":false,"is_disabled":false,"rental_uris":{"android":"levelo://app?vid=0813441f-9e5c-460b-9812-c3da01b935d6","ios":"levelo://app?vid=0813441f-9e5c-460b-9812-c3da01b935d6"},"vehicle_type_id":"4","last_reported":1713388083,"current_range_meters":400,"station_id":"ce4bhap2rcd13ifvqek0","pricing_plan_id":"cebpf4jnsgd1na2vs0mg"},{"bike_id":"38613420-b56d-4afd-b2ab-4235cc940500","system_id":"levelo_inurba_marseille","lat":43.290624,"lon":5.359245,"is_reserved":false,"is_disabled":false,"rental_uris":{"android":"levelo://app?vid=38613420-b56d-4afd-b2ab-4235cc940500","ios":"levelo://app?vid=38613420-b56d-4afd-b2ab-4235cc940500"},"vehicle_type_id":"4","last_reported":1713388083,"current_range_meters":12400,"station_id":"ce4bha92rcd13ifvqeg0","pricing_plan_id":"cebpf4jnsgd1na2vs0mg"},{"bike_id":"6b684bc4-3aa0-485c-8a8c-1d05c852aae2","system_id":"levelo_inurba_marseille","lat":43.290624,"lon":5.359245,"is_reserved":false,"is_disabled":false,"rental_uris":{"android":"levelo://app?vid=6b684bc4-3aa0-485c-8a8c-1d05c852aae2","ios":"levelo://app?vid=6b684bc4-3aa0-485c-8a8c-1d05c852aae2"},"vehicle_type_id":"4","last_reported":1713388083,"current_range_meters":5200,"station_id":"ce4bha92rcd13ifvqeg0","pricing_plan_id":"cebpf4jnsgd1na2vs0mg"},{"bike_id":"927521d3-ecb2-4cb8-a425-654f7a8930be","system_id":"levelo_inurba_marseille","lat":43.290624,"lon":5.359245,"is_reserved":false,"is_disabled":false,"rental_uris":{"android":"levelo://app?vid=927521d3-ecb2-4cb8-a425-654f7a8930be","ios":"levelo://app?vid=927521d3-ecb2-4cb8-a425-654f7a8930be"},"vehicle_type_id":"4","last_reported":1713388083,"current_range_meters":18400,"station_id":"ce4bha92rcd13ifvqeg0","pricing_plan_id":"cebpf4jnsgd1na2vs0mg"},{"bike_id":"d4c31041-a05a-4f6b-ad35-7a1b4ff0ffb6","system_id":"levelo_inurba_marseille","lat":43.290631,"lon":5.359244,"is_reserved":false,"is_disabled":false,"rental_uris":{"android":"levelo://app?vid=d4c31041-a05a-4f6b-ad35-7a1b4ff0ffb6","ios":"levelo://app?vid=d4c31041-a05a-4f6b-ad35-7a1b4ff0ffb6"},"vehicle_type_id":"4","last_reported":1713388083,"current_range_meters":25600,"station_id":"ce4bha92rcd13ifvqeg0","pricing_plan_id":"cebpf4jnsgd1na2vs0mg"},{"bike_id":"2afcf7bf-a146-4549-aceb-716998525c6f","system_id":"levelo_inurba_marseille","lat":43.290631,"lon":5.359244,"is_reserved":false,"is_disabled":false,"rental_uris":{"android":"levelo://app?vid=2afcf7bf-a146-4549-aceb-716998525c6f","ios":"levelo://app?vid=2afcf7bf-a146-4549-aceb-716998525c6f"},"vehicle_type_id":"4","last_reported":1713388083,"current_range_meters":24800,"station_id":"ce4bha92rcd13ifvqeg0","pricing_plan_id":"cebpf4jnsgd1na2vs0mg"},{"bike_id":"1233a182-f6d1-46b2-8f49-e4dd613afbcf","system_id":"levelo_inurba_marseille","lat":43.290631,"lon":5.359244,"is_reserved":false,"is_disabled":false,"rental_uris":{"android":"levelo://app?vid=1233a182-f6d1-46b2-8f49-e4dd613afbcf","ios":"levelo://app?vid=1233a182-f6d1-46b2-8f49-e4dd613afbcf"},"vehicle_type_id":"4","last_reported":1713388083,"current_range_meters":20400,"station_id":"ce4bha92rcd13ifvqeg0","pricing_plan_id":"cebpf4jnsgd1na2vs0mg"},{"bike_id":"538246eb-1c4f-4146-bfde-8d55858cac2e","system_id":"levelo_inurba_marseille","lat":43.290631,"lon":5.359244,"is_reserved":false,"is_disabled":false,"rental_uris":{"android":"levelo://app?vid=538246eb-1c4f-4146-bfde-8d55858cac2e","ios":"levelo://app?vid=538246eb-1c4f-4146-bfde-8d55858cac2e"},"vehicle_type_id":"4","last_reported":1713388083,"current_range_meters":16000,"station_id":"ce4bha92rcd13ifvqeg0","pricing_plan_id":"cebpf4jnsgd1na2vs0mg"},{"bike_id":"53d54651-b68b-4c7a-9bc3-28c5a4f98f7a","system_id":"levelo_inurba_marseille","lat":43.290624,"lon":5.359245,"is_reserved":false,"is_disabled":false,"rental_uris":{"android":"levelo://app?vid=53d54651-b68b-4c7a-9bc3-28c5a4f98f7a","ios":"levelo://app?vid=53d54651-b68b-4c7a-9bc3-28c5a4f98f7a"},"vehicle_type_id":"4","last_reported":1713388083,"current_range_meters":19600,"station_id":"ce4bha92rcd13ifvqeg0","pricing_plan_id":"cebpf4jnsgd1na2vs0mg"},{"bike_id":"edc29c41-3ad6-4bcf-9214-28692b56db77","system_id":"levelo_inurba_marseille","lat":43.290624,"lon":5.359245,"is_reserved":false,"is_disabled":false,"rental_uris":{"android":"levelo://app?vid=edc29c41-3ad6-4bcf-9214-28692b56db77","ios":"levelo://app?vid=edc29c41-3ad6-4bcf-9214-28692b56db77"},"vehicle_type_id":"4","last_reported":1713388083,"current_range_meters":28000,"station_id":"ce4bha92rcd13ifvqeg0","pricing_plan_id":"cebpf4jnsgd1na2vs0mg"},{"bike_id":"651ac3cd-5772-4db6-82e4-efada5176bab","system_id":"levelo_inurba_marseille","lat":43.290624,"lon":5.359245,"is_reserved":false,"is_disabled":false,"rental_uris":{"android":"levelo://app?vid=651ac3cd-5772-4db6-82e4-efada5176bab","ios":"levelo://app?vid=651ac3cd-5772-4db6-82e4-efada5176bab"},"vehicle_type_id":"4","last_reported":1713388083,"current_range_meters":19600,"station_id":"ce4bha92rcd13ifvqeg0","pricing_plan_id":"cebpf4jnsgd1na2vs0mg"},{"bike_id":"5d947340-f5c3-491e-bc79-816e0f44653e","system_id":"levelo_inurba_marseille","lat":43.290631,"lon":5.359244,"is_reserved":false,"is_disabled":false,"rental_uris":{"android":"levelo://app?vid=5d947340-f5c3-491e-bc79-816e0f44653e","ios":"levelo://app?vid=5d947340-f5c3-491e-bc79-816e0f44653e"},"vehicle_type_id":"4","last_reported":1713388083,"current_range_meters":400,"station_id":"ce4bha92rcd13ifvqeg0","pricing_plan_id":"cebpf4jnsgd1na2vs0mg"},{"bike_id":"57680b31-7dbd-47b0-a1f7-96d2cd76a38e","system_id":"levelo_inurba_marseille","lat":43.298433,"lon":5.362774,"is_reserved":false,"is_disabled":false,"rental_uris":{"android":"levelo://app?vid=57680b31-7dbd-47b0-a1f7-96d2cd76a38e","ios":"levelo://app?vid=57680b31-7dbd-47b0-a1f7-96d2cd76a38e"},"vehicle_type_id":"4","last_reported":1713388083,"current_range_meters":15600,"station_id":"ce4bgpp2rcd13ifvqc3g","pricing_plan_id":"cebpf4jnsgd1na2vs0mg"},{"bike_id":"7e67e6a5-453c-4258-b04e-62cd8c5f215b","system_id":"levelo_inurba_marseille","lat":43.289468,"lon":5.363719,"is_reserved":false,"is_disabled":false,"rental_uris":{"android":"levelo://app?vid=7e67e6a5-453c-4258-b04e-62cd8c5f215b","ios":"levelo://app?vid=7e67e6a5-453c-4258-b04e-62cd8c5f215b"},"vehicle_type_id":"4","last_reported":1713388083,"current_range_meters":12400,"station_id":"ce4bhc92rcd13ifvqetg","pricing_plan_id":"cebpf4jnsgd1na2vs0mg"},{"bike_id":"245f3269-7213-463b-9dd2-20e575f3cc1f","system_id":"levelo_inurba_marseille","lat":43.289184,"lon":5.366408,"is_reserved":false,"is_disabled":false,"rental_uris":{"android":"levelo://app?vid=245f3269-7213-463b-9dd2-20e575f3cc1f","ios":"levelo://app?vid=245f3269-7213-463b-9dd2-20e575f3cc1f"},"vehicle_type_id":"4","last_reported":1713388083,"current_range_meters":400,"station_id":"ce4bhap2rcd13ifvqek0","pricing_plan_id":"cebpf4jnsgd1na2vs0mg"},{"bike_id":"eebd92ca-6b48-4e42-a5ab-3144687c82b0","system_id":"levelo_inurba_marseille","lat":43.289184,"lon":5.366408,"is_reserved":false,"is_disabled":false,"rental_uris":{"android":"levelo://app?vid=eebd92ca-6b48-4e42-a5ab-3144687c82b0","ios":"levelo://app?vid=eebd92ca-6b48-4e42-a5ab-3144687c82b0"},"vehicle_type_id":"4","last_reported":1713388083,"current_range_meters":23200,"station_id":"ce4bhap2rcd13ifvqek0","pricing_plan_id":"cebpf4jnsgd1na2vs0mg"},{"bike_id":"5eb93727-e203-44e2-80d5-9024cf9e6a86","system_id":"levelo_inurba_marseille","lat":43.289184,"lon":5.366408,"is_reserved":false,"is_disabled":false,"rental_uris":{"android":"levelo://app?vid=5eb93727-e203-44e2-80d5-9024cf9e6a86","ios":"levelo://app?vid=5eb93727-e203-44e2-80d5-9024cf9e6a86"},"vehicle_type_id":"4","last_reported":1713388083,"current_range_meters":14000,"station_id":"ce4bhap2rcd13ifvqek0","pricing_plan_id":"cebpf4jnsgd1na2vs0mg"},{"bike_id":"98e01cae-b20b-497c-bed8-94cd0d7d03d0","system_id":"levelo_inurba_marseille","lat":43.289184,"lon":5.366408,"is_reserved":false,"is_disabled":false,"rental_uris":{"android":"levelo://app?vid=98e01cae-b20b-497c-bed8-94cd0d7d03d0","ios":"levelo://app?vid=98e01cae-b20b-497c-bed8-94cd0d7d03d0"},"vehicle_type_id":"4","last_reported":1713388083,"current_range_meters":14800,"station_id":"ce4bhap2rcd13ifvqek0","pricing_plan_id":"cebpf4jnsgd1na2vs0mg"},{"bike_id":"e815c2e3-e267-4e0a-bc8a-c34d92e62aa1","system_id":"levelo_inurba_marseille","lat":43.289184,"lon":5.366408,"is_reserved":false,"is_disabled":false,"rental_uris":{"android":"levelo://app?vid=e815c2e3-e267-4e0a-bc8a-c34d92e62aa1","ios":"levelo://app?vid=e815c2e3-e267-4e0a-bc8a-c34d92e62aa1"},"vehicle_type_id":"4","last_reported":1713388083,"current_range_meters":26800,"station_id":"ce4bhap2rcd13ifvqek0","pricing_plan_id":"cebpf4jnsgd1na2vs0mg"},{"bike_id":"81a2b8de-b334-4545-ac04-924c49f718fb","system_id":"levelo_inurba_marseille","lat":43.28935,"lon":5.36638,"is_reserved":false,"is_disabled":false,"rental_uris":{"android":"levelo://app?vid=81a2b8de-b334-4545-ac04-924c49f718fb","ios":"levelo://app?vid=81a2b8de-b334-4545-ac04-924c49f718fb"},"vehicle_type_id":"4","last_reported":1713388083,"current_range_meters":3600,"station_id":"ce4bhap2rcd13ifvqek0","pricing_plan_id":"cebpf4jnsgd1na2vs0mg"},{"bike_id":"23ff9eb8-15c8-443b-b74d-247a9d383ea5","system_id":"levelo_inurba_marseille","lat":43.289468,"lon":5.363719,"is_reserved":false,"is_disabled":false,"rental_uris":{"android":"levelo://app?vid=23ff9eb8-15c8-443b-b74d-247a9d383ea5","ios":"levelo://app?vid=23ff9eb8-15c8-443b-b74d-247a9d383ea5"},"vehicle_type_id":"4","last_reported":1713388083,"current_range_meters":26400,"station_id":"ce4bhc92rcd13ifvqetg","pricing_plan_id":"cebpf4jnsgd1na2vs0mg"},{"bike_id":"7088b614-fc3c-4a60-87a4-1617fa39f468","system_id":"levelo_inurba_marseille","lat":43.265569,"lon":5.390047,"is_reserved":false,"is_disabled":false,"rental_uris":{"android":"levelo://app?vid=7088b614-fc3c-4a60-87a4-1617fa39f468","ios":"levelo://app?vid=7088b614-fc3c-4a60-87a4-1617fa39f468"},"vehicle_type_id":"4","last_reported":1713388083,"current_range_meters":2000,"station_id":"ce4bhe12rcd13ifvqf30","pricing_plan_id":"cebpf4jnsgd1na2vs0mg"},{"bike_id":"559b6df3-4100-4c86-b9be-bd15ddd08c5e","system_id":"levelo_inurba_marseille","lat":43.289468,"lon":5.363719,"is_reserved":false,"is_disabled":false,"rental_uris":{"android":"levelo://app?vid=559b6df3-4100-4c86-b9be-bd15ddd08c5e","ios":"levelo://app?vid=559b6df3-4100-4c86-b9be-bd15ddd08c5e"},"vehicle_type_id":"4","last_reported":1713388083,"current_range_meters":14400,"station_id":"ce4bhc92rcd13ifvqetg","pricing_plan_id":"cebpf4jnsgd1na2vs0mg"},{"bike_id":"4d73f95c-c0d5-492b-8ede-185fa21624cf","system_id":"levelo_inurba_marseille","lat":43.289468,"lon":5.363719,"is_reserved":false,"is_disabled":false,"rental_uris":{"android":"levelo://app?vid=4d73f95c-c0d5-492b-8ede-185fa21624cf","ios":"levelo://app?vid=4d73f95c-c0d5-492b-8ede-185fa21624cf"},"vehicle_type_id":"4","last_reported":1713388083,"current_range_meters":14400,"station_id":"ce4bhc92rcd13ifvqetg","pricing_plan_id":"cebpf4jnsgd1na2vs0mg"},{"bike_id":"95cb39e1-d9bb-428f-bba3-03cefd0c5d79","system_id":"levelo_inurba_marseille","lat":43.289468,"lon":5.363719,"is_reserved":false,"is_disabled":false,"rental_uris":{"android":"levelo://app?vid=95cb39e1-d9bb-428f-bba3-03cefd0c5d79","ios":"levelo://app?vid=95cb39e1-d9bb-428f-bba3-03cefd0c5d79"},"vehicle_type_id":"4","last_reported":1713388083,"current_range_meters":4400,"station_id":"ce4bhc92rcd13ifvqetg","pricing_plan_id":"cebpf4jnsgd1na2vs0mg"},{"bike_id":"95ffa579-88c5-4395-a2dc-fc1cd417692c","system_id":"levelo_inurba_marseille","lat":43.289468,"lon":5.363719,"is_reserved":false,"is_disabled":false,"rental_uris":{"android":"levelo://app?vid=95ffa579-88c5-4395-a2dc-fc1cd417692c","ios":"levelo://app?vid=95ffa579-88c5-4395-a2dc-fc1cd417692c"},"vehicle_type_id":"4","last_reported":1713388083,"current_range_meters":5600,"station_id":"ce4bhc92rcd13ifvqetg","pricing_plan_id":"cebpf4jnsgd1na2vs0mg"},{"bike_id":"0d826ff2-a0cd-4e52-b142-5a061b4c674e","system_id":"levelo_inurba_marseille","lat":43.292628,"lon":5.38418,"is_reserved":false,"is_disabled":false,"rental_uris":{"android":"levelo://app?vid=0d826ff2-a0cd-4e52-b142-5a061b4c674e","ios":"levelo://app?vid=0d826ff2-a0cd-4e52-b142-5a061b4c674e"},"vehicle_type_id":"4","last_reported":1713388083,"current_range_meters":28800,"station_id":"","pricing_plan_id":"cebpf4jnsgd1na2vs0mg"},{"bike_id":"aa4cef29-d4a7-4827-abd3-e8723b882e1e","system_id":"levelo_inurba_marseille","lat":43.292644,"lon":5.384257,"is_reserved":false,"is_disabled":false,"rental_uris":{"android":"levelo://app?vid=aa4cef29-d4a7-4827-abd3-e8723b882e1e","ios":"levelo://app?vid=aa4cef29-d4a7-4827-abd3-e8723b882e1e"},"vehicle_type_id":"4","last_reported":1713388083,"current_range_meters":10400,"station_id":"ce4bh692rcd13ifvqea0","pricing_plan_id":"cebpf4jnsgd1na2vs0mg"},{"bike_id":"347d73e3-87e2-4864-b467-328338b72818","system_id":"levelo_inurba_marseille","lat":43.292644,"lon":5.384257,"is_reserved":false,"is_disabled":false,"rental_uris":{"android":"levelo://app?vid=347d73e3-87e2-4864-b467-328338b72818","ios":"levelo://app?vid=347d73e3-87e2-4864-b467-328338b72818"},"vehicle_type_id":"4","last_reported":1713388083,"current_range_meters":24400,"station_id":"ce4bh692rcd13ifvqea0","pricing_plan_id":"cebpf4jnsgd1na2vs0mg"},{"bike_id":"644bb1cc-a30e-4879-becf-56c315bdf28a","system_id":"levelo_inurba_marseille","lat":43.308012,"lon":5.381511,"is_reserved":false,"is_disabled":false,"rental_uris":{"android":"levelo://app?vid=644bb1cc-a30e-4879-becf-56c315bdf28a","ios":"levelo://app?vid=644bb1cc-a30e-4879-becf-56c315bdf28a"},"vehicle_type_id":"4","last_reported":1713388083,"current_range_meters":3200,"station_id":"ce4bgt12rcd13ifvqce0","pricing_plan_id":"cebpf4jnsgd1na2vs0mg"},{"bike_id":"b04d0d95-245b-4a2d-8ae9-7716d5450ee5","system_id":"levelo_inurba_marseille","lat":43.29262,"lon":5.38446,"is_reserved":false,"is_disabled":false,"rental_uris":{"android":"levelo://app?vid=b04d0d95-245b-4a2d-8ae9-7716d5450ee5","ios":"levelo://app?vid=b04d0d95-245b-4a2d-8ae9-7716d5450ee5"},"vehicle_type_id":"4","last_reported":1713388083,"current_range_meters":0,"station_id":"ce4bh692rcd13ifvqea0","pricing_plan_id":"cebpf4jnsgd1na2vs0mg"},{"bike_id":"c86c6b0e-90f0-49ff-ad6b-29a0c9982720","system_id":"levelo_inurba_marseille","lat":43.304296,"lon":5.397513,"is_reserved":false,"is_disabled":false,"rental_uris":{"android":"levelo://app?vid=c86c6b0e-90f0-49ff-ad6b-29a0c9982720","ios":"levelo://app?vid=c86c6b0e-90f0-49ff-ad6b-29a0c9982720"},"vehicle_type_id":"4","last_reported":1713388083,"current_range_meters":10800,"station_id":"ce4bh092rcd13ifvqd20","pricing_plan_id":"cebpf4jnsgd1na2vs0mg"},{"bike_id":"4bc317b6-1d6e-4c65-bbc3-323be1a5e13d","system_id":"levelo_inurba_marseille","lat":43.304296,"lon":5.397513,"is_reserved":false,"is_disabled":false,"rental_uris":{"android":"levelo://app?vid=4bc317b6-1d6e-4c65-bbc3-323be1a5e13d","ios":"levelo://app?vid=4bc317b6-1d6e-4c65-bbc3-323be1a5e13d"},"vehicle_type_id":"4","last_reported":1713388083,"current_range_meters":16400,"station_id":"ce4bh092rcd13ifvqd20","pricing_plan_id":"cebpf4jnsgd1na2vs0mg"},{"bike_id":"6647f6d9-ec2f-4acf-a1d6-b69b13d7a2b6","system_id":"levelo_inurba_marseille","lat":43.298433,"lon":5.362774,"is_reserved":false,"is_disabled":false,"rental_uris":{"android":"levelo://app?vid=6647f6d9-ec2f-4acf-a1d6-b69b13d7a2b6","ios":"levelo://app?vid=6647f6d9-ec2f-4acf-a1d6-b69b13d7a2b6"},"vehicle_type_id":"4","last_reported":1713388083,"current_range_meters":21600,"station_id":"ce4bgpp2rcd13ifvqc3g","pricing_plan_id":"cebpf4jnsgd1na2vs0mg"},{"bike_id":"d2374582-8f2e-4c76-ae00-367abff09613","system_id":"levelo_inurba_marseille","lat":43.290104,"lon":5.356111,"is_reserved":false,"is_disabled":false,"rental_uris":{"android":"levelo://app?vid=d2374582-8f2e-4c76-ae00-367abff09613","ios":"levelo://app?vid=d2374582-8f2e-4c76-ae00-367abff09613"},"vehicle_type_id":"4","last_reported":1713388083,"current_range_meters":28000,"station_id":"ce4bhb92rcd13ifvqen0","pricing_plan_id":"cebpf4jnsgd1na2vs0mg"},{"bike_id":"766e308f-2b17-4692-a169-c8907d2b6679","system_id":"levelo_inurba_marseille","lat":43.290104,"lon":5.356111,"is_reserved":false,"is_disabled":false,"rental_uris":{"android":"levelo://app?vid=766e308f-2b17-4692-a169-c8907d2b6679","ios":"levelo://app?vid=766e308f-2b17-4692-a169-c8907d2b6679"},"vehicle_type_id":"4","last_reported":1713388083,"current_range_meters":21200,"station_id":"ce4bhb92rcd13ifvqen0","pricing_plan_id":"cebpf4jnsgd1na2vs0mg"},{"bike_id":"e9767687-042f-46db-8dc0-7c105d1eb04d","system_id":"levelo_inurba_marseille","lat":43.290103,"lon":5.356114,"is_reserved":false,"is_disabled":false,"rental_uris":{"android":"levelo://app?vid=e9767687-042f-46db-8dc0-7c105d1eb04d","ios":"levelo://app?vid=e9767687-042f-46db-8dc0-7c105d1eb04d"},"vehicle_type_id":"4","last_reported":1713388083,"current_range_meters":18000,"station_id":"ce4bhb92rcd13ifvqen0","pricing_plan_id":"cebpf4jnsgd1na2vs0mg"},{"bike_id":"90376083-1b66-41e0-8815-30466fce7973","system_id":"levelo_inurba_marseille","lat":43.290104,"lon":5.356111,"is_reserved":false,"is_disabled":false,"rental_uris":{"android":"levelo://app?vid=90376083-1b66-41e0-8815-30466fce7973","ios":"levelo://app?vid=90376083-1b66-41e0-8815-30466fce7973"},"vehicle_type_id":"4","last_reported":1713388083,"current_range_meters":17200,"station_id":"ce4bhb92rcd13ifvqen0","pricing_plan_id":"cebpf4jnsgd1na2vs0mg"},{"bike_id":"e0d84076-f8d0-4447-bf19-47aa7d76a5d7","system_id":"levelo_inurba_marseille","lat":43.290104,"lon":5.356111,"is_reserved":false,"is_disabled":false,"rental_uris":{"android":"levelo://app?vid=e0d84076-f8d0-4447-bf19-47aa7d76a5d7","ios":"levelo://app?vid=e0d84076-f8d0-4447-bf19-47aa7d76a5d7"},"vehicle_type_id":"4","last_reported":1713388083,"current_range_meters":22800,"station_id":"ce4bhb92rcd13ifvqen0","pricing_plan_id":"cebpf4jnsgd1na2vs0mg"},{"bike_id":"aa0d69ee-e81c-4e88-90d3-d789e6a2e0b9","system_id":"levelo_inurba_marseille","lat":43.290104,"lon":5.356111,"is_reserved":false,"is_disabled":false,"rental_uris":{"android":"levelo://app?vid=aa0d69ee-e81c-4e88-90d3-d789e6a2e0b9","ios":"levelo://app?vid=aa0d69ee-e81c-4e88-90d3-d789e6a2e0b9"},"vehicle_type_id":"4","last_reported":1713388083,"current_range_meters":22400,"station_id":"ce4bhb92rcd13ifvqen0","pricing_plan_id":"cebpf4jnsgd1na2vs0mg"},{"bike_id":"9246d81b-828e-449f-a5b0-82e8bf829e1a","system_id":"levelo_inurba_marseille","lat":43.290104,"lon":5.356111,"is_reserved":false,"is_disabled":false,"rental_uris":{"android":"levelo://app?vid=9246d81b-828e-449f-a5b0-82e8bf829e1a","ios":"levelo://app?vid=9246d81b-828e-449f-a5b0-82e8bf829e1a"},"vehicle_type_id":"4","last_reported":1713388083,"current_range_meters":20800,"station_id":"ce4bhb92rcd13ifvqen0","pricing_plan_id":"cebpf4jnsgd1na2vs0mg"},{"bike_id":"9b3ecb1b-2511-456a-949e-24c01f5fd153","system_id":"levelo_inurba_marseille","lat":43.290103,"lon":5.356114,"is_reserved":false,"is_disabled":false,"rental_uris":{"android":"levelo://app?vid=9b3ecb1b-2511-456a-949e-24c01f5fd153","ios":"levelo://app?vid=9b3ecb1b-2511-456a-949e-24c01f5fd153"},"vehicle_type_id":"4","last_reported":1713388083,"current_range_meters":27200,"station_id":"ce4bhb92rcd13ifvqen0","pricing_plan_id":"cebpf4jnsgd1na2vs0mg"},{"bike_id":"5beb70c0-e15f-4147-b5b2-5d72d7f4fe38","system_id":"levelo_inurba_marseille","lat":43.290104,"lon":5.356111,"is_reserved":false,"is_disabled":false,"rental_uris":{"android":"levelo://app?vid=5beb70c0-e15f-4147-b5b2-5d72d7f4fe38","ios":"levelo://app?vid=5beb70c0-e15f-4147-b5b2-5d72d7f4fe38"},"vehicle_type_id":"4","last_reported":1713388083,"current_range_meters":31200,"station_id":"ce4bhb92rcd13ifvqen0","pricing_plan_id":"cebpf4jnsgd1na2vs0mg"},{"bike_id":"4eec4f39-582d-4e26-87de-2f47930290d3","system_id":"levelo_inurba_marseille","lat":43.290995,"lon":5.381361,"is_reserved":false,"is_disabled":false,"rental_uris":{"android":"levelo://app?vid=4eec4f39-582d-4e26-87de-2f47930290d3","ios":"levelo://app?vid=4eec4f39-582d-4e26-87de-2f47930290d3"},"vehicle_type_id":"4","last_reported":1713388083,"current_range_meters":12800,"station_id":"ce4bh512rcd13ifvqe2g","pricing_plan_id":"cebpf4jnsgd1na2vs0mg"},{"bike_id":"5c39113d-d129-41d5-938e-a5de0e0c15de","system_id":"levelo_inurba_marseille","lat":43.289741,"lon":5.378306,"is_reserved":false,"is_disabled":false,"rental_uris":{"android":"levelo://app?vid=5c39113d-d129-41d5-938e-a5de0e0c15de","ios":"levelo://app?vid=5c39113d-d129-41d5-938e-a5de0e0c15de"},"vehicle_type_id":"4","last_reported":1713388083,"current_range_meters":21200,"station_id":"ce4bh9p2rcd13ifvqed0","pricing_plan_id":"cebpf4jnsgd1na2vs0mg"},{"bike_id":"77aae0e8-9041-45b6-bbc3-4db7af597862","system_id":"levelo_inurba_marseille","lat":43.289741,"lon":5.378306,"is_reserved":false,"is_disabled":false,"rental_uris":{"android":"levelo://app?vid=77aae0e8-9041-45b6-bbc3-4db7af597862","ios":"levelo://app?vid=77aae0e8-9041-45b6-bbc3-4db7af597862"},"vehicle_type_id":"4","last_reported":1713388083,"current_range_meters":6400,"station_id":"ce4bh9p2rcd13ifvqed0","pricing_plan_id":"cebpf4jnsgd1na2vs0mg"},{"bike_id":"f68a9ebd-2d89-470e-ad02-08c59b7aa5d7","system_id":"levelo_inurba_marseille","lat":43.289743,"lon":5.378304,"is_reserved":false,"is_disabled":false,"rental_uris":{"android":"levelo://app?vid=f68a9ebd-2d89-470e-ad02-08c59b7aa5d7","ios":"levelo://app?vid=f68a9ebd-2d89-470e-ad02-08c59b7aa5d7"},"vehicle_type_id":"4","last_reported":1713388083,"current_range_meters":22400,"station_id":"ce4bh9p2rcd13ifvqed0","pricing_plan_id":"cebpf4jnsgd1na2vs0mg"},{"bike_id":"c8d390d8-97e0-473e-9311-cf9ef746f33c","system_id":"levelo_inurba_marseille","lat":43.297815,"lon":5.393548,"is_reserved":false,"is_disabled":false,"rental_uris":{"android":"levelo://app?vid=c8d390d8-97e0-473e-9311-cf9ef746f33c","ios":"levelo://app?vid=c8d390d8-97e0-473e-9311-cf9ef746f33c"},"vehicle_type_id":"4","last_reported":1713388083,"current_range_meters":24400,"station_id":"chh1huq6cuj3fo74tm60","pricing_plan_id":"cebpf4jnsgd1na2vs0mg"},{"bike_id":"4f7ba93a-ee12-4777-afda-5faefbb8bd2e","system_id":"levelo_inurba_marseille","lat":43.295169,"lon":5.390426,"is_reserved":false,"is_disabled":false,"rental_uris":{"android":"levelo://app?vid=4f7ba93a-ee12-4777-afda-5faefbb8bd2e","ios":"levelo://app?vid=4f7ba93a-ee12-4777-afda-5faefbb8bd2e"},"vehicle_type_id":"4","last_reported":1713388083,"current_range_meters":16400,"station_id":"ce4bh3p2rcd13ifvqdp0","pricing_plan_id":"cebpf4jnsgd1na2vs0mg"},{"bike_id":"442b5653-190e-4c88-90b4-71d0a8b7f92e","system_id":"levelo_inurba_marseille","lat":43.297805,"lon":5.393343,"is_reserved":false,"is_disabled":false,"rental_uris":{"android":"levelo://app?vid=442b5653-190e-4c88-90b4-71d0a8b7f92e","ios":"levelo://app?vid=442b5653-190e-4c88-90b4-71d0a8b7f92e"},"vehicle_type_id":"4","last_reported":1713388083,"current_range_meters":19600,"station_id":"chh1huq6cuj3fo74tm60","pricing_plan_id":"cebpf4jnsgd1na2vs0mg"},{"bike_id":"4571ddd8-1a3e-4034-b38c-c1fb89b57d4c","system_id":"levelo_inurba_marseille","lat":43.330442,"lon":5.389148,"is_reserved":false,"is_disabled":false,"rental_uris":{"android":"levelo://app?vid=4571ddd8-1a3e-4034-b38c-c1fb89b57d4c","ios":"levelo://app?vid=4571ddd8-1a3e-4034-b38c-c1fb89b57d4c"},"vehicle_type_id":"4","last_reported":1713388083,"current_range_meters":27200,"station_id":"ce4bhr92rcd13ifvqhrg","pricing_plan_id":"cebpf4jnsgd1na2vs0mg"},{"bike_id":"8f5494c7-0f08-4d71-849f-6271d8d64f6b","system_id":"levelo_inurba_marseille","lat":43.295169,"lon":5.390426,"is_reserved":false,"is_disabled":false,"rental_uris":{"android":"levelo://app?vid=8f5494c7-0f08-4d71-849f-6271d8d64f6b","ios":"levelo://app?vid=8f5494c7-0f08-4d71-849f-6271d8d64f6b"},"vehicle_type_id":"4","last_reported":1713388083,"current_range_meters":27600,"station_id":"ce4bh3p2rcd13ifvqdp0","pricing_plan_id":"cebpf4jnsgd1na2vs0mg"},{"bike_id":"7b5af33b-212c-46b6-b5cf-d30eb4f6561e","system_id":"levelo_inurba_marseille","lat":43.295169,"lon":5.390426,"is_reserved":false,"is_disabled":false,"rental_uris":{"android":"levelo://app?vid=7b5af33b-212c-46b6-b5cf-d30eb4f6561e","ios":"levelo://app?vid=7b5af33b-212c-46b6-b5cf-d30eb4f6561e"},"vehicle_type_id":"4","last_reported":1713388083,"current_range_meters":31600,"station_id":"ce4bh3p2rcd13ifvqdp0","pricing_plan_id":"cebpf4jnsgd1na2vs0mg"},{"bike_id":"363f59dc-b30a-4e60-b4e0-fde0d4c087d6","system_id":"levelo_inurba_marseille","lat":43.295169,"lon":5.390426,"is_reserved":false,"is_disabled":false,"rental_uris":{"android":"levelo://app?vid=363f59dc-b30a-4e60-b4e0-fde0d4c087d6","ios":"levelo://app?vid=363f59dc-b30a-4e60-b4e0-fde0d4c087d6"},"vehicle_type_id":"4","last_reported":1713388083,"current_range_meters":5600,"station_id":"ce4bh3p2rcd13ifvqdp0","pricing_plan_id":"cebpf4jnsgd1na2vs0mg"},{"bike_id":"cf8575e4-9023-46d3-817b-6c802dfb99df","system_id":"levelo_inurba_marseille","lat":43.297815,"lon":5.393548,"is_reserved":false,"is_disabled":false,"rental_uris":{"android":"levelo://app?vid=cf8575e4-9023-46d3-817b-6c802dfb99df","ios":"levelo://app?vid=cf8575e4-9023-46d3-817b-6c802dfb99df"},"vehicle_type_id":"4","last_reported":1713388083,"current_range_meters":26800,"station_id":"chh1huq6cuj3fo74tm60","pricing_plan_id":"cebpf4jnsgd1na2vs0mg"},{"bike_id":"58d75986-a79c-42c9-8e16-cb202ce7c0dd","system_id":"levelo_inurba_marseille","lat":43.297815,"lon":5.393548,"is_reserved":false,"is_disabled":false,"rental_uris":{"android":"levelo://app?vid=58d75986-a79c-42c9-8e16-cb202ce7c0dd","ios":"levelo://app?vid=58d75986-a79c-42c9-8e16-cb202ce7c0dd"},"vehicle_type_id":"4","last_reported":1713388083,"current_range_meters":400,"station_id":"chh1huq6cuj3fo74tm60","pricing_plan_id":"cebpf4jnsgd1na2vs0mg"},{"bike_id":"98718546-3a0c-4cb1-b1d2-c9c71949a919","system_id":"levelo_inurba_marseille","lat":43.297815,"lon":5.393548,"is_reserved":false,"is_disabled":false,"rental_uris":{"android":"levelo://app?vid=98718546-3a0c-4cb1-b1d2-c9c71949a919","ios":"levelo://app?vid=98718546-3a0c-4cb1-b1d2-c9c71949a919"},"vehicle_type_id":"4","last_reported":1713388083,"current_range_meters":10000,"station_id":"chh1huq6cuj3fo74tm60","pricing_plan_id":"cebpf4jnsgd1na2vs0mg"},{"bike_id":"6855e457-8605-4d68-a08e-9384d9d222ca","system_id":"levelo_inurba_marseille","lat":43.297815,"lon":5.393548,"is_reserved":false,"is_disabled":false,"rental_uris":{"android":"levelo://app?vid=6855e457-8605-4d68-a08e-9384d9d222ca","ios":"levelo://app?vid=6855e457-8605-4d68-a08e-9384d9d222ca"},"vehicle_type_id":"4","last_reported":1713388083,"current_range_meters":25200,"station_id":"chh1huq6cuj3fo74tm60","pricing_plan_id":"cebpf4jnsgd1na2vs0mg"},{"bike_id":"eea06f9f-fff2-4513-bc3e-95d0879a21c6","system_id":"levelo_inurba_marseille","lat":43.297815,"lon":5.393548,"is_reserved":false,"is_disabled":false,"rental_uris":{"android":"levelo://app?vid=eea06f9f-fff2-4513-bc3e-95d0879a21c6","ios":"levelo://app?vid=eea06f9f-fff2-4513-bc3e-95d0879a21c6"},"vehicle_type_id":"4","last_reported":1713388083,"current_range_meters":22800,"station_id":"chh1huq6cuj3fo74tm60","pricing_plan_id":"cebpf4jnsgd1na2vs0mg"},{"bike_id":"22cbf198-4ac5-4b78-af9c-f8eb618cd3c3","system_id":"levelo_inurba_marseille","lat":43.330442,"lon":5.389148,"is_reserved":false,"is_disabled":false,"rental_uris":{"android":"levelo://app?vid=22cbf198-4ac5-4b78-af9c-f8eb618cd3c3","ios":"levelo://app?vid=22cbf198-4ac5-4b78-af9c-f8eb618cd3c3"},"vehicle_type_id":"4","last_reported":1713388083,"current_range_meters":31200,"station_id":"ce4bhr92rcd13ifvqhrg","pricing_plan_id":"cebpf4jnsgd1na2vs0mg"},