{"last_updated":1774055277,"ttl":60,"version":"2.2","data":{"bikes":[{"bike_id":"66be2595-d8a5-40d3-b0b9-334f8fbba844","system_id":"levelo_inurba_marseille","lat":43.24638,"lon":5.43151,"is_reserved":false,"is_disabled":false,"rental_uris":{"android":"levelo://app?vid=66be2595-d8a5-40d3-b0b9-334f8fbba844","ios":"levelo://app?vid=66be2595-d8a5-40d3-b0b9-334f8fbba844"},"vehicle_type_id":"4","last_reported":1774055277,"current_range_meters":2800,"station_id":"","pricing_plan_id":"cebpf4jnsgd1na2vs0mg"},{"bike_id":"c45cdb2e-d1e5-42d8-9a60-1f6eaf2e9225","system_id":"levelo_inurba_marseille","lat":43.30894,"lon":5.36874,"is_reserved":false,"is_disabled":false,"rental_uris":{"android":"levelo://app?vid=c45cdb2e-d1e5-42d8-9a60-1f6eaf2e9225","ios":"levelo://app?vid=c45cdb2e-d1e5-42d8-9a60-1f6eaf2e9225"},"vehicle_type_id":"4","last_reported":1774055277,"current_range_meters":2800,"station_id":"ce4bgn92rcd13ifvqbvg","pricing_plan_id":"cebpf4jnsgd1na2vs0mg"},{"bike_id":"52f6a6b9-7af9-4956-b458-baf5061e66bf","system_id":"levelo_inurba_marseille","lat":43.23334,"lon":5.44467,"is_reserved":false,"is_disabled":false,"rental_uris":{"android":"levelo://app?vid=52f6a6b9-7af9-4956-b458-baf5061e66bf","ios":"levelo://app?vid=52f6a6b9-7af9-4956-b458-baf5061e66bf"},"vehicle_type_id":"4","last_reported":1774055277,"current_range_meters":2800,"station_id":"","pricing_plan_id":"cebpf4jnsgd1na2vs0mg"},{"bike_id":"e5e18d51-d281-4feb-b73c-20d80ef4d3b8","system_id":"levelo_inurba_marseille","lat":43.28147,"lon":5.42657,"is_reserved":false,"is_disabled":false,"rental_uris":{"android":"levelo://app?vid=e5e18d51-d281-4feb-b73c-20d80ef4d3b8","ios":"levelo://app?vid=e5e18d51-d281-4feb-b73c-20d80ef4d3b8"},"vehicle_type_id":"4","last_reported":1774055277,"current_range_meters":2800,"station_id":"ce4bhnh2rcd13ifvqgug","pricing_plan_id":"cebpf4jnsgd1na2vs0mg"},{"bike_id":"9c49ed4a-3e09-4efe-bfbd-b8dbbe63b339","system_id":"levelo_inurba_marseille","lat":43.26555,"lon":5.39023,"is_reserved":false,"is_disabled":false,"rental_uris":{"android":"levelo://app?vid=9c49ed4a-3e09-4efe-bfbd-b8dbbe63b339","ios":"levelo://app?vid=9c49ed4a-3e09-4efe-bfbd-b8dbbe63b339"},"vehicle_type_id":"4","last_reported":1774055277,"current_range_meters":2800,"station_id":"ce4bhe12rcd13ifvqf30","pricing_plan_id":"cebpf4jnsgd1na2vs0mg"},{"bike_id":"26ce8e1f-db05-4ba0-acb9-cdbc5d3c8c0d","system_id":"levelo_inurba_marseille","lat":43.28472,"lon":5.38419,"is_reserved":false,"is_disabled":true,"rental_uris":{"android":"levelo://app?vid=26ce8e1f-db05-4ba0-acb9-cdbc5d3c8c0d","ios":"levelo://app?vid=26ce8e1f-db05-4ba0-acb9-cdbc5d3c8c0d"},"vehicle_type_id":"4","last_reported":1774055277,"current_range_meters":2800,"station_id":"ce4bh512rcd13ifvqe3g","pricing_plan_id":"cebpf4jnsgd1na2vs0mg"},{"bike_id":"00456695-d732-4f33-93c8-e39b4d4bf96b","system_id":"levelo_inurba_marseille","lat":43.29767,"lon":5.38075,"is_reserved":false,"is_disabled":true,"rental_uris":{"android":"levelo://app?vid=00456695-d732-4f33-93c8-e39b4d4bf96b","ios":"levelo://app?vid=00456695-d732-4f33-93c8-e39b4d4bf96b"},"vehicle_type_id":"4","last_reported":1774055277,"current_range_meters":2800,"station_id":"ce4bgip2rcd13ifvqbb0","pricing_plan_id":"cebpf4jnsgd1na2vs0mg"},{"bike_id":"9fbfdc7a-8398-40b5-b97f-ba1104c7c96f","system_id":"levelo_inurba_marseille","lat":43.23188,"lon":5.35533,"is_reserved":false,"is_disabled":false,"rental_uris":{"android":"levelo://app?vid=9fbfdc7a-8398-40b5-b97f-ba1104c7c96f","ios":"levelo://app?vid=9fbfdc7a-8398-40b5-b97f-ba1104c7c96f"},"vehicle_type_id":"4","last_reported":1774055277,"current_range_meters":2800,"station_id":"ce4bhu92rcd13ifvqi70","pricing_plan_id":"cebpf4jnsgd1na2vs0mg"},{"bike_id":"14e04f51-6012-47f2-a15a-594508b26271","system_id":"levelo_inurba_marseille","lat":43.27475,"lon":5.43639,"is_reserved":false,"is_disabled":false,"rental_uris":{"android":"levelo://app?vid=14e04f51-6012-47f2-a15a-594508b26271","ios":"levelo://app?vid=14e04f51-6012-47f2-a15a-594508b26271"},"vehicle_type_id":"4","last_reported":1774055277,"current_range_meters":2800,"station_id":"ce4bhk92rcd13ifvqgb0","pricing_plan_id":"cebpf4jnsgd1na2vs0mg"},{"bike_id":"b24efd61-5957-4034-9985-644c1e3ae6d7","system_id":"levelo_inurba_marseille","lat":43.29804,"lon":5.37924,"is_reserved":false,"is_disabled":false,"rental_uris":{"android":"levelo://app?vid=b24efd61-5957-4034-9985-644c1e3ae6d7","ios":"levelo://app?vid=b24efd61-5957-4034-9985-644c1e3ae6d7"},"vehicle_type_id":"4","last_reported":1774055277,"current_range_meters":2800,"station_id":"","pricing_plan_id":"cebpf4jnsgd1na2vs0mg"},{"bike_id":"47a8436c-9b2f-44b6-92e2-20a5fab160f3","system_id":"levelo_inurba_marseille","lat":43.248,"lon":5.37446,"is_reserved":false,"is_disabled":true,"rental_uris":{"android":"levelo://app?vid=47a8436c-9b2f-44b6-92e2-20a5fab160f3","ios":"levelo://app?vid=47a8436c-9b2f-44b6-92e2-20a5fab160f3"},"vehicle_type_id":"4","last_reported":1774055277,"current_range_meters":2800,"station_id":"ce4bhgh2rcd13ifvqfb0","pricing_plan_id":"cebpf4jnsgd1na2vs0mg"},{"bike_id":"cc2b2e8b-fb1d-4616-8447-851c70af165a","system_id":"levelo_inurba_marseille","lat":43.29445,"lon":5.39758,"is_reserved":false,"is_disabled":true,"rental_uris":{"android":"levelo://app?vid=cc2b2e8b-fb1d-4616-8447-851c70af165a","ios":"levelo://app?vid=cc2b2e8b-fb1d-4616-8447-851c70af165a"},"vehicle_type_id":"4","last_reported":1774055277,"current_range_meters":3200,"station_id":"ce4bh3h2rcd13ifvqdo0","pricing_plan_id":"cebpf4jnsgd1na2vs0mg"},{"bike_id":"1a2f7375-4673-4869-a8a3-19dd3bf04a29","system_id":"levelo_inurba_marseille","lat":43.28413,"lon":5.34975,"is_reserved":false,"is_disabled":false,"rental_uris":{"android":"levelo://app?vid=1a2f7375-4673-4869-a8a3-19dd3bf04a29","ios":"levelo://app?vid=1a2f7375-4673-4869-a8a3-19dd3bf04a29"},"vehicle_type_id":"4","last_reported":1774055277,"current_range_meters":3200,"station_id":"ce4bhbh2rcd13ifvqepg","pricing_plan_id":"cebpf4jnsgd1na2vs0mg"},{"bike_id":"59b58314-db28-44b8-998a-6d46e0964f92","system_id":"levelo_inurba_marseille","lat":43.28626,"lon":5.35098,"is_reserved":false,"is_disabled":false,"rental_uris":{"android":"levelo://app?vid=59b58314-db28-44b8-998a-6d46e0964f92","ios":"levelo://app?vid=59b58314-db28-44b8-998a-6d46e0964f92"},"vehicle_type_id":"4","last_reported":1774055277,"current_range_meters":3200,"station_id":"ce4bhch2rcd13ifvqeug","pricing_plan_id":"cebpf4jnsgd1na2vs0mg"},{"bike_id":"60615ef4-4d4d-4219-8bf0-1a344b94adbe","system_id":"levelo_inurba_marseille","lat":43.30252,"lon":5.40069,"is_reserved":false,"is_disabled":false,"rental_uris":{"android":"levelo://app?vid=60615ef4-4d4d-4219-8bf0-1a344b94adbe","ios":"levelo://app?vid=60615ef4-4d4d-4219-8bf0-1a344b94adbe"},"vehicle_type_id":"4","last_reported":1774055277,"current_range_meters":3200,"station_id":"ce4bgvh2rcd13ifvqcs0","pricing_plan_id":"cebpf4jnsgd1na2vs0mg"},{"bike_id":"a7e7e06e-c8ee-4b0c-839e-a368cd20c225","system_id":"levelo_inurba_marseille","lat":43.27947,"lon":5.41035,"is_reserved":false,"is_disabled":false,"rental_uris":{"android":"levelo://app?vid=a7e7e06e-c8ee-4b0c-839e-a368cd20c225","ios":"levelo://app?vid=a7e7e06e-c8ee-4b0c-839e-a368cd20c225"},"vehicle_type_id":"4","last_reported":1774055277,"current_range_meters":3200,"station_id":"ce4bhnp2rcd13ifvqh0g","pricing_plan_id":"cebpf4jnsgd1na2vs0mg"},{"bike_id":"addd9e53-bfde-4c2f-8c89-4a891b6a7add","system_id":"levelo_inurba_marseille","lat":43.31342,"lon":5.3792,"is_reserved":false,"is_disabled":false,"rental_uris":{"android":"levelo://app?vid=addd9e53-bfde-4c2f-8c89-4a891b6a7add","ios":"levelo://app?vid=addd9e53-bfde-4c2f-8c89-4a891b6a7add"},"vehicle_type_id":"4","last_reported":1774055277,"current_range_meters":3200,"station_id":"","pricing_plan_id":"cebpf4jnsgd1na2vs0mg"},{"bike_id":"172e8e6e-c941-4a85-8aff-a061f2ddbe2d","system_id":"levelo_inurba_marseille","lat":43.28469,"lon":5.35871,"is_reserved":false,"is_disabled":false,"rental_uris":{"android":"levelo://app?vid=172e8e6e-c941-4a85-8aff-a061f2ddbe2d","ios":"levelo://app?vid=172e8e6e-c941-4a85-8aff-a061f2ddbe2d"},"vehicle_type_id":"4","last_reported":1774055277,"current_range_meters":3200,"station_id":"ce4bhah2rcd13ifvqei0","pricing_plan_id":"cebpf4jnsgd1na2vs0mg"},{"bike_id":"ee858a5b-03d3-46bf-8925-70bf5fda2938","system_id":"levelo_inurba_marseille","lat":43.29929,"lon":5.36535,"is_reserved":false,"is_disabled":false,"rental_uris":{"android":"levelo://app?vid=ee858a5b-03d3-46bf-8925-70bf5fda2938","ios":"levelo://app?vid=ee858a5b-03d3-46bf-8925-70bf5fda2938"},"vehicle_type_id":"4","last_reported":1774055277,"current_range_meters":3200,"station_id":"ce4bgm92rcd13ifvqbr0","pricing_plan_id":"cebpf4jnsgd1na2vs0mg"},{"bike_id":"8a854e0a-3b9f-471d-80f2-bfadb0595e6b","system_id":"levelo_inurba_marseille","lat":43.31365,"lon":5.37609,"is_reserved":false,"is_disabled":false,"rental_uris":{"android":"levelo://app?vid=8a854e0a-3b9f-471d-80f2-bfadb0595e6b","ios":"levelo://app?vid=8a854e0a-3b9f-471d-80f2-bfadb0595e6b"},"vehicle_type_id":"4","last_reported":1774055277,"current_range_meters":3200,"station_id":"","pricing_plan_id":"cebpf4jnsgd1na2vs0mg"},{"bike_id":"347a0133-45d3-4213-ae48-606f4453bbf3","system_id":"levelo_inurba_marseille","lat":43.23039,"lon":5.35492,"is_reserved":false,"is_disabled":false,"rental_uris":{"android":"levelo://app?vid=347a0133-45d3-4213-ae48-606f4453bbf3","ios":"levelo://app?vid=347a0133-45d3-4213-ae48-606f4453bbf3"},"vehicle_type_id":"4","last_reported":1774055277,"current_range_meters":3200,"station_id":"cpo3342slgdg3j2ifvpg","pricing_plan_id":"cebpf4jnsgd1na2vs0mg"},{"bike_id":"1a94bf63-1377-4d25-983e-e6a99bbeabd5","system_id":"levelo_inurba_marseille","lat":43.29684,"lon":5.38717,"is_reserved":false,"is_disabled":false,"rental_uris":{"android":"levelo://app?vid=1a94bf63-1377-4d25-983e-e6a99bbeabd5","ios":"levelo://app?vid=1a94bf63-1377-4d25-983e-e6a99bbeabd5"},"vehicle_type_id":"4","last_reported":1774055277,"current_range_meters":3200,"station_id":"","pricing_plan_id":"cebpf4jnsgd1na2vs0mg"},{"bike_id":"152ff27d-90e2-44c3-8bc3-68a6d2306499","system_id":"levelo_inurba_marseille","lat":43.30157,"lon":5.3808,"is_reserved":false,"is_disabled":false,"rental_uris":{"android":"levelo://app?vid=152ff27d-90e2-44c3-8bc3-68a6d2306499","ios":"levelo://app?vid=152ff27d-90e2-44c3-8bc3-68a6d2306499"},"vehicle_type_id":"4","last_reported":1774055277,"current_range_meters":3200,"station_id":"ce4bgjp2rcd13ifvqbh0","pricing_plan_id":"cebpf4jnsgd1na2vs0mg"},{"bike_id":"9b86087d-da1b-4b84-b9f5-180f3c4b6555","system_id":"levelo_inurba_marseille","lat":43.30095,"lon":5.39106,"is_reserved":false,"is_disabled":false,"rental_uris":{"android":"levelo://app?vid=9b86087d-da1b-4b84-b9f5-180f3c4b6555","ios":"levelo://app?vid=9b86087d-da1b-4b84-b9f5-180f3c4b6555"},"vehicle_type_id":"4","last_reported":1774055277,"current_range_meters":3200,"station_id":"ce4bh192rcd13ifvqdb0","pricing_plan_id":"cebpf4jnsgd1na2vs0mg"},{"bike_id":"62ff937e-689f-4def-8b0f-f0f7271c7beb","system_id":"levelo_inurba_marseille","lat":43.33549,"lon":5.37453,"is_reserved":false,"is_disabled":false,"rental_uris":{"android":"levelo://app?vid=62ff937e-689f-4def-8b0f-f0f7271c7beb","ios":"levelo://app?vid=62ff937e-689f-4def-8b0f-f0f7271c7beb"},"vehicle_type_id":"4","last_reported":1774055277,"current_range_meters":3200,"station_id":"st_d46tts09ee8s73dlu43g","pricing_plan_id":"cebpf4jnsgd1na2vs0mg"},{"bike_id":"c7e3a474-0497-4f6e-9ae6-ba0d89f6fff2","system_id":"levelo_inurba_marseille","lat":43.28434,"lon":5.39216,"is_reserved":false,"is_disabled":false,"rental_uris":{"android":"levelo://app?vid=c7e3a474-0497-4f6e-9ae6-ba0d89f6fff2","ios":"levelo://app?vid=c7e3a474-0497-4f6e-9ae6-ba0d89f6fff2"},"vehicle_type_id":"4","last_reported":1774055277,"current_range_meters":3200,"station_id":"ce4bhoh2rcd13ifvqh5g","pricing_plan_id":"cebpf4jnsgd1na2vs0mg"},{"bike_id":"6e50a54a-c657-4ef5-9339-4c225154dc0d","system_id":"levelo_inurba_marseille","lat":43.27933,"lon":5.42284,"is_reserved":false,"is_disabled":false,"rental_uris":{"android":"levelo://app?vid=6e50a54a-c657-4ef5-9339-4c225154dc0d","ios":"levelo://app?vid=6e50a54a-c657-4ef5-9339-4c225154dc0d"},"vehicle_type_id":"4","last_reported":1774055277,"current_range_meters":3200,"station_id":"","pricing_plan_id":"cebpf4jnsgd1na2vs0mg"},{"bike_id":"4d85cad2-b3d4-496d-8919-cdb71af8cf76","system_id":"levelo_inurba_marseille","lat":43.3075,"lon":5.42428,"is_reserved":false,"is_disabled":false,"rental_uris":{"android":"levelo://app?vid=4d85cad2-b3d4-496d-8919-cdb71af8cf76","ios":"levelo://app?vid=4d85cad2-b3d4-496d-8919-cdb71af8cf76"},"vehicle_type_id":"4","last_reported":1774055277,"current_range_meters":3200,"station_id":"st_cvj6ca6bvosntc0bfgr0","pricing_plan_id":"cebpf4jnsgd1na2vs0mg"},{"bike_id":"c9cfc67c-4e42-4833-b4ab-11ad690d27f6","system_id":"levelo_inurba_marseille","lat":43.33018,"lon":5.39324,"is_reserved":false,"is_disabled":false,"rental_uris":{"android":"levelo://app?vid=c9cfc67c-4e42-4833-b4ab-11ad690d27f6","ios":"levelo://app?vid=c9cfc67c-4e42-4833-b4ab-11ad690d27f6"},"vehicle_type_id":"4","last_reported":1774055277,"current_range_meters":3200,"station_id":"","pricing_plan_id":"cebpf4jnsgd1na2vs0mg"},{"bike_id":"05070d89-2298-462e-9107-b4dc4ad27f0f","system_id":"levelo_inurba_marseille","lat":43.29278,"lon":5.40147,"is_reserved":false,"is_disabled":false,"rental_uris":{"android":"levelo://app?vid=05070d89-2298-462e-9107-b4dc4ad27f0f","ios":"levelo://app?vid=05070d89-2298-462e-9107-b4dc4ad27f0f"},"vehicle_type_id":"4","last_reported":1774055277,"current_range_meters":3200,"station_id":"ce4bh312rcd13ifvqdk0","pricing_plan_id":"cebpf4jnsgd1na2vs0mg"},{"bike_id":"bebae7b0-c2c6-4b1d-8855-8b06d4443a00","system_id":"levelo_inurba_marseille","lat":43.28472,"lon":5.48383,"is_reserved":false,"is_disabled":false,"rental_uris":{"android":"levelo://app?vid=bebae7b0-c2c6-4b1d-8855-8b06d4443a00","ios":"levelo://app?vid=bebae7b0-c2c6-4b1d-8855-8b06d4443a00"},"vehicle_type_id":"4","last_reported":1774055277,"current_range_meters":3200,"station_id":"","pricing_plan_id":"cebpf4jnsgd1na2vs0mg"},{"bike_id":"b3c6ee7e-839e-47ca-8bd1-12618e78dd87","system_id":"levelo_inurba_marseille","lat":43.23962,"lon":5.3661,"is_reserved":false,"is_disabled":false,"rental_uris":{"android":"levelo://app?vid=b3c6ee7e-839e-47ca-8bd1-12618e78dd87","ios":"levelo://app?vid=b3c6ee7e-839e-47ca-8bd1-12618e78dd87"},"vehicle_type_id":"4","last_reported":1774055277,"current_range_meters":3200,"station_id":"ce4bhi12rcd13ifvqfp0","pricing_plan_id":"cebpf4jnsgd1na2vs0mg"},{"bike_id":"cbbe4480-a5ac-4f87-be71-04eafbb6a307","system_id":"levelo_inurba_marseille","lat":43.2989,"lon":5.389,"is_reserved":false,"is_disabled":false,"rental_uris":{"android":"levelo://app?vid=cbbe4480-a5ac-4f87-be71-04eafbb6a307","ios":"levelo://app?vid=cbbe4480-a5ac-4f87-be71-04eafbb6a307"},"vehicle_type_id":"4","last_reported":1774055277,"current_range_meters":3600,"station_id":"ce4bh392rcd13ifvqdl0","pricing_plan_id":"cebpf4jnsgd1na2vs0mg"},{"bike_id":"d4776486-3084-421f-968a-3d6e49dfba03","system_id":"levelo_inurba_marseille","lat":43.28534,"lon":5.44097,"is_reserved":false,"is_disabled":false,"rental_uris":{"android":"levelo://app?vid=d4776486-3084-421f-968a-3d6e49dfba03","ios":"levelo://app?vid=d4776486-3084-421f-968a-3d6e49dfba03"},"vehicle_type_id":"4","last_reported":1774055277,"current_range_meters":3600,"station_id":"st_d3j3df2ikq2c7380ej80","pricing_plan_id":"cebpf4jnsgd1na2vs0mg"},{"bike_id":"0b08e1ff-8cd2-4815-bc4e-10387f48ffe3","system_id":"levelo_inurba_marseille","lat":43.28971,"lon":5.37828,"is_reserved":false,"is_disabled":false,"rental_uris":{"android":"levelo://app?vid=0b08e1ff-8cd2-4815-bc4e-10387f48ffe3","ios":"levelo://app?vid=0b08e1ff-8cd2-4815-bc4e-10387f48ffe3"},"vehicle_type_id":"4","last_reported":1774055277,"current_range_meters":3600,"station_id":"ce4bh9p2rcd13ifvqed0","pricing_plan_id":"cebpf4jnsgd1na2vs0mg"},{"bike_id":"9276440c-f4d8-43a8-b80f-788c778198c8","system_id":"levelo_inurba_marseille","lat":43.28705,"lon":5.37378,"is_reserved":false,"is_disabled":false,"rental_uris":{"android":"levelo://app?vid=9276440c-f4d8-43a8-b80f-788c778198c8","ios":"levelo://app?vid=9276440c-f4d8-43a8-b80f-788c778198c8"},"vehicle_type_id":"4","last_reported":1774055277,"current_range_meters":3600,"station_id":"ce4bh3p2rcd13ifvqdq0","pricing_plan_id":"cebpf4jnsgd1na2vs0mg"},{"bike_id":"7f62cecb-bedb-4e9a-8b59-93fa5400e10d","system_id":"levelo_inurba_marseille","lat":43.27946,"lon":5.41028,"is_reserved":false,"is_disabled":false,"rental_uris":{"android":"levelo://app?vid=7f62cecb-bedb-4e9a-8b59-93fa5400e10d","ios":"levelo://app?vid=7f62cecb-bedb-4e9a-8b59-93fa5400e10d"},"vehicle_type_id":"4","last_reported":1774055277,"current_range_meters":3600,"station_id":"ce4bhnp2rcd13ifvqh0g","pricing_plan_id":"cebpf4jnsgd1na2vs0mg"},{"bike_id":"5f29a2ec-c954-49c5-ac9a-5c7aaf65f428","system_id":"levelo_inurba_marseille","lat":43.24406,"lon":5.37066,"is_reserved":false,"is_disabled":false,"rental_uris":{"android":"levelo://app?vid=5f29a2ec-c954-49c5-ac9a-5c7aaf65f428","ios":"levelo://app?vid=5f29a2ec-c954-49c5-ac9a-5c7aaf65f428"},"vehicle_type_id":"4","last_reported":1774055277,"current_range_meters":3600,"station_id":"ce4bhhh2rcd13ifvqfk0","pricing_plan_id":"cebpf4jnsgd1na2vs0mg"},{"bike_id":"f89aaff6-62a2-4702-86a9-d61c700e9fa8","system_id":"levelo_inurba_marseille","lat":43.2827,"lon":5.35059,"is_reserved":false,"is_disabled":false,"rental_uris":{"android":"levelo://app?vid=f89aaff6-62a2-4702-86a9-d61c700e9fa8","ios":"levelo://app?vid=f89aaff6-62a2-4702-86a9-d61c700e9fa8"},"vehicle_type_id":"4","last_reported":1774055277,"current_range_meters":3600,"station_id":"ce4bhbp2rcd13ifvqerg","pricing_plan_id":"cebpf4jnsgd1na2vs0mg"},{"bike_id":"2db94390-868b-446e-93d4-fc0737e334f9","system_id":"levelo_inurba_marseille","lat":43.29537,"lon":5.3854,"is_reserved":false,"is_disabled":true,"rental_uris":{"android":"levelo://app?vid=2db94390-868b-446e-93d4-fc0737e334f9","ios":"levelo://app?vid=2db94390-868b-446e-93d4-fc0737e334f9"},"vehicle_type_id":"4","last_reported":1774055277,"current_range_meters":3600,"station_id":"ce4bgih2rcd13ifvqba0","pricing_plan_id":"cebpf4jnsgd1na2vs0mg"},{"bike_id":"51a5d3cf-46d4-4381-a3aa-e5708524a237","system_id":"levelo_inurba_marseille","lat":43.25836,"lon":5.39426,"is_reserved":false,"is_disabled":false,"rental_uris":{"android":"levelo://app?vid=51a5d3cf-46d4-4381-a3aa-e5708524a237","ios":"levelo://app?vid=51a5d3cf-46d4-4381-a3aa-e5708524a237"},"vehicle_type_id":"4","last_reported":1774055277,"current_range_meters":3600,"station_id":"ce4bhip2rcd13ifvqft0","pricing_plan_id":"cebpf4jnsgd1na2vs0mg"},{"bike_id":"d16b4f5e-9b9d-4635-b7ab-14fa4ff08f4b","system_id":"levelo_inurba_marseille","lat":43.24645,"lon":5.43132,"is_reserved":false,"is_disabled":false,"rental_uris":{"android":"levelo://app?vid=d16b4f5e-9b9d-4635-b7ab-14fa4ff08f4b","ios":"levelo://app?vid=d16b4f5e-9b9d-4635-b7ab-14fa4ff08f4b"},"vehicle_type_id":"4","last_reported":1774055277,"current_range_meters":3600,"station_id":"","pricing_plan_id":"cebpf4jnsgd1na2vs0mg"},{"bike_id":"eaab6721-037a-4783-aa3c-d0ddb10816df","system_id":"levelo_inurba_marseille","lat":43.28258,"lon":5.3507,"is_reserved":false,"is_disabled":false,"rental_uris":{"android":"levelo://app?vid=eaab6721-037a-4783-aa3c-d0ddb10816df","ios":"levelo://app?vid=eaab6721-037a-4783-aa3c-d0ddb10816df"},"vehicle_type_id":"4","last_reported":1774055277,"current_range_meters":3600,"station_id":"ce4bhbp2rcd13ifvqerg","pricing_plan_id":"cebpf4jnsgd1na2vs0mg"},{"bike_id":"64e51bde-9d0b-40b0-a912-510a3cb8b58a","system_id":"levelo_inurba_marseille","lat":43.30943,"lon":5.40128,"is_reserved":false,"is_disabled":false,"rental_uris":{"android":"levelo://app?vid=64e51bde-9d0b-40b0-a912-510a3cb8b58a","ios":"levelo://app?vid=64e51bde-9d0b-40b0-a912-510a3cb8b58a"},"vehicle_type_id":"4","last_reported":1774055277,"current_range_meters":3600,"station_id":"ce4bgvp2rcd13ifvqct0","pricing_plan_id":"cebpf4jnsgd1na2vs0mg"},{"bike_id":"ec327ac2-9680-48a1-8584-22f43bc41c50","system_id":"levelo_inurba_marseille","lat":43.29252,"lon":5.37581,"is_reserved":false,"is_disabled":true,"rental_uris":{"android":"levelo://app?vid=ec327ac2-9680-48a1-8584-22f43bc41c50","ios":"levelo://app?vid=ec327ac2-9680-48a1-8584-22f43bc41c50"},"vehicle_type_id":"4","last_reported":1774055277,"current_range_meters":3600,"station_id":"","pricing_plan_id":"cebpf4jnsgd1na2vs0mg"},{"bike_id":"89cee112-d85d-4ff4-a9a1-e1f8b7878ee0","system_id":"levelo_inurba_marseille","lat":43.2994,"lon":5.36531,"is_reserved":false,"is_disabled":false,"rental_uris":{"android":"levelo://app?vid=89cee112-d85d-4ff4-a9a1-e1f8b7878ee0","ios":"levelo://app?vid=89cee112-d85d-4ff4-a9a1-e1f8b7878ee0"},"vehicle_type_id":"4","last_reported":1774055277,"current_range_meters":4000,"station_id":"ce4bgm92rcd13ifvqbr0","pricing_plan_id":"cebpf4jnsgd1na2vs0mg"},{"bike_id":"c6b20400-3641-48f3-b609-b110a5527d07","system_id":"levelo_inurba_marseille","lat":43.22527,"lon":5.41617,"is_reserved":false,"is_disabled":false,"rental_uris":{"android":"levelo://app?vid=c6b20400-3641-48f3-b609-b110a5527d07","ios":"levelo://app?vid=c6b20400-3641-48f3-b609-b110a5527d07"},"vehicle_type_id":"4","last_reported":1774055277,"current_range_meters":4000,"station_id":"st_d2o4gvlbi1j2169b742g","pricing_plan_id":"cebpf4jnsgd1na2vs0mg"},{"bike_id":"10d8533b-5997-474a-87ee-4e1776f0f0c6","system_id":"levelo_inurba_marseille","lat":43.29613,"lon":5.37938,"is_reserved":false,"is_disabled":false,"rental_uris":{"android":"levelo://app?vid=10d8533b-5997-474a-87ee-4e1776f0f0c6","ios":"levelo://app?vid=10d8533b-5997-474a-87ee-4e1776f0f0c6"},"vehicle_type_id":"4","last_reported":1774055277,"current_range_meters":4000,"station_id":"","pricing_plan_id":"cebpf4jnsgd1na2vs0mg"},{"bike_id":"75f5165b-28e2-45db-97ea-0fef5335db92","system_id":"levelo_inurba_marseille","lat":43.30596,"lon":5.37189,"is_reserved":false,"is_disabled":false,"rental_uris":{"android":"levelo://app?vid=75f5165b-28e2-45db-97ea-0fef5335db92","ios":"levelo://app?vid=75f5165b-28e2-45db-97ea-0fef5335db92"},"vehicle_type_id":"4","last_reported":1774055277,"current_range_meters":4000,"station_id":"ce4bgqh2rcd13ifvqc4g","pricing_plan_id":"cebpf4jnsgd1na2vs0mg"},{"bike_id":"6b596f47-5f2b-41a1-ba8e-cc3c7bac807e","system_id":"levelo_inurba_marseille","lat":43.22932,"lon":5.35353,"is_reserved":false,"is_disabled":false,"rental_uris":{"android":"levelo://app?vid=6b596f47-5f2b-41a1-ba8e-cc3c7bac807e","ios":"levelo://app?vid=6b596f47-5f2b-41a1-ba8e-cc3c7bac807e"},"vehicle_type_id":"4","last_reported":1774055277,"current_range_meters":4000,"station_id":"cpo3532slgdg3j2ikp40","pricing_plan_id":"cebpf4jnsgd1na2vs0mg"},{"bike_id":"4e8e4b90-993f-4fe3-89a3-798e718312cb","system_id":"levelo_inurba_marseille","lat":43.29843,"lon":5.36276,"is_reserved":false,"is_disabled":false,"rental_uris":{"android":"levelo://app?vid=4e8e4b90-993f-4fe3-89a3-798e718312cb","ios":"levelo://app?vid=4e8e4b90-993f-4fe3-89a3-798e718312cb"},"vehicle_type_id":"4","last_reported":1774055277,"current_range_meters":4000,"station_id":"ce4bgpp2rcd13ifvqc3g","pricing_plan_id":"cebpf4jnsgd1na2vs0mg"},{"bike_id":"d83c5380-5cf5-4e3b-945e-49f25c9260fa","system_id":"levelo_inurba_marseille","lat":43.28861,"lon":5.39333,"is_reserved":false,"is_disabled":false,"rental_uris":{"android":"levelo://app?vid=d83c5380-5cf5-4e3b-945e-49f25c9260fa","ios":"levelo://app?vid=d83c5380-5cf5-4e3b-945e-49f25c9260fa"},"vehicle_type_id":"4","last_reported":1774055277,"current_range_meters":4000,"station_id":"ce4bh2p2rcd13ifvqdi0","pricing_plan_id":"cebpf4jnsgd1na2vs0mg"},{"bike_id":"72121863-e0a0-47d6-b3e1-5fae5d6e0fe9","system_id":"levelo_inurba_marseille","lat":43.28438,"lon":5.39176,"is_reserved":false,"is_disabled":false,"rental_uris":{"android":"levelo://app?vid=72121863-e0a0-47d6-b3e1-5fae5d6e0fe9","ios":"levelo://app?vid=72121863-e0a0-47d6-b3e1-5fae5d6e0fe9"},"vehicle_type_id":"4","last_reported":1774055277,"current_range_meters":4000,"station_id":"ce4bhoh2rcd13ifvqh5g","pricing_plan_id":"cebpf4jnsgd1na2vs0mg"},{"bike_id":"3fba803f-f528-451d-b30c-36b3df1c327d","system_id":"levelo_inurba_marseille","lat":43.31174,"lon":5.38708,"is_reserved":false,"is_disabled":false,"rental_uris":{"android":"levelo://app?vid=3fba803f-f528-451d-b30c-36b3df1c327d","ios":"levelo://app?vid=3fba803f-f528-451d-b30c-36b3df1c327d"},"vehicle_type_id":"4","last_reported":1774055277,"current_range_meters":4000,"station_id":"ce4bgv12rcd13ifvqcp0","pricing_plan_id":"cebpf4jnsgd1na2vs0mg"},{"bike_id":"43f8133b-505b-4943-b223-4424a052b8b6","system_id":"levelo_inurba_marseille","lat":43.31346,"lon":5.36749,"is_reserved":false,"is_disabled":false,"rental_uris":{"android":"levelo://app?vid=43f8133b-505b-4943-b223-4424a052b8b6","ios":"levelo://app?vid=43f8133b-505b-4943-b223-4424a052b8b6"},"vehicle_type_id":"4","last_reported":1774055277,"current_range_meters":4000,"station_id":"ce4bgr92rcd13ifvqc6g","pricing_plan_id":"cebpf4jnsgd1na2vs0mg"},{"bike_id":"e08d225b-8f4a-4ce0-895d-d9f7f842408c","system_id":"levelo_inurba_marseille","lat":43.24161,"lon":5.3641,"is_reserved":false,"is_disabled":false,"rental_uris":{"android":"levelo://app?vid=e08d225b-8f4a-4ce0-895d-d9f7f842408c","ios":"levelo://app?vid=e08d225b-8f4a-4ce0-895d-d9f7f842408c"},"vehicle_type_id":"4","last_reported":1774055277,"current_range_meters":4000,"station_id":"cpo36qri1sfpv3e86is0","pricing_plan_id":"cebpf4jnsgd1na2vs0mg"},{"bike_id":"6a60ca93-3a64-430c-b7d0-0153d15877ca","system_id":"levelo_inurba_marseille","lat":43.3132,"lon":5.39715,"is_reserved":false,"is_disabled":false,"rental_uris":{"android":"levelo://app?vid=6a60ca93-3a64-430c-b7d0-0153d15877ca","ios":"levelo://app?vid=6a60ca93-3a64-430c-b7d0-0153d15877ca"},"vehicle_type_id":"4","last_reported":1774055277,"current_range_meters":4000,"station_id":"ce4bgvp2rcd13ifvqcu0","pricing_plan_id":"cebpf4jnsgd1na2vs0mg"},{"bike_id":"fef87f38-eb76-4e21-af65-48b38937984e","system_id":"levelo_inurba_marseille","lat":43.28615,"lon":5.35096,"is_reserved":false,"is_disabled":false,"rental_uris":{"android":"levelo://app?vid=fef87f38-eb76-4e21-af65-48b38937984e","ios":"levelo://app?vid=fef87f38-eb76-4e21-af65-48b38937984e"},"vehicle_type_id":"4","last_reported":1774055277,"current_range_meters":4000,"station_id":"ce4bhch2rcd13ifvqeug","pricing_plan_id":"cebpf4jnsgd1na2vs0mg"},{"bike_id":"b14bb5e1-7882-4380-b389-98bb380dac81","system_id":"levelo_inurba_marseille","lat":43.23948,"lon":5.36636,"is_reserved":false,"is_disabled":false,"rental_uris":{"android":"levelo://app?vid=b14bb5e1-7882-4380-b389-98bb380dac81","ios":"levelo://app?vid=b14bb5e1-7882-4380-b389-98bb380dac81"},"vehicle_type_id":"4","last_reported":1774055277,"current_range_meters":4000,"station_id":"ce4bhi12rcd13ifvqfp0","pricing_plan_id":"cebpf4jnsgd1na2vs0mg"},{"bike_id":"74d2b7ef-96c3-4722-b643-5a65bd2418ac","system_id":"levelo_inurba_marseille","lat":43.30377,"lon":5.4248,"is_reserved":false,"is_disabled":false,"rental_uris":{"android":"levelo://app?vid=74d2b7ef-96c3-4722-b643-5a65bd2418ac","ios":"levelo://app?vid=74d2b7ef-96c3-4722-b643-5a65bd2418ac"},"vehicle_type_id":"4","last_reported":1774055277,"current_range_meters":4000,"station_id":"ce4bhoh2rcd13ifvqh6g","pricing_plan_id":"cebpf4jnsgd1na2vs0mg"},{"bike_id":"3bcd3f37-7909-4e8a-be03-a9562a2c0e45","system_id":"levelo_inurba_marseille","lat":43.28487,"lon":5.48388,"is_reserved":false,"is_disabled":false,"rental_uris":{"android":"levelo://app?vid=3bcd3f37-7909-4e8a-be03-a9562a2c0e45","ios":"levelo://app?vid=3bcd3f37-7909-4e8a-be03-a9562a2c0e45"},"vehicle_type_id":"4","last_reported":1774055277,"current_range_meters":4400,"station_id":"","pricing_plan_id":"cebpf4jnsgd1na2vs0mg"},{"bike_id":"2a17477f-7ad3-440b-a32a-6ec6a1b88e4d","system_id":"levelo_inurba_marseille","lat":43.23954,"lon":5.36612,"is_reserved":false,"is_disabled":false,"rental_uris":{"android":"levelo://app?vid=2a17477f-7ad3-440b-a32a-6ec6a1b88e4d","ios":"levelo://app?vid=2a17477f-7ad3-440b-a32a-6ec6a1b88e4d"},"vehicle_type_id":"4","last_reported":1774055277,"current_range_meters":4400,"station_id":"ce4bhi12rcd13ifvqfp0","pricing_plan_id":"cebpf4jnsgd1na2vs0mg"},{"bike_id":"83895c67-457e-4fba-842c-b3245f7ba648","system_id":"levelo_inurba_marseille","lat":43.28047,"lon":5.36934,"is_reserved":false,"is_disabled":false,"rental_uris":{"android":"levelo://app?vid=83895c67-457e-4fba-842c-b3245f7ba648","ios":"levelo://app?vid=83895c67-457e-4fba-842c-b3245f7ba648"},"vehicle_type_id":"4","last_reported":1774055277,"current_range_meters":4400,"station_id":"ce4bha12rcd13ifvqef0","pricing_plan_id":"cebpf4jnsgd1na2vs0mg"},{"bike_id":"02228e0f-5de0-4172-a962-797ace9bf854","system_id":"levelo_inurba_marseille","lat":43.30874,"lon":5.39636,"is_reserved":false,"is_disabled":false,"rental_uris":{"android":"levelo://app?vid=02228e0f-5de0-4172-a962-797ace9bf854","ios":"levelo://app?vid=02228e0f-5de0-4172-a962-797ace9bf854"},"vehicle_type_id":"4","last_reported":1774055277,"current_range_meters":4400,"station_id":"ce4bh012rcd13ifvqcv0","pricing_plan_id":"cebpf4jnsgd1na2vs0mg"},{"bike_id":"31caa62d-cb2c-42fd-aa8e-1e9ca230fd55","system_id":"levelo_inurba_marseille","lat":43.28034,"lon":5.36951,"is_reserved":false,"is_disabled":false,"rental_uris":{"android":"levelo://app?vid=31caa62d-cb2c-42fd-aa8e-1e9ca230fd55","ios":"levelo://app?vid=31caa62d-cb2c-42fd-aa8e-1e9ca230fd55"},"vehicle_type_id":"4","last_reported":1774055277,"current_range_meters":4400,"station_id":"ce4bha12rcd13ifvqef0","pricing_plan_id":"cebpf4jnsgd1na2vs0mg"},{"bike_id":"09e07395-a48d-47d9-9ad5-da9a3d767d90","system_id":"levelo_inurba_marseille","lat":43.29786,"lon":5.37102,"is_reserved":false,"is_disabled":false,"rental_uris":{"android":"levelo://app?vid=09e07395-a48d-47d9-9ad5-da9a3d767d90","ios":"levelo://app?vid=09e07395-a48d-47d9-9ad5-da9a3d767d90"},"vehicle_type_id":"4","last_reported":1774055277,"current_range_meters":4400,"station_id":"ce4bgop2rcd13ifvqc1g","pricing_plan_id":"cebpf4jnsgd1na2vs0mg"},{"bike_id":"b27f230f-42e8-4c36-9b03-b903919cfd01","system_id":"levelo_inurba_marseille","lat":43.29575,"lon":5.39971,"is_reserved":false,"is_disabled":false,"rental_uris":{"android":"levelo://app?vid=b27f230f-42e8-4c36-9b03-b903919cfd01","ios":"levelo://app?vid=b27f230f-42e8-4c36-9b03-b903919cfd01"},"vehicle_type_id":"4","last_reported":1774055277,"current_range_meters":4400,"station_id":"ce4bh312rcd13ifvqdj0","pricing_plan_id":"cebpf4jnsgd1na2vs0mg"},{"bike_id":"a41de53c-a6b7-4218-a883-add34022c124","system_id":"levelo_inurba_marseille","lat":43.24793,"lon":5.37437,"is_reserved":false,"is_disabled":false,"rental_uris":{"android":"levelo://app?vid=a41de53c-a6b7-4218-a883-add34022c124","ios":"levelo://app?vid=a41de53c-a6b7-4218-a883-add34022c124"},"vehicle_type_id":"4","last_reported":1774055277,"current_range_meters":4400,"station_id":"ce4bhgh2rcd13ifvqfb0","pricing_plan_id":"cebpf4jnsgd1na2vs0mg"},{"bike_id":"3c76fb79-92b3-4803-a35d-7a9a81d21794","system_id":"levelo_inurba_marseille","lat":43.2293,"lon":5.35378,"is_reserved":false,"is_disabled":false,"rental_uris":{"android":"levelo://app?vid=3c76fb79-92b3-4803-a35d-7a9a81d21794","ios":"levelo://app?vid=3c76fb79-92b3-4803-a35d-7a9a81d21794"},"vehicle_type_id":"4","last_reported":1774055277,"current_range_meters":4400,"station_id":"cpo3532slgdg3j2ikp40","pricing_plan_id":"cebpf4jnsgd1na2vs0mg"},{"bike_id":"aafcf6df-238a-4d04-b128-e7eee387e0bf","system_id":"levelo_inurba_marseille","lat":43.30975,"lon":5.39045,"is_reserved":false,"is_disabled":false,"rental_uris":{"android":"levelo://app?vid=aafcf6df-238a-4d04-b128-e7eee387e0bf","ios":"levelo://app?vid=aafcf6df-238a-4d04-b128-e7eee387e0bf"},"vehicle_type_id":"4","last_reported":1774055277,"current_range_meters":4400,"station_id":"ce4bgup2rcd13ifvqco0","pricing_plan_id":"cebpf4jnsgd1na2vs0mg"},{"bike_id":"f510aab5-c125-407f-aeb0-e610c0cdfef8","system_id":"levelo_inurba_marseille","lat":43.23778,"lon":5.36639,"is_reserved":false,"is_disabled":false,"rental_uris":{"android":"levelo://app?vid=f510aab5-c125-407f-aeb0-e610c0cdfef8","ios":"levelo://app?vid=f510aab5-c125-407f-aeb0-e610c0cdfef8"},"vehicle_type_id":"4","last_reported":1774055277,"current_range_meters":4400,"station_id":"st_d3nk18o9ro0c73en2l3g","pricing_plan_id":"cebpf4jnsgd1na2vs0mg"},{"bike_id":"6d3b703b-e347-4533-b8ec-01b71aacee79","system_id":"levelo_inurba_marseille","lat":43.26494,"lon":5.39551,"is_reserved":false,"is_disabled":false,"rental_uris":{"android":"levelo://app?vid=6d3b703b-e347-4533-b8ec-01b71aacee79","ios":"levelo://app?vid=6d3b703b-e347-4533-b8ec-01b71aacee79"},"vehicle_type_id":"4","last_reported":1774055277,"current_range_meters":4400,"station_id":"ce4bhi12rcd13ifvqfq0","pricing_plan_id":"cebpf4jnsgd1na2vs0mg"},{"bike_id":"c48440d7-f4d5-4be3-a842-7dc1a317748e","system_id":"levelo_inurba_marseille","lat":43.33955,"lon":5.35706,"is_reserved":false,"is_disabled":false,"rental_uris":{"android":"levelo://app?vid=c48440d7-f4d5-4be3-a842-7dc1a317748e","ios":"levelo://app?vid=c48440d7-f4d5-4be3-a842-7dc1a317748e"},"vehicle_type_id":"4","last_reported":1774055277,"current_range_meters":4400,"station_id":"","pricing_plan_id":"cebpf4jnsgd1na2vs0mg"},{"bike_id":"1d706e98-6845-4080-8ba3-039f6113a874","system_id":"levelo_inurba_marseille","lat":43.28204,"lon":5.39014,"is_reserved":false,"is_disabled":false,"rental_uris":{"android":"levelo://app?vid=1d706e98-6845-4080-8ba3-039f6113a874","ios":"levelo://app?vid=1d706e98-6845-4080-8ba3-039f6113a874"},"vehicle_type_id":"4","last_reported":1774055277,"current_range_meters":4800,"station_id":"","pricing_plan_id":"cebpf4jnsgd1na2vs0mg"},{"bike_id":"094121d9-821d-4507-b33c-be96fa67ad19","system_id":"levelo_inurba_marseille","lat":43.30923,"lon":5.40128,"is_reserved":false,"is_disabled":false,"rental_uris":{"android":"levelo://app?vid=094121d9-821d-4507-b33c-be96fa67ad19","ios":"levelo://app?vid=094121d9-821d-4507-b33c-be96fa67ad19"},"vehicle_type_id":"4","last_reported":1774055277,"current_range_meters":4800,"station_id":"ce4bgvp2rcd13ifvqct0","pricing_plan_id":"cebpf4jnsgd1na2vs0mg"},{"bike_id":"f35291ea-a517-45e6-bccf-54011aa5a0ff","system_id":"levelo_inurba_marseille","lat":43.28029,"lon":5.36949,"is_reserved":false,"is_disabled":false,"rental_uris":{"android":"levelo://app?vid=f35291ea-a517-45e6-bccf-54011aa5a0ff","ios":"levelo://app?vid=f35291ea-a517-45e6-bccf-54011aa5a0ff"},"vehicle_type_id":"4","last_reported":1774055277,"current_range_meters":4800,"station_id":"ce4bha12rcd13ifvqef0","pricing_plan_id":"cebpf4jnsgd1na2vs0mg"},{"bike_id":"119d24bc-e3dd-4e47-a0b9-64bbbcc5b1ee","system_id":"levelo_inurba_marseille","lat":43.21747,"lon":5.34608,"is_reserved":false,"is_disabled":true,"rental_uris":{"android":"levelo://app?vid=119d24bc-e3dd-4e47-a0b9-64bbbcc5b1ee","ios":"levelo://app?vid=119d24bc-e3dd-4e47-a0b9-64bbbcc5b1ee"},"vehicle_type_id":"4","last_reported":1774055277,"current_range_meters":4800,"station_id":"st_cvj6r9ubvosntc0bgbag","pricing_plan_id":"cebpf4jnsgd1na2vs0mg"},{"bike_id":"428ffd06-b4c4-423f-b91b-d51225a48c2d","system_id":"levelo_inurba_marseille","lat":43.26379,"lon":5.4105,"is_reserved":false,"is_disabled":false,"rental_uris":{"android":"levelo://app?vid=428ffd06-b4c4-423f-b91b-d51225a48c2d","ios":"levelo://app?vid=428ffd06-b4c4-423f-b91b-d51225a48c2d"},"vehicle_type_id":"4","last_reported":1774055277,"current_range_meters":4800,"station_id":"st_d4e5ca6na9uc73bfl5fg","pricing_plan_id":"cebpf4jnsgd1na2vs0mg"},{"bike_id":"74ebb480-171b-43e5-b0fc-ba46b71dee8d","system_id":"levelo_inurba_marseille","lat":43.25326,"lon":5.42171,"is_reserved":false,"is_disabled":true,"rental_uris":{"android":"levelo://app?vid=74ebb480-171b-43e5-b0fc-ba46b71dee8d","ios":"levelo://app?vid=74ebb480-171b-43e5-b0fc-ba46b71dee8d"},"vehicle_type_id":"4","last_reported":1774055277,"current_range_meters":4800,"station_id":"st_d2m65c5bi1j21697t3ng","pricing_plan_id":"cebpf4jnsgd1na2vs0mg"},{"bike_id":"10d35292-a38e-417b-873f-88e40f7592b3","system_id":"levelo_inurba_marseille","lat":43.27974,"lon":5.40022,"is_reserved":false,"is_disabled":false,"rental_uris":{"android":"levelo://app?vid=10d35292-a38e-417b-873f-88e40f7592b3","ios":"levelo://app?vid=10d35292-a38e-417b-873f-88e40f7592b3"},"vehicle_type_id":"4","last_reported":1774055277,"current_range_meters":5600,"station_id":"ce4bho92rcd13ifvqh4g","pricing_plan_id":"cebpf4jnsgd1na2vs0mg"},{"bike_id":"3e5c7bdb-60ee-4795-a793-9681791a8e87","system_id":"levelo_inurba_marseille","lat":43.29754,"lon":5.42784,"is_reserved":false,"is_disabled":false,"rental_uris":{"android":"levelo://app?vid=3e5c7bdb-60ee-4795-a793-9681791a8e87","ios":"levelo://app?vid=3e5c7bdb-60ee-4795-a793-9681791a8e87"},"vehicle_type_id":"4","last_reported":1774055277,"current_range_meters":5600,"station_id":"st_d3md5207bmas73dh9klg","pricing_plan_id":"cebpf4jnsgd1na2vs0mg"},{"bike_id":"8cb04660-0253-47dd-a08e-d80de86b003a","system_id":"levelo_inurba_marseille","lat":43.30195,"lon":5.36631,"is_reserved":false,"is_disabled":false,"rental_uris":{"android":"levelo://app?vid=8cb04660-0253-47dd-a08e-d80de86b003a","ios":"levelo://app?vid=8cb04660-0253-47dd-a08e-d80de86b003a"},"vehicle_type_id":"4","last_reported":1774055277,"current_range_meters":5600,"station_id":"ce4bgrh2rcd13ifvqc8g","pricing_plan_id":"cebpf4jnsgd1na2vs0mg"},{"bike_id":"29ceb06a-4df8-4e2a-9dd9-b070e185b37f","system_id":"levelo_inurba_marseille","lat":43.2832,"lon":5.48401,"is_reserved":false,"is_disabled":false,"rental_uris":{"android":"levelo://app?vid=29ceb06a-4df8-4e2a-9dd9-b070e185b37f","ios":"levelo://app?vid=29ceb06a-4df8-4e2a-9dd9-b070e185b37f"},"vehicle_type_id":"4","last_reported":1774055277,"current_range_meters":5600,"station_id":"","pricing_plan_id":"cebpf4jnsgd1na2vs0mg"},{"bike_id":"c142af26-b83c-4aa3-ab8b-699576493d34","system_id":"levelo_inurba_marseille","lat":43.21209,"lon":5.35059,"is_reserved":false,"is_disabled":true,"rental_uris":{"android":"levelo://app?vid=c142af26-b83c-4aa3-ab8b-699576493d34","ios":"levelo://app?vid=c142af26-b83c-4aa3-ab8b-699576493d34"},"vehicle_type_id":"4","last_reported":1774055277,"current_range_meters":5600,"station_id":"st_cvj6sg6p6f1abm77japg","pricing_plan_id":"cebpf4jnsgd1na2vs0mg"},{"bike_id":"275c09be-21c2-403d-99b5-de7babafb9e5","system_id":"levelo_inurba_marseille","lat":43.30295,"lon":5.36927,"is_reserved":false,"is_disabled":false,"rental_uris":{"android":"levelo://app?vid=275c09be-21c2-403d-99b5-de7babafb9e5","ios":"levelo://app?vid=275c09be-21c2-403d-99b5-de7babafb9e5"},"vehicle_type_id":"4","last_reported":1774055277,"current_range_meters":5600,"station_id":"ce4bgqh2rcd13ifvqc5g","pricing_plan_id":"cebpf4jnsgd1na2vs0mg"},{"bike_id":"29705345-7a8e-4bdd-8b65-5ba8856c877f","system_id":"levelo_inurba_marseille","lat":43.30288,"lon":5.44953,"is_reserved":false,"is_disabled":false,"rental_uris":{"android":"levelo://app?vid=29705345-7a8e-4bdd-8b65-5ba8856c877f","ios":"levelo://app?vid=29705345-7a8e-4bdd-8b65-5ba8856c877f"},"vehicle_type_id":"4","last_reported":1774055277,"current_range_meters":5600,"station_id":"","pricing_plan_id":"cebpf4jnsgd1na2vs0mg"},{"bike_id":"938f5b2b-699a-47ff-8381-c70adbd93b65","system_id":"levelo_inurba_marseille","lat":43.2979,"lon":5.37109,"is_reserved":false,"is_disabled":true,"rental_uris":{"android":"levelo://app?vid=938f5b2b-699a-47ff-8381-c70adbd93b65","ios":"levelo://app?vid=938f5b2b-699a-47ff-8381-c70adbd93b65"},"vehicle_type_id":"4","last_reported":1774055277,"current_range_meters":5600,"station_id":"ce4bgop2rcd13ifvqc1g","pricing_plan_id":"cebpf4jnsgd1na2vs0mg"},{"bike_id":"a5fa76af-4615-4d5d-9b58-ea337703eff8","system_id":"levelo_inurba_marseille","lat":43.29993,"lon":5.38629,"is_reserved":false,"is_disabled":false,"rental_uris":{"android":"levelo://app?vid=a5fa76af-4615-4d5d-9b58-ea337703eff8","ios":"levelo://app?vid=a5fa76af-4615-4d5d-9b58-ea337703eff8"},"vehicle_type_id":"4","last_reported":1774055277,"current_range_meters":5600,"station_id":"","pricing_plan_id":"cebpf4jnsgd1na2vs0mg"},{"bike_id":"7b7c61d3-f09d-467c-9286-15a82f063369","system_id":"levelo_inurba_marseille","lat":43.30799,"lon":5.38152,"is_reserved":false,"is_disabled":false,"rental_uris":{"android":"levelo://app?vid=7b7c61d3-f09d-467c-9286-15a82f063369","ios":"levelo://app?vid=7b7c61d3-f09d-467c-9286-15a82f063369"},"vehicle_type_id":"4","last_reported":1774055277,"current_range_meters":5600,"station_id":"ce4bgt12rcd13ifvqce0","pricing_plan_id":"cebpf4jnsgd1na2vs0mg"},{"bike_id":"23c209c6-7d3c-4387-b04a-03a2b9a72d01","system_id":"levelo_inurba_marseille","lat":43.28366,"lon":5.4327,"is_reserved":false,"is_disabled":false,"rental_uris":{"android":"levelo://app?vid=23c209c6-7d3c-4387-b04a-03a2b9a72d01","ios":"levelo://app?vid=23c209c6-7d3c-4387-b04a-03a2b9a72d01"},"vehicle_type_id":"4","last_reported":1774055277,"current_range_meters":5600,"station_id":"","pricing_plan_id":"cebpf4jnsgd1na2vs0mg"},{"bike_id":"a1ce7f88-8f8c-48ff-bc8b-8021c61764ea","system_id":"levelo_inurba_marseille","lat":43.33542,"lon":5.37467,"is_reserved":false,"is_disabled":false,"rental_uris":{"android":"levelo://app?vid=a1ce7f88-8f8c-48ff-bc8b-8021c61764ea","ios":"levelo://app?vid=a1ce7f88-8f8c-48ff-bc8b-8021c61764ea"},"vehicle_type_id":"4","last_reported":1774055277,"current_range_meters":5600,"station_id":"st_d46tts09ee8s73dlu43g","pricing_plan_id":"cebpf4jnsgd1na2vs0mg"},{"bike_id":"3d8b9441-846b-4bc6-a99f-7538b53156c2","system_id":"levelo_inurba_marseille","lat":43.29791,"lon":5.38101,"is_reserved":false,"is_disabled":true,"rental_uris":{"android":"levelo://app?vid=3d8b9441-846b-4bc6-a99f-7538b53156c2","ios":"levelo://app?vid=3d8b9441-846b-4bc6-a99f-7538b53156c2"},"vehicle_type_id":"4","last_reported":1774055277,"current_range_meters":6000,"station_id":"ce4bgip2rcd13ifvqbb0","pricing_plan_id":"cebpf4jnsgd1na2vs0mg"},{"bike_id":"a775511c-9985-4a58-8c4c-775aad7f3e36","system_id":"levelo_inurba_marseille","lat":43.29884,"lon":5.43657,"is_reserved":false,"is_disabled":false,"rental_uris":{"android":"levelo://app?vid=a775511c-9985-4a58-8c4c-775aad7f3e36","ios":"levelo://app?vid=a775511c-9985-4a58-8c4c-775aad7f3e36"},"vehicle_type_id":"4","last_reported":1774055277,"current_range_meters":6000,"station_id":"ce4bhpp2rcd13ifvqhfg","pricing_plan_id":"cebpf4jnsgd1na2vs0mg"},{"bike_id":"71389fc3-a4c3-46c5-a0f9-4330fcbb165b","system_id":"levelo_inurba_marseille","lat":43.288733,"lon":5.394297,"is_reserved":false,"is_disabled":true,"rental_uris":{"android":"levelo://app?vid=71389fc3-a4c3-46c5-a0f9-4330fcbb165b","ios":"levelo://app?vid=71389fc3-a4c3-46c5-a0f9-4330fcbb165b"},"vehicle_type_id":"4","last_reported":1774055277,"current_range_meters":6000,"station_id":"","pricing_plan_id":"cebpf4jnsgd1na2vs0mg"},{"bike_id":"5c37a49c-ab60-4c11-8a61-6592ff444186","system_id":"levelo_inurba_marseille","lat":43.27908,"lon":5.39175,"is_reserved":false,"is_disabled":false,"rental_uris":{"android":"levelo://app?vid=5c37a49c-ab60-4c11-8a61-6592ff444186","ios":"levelo://app?vid=5c37a49c-ab60-4c11-8a61-6592ff444186"},"vehicle_type_id":"4","last_reported":1774055277,"current_range_meters":6000,"station_id":"","pricing_plan_id":"cebpf4jnsgd1na2vs0mg"},{"bike_id":"a8c84459-b9ee-483c-a593-cea6f19c59ba","system_id":"levelo_inurba_marseille","lat":43.29678,"lon":5.373,"is_reserved":false,"is_disabled":false,"rental_uris":{"android":"levelo://app?vid=a8c84459-b9ee-483c-a593-cea6f19c59ba","ios":"levelo://app?vid=a8c84459-b9ee-483c-a593-cea6f19c59ba"},"vehicle_type_id":"4","last_reported":1774055277,"current_range_meters":6000,"station_id":"ce4bgk12rcd13ifvqbj0","pricing_plan_id":"cebpf4jnsgd1na2vs0mg"},{"bike_id":"ec805567-1bc2-4aa0-9a36-661edaf8b31c","system_id":"levelo_inurba_marseille","lat":43.29183,"lon":5.39203,"is_reserved":false,"is_disabled":false,"rental_uris":{"android":"levelo://app?vid=ec805567-1bc2-4aa0-9a36-661edaf8b31c","ios":"levelo://app?vid=ec805567-1bc2-4aa0-9a36-661edaf8b31c"},"vehicle_type_id":"4","last_reported":1774055277,"current_range_meters":6000,"station_id":"","pricing_plan_id":"cebpf4jnsgd1na2vs0mg"},{"bike_id":"7a8d49f7-71a0-4ac9-afe8-12137176fb0e","system_id":"levelo_inurba_marseille","lat":43.30344,"lon":5.4298,"is_reserved":false,"is_disabled":false,"rental_uris":{"android":"levelo://app?vid=7a8d49f7-71a0-4ac9-afe8-12137176fb0e","ios":"levelo://app?vid=7a8d49f7-71a0-4ac9-afe8-12137176fb0e"},"vehicle_type_id":"4","last_reported":1774055277,"current_range_meters":6000,"station_id":"","pricing_plan_id":"cebpf4jnsgd1na2vs0mg"},{"bike_id":"ff67e7b6-da47-4acc-8b85-6c1153731c85","system_id":"levelo_inurba_marseille","lat":43.28222,"lon":5.39073,"is_reserved":false,"is_disabled":false,"rental_uris":{"android":"levelo://app?vid=ff67e7b6-da47-4acc-8b85-6c1153731c85","ios":"levelo://app?vid=ff67e7b6-da47-4acc-8b85-6c1153731c85"},"vehicle_type_id":"4","last_reported":1774055277,"current_range_meters":6000,"station_id":"ce4bhn92rcd13ifvqgsg","pricing_plan_id":"cebpf4jnsgd1na2vs0mg"},{"bike_id":"4e863406-68b4-4983-85a4-8459dc5cf74d","system_id":"levelo_inurba_marseille","lat":43.28397,"lon":5.37513,"is_reserved":false,"is_disabled":false,"rental_uris":{"android":"levelo://app?vid=4e863406-68b4-4983-85a4-8459dc5cf74d","ios":"levelo://app?vid=4e863406-68b4-4983-85a4-8459dc5cf74d"},"vehicle_type_id":"4","last_reported":1774055277,"current_range_meters":6000,"station_id":"ce4bh412rcd13ifvqds0","pricing_plan_id":"cebpf4jnsgd1na2vs0mg"},{"bike_id":"39a8eeac-8aed-47e8-88ae-626342613d07","system_id":"levelo_inurba_marseille","lat":43.289218,"lon":5.383937,"is_reserved":false,"is_disabled":false,"rental_uris":{"android":"levelo://app?vid=39a8eeac-8aed-47e8-88ae-626342613d07","ios":"levelo://app?vid=39a8eeac-8aed-47e8-88ae-626342613d07"},"vehicle_type_id":"4","last_reported":1774055277,"current_range_meters":6000,"station_id":"ce4bh612rcd13ifvqe6g","pricing_plan_id":"cebpf4jnsgd1na2vs0mg"},{"bike_id":"e5eba928-e3a4-441b-9540-937747ee47b9","system_id":"levelo_inurba_marseille","lat":43.22569,"lon":5.41629,"is_reserved":false,"is_disabled":false,"rental_uris":{"android":"levelo://app?vid=e5eba928-e3a4-441b-9540-937747ee47b9","ios":"levelo://app?vid=e5eba928-e3a4-441b-9540-937747ee47b9"},"vehicle_type_id":"4","last_reported":1774055277,"current_range_meters":6000,"station_id":"st_d2o4gvlbi1j2169b742g","pricing_plan_id":"cebpf4jnsgd1na2vs0mg"},{"bike_id":"db5e5458-2f95-44ea-adac-1e62aa3b0109","system_id":"levelo_inurba_marseille","lat":43.2603,"lon":5.37546,"is_reserved":false,"is_disabled":false,"rental_uris":{"android":"levelo://app?vid=db5e5458-2f95-44ea-adac-1e62aa3b0109","ios":"levelo://app?vid=db5e5458-2f95-44ea-adac-1e62aa3b0109"},"vehicle_type_id":"4","last_reported":1774055277,"current_range_meters":6000,"station_id":"ce4bhgh2rcd13ifvqfa0","pricing_plan_id":"cebpf4jnsgd1na2vs0mg"},{"bike_id":"b5be4b1a-9c9a-4843-90d9-89384e6e30f3","system_id":"levelo_inurba_marseille","lat":43.28437,"lon":5.3919,"is_reserved":false,"is_disabled":false,"rental_uris":{"android":"levelo://app?vid=b5be4b1a-9c9a-4843-90d9-89384e6e30f3","ios":"levelo://app?vid=b5be4b1a-9c9a-4843-90d9-89384e6e30f3"},"vehicle_type_id":"4","last_reported":1774055277,"current_range_meters":6400,"station_id":"ce4bhoh2rcd13ifvqh5g","pricing_plan_id":"cebpf4jnsgd1na2vs0mg"},{"bike_id":"f328e3b6-a38c-49fe-80e0-c552630893a5","system_id":"levelo_inurba_marseille","lat":43.2293,"lon":5.35379,"is_reserved":false,"is_disabled":false,"rental_uris":{"android":"levelo://app?vid=f328e3b6-a38c-49fe-80e0-c552630893a5","ios":"levelo://app?vid=f328e3b6-a38c-49fe-80e0-c552630893a5"},"vehicle_type_id":"4","last_reported":1774055277,"current_range_meters":6400,"station_id":"cpo3532slgdg3j2ikp40","pricing_plan_id":"cebpf4jnsgd1na2vs0mg"},{"bike_id":"1d2fd94e-06b7-4c66-8362-748b1c5b979d","system_id":"levelo_inurba_marseille","lat":43.3227,"lon":5.38302,"is_reserved":false,"is_disabled":false,"rental_uris":{"android":"levelo://app?vid=1d2fd94e-06b7-4c66-8362-748b1c5b979d","ios":"levelo://app?vid=1d2fd94e-06b7-4c66-8362-748b1c5b979d"},"vehicle_type_id":"4","last_reported":1774055277,"current_range_meters":6400,"station_id":"ce4bhr12rcd13ifvqhqg","pricing_plan_id":"cebpf4jnsgd1na2vs0mg"},{"bike_id":"44654766-e554-4d75-8a7a-83edb02d3ae2","system_id":"levelo_inurba_marseille","lat":43.262125,"lon":5.374407,"is_reserved":false,"is_disabled":false,"rental_uris":{"android":"levelo://app?vid=44654766-e554-4d75-8a7a-83edb02d3ae2","ios":"levelo://app?vid=44654766-e554-4d75-8a7a-83edb02d3ae2"},"vehicle_type_id":"4","last_reported":1774055277,"current_range_meters":6400,"station_id":"ce4bhgp2rcd13ifvqfc0","pricing_plan_id":"cebpf4jnsgd1na2vs0mg"},{"bike_id":"c003f011-8d3c-44a8-8aa1-b12f6898603e","system_id":"levelo_inurba_marseille","lat":43.28263,"lon":5.35073,"is_reserved":false,"is_disabled":false,"rental_uris":{"android":"levelo://app?vid=c003f011-8d3c-44a8-8aa1-b12f6898603e","ios":"levelo://app?vid=c003f011-8d3c-44a8-8aa1-b12f6898603e"},"vehicle_type_id":"4","last_reported":1774055277,"current_range_meters":6400,"station_id":"ce4bhbp2rcd13ifvqerg","pricing_plan_id":"cebpf4jnsgd1na2vs0mg"},{"bike_id":"89ad46cf-ad84-4e5e-be57-87ac2cebe69c","system_id":"levelo_inurba_marseille","lat":43.28524,"lon":5.48441,"is_reserved":false,"is_disabled":false,"rental_uris":{"android":"levelo://app?vid=89ad46cf-ad84-4e5e-be57-87ac2cebe69c","ios":"levelo://app?vid=89ad46cf-ad84-4e5e-be57-87ac2cebe69c"},"vehicle_type_id":"4","last_reported":1774055277,"current_range_meters":6400,"station_id":"st_d3svhcjqgbts73a3dn0g","pricing_plan_id":"cebpf4jnsgd1na2vs0mg"},{"bike_id":"f5988ba5-f6de-430e-82fd-7c47ebd930da","system_id":"levelo_inurba_marseille","lat":43.30774,"lon":5.37652,"is_reserved":false,"is_disabled":false,"rental_uris":{"android":"levelo://app?vid=f5988ba5-f6de-430e-82fd-7c47ebd930da","ios":"levelo://app?vid=f5988ba5-f6de-430e-82fd-7c47ebd930da"},"vehicle_type_id":"4","last_reported":1774055277,"current_range_meters":6400,"station_id":"ce4bgv92rcd13ifvqcq0","pricing_plan_id":"cebpf4jnsgd1na2vs0mg"},{"bike_id":"1c47a840-bf6d-4cd1-b433-d764f171478a","system_id":"levelo_inurba_marseille","lat":43.28271,"lon":5.35059,"is_reserved":false,"is_disabled":false,"rental_uris":{"android":"levelo://app?vid=1c47a840-bf6d-4cd1-b433-d764f171478a","ios":"levelo://app?vid=1c47a840-bf6d-4cd1-b433-d764f171478a"},"vehicle_type_id":"4","last_reported":1774055277,"current_range_meters":6400,"station_id":"ce4bhbp2rcd13ifvqerg","pricing_plan_id":"cebpf4jnsgd1na2vs0mg"},{"bike_id":"8273dccc-e6d5-4b39-a8f8-cc6685202d2b","system_id":"levelo_inurba_marseille","lat":43.24476,"lon":5.42534,"is_reserved":false,"is_disabled":false,"rental_uris":{"android":"levelo://app?vid=8273dccc-e6d5-4b39-a8f8-cc6685202d2b","ios":"levelo://app?vid=8273dccc-e6d5-4b39-a8f8-cc6685202d2b"},"vehicle_type_id":"4","last_reported":1774055277,"current_range_meters":6400,"station_id":"st_d4a3vfp97mjs738cd8kg","pricing_plan_id":"cebpf4jnsgd1na2vs0mg"},{"bike_id":"2aeb4ca5-455b-4837-b530-fbc815ebd019","system_id":"levelo_inurba_marseille","lat":43.27945,"lon":5.41025,"is_reserved":false,"is_disabled":false,"rental_uris":{"android":"levelo://app?vid=2aeb4ca5-455b-4837-b530-fbc815ebd019","ios":"levelo://app?vid=2aeb4ca5-455b-4837-b530-fbc815ebd019"},"vehicle_type_id":"4","last_reported":1774055277,"current_range_meters":6400,"station_id":"ce4bhnp2rcd13ifvqh0g","pricing_plan_id":"cebpf4jnsgd1na2vs0mg"},{"bike_id":"d4bdd173-78c7-4a96-b0a8-c9b4c4e56d68","system_id":"levelo_inurba_marseille","lat":43.28407,"lon":5.3749,"is_reserved":false,"is_disabled":true,"rental_uris":{"android":"levelo://app?vid=d4bdd173-78c7-4a96-b0a8-c9b4c4e56d68","ios":"levelo://app?vid=d4bdd173-78c7-4a96-b0a8-c9b4c4e56d68"},"vehicle_type_id":"4","last_reported":1774055277,"current_range_meters":6800,"station_id":"ce4bh412rcd13ifvqds0","pricing_plan_id":"cebpf4jnsgd1na2vs0mg"},{"bike_id":"cb35b956-4400-4517-a338-c40c59225904","system_id":"levelo_inurba_marseille","lat":43.3128,"lon":5.40154,"is_reserved":false,"is_disabled":false,"rental_uris":{"android":"levelo://app?vid=cb35b956-4400-4517-a338-c40c59225904","ios":"levelo://app?vid=cb35b956-4400-4517-a338-c40c59225904"},"vehicle_type_id":"4","last_reported":1774055277,"current_range_meters":6800,"station_id":"ce4bh092rcd13ifvqd30","pricing_plan_id":"cebpf4jnsgd1na2vs0mg"},{"bike_id":"53f48266-4564-420b-96ab-d243233055dc","system_id":"levelo_inurba_marseille","lat":43.28488,"lon":5.48413,"is_reserved":false,"is_disabled":false,"rental_uris":{"android":"levelo://app?vid=53f48266-4564-420b-96ab-d243233055dc","ios":"levelo://app?vid=53f48266-4564-420b-96ab-d243233055dc"},"vehicle_type_id":"4","last_reported":1774055277,"current_range_meters":6800,"station_id":"","pricing_plan_id":"cebpf4jnsgd1na2vs0mg"},{"bike_id":"0f699794-8202-4161-a052-1d39a341c5fa","system_id":"levelo_inurba_marseille","lat":43.31186,"lon":5.38675,"is_reserved":false,"is_disabled":true,"rental_uris":{"android":"levelo://app?vid=0f699794-8202-4161-a052-1d39a341c5fa","ios":"levelo://app?vid=0f699794-8202-4161-a052-1d39a341c5fa"},"vehicle_type_id":"4","last_reported":1774055277,"current_range_meters":6800,"station_id":"ce4bgv12rcd13ifvqcp0","pricing_plan_id":"cebpf4jnsgd1na2vs0mg"},{"bike_id":"64750939-bbd2-4b6e-99a1-f3ac43884fe6","system_id":"levelo_inurba_marseille","lat":43.23969,"lon":5.36625,"is_reserved":false,"is_disabled":false,"rental_uris":{"android":"levelo://app?vid=64750939-bbd2-4b6e-99a1-f3ac43884fe6","ios":"levelo://app?vid=64750939-bbd2-4b6e-99a1-f3ac43884fe6"},"vehicle_type_id":"4","last_reported":1774055277,"current_range_meters":6800,"station_id":"ce4bhi12rcd13ifvqfp0","pricing_plan_id":"cebpf4jnsgd1na2vs0mg"},{"bike_id":"77f454d6-917b-4466-b700-be57d34ee46f","system_id":"levelo_inurba_marseille","lat":43.30883,"lon":5.39627,"is_reserved":false,"is_disabled":false,"rental_uris":{"android":"levelo://app?vid=77f454d6-917b-4466-b700-be57d34ee46f","ios":"levelo://app?vid=77f454d6-917b-4466-b700-be57d34ee46f"},"vehicle_type_id":"4","last_reported":1774055277,"current_range_meters":6800,"station_id":"ce4bh012rcd13ifvqcv0","pricing_plan_id":"cebpf4jnsgd1na2vs0mg"},{"bike_id":"e42ce0ef-e642-4178-8da7-d0bd601f0280","system_id":"levelo_inurba_marseille","lat":43.27938,"lon":5.41047,"is_reserved":false,"is_disabled":false,"rental_uris":{"android":"levelo://app?vid=e42ce0ef-e642-4178-8da7-d0bd601f0280","ios":"levelo://app?vid=e42ce0ef-e642-4178-8da7-d0bd601f0280"},"vehicle_type_id":"4","last_reported":1774055277,"current_range_meters":6800,"station_id":"ce4bhnp2rcd13ifvqh0g","pricing_plan_id":"cebpf4jnsgd1na2vs0mg"},{"bike_id":"04ecd3ab-33bc-4903-b189-4636b505dc89","system_id":"levelo_inurba_marseille","lat":43.3105,"lon":5.37185,"is_reserved":false,"is_disabled":false,"rental_uris":{"android":"levelo://app?vid=04ecd3ab-33bc-4903-b189-4636b505dc89","ios":"levelo://app?vid=04ecd3ab-33bc-4903-b189-4636b505dc89"},"vehicle_type_id":"4","last_reported":1774055277,"current_range_meters":6800,"station_id":"st_d4kl2rp97mjs73e7tdfg","pricing_plan_id":"cebpf4jnsgd1na2vs0mg"},{"bike_id":"64e01723-7759-4b48-af6b-b5b235009c0a","system_id":"levelo_inurba_marseille","lat":43.29031,"lon":5.38664,"is_reserved":false,"is_disabled":false,"rental_uris":{"android":"levelo://app?vid=64e01723-7759-4b48-af6b-b5b235009c0a","ios":"levelo://app?vid=64e01723-7759-4b48-af6b-b5b235009c0a"},"vehicle_type_id":"4","last_reported":1774055277,"current_range_meters":6800,"station_id":"ce4bh4p2rcd13ifvqe0g","pricing_plan_id":"cebpf4jnsgd1na2vs0mg"},{"bike_id":"7fa64d84-cd92-4f02-a79d-c348b129b15f","system_id":"levelo_inurba_marseille","lat":43.24165,"lon":5.36396,"is_reserved":false,"is_disabled":false,"rental_uris":{"android":"levelo://app?vid=7fa64d84-cd92-4f02-a79d-c348b129b15f","ios":"levelo://app?vid=7fa64d84-cd92-4f02-a79d-c348b129b15f"},"vehicle_type_id":"4","last_reported":1774055277,"current_range_meters":6800,"station_id":"cpo36qri1sfpv3e86is0","pricing_plan_id":"cebpf4jnsgd1na2vs0mg"},{"bike_id":"a723369d-a051-4e71-bebb-c081b571079c","system_id":"levelo_inurba_marseille","lat":43.28576,"lon":5.39492,"is_reserved":false,"is_disabled":false,"rental_uris":{"android":"levelo://app?vid=a723369d-a051-4e71-bebb-c081b571079c","ios":"levelo://app?vid=a723369d-a051-4e71-bebb-c081b571079c"},"vehicle_type_id":"4","last_reported":1774055277,"current_range_meters":6800,"station_id":"ce4bh292rcd13ifvqdg0","pricing_plan_id":"cebpf4jnsgd1na2vs0mg"},{"bike_id":"83675f3e-fe90-4bf0-8b69-f095eac9e73c","system_id":"levelo_inurba_marseille","lat":43.27066,"lon":5.42268,"is_reserved":false,"is_disabled":false,"rental_uris":{"android":"levelo://app?vid=83675f3e-fe90-4bf0-8b69-f095eac9e73c","ios":"levelo://app?vid=83675f3e-fe90-4bf0-8b69-f095eac9e73c"},"vehicle_type_id":"4","last_reported":1774055277,"current_range_meters":6800,"station_id":"ce4bhk92rcd13ifvqgb0","pricing_plan_id":"cebpf4jnsgd1na2vs0mg"},{"bike_id":"912e5f30-2e0b-48a9-85db-a984611241c9","system_id":"levelo_inurba_marseille","lat":43.29815,"lon":5.44062,"is_reserved":false,"is_disabled":false,"rental_uris":{"android":"levelo://app?vid=912e5f30-2e0b-48a9-85db-a984611241c9","ios":"levelo://app?vid=912e5f30-2e0b-48a9-85db-a984611241c9"},"vehicle_type_id":"4","last_reported":1774055277,"current_range_meters":7200,"station_id":"st_d3jp68qikq2c7381ktn0","pricing_plan_id":"cebpf4jnsgd1na2vs0mg"},{"bike_id":"98048623-8945-4f26-a189-5c8da640c16d","system_id":"levelo_inurba_marseille","lat":43.31168,"lon":5.3871,"is_reserved":false,"is_disabled":false,"rental_uris":{"android":"levelo://app?vid=98048623-8945-4f26-a189-5c8da640c16d","ios":"levelo://app?vid=98048623-8945-4f26-a189-5c8da640c16d"},"vehicle_type_id":"4","last_reported":1774055277,"current_range_meters":7200,"station_id":"ce4bgv12rcd13ifvqcp0","pricing_plan_id":"cebpf4jnsgd1na2vs0mg"},{"bike_id":"280960d4-564e-4c0a-b167-a44b4f0f3c47","system_id":"levelo_inurba_marseille","lat":43.29874,"lon":5.39734,"is_reserved":false,"is_disabled":true,"rental_uris":{"android":"levelo://app?vid=280960d4-564e-4c0a-b167-a44b4f0f3c47","ios":"levelo://app?vid=280960d4-564e-4c0a-b167-a44b4f0f3c47"},"vehicle_type_id":"4","last_reported":1774055277,"current_range_meters":7200,"station_id":"ce4bh0h2rcd13ifvqd50","pricing_plan_id":"cebpf4jnsgd1na2vs0mg"},{"bike_id":"f12ce399-1654-48f8-a320-211fcab6582c","system_id":"levelo_inurba_marseille","lat":43.23792,"lon":5.36622,"is_reserved":false,"is_disabled":false,"rental_uris":{"android":"levelo://app?vid=f12ce399-1654-48f8-a320-211fcab6582c","ios":"levelo://app?vid=f12ce399-1654-48f8-a320-211fcab6582c"},"vehicle_type_id":"4","last_reported":1774055277,"current_range_meters":7200,"station_id":"st_d3nk18o9ro0c73en2l3g","pricing_plan_id":"cebpf4jnsgd1na2vs0mg"},{"bike_id":"ac4ca0f2-f5c2-4c9c-81db-9f7b20e89d0c","system_id":"levelo_inurba_marseille","lat":43.28539,"lon":5.44094,"is_reserved":false,"is_disabled":true,"rental_uris":{"android":"levelo://app?vid=ac4ca0f2-f5c2-4c9c-81db-9f7b20e89d0c","ios":"levelo://app?vid=ac4ca0f2-f5c2-4c9c-81db-9f7b20e89d0c"},"vehicle_type_id":"4","last_reported":1774055277,"current_range_meters":7200,"station_id":"st_d3j3df2ikq2c7380ej80","pricing_plan_id":"cebpf4jnsgd1na2vs0mg"},{"bike_id":"8648ff3d-a49d-4491-be6c-bab3f9812603","system_id":"levelo_inurba_marseille","lat":43.28288,"lon":5.4383,"is_reserved":false,"is_disabled":false,"rental_uris":{"android":"levelo://app?vid=8648ff3d-a49d-4491-be6c-bab3f9812603","ios":"levelo://app?vid=8648ff3d-a49d-4491-be6c-bab3f9812603"},"vehicle_type_id":"4","last_reported":1774055277,"current_range_meters":7200,"station_id":"","pricing_plan_id":"cebpf4jnsgd1na2vs0mg"},{"bike_id":"ec6d179b-846e-4b3e-b0f8-bc703af425ca","system_id":"levelo_inurba_marseille","lat":43.27426,"lon":5.39423,"is_reserved":false,"is_disabled":false,"rental_uris":{"android":"levelo://app?vid=ec6d179b-846e-4b3e-b0f8-bc703af425ca","ios":"levelo://app?vid=ec6d179b-846e-4b3e-b0f8-bc703af425ca"},"vehicle_type_id":"4","last_reported":1774055277,"current_range_meters":7200,"station_id":"ce4bhdp2rcd13ifvqf20","pricing_plan_id":"cebpf4jnsgd1na2vs0mg"},{"bike_id":"b3b3bb0b-fb2d-4490-a557-6f80b344e03f","system_id":"levelo_inurba_marseille","lat":43.28932,"lon":5.39611,"is_reserved":false,"is_disabled":true,"rental_uris":{"android":"levelo://app?vid=b3b3bb0b-fb2d-4490-a557-6f80b344e03f","ios":"levelo://app?vid=b3b3bb0b-fb2d-4490-a557-6f80b344e03f"},"vehicle_type_id":"4","last_reported":1774055277,"current_range_meters":7200,"station_id":"ce4bh3h2rcd13ifvqdn0","pricing_plan_id":"cebpf4jnsgd1na2vs0mg"},{"bike_id":"3bcc2cf5-06b1-43fe-92a1-a697505d7a84","system_id":"levelo_inurba_marseille","lat":43.28368,"lon":5.37456,"is_reserved":false,"is_disabled":false,"rental_uris":{"android":"levelo://app?vid=3bcc2cf5-06b1-43fe-92a1-a697505d7a84","ios":"levelo://app?vid=3bcc2cf5-06b1-43fe-92a1-a697505d7a84"},"vehicle_type_id":"4","last_reported":1774055277,"current_range_meters":7200,"station_id":"ce4bh412rcd13ifvqds0","pricing_plan_id":"cebpf4jnsgd1na2vs0mg"},{"bike_id":"a8c8307b-e1e9-4950-a785-578e1a82f805","system_id":"levelo_inurba_marseille","lat":43.31283,"lon":5.37829,"is_reserved":false,"is_disabled":false,"rental_uris":{"android":"levelo://app?vid=a8c8307b-e1e9-4950-a785-578e1a82f805","ios":"levelo://app?vid=a8c8307b-e1e9-4950-a785-578e1a82f805"},"vehicle_type_id":"4","last_reported":1774055277,"current_range_meters":7200,"station_id":"","pricing_plan_id":"cebpf4jnsgd1na2vs0mg"},{"bike_id":"962e3e51-db50-4f61-a079-9b1c6a103eb5","system_id":"levelo_inurba_marseille","lat":43.30963,"lon":5.36814,"is_reserved":false,"is_disabled":false,"rental_uris":{"android":"levelo://app?vid=962e3e51-db50-4f61-a079-9b1c6a103eb5","ios":"levelo://app?vid=962e3e51-db50-4f61-a079-9b1c6a103eb5"},"vehicle_type_id":"4","last_reported":1774055277,"current_range_meters":7200,"station_id":"","pricing_plan_id":"cebpf4jnsgd1na2vs0mg"},{"bike_id":"985884be-dfe3-4981-bf1b-a916100c45e3","system_id":"levelo_inurba_marseille","lat":43.31124,"lon":5.37753,"is_reserved":false,"is_disabled":false,"rental_uris":{"android":"levelo://app?vid=985884be-dfe3-4981-bf1b-a916100c45e3","ios":"levelo://app?vid=985884be-dfe3-4981-bf1b-a916100c45e3"},"vehicle_type_id":"4","last_reported":1774055277,"current_range_meters":7200,"station_id":"ce4bgt92rcd13ifvqcg0","pricing_plan_id":"cebpf4jnsgd1na2vs0mg"},{"bike_id":"2cea9d46-c32a-4a24-9abe-5dc099975957","system_id":"levelo_inurba_marseille","lat":43.28528,"lon":5.48436,"is_reserved":false,"is_disabled":false,"rental_uris":{"android":"levelo://app?vid=2cea9d46-c32a-4a24-9abe-5dc099975957","ios":"levelo://app?vid=2cea9d46-c32a-4a24-9abe-5dc099975957"},"vehicle_type_id":"4","last_reported":1774055277,"current_range_meters":7200,"station_id":"","pricing_plan_id":"cebpf4jnsgd1na2vs0mg"},{"bike_id":"2d9e4754-9b17-40b5-bbeb-5b1c9c5bbe64","system_id":"levelo_inurba_marseille","lat":43.30134,"lon":5.38777,"is_reserved":false,"is_disabled":true,"rental_uris":{"android":"levelo://app?vid=2d9e4754-9b17-40b5-bbeb-5b1c9c5bbe64","ios":"levelo://app?vid=2d9e4754-9b17-40b5-bbeb-5b1c9c5bbe64"},"vehicle_type_id":"4","last_reported":1774055277,"current_range_meters":7200,"station_id":"ce4bghh2rcd13ifvqb60","pricing_plan_id":"cebpf4jnsgd1na2vs0mg"},{"bike_id":"9bedb971-6887-4d43-88c8-1762430f453d","system_id":"levelo_inurba_marseille","lat":43.2468,"lon":5.3814,"is_reserved":false,"is_disabled":true,"rental_uris":{"android":"levelo://app?vid=9bedb971-6887-4d43-88c8-1762430f453d","ios":"levelo://app?vid=9bedb971-6887-4d43-88c8-1762430f453d"},"vehicle_type_id":"4","last_reported":1774055277,"current_range_meters":7200,"station_id":"ce4bhih2rcd13ifvqfr0","pricing_plan_id":"cebpf4jnsgd1na2vs0mg"},{"bike_id":"485d18ea-0249-4635-98bb-8652152de738","system_id":"levelo_inurba_marseille","lat":43.23783,"lon":5.36619,"is_reserved":false,"is_disabled":false,"rental_uris":{"android":"levelo://app?vid=485d18ea-0249-4635-98bb-8652152de738","ios":"levelo://app?vid=485d18ea-0249-4635-98bb-8652152de738"},"vehicle_type_id":"4","last_reported":1774055277,"current_range_meters":7200,"station_id":"st_d3nk18o9ro0c73en2l3g","pricing_plan_id":"cebpf4jnsgd1na2vs0mg"},{"bike_id":"7c4a7d4c-c38b-40e6-b54a-094bab25d18a","system_id":"levelo_inurba_marseille","lat":43.27943,"lon":5.41035,"is_reserved":false,"is_disabled":false,"rental_uris":{"android":"levelo://app?vid=7c4a7d4c-c38b-40e6-b54a-094bab25d18a","ios":"levelo://app?vid=7c4a7d4c-c38b-40e6-b54a-094bab25d18a"},"vehicle_type_id":"4","last_reported":1774055277,"current_range_meters":7200,"station_id":"ce4bhnp2rcd13ifvqh0g","pricing_plan_id":"cebpf4jnsgd1na2vs0mg"},{"bike_id":"a5fead34-695e-425e-b1de-c524f0a7c6d4","system_id":"levelo_inurba_marseille","lat":43.30795,"lon":5.37628,"is_reserved":false,"is_disabled":false,"rental_uris":{"android":"levelo://app?vid=a5fead34-695e-425e-b1de-c524f0a7c6d4","ios":"levelo://app?vid=a5fead34-695e-425e-b1de-c524f0a7c6d4"},"vehicle_type_id":"4","last_reported":1774055277,"current_range_meters":7200,"station_id":"ce4bgv92rcd13ifvqcq0","pricing_plan_id":"cebpf4jnsgd1na2vs0mg"},{"bike_id":"50fe0782-9475-489c-9b0d-f41783674fbb","system_id":"levelo_inurba_marseille","lat":43.25818,"lon":5.39425,"is_reserved":false,"is_disabled":false,"rental_uris":{"android":"levelo://app?vid=50fe0782-9475-489c-9b0d-f41783674fbb","ios":"levelo://app?vid=50fe0782-9475-489c-9b0d-f41783674fbb"},"vehicle_type_id":"4","last_reported":1774055277,"current_range_meters":7200,"station_id":"ce4bhip2rcd13ifvqft0","pricing_plan_id":"cebpf4jnsgd1na2vs0mg"},{"bike_id":"74e39939-39d8-42d2-a522-0fbb91581566","system_id":"levelo_inurba_marseille","lat":43.24492,"lon":5.39679,"is_reserved":false,"is_disabled":false,"rental_uris":{"android":"levelo://app?vid=74e39939-39d8-42d2-a522-0fbb91581566","ios":"levelo://app?vid=74e39939-39d8-42d2-a522-0fbb91581566"},"vehicle_type_id":"4","last_reported":1774055277,"current_range_meters":7200,"station_id":"","pricing_plan_id":"cebpf4jnsgd1na2vs0mg"},{"bike_id":"e2420c11-4646-4145-aa2e-baedb91a43dc","system_id":"levelo_inurba_marseille","lat":43.32357,"lon":5.3676,"is_reserved":false,"is_disabled":false,"rental_uris":{"android":"levelo://app?vid=e2420c11-4646-4145-aa2e-baedb91a43dc","ios":"levelo://app?vid=e2420c11-4646-4145-aa2e-baedb91a43dc"},"vehicle_type_id":"4","last_reported":1774055277,"current_range_meters":8000,"station_id":"ce4bhsh2rcd13ifvqi2g","pricing_plan_id":"cebpf4jnsgd1na2vs0mg"},{"bike_id":"d00ce6b1-d263-4644-9ac8-801c3d34ac19","system_id":"levelo_inurba_marseille","lat":43.22568,"lon":5.41623,"is_reserved":false,"is_disabled":false,"rental_uris":{"android":"levelo://app?vid=d00ce6b1-d263-4644-9ac8-801c3d34ac19","ios":"levelo://app?vid=d00ce6b1-d263-4644-9ac8-801c3d34ac19"},"vehicle_type_id":"4","last_reported":1774055277,"current_range_meters":8000,"station_id":"st_d2o4gvlbi1j2169b742g","pricing_plan_id":"cebpf4jnsgd1na2vs0mg"},{"bike_id":"f3414e99-2d7c-4b03-96db-df8c1c6d3f2b","system_id":"levelo_inurba_marseille","lat":43.28461,"lon":5.4838,"is_reserved":false,"is_disabled":false,"rental_uris":{"android":"levelo://app?vid=f3414e99-2d7c-4b03-96db-df8c1c6d3f2b","ios":"levelo://app?vid=f3414e99-2d7c-4b03-96db-df8c1c6d3f2b"},"vehicle_type_id":"4","last_reported":1774055277,"current_range_meters":8000,"station_id":"","pricing_plan_id":"cebpf4jnsgd1na2vs0mg"},{"bike_id":"bfa999de-7a32-454a-b31e-f99ace51a3fc","system_id":"levelo_inurba_marseille","lat":43.28475,"lon":5.48396,"is_reserved":false,"is_disabled":false,"rental_uris":{"android":"levelo://app?vid=bfa999de-7a32-454a-b31e-f99ace51a3fc","ios":"levelo://app?vid=bfa999de-7a32-454a-b31e-f99ace51a3fc"},"vehicle_type_id":"4","last_reported":1774055277,"current_range_meters":8000,"station_id":"","pricing_plan_id":"cebpf4jnsgd1na2vs0mg"},{"bike_id":"eea5b844-b303-4614-bdb0-ae897dd307b5","system_id":"levelo_inurba_marseille","lat":43.2479,"lon":5.37433,"is_reserved":false,"is_disabled":false,"rental_uris":{"android":"levelo://app?vid=eea5b844-b303-4614-bdb0-ae897dd307b5","ios":"levelo://app?vid=eea5b844-b303-4614-bdb0-ae897dd307b5"},"vehicle_type_id":"4","last_reported":1774055277,"current_range_meters":8000,"station_id":"ce4bhgh2rcd13ifvqfb0","pricing_plan_id":"cebpf4jnsgd1na2vs0mg"},{"bike_id":"233dbf6d-4647-43f1-b294-b437351b9958","system_id":"levelo_inurba_marseille","lat":43.24657,"lon":5.3816,"is_reserved":false,"is_disabled":false,"rental_uris":{"android":"levelo://app?vid=233dbf6d-4647-43f1-b294-b437351b9958","ios":"levelo://app?vid=233dbf6d-4647-43f1-b294-b437351b9958"},"vehicle_type_id":"4","last_reported":1774055277,"current_range_meters":8000,"station_id":"ce4bhih2rcd13ifvqfr0","pricing_plan_id":"cebpf4jnsgd1na2vs0mg"},{"bike_id":"8de3014b-6fea-4d86-ac82-dc4848a60d92","system_id":"levelo_inurba_marseille","lat":43.29829,"lon":5.3636,"is_reserved":false,"is_disabled":false,"rental_uris":{"android":"levelo://app?vid=8de3014b-6fea-4d86-ac82-dc4848a60d92","ios":"levelo://app?vid=8de3014b-6fea-4d86-ac82-dc4848a60d92"},"vehicle_type_id":"4","last_reported":1774055277,"current_range_meters":8000,"station_id":"","pricing_plan_id":"cebpf4jnsgd1na2vs0mg"},{"bike_id":"ffee91b4-e1f4-4cfe-bfbf-9ca7434cffe2","system_id":"levelo_inurba_marseille","lat":43.2741,"lon":5.39411,"is_reserved":false,"is_disabled":true,"rental_uris":{"android":"levelo://app?vid=ffee91b4-e1f4-4cfe-bfbf-9ca7434cffe2","ios":"levelo://app?vid=ffee91b4-e1f4-4cfe-bfbf-9ca7434cffe2"},"vehicle_type_id":"4","last_reported":1774055277,"current_range_meters":8000,"station_id":"ce4bhdp2rcd13ifvqf20","pricing_plan_id":"cebpf4jnsgd1na2vs0mg"},{"bike_id":"899859b7-4bf7-42c0-bd23-f17f3451c420","system_id":"levelo_inurba_marseille","lat":43.28032,"lon":5.36933,"is_reserved":false,"is_disabled":false,"rental_uris":{"android":"levelo://app?vid=899859b7-4bf7-42c0-bd23-f17f3451c420","ios":"levelo://app?vid=899859b7-4bf7-42c0-bd23-f17f3451c420"},"vehicle_type_id":"4","last_reported":1774055277,"current_range_meters":8000,"station_id":"ce4bha12rcd13ifvqef0","pricing_plan_id":"cebpf4jnsgd1na2vs0mg"},{"bike_id":"bfcd297d-8eb3-4c95-ac63-338c1f23c812","system_id":"levelo_inurba_marseille","lat":43.26509,"lon":5.37354,"is_reserved":false,"is_disabled":false,"rental_uris":{"android":"levelo://app?vid=bfcd297d-8eb3-4c95-ac63-338c1f23c812","ios":"levelo://app?vid=bfcd297d-8eb3-4c95-ac63-338c1f23c812"},"vehicle_type_id":"4","last_reported":1774055277,"current_range_meters":8000,"station_id":"ce4bhg12rcd13ifvqf70","pricing_plan_id":"cebpf4jnsgd1na2vs0mg"},{"bike_id":"c7ca3395-61a6-424a-8b4e-14bb7ddfa33a","system_id":"levelo_inurba_marseille","lat":43.30144,"lon":5.38786,"is_reserved":false,"is_disabled":true,"rental_uris":{"android":"levelo://app?vid=c7ca3395-61a6-424a-8b4e-14bb7ddfa33a","ios":"levelo://app?vid=c7ca3395-61a6-424a-8b4e-14bb7ddfa33a"},"vehicle_type_id":"4","last_reported":1774055277,"current_range_meters":8000,"station_id":"ce4bghh2rcd13ifvqb60","pricing_plan_id":"cebpf4jnsgd1na2vs0mg"},{"bike_id":"e08bf893-c056-4125-8c2b-f7261af6c4ba","system_id":"levelo_inurba_marseille","lat":43.24389,"lon":5.37076,"is_reserved":false,"is_disabled":false,"rental_uris":{"android":"levelo://app?vid=e08bf893-c056-4125-8c2b-f7261af6c4ba","ios":"levelo://app?vid=e08bf893-c056-4125-8c2b-f7261af6c4ba"},"vehicle_type_id":"4","last_reported":1774055277,"current_range_meters":8000,"station_id":"ce4bhhh2rcd13ifvqfk0","pricing_plan_id":"cebpf4jnsgd1na2vs0mg"},{"bike_id":"ca24cff9-1325-4c4b-8263-78f9ff72fe6b","system_id":"levelo_inurba_marseille","lat":43.28357,"lon":5.39241,"is_reserved":false,"is_disabled":false,"rental_uris":{"android":"levelo://app?vid=ca24cff9-1325-4c4b-8263-78f9ff72fe6b","ios":"levelo://app?vid=ca24cff9-1325-4c4b-8263-78f9ff72fe6b"},"vehicle_type_id":"4","last_reported":1774055277,"current_range_meters":8000,"station_id":"","pricing_plan_id":"cebpf4jnsgd1na2vs0mg"},{"bike_id":"4cfda525-c1a6-40b6-a6a8-f7d117c609ed","system_id":"levelo_inurba_marseille","lat":43.28866,"lon":5.39299,"is_reserved":false,"is_disabled":false,"rental_uris":{"android":"levelo://app?vid=4cfda525-c1a6-40b6-a6a8-f7d117c609ed","ios":"levelo://app?vid=4cfda525-c1a6-40b6-a6a8-f7d117c609ed"},"vehicle_type_id":"4","last_reported":1774055277,"current_range_meters":8000,"station_id":"ce4bh2p2rcd13ifvqdi0","pricing_plan_id":"cebpf4jnsgd1na2vs0mg"},{"bike_id":"ec237af0-43ed-4b62-a9da-c39e8072aab3","system_id":"levelo_inurba_marseille","lat":43.28108,"lon":5.37855,"is_reserved":false,"is_disabled":false,"rental_uris":{"android":"levelo://app?vid=ec237af0-43ed-4b62-a9da-c39e8072aab3","ios":"levelo://app?vid=ec237af0-43ed-4b62-a9da-c39e8072aab3"},"vehicle_type_id":"4","last_reported":1774055277,"current_range_meters":8400,"station_id":"ce4bha12rcd13ifvqee0","pricing_plan_id":"cebpf4jnsgd1na2vs0mg"},{"bike_id":"d5acba57-4757-497d-adef-b7117d2c4c49","system_id":"levelo_inurba_marseille","lat":43.2846,"lon":5.35878,"is_reserved":false,"is_disabled":false,"rental_uris":{"android":"levelo://app?vid=d5acba57-4757-497d-adef-b7117d2c4c49","ios":"levelo://app?vid=d5acba57-4757-497d-adef-b7117d2c4c49"},"vehicle_type_id":"4","last_reported":1774055277,"current_range_meters":8400,"station_id":"ce4bhah2rcd13ifvqei0","pricing_plan_id":"cebpf4jnsgd1na2vs0mg"},{"bike_id":"5716d1af-2ce1-4218-a0f5-04570e2beea2","system_id":"levelo_inurba_marseille","lat":43.27615,"lon":5.36106,"is_reserved":false,"is_disabled":false,"rental_uris":{"android":"levelo://app?vid=5716d1af-2ce1-4218-a0f5-04570e2beea2","ios":"levelo://app?vid=5716d1af-2ce1-4218-a0f5-04570e2beea2"},"vehicle_type_id":"4","last_reported":1774055277,"current_range_meters":8400,"station_id":"ce4bgj92rcd13ifvqbe0","pricing_plan_id":"cebpf4jnsgd1na2vs0mg"},{"bike_id":"63cda11a-b52e-45b3-9876-91b0e59b9a05","system_id":"levelo_inurba_marseille","lat":43.25791,"lon":5.39395,"is_reserved":false,"is_disabled":false,"rental_uris":{"android":"levelo://app?vid=63cda11a-b52e-45b3-9876-91b0e59b9a05","ios":"levelo://app?vid=63cda11a-b52e-45b3-9876-91b0e59b9a05"},"vehicle_type_id":"4","last_reported":1774055277,"current_range_meters":8400,"station_id":"ce4bhip2rcd13ifvqft0","pricing_plan_id":"cebpf4jnsgd1na2vs0mg"},{"bike_id":"72e035d0-dcc2-4dcf-8660-2e348be6861e","system_id":"levelo_inurba_marseille","lat":43.31464,"lon":5.45371,"is_reserved":false,"is_disabled":false,"rental_uris":{"android":"levelo://app?vid=72e035d0-dcc2-4dcf-8660-2e348be6861e","ios":"levelo://app?vid=72e035d0-dcc2-4dcf-8660-2e348be6861e"},"vehicle_type_id":"4","last_reported":1774055277,"current_range_meters":8400,"station_id":"","pricing_plan_id":"cebpf4jnsgd1na2vs0mg"},{"bike_id":"5053a012-d646-439d-b591-468fdeaa8c67","system_id":"levelo_inurba_marseille","lat":43.25328,"lon":5.42163,"is_reserved":false,"is_disabled":false,"rental_uris":{"android":"levelo://app?vid=5053a012-d646-439d-b591-468fdeaa8c67","ios":"levelo://app?vid=5053a012-d646-439d-b591-468fdeaa8c67"},"vehicle_type_id":"4","last_reported":1774055277,"current_range_meters":8400,"station_id":"st_d2m65c5bi1j21697t3ng","pricing_plan_id":"cebpf4jnsgd1na2vs0mg"},{"bike_id":"b5158943-1b7f-4a4e-99c7-b32cc00568e8","system_id":"levelo_inurba_marseille","lat":43.28946,"lon":5.36396,"is_reserved":false,"is_disabled":false,"rental_uris":{"android":"levelo://app?vid=b5158943-1b7f-4a4e-99c7-b32cc00568e8","ios":"levelo://app?vid=b5158943-1b7f-4a4e-99c7-b32cc00568e8"},"vehicle_type_id":"4","last_reported":1774055277,"current_range_meters":8400,"station_id":"ce4bhc92rcd13ifvqetg","pricing_plan_id":"cebpf4jnsgd1na2vs0mg"},{"bike_id":"92f32112-8a58-4a2d-8380-c50aa46da344","system_id":"levelo_inurba_marseille","lat":43.24072,"lon":5.36357,"is_reserved":false,"is_disabled":false,"rental_uris":{"android":"levelo://app?vid=92f32112-8a58-4a2d-8380-c50aa46da344","ios":"levelo://app?vid=92f32112-8a58-4a2d-8380-c50aa46da344"},"vehicle_type_id":"4","last_reported":1774055277,"current_range_meters":8400,"station_id":"","pricing_plan_id":"cebpf4jnsgd1na2vs0mg"},{"bike_id":"286fba00-1c70-49c5-9491-0b3044de24cb","system_id":"levelo_inurba_marseille","lat":43.26232,"lon":5.40456,"is_reserved":false,"is_disabled":true,"rental_uris":{"android":"levelo://app?vid=286fba00-1c70-49c5-9491-0b3044de24cb","ios":"levelo://app?vid=286fba00-1c70-49c5-9491-0b3044de24cb"},"vehicle_type_id":"4","last_reported":1774055277,"current_range_meters":8400,"station_id":"ce4bhmh2rcd13ifvqgmg","pricing_plan_id":"cebpf4jnsgd1na2vs0mg"},{"bike_id":"ab77a418-345e-453b-bca3-3815a5ee3842","system_id":"levelo_inurba_marseille","lat":43.23195,"lon":5.35537,"is_reserved":false,"is_disabled":false,"rental_uris":{"android":"levelo://app?vid=ab77a418-345e-453b-bca3-3815a5ee3842","ios":"levelo://app?vid=ab77a418-345e-453b-bca3-3815a5ee3842"},"vehicle_type_id":"4","last_reported":1774055277,"current_range_meters":8400,"station_id":"ce4bhu92rcd13ifvqi70","pricing_plan_id":"cebpf4jnsgd1na2vs0mg"},{"bike_id":"0229835b-c6fa-4fab-a5ec-1f44b1066777","system_id":"levelo_inurba_marseille","lat":43.29634,"lon":5.40592,"is_reserved":false,"is_disabled":false,"rental_uris":{"android":"levelo://app?vid=0229835b-c6fa-4fab-a5ec-1f44b1066777","ios":"levelo://app?vid=0229835b-c6fa-4fab-a5ec-1f44b1066777"},"vehicle_type_id":"4","last_reported":1774055277,"current_range_meters":8400,"station_id":"ce4bh0h2rcd13ifvqd60","pricing_plan_id":"cebpf4jnsgd1na2vs0mg"},{"bike_id":"619b8d4c-fc96-4a20-8efc-e52a01e0f227","system_id":"levelo_inurba_marseille","lat":43.28415,"lon":5.37491,"is_reserved":false,"is_disabled":false,"rental_uris":{"android":"levelo://app?vid=619b8d4c-fc96-4a20-8efc-e52a01e0f227","ios":"levelo://app?vid=619b8d4c-fc96-4a20-8efc-e52a01e0f227"},"vehicle_type_id":"4","last_reported":1774055277,"current_range_meters":8400,"station_id":"ce4bh412rcd13ifvqds0","pricing_plan_id":"cebpf4jnsgd1na2vs0mg"},{"bike_id":"0f91a451-e71a-4abd-8416-2bb372e59a0f","system_id":"levelo_inurba_marseille","lat":43.28607,"lon":5.39861,"is_reserved":false,"is_disabled":false,"rental_uris":{"android":"levelo://app?vid=0f91a451-e71a-4abd-8416-2bb372e59a0f","ios":"levelo://app?vid=0f91a451-e71a-4abd-8416-2bb372e59a0f"},"vehicle_type_id":"4","last_reported":1774055277,"current_range_meters":8400,"station_id":"st_d4a7ka997mjs738ck50g","pricing_plan_id":"cebpf4jnsgd1na2vs0mg"},{"bike_id":"7e8d95cf-3163-4ed5-8f3f-e335b460ed44","system_id":"levelo_inurba_marseille","lat":43.28042,"lon":5.36947,"is_reserved":false,"is_disabled":false,"rental_uris":{"android":"levelo://app?vid=7e8d95cf-3163-4ed5-8f3f-e335b460ed44","ios":"levelo://app?vid=7e8d95cf-3163-4ed5-8f3f-e335b460ed44"},"vehicle_type_id":"4","last_reported":1774055277,"current_range_meters":8400,"station_id":"ce4bha12rcd13ifvqef0","pricing_plan_id":"cebpf4jnsgd1na2vs0mg"},{"bike_id":"37fd8b91-bebb-483f-9ede-850904204da2","system_id":"levelo_inurba_marseille","lat":43.33428,"lon":5.35669,"is_reserved":false,"is_disabled":false,"rental_uris":{"android":"levelo://app?vid=37fd8b91-bebb-483f-9ede-850904204da2","ios":"levelo://app?vid=37fd8b91-bebb-483f-9ede-850904204da2"},"vehicle_type_id":"4","last_reported":1774055277,"current_range_meters":8400,"station_id":"","pricing_plan_id":"cebpf4jnsgd1na2vs0mg"},{"bike_id":"02bf4e22-4a59-4416-ba1c-3c09acf8d761","system_id":"levelo_inurba_marseille","lat":43.270692,"lon":5.422856,"is_reserved":false,"is_disabled":false,"rental_uris":{"android":"levelo://app?vid=02bf4e22-4a59-4416-ba1c-3c09acf8d761","ios":"levelo://app?vid=02bf4e22-4a59-4416-ba1c-3c09acf8d761"},"vehicle_type_id":"4","last_reported":1774055277,"current_range_meters":8400,"station_id":"ce4bhk92rcd13ifvqgb0","pricing_plan_id":"cebpf4jnsgd1na2vs0mg"},{"bike_id":"da32152b-a471-403b-956f-6e25223d1928","system_id":"levelo_inurba_marseille","lat":43.28792,"lon":5.36502,"is_reserved":false,"is_disabled":false,"rental_uris":{"android":"levelo://app?vid=da32152b-a471-403b-956f-6e25223d1928","ios":"levelo://app?vid=da32152b-a471-403b-956f-6e25223d1928"},"vehicle_type_id":"4","last_reported":1774055277,"current_range_meters":8400,"station_id":"ce4bhap2rcd13ifvqek0","pricing_plan_id":"cebpf4jnsgd1na2vs0mg"},{"bike_id":"7da875a9-d5e7-4431-ad5a-b5896a32396f","system_id":"levelo_inurba_marseille","lat":43.28562,"lon":5.39945,"is_reserved":false,"is_disabled":false,"rental_uris":{"android":"levelo://app?vid=7da875a9-d5e7-4431-ad5a-b5896a32396f","ios":"levelo://app?vid=7da875a9-d5e7-4431-ad5a-b5896a32396f"},"vehicle_type_id":"4","last_reported":1774055277,"current_range_meters":8400,"station_id":"","pricing_plan_id":"cebpf4jnsgd1na2vs0mg"},{"bike_id":"ca723477-6ce7-4fae-8e55-817ca4f7ef9c","system_id":"levelo_inurba_marseille","lat":43.28421,"lon":5.37514,"is_reserved":false,"is_disabled":false,"rental_uris":{"android":"levelo://app?vid=ca723477-6ce7-4fae-8e55-817ca4f7ef9c","ios":"levelo://app?vid=ca723477-6ce7-4fae-8e55-817ca4f7ef9c"},"vehicle_type_id":"4","last_reported":1774055277,"current_range_meters":8400,"station_id":"ce4bh412rcd13ifvqds0","pricing_plan_id":"cebpf4jnsgd1na2vs0mg"},{"bike_id":"0c744d67-74b3-4bed-8fa1-274d8c3afbea","system_id":"levelo_inurba_marseille","lat":43.23686,"lon":5.36774,"is_reserved":false,"is_disabled":false,"rental_uris":{"android":"levelo://app?vid=0c744d67-74b3-4bed-8fa1-274d8c3afbea","ios":"levelo://app?vid=0c744d67-74b3-4bed-8fa1-274d8c3afbea"},"vehicle_type_id":"4","last_reported":1774055277,"current_range_meters":8400,"station_id":"","pricing_plan_id":"cebpf4jnsgd1na2vs0mg"},{"bike_id":"262ada7b-e921-4972-8622-122c955ca166","system_id":"levelo_inurba_marseille","lat":43.24797,"lon":5.37445,"is_reserved":false,"is_disabled":false,"rental_uris":{"android":"levelo://app?vid=262ada7b-e921-4972-8622-122c955ca166","ios":"levelo://app?vid=262ada7b-e921-4972-8622-122c955ca166"},"vehicle_type_id":"4","last_reported":1774055277,"current_range_meters":8400,"station_id":"ce4bhgh2rcd13ifvqfb0","pricing_plan_id":"cebpf4jnsgd1na2vs0mg"},{"bike_id":"b87d7938-28e4-46e7-994e-fdebd5392225","system_id":"levelo_inurba_marseille","lat":43.32117,"lon":5.36778,"is_reserved":false,"is_disabled":false,"rental_uris":{"android":"levelo://app?vid=b87d7938-28e4-46e7-994e-fdebd5392225","ios":"levelo://app?vid=b87d7938-28e4-46e7-994e-fdebd5392225"},"vehicle_type_id":"4","last_reported":1774055277,"current_range_meters":8400,"station_id":"ce4bhrh2rcd13ifvqhug","pricing_plan_id":"cebpf4jnsgd1na2vs0mg"},{"bike_id":"86cd441c-65fa-4476-9605-796689db0853","system_id":"levelo_inurba_marseille","lat":43.29733,"lon":5.36607,"is_reserved":false,"is_disabled":false,"rental_uris":{"android":"levelo://app?vid=86cd441c-65fa-4476-9605-796689db0853","ios":"levelo://app?vid=86cd441c-65fa-4476-9605-796689db0853"},"vehicle_type_id":"4","last_reported":1774055277,"current_range_meters":8800,"station_id":"ce4bgn12rcd13ifvqbt0","pricing_plan_id":"cebpf4jnsgd1na2vs0mg"},{"bike_id":"5672f140-f178-4766-bb60-5301b26a0e4e","system_id":"levelo_inurba_marseille","lat":43.28507,"lon":5.48377,"is_reserved":false,"is_disabled":false,"rental_uris":{"android":"levelo://app?vid=5672f140-f178-4766-bb60-5301b26a0e4e","ios":"levelo://app?vid=5672f140-f178-4766-bb60-5301b26a0e4e"},"vehicle_type_id":"4","last_reported":1774055277,"current_range_meters":8800,"station_id":"","pricing_plan_id":"cebpf4jnsgd1na2vs0mg"},{"bike_id":"fc7fcd33-7a04-485d-9efe-8e52ccf6b49a","system_id":"levelo_inurba_marseille","lat":43.29815,"lon":5.37126,"is_reserved":false,"is_disabled":false,"rental_uris":{"android":"levelo://app?vid=fc7fcd33-7a04-485d-9efe-8e52ccf6b49a","ios":"levelo://app?vid=fc7fcd33-7a04-485d-9efe-8e52ccf6b49a"},"vehicle_type_id":"4","last_reported":1774055277,"current_range_meters":8800,"station_id":"ce4bgop2rcd13ifvqc1g","pricing_plan_id":"cebpf4jnsgd1na2vs0mg"},{"bike_id":"9fc3100e-4d82-48d6-89bc-f6f291702956","system_id":"levelo_inurba_marseille","lat":43.31759,"lon":5.39021,"is_reserved":false,"is_disabled":false,"rental_uris":{"android":"levelo://app?vid=9fc3100e-4d82-48d6-89bc-f6f291702956","ios":"levelo://app?vid=9fc3100e-4d82-48d6-89bc-f6f291702956"},"vehicle_type_id":"4","last_reported":1774055277,"current_range_meters":8800,"station_id":"ce4bhqp2rcd13ifvqhng","pricing_plan_id":"cebpf4jnsgd1na2vs0mg"},{"bike_id":"c69f3f7d-a580-4b47-be9a-db8167bcf78f","system_id":"levelo_inurba_marseille","lat":43.30641,"lon":5.40075,"is_reserved":false,"is_disabled":false,"rental_uris":{"android":"levelo://app?vid=c69f3f7d-a580-4b47-be9a-db8167bcf78f","ios":"levelo://app?vid=c69f3f7d-a580-4b47-be9a-db8167bcf78f"},"vehicle_type_id":"4","last_reported":1774055277,"current_range_meters":8800,"station_id":"ce4bh112rcd13ifvqda0","pricing_plan_id":"cebpf4jnsgd1na2vs0mg"},{"bike_id":"1466758c-2c3d-4cc4-860b-d3d146ceb5ca","system_id":"levelo_inurba_marseille","lat":43.32653,"lon":5.40973,"is_reserved":false,"is_disabled":false,"rental_uris":{"android":"levelo://app?vid=1466758c-2c3d-4cc4-860b-d3d146ceb5ca","ios":"levelo://app?vid=1466758c-2c3d-4cc4-860b-d3d146ceb5ca"},"vehicle_type_id":"4","last_reported":1774055277,"current_range_meters":8800,"station_id":"ce4bhpp2rcd13ifvqhgg","pricing_plan_id":"cebpf4jnsgd1na2vs0mg"},{"bike_id":"4a501649-1ae3-4f13-916a-d9d0102c5c57","system_id":"levelo_inurba_marseille","lat":43.22971,"lon":5.35388,"is_reserved":false,"is_disabled":false,"rental_uris":{"android":"levelo://app?vid=4a501649-1ae3-4f13-916a-d9d0102c5c57","ios":"levelo://app?vid=4a501649-1ae3-4f13-916a-d9d0102c5c57"},"vehicle_type_id":"4","last_reported":1774055277,"current_range_meters":8800,"station_id":"cpo3532slgdg3j2ikp40","pricing_plan_id":"cebpf4jnsgd1na2vs0mg"},{"bike_id":"c5a05cb6-f841-4801-8125-230426150c99","system_id":"levelo_inurba_marseille","lat":43.30802,"lon":5.38154,"is_reserved":false,"is_disabled":false,"rental_uris":{"android":"levelo://app?vid=c5a05cb6-f841-4801-8125-230426150c99","ios":"levelo://app?vid=c5a05cb6-f841-4801-8125-230426150c99"},"vehicle_type_id":"4","last_reported":1774055277,"current_range_meters":8800,"station_id":"ce4bgt12rcd13ifvqce0","pricing_plan_id":"cebpf4jnsgd1na2vs0mg"},{"bike_id":"051f72bf-a41f-46f5-b439-58be410a9166","system_id":"levelo_inurba_marseille","lat":43.29,"lon":5.356,"is_reserved":false,"is_disabled":false,"rental_uris":{"android":"levelo://app?vid=051f72bf-a41f-46f5-b439-58be410a9166","ios":"levelo://app?vid=051f72bf-a41f-46f5-b439-58be410a9166"},"vehicle_type_id":"4","last_reported":1774055277,"current_range_meters":8800,"station_id":"ce4bhb92rcd13ifvqen0","pricing_plan_id":"cebpf4jnsgd1na2vs0mg"},{"bike_id":"ec66088a-6373-4cec-8bbd-b9b7490ddc2a","system_id":"levelo_inurba_marseille","lat":43.31121,"lon":5.37762,"is_reserved":false,"is_disabled":false,"rental_uris":{"android":"levelo://app?vid=ec66088a-6373-4cec-8bbd-b9b7490ddc2a","ios":"levelo://app?vid=ec66088a-6373-4cec-8bbd-b9b7490ddc2a"},"vehicle_type_id":"4","last_reported":1774055277,"current_range_meters":8800,"station_id":"ce4bgt92rcd13ifvqcg0","pricing_plan_id":"cebpf4jnsgd1na2vs0mg"},{"bike_id":"bbdddb31-e2a4-4269-aa30-a071bab4d5ac","system_id":"levelo_inurba_marseille","lat":43.25803,"lon":5.38572,"is_reserved":false,"is_disabled":false,"rental_uris":{"android":"levelo://app?vid=bbdddb31-e2a4-4269-aa30-a071bab4d5ac","ios":"levelo://app?vid=bbdddb31-e2a4-4269-aa30-a071bab4d5ac"},"vehicle_type_id":"4","last_reported":1774055277,"current_range_meters":8800,"station_id":"","pricing_plan_id":"cebpf4jnsgd1na2vs0mg"},{"bike_id":"a836fd38-d433-489a-a6c6-63f0c9de9110","system_id":"levelo_inurba_marseille","lat":43.29104,"lon":5.38139,"is_reserved":false,"is_disabled":true,"rental_uris":{"android":"levelo://app?vid=a836fd38-d433-489a-a6c6-63f0c9de9110","ios":"levelo://app?vid=a836fd38-d433-489a-a6c6-63f0c9de9110"},"vehicle_type_id":"4","last_reported":1774055277,"current_range_meters":8800,"station_id":"ce4bh512rcd13ifvqe2g","pricing_plan_id":"cebpf4jnsgd1na2vs0mg"},{"bike_id":"5823234a-ebe5-4f73-a6ca-e22e8e37fb65","system_id":"levelo_inurba_marseille","lat":43.30795,"lon":5.37689,"is_reserved":false,"is_disabled":true,"rental_uris":{"android":"levelo://app?vid=5823234a-ebe5-4f73-a6ca-e22e8e37fb65","ios":"levelo://app?vid=5823234a-ebe5-4f73-a6ca-e22e8e37fb65"},"vehicle_type_id":"4","last_reported":1774055277,"current_range_meters":8800,"station_id":"ce4bgv92rcd13ifvqcq0","pricing_plan_id":"cebpf4jnsgd1na2vs0mg"},{"bike_id":"cbdaa1df-21f7-49b2-a315-e997b8c5695f","system_id":"levelo_inurba_marseille","lat":43.31325,"lon":5.39682,"is_reserved":false,"is_disabled":false,"rental_uris":{"android":"levelo://app?vid=cbdaa1df-21f7-49b2-a315-e997b8c5695f","ios":"levelo://app?vid=cbdaa1df-21f7-49b2-a315-e997b8c5695f"},"vehicle_type_id":"4","last_reported":1774055277,"current_range_meters":8800,"station_id":"ce4bgvp2rcd13ifvqcu0","pricing_plan_id":"cebpf4jnsgd1na2vs0mg"},{"bike_id":"3727d6e3-4577-49ea-959e-93a5e09450a3","system_id":"levelo_inurba_marseille","lat":43.31443,"lon":5.40084,"is_reserved":false,"is_disabled":false,"rental_uris":{"android":"levelo://app?vid=3727d6e3-4577-49ea-959e-93a5e09450a3","ios":"levelo://app?vid=3727d6e3-4577-49ea-959e-93a5e09450a3"},"vehicle_type_id":"4","last_reported":1774055277,"current_range_meters":8800,"station_id":"","pricing_plan_id":"cebpf4jnsgd1na2vs0mg"},{"bike_id":"15fb4bb8-4c0f-4ee3-a727-89e0f28d0a52","system_id":"levelo_inurba_marseille","lat":43.23776,"lon":5.3662,"is_reserved":false,"is_disabled":false,"rental_uris":{"android":"levelo://app?vid=15fb4bb8-4c0f-4ee3-a727-89e0f28d0a52","ios":"levelo://app?vid=15fb4bb8-4c0f-4ee3-a727-89e0f28d0a52"},"vehicle_type_id":"4","last_reported":1774055277,"current_range_meters":8800,"station_id":"st_d3nk18o9ro0c73en2l3g","pricing_plan_id":"cebpf4jnsgd1na2vs0mg"},{"bike_id":"1b477638-8207-4faf-aa73-778107d375ef","system_id":"levelo_inurba_marseille","lat":43.31385,"lon":5.39182,"is_reserved":false,"is_disabled":false,"rental_uris":{"android":"levelo://app?vid=1b477638-8207-4faf-aa73-778107d375ef","ios":"levelo://app?vid=1b477638-8207-4faf-aa73-778107d375ef"},"vehicle_type_id":"4","last_reported":1774055277,"current_range_meters":8800,"station_id":"","pricing_plan_id":"cebpf4jnsgd1na2vs0mg"},{"bike_id":"f88beddb-d7c4-4148-9f8c-56ddec396a56","system_id":"levelo_inurba_marseille","lat":43.24775,"lon":5.37412,"is_reserved":false,"is_disabled":false,"rental_uris":{"android":"levelo://app?vid=f88beddb-d7c4-4148-9f8c-56ddec396a56","ios":"levelo://app?vid=f88beddb-d7c4-4148-9f8c-56ddec396a56"},"vehicle_type_id":"4","last_reported":1774055277,"current_range_meters":8800,"station_id":"ce4bhgh2rcd13ifvqfb0","pricing_plan_id":"cebpf4jnsgd1na2vs0mg"},{"bike_id":"40c5b013-c3ca-47ff-ab35-88658ecdc98e","system_id":"levelo_inurba_marseille","lat":43.27899,"lon":5.38,"is_reserved":false,"is_disabled":false,"rental_uris":{"android":"levelo://app?vid=40c5b013-c3ca-47ff-ab35-88658ecdc98e","ios":"levelo://app?vid=40c5b013-c3ca-47ff-ab35-88658ecdc98e"},"vehicle_type_id":"4","last_reported":1774055277,"current_range_meters":8800,"station_id":"ce4bhf92rcd13ifvqf50","pricing_plan_id":"cebpf4jnsgd1na2vs0mg"},{"bike_id":"d9a2340f-4dc0-456b-89f0-454af4d93a65","system_id":"levelo_inurba_marseille","lat":43.28497,"lon":5.35116,"is_reserved":false,"is_disabled":false,"rental_uris":{"android":"levelo://app?vid=d9a2340f-4dc0-456b-89f0-454af4d93a65","ios":"levelo://app?vid=d9a2340f-4dc0-456b-89f0-454af4d93a65"},"vehicle_type_id":"4","last_reported":1774055277,"current_range_meters":8800,"station_id":"","pricing_plan_id":"cebpf4jnsgd1na2vs0mg"},{"bike_id":"ff8b1c2d-4ce4-4ef4-9393-4ed6e04528ac","system_id":"levelo_inurba_marseille","lat":43.28468,"lon":5.38416,"is_reserved":false,"is_disabled":false,"rental_uris":{"android":"levelo://app?vid=ff8b1c2d-4ce4-4ef4-9393-4ed6e04528ac","ios":"levelo://app?vid=ff8b1c2d-4ce4-4ef4-9393-4ed6e04528ac"},"vehicle_type_id":"4","last_reported":1774055277,"current_range_meters":8800,"station_id":"ce4bh512rcd13ifvqe3g","pricing_plan_id":"cebpf4jnsgd1na2vs0mg"},{"bike_id":"01701e05-f3fc-4553-ab75-a9684624e160","system_id":"levelo_inurba_marseille","lat":43.30357,"lon":5.42463,"is_reserved":false,"is_disabled":false,"rental_uris":{"android":"levelo://app?vid=01701e05-f3fc-4553-ab75-a9684624e160","ios":"levelo://app?vid=01701e05-f3fc-4553-ab75-a9684624e160"},"vehicle_type_id":"4","last_reported":1774055277,"current_range_meters":8800,"station_id":"","pricing_plan_id":"cebpf4jnsgd1na2vs0mg"},{"bike_id":"bb64248e-0e5d-4ee1-9d8f-d48a0dd77d66","system_id":"levelo_inurba_marseille","lat":43.21624,"lon":5.34469,"is_reserved":false,"is_disabled":false,"rental_uris":{"android":"levelo://app?vid=bb64248e-0e5d-4ee1-9d8f-d48a0dd77d66","ios":"levelo://app?vid=bb64248e-0e5d-4ee1-9d8f-d48a0dd77d66"},"vehicle_type_id":"4","last_reported":1774055277,"current_range_meters":8800,"station_id":"","pricing_plan_id":"cebpf4jnsgd1na2vs0mg"},{"bike_id":"21dcff95-3114-402a-9713-10e340a8f8dd","system_id":"levelo_inurba_marseille","lat":43.29293,"lon":5.37158,"is_reserved":false,"is_disabled":false,"rental_uris":{"android":"levelo://app?vid=21dcff95-3114-402a-9713-10e340a8f8dd","ios":"levelo://app?vid=21dcff95-3114-402a-9713-10e340a8f8dd"},"vehicle_type_id":"4","last_reported":1774055277,"current_range_meters":8800,"station_id":"ce4bgh92rcd13ifvqb40","pricing_plan_id":"cebpf4jnsgd1na2vs0mg"},{"bike_id":"fdd2e384-ed3c-4de4-a253-6ee51b044b15","system_id":"levelo_inurba_marseille","lat":43.28972,"lon":5.35586,"is_reserved":false,"is_disabled":true,"rental_uris":{"android":"levelo://app?vid=fdd2e384-ed3c-4de4-a253-6ee51b044b15","ios":"levelo://app?vid=fdd2e384-ed3c-4de4-a253-6ee51b044b15"},"vehicle_type_id":"4","last_reported":1774055277,"current_range_meters":8800,"station_id":"ce4bhb92rcd13ifvqen0","pricing_plan_id":"cebpf4jnsgd1na2vs0mg"},{"bike_id":"cd2e611e-2200-4f09-a5b9-b77802b19de5","system_id":"levelo_inurba_marseille","lat":43.30739,"lon":5.42436,"is_reserved":false,"is_disabled":false,"rental_uris":{"android":"levelo://app?vid=cd2e611e-2200-4f09-a5b9-b77802b19de5","ios":"levelo://app?vid=cd2e611e-2200-4f09-a5b9-b77802b19de5"},"vehicle_type_id":"4","last_reported":1774055277,"current_range_meters":8800,"station_id":"st_cvj6ca6bvosntc0bfgr0","pricing_plan_id":"cebpf4jnsgd1na2vs0mg"},{"bike_id":"cacd0130-06d9-4f91-8951-44ba1a2fb102","system_id":"levelo_inurba_marseille","lat":43.30936,"lon":5.39024,"is_reserved":false,"is_disabled":false,"rental_uris":{"android":"levelo://app?vid=cacd0130-06d9-4f91-8951-44ba1a2fb102","ios":"levelo://app?vid=cacd0130-06d9-4f91-8951-44ba1a2fb102"},"vehicle_type_id":"4","last_reported":1774055277,"current_range_meters":8800,"station_id":"ce4bgup2rcd13ifvqco0","pricing_plan_id":"cebpf4jnsgd1na2vs0mg"},{"bike_id":"747d92d8-4058-4ed7-b6d1-09c96f275f64","system_id":"levelo_inurba_marseille","lat":43.262,"lon":5.37438,"is_reserved":false,"is_disabled":false,"rental_uris":{"android":"levelo://app?vid=747d92d8-4058-4ed7-b6d1-09c96f275f64","ios":"levelo://app?vid=747d92d8-4058-4ed7-b6d1-09c96f275f64"},"vehicle_type_id":"4","last_reported":1774055277,"current_range_meters":9200,"station_id":"ce4bhgp2rcd13ifvqfc0","pricing_plan_id":"cebpf4jnsgd1na2vs0mg"},{"bike_id":"c44e4f33-4e80-4d60-9ebb-4ba444b8817d","system_id":"levelo_inurba_marseille","lat":43.31721,"lon":5.42397,"is_reserved":false,"is_disabled":false,"rental_uris":{"android":"levelo://app?vid=c44e4f33-4e80-4d60-9ebb-4ba444b8817d","ios":"levelo://app?vid=c44e4f33-4e80-4d60-9ebb-4ba444b8817d"},"vehicle_type_id":"4","last_reported":1774055277,"current_range_meters":9200,"station_id":"ce4bhp92rcd13ifvqhbg","pricing_plan_id":"cebpf4jnsgd1na2vs0mg"},{"bike_id":"36750a5a-e715-404b-ab4e-4dfa557014c3","system_id":"levelo_inurba_marseille","lat":43.24456,"lon":5.42543,"is_reserved":false,"is_disabled":false,"rental_uris":{"android":"levelo://app?vid=36750a5a-e715-404b-ab4e-4dfa557014c3","ios":"levelo://app?vid=36750a5a-e715-404b-ab4e-4dfa557014c3"},"vehicle_type_id":"4","last_reported":1774055277,"current_range_meters":9200,"station_id":"st_d4a3vfp97mjs738cd8kg","pricing_plan_id":"cebpf4jnsgd1na2vs0mg"},{"bike_id":"94fffad1-2fce-418d-8e84-dc141bfa239b","system_id":"levelo_inurba_marseille","lat":43.29719,"lon":5.37662,"is_reserved":false,"is_disabled":true,"rental_uris":{"android":"levelo://app?vid=94fffad1-2fce-418d-8e84-dc141bfa239b","ios":"levelo://app?vid=94fffad1-2fce-418d-8e84-dc141bfa239b"},"vehicle_type_id":"4","last_reported":1774055277,"current_range_meters":9200,"station_id":"ce4bgkh2rcd13ifvqbl0","pricing_plan_id":"cebpf4jnsgd1na2vs0mg"},{"bike_id":"2c8d5c30-577d-4925-9767-a3e8a27bf5b4","system_id":"levelo_inurba_marseille","lat":43.24128,"lon":5.38978,"is_reserved":false,"is_disabled":false,"rental_uris":{"android":"levelo://app?vid=2c8d5c30-577d-4925-9767-a3e8a27bf5b4","ios":"levelo://app?vid=2c8d5c30-577d-4925-9767-a3e8a27bf5b4"},"vehicle_type_id":"4","last_reported":1774055277,"current_range_meters":9200,"station_id":"","pricing_plan_id":"cebpf4jnsgd1na2vs0mg"},{"bike_id":"df5ad533-8354-43dd-b4db-d4118becde63","system_id":"levelo_inurba_marseille","lat":43.28517,"lon":5.483,"is_reserved":false,"is_disabled":false,"rental_uris":{"android":"levelo://app?vid=df5ad533-8354-43dd-b4db-d4118becde63","ios":"levelo://app?vid=df5ad533-8354-43dd-b4db-d4118becde63"},"vehicle_type_id":"4","last_reported":1774055277,"current_range_meters":9200,"station_id":"","pricing_plan_id":"cebpf4jnsgd1na2vs0mg"},{"bike_id":"b79edf21-0164-4a0c-b31c-d86dd5687815","system_id":"levelo_inurba_marseille","lat":43.337572,"lon":5.37466,"is_reserved":false,"is_disabled":false,"rental_uris":{"android":"levelo://app?vid=b79edf21-0164-4a0c-b31c-d86dd5687815","ios":"levelo://app?vid=b79edf21-0164-4a0c-b31c-d86dd5687815"},"vehicle_type_id":"4","last_reported":1774055277,"current_range_meters":9200,"station_id":"","pricing_plan_id":"cebpf4jnsgd1na2vs0mg"},{"bike_id":"aee98d11-e257-4a30-aed9-077ba6a08a7d","system_id":"levelo_inurba_marseille","lat":43.28415,"lon":5.37513,"is_reserved":false,"is_disabled":false,"rental_uris":{"android":"levelo://app?vid=aee98d11-e257-4a30-aed9-077ba6a08a7d","ios":"levelo://app?vid=aee98d11-e257-4a30-aed9-077ba6a08a7d"},"vehicle_type_id":"4","last_reported":1774055277,"current_range_meters":9200,"station_id":"ce4bh412rcd13ifvqds0","pricing_plan_id":"cebpf4jnsgd1na2vs0mg"},{"bike_id":"55ec694a-4d13-442c-981f-40b12a44db63","system_id":"levelo_inurba_marseille","lat":43.28149,"lon":5.42639,"is_reserved":false,"is_disabled":false,"rental_uris":{"android":"levelo://app?vid=55ec694a-4d13-442c-981f-40b12a44db63","ios":"levelo://app?vid=55ec694a-4d13-442c-981f-40b12a44db63"},"vehicle_type_id":"4","last_reported":1774055277,"current_range_meters":9200,"station_id":"ce4bhnh2rcd13ifvqgug","pricing_plan_id":"cebpf4jnsgd1na2vs0mg"},{"bike_id":"ba2f8fd0-11ac-4347-b470-23519177c832","system_id":"levelo_inurba_marseille","lat":43.29817,"lon":5.44013,"is_reserved":false,"is_disabled":false,"rental_uris":{"android":"levelo://app?vid=ba2f8fd0-11ac-4347-b470-23519177c832","ios":"levelo://app?vid=ba2f8fd0-11ac-4347-b470-23519177c832"},"vehicle_type_id":"4","last_reported":1774055277,"current_range_meters":9200,"station_id":"st_d3jp68qikq2c7381ktn0","pricing_plan_id":"cebpf4jnsgd1na2vs0mg"},{"bike_id":"881552ad-57ca-4484-9a05-f159c58f50d9","system_id":"levelo_inurba_marseille","lat":43.31695,"lon":5.38676,"is_reserved":false,"is_disabled":false,"rental_uris":{"android":"levelo://app?vid=881552ad-57ca-4484-9a05-f159c58f50d9","ios":"levelo://app?vid=881552ad-57ca-4484-9a05-f159c58f50d9"},"vehicle_type_id":"4","last_reported":1774055277,"current_range_meters":9200,"station_id":"","pricing_plan_id":"cebpf4jnsgd1na2vs0mg"},{"bike_id":"703efbe1-feef-417d-a9e3-0fca1a7eab74","system_id":"levelo_inurba_marseille","lat":43.34969,"lon":5.37933,"is_reserved":false,"is_disabled":false,"rental_uris":{"android":"levelo://app?vid=703efbe1-feef-417d-a9e3-0fca1a7eab74","ios":"levelo://app?vid=703efbe1-feef-417d-a9e3-0fca1a7eab74"},"vehicle_type_id":"4","last_reported":1774055277,"current_range_meters":9200,"station_id":"","pricing_plan_id":"cebpf4jnsgd1na2vs0mg"},{"bike_id":"d0b715f5-b410-4542-aa2d-7caf4bb72688","system_id":"levelo_inurba_marseille","lat":43.27161,"lon":5.42259,"is_reserved":false,"is_disabled":false,"rental_uris":{"android":"levelo://app?vid=d0b715f5-b410-4542-aa2d-7caf4bb72688","ios":"levelo://app?vid=d0b715f5-b410-4542-aa2d-7caf4bb72688"},"vehicle_type_id":"4","last_reported":1774055277,"current_range_meters":9200,"station_id":"","pricing_plan_id":"cebpf4jnsgd1na2vs0mg"},