{"last_updated":1737247787,"ttl":60,"version":"2.2","data":{"bikes":[{"bike_id":"fe9584c6-d7c2-4da9-a68c-49720b62392c","system_id":"levelo_inurba_marseille","lat":43.28572,"lon":5.39498,"is_reserved":false,"is_disabled":false,"rental_uris":{"android":"levelo://app?vid=fe9584c6-d7c2-4da9-a68c-49720b62392c","ios":"levelo://app?vid=fe9584c6-d7c2-4da9-a68c-49720b62392c"},"vehicle_type_id":"4","last_reported":1737247787,"current_range_meters":34800,"station_id":"ce4bh292rcd13ifvqdg0","pricing_plan_id":"cebpf4jnsgd1na2vs0mg"},{"bike_id":"63d34c4a-2f55-4d0c-b131-845673ed0478","system_id":"levelo_inurba_marseille","lat":43.29519,"lon":5.39393,"is_reserved":false,"is_disabled":false,"rental_uris":{"android":"levelo://app?vid=63d34c4a-2f55-4d0c-b131-845673ed0478","ios":"levelo://app?vid=63d34c4a-2f55-4d0c-b131-845673ed0478"},"vehicle_type_id":"4","last_reported":1737247787,"current_range_meters":23200,"station_id":"ce4bh292rcd13ifvqdf0","pricing_plan_id":"cebpf4jnsgd1na2vs0mg"},{"bike_id":"a8952787-a77f-475a-b83d-e8b332145710","system_id":"levelo_inurba_marseille","lat":43.28101,"lon":5.37858,"is_reserved":false,"is_disabled":false,"rental_uris":{"android":"levelo://app?vid=a8952787-a77f-475a-b83d-e8b332145710","ios":"levelo://app?vid=a8952787-a77f-475a-b83d-e8b332145710"},"vehicle_type_id":"4","last_reported":1737247787,"current_range_meters":32000,"station_id":"ce4bha12rcd13ifvqee0","pricing_plan_id":"cebpf4jnsgd1na2vs0mg"},{"bike_id":"49142cff-fb21-4c2a-b7b6-d170fa289b55","system_id":"levelo_inurba_marseille","lat":43.318787,"lon":5.407336,"is_reserved":false,"is_disabled":false,"rental_uris":{"android":"levelo://app?vid=49142cff-fb21-4c2a-b7b6-d170fa289b55","ios":"levelo://app?vid=49142cff-fb21-4c2a-b7b6-d170fa289b55"},"vehicle_type_id":"4","last_reported":1737247787,"current_range_meters":24400,"station_id":"ce4bhq12rcd13ifvqhig","pricing_plan_id":"cebpf4jnsgd1na2vs0mg"},{"bike_id":"ca44593c-de63-46cd-83e6-04f934053468","system_id":"levelo_inurba_marseille","lat":43.26578,"lon":5.39064,"is_reserved":false,"is_disabled":false,"rental_uris":{"android":"levelo://app?vid=ca44593c-de63-46cd-83e6-04f934053468","ios":"levelo://app?vid=ca44593c-de63-46cd-83e6-04f934053468"},"vehicle_type_id":"4","last_reported":1737247787,"current_range_meters":27600,"station_id":"ce4bhe12rcd13ifvqf30","pricing_plan_id":"cebpf4jnsgd1na2vs0mg"},{"bike_id":"32983ca2-b16e-4020-8699-0f3928b6b30e","system_id":"levelo_inurba_marseille","lat":43.29559,"lon":5.39971,"is_reserved":false,"is_disabled":false,"rental_uris":{"android":"levelo://app?vid=32983ca2-b16e-4020-8699-0f3928b6b30e","ios":"levelo://app?vid=32983ca2-b16e-4020-8699-0f3928b6b30e"},"vehicle_type_id":"4","last_reported":1737247787,"current_range_meters":8400,"station_id":"ce4bh312rcd13ifvqdj0","pricing_plan_id":"cebpf4jnsgd1na2vs0mg"},{"bike_id":"2050e3de-bb81-421b-9e6b-8e8f054610b5","system_id":"levelo_inurba_marseille","lat":43.24798,"lon":5.37446,"is_reserved":false,"is_disabled":false,"rental_uris":{"android":"levelo://app?vid=2050e3de-bb81-421b-9e6b-8e8f054610b5","ios":"levelo://app?vid=2050e3de-bb81-421b-9e6b-8e8f054610b5"},"vehicle_type_id":"4","last_reported":1737247787,"current_range_meters":21600,"station_id":"ce4bhgh2rcd13ifvqfb0","pricing_plan_id":"cebpf4jnsgd1na2vs0mg"},{"bike_id":"a5cfd84d-4cae-4412-b199-dcb982d64799","system_id":"levelo_inurba_marseille","lat":43.28435,"lon":5.39172,"is_reserved":false,"is_disabled":true,"rental_uris":{"android":"levelo://app?vid=a5cfd84d-4cae-4412-b199-dcb982d64799","ios":"levelo://app?vid=a5cfd84d-4cae-4412-b199-dcb982d64799"},"vehicle_type_id":"4","last_reported":1737247787,"current_range_meters":400,"station_id":"ce4bhoh2rcd13ifvqh5g","pricing_plan_id":"cebpf4jnsgd1na2vs0mg"},{"bike_id":"d4b68915-2e1c-4a93-ac84-959364ed50a9","system_id":"levelo_inurba_marseille","lat":43.292572,"lon":5.409074,"is_reserved":false,"is_disabled":false,"rental_uris":{"android":"levelo://app?vid=d4b68915-2e1c-4a93-ac84-959364ed50a9","ios":"levelo://app?vid=d4b68915-2e1c-4a93-ac84-959364ed50a9"},"vehicle_type_id":"4","last_reported":1737247787,"current_range_meters":25600,"station_id":"ce4bh192rcd13ifvqdc0","pricing_plan_id":"cebpf4jnsgd1na2vs0mg"},{"bike_id":"31a281f0-03e7-40e6-9192-a07a3730f17e","system_id":"levelo_inurba_marseille","lat":43.29577,"lon":5.39979,"is_reserved":false,"is_disabled":false,"rental_uris":{"android":"levelo://app?vid=31a281f0-03e7-40e6-9192-a07a3730f17e","ios":"levelo://app?vid=31a281f0-03e7-40e6-9192-a07a3730f17e"},"vehicle_type_id":"4","last_reported":1737247787,"current_range_meters":36400,"station_id":"ce4bh312rcd13ifvqdj0","pricing_plan_id":"cebpf4jnsgd1na2vs0mg"},{"bike_id":"2e458cba-09ed-4b28-bcfa-56c339e37ef1","system_id":"levelo_inurba_marseille","lat":43.27495,"lon":5.42449,"is_reserved":false,"is_disabled":false,"rental_uris":{"android":"levelo://app?vid=2e458cba-09ed-4b28-bcfa-56c339e37ef1","ios":"levelo://app?vid=2e458cba-09ed-4b28-bcfa-56c339e37ef1"},"vehicle_type_id":"4","last_reported":1737247787,"current_range_meters":33600,"station_id":"ce4bhn92rcd13ifvqgrg","pricing_plan_id":"cebpf4jnsgd1na2vs0mg"},{"bike_id":"4d7363f6-ff16-43fe-8b45-92ac557f5504","system_id":"levelo_inurba_marseille","lat":43.28942,"lon":5.36395,"is_reserved":false,"is_disabled":false,"rental_uris":{"android":"levelo://app?vid=4d7363f6-ff16-43fe-8b45-92ac557f5504","ios":"levelo://app?vid=4d7363f6-ff16-43fe-8b45-92ac557f5504"},"vehicle_type_id":"4","last_reported":1737247787,"current_range_meters":12800,"station_id":"ce4bhc92rcd13ifvqetg","pricing_plan_id":"cebpf4jnsgd1na2vs0mg"},{"bike_id":"4fb6a51d-9d4a-4bf2-b0b9-93d4d4401950","system_id":"levelo_inurba_marseille","lat":43.3248,"lon":5.36559,"is_reserved":false,"is_disabled":false,"rental_uris":{"android":"levelo://app?vid=4fb6a51d-9d4a-4bf2-b0b9-93d4d4401950","ios":"levelo://app?vid=4fb6a51d-9d4a-4bf2-b0b9-93d4d4401950"},"vehicle_type_id":"4","last_reported":1737247787,"current_range_meters":30400,"station_id":"ce4bhs12rcd13ifvqhvg","pricing_plan_id":"cebpf4jnsgd1na2vs0mg"},{"bike_id":"90c165c3-eff9-4a4a-8f28-cfa68619e419","system_id":"levelo_inurba_marseille","lat":43.287403,"lon":5.400105,"is_reserved":false,"is_disabled":true,"rental_uris":{"android":"levelo://app?vid=90c165c3-eff9-4a4a-8f28-cfa68619e419","ios":"levelo://app?vid=90c165c3-eff9-4a4a-8f28-cfa68619e419"},"vehicle_type_id":"4","last_reported":1737247787,"current_range_meters":30400,"station_id":"ce4bho92rcd13ifvqh3g","pricing_plan_id":"cebpf4jnsgd1na2vs0mg"},{"bike_id":"7409fce6-390a-49dd-ba8a-1ce265ab0ddc","system_id":"levelo_inurba_marseille","lat":43.30798,"lon":5.38143,"is_reserved":false,"is_disabled":false,"rental_uris":{"android":"levelo://app?vid=7409fce6-390a-49dd-ba8a-1ce265ab0ddc","ios":"levelo://app?vid=7409fce6-390a-49dd-ba8a-1ce265ab0ddc"},"vehicle_type_id":"4","last_reported":1737247787,"current_range_meters":11200,"station_id":"ce4bgt12rcd13ifvqce0","pricing_plan_id":"cebpf4jnsgd1na2vs0mg"},{"bike_id":"4975d3c5-1381-4300-914e-0a110da6ae0f","system_id":"levelo_inurba_marseille","lat":43.24074,"lon":5.37769,"is_reserved":false,"is_disabled":false,"rental_uris":{"android":"levelo://app?vid=4975d3c5-1381-4300-914e-0a110da6ae0f","ios":"levelo://app?vid=4975d3c5-1381-4300-914e-0a110da6ae0f"},"vehicle_type_id":"4","last_reported":1737247787,"current_range_meters":38800,"station_id":"ce4bhnp2rcd13ifvqgvg","pricing_plan_id":"cebpf4jnsgd1na2vs0mg"},{"bike_id":"a415cf4f-ff4c-4204-8f2b-7f27d59692e5","system_id":"levelo_inurba_marseille","lat":43.30879,"lon":5.39647,"is_reserved":false,"is_disabled":false,"rental_uris":{"android":"levelo://app?vid=a415cf4f-ff4c-4204-8f2b-7f27d59692e5","ios":"levelo://app?vid=a415cf4f-ff4c-4204-8f2b-7f27d59692e5"},"vehicle_type_id":"4","last_reported":1737247787,"current_range_meters":39200,"station_id":"ce4bh012rcd13ifvqcv0","pricing_plan_id":"cebpf4jnsgd1na2vs0mg"},{"bike_id":"ca9db58d-947c-4860-8654-70c594dc1043","system_id":"levelo_inurba_marseille","lat":43.28451,"lon":5.35875,"is_reserved":false,"is_disabled":false,"rental_uris":{"android":"levelo://app?vid=ca9db58d-947c-4860-8654-70c594dc1043","ios":"levelo://app?vid=ca9db58d-947c-4860-8654-70c594dc1043"},"vehicle_type_id":"4","last_reported":1737247787,"current_range_meters":39200,"station_id":"ce4bhah2rcd13ifvqei0","pricing_plan_id":"cebpf4jnsgd1na2vs0mg"},{"bike_id":"2fe88d16-af55-4de4-84b3-2988d3ee891a","system_id":"levelo_inurba_marseille","lat":43.30335,"lon":5.41849,"is_reserved":false,"is_disabled":false,"rental_uris":{"android":"levelo://app?vid=2fe88d16-af55-4de4-84b3-2988d3ee891a","ios":"levelo://app?vid=2fe88d16-af55-4de4-84b3-2988d3ee891a"},"vehicle_type_id":"4","last_reported":1737247787,"current_range_meters":38800,"station_id":"","pricing_plan_id":"cebpf4jnsgd1na2vs0mg"},{"bike_id":"46efa326-c02d-4314-a6fe-f05976f22b94","system_id":"levelo_inurba_marseille","lat":43.2803,"lon":5.36947,"is_reserved":false,"is_disabled":false,"rental_uris":{"android":"levelo://app?vid=46efa326-c02d-4314-a6fe-f05976f22b94","ios":"levelo://app?vid=46efa326-c02d-4314-a6fe-f05976f22b94"},"vehicle_type_id":"4","last_reported":1737247787,"current_range_meters":17200,"station_id":"ce4bha12rcd13ifvqef0","pricing_plan_id":"cebpf4jnsgd1na2vs0mg"},{"bike_id":"b9be44ef-7bb0-4ba3-a4f5-2e356db06bba","system_id":"levelo_inurba_marseille","lat":43.29567,"lon":5.39981,"is_reserved":false,"is_disabled":false,"rental_uris":{"android":"levelo://app?vid=b9be44ef-7bb0-4ba3-a4f5-2e356db06bba","ios":"levelo://app?vid=b9be44ef-7bb0-4ba3-a4f5-2e356db06bba"},"vehicle_type_id":"4","last_reported":1737247787,"current_range_meters":32800,"station_id":"ce4bh312rcd13ifvqdj0","pricing_plan_id":"cebpf4jnsgd1na2vs0mg"},{"bike_id":"763ed4fc-16fd-47a0-aedf-62c028daa66f","system_id":"levelo_inurba_marseille","lat":43.36402,"lon":5.35573,"is_reserved":false,"is_disabled":false,"rental_uris":{"android":"levelo://app?vid=763ed4fc-16fd-47a0-aedf-62c028daa66f","ios":"levelo://app?vid=763ed4fc-16fd-47a0-aedf-62c028daa66f"},"vehicle_type_id":"4","last_reported":1737247787,"current_range_meters":16400,"station_id":"","pricing_plan_id":"cebpf4jnsgd1na2vs0mg"},{"bike_id":"8714c275-8772-493a-a1bb-649bdf0edbe0","system_id":"levelo_inurba_marseille","lat":43.30891,"lon":5.36814,"is_reserved":false,"is_disabled":false,"rental_uris":{"android":"levelo://app?vid=8714c275-8772-493a-a1bb-649bdf0edbe0","ios":"levelo://app?vid=8714c275-8772-493a-a1bb-649bdf0edbe0"},"vehicle_type_id":"4","last_reported":1737247787,"current_range_meters":36400,"station_id":"ce4bgn92rcd13ifvqbvg","pricing_plan_id":"cebpf4jnsgd1na2vs0mg"},{"bike_id":"1022f24d-239e-49a1-a4b8-988e34719576","system_id":"levelo_inurba_marseille","lat":43.245495,"lon":5.395217,"is_reserved":false,"is_disabled":false,"rental_uris":{"android":"levelo://app?vid=1022f24d-239e-49a1-a4b8-988e34719576","ios":"levelo://app?vid=1022f24d-239e-49a1-a4b8-988e34719576"},"vehicle_type_id":"4","last_reported":1737247787,"current_range_meters":16400,"station_id":"ce4bhlp2rcd13ifvqgjg","pricing_plan_id":"cebpf4jnsgd1na2vs0mg"},{"bike_id":"d359f35f-3ca3-405b-82ef-cb0e77381ed0","system_id":"levelo_inurba_marseille","lat":43.295764,"lon":5.399636,"is_reserved":false,"is_disabled":false,"rental_uris":{"android":"levelo://app?vid=d359f35f-3ca3-405b-82ef-cb0e77381ed0","ios":"levelo://app?vid=d359f35f-3ca3-405b-82ef-cb0e77381ed0"},"vehicle_type_id":"4","last_reported":1737247787,"current_range_meters":28800,"station_id":"ce4bh312rcd13ifvqdj0","pricing_plan_id":"cebpf4jnsgd1na2vs0mg"},{"bike_id":"c60b4a84-565f-4ae4-a9dc-2cb297430a4e","system_id":"levelo_inurba_marseille","lat":43.30928,"lon":5.4014,"is_reserved":false,"is_disabled":false,"rental_uris":{"android":"levelo://app?vid=c60b4a84-565f-4ae4-a9dc-2cb297430a4e","ios":"levelo://app?vid=c60b4a84-565f-4ae4-a9dc-2cb297430a4e"},"vehicle_type_id":"4","last_reported":1737247787,"current_range_meters":39200,"station_id":"ce4bgvp2rcd13ifvqct0","pricing_plan_id":"cebpf4jnsgd1na2vs0mg"},{"bike_id":"3477fb5d-938e-4d71-a64e-f956f336dc45","system_id":"levelo_inurba_marseille","lat":43.24168,"lon":5.39721,"is_reserved":false,"is_disabled":false,"rental_uris":{"android":"levelo://app?vid=3477fb5d-938e-4d71-a64e-f956f336dc45","ios":"levelo://app?vid=3477fb5d-938e-4d71-a64e-f956f336dc45"},"vehicle_type_id":"4","last_reported":1737247787,"current_range_meters":38800,"station_id":"ce4bhn12rcd13ifvqgpg","pricing_plan_id":"cebpf4jnsgd1na2vs0mg"},{"bike_id":"f3c94274-f861-4c89-8bb1-1ebe1a531935","system_id":"levelo_inurba_marseille","lat":43.2502,"lon":5.38904,"is_reserved":false,"is_disabled":false,"rental_uris":{"android":"levelo://app?vid=f3c94274-f861-4c89-8bb1-1ebe1a531935","ios":"levelo://app?vid=f3c94274-f861-4c89-8bb1-1ebe1a531935"},"vehicle_type_id":"4","last_reported":1737247787,"current_range_meters":38800,"station_id":"ce4bhgp2rcd13ifvqfd0","pricing_plan_id":"cebpf4jnsgd1na2vs0mg"},{"bike_id":"ea820ade-d81d-428e-82b9-7f165f7e8e75","system_id":"levelo_inurba_marseille","lat":43.323664,"lon":5.367622,"is_reserved":false,"is_disabled":false,"rental_uris":{"android":"levelo://app?vid=ea820ade-d81d-428e-82b9-7f165f7e8e75","ios":"levelo://app?vid=ea820ade-d81d-428e-82b9-7f165f7e8e75"},"vehicle_type_id":"4","last_reported":1737247787,"current_range_meters":19200,"station_id":"ce4bhsh2rcd13ifvqi2g","pricing_plan_id":"cebpf4jnsgd1na2vs0mg"},{"bike_id":"c29020e0-83ef-4b06-ac4f-c4422257f84a","system_id":"levelo_inurba_marseille","lat":43.36394,"lon":5.35594,"is_reserved":false,"is_disabled":false,"rental_uris":{"android":"levelo://app?vid=c29020e0-83ef-4b06-ac4f-c4422257f84a","ios":"levelo://app?vid=c29020e0-83ef-4b06-ac4f-c4422257f84a"},"vehicle_type_id":"4","last_reported":1737247787,"current_range_meters":22000,"station_id":"","pricing_plan_id":"cebpf4jnsgd1na2vs0mg"},{"bike_id":"2a8e6794-3001-4785-a1fa-2c1da9117a55","system_id":"levelo_inurba_marseille","lat":43.27557,"lon":5.38426,"is_reserved":false,"is_disabled":false,"rental_uris":{"android":"levelo://app?vid=2a8e6794-3001-4785-a1fa-2c1da9117a55","ios":"levelo://app?vid=2a8e6794-3001-4785-a1fa-2c1da9117a55"},"vehicle_type_id":"4","last_reported":1737247787,"current_range_meters":39200,"station_id":"ce4bhh92rcd13ifvqfi0","pricing_plan_id":"cebpf4jnsgd1na2vs0mg"},{"bike_id":"a857a7ae-548e-49d1-9a1f-df8c75795140","system_id":"levelo_inurba_marseille","lat":43.28943,"lon":5.39631,"is_reserved":false,"is_disabled":false,"rental_uris":{"android":"levelo://app?vid=a857a7ae-548e-49d1-9a1f-df8c75795140","ios":"levelo://app?vid=a857a7ae-548e-49d1-9a1f-df8c75795140"},"vehicle_type_id":"4","last_reported":1737247787,"current_range_meters":38000,"station_id":"ce4bh3h2rcd13ifvqdn0","pricing_plan_id":"cebpf4jnsgd1na2vs0mg"},{"bike_id":"37ba85cd-4ae9-4e6a-94ae-19965ee43afa","system_id":"levelo_inurba_marseille","lat":43.29233,"lon":5.38213,"is_reserved":false,"is_disabled":false,"rental_uris":{"android":"levelo://app?vid=37ba85cd-4ae9-4e6a-94ae-19965ee43afa","ios":"levelo://app?vid=37ba85cd-4ae9-4e6a-94ae-19965ee43afa"},"vehicle_type_id":"4","last_reported":1737247787,"current_range_meters":27200,"station_id":"","pricing_plan_id":"cebpf4jnsgd1na2vs0mg"},{"bike_id":"1bc986a8-9387-4926-b0fd-2f0f185b1da4","system_id":"levelo_inurba_marseille","lat":43.28464,"lon":5.35892,"is_reserved":false,"is_disabled":false,"rental_uris":{"android":"levelo://app?vid=1bc986a8-9387-4926-b0fd-2f0f185b1da4","ios":"levelo://app?vid=1bc986a8-9387-4926-b0fd-2f0f185b1da4"},"vehicle_type_id":"4","last_reported":1737247787,"current_range_meters":22800,"station_id":"ce4bhah2rcd13ifvqei0","pricing_plan_id":"cebpf4jnsgd1na2vs0mg"},{"bike_id":"4d4ec566-516b-4793-a5be-68a8e0188dc4","system_id":"levelo_inurba_marseille","lat":43.33017,"lon":5.39077,"is_reserved":false,"is_disabled":false,"rental_uris":{"android":"levelo://app?vid=4d4ec566-516b-4793-a5be-68a8e0188dc4","ios":"levelo://app?vid=4d4ec566-516b-4793-a5be-68a8e0188dc4"},"vehicle_type_id":"4","last_reported":1737247787,"current_range_meters":38800,"station_id":"ce4bhr92rcd13ifvqhrg","pricing_plan_id":"cebpf4jnsgd1na2vs0mg"},{"bike_id":"b672b566-ae6e-4181-a2cb-0155be334a04","system_id":"levelo_inurba_marseille","lat":43.28946,"lon":5.36626,"is_reserved":false,"is_disabled":true,"rental_uris":{"android":"levelo://app?vid=b672b566-ae6e-4181-a2cb-0155be334a04","ios":"levelo://app?vid=b672b566-ae6e-4181-a2cb-0155be334a04"},"vehicle_type_id":"4","last_reported":1737247787,"current_range_meters":36000,"station_id":"ce4bhap2rcd13ifvqek0","pricing_plan_id":"cebpf4jnsgd1na2vs0mg"},{"bike_id":"1daf3ff7-e464-42a5-a5ee-fb41876e27d2","system_id":"levelo_inurba_marseille","lat":43.29594,"lon":5.38114,"is_reserved":false,"is_disabled":false,"rental_uris":{"android":"levelo://app?vid=1daf3ff7-e464-42a5-a5ee-fb41876e27d2","ios":"levelo://app?vid=1daf3ff7-e464-42a5-a5ee-fb41876e27d2"},"vehicle_type_id":"4","last_reported":1737247787,"current_range_meters":24800,"station_id":"ce4bgl12rcd13ifvqbo0","pricing_plan_id":"cebpf4jnsgd1na2vs0mg"},{"bike_id":"e8b588be-7f30-4900-8856-ecf9dcf776f5","system_id":"levelo_inurba_marseille","lat":43.29443,"lon":5.39753,"is_reserved":false,"is_disabled":false,"rental_uris":{"android":"levelo://app?vid=e8b588be-7f30-4900-8856-ecf9dcf776f5","ios":"levelo://app?vid=e8b588be-7f30-4900-8856-ecf9dcf776f5"},"vehicle_type_id":"4","last_reported":1737247787,"current_range_meters":38800,"station_id":"ce4bh3h2rcd13ifvqdo0","pricing_plan_id":"cebpf4jnsgd1na2vs0mg"},{"bike_id":"04e7f6b2-1170-476d-8eb7-54bc6ab7d23c","system_id":"levelo_inurba_marseille","lat":43.24388,"lon":5.37051,"is_reserved":false,"is_disabled":false,"rental_uris":{"android":"levelo://app?vid=04e7f6b2-1170-476d-8eb7-54bc6ab7d23c","ios":"levelo://app?vid=04e7f6b2-1170-476d-8eb7-54bc6ab7d23c"},"vehicle_type_id":"4","last_reported":1737247787,"current_range_meters":38800,"station_id":"ce4bhhh2rcd13ifvqfk0","pricing_plan_id":"cebpf4jnsgd1na2vs0mg"},{"bike_id":"4395dfba-4e3d-4b8b-aa73-f3e693689e94","system_id":"levelo_inurba_marseille","lat":43.2467,"lon":5.38165,"is_reserved":false,"is_disabled":false,"rental_uris":{"android":"levelo://app?vid=4395dfba-4e3d-4b8b-aa73-f3e693689e94","ios":"levelo://app?vid=4395dfba-4e3d-4b8b-aa73-f3e693689e94"},"vehicle_type_id":"4","last_reported":1737247787,"current_range_meters":25600,"station_id":"ce4bhih2rcd13ifvqfr0","pricing_plan_id":"cebpf4jnsgd1na2vs0mg"},{"bike_id":"40960c8f-ec1c-498c-8ca1-63ec212319dd","system_id":"levelo_inurba_marseille","lat":43.30335,"lon":5.40437,"is_reserved":false,"is_disabled":false,"rental_uris":{"android":"levelo://app?vid=40960c8f-ec1c-498c-8ca1-63ec212319dd","ios":"levelo://app?vid=40960c8f-ec1c-498c-8ca1-63ec212319dd"},"vehicle_type_id":"4","last_reported":1737247787,"current_range_meters":19600,"station_id":"ce4bh012rcd13ifvqd10","pricing_plan_id":"cebpf4jnsgd1na2vs0mg"},{"bike_id":"4ca4a284-7c6d-494d-904d-fa6aeb88c6a7","system_id":"levelo_inurba_marseille","lat":43.30893,"lon":5.39626,"is_reserved":false,"is_disabled":false,"rental_uris":{"android":"levelo://app?vid=4ca4a284-7c6d-494d-904d-fa6aeb88c6a7","ios":"levelo://app?vid=4ca4a284-7c6d-494d-904d-fa6aeb88c6a7"},"vehicle_type_id":"4","last_reported":1737247787,"current_range_meters":28800,"station_id":"ce4bh012rcd13ifvqcv0","pricing_plan_id":"cebpf4jnsgd1na2vs0mg"},{"bike_id":"df581145-fd95-4a77-a27c-2465bbb559bf","system_id":"levelo_inurba_marseille","lat":43.246652,"lon":5.381587,"is_reserved":false,"is_disabled":false,"rental_uris":{"android":"levelo://app?vid=df581145-fd95-4a77-a27c-2465bbb559bf","ios":"levelo://app?vid=df581145-fd95-4a77-a27c-2465bbb559bf"},"vehicle_type_id":"4","last_reported":1737247787,"current_range_meters":29600,"station_id":"ce4bhih2rcd13ifvqfr0","pricing_plan_id":"cebpf4jnsgd1na2vs0mg"},{"bike_id":"501ab4fd-c09d-4978-b056-79da026409be","system_id":"levelo_inurba_marseille","lat":43.26213,"lon":5.40452,"is_reserved":false,"is_disabled":false,"rental_uris":{"android":"levelo://app?vid=501ab4fd-c09d-4978-b056-79da026409be","ios":"levelo://app?vid=501ab4fd-c09d-4978-b056-79da026409be"},"vehicle_type_id":"4","last_reported":1737247787,"current_range_meters":37600,"station_id":"","pricing_plan_id":"cebpf4jnsgd1na2vs0mg"},{"bike_id":"c997c11d-c5fb-4097-94f9-0199648ff695","system_id":"levelo_inurba_marseille","lat":43.280869,"lon":5.396554,"is_reserved":false,"is_disabled":false,"rental_uris":{"android":"levelo://app?vid=c997c11d-c5fb-4097-94f9-0199648ff695","ios":"levelo://app?vid=c997c11d-c5fb-4097-94f9-0199648ff695"},"vehicle_type_id":"4","last_reported":1737247787,"current_range_meters":37600,"station_id":"ce4bho12rcd13ifvqh2g","pricing_plan_id":"cebpf4jnsgd1na2vs0mg"},{"bike_id":"6ccc63df-fd67-4c4e-a20d-e9a29686e5f7","system_id":"levelo_inurba_marseille","lat":43.30791,"lon":5.38151,"is_reserved":false,"is_disabled":false,"rental_uris":{"android":"levelo://app?vid=6ccc63df-fd67-4c4e-a20d-e9a29686e5f7","ios":"levelo://app?vid=6ccc63df-fd67-4c4e-a20d-e9a29686e5f7"},"vehicle_type_id":"4","last_reported":1737247787,"current_range_meters":13600,"station_id":"ce4bgt12rcd13ifvqce0","pricing_plan_id":"cebpf4jnsgd1na2vs0mg"},{"bike_id":"1b9a9c77-b796-458f-9405-6cbabf6b8565","system_id":"levelo_inurba_marseille","lat":43.30205,"lon":5.39478,"is_reserved":false,"is_disabled":false,"rental_uris":{"android":"levelo://app?vid=1b9a9c77-b796-458f-9405-6cbabf6b8565","ios":"levelo://app?vid=1b9a9c77-b796-458f-9405-6cbabf6b8565"},"vehicle_type_id":"4","last_reported":1737247787,"current_range_meters":37600,"station_id":"ce4bh0p2rcd13ifvqd70","pricing_plan_id":"cebpf4jnsgd1na2vs0mg"},{"bike_id":"09f2f0ba-7b2f-4e24-949c-bdd899496366","system_id":"levelo_inurba_marseille","lat":43.30264,"lon":5.37723,"is_reserved":false,"is_disabled":false,"rental_uris":{"android":"levelo://app?vid=09f2f0ba-7b2f-4e24-949c-bdd899496366","ios":"levelo://app?vid=09f2f0ba-7b2f-4e24-949c-bdd899496366"},"vehicle_type_id":"4","last_reported":1737247787,"current_range_meters":22000,"station_id":"ce4bguh2rcd13ifvqcj0","pricing_plan_id":"cebpf4jnsgd1na2vs0mg"},{"bike_id":"2db212ce-aad5-435f-9548-4470f5f37e90","system_id":"levelo_inurba_marseille","lat":43.33003,"lon":5.39071,"is_reserved":false,"is_disabled":false,"rental_uris":{"android":"levelo://app?vid=2db212ce-aad5-435f-9548-4470f5f37e90","ios":"levelo://app?vid=2db212ce-aad5-435f-9548-4470f5f37e90"},"vehicle_type_id":"4","last_reported":1737247787,"current_range_meters":30800,"station_id":"ce4bhr92rcd13ifvqhrg","pricing_plan_id":"cebpf4jnsgd1na2vs0mg"},{"bike_id":"d48fc441-b585-4d51-a86d-a46d15ed8ba4","system_id":"levelo_inurba_marseille","lat":43.292734,"lon":5.384402,"is_reserved":false,"is_disabled":false,"rental_uris":{"android":"levelo://app?vid=d48fc441-b585-4d51-a86d-a46d15ed8ba4","ios":"levelo://app?vid=d48fc441-b585-4d51-a86d-a46d15ed8ba4"},"vehicle_type_id":"4","last_reported":1737247787,"current_range_meters":26800,"station_id":"ce4bhah2rcd13ifvqej0","pricing_plan_id":"cebpf4jnsgd1na2vs0mg"},{"bike_id":"93105082-f3e5-463c-8a21-624c0ccafd59","system_id":"levelo_inurba_marseille","lat":43.27553,"lon":5.38432,"is_reserved":false,"is_disabled":false,"rental_uris":{"android":"levelo://app?vid=93105082-f3e5-463c-8a21-624c0ccafd59","ios":"levelo://app?vid=93105082-f3e5-463c-8a21-624c0ccafd59"},"vehicle_type_id":"4","last_reported":1737247787,"current_range_meters":36400,"station_id":"ce4bhh92rcd13ifvqfi0","pricing_plan_id":"cebpf4jnsgd1na2vs0mg"},{"bike_id":"7b5cc4cc-e608-454c-95d4-00c7b5c48c31","system_id":"levelo_inurba_marseille","lat":43.25942,"lon":5.40899,"is_reserved":false,"is_disabled":false,"rental_uris":{"android":"levelo://app?vid=7b5cc4cc-e608-454c-95d4-00c7b5c48c31","ios":"levelo://app?vid=7b5cc4cc-e608-454c-95d4-00c7b5c48c31"},"vehicle_type_id":"4","last_reported":1737247787,"current_range_meters":8400,"station_id":"ce4bhm92rcd13ifvqglg","pricing_plan_id":"cebpf4jnsgd1na2vs0mg"},{"bike_id":"9716854c-fdc4-4b87-9388-dff0f5413e24","system_id":"levelo_inurba_marseille","lat":43.29681,"lon":5.37291,"is_reserved":false,"is_disabled":false,"rental_uris":{"android":"levelo://app?vid=9716854c-fdc4-4b87-9388-dff0f5413e24","ios":"levelo://app?vid=9716854c-fdc4-4b87-9388-dff0f5413e24"},"vehicle_type_id":"4","last_reported":1737247787,"current_range_meters":38400,"station_id":"ce4bgk12rcd13ifvqbj0","pricing_plan_id":"cebpf4jnsgd1na2vs0mg"},{"bike_id":"c8f7cc55-fbaf-43c6-ab25-9f6c9663110a","system_id":"levelo_inurba_marseille","lat":43.31761,"lon":5.39008,"is_reserved":false,"is_disabled":false,"rental_uris":{"android":"levelo://app?vid=c8f7cc55-fbaf-43c6-ab25-9f6c9663110a","ios":"levelo://app?vid=c8f7cc55-fbaf-43c6-ab25-9f6c9663110a"},"vehicle_type_id":"4","last_reported":1737247787,"current_range_meters":39200,"station_id":"ce4bhqp2rcd13ifvqhng","pricing_plan_id":"cebpf4jnsgd1na2vs0mg"},{"bike_id":"80f81d38-d023-4511-b747-c3aeddf8bdb8","system_id":"levelo_inurba_marseille","lat":43.30355,"lon":5.41875,"is_reserved":false,"is_disabled":false,"rental_uris":{"android":"levelo://app?vid=80f81d38-d023-4511-b747-c3aeddf8bdb8","ios":"levelo://app?vid=80f81d38-d023-4511-b747-c3aeddf8bdb8"},"vehicle_type_id":"4","last_reported":1737247787,"current_range_meters":16400,"station_id":"ce4bhop2rcd13ifvqh7g","pricing_plan_id":"cebpf4jnsgd1na2vs0mg"},{"bike_id":"cc58c983-a9b7-4101-8f9c-21e5c3efe2bb","system_id":"levelo_inurba_marseille","lat":43.28552,"lon":5.39499,"is_reserved":false,"is_disabled":false,"rental_uris":{"android":"levelo://app?vid=cc58c983-a9b7-4101-8f9c-21e5c3efe2bb","ios":"levelo://app?vid=cc58c983-a9b7-4101-8f9c-21e5c3efe2bb"},"vehicle_type_id":"4","last_reported":1737247787,"current_range_meters":29600,"station_id":"ce4bh292rcd13ifvqdg0","pricing_plan_id":"cebpf4jnsgd1na2vs0mg"},{"bike_id":"f4050ce3-69c2-47a5-9d09-5c964928f0c7","system_id":"levelo_inurba_marseille","lat":43.34151,"lon":5.40903,"is_reserved":false,"is_disabled":false,"rental_uris":{"android":"levelo://app?vid=f4050ce3-69c2-47a5-9d09-5c964928f0c7","ios":"levelo://app?vid=f4050ce3-69c2-47a5-9d09-5c964928f0c7"},"vehicle_type_id":"4","last_reported":1737247787,"current_range_meters":8000,"station_id":"ce4bhqh2rcd13ifvqhlg","pricing_plan_id":"cebpf4jnsgd1na2vs0mg"},{"bike_id":"366b3361-9a74-4f75-aa58-5cacc4d8afe8","system_id":"levelo_inurba_marseille","lat":43.29533,"lon":5.42256,"is_reserved":false,"is_disabled":false,"rental_uris":{"android":"levelo://app?vid=366b3361-9a74-4f75-aa58-5cacc4d8afe8","ios":"levelo://app?vid=366b3361-9a74-4f75-aa58-5cacc4d8afe8"},"vehicle_type_id":"4","last_reported":1737247787,"current_range_meters":38800,"station_id":"ce4bhph2rcd13ifvqhdg","pricing_plan_id":"cebpf4jnsgd1na2vs0mg"},{"bike_id":"249539c6-83be-4040-a185-92bdddb7c341","system_id":"levelo_inurba_marseille","lat":43.29691,"lon":5.37309,"is_reserved":false,"is_disabled":false,"rental_uris":{"android":"levelo://app?vid=249539c6-83be-4040-a185-92bdddb7c341","ios":"levelo://app?vid=249539c6-83be-4040-a185-92bdddb7c341"},"vehicle_type_id":"4","last_reported":1737247787,"current_range_meters":38800,"station_id":"ce4bgk12rcd13ifvqbj0","pricing_plan_id":"cebpf4jnsgd1na2vs0mg"},{"bike_id":"d1a77a42-019d-427b-8631-0001e41c6be5","system_id":"levelo_inurba_marseille","lat":43.30895,"lon":5.37183,"is_reserved":false,"is_disabled":false,"rental_uris":{"android":"levelo://app?vid=d1a77a42-019d-427b-8631-0001e41c6be5","ios":"levelo://app?vid=d1a77a42-019d-427b-8631-0001e41c6be5"},"vehicle_type_id":"4","last_reported":1737247787,"current_range_meters":30400,"station_id":"ce4bguh2rcd13ifvqckg","pricing_plan_id":"cebpf4jnsgd1na2vs0mg"},{"bike_id":"ca8aa51d-4833-4c77-8009-59b7c07323a3","system_id":"levelo_inurba_marseille","lat":43.32365,"lon":5.36757,"is_reserved":false,"is_disabled":false,"rental_uris":{"android":"levelo://app?vid=ca8aa51d-4833-4c77-8009-59b7c07323a3","ios":"levelo://app?vid=ca8aa51d-4833-4c77-8009-59b7c07323a3"},"vehicle_type_id":"4","last_reported":1737247787,"current_range_meters":37600,"station_id":"ce4bhsh2rcd13ifvqi2g","pricing_plan_id":"cebpf4jnsgd1na2vs0mg"},{"bike_id":"cd21465a-99d4-4df2-80bc-53a53cf0eafe","system_id":"levelo_inurba_marseille","lat":43.28627,"lon":5.351,"is_reserved":false,"is_disabled":false,"rental_uris":{"android":"levelo://app?vid=cd21465a-99d4-4df2-80bc-53a53cf0eafe","ios":"levelo://app?vid=cd21465a-99d4-4df2-80bc-53a53cf0eafe"},"vehicle_type_id":"4","last_reported":1737247787,"current_range_meters":9200,"station_id":"ce4bhch2rcd13ifvqeug","pricing_plan_id":"cebpf4jnsgd1na2vs0mg"},{"bike_id":"23c50c32-96fb-423e-8e5c-22372d2300ba","system_id":"levelo_inurba_marseille","lat":43.31726,"lon":5.40438,"is_reserved":false,"is_disabled":false,"rental_uris":{"android":"levelo://app?vid=23c50c32-96fb-423e-8e5c-22372d2300ba","ios":"levelo://app?vid=23c50c32-96fb-423e-8e5c-22372d2300ba"},"vehicle_type_id":"4","last_reported":1737247787,"current_range_meters":38800,"station_id":"ce4bh012rcd13ifvqd00","pricing_plan_id":"cebpf4jnsgd1na2vs0mg"},{"bike_id":"9dc49063-283d-43eb-bbfe-31fee7e70777","system_id":"levelo_inurba_marseille","lat":43.312208,"lon":5.368398,"is_reserved":false,"is_disabled":false,"rental_uris":{"android":"levelo://app?vid=9dc49063-283d-43eb-bbfe-31fee7e70777","ios":"levelo://app?vid=9dc49063-283d-43eb-bbfe-31fee7e70777"},"vehicle_type_id":"4","last_reported":1737247787,"current_range_meters":10000,"station_id":"ce4bgl92rcd13ifvqbq0","pricing_plan_id":"cebpf4jnsgd1na2vs0mg"},{"bike_id":"4b73b77a-9a3b-4f18-a046-cb900f7887f8","system_id":"levelo_inurba_marseille","lat":43.3172,"lon":5.42423,"is_reserved":false,"is_disabled":false,"rental_uris":{"android":"levelo://app?vid=4b73b77a-9a3b-4f18-a046-cb900f7887f8","ios":"levelo://app?vid=4b73b77a-9a3b-4f18-a046-cb900f7887f8"},"vehicle_type_id":"4","last_reported":1737247787,"current_range_meters":38800,"station_id":"ce4bhp92rcd13ifvqhbg","pricing_plan_id":"cebpf4jnsgd1na2vs0mg"},{"bike_id":"7c1d1ece-83b1-4cff-89e5-b832045b8b99","system_id":"levelo_inurba_marseille","lat":43.30119,"lon":5.40076,"is_reserved":false,"is_disabled":false,"rental_uris":{"android":"levelo://app?vid=7c1d1ece-83b1-4cff-89e5-b832045b8b99","ios":"levelo://app?vid=7c1d1ece-83b1-4cff-89e5-b832045b8b99"},"vehicle_type_id":"4","last_reported":1737247787,"current_range_meters":27200,"station_id":"","pricing_plan_id":"cebpf4jnsgd1na2vs0mg"},{"bike_id":"57d9fa47-e597-4ea4-913f-9b45079bd718","system_id":"levelo_inurba_marseille","lat":43.33022,"lon":5.39039,"is_reserved":false,"is_disabled":false,"rental_uris":{"android":"levelo://app?vid=57d9fa47-e597-4ea4-913f-9b45079bd718","ios":"levelo://app?vid=57d9fa47-e597-4ea4-913f-9b45079bd718"},"vehicle_type_id":"4","last_reported":1737247787,"current_range_meters":9600,"station_id":"ce4bhr92rcd13ifvqhrg","pricing_plan_id":"cebpf4jnsgd1na2vs0mg"},{"bike_id":"8425f527-93d3-4514-a4ff-69db683ce640","system_id":"levelo_inurba_marseille","lat":43.30598,"lon":5.39347,"is_reserved":false,"is_disabled":false,"rental_uris":{"android":"levelo://app?vid=8425f527-93d3-4514-a4ff-69db683ce640","ios":"levelo://app?vid=8425f527-93d3-4514-a4ff-69db683ce640"},"vehicle_type_id":"4","last_reported":1737247787,"current_range_meters":38000,"station_id":"ce4bh0p2rcd13ifvqd80","pricing_plan_id":"cebpf4jnsgd1na2vs0mg"},{"bike_id":"4ec76aa8-1e80-4051-b2ea-1baaf50a61e8","system_id":"levelo_inurba_marseille","lat":43.24118,"lon":5.38103,"is_reserved":false,"is_disabled":false,"rental_uris":{"android":"levelo://app?vid=4ec76aa8-1e80-4051-b2ea-1baaf50a61e8","ios":"levelo://app?vid=4ec76aa8-1e80-4051-b2ea-1baaf50a61e8"},"vehicle_type_id":"4","last_reported":1737247787,"current_range_meters":20000,"station_id":"","pricing_plan_id":"cebpf4jnsgd1na2vs0mg"},{"bike_id":"684434e5-3243-4ba5-88ad-46b4013d196a","system_id":"levelo_inurba_marseille","lat":43.28944,"lon":5.36632,"is_reserved":false,"is_disabled":false,"rental_uris":{"android":"levelo://app?vid=684434e5-3243-4ba5-88ad-46b4013d196a","ios":"levelo://app?vid=684434e5-3243-4ba5-88ad-46b4013d196a"},"vehicle_type_id":"4","last_reported":1737247787,"current_range_meters":30800,"station_id":"ce4bhap2rcd13ifvqek0","pricing_plan_id":"cebpf4jnsgd1na2vs0mg"},{"bike_id":"bd00f222-ce0c-4f81-a68c-0edabc3e5f6b","system_id":"levelo_inurba_marseille","lat":43.25059,"lon":5.3952,"is_reserved":false,"is_disabled":false,"rental_uris":{"android":"levelo://app?vid=bd00f222-ce0c-4f81-a68c-0edabc3e5f6b","ios":"levelo://app?vid=bd00f222-ce0c-4f81-a68c-0edabc3e5f6b"},"vehicle_type_id":"4","last_reported":1737247787,"current_range_meters":38400,"station_id":"ce4bhm12rcd13ifvqgkg","pricing_plan_id":"cebpf4jnsgd1na2vs0mg"},{"bike_id":"2c114e21-3f5a-457e-b6ff-3dda5266ff12","system_id":"levelo_inurba_marseille","lat":43.30422,"lon":5.39735,"is_reserved":false,"is_disabled":false,"rental_uris":{"android":"levelo://app?vid=2c114e21-3f5a-457e-b6ff-3dda5266ff12","ios":"levelo://app?vid=2c114e21-3f5a-457e-b6ff-3dda5266ff12"},"vehicle_type_id":"4","last_reported":1737247787,"current_range_meters":20800,"station_id":"ce4bh092rcd13ifvqd20","pricing_plan_id":"cebpf4jnsgd1na2vs0mg"},{"bike_id":"7fd04669-fcc5-4773-bb83-1b462bde67ed","system_id":"levelo_inurba_marseille","lat":43.28955,"lon":5.36632,"is_reserved":false,"is_disabled":false,"rental_uris":{"android":"levelo://app?vid=7fd04669-fcc5-4773-bb83-1b462bde67ed","ios":"levelo://app?vid=7fd04669-fcc5-4773-bb83-1b462bde67ed"},"vehicle_type_id":"4","last_reported":1737247787,"current_range_meters":31200,"station_id":"ce4bhap2rcd13ifvqek0","pricing_plan_id":"cebpf4jnsgd1na2vs0mg"},{"bike_id":"cd3ef910-0be6-4e1a-a045-534aa6f308c9","system_id":"levelo_inurba_marseille","lat":43.28232,"lon":5.40296,"is_reserved":false,"is_disabled":false,"rental_uris":{"android":"levelo://app?vid=cd3ef910-0be6-4e1a-a045-534aa6f308c9","ios":"levelo://app?vid=cd3ef910-0be6-4e1a-a045-534aa6f308c9"},"vehicle_type_id":"4","last_reported":1737247787,"current_range_meters":32400,"station_id":"","pricing_plan_id":"cebpf4jnsgd1na2vs0mg"},{"bike_id":"4104cbba-088f-4383-b2a0-261d17699731","system_id":"levelo_inurba_marseille","lat":43.23945,"lon":5.36655,"is_reserved":false,"is_disabled":false,"rental_uris":{"android":"levelo://app?vid=4104cbba-088f-4383-b2a0-261d17699731","ios":"levelo://app?vid=4104cbba-088f-4383-b2a0-261d17699731"},"vehicle_type_id":"4","last_reported":1737247787,"current_range_meters":38000,"station_id":"ce4bhi12rcd13ifvqfp0","pricing_plan_id":"cebpf4jnsgd1na2vs0mg"},{"bike_id":"4a4b8a38-93fe-4562-bcce-826a532c71f1","system_id":"levelo_inurba_marseille","lat":43.23182,"lon":5.39991,"is_reserved":false,"is_disabled":false,"rental_uris":{"android":"levelo://app?vid=4a4b8a38-93fe-4562-bcce-826a532c71f1","ios":"levelo://app?vid=4a4b8a38-93fe-4562-bcce-826a532c71f1"},"vehicle_type_id":"4","last_reported":1737247787,"current_range_meters":39200,"station_id":"ce4bhn12rcd13ifvqgqg","pricing_plan_id":"cebpf4jnsgd1na2vs0mg"},{"bike_id":"3677fd36-cc3f-4252-97c3-e7e1e1a066de","system_id":"levelo_inurba_marseille","lat":43.26556,"lon":5.39055,"is_reserved":false,"is_disabled":false,"rental_uris":{"android":"levelo://app?vid=3677fd36-cc3f-4252-97c3-e7e1e1a066de","ios":"levelo://app?vid=3677fd36-cc3f-4252-97c3-e7e1e1a066de"},"vehicle_type_id":"4","last_reported":1737247787,"current_range_meters":24800,"station_id":"ce4bhe12rcd13ifvqf30","pricing_plan_id":"cebpf4jnsgd1na2vs0mg"},{"bike_id":"da511d78-fd77-4881-a721-e61a6f2e96c3","system_id":"levelo_inurba_marseille","lat":43.29196,"lon":5.39327,"is_reserved":false,"is_disabled":false,"rental_uris":{"android":"levelo://app?vid=da511d78-fd77-4881-a721-e61a6f2e96c3","ios":"levelo://app?vid=da511d78-fd77-4881-a721-e61a6f2e96c3"},"vehicle_type_id":"4","last_reported":1737247787,"current_range_meters":38000,"station_id":"ce4bh192rcd13ifvqdd0","pricing_plan_id":"cebpf4jnsgd1na2vs0mg"},{"bike_id":"881f5a56-0072-422c-a05d-eee833d8c733","system_id":"levelo_inurba_marseille","lat":43.33152,"lon":5.37834,"is_reserved":false,"is_disabled":false,"rental_uris":{"android":"levelo://app?vid=881f5a56-0072-422c-a05d-eee833d8c733","ios":"levelo://app?vid=881f5a56-0072-422c-a05d-eee833d8c733"},"vehicle_type_id":"4","last_reported":1737247787,"current_range_meters":38400,"station_id":"","pricing_plan_id":"cebpf4jnsgd1na2vs0mg"},{"bike_id":"28ef1c1e-dd89-43e8-817b-9b489831397b","system_id":"levelo_inurba_marseille","lat":43.271187,"lon":5.396123,"is_reserved":false,"is_disabled":true,"rental_uris":{"android":"levelo://app?vid=28ef1c1e-dd89-43e8-817b-9b489831397b","ios":"levelo://app?vid=28ef1c1e-dd89-43e8-817b-9b489831397b"},"vehicle_type_id":"4","last_reported":1737247787,"current_range_meters":0,"station_id":"","pricing_plan_id":"cebpf4jnsgd1na2vs0mg"},{"bike_id":"63f5da95-45c1-4439-88f3-ff94f7d248dd","system_id":"levelo_inurba_marseille","lat":43.23189,"lon":5.4,"is_reserved":false,"is_disabled":false,"rental_uris":{"android":"levelo://app?vid=63f5da95-45c1-4439-88f3-ff94f7d248dd","ios":"levelo://app?vid=63f5da95-45c1-4439-88f3-ff94f7d248dd"},"vehicle_type_id":"4","last_reported":1737247787,"current_range_meters":35600,"station_id":"ce4bhn12rcd13ifvqgqg","pricing_plan_id":"cebpf4jnsgd1na2vs0mg"},{"bike_id":"748bb4c8-d760-4703-845e-4ee62efabb1b","system_id":"levelo_inurba_marseille","lat":43.30429,"lon":5.38882,"is_reserved":false,"is_disabled":false,"rental_uris":{"android":"levelo://app?vid=748bb4c8-d760-4703-845e-4ee62efabb1b","ios":"levelo://app?vid=748bb4c8-d760-4703-845e-4ee62efabb1b"},"vehicle_type_id":"4","last_reported":1737247787,"current_range_meters":38000,"station_id":"ce4bgk12rcd13ifvqbi0","pricing_plan_id":"cebpf4jnsgd1na2vs0mg"},{"bike_id":"2ad52ef0-8080-4104-a5d3-4ad6b83e9c6d","system_id":"levelo_inurba_marseille","lat":43.2952,"lon":5.39028,"is_reserved":false,"is_disabled":false,"rental_uris":{"android":"levelo://app?vid=2ad52ef0-8080-4104-a5d3-4ad6b83e9c6d","ios":"levelo://app?vid=2ad52ef0-8080-4104-a5d3-4ad6b83e9c6d"},"vehicle_type_id":"4","last_reported":1737247787,"current_range_meters":25200,"station_id":"ce4bh3p2rcd13ifvqdp0","pricing_plan_id":"cebpf4jnsgd1na2vs0mg"},{"bike_id":"c77de84a-305d-47e5-b81a-44313d3b8aa9","system_id":"levelo_inurba_marseille","lat":43.25867,"lon":5.39897,"is_reserved":false,"is_disabled":false,"rental_uris":{"android":"levelo://app?vid=c77de84a-305d-47e5-b81a-44313d3b8aa9","ios":"levelo://app?vid=c77de84a-305d-47e5-b81a-44313d3b8aa9"},"vehicle_type_id":"4","last_reported":1737247787,"current_range_meters":30000,"station_id":"ce4bhl92rcd13ifvqghg","pricing_plan_id":"cebpf4jnsgd1na2vs0mg"},{"bike_id":"357eaeda-fef2-41f2-9ad0-621ae2cc5c09","system_id":"levelo_inurba_marseille","lat":43.33753,"lon":5.37518,"is_reserved":false,"is_disabled":false,"rental_uris":{"android":"levelo://app?vid=357eaeda-fef2-41f2-9ad0-621ae2cc5c09","ios":"levelo://app?vid=357eaeda-fef2-41f2-9ad0-621ae2cc5c09"},"vehicle_type_id":"4","last_reported":1737247787,"current_range_meters":35200,"station_id":"","pricing_plan_id":"cebpf4jnsgd1na2vs0mg"},{"bike_id":"8b9d5b41-6506-4548-8751-5848a15cd453","system_id":"levelo_inurba_marseille","lat":43.28666,"lon":5.36354,"is_reserved":false,"is_disabled":false,"rental_uris":{"android":"levelo://app?vid=8b9d5b41-6506-4548-8751-5848a15cd453","ios":"levelo://app?vid=8b9d5b41-6506-4548-8751-5848a15cd453"},"vehicle_type_id":"4","last_reported":1737247787,"current_range_meters":34000,"station_id":"ce4bhah2rcd13ifvqej0","pricing_plan_id":"cebpf4jnsgd1na2vs0mg"},{"bike_id":"d274786c-8899-43d5-94f3-d281c5dc0870","system_id":"levelo_inurba_marseille","lat":43.28257,"lon":5.35088,"is_reserved":false,"is_disabled":false,"rental_uris":{"android":"levelo://app?vid=d274786c-8899-43d5-94f3-d281c5dc0870","ios":"levelo://app?vid=d274786c-8899-43d5-94f3-d281c5dc0870"},"vehicle_type_id":"4","last_reported":1737247787,"current_range_meters":9600,"station_id":"ce4bhbp2rcd13ifvqerg","pricing_plan_id":"cebpf4jnsgd1na2vs0mg"},{"bike_id":"ad37be90-cd16-435d-9ccb-35b175ce6ca4","system_id":"levelo_inurba_marseille","lat":43.28455,"lon":5.35892,"is_reserved":false,"is_disabled":false,"rental_uris":{"android":"levelo://app?vid=ad37be90-cd16-435d-9ccb-35b175ce6ca4","ios":"levelo://app?vid=ad37be90-cd16-435d-9ccb-35b175ce6ca4"},"vehicle_type_id":"4","last_reported":1737247787,"current_range_meters":25600,"station_id":"ce4bhah2rcd13ifvqei0","pricing_plan_id":"cebpf4jnsgd1na2vs0mg"},{"bike_id":"5ebc0e23-f2f4-4cc0-bd89-a31a0285ee53","system_id":"levelo_inurba_marseille","lat":43.31723,"lon":5.43712,"is_reserved":false,"is_disabled":false,"rental_uris":{"android":"levelo://app?vid=5ebc0e23-f2f4-4cc0-bd89-a31a0285ee53","ios":"levelo://app?vid=5ebc0e23-f2f4-4cc0-bd89-a31a0285ee53"},"vehicle_type_id":"4","last_reported":1737247787,"current_range_meters":39200,"station_id":"ce4bhp92rcd13ifvqhcg","pricing_plan_id":"cebpf4jnsgd1na2vs0mg"},{"bike_id":"e2481d2d-ec3c-436f-9eeb-094327789afd","system_id":"levelo_inurba_marseille","lat":43.29689,"lon":5.42362,"is_reserved":false,"is_disabled":false,"rental_uris":{"android":"levelo://app?vid=e2481d2d-ec3c-436f-9eeb-094327789afd","ios":"levelo://app?vid=e2481d2d-ec3c-436f-9eeb-094327789afd"},"vehicle_type_id":"4","last_reported":1737247787,"current_range_meters":10000,"station_id":"","pricing_plan_id":"cebpf4jnsgd1na2vs0mg"},{"bike_id":"4d4b0e98-71c8-4e53-9659-55113dc5e691","system_id":"levelo_inurba_marseille","lat":43.28851,"lon":5.35861,"is_reserved":false,"is_disabled":false,"rental_uris":{"android":"levelo://app?vid=4d4b0e98-71c8-4e53-9659-55113dc5e691","ios":"levelo://app?vid=4d4b0e98-71c8-4e53-9659-55113dc5e691"},"vehicle_type_id":"4","last_reported":1737247787,"current_range_meters":38800,"station_id":"ce4bhb12rcd13ifvqem0","pricing_plan_id":"cebpf4jnsgd1na2vs0mg"},{"bike_id":"406cf7e1-dd3a-472a-896f-d09b14680f3c","system_id":"levelo_inurba_marseille","lat":43.26056,"lon":5.394,"is_reserved":false,"is_disabled":false,"rental_uris":{"android":"levelo://app?vid=406cf7e1-dd3a-472a-896f-d09b14680f3c","ios":"levelo://app?vid=406cf7e1-dd3a-472a-896f-d09b14680f3c"},"vehicle_type_id":"4","last_reported":1737247787,"current_range_meters":26800,"station_id":"ce4bhh92rcd13ifvqfj0","pricing_plan_id":"cebpf4jnsgd1na2vs0mg"},{"bike_id":"01a07bd9-36a1-4c19-a88b-7c9e3a6ee490","system_id":"levelo_inurba_marseille","lat":43.25089,"lon":5.39518,"is_reserved":false,"is_disabled":false,"rental_uris":{"android":"levelo://app?vid=01a07bd9-36a1-4c19-a88b-7c9e3a6ee490","ios":"levelo://app?vid=01a07bd9-36a1-4c19-a88b-7c9e3a6ee490"},"vehicle_type_id":"4","last_reported":1737247787,"current_range_meters":35200,"station_id":"ce4bhm12rcd13ifvqgkg","pricing_plan_id":"cebpf4jnsgd1na2vs0mg"},{"bike_id":"0431c1b5-53a0-41fc-a49a-540038c0ce17","system_id":"levelo_inurba_marseille","lat":43.2895,"lon":5.3664,"is_reserved":false,"is_disabled":false,"rental_uris":{"android":"levelo://app?vid=0431c1b5-53a0-41fc-a49a-540038c0ce17","ios":"levelo://app?vid=0431c1b5-53a0-41fc-a49a-540038c0ce17"},"vehicle_type_id":"4","last_reported":1737247787,"current_range_meters":18800,"station_id":"ce4bhap2rcd13ifvqek0","pricing_plan_id":"cebpf4jnsgd1na2vs0mg"},{"bike_id":"87b46499-ace2-42c9-99de-3f367f940e74","system_id":"levelo_inurba_marseille","lat":43.29793,"lon":5.38105,"is_reserved":false,"is_disabled":false,"rental_uris":{"android":"levelo://app?vid=87b46499-ace2-42c9-99de-3f367f940e74","ios":"levelo://app?vid=87b46499-ace2-42c9-99de-3f367f940e74"},"vehicle_type_id":"4","last_reported":1737247787,"current_range_meters":39200,"station_id":"ce4bgip2rcd13ifvqbb0","pricing_plan_id":"cebpf4jnsgd1na2vs0mg"},{"bike_id":"24d3b331-52fa-4564-a98e-732c1dea4a32","system_id":"levelo_inurba_marseille","lat":43.27495,"lon":5.42455,"is_reserved":false,"is_disabled":true,"rental_uris":{"android":"levelo://app?vid=24d3b331-52fa-4564-a98e-732c1dea4a32","ios":"levelo://app?vid=24d3b331-52fa-4564-a98e-732c1dea4a32"},"vehicle_type_id":"4","last_reported":1737247787,"current_range_meters":0,"station_id":"ce4bhn92rcd13ifvqgrg","pricing_plan_id":"cebpf4jnsgd1na2vs0mg"},{"bike_id":"9be957d2-26d1-49a4-9f85-b06ee3432064","system_id":"levelo_inurba_marseille","lat":43.33742,"lon":5.39188,"is_reserved":false,"is_disabled":false,"rental_uris":{"android":"levelo://app?vid=9be957d2-26d1-49a4-9f85-b06ee3432064","ios":"levelo://app?vid=9be957d2-26d1-49a4-9f85-b06ee3432064"},"vehicle_type_id":"4","last_reported":1737247787,"current_range_meters":25200,"station_id":"ce4bhr92rcd13ifvqhsg","pricing_plan_id":"cebpf4jnsgd1na2vs0mg"},{"bike_id":"830df493-d61b-4af0-9067-68cf38f60ac0","system_id":"levelo_inurba_marseille","lat":43.28462,"lon":5.35902,"is_reserved":false,"is_disabled":false,"rental_uris":{"android":"levelo://app?vid=830df493-d61b-4af0-9067-68cf38f60ac0","ios":"levelo://app?vid=830df493-d61b-4af0-9067-68cf38f60ac0"},"vehicle_type_id":"4","last_reported":1737247787,"current_range_meters":30000,"station_id":"ce4bhah2rcd13ifvqei0","pricing_plan_id":"cebpf4jnsgd1na2vs0mg"},{"bike_id":"524072f1-ace1-43cc-8007-f91dc732b1f7","system_id":"levelo_inurba_marseille","lat":43.25084,"lon":5.39513,"is_reserved":false,"is_disabled":false,"rental_uris":{"android":"levelo://app?vid=524072f1-ace1-43cc-8007-f91dc732b1f7","ios":"levelo://app?vid=524072f1-ace1-43cc-8007-f91dc732b1f7"},"vehicle_type_id":"4","last_reported":1737247787,"current_range_meters":33600,"station_id":"ce4bhm12rcd13ifvqgkg","pricing_plan_id":"cebpf4jnsgd1na2vs0mg"},{"bike_id":"40bf513d-352f-4502-9e3f-aa0a18594b2f","system_id":"levelo_inurba_marseille","lat":43.29552,"lon":5.42294,"is_reserved":false,"is_disabled":false,"rental_uris":{"android":"levelo://app?vid=40bf513d-352f-4502-9e3f-aa0a18594b2f","ios":"levelo://app?vid=40bf513d-352f-4502-9e3f-aa0a18594b2f"},"vehicle_type_id":"4","last_reported":1737247787,"current_range_meters":16800,"station_id":"ce4bhph2rcd13ifvqhdg","pricing_plan_id":"cebpf4jnsgd1na2vs0mg"},{"bike_id":"4176cd66-1893-4442-bd75-0360ec9d6e01","system_id":"levelo_inurba_marseille","lat":43.28956,"lon":5.36406,"is_reserved":false,"is_disabled":false,"rental_uris":{"android":"levelo://app?vid=4176cd66-1893-4442-bd75-0360ec9d6e01","ios":"levelo://app?vid=4176cd66-1893-4442-bd75-0360ec9d6e01"},"vehicle_type_id":"4","last_reported":1737247787,"current_range_meters":34000,"station_id":"ce4bhc92rcd13ifvqetg","pricing_plan_id":"cebpf4jnsgd1na2vs0mg"},{"bike_id":"cd195908-7692-40ef-8f14-bc81abd6e292","system_id":"levelo_inurba_marseille","lat":43.30323,"lon":5.40441,"is_reserved":false,"is_disabled":false,"rental_uris":{"android":"levelo://app?vid=cd195908-7692-40ef-8f14-bc81abd6e292","ios":"levelo://app?vid=cd195908-7692-40ef-8f14-bc81abd6e292"},"vehicle_type_id":"4","last_reported":1737247787,"current_range_meters":33200,"station_id":"ce4bh012rcd13ifvqd10","pricing_plan_id":"cebpf4jnsgd1na2vs0mg"},{"bike_id":"59829282-52a1-4f2c-9ab6-c535355001fb","system_id":"levelo_inurba_marseille","lat":43.30444,"lon":5.38923,"is_reserved":false,"is_disabled":false,"rental_uris":{"android":"levelo://app?vid=59829282-52a1-4f2c-9ab6-c535355001fb","ios":"levelo://app?vid=59829282-52a1-4f2c-9ab6-c535355001fb"},"vehicle_type_id":"4","last_reported":1737247787,"current_range_meters":36400,"station_id":"ce4bgk12rcd13ifvqbi0","pricing_plan_id":"cebpf4jnsgd1na2vs0mg"},{"bike_id":"52944324-56c0-4eb2-bed2-f2a48346d11b","system_id":"levelo_inurba_marseille","lat":43.28347,"lon":5.38106,"is_reserved":false,"is_disabled":false,"rental_uris":{"android":"levelo://app?vid=52944324-56c0-4eb2-bed2-f2a48346d11b","ios":"levelo://app?vid=52944324-56c0-4eb2-bed2-f2a48346d11b"},"vehicle_type_id":"4","last_reported":1737247787,"current_range_meters":38800,"station_id":"ce4bh412rcd13ifvqdr0","pricing_plan_id":"cebpf4jnsgd1na2vs0mg"},{"bike_id":"279ab6f7-2b49-4bd4-b061-2a3875590c1c","system_id":"levelo_inurba_marseille","lat":43.28359,"lon":5.38634,"is_reserved":false,"is_disabled":false,"rental_uris":{"android":"levelo://app?vid=279ab6f7-2b49-4bd4-b061-2a3875590c1c","ios":"levelo://app?vid=279ab6f7-2b49-4bd4-b061-2a3875590c1c"},"vehicle_type_id":"4","last_reported":1737247787,"current_range_meters":25200,"station_id":"ce4bh492rcd13ifvqdvg","pricing_plan_id":"cebpf4jnsgd1na2vs0mg"},{"bike_id":"4291632b-b89c-4c47-8e03-1ac2c74e4815","system_id":"levelo_inurba_marseille","lat":43.2417,"lon":5.39742,"is_reserved":false,"is_disabled":false,"rental_uris":{"android":"levelo://app?vid=4291632b-b89c-4c47-8e03-1ac2c74e4815","ios":"levelo://app?vid=4291632b-b89c-4c47-8e03-1ac2c74e4815"},"vehicle_type_id":"4","last_reported":1737247787,"current_range_meters":38800,"station_id":"ce4bhn12rcd13ifvqgpg","pricing_plan_id":"cebpf4jnsgd1na2vs0mg"},{"bike_id":"804b3b4e-2b7b-432d-bee9-ad793eff9ddf","system_id":"levelo_inurba_marseille","lat":43.25618,"lon":5.40995,"is_reserved":false,"is_disabled":false,"rental_uris":{"android":"levelo://app?vid=804b3b4e-2b7b-432d-bee9-ad793eff9ddf","ios":"levelo://app?vid=804b3b4e-2b7b-432d-bee9-ad793eff9ddf"},"vehicle_type_id":"4","last_reported":1737247787,"current_range_meters":9200,"station_id":"ce4bhkp2rcd13ifvqgd0","pricing_plan_id":"cebpf4jnsgd1na2vs0mg"},{"bike_id":"63ee011d-7677-4e33-9490-1fd81b71f214","system_id":"levelo_inurba_marseille","lat":43.308966,"lon":5.396504,"is_reserved":false,"is_disabled":false,"rental_uris":{"android":"levelo://app?vid=63ee011d-7677-4e33-9490-1fd81b71f214","ios":"levelo://app?vid=63ee011d-7677-4e33-9490-1fd81b71f214"},"vehicle_type_id":"4","last_reported":1737247787,"current_range_meters":22000,"station_id":"ce4bh012rcd13ifvqcv0","pricing_plan_id":"cebpf4jnsgd1na2vs0mg"},{"bike_id":"a42901bb-97a1-46d1-b7fa-def21e84355e","system_id":"levelo_inurba_marseille","lat":43.30141,"lon":5.38069,"is_reserved":false,"is_disabled":false,"rental_uris":{"android":"levelo://app?vid=a42901bb-97a1-46d1-b7fa-def21e84355e","ios":"levelo://app?vid=a42901bb-97a1-46d1-b7fa-def21e84355e"},"vehicle_type_id":"4","last_reported":1737247787,"current_range_meters":32000,"station_id":"ce4bgjp2rcd13ifvqbh0","pricing_plan_id":"cebpf4jnsgd1na2vs0mg"},{"bike_id":"dfd96ebd-2cae-4ab5-8d13-f6e62258957e","system_id":"levelo_inurba_marseille","lat":43.31722,"lon":5.424,"is_reserved":false,"is_disabled":false,"rental_uris":{"android":"levelo://app?vid=dfd96ebd-2cae-4ab5-8d13-f6e62258957e","ios":"levelo://app?vid=dfd96ebd-2cae-4ab5-8d13-f6e62258957e"},"vehicle_type_id":"4","last_reported":1737247787,"current_range_meters":38800,"station_id":"ce4bhp92rcd13ifvqhbg","pricing_plan_id":"cebpf4jnsgd1na2vs0mg"},{"bike_id":"5216534c-21a3-49c6-aa1a-f817992eca31","system_id":"levelo_inurba_marseille","lat":43.3042,"lon":5.39751,"is_reserved":false,"is_disabled":false,"rental_uris":{"android":"levelo://app?vid=5216534c-21a3-49c6-aa1a-f817992eca31","ios":"levelo://app?vid=5216534c-21a3-49c6-aa1a-f817992eca31"},"vehicle_type_id":"4","last_reported":1737247787,"current_range_meters":36400,"station_id":"ce4bh092rcd13ifvqd20","pricing_plan_id":"cebpf4jnsgd1na2vs0mg"},{"bike_id":"13d3fd97-e21c-4164-8b58-6e6c0cfe1ec1","system_id":"levelo_inurba_marseille","lat":43.280335,"lon":5.369485,"is_reserved":false,"is_disabled":false,"rental_uris":{"android":"levelo://app?vid=13d3fd97-e21c-4164-8b58-6e6c0cfe1ec1","ios":"levelo://app?vid=13d3fd97-e21c-4164-8b58-6e6c0cfe1ec1"},"vehicle_type_id":"4","last_reported":1737247787,"current_range_meters":39200,"station_id":"ce4bha12rcd13ifvqef0","pricing_plan_id":"cebpf4jnsgd1na2vs0mg"},{"bike_id":"fae143cc-e0b7-42e0-ac41-6327643321d0","system_id":"levelo_inurba_marseille","lat":43.25828,"lon":5.394269,"is_reserved":false,"is_disabled":false,"rental_uris":{"android":"levelo://app?vid=fae143cc-e0b7-42e0-ac41-6327643321d0","ios":"levelo://app?vid=fae143cc-e0b7-42e0-ac41-6327643321d0"},"vehicle_type_id":"4","last_reported":1737247787,"current_range_meters":30000,"station_id":"ce4bhip2rcd13ifvqft0","pricing_plan_id":"cebpf4jnsgd1na2vs0mg"},{"bike_id":"bcd96ff4-f53b-4513-aba6-d7a0a8f8f0c1","system_id":"levelo_inurba_marseille","lat":43.25824,"lon":5.39426,"is_reserved":false,"is_disabled":false,"rental_uris":{"android":"levelo://app?vid=bcd96ff4-f53b-4513-aba6-d7a0a8f8f0c1","ios":"levelo://app?vid=bcd96ff4-f53b-4513-aba6-d7a0a8f8f0c1"},"vehicle_type_id":"4","last_reported":1737247787,"current_range_meters":38000,"station_id":"ce4bhip2rcd13ifvqft0","pricing_plan_id":"cebpf4jnsgd1na2vs0mg"},{"bike_id":"8600d936-bbb2-4761-9f8e-aa4c1032bd26","system_id":"levelo_inurba_marseille","lat":43.30432,"lon":5.39744,"is_reserved":false,"is_disabled":false,"rental_uris":{"android":"levelo://app?vid=8600d936-bbb2-4761-9f8e-aa4c1032bd26","ios":"levelo://app?vid=8600d936-bbb2-4761-9f8e-aa4c1032bd26"},"vehicle_type_id":"4","last_reported":1737247787,"current_range_meters":38400,"station_id":"ce4bh092rcd13ifvqd20","pricing_plan_id":"cebpf4jnsgd1na2vs0mg"},{"bike_id":"1e439018-c0d6-4a96-9cf0-6ec46d1fa22b","system_id":"levelo_inurba_marseille","lat":43.330264,"lon":5.390318,"is_reserved":false,"is_disabled":false,"rental_uris":{"android":"levelo://app?vid=1e439018-c0d6-4a96-9cf0-6ec46d1fa22b","ios":"levelo://app?vid=1e439018-c0d6-4a96-9cf0-6ec46d1fa22b"},"vehicle_type_id":"4","last_reported":1737247787,"current_range_meters":38000,"station_id":"ce4bhr92rcd13ifvqhrg","pricing_plan_id":"cebpf4jnsgd1na2vs0mg"},{"bike_id":"f4a4a406-b0a5-42fc-9236-32e93ac6f6b2","system_id":"levelo_inurba_marseille","lat":43.23154,"lon":5.43703,"is_reserved":false,"is_disabled":true,"rental_uris":{"android":"levelo://app?vid=f4a4a406-b0a5-42fc-9236-32e93ac6f6b2","ios":"levelo://app?vid=f4a4a406-b0a5-42fc-9236-32e93ac6f6b2"},"vehicle_type_id":"4","last_reported":1737247787,"current_range_meters":28000,"station_id":"ce4bhmp2rcd13ifvqgog","pricing_plan_id":"cebpf4jnsgd1na2vs0mg"},{"bike_id":"210ffe2d-27bf-471a-a897-ba0eb55d9e2b","system_id":"levelo_inurba_marseille","lat":43.270713,"lon":5.42288,"is_reserved":false,"is_disabled":false,"rental_uris":{"android":"levelo://app?vid=210ffe2d-27bf-471a-a897-ba0eb55d9e2b","ios":"levelo://app?vid=210ffe2d-27bf-471a-a897-ba0eb55d9e2b"},"vehicle_type_id":"4","last_reported":1737247787,"current_range_meters":37600,"station_id":"ce4bhk92rcd13ifvqgb0","pricing_plan_id":"cebpf4jnsgd1na2vs0mg"},{"bike_id":"5f94e633-235a-434a-b359-4fcead31966d","system_id":"levelo_inurba_marseille","lat":43.2958,"lon":5.36738,"is_reserved":false,"is_disabled":false,"rental_uris":{"android":"levelo://app?vid=5f94e633-235a-434a-b359-4fcead31966d","ios":"levelo://app?vid=5f94e633-235a-434a-b359-4fcead31966d"},"vehicle_type_id":"4","last_reported":1737247787,"current_range_meters":32400,"station_id":"ce4bgph2rcd13ifvqc2g","pricing_plan_id":"cebpf4jnsgd1na2vs0mg"},{"bike_id":"861b4fe3-61e1-4d67-9253-1a6d24bf0615","system_id":"levelo_inurba_marseille","lat":43.29875,"lon":5.39754,"is_reserved":false,"is_disabled":false,"rental_uris":{"android":"levelo://app?vid=861b4fe3-61e1-4d67-9253-1a6d24bf0615","ios":"levelo://app?vid=861b4fe3-61e1-4d67-9253-1a6d24bf0615"},"vehicle_type_id":"4","last_reported":1737247787,"current_range_meters":16800,"station_id":"ce4bh0h2rcd13ifvqd50","pricing_plan_id":"cebpf4jnsgd1na2vs0mg"},{"bike_id":"5e49b4a3-75bf-4de6-a0e8-fdd2fc7a9cde","system_id":"levelo_inurba_marseille","lat":43.270579,"lon":5.402621,"is_reserved":false,"is_disabled":false,"rental_uris":{"android":"levelo://app?vid=5e49b4a3-75bf-4de6-a0e8-fdd2fc7a9cde","ios":"levelo://app?vid=5e49b4a3-75bf-4de6-a0e8-fdd2fc7a9cde"},"vehicle_type_id":"4","last_reported":1737247787,"current_range_meters":22000,"station_id":"ce4bhk92rcd13ifvqgc0","pricing_plan_id":"cebpf4jnsgd1na2vs0mg"},{"bike_id":"4ebcf35d-ba6a-4a63-a095-1b70c86871a7","system_id":"levelo_inurba_marseille","lat":43.3093,"lon":5.40167,"is_reserved":false,"is_disabled":false,"rental_uris":{"android":"levelo://app?vid=4ebcf35d-ba6a-4a63-a095-1b70c86871a7","ios":"levelo://app?vid=4ebcf35d-ba6a-4a63-a095-1b70c86871a7"},"vehicle_type_id":"4","last_reported":1737247787,"current_range_meters":36800,"station_id":"ce4bgvp2rcd13ifvqct0","pricing_plan_id":"cebpf4jnsgd1na2vs0mg"},{"bike_id":"2692b92d-e5b0-449b-a5de-cf317f2aca14","system_id":"levelo_inurba_marseille","lat":43.29846,"lon":5.39775,"is_reserved":false,"is_disabled":false,"rental_uris":{"android":"levelo://app?vid=2692b92d-e5b0-449b-a5de-cf317f2aca14","ios":"levelo://app?vid=2692b92d-e5b0-449b-a5de-cf317f2aca14"},"vehicle_type_id":"4","last_reported":1737247787,"current_range_meters":38000,"station_id":"ce4bh0h2rcd13ifvqd50","pricing_plan_id":"cebpf4jnsgd1na2vs0mg"},{"bike_id":"4bd96a6e-5b62-4b7e-a075-ead23fa5c459","system_id":"levelo_inurba_marseille","lat":43.29915,"lon":5.37462,"is_reserved":false,"is_disabled":false,"rental_uris":{"android":"levelo://app?vid=4bd96a6e-5b62-4b7e-a075-ead23fa5c459","ios":"levelo://app?vid=4bd96a6e-5b62-4b7e-a075-ead23fa5c459"},"vehicle_type_id":"4","last_reported":1737247787,"current_range_meters":38800,"station_id":"ce4bgjh2rcd13ifvqbg0","pricing_plan_id":"cebpf4jnsgd1na2vs0mg"},{"bike_id":"74bd9320-6568-47aa-bc9d-f58f23afb672","system_id":"levelo_inurba_marseille","lat":43.2814,"lon":5.42636,"is_reserved":false,"is_disabled":false,"rental_uris":{"android":"levelo://app?vid=74bd9320-6568-47aa-bc9d-f58f23afb672","ios":"levelo://app?vid=74bd9320-6568-47aa-bc9d-f58f23afb672"},"vehicle_type_id":"4","last_reported":1737247787,"current_range_meters":28000,"station_id":"ce4bhnh2rcd13ifvqgug","pricing_plan_id":"cebpf4jnsgd1na2vs0mg"},{"bike_id":"b58dcef5-cab9-4732-933d-c18fb8a74b04","system_id":"levelo_inurba_marseille","lat":43.23166,"lon":5.43716,"is_reserved":false,"is_disabled":false,"rental_uris":{"android":"levelo://app?vid=b58dcef5-cab9-4732-933d-c18fb8a74b04","ios":"levelo://app?vid=b58dcef5-cab9-4732-933d-c18fb8a74b04"},"vehicle_type_id":"4","last_reported":1737247787,"current_range_meters":38800,"station_id":"ce4bhmp2rcd13ifvqgog","pricing_plan_id":"cebpf4jnsgd1na2vs0mg"},{"bike_id":"43be8db4-9685-40b5-9e9c-1a17c5402932","system_id":"levelo_inurba_marseille","lat":43.32364,"lon":5.38895,"is_reserved":false,"is_disabled":false,"rental_uris":{"android":"levelo://app?vid=43be8db4-9685-40b5-9e9c-1a17c5402932","ios":"levelo://app?vid=43be8db4-9685-40b5-9e9c-1a17c5402932"},"vehicle_type_id":"4","last_reported":1737247787,"current_range_meters":17600,"station_id":"ce4bhqp2rcd13ifvqhog","pricing_plan_id":"cebpf4jnsgd1na2vs0mg"},{"bike_id":"56bc8aaf-0f94-4e50-98d4-bba0e99201f1","system_id":"levelo_inurba_marseille","lat":43.257212,"lon":5.411132,"is_reserved":false,"is_disabled":false,"rental_uris":{"android":"levelo://app?vid=56bc8aaf-0f94-4e50-98d4-bba0e99201f1","ios":"levelo://app?vid=56bc8aaf-0f94-4e50-98d4-bba0e99201f1"},"vehicle_type_id":"4","last_reported":1737247787,"current_range_meters":25200,"station_id":"ce4bhkp2rcd13ifvqgd0","pricing_plan_id":"cebpf4jnsgd1na2vs0mg"},{"bike_id":"7a4705e3-aec2-4a3e-b006-c4571623ba5f","system_id":"levelo_inurba_marseille","lat":43.29632,"lon":5.40593,"is_reserved":false,"is_disabled":false,"rental_uris":{"android":"levelo://app?vid=7a4705e3-aec2-4a3e-b006-c4571623ba5f","ios":"levelo://app?vid=7a4705e3-aec2-4a3e-b006-c4571623ba5f"},"vehicle_type_id":"4","last_reported":1737247787,"current_range_meters":28800,"station_id":"ce4bh0h2rcd13ifvqd60","pricing_plan_id":"cebpf4jnsgd1na2vs0mg"},{"bike_id":"234d1550-b7dd-465b-9578-32049a642f2b","system_id":"levelo_inurba_marseille","lat":43.29973,"lon":5.41333,"is_reserved":false,"is_disabled":false,"rental_uris":{"android":"levelo://app?vid=234d1550-b7dd-465b-9578-32049a642f2b","ios":"levelo://app?vid=234d1550-b7dd-465b-9578-32049a642f2b"},"vehicle_type_id":"4","last_reported":1737247787,"current_range_meters":37600,"station_id":"ce4bhp12rcd13ifvqh9g","pricing_plan_id":"cebpf4jnsgd1na2vs0mg"},{"bike_id":"f67c5c26-72f1-437c-9ef5-261cb0b78c87","system_id":"levelo_inurba_marseille","lat":43.309506,"lon":5.390272,"is_reserved":false,"is_disabled":false,"rental_uris":{"android":"levelo://app?vid=f67c5c26-72f1-437c-9ef5-261cb0b78c87","ios":"levelo://app?vid=f67c5c26-72f1-437c-9ef5-261cb0b78c87"},"vehicle_type_id":"4","last_reported":1737247787,"current_range_meters":32400,"station_id":"ce4bgup2rcd13ifvqco0","pricing_plan_id":"cebpf4jnsgd1na2vs0mg"},{"bike_id":"c5c1e2c1-9b51-4cb1-879c-c0156dbad799","system_id":"levelo_inurba_marseille","lat":43.31726,"lon":5.42391,"is_reserved":false,"is_disabled":false,"rental_uris":{"android":"levelo://app?vid=c5c1e2c1-9b51-4cb1-879c-c0156dbad799","ios":"levelo://app?vid=c5c1e2c1-9b51-4cb1-879c-c0156dbad799"},"vehicle_type_id":"4","last_reported":1737247787,"current_range_meters":28000,"station_id":"ce4bhp92rcd13ifvqhbg","pricing_plan_id":"cebpf4jnsgd1na2vs0mg"},{"bike_id":"9dc5a308-5e27-4650-a2be-c27557a74998","system_id":"levelo_inurba_marseille","lat":43.28838,"lon":5.39314,"is_reserved":false,"is_disabled":false,"rental_uris":{"android":"levelo://app?vid=9dc5a308-5e27-4650-a2be-c27557a74998","ios":"levelo://app?vid=9dc5a308-5e27-4650-a2be-c27557a74998"},"vehicle_type_id":"4","last_reported":1737247787,"current_range_meters":18800,"station_id":"ce4bh2p2rcd13ifvqdi0","pricing_plan_id":"cebpf4jnsgd1na2vs0mg"},{"bike_id":"7cff5365-e703-478e-994f-b62528305bc1","system_id":"levelo_inurba_marseille","lat":43.277903,"lon":5.38774,"is_reserved":false,"is_disabled":true,"rental_uris":{"android":"levelo://app?vid=7cff5365-e703-478e-994f-b62528305bc1","ios":"levelo://app?vid=7cff5365-e703-478e-994f-b62528305bc1"},"vehicle_type_id":"4","last_reported":1737247787,"current_range_meters":0,"station_id":"ce4bhi12rcd13ifvqfo0","pricing_plan_id":"cebpf4jnsgd1na2vs0mg"},{"bike_id":"529dc2a7-7a3f-459d-9839-46273633cc3a","system_id":"levelo_inurba_marseille","lat":43.274935,"lon":5.424525,"is_reserved":false,"is_disabled":false,"rental_uris":{"android":"levelo://app?vid=529dc2a7-7a3f-459d-9839-46273633cc3a","ios":"levelo://app?vid=529dc2a7-7a3f-459d-9839-46273633cc3a"},"vehicle_type_id":"4","last_reported":1737247787,"current_range_meters":26000,"station_id":"ce4bhn92rcd13ifvqgrg","pricing_plan_id":"cebpf4jnsgd1na2vs0mg"},{"bike_id":"67db0aab-ab48-4c66-bcfc-c1e94a70b0cd","system_id":"levelo_inurba_marseille","lat":43.28859,"lon":5.35853,"is_reserved":false,"is_disabled":false,"rental_uris":{"android":"levelo://app?vid=67db0aab-ab48-4c66-bcfc-c1e94a70b0cd","ios":"levelo://app?vid=67db0aab-ab48-4c66-bcfc-c1e94a70b0cd"},"vehicle_type_id":"4","last_reported":1737247787,"current_range_meters":38800,"station_id":"ce4bhb12rcd13ifvqem0","pricing_plan_id":"cebpf4jnsgd1na2vs0mg"},{"bike_id":"56b8e9bc-f750-4815-bc98-9098414d16db","system_id":"levelo_inurba_marseille","lat":43.23199,"lon":5.35546,"is_reserved":false,"is_disabled":true,"rental_uris":{"android":"levelo://app?vid=56b8e9bc-f750-4815-bc98-9098414d16db","ios":"levelo://app?vid=56b8e9bc-f750-4815-bc98-9098414d16db"},"vehicle_type_id":"4","last_reported":1737247787,"current_range_meters":0,"station_id":"ce4bhu92rcd13ifvqi70","pricing_plan_id":"cebpf4jnsgd1na2vs0mg"},{"bike_id":"0e91b70c-1e42-4d65-a90a-72cbd40954b0","system_id":"levelo_inurba_marseille","lat":43.32364,"lon":5.36767,"is_reserved":false,"is_disabled":false,"rental_uris":{"android":"levelo://app?vid=0e91b70c-1e42-4d65-a90a-72cbd40954b0","ios":"levelo://app?vid=0e91b70c-1e42-4d65-a90a-72cbd40954b0"},"vehicle_type_id":"4","last_reported":1737247787,"current_range_meters":9200,"station_id":"ce4bhsh2rcd13ifvqi2g","pricing_plan_id":"cebpf4jnsgd1na2vs0mg"},{"bike_id":"08472c36-eeaf-497f-8a95-cb4b0f4ceb01","system_id":"levelo_inurba_marseille","lat":43.27669,"lon":5.389083,"is_reserved":false,"is_disabled":false,"rental_uris":{"android":"levelo://app?vid=08472c36-eeaf-497f-8a95-cb4b0f4ceb01","ios":"levelo://app?vid=08472c36-eeaf-497f-8a95-cb4b0f4ceb01"},"vehicle_type_id":"4","last_reported":1737247787,"current_range_meters":36400,"station_id":"ce4bhi12rcd13ifvqfo0","pricing_plan_id":"cebpf4jnsgd1na2vs0mg"},{"bike_id":"fcff8b6e-6484-4e4c-8d98-9ab325ed2e27","system_id":"levelo_inurba_marseille","lat":43.32432,"lon":5.3655,"is_reserved":false,"is_disabled":false,"rental_uris":{"android":"levelo://app?vid=fcff8b6e-6484-4e4c-8d98-9ab325ed2e27","ios":"levelo://app?vid=fcff8b6e-6484-4e4c-8d98-9ab325ed2e27"},"vehicle_type_id":"4","last_reported":1737247787,"current_range_meters":38800,"station_id":"","pricing_plan_id":"cebpf4jnsgd1na2vs0mg"},{"bike_id":"3bac74cc-e2ec-445b-8645-f6bb09c3f4c8","system_id":"levelo_inurba_marseille","lat":43.29704,"lon":5.36609,"is_reserved":false,"is_disabled":false,"rental_uris":{"android":"levelo://app?vid=3bac74cc-e2ec-445b-8645-f6bb09c3f4c8","ios":"levelo://app?vid=3bac74cc-e2ec-445b-8645-f6bb09c3f4c8"},"vehicle_type_id":"4","last_reported":1737247787,"current_range_meters":24800,"station_id":"ce4bgn12rcd13ifvqbt0","pricing_plan_id":"cebpf4jnsgd1na2vs0mg"},{"bike_id":"2d51ed35-cd4a-4798-ae66-82a7306e8efd","system_id":"levelo_inurba_marseille","lat":43.29083,"lon":5.371664,"is_reserved":false,"is_disabled":false,"rental_uris":{"android":"levelo://app?vid=2d51ed35-cd4a-4798-ae66-82a7306e8efd","ios":"levelo://app?vid=2d51ed35-cd4a-4798-ae66-82a7306e8efd"},"vehicle_type_id":"4","last_reported":1737247787,"current_range_meters":10000,"station_id":"ce4bhq12rcd13ifvqhig","pricing_plan_id":"cebpf4jnsgd1na2vs0mg"},{"bike_id":"3fc83956-a2cd-441f-93bc-4508418b1783","system_id":"levelo_inurba_marseille","lat":43.2993,"lon":5.37468,"is_reserved":false,"is_disabled":false,"rental_uris":{"android":"levelo://app?vid=3fc83956-a2cd-441f-93bc-4508418b1783","ios":"levelo://app?vid=3fc83956-a2cd-441f-93bc-4508418b1783"},"vehicle_type_id":"4","last_reported":1737247787,"current_range_meters":9600,"station_id":"ce4bgjh2rcd13ifvqbg0","pricing_plan_id":"cebpf4jnsgd1na2vs0mg"},{"bike_id":"8f6b590a-fcef-4cef-ad62-ce286ade8a64","system_id":"levelo_inurba_marseille","lat":43.29563,"lon":5.39986,"is_reserved":false,"is_disabled":false,"rental_uris":{"android":"levelo://app?vid=8f6b590a-fcef-4cef-ad62-ce286ade8a64","ios":"levelo://app?vid=8f6b590a-fcef-4cef-ad62-ce286ade8a64"},"vehicle_type_id":"4","last_reported":1737247787,"current_range_meters":36800,"station_id":"ce4bh312rcd13ifvqdj0","pricing_plan_id":"cebpf4jnsgd1na2vs0mg"},{"bike_id":"0966a8a8-2d5b-449d-8d62-52bfeeb2bcde","system_id":"levelo_inurba_marseille","lat":43.29719,"lon":5.37687,"is_reserved":false,"is_disabled":true,"rental_uris":{"android":"levelo://app?vid=0966a8a8-2d5b-449d-8d62-52bfeeb2bcde","ios":"levelo://app?vid=0966a8a8-2d5b-449d-8d62-52bfeeb2bcde"},"vehicle_type_id":"4","last_reported":1737247787,"current_range_meters":38800,"station_id":"ce4bgkh2rcd13ifvqbl0","pricing_plan_id":"cebpf4jnsgd1na2vs0mg"},{"bike_id":"22465212-93af-4e0b-b803-6ee82bba56d5","system_id":"levelo_inurba_marseille","lat":43.33759,"lon":5.3748,"is_reserved":false,"is_disabled":false,"rental_uris":{"android":"levelo://app?vid=22465212-93af-4e0b-b803-6ee82bba56d5","ios":"levelo://app?vid=22465212-93af-4e0b-b803-6ee82bba56d5"},"vehicle_type_id":"4","last_reported":1737247787,"current_range_meters":30800,"station_id":"","pricing_plan_id":"cebpf4jnsgd1na2vs0mg"},{"bike_id":"2bba4a8f-966f-4b79-ad41-59d17bf0a02e","system_id":"levelo_inurba_marseille","lat":43.28732,"lon":5.36098,"is_reserved":false,"is_disabled":false,"rental_uris":{"android":"levelo://app?vid=2bba4a8f-966f-4b79-ad41-59d17bf0a02e","ios":"levelo://app?vid=2bba4a8f-966f-4b79-ad41-59d17bf0a02e"},"vehicle_type_id":"4","last_reported":1737247787,"current_range_meters":34000,"station_id":"cki0cbj6b192h4jlfktg","pricing_plan_id":"cebpf4jnsgd1na2vs0mg"},{"bike_id":"edf4265d-917c-48a6-8c63-466662e67c03","system_id":"levelo_inurba_marseille","lat":43.28942,"lon":5.36624,"is_reserved":false,"is_disabled":false,"rental_uris":{"android":"levelo://app?vid=edf4265d-917c-48a6-8c63-466662e67c03","ios":"levelo://app?vid=edf4265d-917c-48a6-8c63-466662e67c03"},"vehicle_type_id":"4","last_reported":1737247787,"current_range_meters":20000,"station_id":"ce4bhap2rcd13ifvqek0","pricing_plan_id":"cebpf4jnsgd1na2vs0mg"},{"bike_id":"8f4216b0-2d21-4307-9530-404356476240","system_id":"levelo_inurba_marseille","lat":43.30124,"lon":5.39865,"is_reserved":false,"is_disabled":false,"rental_uris":{"android":"levelo://app?vid=8f4216b0-2d21-4307-9530-404356476240","ios":"levelo://app?vid=8f4216b0-2d21-4307-9530-404356476240"},"vehicle_type_id":"4","last_reported":1737247787,"current_range_meters":6800,"station_id":"ce4bh0h2rcd13ifvqd40","pricing_plan_id":"cebpf4jnsgd1na2vs0mg"},{"bike_id":"19fb1931-f075-402c-a076-088e72accb76","system_id":"levelo_inurba_marseille","lat":43.248129,"lon":5.37458,"is_reserved":false,"is_disabled":false,"rental_uris":{"android":"levelo://app?vid=19fb1931-f075-402c-a076-088e72accb76","ios":"levelo://app?vid=19fb1931-f075-402c-a076-088e72accb76"},"vehicle_type_id":"4","last_reported":1737247787,"current_range_meters":12800,"station_id":"ce4bhgh2rcd13ifvqfb0","pricing_plan_id":"cebpf4jnsgd1na2vs0mg"},{"bike_id":"081f780a-421e-4d29-9981-68dbb84da5f6","system_id":"levelo_inurba_marseille","lat":43.317545,"lon":5.390083,"is_reserved":false,"is_disabled":false,"rental_uris":{"android":"levelo://app?vid=081f780a-421e-4d29-9981-68dbb84da5f6","ios":"levelo://app?vid=081f780a-421e-4d29-9981-68dbb84da5f6"},"vehicle_type_id":"4","last_reported":1737247787,"current_range_meters":38800,"station_id":"ce4bhqp2rcd13ifvqhng","pricing_plan_id":"cebpf4jnsgd1na2vs0mg"},{"bike_id":"86b1129b-34c7-4cb1-acb7-46aa8942c62c","system_id":"levelo_inurba_marseille","lat":43.23146,"lon":5.43717,"is_reserved":false,"is_disabled":false,"rental_uris":{"android":"levelo://app?vid=86b1129b-34c7-4cb1-acb7-46aa8942c62c","ios":"levelo://app?vid=86b1129b-34c7-4cb1-acb7-46aa8942c62c"},"vehicle_type_id":"4","last_reported":1737247787,"current_range_meters":38000,"station_id":"ce4bhmp2rcd13ifvqgog","pricing_plan_id":"cebpf4jnsgd1na2vs0mg"},{"bike_id":"b38d0e9b-522e-467c-9422-93d141c42f17","system_id":"levelo_inurba_marseille","lat":43.29553,"lon":5.42293,"is_reserved":false,"is_disabled":false,"rental_uris":{"android":"levelo://app?vid=b38d0e9b-522e-467c-9422-93d141c42f17","ios":"levelo://app?vid=b38d0e9b-522e-467c-9422-93d141c42f17"},"vehicle_type_id":"4","last_reported":1737247787,"current_range_meters":32800,"station_id":"ce4bhph2rcd13ifvqhdg","pricing_plan_id":"cebpf4jnsgd1na2vs0mg"},{"bike_id":"ab4da653-1994-420f-a89b-f6852d9c3743","system_id":"levelo_inurba_marseille","lat":43.3091,"lon":5.36851,"is_reserved":false,"is_disabled":false,"rental_uris":{"android":"levelo://app?vid=ab4da653-1994-420f-a89b-f6852d9c3743","ios":"levelo://app?vid=ab4da653-1994-420f-a89b-f6852d9c3743"},"vehicle_type_id":"4","last_reported":1737247787,"current_range_meters":28800,"station_id":"ce4bgn92rcd13ifvqbvg","pricing_plan_id":"cebpf4jnsgd1na2vs0mg"},{"bike_id":"fad73bdb-6dc6-4c07-95d2-7cbcf7b07690","system_id":"levelo_inurba_marseille","lat":43.30886,"lon":5.39636,"is_reserved":false,"is_disabled":false,"rental_uris":{"android":"levelo://app?vid=fad73bdb-6dc6-4c07-95d2-7cbcf7b07690","ios":"levelo://app?vid=fad73bdb-6dc6-4c07-95d2-7cbcf7b07690"},"vehicle_type_id":"4","last_reported":1737247787,"current_range_meters":28000,"station_id":"ce4bh012rcd13ifvqcv0","pricing_plan_id":"cebpf4jnsgd1na2vs0mg"},{"bike_id":"359264b6-cc9c-4d77-996c-c5218ed5c647","system_id":"levelo_inurba_marseille","lat":43.31881,"lon":5.40738,"is_reserved":false,"is_disabled":false,"rental_uris":{"android":"levelo://app?vid=359264b6-cc9c-4d77-996c-c5218ed5c647","ios":"levelo://app?vid=359264b6-cc9c-4d77-996c-c5218ed5c647"},"vehicle_type_id":"4","last_reported":1737247787,"current_range_meters":10800,"station_id":"ce4bhq12rcd13ifvqhig","pricing_plan_id":"cebpf4jnsgd1na2vs0mg"},{"bike_id":"0c055712-5285-4e4a-9cf7-fbba6902c549","system_id":"levelo_inurba_marseille","lat":43.30359,"lon":5.41875,"is_reserved":false,"is_disabled":false,"rental_uris":{"android":"levelo://app?vid=0c055712-5285-4e4a-9cf7-fbba6902c549","ios":"levelo://app?vid=0c055712-5285-4e4a-9cf7-fbba6902c549"},"vehicle_type_id":"4","last_reported":1737247787,"current_range_meters":25600,"station_id":"ce4bhop2rcd13ifvqh7g","pricing_plan_id":"cebpf4jnsgd1na2vs0mg"},{"bike_id":"c6f874ed-7baa-4ffa-b8dc-93b47368c64c","system_id":"levelo_inurba_marseille","lat":43.27377,"lon":5.36255,"is_reserved":false,"is_disabled":false,"rental_uris":{"android":"levelo://app?vid=c6f874ed-7baa-4ffa-b8dc-93b47368c64c","ios":"levelo://app?vid=c6f874ed-7baa-4ffa-b8dc-93b47368c64c"},"vehicle_type_id":"4","last_reported":1737247787,"current_range_meters":33600,"station_id":"ce4bhbh2rcd13ifvqeo0","pricing_plan_id":"cebpf4jnsgd1na2vs0mg"},{"bike_id":"82eafdac-bd81-479d-a7b0-05db8ca76c26","system_id":"levelo_inurba_marseille","lat":43.25834,"lon":5.39424,"is_reserved":false,"is_disabled":true,"rental_uris":{"android":"levelo://app?vid=82eafdac-bd81-479d-a7b0-05db8ca76c26","ios":"levelo://app?vid=82eafdac-bd81-479d-a7b0-05db8ca76c26"},"vehicle_type_id":"4","last_reported":1737247787,"current_range_meters":0,"station_id":"ce4bhip2rcd13ifvqft0","pricing_plan_id":"cebpf4jnsgd1na2vs0mg"},{"bike_id":"88b2d2e1-f031-4080-9cac-720a82058612","system_id":"levelo_inurba_marseille","lat":43.31267,"lon":5.40169,"is_reserved":false,"is_disabled":false,"rental_uris":{"android":"levelo://app?vid=88b2d2e1-f031-4080-9cac-720a82058612","ios":"levelo://app?vid=88b2d2e1-f031-4080-9cac-720a82058612"},"vehicle_type_id":"4","last_reported":1737247787,"current_range_meters":39200,"station_id":"ce4bh092rcd13ifvqd30","pricing_plan_id":"cebpf4jnsgd1na2vs0mg"},{"bike_id":"6db7ac2a-936b-4934-bdad-0738a951388e","system_id":"levelo_inurba_marseille","lat":43.26567,"lon":5.39018,"is_reserved":false,"is_disabled":false,"rental_uris":{"android":"levelo://app?vid=6db7ac2a-936b-4934-bdad-0738a951388e","ios":"levelo://app?vid=6db7ac2a-936b-4934-bdad-0738a951388e"},"vehicle_type_id":"4","last_reported":1737247787,"current_range_meters":4800,"station_id":"ce4bhe12rcd13ifvqf30","pricing_plan_id":"cebpf4jnsgd1na2vs0mg"},{"bike_id":"93887ba0-f4e1-4ca6-bcbb-ee5a285a43f8","system_id":"levelo_inurba_marseille","lat":43.31329,"lon":5.39684,"is_reserved":false,"is_disabled":false,"rental_uris":{"android":"levelo://app?vid=93887ba0-f4e1-4ca6-bcbb-ee5a285a43f8","ios":"levelo://app?vid=93887ba0-f4e1-4ca6-bcbb-ee5a285a43f8"},"vehicle_type_id":"4","last_reported":1737247787,"current_range_meters":4800,"station_id":"ce4bgvp2rcd13ifvqcu0","pricing_plan_id":"cebpf4jnsgd1na2vs0mg"},{"bike_id":"3cb8672c-9a07-4673-8693-dc9722ac9607","system_id":"levelo_inurba_marseille","lat":43.29556,"lon":5.42292,"is_reserved":false,"is_disabled":false,"rental_uris":{"android":"levelo://app?vid=3cb8672c-9a07-4673-8693-dc9722ac9607","ios":"levelo://app?vid=3cb8672c-9a07-4673-8693-dc9722ac9607"},"vehicle_type_id":"4","last_reported":1737247787,"current_range_meters":28400,"station_id":"ce4bhph2rcd13ifvqhdg","pricing_plan_id":"cebpf4jnsgd1na2vs0mg"},{"bike_id":"a88059c0-9442-4874-8b94-2e735de7f9ca","system_id":"levelo_inurba_marseille","lat":43.28694,"lon":5.37393,"is_reserved":false,"is_disabled":false,"rental_uris":{"android":"levelo://app?vid=a88059c0-9442-4874-8b94-2e735de7f9ca","ios":"levelo://app?vid=a88059c0-9442-4874-8b94-2e735de7f9ca"},"vehicle_type_id":"4","last_reported":1737247787,"current_range_meters":23200,"station_id":"ce4bh3p2rcd13ifvqdq0","pricing_plan_id":"cebpf4jnsgd1na2vs0mg"},{"bike_id":"2103abe2-9fd0-488f-8733-0bd839f69edc","system_id":"levelo_inurba_marseille","lat":43.30144,"lon":5.38067,"is_reserved":false,"is_disabled":false,"rental_uris":{"android":"levelo://app?vid=2103abe2-9fd0-488f-8733-0bd839f69edc","ios":"levelo://app?vid=2103abe2-9fd0-488f-8733-0bd839f69edc"},"vehicle_type_id":"4","last_reported":1737247787,"current_range_meters":38800,"station_id":"ce4bgjp2rcd13ifvqbh0","pricing_plan_id":"cebpf4jnsgd1na2vs0mg"},{"bike_id":"2836157e-1694-4c00-8055-bccadf95fde4","system_id":"levelo_inurba_marseille","lat":43.2319,"lon":5.39983,"is_reserved":false,"is_disabled":false,"rental_uris":{"android":"levelo://app?vid=2836157e-1694-4c00-8055-bccadf95fde4","ios":"levelo://app?vid=2836157e-1694-4c00-8055-bccadf95fde4"},"vehicle_type_id":"4","last_reported":1737247787,"current_range_meters":25200,"station_id":"ce4bhn12rcd13ifvqgqg","pricing_plan_id":"cebpf4jnsgd1na2vs0mg"},{"bike_id":"631eb536-ed03-494f-8d08-56dcb54c5546","system_id":"levelo_inurba_marseille","lat":43.30594,"lon":5.37224,"is_reserved":false,"is_disabled":false,"rental_uris":{"android":"levelo://app?vid=631eb536-ed03-494f-8d08-56dcb54c5546","ios":"levelo://app?vid=631eb536-ed03-494f-8d08-56dcb54c5546"},"vehicle_type_id":"4","last_reported":1737247787,"current_range_meters":38000,"station_id":"ce4bgqh2rcd13ifvqc4g","pricing_plan_id":"cebpf4jnsgd1na2vs0mg"},{"bike_id":"f2390374-e060-4fe1-bcfa-cb2711193e58","system_id":"levelo_inurba_marseille","lat":43.25098,"lon":5.39511,"is_reserved":false,"is_disabled":false,"rental_uris":{"android":"levelo://app?vid=f2390374-e060-4fe1-bcfa-cb2711193e58","ios":"levelo://app?vid=f2390374-e060-4fe1-bcfa-cb2711193e58"},"vehicle_type_id":"4","last_reported":1737247787,"current_range_meters":38800,"station_id":"ce4bhm12rcd13ifvqgkg","pricing_plan_id":"cebpf4jnsgd1na2vs0mg"},{"bike_id":"3835d471-b35b-4587-9c94-0e16fea0f8b1","system_id":"levelo_inurba_marseille","lat":43.29887,"lon":5.38895,"is_reserved":false,"is_disabled":false,"rental_uris":{"android":"levelo://app?vid=3835d471-b35b-4587-9c94-0e16fea0f8b1","ios":"levelo://app?vid=3835d471-b35b-4587-9c94-0e16fea0f8b1"},"vehicle_type_id":"4","last_reported":1737247787,"current_range_meters":38800,"station_id":"ce4bh392rcd13ifvqdl0","pricing_plan_id":"cebpf4jnsgd1na2vs0mg"},{"bike_id":"d922a541-8d59-49fe-8950-daca6d5f04c0","system_id":"levelo_inurba_marseille","lat":43.29259,"lon":5.40925,"is_reserved":false,"is_disabled":false,"rental_uris":{"android":"levelo://app?vid=d922a541-8d59-49fe-8950-daca6d5f04c0","ios":"levelo://app?vid=d922a541-8d59-49fe-8950-daca6d5f04c0"},"vehicle_type_id":"4","last_reported":1737247787,"current_range_meters":39200,"station_id":"ce4bh192rcd13ifvqdc0","pricing_plan_id":"cebpf4jnsgd1na2vs0mg"},{"bike_id":"591b3bd2-5685-4ec2-843e-e45d69c9aabd","system_id":"levelo_inurba_marseille","lat":43.26061,"lon":5.39404,"is_reserved":false,"is_disabled":false,"rental_uris":{"android":"levelo://app?vid=591b3bd2-5685-4ec2-843e-e45d69c9aabd","ios":"levelo://app?vid=591b3bd2-5685-4ec2-843e-e45d69c9aabd"},"vehicle_type_id":"4","last_reported":1737247787,"current_range_meters":34000,"station_id":"ce4bhh92rcd13ifvqfj0","pricing_plan_id":"cebpf4jnsgd1na2vs0mg"},{"bike_id":"d6161db6-0288-4eaf-b39b-605e25ca46ff","system_id":"levelo_inurba_marseille","lat":43.27405,"lon":5.39386,"is_reserved":false,"is_disabled":false,"rental_uris":{"android":"levelo://app?vid=d6161db6-0288-4eaf-b39b-605e25ca46ff","ios":"levelo://app?vid=d6161db6-0288-4eaf-b39b-605e25ca46ff"},"vehicle_type_id":"4","last_reported":1737247787,"current_range_meters":38800,"station_id":"ce4bhdp2rcd13ifvqf20","pricing_plan_id":"cebpf4jnsgd1na2vs0mg"},{"bike_id":"535838d9-5884-4db7-a3a6-b956e4d0f129","system_id":"levelo_inurba_marseille","lat":43.30523,"lon":5.38428,"is_reserved":false,"is_disabled":false,"rental_uris":{"android":"levelo://app?vid=535838d9-5884-4db7-a3a6-b956e4d0f129","ios":"levelo://app?vid=535838d9-5884-4db7-a3a6-b956e4d0f129"},"vehicle_type_id":"4","last_reported":1737247787,"current_range_meters":18800,"station_id":"ce4bgg92rcd13ifvqb30","pricing_plan_id":"cebpf4jnsgd1na2vs0mg"},{"bike_id":"a3dd20f0-27d2-43cd-8b06-2b1035532be4","system_id":"levelo_inurba_marseille","lat":43.28078,"lon":5.3964,"is_reserved":false,"is_disabled":false,"rental_uris":{"android":"levelo://app?vid=a3dd20f0-27d2-43cd-8b06-2b1035532be4","ios":"levelo://app?vid=a3dd20f0-27d2-43cd-8b06-2b1035532be4"},"vehicle_type_id":"4","last_reported":1737247787,"current_range_meters":37600,"station_id":"ce4bho12rcd13ifvqh2g","pricing_plan_id":"cebpf4jnsgd1na2vs0mg"},{"bike_id":"cc8bd1cd-7577-4845-9507-33fc3924f547","system_id":"levelo_inurba_marseille","lat":43.29035,"lon":5.35925,"is_reserved":false,"is_disabled":false,"rental_uris":{"android":"levelo://app?vid=cc8bd1cd-7577-4845-9507-33fc3924f547","ios":"levelo://app?vid=cc8bd1cd-7577-4845-9507-33fc3924f547"},"vehicle_type_id":"4","last_reported":1737247787,"current_range_meters":36400,"station_id":"ce4bha92rcd13ifvqeg0","pricing_plan_id":"cebpf4jnsgd1na2vs0mg"},{"bike_id":"65bc6e4b-80b6-41da-bb7d-25f938e2741d","system_id":"levelo_inurba_marseille","lat":43.28703,"lon":5.3999,"is_reserved":false,"is_disabled":false,"rental_uris":{"android":"levelo://app?vid=65bc6e4b-80b6-41da-bb7d-25f938e2741d","ios":"levelo://app?vid=65bc6e4b-80b6-41da-bb7d-25f938e2741d"},"vehicle_type_id":"4","last_reported":1737247787,"current_range_meters":34000,"station_id":"ce4bho92rcd13ifvqh3g","pricing_plan_id":"cebpf4jnsgd1na2vs0mg"},{"bike_id":"d468c43b-79f9-4a69-9334-f2e452c76c01","system_id":"levelo_inurba_marseille","lat":43.3123,"lon":5.36805,"is_reserved":false,"is_disabled":false,"rental_uris":{"android":"levelo://app?vid=d468c43b-79f9-4a69-9334-f2e452c76c01","ios":"levelo://app?vid=d468c43b-79f9-4a69-9334-f2e452c76c01"},"vehicle_type_id":"4","last_reported":1737247787,"current_range_meters":36400,"station_id":"ce4bgl92rcd13ifvqbq0","pricing_plan_id":"cebpf4jnsgd1na2vs0mg"},{"bike_id":"18318a6c-c2c6-471d-9549-5460b68d0dee","system_id":"levelo_inurba_marseille","lat":43.2937,"lon":5.37856,"is_reserved":false,"is_disabled":false,"rental_uris":{"android":"levelo://app?vid=18318a6c-c2c6-471d-9549-5460b68d0dee","ios":"levelo://app?vid=18318a6c-c2c6-471d-9549-5460b68d0dee"},"vehicle_type_id":"4","last_reported":1737247787,"current_range_meters":38400,"station_id":"ce4bgjh2rcd13ifvqbf0","pricing_plan_id":"cebpf4jnsgd1na2vs0mg"},{"bike_id":"9b91c985-f10f-40ee-8060-fa4093e55ca2","system_id":"levelo_inurba_marseille","lat":43.2582,"lon":5.39435,"is_reserved":false,"is_disabled":false,"rental_uris":{"android":"levelo://app?vid=9b91c985-f10f-40ee-8060-fa4093e55ca2","ios":"levelo://app?vid=9b91c985-f10f-40ee-8060-fa4093e55ca2"},"vehicle_type_id":"4","last_reported":1737247787,"current_range_meters":20800,"station_id":"ce4bhip2rcd13ifvqft0","pricing_plan_id":"cebpf4jnsgd1na2vs0mg"},{"bike_id":"a95248e8-7ba2-479e-9b5c-9fb4d8e98c2b","system_id":"levelo_inurba_marseille","lat":43.28097,"lon":5.42185,"is_reserved":false,"is_disabled":true,"rental_uris":{"android":"levelo://app?vid=a95248e8-7ba2-479e-9b5c-9fb4d8e98c2b","ios":"levelo://app?vid=a95248e8-7ba2-479e-9b5c-9fb4d8e98c2b"},"vehicle_type_id":"4","last_reported":1737247787,"current_range_meters":0,"station_id":"","pricing_plan_id":"cebpf4jnsgd1na2vs0mg"},{"bike_id":"246f2aa1-d855-40ee-b8e2-0e541013d632","system_id":"levelo_inurba_marseille","lat":43.27819,"lon":5.40703,"is_reserved":false,"is_disabled":true,"rental_uris":{"android":"levelo://app?vid=246f2aa1-d855-40ee-b8e2-0e541013d632","ios":"levelo://app?vid=246f2aa1-d855-40ee-b8e2-0e541013d632"},"vehicle_type_id":"4","last_reported":1737247787,"current_range_meters":0,"station_id":"ce4bhnh2rcd13ifvqgtg","pricing_plan_id":"cebpf4jnsgd1na2vs0mg"},{"bike_id":"87cefc3a-e36a-4030-9c3f-9fc87455f3e3","system_id":"levelo_inurba_marseille","lat":43.27372,"lon":5.36248,"is_reserved":false,"is_disabled":false,"rental_uris":{"android":"levelo://app?vid=87cefc3a-e36a-4030-9c3f-9fc87455f3e3","ios":"levelo://app?vid=87cefc3a-e36a-4030-9c3f-9fc87455f3e3"},"vehicle_type_id":"4","last_reported":1737247787,"current_range_meters":38800,"station_id":"ce4bhbh2rcd13ifvqeo0","pricing_plan_id":"cebpf4jnsgd1na2vs0mg"},{"bike_id":"1cd83d06-5980-4320-b952-5d72bcbe2a3f","system_id":"levelo_inurba_marseille","lat":43.31712,"lon":5.37798,"is_reserved":false,"is_disabled":false,"rental_uris":{"android":"levelo://app?vid=1cd83d06-5980-4320-b952-5d72bcbe2a3f","ios":"levelo://app?vid=1cd83d06-5980-4320-b952-5d72bcbe2a3f"},"vehicle_type_id":"4","last_reported":1737247787,"current_range_meters":38800,"station_id":"ce4bgth2rcd13ifvqch0","pricing_plan_id":"cebpf4jnsgd1na2vs0mg"},{"bike_id":"c5fd4115-ef9b-417b-9a07-50ba619cdb53","system_id":"levelo_inurba_marseille","lat":43.30213,"lon":5.39472,"is_reserved":false,"is_disabled":false,"rental_uris":{"android":"levelo://app?vid=c5fd4115-ef9b-417b-9a07-50ba619cdb53","ios":"levelo://app?vid=c5fd4115-ef9b-417b-9a07-50ba619cdb53"},"vehicle_type_id":"4","last_reported":1737247787,"current_range_meters":35200,"station_id":"ce4bh0p2rcd13ifvqd70","pricing_plan_id":"cebpf4jnsgd1na2vs0mg"},{"bike_id":"a8404ae2-4b03-4e79-b2fb-443e381045c4","system_id":"levelo_inurba_marseille","lat":43.27556,"lon":5.38431,"is_reserved":false,"is_disabled":false,"rental_uris":{"android":"levelo://app?vid=a8404ae2-4b03-4e79-b2fb-443e381045c4","ios":"levelo://app?vid=a8404ae2-4b03-4e79-b2fb-443e381045c4"},"vehicle_type_id":"4","last_reported":1737247787,"current_range_meters":38400,"station_id":"ce4bhh92rcd13ifvqfi0","pricing_plan_id":"cebpf4jnsgd1na2vs0mg"},{"bike_id":"3fc1c72b-7a24-4c04-9a1b-8c47b14d5f3f","system_id":"levelo_inurba_marseille","lat":43.29036,"lon":5.3757,"is_reserved":false,"is_disabled":false,"rental_uris":{"android":"levelo://app?vid=3fc1c72b-7a24-4c04-9a1b-8c47b14d5f3f","ios":"levelo://app?vid=3fc1c72b-7a24-4c04-9a1b-8c47b14d5f3f"},"vehicle_type_id":"4","last_reported":1737247787,"current_range_meters":38000,"station_id":"ce4bh692rcd13ifvqe90","pricing_plan_id":"cebpf4jnsgd1na2vs0mg"},{"bike_id":"927159ff-ab29-4a04-84bb-c2b8f5dcea44","system_id":"levelo_inurba_marseille","lat":43.26555,"lon":5.3732,"is_reserved":false,"is_disabled":false,"rental_uris":{"android":"levelo://app?vid=927159ff-ab29-4a04-84bb-c2b8f5dcea44","ios":"levelo://app?vid=927159ff-ab29-4a04-84bb-c2b8f5dcea44"},"vehicle_type_id":"4","last_reported":1737247787,"current_range_meters":26000,"station_id":"ce4bhg12rcd13ifvqf70","pricing_plan_id":"cebpf4jnsgd1na2vs0mg"},{"bike_id":"f50e0015-3366-48ac-9fc2-35aeeb8fe24b","system_id":"levelo_inurba_marseille","lat":43.30926,"lon":5.40147,"is_reserved":false,"is_disabled":false,"rental_uris":{"android":"levelo://app?vid=f50e0015-3366-48ac-9fc2-35aeeb8fe24b","ios":"levelo://app?vid=f50e0015-3366-48ac-9fc2-35aeeb8fe24b"},"vehicle_type_id":"4","last_reported":1737247787,"current_range_meters":33200,"station_id":"ce4bgvp2rcd13ifvqct0","pricing_plan_id":"cebpf4jnsgd1na2vs0mg"},{"bike_id":"2189f33e-4cfd-4f76-9d91-913095d551c4","system_id":"levelo_inurba_marseille","lat":43.30357,"lon":5.39088,"is_reserved":false,"is_disabled":true,"rental_uris":{"android":"levelo://app?vid=2189f33e-4cfd-4f76-9d91-913095d551c4","ios":"levelo://app?vid=2189f33e-4cfd-4f76-9d91-913095d551c4"},"vehicle_type_id":"4","last_reported":1737247787,"current_range_meters":0,"station_id":"","pricing_plan_id":"cebpf4jnsgd1na2vs0mg"},{"bike_id":"d3d09a19-44d5-45b9-8a4d-51061f2a6f15","system_id":"levelo_inurba_marseille","lat":43.27997,"lon":5.40014,"is_reserved":false,"is_disabled":false,"rental_uris":{"android":"levelo://app?vid=d3d09a19-44d5-45b9-8a4d-51061f2a6f15","ios":"levelo://app?vid=d3d09a19-44d5-45b9-8a4d-51061f2a6f15"},"vehicle_type_id":"4","last_reported":1737247787,"current_range_meters":8000,"station_id":"ce4bho92rcd13ifvqh4g","pricing_plan_id":"cebpf4jnsgd1na2vs0mg"},{"bike_id":"b4c288fa-652a-4420-860e-bfe69dee72f7","system_id":"levelo_inurba_marseille","lat":43.29793,"lon":5.38087,"is_reserved":false,"is_disabled":false,"rental_uris":{"android":"levelo://app?vid=b4c288fa-652a-4420-860e-bfe69dee72f7","ios":"levelo://app?vid=b4c288fa-652a-4420-860e-bfe69dee72f7"},"vehicle_type_id":"4","last_reported":1737247787,"current_range_meters":23200,"station_id":"ce4bgip2rcd13ifvqbb0","pricing_plan_id":"cebpf4jnsgd1na2vs0mg"},{"bike_id":"cb048100-ca4b-4bf8-8646-64de4d3c140a","system_id":"levelo_inurba_marseille","lat":43.30168,"lon":5.38083,"is_reserved":false,"is_disabled":false,"rental_uris":{"android":"levelo://app?vid=cb048100-ca4b-4bf8-8646-64de4d3c140a","ios":"levelo://app?vid=cb048100-ca4b-4bf8-8646-64de4d3c140a"},"vehicle_type_id":"4","last_reported":1737247787,"current_range_meters":33600,"station_id":"ce4bgjp2rcd13ifvqbh0","pricing_plan_id":"cebpf4jnsgd1na2vs0mg"},{"bike_id":"541b7769-8083-411e-ad4d-d20a4dfa7b91","system_id":"levelo_inurba_marseille","lat":43.3128,"lon":5.40158,"is_reserved":false,"is_disabled":false,"rental_uris":{"android":"levelo://app?vid=541b7769-8083-411e-ad4d-d20a4dfa7b91","ios":"levelo://app?vid=541b7769-8083-411e-ad4d-d20a4dfa7b91"},"vehicle_type_id":"4","last_reported":1737247787,"current_range_meters":39200,"station_id":"ce4bh092rcd13ifvqd30","pricing_plan_id":"cebpf4jnsgd1na2vs0mg"},{"bike_id":"298d2613-8659-4565-ade6-d6e216e8e84d","system_id":"levelo_inurba_marseille","lat":43.25828,"lon":5.39422,"is_reserved":false,"is_disabled":false,"rental_uris":{"android":"levelo://app?vid=298d2613-8659-4565-ade6-d6e216e8e84d","ios":"levelo://app?vid=298d2613-8659-4565-ade6-d6e216e8e84d"},"vehicle_type_id":"4","last_reported":1737247787,"current_range_meters":38000,"station_id":"ce4bhip2rcd13ifvqft0","pricing_plan_id":"cebpf4jnsgd1na2vs0mg"},{"bike_id":"8db3f7b9-ae70-40f1-8adc-07bd12d325ba","system_id":"levelo_inurba_marseille","lat":43.29788,"lon":5.3811,"is_reserved":false,"is_disabled":false,"rental_uris":{"android":"levelo://app?vid=8db3f7b9-ae70-40f1-8adc-07bd12d325ba","ios":"levelo://app?vid=8db3f7b9-ae70-40f1-8adc-07bd12d325ba"},"vehicle_type_id":"4","last_reported":1737247787,"current_range_meters":34000,"station_id":"ce4bgip2rcd13ifvqbb0","pricing_plan_id":"cebpf4jnsgd1na2vs0mg"},{"bike_id":"68dd724a-5a62-45cc-88c8-4c95c6be01ac","system_id":"levelo_inurba_marseille","lat":43.27561,"lon":5.38433,"is_reserved":false,"is_disabled":false,"rental_uris":{"android":"levelo://app?vid=68dd724a-5a62-45cc-88c8-4c95c6be01ac","ios":"levelo://app?vid=68dd724a-5a62-45cc-88c8-4c95c6be01ac"},"vehicle_type_id":"4","last_reported":1737247787,"current_range_meters":28400,"station_id":"ce4bhh92rcd13ifvqfi0","pricing_plan_id":"cebpf4jnsgd1na2vs0mg"},{"bike_id":"0d5bf58b-8962-4322-87c4-754920ec04ac","system_id":"levelo_inurba_marseille","lat":43.31185,"lon":5.38694,"is_reserved":false,"is_disabled":true,"rental_uris":{"android":"levelo://app?vid=0d5bf58b-8962-4322-87c4-754920ec04ac","ios":"levelo://app?vid=0d5bf58b-8962-4322-87c4-754920ec04ac"},"vehicle_type_id":"4","last_reported":1737247787,"current_range_meters":34800,"station_id":"ce4bgv12rcd13ifvqcp0","pricing_plan_id":"cebpf4jnsgd1na2vs0mg"},{"bike_id":"c92cbb9f-5a8c-4f30-b00a-221ba31b944d","system_id":"levelo_inurba_marseille","lat":43.28422,"lon":5.34998,"is_reserved":false,"is_disabled":true,"rental_uris":{"android":"levelo://app?vid=c92cbb9f-5a8c-4f30-b00a-221ba31b944d","ios":"levelo://app?vid=c92cbb9f-5a8c-4f30-b00a-221ba31b944d"},"vehicle_type_id":"4","last_reported":1737247787,"current_range_meters":33600,"station_id":"ce4bhbh2rcd13ifvqepg","pricing_plan_id":"cebpf4jnsgd1na2vs0mg"},{"bike_id":"41902fd9-fa18-46a4-b43c-51a2cb10a6db","system_id":"levelo_inurba_marseille","lat":43.303477,"lon":5.418877,"is_reserved":false,"is_disabled":false,"rental_uris":{"android":"levelo://app?vid=41902fd9-fa18-46a4-b43c-51a2cb10a6db","ios":"levelo://app?vid=41902fd9-fa18-46a4-b43c-51a2cb10a6db"},"vehicle_type_id":"4","last_reported":1737247787,"current_range_meters":38800,"station_id":"ce4bhop2rcd13ifvqh7g","pricing_plan_id":"cebpf4jnsgd1na2vs0mg"},{"bike_id":"4e35d48b-8446-4e2a-a4c2-e2ce4476ec82","system_id":"levelo_inurba_marseille","lat":43.28411,"lon":5.34997,"is_reserved":false,"is_disabled":false,"rental_uris":{"android":"levelo://app?vid=4e35d48b-8446-4e2a-a4c2-e2ce4476ec82","ios":"levelo://app?vid=4e35d48b-8446-4e2a-a4c2-e2ce4476ec82"},"vehicle_type_id":"4","last_reported":1737247787,"current_range_meters":32000,"station_id":"ce4bhbh2rcd13ifvqepg","pricing_plan_id":"cebpf4jnsgd1na2vs0mg"},{"bike_id":"fe90f7a6-3920-456a-9451-50d213b7000f","system_id":"levelo_inurba_marseille","lat":43.28468,"lon":5.38441,"is_reserved":false,"is_disabled":true,"rental_uris":{"android":"levelo://app?vid=fe90f7a6-3920-456a-9451-50d213b7000f","ios":"levelo://app?vid=fe90f7a6-3920-456a-9451-50d213b7000f"},"vehicle_type_id":"4","last_reported":1737247787,"current_range_meters":34800,"station_id":"ce4bh512rcd13ifvqe3g","pricing_plan_id":"cebpf4jnsgd1na2vs0mg"},{"bike_id":"701eaa77-7a53-45d9-810d-85ea1065f324","system_id":"levelo_inurba_marseille","lat":43.31278,"lon":5.40167,"is_reserved":false,"is_disabled":false,"rental_uris":{"android":"levelo://app?vid=701eaa77-7a53-45d9-810d-85ea1065f324","ios":"levelo://app?vid=701eaa77-7a53-45d9-810d-85ea1065f324"},"vehicle_type_id":"4","last_reported":1737247787,"current_range_meters":39200,"station_id":"ce4bh092rcd13ifvqd30","pricing_plan_id":"cebpf4jnsgd1na2vs0mg"},{"bike_id":"919e93a6-0791-4d8a-9838-d57cbdc5d937","system_id":"levelo_inurba_marseille","lat":43.25105,"lon":5.40325,"is_reserved":false,"is_disabled":false,"rental_uris":{"android":"levelo://app?vid=919e93a6-0791-4d8a-9838-d57cbdc5d937","ios":"levelo://app?vid=919e93a6-0791-4d8a-9838-d57cbdc5d937"},"vehicle_type_id":"4","last_reported":1737247787,"current_range_meters":33200,"station_id":"ce4bhlh2rcd13ifvqgig","pricing_plan_id":"cebpf4jnsgd1na2vs0mg"},{"bike_id":"aeeb7245-8a7c-4b79-b9ac-efca69f7818a","system_id":"levelo_inurba_marseille","lat":43.32105,"lon":5.36796,"is_reserved":false,"is_disabled":false,"rental_uris":{"android":"levelo://app?vid=aeeb7245-8a7c-4b79-b9ac-efca69f7818a","ios":"levelo://app?vid=aeeb7245-8a7c-4b79-b9ac-efca69f7818a"},"vehicle_type_id":"4","last_reported":1737247787,"current_range_meters":23200,"station_id":"ce4bhrh2rcd13ifvqhug","pricing_plan_id":"cebpf4jnsgd1na2vs0mg"},{"bike_id":"e59132bf-d5af-4c44-a851-13136e4ee027","system_id":"levelo_inurba_marseille","lat":43.298,"lon":5.38116,"is_reserved":false,"is_disabled":false,"rental_uris":{"android":"levelo://app?vid=e59132bf-d5af-4c44-a851-13136e4ee027","ios":"levelo://app?vid=e59132bf-d5af-4c44-a851-13136e4ee027"},"vehicle_type_id":"4","last_reported":1737247787,"current_range_meters":39200,"station_id":"ce4bgip2rcd13ifvqbb0","pricing_plan_id":"cebpf4jnsgd1na2vs0mg"},{"bike_id":"eb145cc5-6905-4ca3-8be1-04cd8bc791b5","system_id":"levelo_inurba_marseille","lat":43.3249,"lon":5.36552,"is_reserved":false,"is_disabled":false,"rental_uris":{"android":"levelo://app?vid=eb145cc5-6905-4ca3-8be1-04cd8bc791b5","ios":"levelo://app?vid=eb145cc5-6905-4ca3-8be1-04cd8bc791b5"},"vehicle_type_id":"4","last_reported":1737247787,"current_range_meters":34000,"station_id":"ce4bhs12rcd13ifvqhvg","pricing_plan_id":"cebpf4jnsgd1na2vs0mg"},{"bike_id":"e051a621-b6be-430c-a049-d6b9d1fa942d","system_id":"levelo_inurba_marseille","lat":43.30143,"lon":5.39853,"is_reserved":false,"is_disabled":false,"rental_uris":{"android":"levelo://app?vid=e051a621-b6be-430c-a049-d6b9d1fa942d","ios":"levelo://app?vid=e051a621-b6be-430c-a049-d6b9d1fa942d"},"vehicle_type_id":"4","last_reported":1737247787,"current_range_meters":25200,"station_id":"ce4bh0h2rcd13ifvqd40","pricing_plan_id":"cebpf4jnsgd1na2vs0mg"},{"bike_id":"a9a0e60f-8e94-490a-988c-5a9cfc45d626","system_id":"levelo_inurba_marseille","lat":43.24166,"lon":5.364,"is_reserved":false,"is_disabled":false,"rental_uris":{"android":"levelo://app?vid=a9a0e60f-8e94-490a-988c-5a9cfc45d626","ios":"levelo://app?vid=a9a0e60f-8e94-490a-988c-5a9cfc45d626"},"vehicle_type_id":"4","last_reported":1737247787,"current_range_meters":9200,"station_id":"cpo36qri1sfpv3e86is0","pricing_plan_id":"cebpf4jnsgd1na2vs0mg"},{"bike_id":"6cbe830d-ed66-4820-b1b9-1bc9aa12670e","system_id":"levelo_inurba_marseille","lat":43.2893,"lon":5.39624,"is_reserved":false,"is_disabled":false,"rental_uris":{"android":"levelo://app?vid=6cbe830d-ed66-4820-b1b9-1bc9aa12670e","ios":"levelo://app?vid=6cbe830d-ed66-4820-b1b9-1bc9aa12670e"},"vehicle_type_id":"4","last_reported":1737247787,"current_range_meters":19600,"station_id":"ce4bh3h2rcd13ifvqdn0","pricing_plan_id":"cebpf4jnsgd1na2vs0mg"},{"bike_id":"17a3f959-c40c-46c6-84f8-864d1e7fd23e","system_id":"levelo_inurba_marseille","lat":43.24659,"lon":5.38166,"is_reserved":false,"is_disabled":true,"rental_uris":{"android":"levelo://app?vid=17a3f959-c40c-46c6-84f8-864d1e7fd23e","ios":"levelo://app?vid=17a3f959-c40c-46c6-84f8-864d1e7fd23e"},"vehicle_type_id":"4","last_reported":1737247787,"current_range_meters":0,"station_id":"ce4bhih2rcd13ifvqfr0","pricing_plan_id":"cebpf4jnsgd1na2vs0mg"},{"bike_id":"5136cca2-dc79-42d5-a096-5120a2626c68","system_id":"levelo_inurba_marseille","lat":43.30933,"lon":5.40124,"is_reserved":false,"is_disabled":false,"rental_uris":{"android":"levelo://app?vid=5136cca2-dc79-42d5-a096-5120a2626c68","ios":"levelo://app?vid=5136cca2-dc79-42d5-a096-5120a2626c68"},"vehicle_type_id":"4","last_reported":1737247787,"current_range_meters":38800,"station_id":"ce4bgvp2rcd13ifvqct0","pricing_plan_id":"cebpf4jnsgd1na2vs0mg"},{"bike_id":"76dbf6ef-b4a8-4cef-8918-462b67116819","system_id":"levelo_inurba_marseille","lat":43.32282,"lon":5.38268,"is_reserved":false,"is_disabled":false,"rental_uris":{"android":"levelo://app?vid=76dbf6ef-b4a8-4cef-8918-462b67116819","ios":"levelo://app?vid=76dbf6ef-b4a8-4cef-8918-462b67116819"},"vehicle_type_id":"4","last_reported":1737247787,"current_range_meters":38800,"station_id":"ce4bhr12rcd13ifvqhqg","pricing_plan_id":"cebpf4jnsgd1na2vs0mg"},{"bike_id":"820164e1-d741-4f5e-8323-9f339e4633fd","system_id":"levelo_inurba_marseille","lat":43.25702,"lon":5.4169,"is_reserved":false,"is_disabled":false,"rental_uris":{"android":"levelo://app?vid=820164e1-d741-4f5e-8323-9f339e4633fd","ios":"levelo://app?vid=820164e1-d741-4f5e-8323-9f339e4633fd"},"vehicle_type_id":"4","last_reported":1737247787,"current_range_meters":32400,"station_id":"","pricing_plan_id":"cebpf4jnsgd1na2vs0mg"},{"bike_id":"93692049-06d5-49a3-8ea4-f95f92b8ecb9","system_id":"levelo_inurba_marseille","lat":43.29022,"lon":5.38134,"is_reserved":false,"is_disabled":false,"rental_uris":{"android":"levelo://app?vid=93692049-06d5-49a3-8ea4-f95f92b8ecb9","ios":"levelo://app?vid=93692049-06d5-49a3-8ea4-f95f92b8ecb9"},"vehicle_type_id":"4","last_reported":1737247787,"current_range_meters":24400,"station_id":"ce4bh4p2rcd13ifvqe1g","pricing_plan_id":"cebpf4jnsgd1na2vs0mg"},{"bike_id":"8c79a501-1f9a-49ec-b787-7aa7d6b56a53","system_id":"levelo_inurba_marseille","lat":43.30422,"lon":5.41287,"is_reserved":false,"is_disabled":false,"rental_uris":{"android":"levelo://app?vid=8c79a501-1f9a-49ec-b787-7aa7d6b56a53","ios":"levelo://app?vid=8c79a501-1f9a-49ec-b787-7aa7d6b56a53"},"vehicle_type_id":"4","last_reported":1737247787,"current_range_meters":38800,"station_id":"ce4bhop2rcd13ifvqh8g","pricing_plan_id":"cebpf4jnsgd1na2vs0mg"},{"bike_id":"4cb68426-8da2-4c31-9cb8-0779a8fd0d03","system_id":"levelo_inurba_marseille","lat":43.27898,"lon":5.3802,"is_reserved":false,"is_disabled":false,"rental_uris":{"android":"levelo://app?vid=4cb68426-8da2-4c31-9cb8-0779a8fd0d03","ios":"levelo://app?vid=4cb68426-8da2-4c31-9cb8-0779a8fd0d03"},"vehicle_type_id":"4","last_reported":1737247787,"current_range_meters":38000,"station_id":"ce4bhf92rcd13ifvqf50","pricing_plan_id":"cebpf4jnsgd1na2vs0mg"},{"bike_id":"a6614ad9-36c5-4782-88c4-6856e10e703c","system_id":"levelo_inurba_marseille","lat":43.314843,"lon":5.372986,"is_reserved":false,"is_disabled":false,"rental_uris":{"android":"levelo://app?vid=a6614ad9-36c5-4782-88c4-6856e10e703c","ios":"levelo://app?vid=a6614ad9-36c5-4782-88c4-6856e10e703c"},"vehicle_type_id":"4","last_reported":1737247787,"current_range_meters":36800,"station_id":"ce4bgt12rcd13ifvqcd0","pricing_plan_id":"cebpf4jnsgd1na2vs0mg"},{"bike_id":"50267a36-8428-4ee1-ac27-ac6a771a71af","system_id":"levelo_inurba_marseille","lat":43.337178,"lon":5.355862,"is_reserved":false,"is_disabled":false,"rental_uris":{"android":"levelo://app?vid=50267a36-8428-4ee1-ac27-ac6a771a71af","ios":"levelo://app?vid=50267a36-8428-4ee1-ac27-ac6a771a71af"},"vehicle_type_id":"4","last_reported":1737247787,"current_range_meters":8400,"station_id":"","pricing_plan_id":"cebpf4jnsgd1na2vs0mg"},{"bike_id":"f5863b18-13a1-4c6e-92de-5668ea912ad3","system_id":"levelo_inurba_marseille","lat":43.26188,"lon":5.40377,"is_reserved":false,"is_disabled":true,"rental_uris":{"android":"levelo://app?vid=f5863b18-13a1-4c6e-92de-5668ea912ad3","ios":"levelo://app?vid=f5863b18-13a1-4c6e-92de-5668ea912ad3"},"vehicle_type_id":"4","last_reported":1737247787,"current_range_meters":0,"station_id":"","pricing_plan_id":"cebpf4jnsgd1na2vs0mg"},