{"last_updated":1756383652,"ttl":60,"version":"2.2","data":{"bikes":[{"bike_id":"2732b203-8d34-41ae-80bd-b4f151d77aad","system_id":"levelo_inurba_marseille","lat":43.302527,"lon":5.405348,"is_reserved":false,"is_disabled":false,"rental_uris":{"android":"levelo://app?vid=2732b203-8d34-41ae-80bd-b4f151d77aad","ios":"levelo://app?vid=2732b203-8d34-41ae-80bd-b4f151d77aad"},"vehicle_type_id":"4","last_reported":1756383652,"current_range_meters":2800,"station_id":"","pricing_plan_id":"cebpf4jnsgd1na2vs0mg"},{"bike_id":"68afdd5f-fff5-4a33-a4a2-3dedc872556b","system_id":"levelo_inurba_marseille","lat":43.29568,"lon":5.39983,"is_reserved":false,"is_disabled":false,"rental_uris":{"android":"levelo://app?vid=68afdd5f-fff5-4a33-a4a2-3dedc872556b","ios":"levelo://app?vid=68afdd5f-fff5-4a33-a4a2-3dedc872556b"},"vehicle_type_id":"4","last_reported":1756383652,"current_range_meters":3200,"station_id":"ce4bh312rcd13ifvqdj0","pricing_plan_id":"cebpf4jnsgd1na2vs0mg"},{"bike_id":"0d502687-08ef-4491-8893-8a03d8688be8","system_id":"levelo_inurba_marseille","lat":43.296359,"lon":5.361186,"is_reserved":false,"is_disabled":false,"rental_uris":{"android":"levelo://app?vid=0d502687-08ef-4491-8893-8a03d8688be8","ios":"levelo://app?vid=0d502687-08ef-4491-8893-8a03d8688be8"},"vehicle_type_id":"4","last_reported":1756383652,"current_range_meters":3200,"station_id":"","pricing_plan_id":"cebpf4jnsgd1na2vs0mg"},{"bike_id":"a1e9622a-7c2e-4748-9440-b794731ec70a","system_id":"levelo_inurba_marseille","lat":43.30546,"lon":5.36528,"is_reserved":false,"is_disabled":false,"rental_uris":{"android":"levelo://app?vid=a1e9622a-7c2e-4748-9440-b794731ec70a","ios":"levelo://app?vid=a1e9622a-7c2e-4748-9440-b794731ec70a"},"vehicle_type_id":"4","last_reported":1756383652,"current_range_meters":3600,"station_id":"ce4bgs12rcd13ifvqcag","pricing_plan_id":"cebpf4jnsgd1na2vs0mg"},{"bike_id":"23038a23-8213-4d5b-a784-616373105311","system_id":"levelo_inurba_marseille","lat":43.298964,"lon":5.43665,"is_reserved":false,"is_disabled":false,"rental_uris":{"android":"levelo://app?vid=23038a23-8213-4d5b-a784-616373105311","ios":"levelo://app?vid=23038a23-8213-4d5b-a784-616373105311"},"vehicle_type_id":"4","last_reported":1756383652,"current_range_meters":3600,"station_id":"ce4bhpp2rcd13ifvqhfg","pricing_plan_id":"cebpf4jnsgd1na2vs0mg"},{"bike_id":"693cbb59-2c04-4a43-b53a-d62c58033fcf","system_id":"levelo_inurba_marseille","lat":43.29618,"lon":5.37162,"is_reserved":false,"is_disabled":false,"rental_uris":{"android":"levelo://app?vid=693cbb59-2c04-4a43-b53a-d62c58033fcf","ios":"levelo://app?vid=693cbb59-2c04-4a43-b53a-d62c58033fcf"},"vehicle_type_id":"4","last_reported":1756383652,"current_range_meters":3200,"station_id":"ce4bgnh2rcd13ifvqc0g","pricing_plan_id":"cebpf4jnsgd1na2vs0mg"},{"bike_id":"9256f53d-55b5-47ea-ae88-4dd15445e092","system_id":"levelo_inurba_marseille","lat":43.29,"lon":5.35607,"is_reserved":false,"is_disabled":false,"rental_uris":{"android":"levelo://app?vid=9256f53d-55b5-47ea-ae88-4dd15445e092","ios":"levelo://app?vid=9256f53d-55b5-47ea-ae88-4dd15445e092"},"vehicle_type_id":"4","last_reported":1756383652,"current_range_meters":3600,"station_id":"ce4bhb92rcd13ifvqen0","pricing_plan_id":"cebpf4jnsgd1na2vs0mg"},{"bike_id":"7986c926-0147-4bcc-bfa2-8c6d7c658996","system_id":"levelo_inurba_marseille","lat":43.29929,"lon":5.36547,"is_reserved":false,"is_disabled":false,"rental_uris":{"android":"levelo://app?vid=7986c926-0147-4bcc-bfa2-8c6d7c658996","ios":"levelo://app?vid=7986c926-0147-4bcc-bfa2-8c6d7c658996"},"vehicle_type_id":"4","last_reported":1756383652,"current_range_meters":4400,"station_id":"ce4bgm92rcd13ifvqbr0","pricing_plan_id":"cebpf4jnsgd1na2vs0mg"},{"bike_id":"51842e17-ef10-4624-a23e-c8a182427991","system_id":"levelo_inurba_marseille","lat":43.3162,"lon":5.38155,"is_reserved":false,"is_disabled":false,"rental_uris":{"android":"levelo://app?vid=51842e17-ef10-4624-a23e-c8a182427991","ios":"levelo://app?vid=51842e17-ef10-4624-a23e-c8a182427991"},"vehicle_type_id":"4","last_reported":1756383652,"current_range_meters":4400,"station_id":"","pricing_plan_id":"cebpf4jnsgd1na2vs0mg"},{"bike_id":"b7f5d4fc-8af5-442f-b471-e28f343fd67e","system_id":"levelo_inurba_marseille","lat":43.33776,"lon":5.37482,"is_reserved":false,"is_disabled":false,"rental_uris":{"android":"levelo://app?vid=b7f5d4fc-8af5-442f-b471-e28f343fd67e","ios":"levelo://app?vid=b7f5d4fc-8af5-442f-b471-e28f343fd67e"},"vehicle_type_id":"4","last_reported":1756383652,"current_range_meters":4400,"station_id":"","pricing_plan_id":"cebpf4jnsgd1na2vs0mg"},{"bike_id":"86553981-3c68-456b-889c-7b27666eab8d","system_id":"levelo_inurba_marseille","lat":43.30321,"lon":5.36906,"is_reserved":false,"is_disabled":true,"rental_uris":{"android":"levelo://app?vid=86553981-3c68-456b-889c-7b27666eab8d","ios":"levelo://app?vid=86553981-3c68-456b-889c-7b27666eab8d"},"vehicle_type_id":"4","last_reported":1756383652,"current_range_meters":4800,"station_id":"ce4bgqh2rcd13ifvqc5g","pricing_plan_id":"cebpf4jnsgd1na2vs0mg"},{"bike_id":"9ebbca0f-8b0f-49e0-bbc0-5934ebb0e846","system_id":"levelo_inurba_marseille","lat":43.211687,"lon":5.350851,"is_reserved":false,"is_disabled":false,"rental_uris":{"android":"levelo://app?vid=9ebbca0f-8b0f-49e0-bbc0-5934ebb0e846","ios":"levelo://app?vid=9ebbca0f-8b0f-49e0-bbc0-5934ebb0e846"},"vehicle_type_id":"4","last_reported":1756383652,"current_range_meters":4800,"station_id":"st_cvj6sg6p6f1abm77japg","pricing_plan_id":"cebpf4jnsgd1na2vs0mg"},{"bike_id":"69a01144-4cb0-4f43-b8a7-d8bba1210d75","system_id":"levelo_inurba_marseille","lat":43.31557,"lon":5.37451,"is_reserved":false,"is_disabled":false,"rental_uris":{"android":"levelo://app?vid=69a01144-4cb0-4f43-b8a7-d8bba1210d75","ios":"levelo://app?vid=69a01144-4cb0-4f43-b8a7-d8bba1210d75"},"vehicle_type_id":"4","last_reported":1756383652,"current_range_meters":4800,"station_id":"","pricing_plan_id":"cebpf4jnsgd1na2vs0mg"},{"bike_id":"183f0f0d-1fac-4690-b688-cd9e99b061dc","system_id":"levelo_inurba_marseille","lat":43.33718,"lon":5.39185,"is_reserved":false,"is_disabled":false,"rental_uris":{"android":"levelo://app?vid=183f0f0d-1fac-4690-b688-cd9e99b061dc","ios":"levelo://app?vid=183f0f0d-1fac-4690-b688-cd9e99b061dc"},"vehicle_type_id":"4","last_reported":1756383652,"current_range_meters":4400,"station_id":"ce4bhr92rcd13ifvqhsg","pricing_plan_id":"cebpf4jnsgd1na2vs0mg"},{"bike_id":"8ff3ebc3-b8cc-483f-9232-7e0c6220b0be","system_id":"levelo_inurba_marseille","lat":43.29962,"lon":5.41329,"is_reserved":false,"is_disabled":false,"rental_uris":{"android":"levelo://app?vid=8ff3ebc3-b8cc-483f-9232-7e0c6220b0be","ios":"levelo://app?vid=8ff3ebc3-b8cc-483f-9232-7e0c6220b0be"},"vehicle_type_id":"4","last_reported":1756383652,"current_range_meters":5600,"station_id":"ce4bhp12rcd13ifvqh9g","pricing_plan_id":"cebpf4jnsgd1na2vs0mg"},{"bike_id":"24f5aa1f-2f94-4f26-8f26-0f5d3cb057f4","system_id":"levelo_inurba_marseille","lat":43.28745,"lon":5.42645,"is_reserved":false,"is_disabled":false,"rental_uris":{"android":"levelo://app?vid=24f5aa1f-2f94-4f26-8f26-0f5d3cb057f4","ios":"levelo://app?vid=24f5aa1f-2f94-4f26-8f26-0f5d3cb057f4"},"vehicle_type_id":"4","last_reported":1756383652,"current_range_meters":6000,"station_id":"","pricing_plan_id":"cebpf4jnsgd1na2vs0mg"},{"bike_id":"51be39ff-6365-4b04-a07c-681d0d47ae46","system_id":"levelo_inurba_marseille","lat":43.31355,"lon":5.38495,"is_reserved":false,"is_disabled":false,"rental_uris":{"android":"levelo://app?vid=51be39ff-6365-4b04-a07c-681d0d47ae46","ios":"levelo://app?vid=51be39ff-6365-4b04-a07c-681d0d47ae46"},"vehicle_type_id":"4","last_reported":1756383652,"current_range_meters":6000,"station_id":"ce4bgt92rcd13ifvqcf0","pricing_plan_id":"cebpf4jnsgd1na2vs0mg"},{"bike_id":"9f46efba-ec4d-43b5-aaf4-6b8dd230fff2","system_id":"levelo_inurba_marseille","lat":43.28457,"lon":5.35885,"is_reserved":false,"is_disabled":false,"rental_uris":{"android":"levelo://app?vid=9f46efba-ec4d-43b5-aaf4-6b8dd230fff2","ios":"levelo://app?vid=9f46efba-ec4d-43b5-aaf4-6b8dd230fff2"},"vehicle_type_id":"4","last_reported":1756383652,"current_range_meters":14000,"station_id":"ce4bhah2rcd13ifvqei0","pricing_plan_id":"cebpf4jnsgd1na2vs0mg"},{"bike_id":"2e29be9e-3f99-4985-913f-e3fc2b4b3402","system_id":"levelo_inurba_marseille","lat":43.31476,"lon":5.37308,"is_reserved":false,"is_disabled":false,"rental_uris":{"android":"levelo://app?vid=2e29be9e-3f99-4985-913f-e3fc2b4b3402","ios":"levelo://app?vid=2e29be9e-3f99-4985-913f-e3fc2b4b3402"},"vehicle_type_id":"4","last_reported":1756383652,"current_range_meters":6400,"station_id":"ce4bgt12rcd13ifvqcd0","pricing_plan_id":"cebpf4jnsgd1na2vs0mg"},{"bike_id":"aa94f0a8-27e9-4c35-b8f2-f25674ce288a","system_id":"levelo_inurba_marseille","lat":43.30892,"lon":5.37186,"is_reserved":false,"is_disabled":false,"rental_uris":{"android":"levelo://app?vid=aa94f0a8-27e9-4c35-b8f2-f25674ce288a","ios":"levelo://app?vid=aa94f0a8-27e9-4c35-b8f2-f25674ce288a"},"vehicle_type_id":"4","last_reported":1756383652,"current_range_meters":6400,"station_id":"ce4bguh2rcd13ifvqckg","pricing_plan_id":"cebpf4jnsgd1na2vs0mg"},{"bike_id":"e6a2e56f-46ae-4d9c-99b0-bd91cba4f0f3","system_id":"levelo_inurba_marseille","lat":43.29623,"lon":5.37173,"is_reserved":false,"is_disabled":false,"rental_uris":{"android":"levelo://app?vid=e6a2e56f-46ae-4d9c-99b0-bd91cba4f0f3","ios":"levelo://app?vid=e6a2e56f-46ae-4d9c-99b0-bd91cba4f0f3"},"vehicle_type_id":"4","last_reported":1756383652,"current_range_meters":6800,"station_id":"ce4bgnh2rcd13ifvqc0g","pricing_plan_id":"cebpf4jnsgd1na2vs0mg"},{"bike_id":"5bce688b-fc81-4596-8277-b66f54be87c1","system_id":"levelo_inurba_marseille","lat":43.337645,"lon":5.374409,"is_reserved":false,"is_disabled":false,"rental_uris":{"android":"levelo://app?vid=5bce688b-fc81-4596-8277-b66f54be87c1","ios":"levelo://app?vid=5bce688b-fc81-4596-8277-b66f54be87c1"},"vehicle_type_id":"4","last_reported":1756383652,"current_range_meters":7200,"station_id":"","pricing_plan_id":"cebpf4jnsgd1na2vs0mg"},{"bike_id":"5c36ce94-630a-4224-a187-3e597ced67cc","system_id":"levelo_inurba_marseille","lat":43.29273,"lon":5.36842,"is_reserved":false,"is_disabled":false,"rental_uris":{"android":"levelo://app?vid=5c36ce94-630a-4224-a187-3e597ced67cc","ios":"levelo://app?vid=5c36ce94-630a-4224-a187-3e597ced67cc"},"vehicle_type_id":"4","last_reported":1756383652,"current_range_meters":7200,"station_id":"ce4bhbp2rcd13ifvqesg","pricing_plan_id":"cebpf4jnsgd1na2vs0mg"},{"bike_id":"263927f9-4e55-404f-a689-c558ac5294df","system_id":"levelo_inurba_marseille","lat":43.283634,"lon":5.386374,"is_reserved":false,"is_disabled":false,"rental_uris":{"android":"levelo://app?vid=263927f9-4e55-404f-a689-c558ac5294df","ios":"levelo://app?vid=263927f9-4e55-404f-a689-c558ac5294df"},"vehicle_type_id":"4","last_reported":1756383652,"current_range_meters":7200,"station_id":"ce4bh492rcd13ifvqdvg","pricing_plan_id":"cebpf4jnsgd1na2vs0mg"},{"bike_id":"a7c879e6-fbdc-41cc-b936-a235aa17adb5","system_id":"levelo_inurba_marseille","lat":43.33151,"lon":5.38164,"is_reserved":false,"is_disabled":false,"rental_uris":{"android":"levelo://app?vid=a7c879e6-fbdc-41cc-b936-a235aa17adb5","ios":"levelo://app?vid=a7c879e6-fbdc-41cc-b936-a235aa17adb5"},"vehicle_type_id":"4","last_reported":1756383652,"current_range_meters":8400,"station_id":"","pricing_plan_id":"cebpf4jnsgd1na2vs0mg"},{"bike_id":"e5eabf25-4e1c-476e-b130-9f83cdcfc80c","system_id":"levelo_inurba_marseille","lat":43.29816,"lon":5.41711,"is_reserved":false,"is_disabled":false,"rental_uris":{"android":"levelo://app?vid=e5eabf25-4e1c-476e-b130-9f83cdcfc80c","ios":"levelo://app?vid=e5eabf25-4e1c-476e-b130-9f83cdcfc80c"},"vehicle_type_id":"4","last_reported":1756383652,"current_range_meters":8400,"station_id":"","pricing_plan_id":"cebpf4jnsgd1na2vs0mg"},{"bike_id":"da4b594e-924c-4367-ba46-842aaa06151e","system_id":"levelo_inurba_marseille","lat":43.28421,"lon":5.34986,"is_reserved":false,"is_disabled":false,"rental_uris":{"android":"levelo://app?vid=da4b594e-924c-4367-ba46-842aaa06151e","ios":"levelo://app?vid=da4b594e-924c-4367-ba46-842aaa06151e"},"vehicle_type_id":"4","last_reported":1756383652,"current_range_meters":8400,"station_id":"ce4bhbh2rcd13ifvqepg","pricing_plan_id":"cebpf4jnsgd1na2vs0mg"},{"bike_id":"a6ef8657-5b8a-423b-993f-c3df43dec0a0","system_id":"levelo_inurba_marseille","lat":43.337595,"lon":5.374806,"is_reserved":false,"is_disabled":false,"rental_uris":{"android":"levelo://app?vid=a6ef8657-5b8a-423b-993f-c3df43dec0a0","ios":"levelo://app?vid=a6ef8657-5b8a-423b-993f-c3df43dec0a0"},"vehicle_type_id":"4","last_reported":1756383652,"current_range_meters":8400,"station_id":"","pricing_plan_id":"cebpf4jnsgd1na2vs0mg"},{"bike_id":"53db2744-0b6d-4610-8cb1-ce0d97d4c3d4","system_id":"levelo_inurba_marseille","lat":43.26778,"lon":5.39418,"is_reserved":false,"is_disabled":false,"rental_uris":{"android":"levelo://app?vid=53db2744-0b6d-4610-8cb1-ce0d97d4c3d4","ios":"levelo://app?vid=53db2744-0b6d-4610-8cb1-ce0d97d4c3d4"},"vehicle_type_id":"4","last_reported":1756383652,"current_range_meters":8400,"station_id":"ce4bhh12rcd13ifvqfg0","pricing_plan_id":"cebpf4jnsgd1na2vs0mg"},{"bike_id":"92db2c89-d173-49d5-b157-9db145019168","system_id":"levelo_inurba_marseille","lat":43.26195,"lon":5.37448,"is_reserved":false,"is_disabled":false,"rental_uris":{"android":"levelo://app?vid=92db2c89-d173-49d5-b157-9db145019168","ios":"levelo://app?vid=92db2c89-d173-49d5-b157-9db145019168"},"vehicle_type_id":"4","last_reported":1756383652,"current_range_meters":8800,"station_id":"ce4bhgp2rcd13ifvqfc0","pricing_plan_id":"cebpf4jnsgd1na2vs0mg"},{"bike_id":"ac631280-124e-4e54-bf31-e8c590daca4d","system_id":"levelo_inurba_marseille","lat":43.298089,"lon":5.381118,"is_reserved":false,"is_disabled":false,"rental_uris":{"android":"levelo://app?vid=ac631280-124e-4e54-bf31-e8c590daca4d","ios":"levelo://app?vid=ac631280-124e-4e54-bf31-e8c590daca4d"},"vehicle_type_id":"4","last_reported":1756383652,"current_range_meters":8800,"station_id":"ce4bgip2rcd13ifvqbb0","pricing_plan_id":"cebpf4jnsgd1na2vs0mg"},{"bike_id":"fc25b311-1f1c-4a1a-a4bb-abf8eda84b87","system_id":"levelo_inurba_marseille","lat":43.298004,"lon":5.380967,"is_reserved":false,"is_disabled":false,"rental_uris":{"android":"levelo://app?vid=fc25b311-1f1c-4a1a-a4bb-abf8eda84b87","ios":"levelo://app?vid=fc25b311-1f1c-4a1a-a4bb-abf8eda84b87"},"vehicle_type_id":"4","last_reported":1756383652,"current_range_meters":9600,"station_id":"ce4bgip2rcd13ifvqbb0","pricing_plan_id":"cebpf4jnsgd1na2vs0mg"},{"bike_id":"1a88cc04-e128-468d-8bbb-62f04a996e74","system_id":"levelo_inurba_marseille","lat":43.287058,"lon":5.373761,"is_reserved":false,"is_disabled":false,"rental_uris":{"android":"levelo://app?vid=1a88cc04-e128-468d-8bbb-62f04a996e74","ios":"levelo://app?vid=1a88cc04-e128-468d-8bbb-62f04a996e74"},"vehicle_type_id":"4","last_reported":1756383652,"current_range_meters":9200,"station_id":"ce4bh3p2rcd13ifvqdq0","pricing_plan_id":"cebpf4jnsgd1na2vs0mg"},{"bike_id":"4124e2e8-fc5d-4005-88e9-95806ca6a577","system_id":"levelo_inurba_marseille","lat":43.3204,"lon":5.41545,"is_reserved":false,"is_disabled":false,"rental_uris":{"android":"levelo://app?vid=4124e2e8-fc5d-4005-88e9-95806ca6a577","ios":"levelo://app?vid=4124e2e8-fc5d-4005-88e9-95806ca6a577"},"vehicle_type_id":"4","last_reported":1756383652,"current_range_meters":8800,"station_id":"ce4bhq92rcd13ifvqhkg","pricing_plan_id":"cebpf4jnsgd1na2vs0mg"},{"bike_id":"452c64c1-c18e-429f-ac02-5f3cc7af3941","system_id":"levelo_inurba_marseille","lat":43.21765,"lon":5.34604,"is_reserved":false,"is_disabled":false,"rental_uris":{"android":"levelo://app?vid=452c64c1-c18e-429f-ac02-5f3cc7af3941","ios":"levelo://app?vid=452c64c1-c18e-429f-ac02-5f3cc7af3941"},"vehicle_type_id":"4","last_reported":1756383652,"current_range_meters":9200,"station_id":"st_cvj6r9ubvosntc0bgbag","pricing_plan_id":"cebpf4jnsgd1na2vs0mg"},{"bike_id":"8637e1aa-9c9a-41e1-a5d5-f0342a65118e","system_id":"levelo_inurba_marseille","lat":43.317,"lon":5.43752,"is_reserved":false,"is_disabled":false,"rental_uris":{"android":"levelo://app?vid=8637e1aa-9c9a-41e1-a5d5-f0342a65118e","ios":"levelo://app?vid=8637e1aa-9c9a-41e1-a5d5-f0342a65118e"},"vehicle_type_id":"4","last_reported":1756383652,"current_range_meters":9600,"station_id":"ce4bhp92rcd13ifvqhcg","pricing_plan_id":"cebpf4jnsgd1na2vs0mg"},{"bike_id":"0f11a911-f7d2-47e5-ad43-0a539f0229d5","system_id":"levelo_inurba_marseille","lat":43.29373,"lon":5.3785,"is_reserved":false,"is_disabled":false,"rental_uris":{"android":"levelo://app?vid=0f11a911-f7d2-47e5-ad43-0a539f0229d5","ios":"levelo://app?vid=0f11a911-f7d2-47e5-ad43-0a539f0229d5"},"vehicle_type_id":"4","last_reported":1756383652,"current_range_meters":9600,"station_id":"ce4bgjh2rcd13ifvqbf0","pricing_plan_id":"cebpf4jnsgd1na2vs0mg"},{"bike_id":"f5ee2120-b8b8-472b-9bcc-efc824cd719b","system_id":"levelo_inurba_marseille","lat":43.29544,"lon":5.42279,"is_reserved":false,"is_disabled":false,"rental_uris":{"android":"levelo://app?vid=f5ee2120-b8b8-472b-9bcc-efc824cd719b","ios":"levelo://app?vid=f5ee2120-b8b8-472b-9bcc-efc824cd719b"},"vehicle_type_id":"4","last_reported":1756383652,"current_range_meters":10000,"station_id":"ce4bhph2rcd13ifvqhdg","pricing_plan_id":"cebpf4jnsgd1na2vs0mg"},{"bike_id":"5c26a54e-1e97-4ad3-a16d-614ad930b130","system_id":"levelo_inurba_marseille","lat":43.321032,"lon":5.36771,"is_reserved":false,"is_disabled":false,"rental_uris":{"android":"levelo://app?vid=5c26a54e-1e97-4ad3-a16d-614ad930b130","ios":"levelo://app?vid=5c26a54e-1e97-4ad3-a16d-614ad930b130"},"vehicle_type_id":"4","last_reported":1756383652,"current_range_meters":10800,"station_id":"ce4bhrh2rcd13ifvqhug","pricing_plan_id":"cebpf4jnsgd1na2vs0mg"},{"bike_id":"19eabc24-80d3-4327-b947-9ec7f85cd494","system_id":"levelo_inurba_marseille","lat":43.27322,"lon":5.39132,"is_reserved":false,"is_disabled":true,"rental_uris":{"android":"levelo://app?vid=19eabc24-80d3-4327-b947-9ec7f85cd494","ios":"levelo://app?vid=19eabc24-80d3-4327-b947-9ec7f85cd494"},"vehicle_type_id":"4","last_reported":1756383652,"current_range_meters":10800,"station_id":"ce4bhgp2rcd13ifvqfe0","pricing_plan_id":"cebpf4jnsgd1na2vs0mg"},{"bike_id":"cea4f74c-749a-4d27-ba42-227f3aa848c5","system_id":"levelo_inurba_marseille","lat":43.3016,"lon":5.381025,"is_reserved":false,"is_disabled":false,"rental_uris":{"android":"levelo://app?vid=cea4f74c-749a-4d27-ba42-227f3aa848c5","ios":"levelo://app?vid=cea4f74c-749a-4d27-ba42-227f3aa848c5"},"vehicle_type_id":"4","last_reported":1756383652,"current_range_meters":10800,"station_id":"ce4bgjp2rcd13ifvqbh0","pricing_plan_id":"cebpf4jnsgd1na2vs0mg"},{"bike_id":"59b22a9b-50a3-4809-a1b1-b5e35e3c9c2c","system_id":"levelo_inurba_marseille","lat":43.316811,"lon":5.382885,"is_reserved":false,"is_disabled":false,"rental_uris":{"android":"levelo://app?vid=59b22a9b-50a3-4809-a1b1-b5e35e3c9c2c","ios":"levelo://app?vid=59b22a9b-50a3-4809-a1b1-b5e35e3c9c2c"},"vehicle_type_id":"4","last_reported":1756383652,"current_range_meters":10800,"station_id":"ce4bgv12rcd13ifvqcp0","pricing_plan_id":"cebpf4jnsgd1na2vs0mg"},{"bike_id":"529de1d8-1819-4280-9714-aac323f5bf01","system_id":"levelo_inurba_marseille","lat":43.24389,"lon":5.37067,"is_reserved":false,"is_disabled":false,"rental_uris":{"android":"levelo://app?vid=529de1d8-1819-4280-9714-aac323f5bf01","ios":"levelo://app?vid=529de1d8-1819-4280-9714-aac323f5bf01"},"vehicle_type_id":"4","last_reported":1756383652,"current_range_meters":11200,"station_id":"ce4bhhh2rcd13ifvqfk0","pricing_plan_id":"cebpf4jnsgd1na2vs0mg"},{"bike_id":"c308a772-8fe0-42a9-b0d4-bd11d356e06f","system_id":"levelo_inurba_marseille","lat":43.26558,"lon":5.37284,"is_reserved":false,"is_disabled":false,"rental_uris":{"android":"levelo://app?vid=c308a772-8fe0-42a9-b0d4-bd11d356e06f","ios":"levelo://app?vid=c308a772-8fe0-42a9-b0d4-bd11d356e06f"},"vehicle_type_id":"4","last_reported":1756383652,"current_range_meters":11200,"station_id":"ce4bhg12rcd13ifvqf70","pricing_plan_id":"cebpf4jnsgd1na2vs0mg"},{"bike_id":"07322f43-b075-4348-ad13-c60d9dc8cfc0","system_id":"levelo_inurba_marseille","lat":43.27295,"lon":5.36287,"is_reserved":false,"is_disabled":false,"rental_uris":{"android":"levelo://app?vid=07322f43-b075-4348-ad13-c60d9dc8cfc0","ios":"levelo://app?vid=07322f43-b075-4348-ad13-c60d9dc8cfc0"},"vehicle_type_id":"4","last_reported":1756383652,"current_range_meters":11200,"station_id":"","pricing_plan_id":"cebpf4jnsgd1na2vs0mg"},{"bike_id":"ac0ea835-99bd-43af-8946-31e8413cf1fb","system_id":"levelo_inurba_marseille","lat":43.324726,"lon":5.365855,"is_reserved":false,"is_disabled":false,"rental_uris":{"android":"levelo://app?vid=ac0ea835-99bd-43af-8946-31e8413cf1fb","ios":"levelo://app?vid=ac0ea835-99bd-43af-8946-31e8413cf1fb"},"vehicle_type_id":"4","last_reported":1756383652,"current_range_meters":11600,"station_id":"ce4bhs12rcd13ifvqhvg","pricing_plan_id":"cebpf4jnsgd1na2vs0mg"},{"bike_id":"9cde9b13-9e7f-4dfb-85e9-279d385d3326","system_id":"levelo_inurba_marseille","lat":43.29251,"lon":5.36858,"is_reserved":false,"is_disabled":false,"rental_uris":{"android":"levelo://app?vid=9cde9b13-9e7f-4dfb-85e9-279d385d3326","ios":"levelo://app?vid=9cde9b13-9e7f-4dfb-85e9-279d385d3326"},"vehicle_type_id":"4","last_reported":1756383652,"current_range_meters":11600,"station_id":"ce4bhbp2rcd13ifvqesg","pricing_plan_id":"cebpf4jnsgd1na2vs0mg"},{"bike_id":"c67682e4-ad86-4b65-b4ef-e774963b7e60","system_id":"levelo_inurba_marseille","lat":43.23191,"lon":5.35601,"is_reserved":false,"is_disabled":false,"rental_uris":{"android":"levelo://app?vid=c67682e4-ad86-4b65-b4ef-e774963b7e60","ios":"levelo://app?vid=c67682e4-ad86-4b65-b4ef-e774963b7e60"},"vehicle_type_id":"4","last_reported":1756383652,"current_range_meters":12000,"station_id":"ce4bhu92rcd13ifvqi70","pricing_plan_id":"cebpf4jnsgd1na2vs0mg"},{"bike_id":"d810acf0-5bd2-4bf1-848d-31cd30d105e6","system_id":"levelo_inurba_marseille","lat":43.269831,"lon":5.392782,"is_reserved":false,"is_disabled":false,"rental_uris":{"android":"levelo://app?vid=d810acf0-5bd2-4bf1-848d-31cd30d105e6","ios":"levelo://app?vid=d810acf0-5bd2-4bf1-848d-31cd30d105e6"},"vehicle_type_id":"4","last_reported":1756383652,"current_range_meters":12400,"station_id":"","pricing_plan_id":"cebpf4jnsgd1na2vs0mg"},{"bike_id":"d9d83070-7ad4-4497-998a-ec992778c110","system_id":"levelo_inurba_marseille","lat":43.28228,"lon":5.3899,"is_reserved":false,"is_disabled":false,"rental_uris":{"android":"levelo://app?vid=d9d83070-7ad4-4497-998a-ec992778c110","ios":"levelo://app?vid=d9d83070-7ad4-4497-998a-ec992778c110"},"vehicle_type_id":"4","last_reported":1756383652,"current_range_meters":12400,"station_id":"","pricing_plan_id":"cebpf4jnsgd1na2vs0mg"},{"bike_id":"dfd923d5-bbc8-4eb5-9a4d-c314c915676d","system_id":"levelo_inurba_marseille","lat":43.28268,"lon":5.35068,"is_reserved":false,"is_disabled":false,"rental_uris":{"android":"levelo://app?vid=dfd923d5-bbc8-4eb5-9a4d-c314c915676d","ios":"levelo://app?vid=dfd923d5-bbc8-4eb5-9a4d-c314c915676d"},"vehicle_type_id":"4","last_reported":1756383652,"current_range_meters":12000,"station_id":"ce4bhbp2rcd13ifvqerg","pricing_plan_id":"cebpf4jnsgd1na2vs0mg"},{"bike_id":"ffe6df59-3fc1-4d81-9326-f6f6418e7718","system_id":"levelo_inurba_marseille","lat":43.29771,"lon":5.37373,"is_reserved":false,"is_disabled":false,"rental_uris":{"android":"levelo://app?vid=ffe6df59-3fc1-4d81-9326-f6f6418e7718","ios":"levelo://app?vid=ffe6df59-3fc1-4d81-9326-f6f6418e7718"},"vehicle_type_id":"4","last_reported":1756383652,"current_range_meters":12800,"station_id":"","pricing_plan_id":"cebpf4jnsgd1na2vs0mg"},{"bike_id":"23ae6fed-deff-411b-8b6e-f95e32ccd4d0","system_id":"levelo_inurba_marseille","lat":43.321321,"lon":5.367684,"is_reserved":false,"is_disabled":false,"rental_uris":{"android":"levelo://app?vid=23ae6fed-deff-411b-8b6e-f95e32ccd4d0","ios":"levelo://app?vid=23ae6fed-deff-411b-8b6e-f95e32ccd4d0"},"vehicle_type_id":"4","last_reported":1756383652,"current_range_meters":12800,"station_id":"ce4bhrh2rcd13ifvqhug","pricing_plan_id":"cebpf4jnsgd1na2vs0mg"},{"bike_id":"9f03e1e2-4e9a-43c4-963b-4baf28706312","system_id":"levelo_inurba_marseille","lat":43.30551,"lon":5.36695,"is_reserved":false,"is_disabled":false,"rental_uris":{"android":"levelo://app?vid=9f03e1e2-4e9a-43c4-963b-4baf28706312","ios":"levelo://app?vid=9f03e1e2-4e9a-43c4-963b-4baf28706312"},"vehicle_type_id":"4","last_reported":1756383652,"current_range_meters":12800,"station_id":"ce4bgrp2rcd13ifvqc9g","pricing_plan_id":"cebpf4jnsgd1na2vs0mg"},{"bike_id":"c44bedcb-df6e-4aac-bc5a-92deddea45d5","system_id":"levelo_inurba_marseille","lat":43.29362,"lon":5.37835,"is_reserved":false,"is_disabled":false,"rental_uris":{"android":"levelo://app?vid=c44bedcb-df6e-4aac-bc5a-92deddea45d5","ios":"levelo://app?vid=c44bedcb-df6e-4aac-bc5a-92deddea45d5"},"vehicle_type_id":"4","last_reported":1756383652,"current_range_meters":13600,"station_id":"","pricing_plan_id":"cebpf4jnsgd1na2vs0mg"},{"bike_id":"9c401436-7aa7-494a-9cc1-967079e60b6f","system_id":"levelo_inurba_marseille","lat":43.25928,"lon":5.40916,"is_reserved":false,"is_disabled":false,"rental_uris":{"android":"levelo://app?vid=9c401436-7aa7-494a-9cc1-967079e60b6f","ios":"levelo://app?vid=9c401436-7aa7-494a-9cc1-967079e60b6f"},"vehicle_type_id":"4","last_reported":1756383652,"current_range_meters":13600,"station_id":"ce4bhm92rcd13ifvqglg","pricing_plan_id":"cebpf4jnsgd1na2vs0mg"},{"bike_id":"f7c3c5c3-3f9d-4827-ae22-55044f8171f0","system_id":"levelo_inurba_marseille","lat":43.29372,"lon":5.37846,"is_reserved":false,"is_disabled":false,"rental_uris":{"android":"levelo://app?vid=f7c3c5c3-3f9d-4827-ae22-55044f8171f0","ios":"levelo://app?vid=f7c3c5c3-3f9d-4827-ae22-55044f8171f0"},"vehicle_type_id":"4","last_reported":1756383652,"current_range_meters":14000,"station_id":"ce4bgjh2rcd13ifvqbf0","pricing_plan_id":"cebpf4jnsgd1na2vs0mg"},{"bike_id":"df801622-b393-4688-925a-6f17e6770d75","system_id":"levelo_inurba_marseille","lat":43.32662,"lon":5.40991,"is_reserved":false,"is_disabled":false,"rental_uris":{"android":"levelo://app?vid=df801622-b393-4688-925a-6f17e6770d75","ios":"levelo://app?vid=df801622-b393-4688-925a-6f17e6770d75"},"vehicle_type_id":"4","last_reported":1756383652,"current_range_meters":14000,"station_id":"ce4bhpp2rcd13ifvqhgg","pricing_plan_id":"cebpf4jnsgd1na2vs0mg"},{"bike_id":"d7ec9182-b6bd-4434-bc1a-733353fe431b","system_id":"levelo_inurba_marseille","lat":43.30883,"lon":5.39656,"is_reserved":false,"is_disabled":false,"rental_uris":{"android":"levelo://app?vid=d7ec9182-b6bd-4434-bc1a-733353fe431b","ios":"levelo://app?vid=d7ec9182-b6bd-4434-bc1a-733353fe431b"},"vehicle_type_id":"4","last_reported":1756383652,"current_range_meters":13600,"station_id":"ce4bh012rcd13ifvqcv0","pricing_plan_id":"cebpf4jnsgd1na2vs0mg"},{"bike_id":"58b0f458-6d83-41ca-9901-eee7b5b8a27a","system_id":"levelo_inurba_marseille","lat":43.26206,"lon":5.37442,"is_reserved":false,"is_disabled":false,"rental_uris":{"android":"levelo://app?vid=58b0f458-6d83-41ca-9901-eee7b5b8a27a","ios":"levelo://app?vid=58b0f458-6d83-41ca-9901-eee7b5b8a27a"},"vehicle_type_id":"4","last_reported":1756383652,"current_range_meters":14000,"station_id":"ce4bhgp2rcd13ifvqfc0","pricing_plan_id":"cebpf4jnsgd1na2vs0mg"},{"bike_id":"1091f287-02ee-4a66-888b-59c35fd65791","system_id":"levelo_inurba_marseille","lat":43.231919,"lon":5.355525,"is_reserved":false,"is_disabled":false,"rental_uris":{"android":"levelo://app?vid=1091f287-02ee-4a66-888b-59c35fd65791","ios":"levelo://app?vid=1091f287-02ee-4a66-888b-59c35fd65791"},"vehicle_type_id":"4","last_reported":1756383652,"current_range_meters":14000,"station_id":"ce4bhu92rcd13ifvqi70","pricing_plan_id":"cebpf4jnsgd1na2vs0mg"},{"bike_id":"6772850d-2dee-4ad5-893e-2335ed13d3ef","system_id":"levelo_inurba_marseille","lat":43.31359,"lon":5.36736,"is_reserved":false,"is_disabled":false,"rental_uris":{"android":"levelo://app?vid=6772850d-2dee-4ad5-893e-2335ed13d3ef","ios":"levelo://app?vid=6772850d-2dee-4ad5-893e-2335ed13d3ef"},"vehicle_type_id":"4","last_reported":1756383652,"current_range_meters":14000,"station_id":"ce4bgr92rcd13ifvqc6g","pricing_plan_id":"cebpf4jnsgd1na2vs0mg"},{"bike_id":"e2157c09-f51d-4d60-9654-c3b735f52046","system_id":"levelo_inurba_marseille","lat":43.26206,"lon":5.3744,"is_reserved":false,"is_disabled":false,"rental_uris":{"android":"levelo://app?vid=e2157c09-f51d-4d60-9654-c3b735f52046","ios":"levelo://app?vid=e2157c09-f51d-4d60-9654-c3b735f52046"},"vehicle_type_id":"4","last_reported":1756383652,"current_range_meters":14000,"station_id":"ce4bhgp2rcd13ifvqfc0","pricing_plan_id":"cebpf4jnsgd1na2vs0mg"},{"bike_id":"292038bc-157a-4457-9bfb-31bfbacb63a8","system_id":"levelo_inurba_marseille","lat":43.29363,"lon":5.37833,"is_reserved":false,"is_disabled":false,"rental_uris":{"android":"levelo://app?vid=292038bc-157a-4457-9bfb-31bfbacb63a8","ios":"levelo://app?vid=292038bc-157a-4457-9bfb-31bfbacb63a8"},"vehicle_type_id":"4","last_reported":1756383652,"current_range_meters":14000,"station_id":"","pricing_plan_id":"cebpf4jnsgd1na2vs0mg"},{"bike_id":"070848c5-3ae3-418d-ab2b-3c2af769def4","system_id":"levelo_inurba_marseille","lat":43.25969,"lon":5.40941,"is_reserved":false,"is_disabled":false,"rental_uris":{"android":"levelo://app?vid=070848c5-3ae3-418d-ab2b-3c2af769def4","ios":"levelo://app?vid=070848c5-3ae3-418d-ab2b-3c2af769def4"},"vehicle_type_id":"4","last_reported":1756383652,"current_range_meters":14000,"station_id":"","pricing_plan_id":"cebpf4jnsgd1na2vs0mg"},{"bike_id":"8df4d72a-2534-4225-b0d0-5b48bd4c7385","system_id":"levelo_inurba_marseille","lat":43.29439,"lon":5.39776,"is_reserved":false,"is_disabled":false,"rental_uris":{"android":"levelo://app?vid=8df4d72a-2534-4225-b0d0-5b48bd4c7385","ios":"levelo://app?vid=8df4d72a-2534-4225-b0d0-5b48bd4c7385"},"vehicle_type_id":"4","last_reported":1756383652,"current_range_meters":14400,"station_id":"ce4bh3h2rcd13ifvqdo0","pricing_plan_id":"cebpf4jnsgd1na2vs0mg"},{"bike_id":"6dc34e9a-4975-491d-94c1-cc7415938f0e","system_id":"levelo_inurba_marseille","lat":43.30593,"lon":5.39358,"is_reserved":false,"is_disabled":false,"rental_uris":{"android":"levelo://app?vid=6dc34e9a-4975-491d-94c1-cc7415938f0e","ios":"levelo://app?vid=6dc34e9a-4975-491d-94c1-cc7415938f0e"},"vehicle_type_id":"4","last_reported":1756383652,"current_range_meters":14400,"station_id":"ce4bh0p2rcd13ifvqd80","pricing_plan_id":"cebpf4jnsgd1na2vs0mg"},{"bike_id":"c2cd0eed-0660-43fa-9529-85eced50a498","system_id":"levelo_inurba_marseille","lat":43.29586,"lon":5.375227,"is_reserved":false,"is_disabled":false,"rental_uris":{"android":"levelo://app?vid=c2cd0eed-0660-43fa-9529-85eced50a498","ios":"levelo://app?vid=c2cd0eed-0660-43fa-9529-85eced50a498"},"vehicle_type_id":"4","last_reported":1756383652,"current_range_meters":14800,"station_id":"","pricing_plan_id":"cebpf4jnsgd1na2vs0mg"},{"bike_id":"ec0f9f0d-0796-42ac-9cf5-bb8596cdf342","system_id":"levelo_inurba_marseille","lat":43.21201,"lon":5.35076,"is_reserved":false,"is_disabled":false,"rental_uris":{"android":"levelo://app?vid=ec0f9f0d-0796-42ac-9cf5-bb8596cdf342","ios":"levelo://app?vid=ec0f9f0d-0796-42ac-9cf5-bb8596cdf342"},"vehicle_type_id":"4","last_reported":1756383652,"current_range_meters":14800,"station_id":"","pricing_plan_id":"cebpf4jnsgd1na2vs0mg"},{"bike_id":"615f9cb4-bc08-43f1-87ef-884359fe2e39","system_id":"levelo_inurba_marseille","lat":43.32361,"lon":5.3677,"is_reserved":false,"is_disabled":false,"rental_uris":{"android":"levelo://app?vid=615f9cb4-bc08-43f1-87ef-884359fe2e39","ios":"levelo://app?vid=615f9cb4-bc08-43f1-87ef-884359fe2e39"},"vehicle_type_id":"4","last_reported":1756383652,"current_range_meters":15200,"station_id":"ce4bhsh2rcd13ifvqi2g","pricing_plan_id":"cebpf4jnsgd1na2vs0mg"},{"bike_id":"533686dc-e263-4240-984f-1fcd6cac7776","system_id":"levelo_inurba_marseille","lat":43.2794,"lon":5.41039,"is_reserved":false,"is_disabled":false,"rental_uris":{"android":"levelo://app?vid=533686dc-e263-4240-984f-1fcd6cac7776","ios":"levelo://app?vid=533686dc-e263-4240-984f-1fcd6cac7776"},"vehicle_type_id":"4","last_reported":1756383652,"current_range_meters":15200,"station_id":"ce4bhnp2rcd13ifvqh0g","pricing_plan_id":"cebpf4jnsgd1na2vs0mg"},{"bike_id":"6e51d5d9-9f08-4273-8911-21fb24c92111","system_id":"levelo_inurba_marseille","lat":43.31489,"lon":5.37311,"is_reserved":false,"is_disabled":false,"rental_uris":{"android":"levelo://app?vid=6e51d5d9-9f08-4273-8911-21fb24c92111","ios":"levelo://app?vid=6e51d5d9-9f08-4273-8911-21fb24c92111"},"vehicle_type_id":"4","last_reported":1756383652,"current_range_meters":15200,"station_id":"ce4bgt12rcd13ifvqcd0","pricing_plan_id":"cebpf4jnsgd1na2vs0mg"},{"bike_id":"17e913a4-9bad-45a2-a833-803e708ff009","system_id":"levelo_inurba_marseille","lat":43.27985,"lon":5.3871,"is_reserved":false,"is_disabled":true,"rental_uris":{"android":"levelo://app?vid=17e913a4-9bad-45a2-a833-803e708ff009","ios":"levelo://app?vid=17e913a4-9bad-45a2-a833-803e708ff009"},"vehicle_type_id":"4","last_reported":1756383652,"current_range_meters":15200,"station_id":"ce4bhg12rcd13ifvqf80","pricing_plan_id":"cebpf4jnsgd1na2vs0mg"},{"bike_id":"c6ea87d3-99cd-40df-95ea-54551921edb0","system_id":"levelo_inurba_marseille","lat":43.25501,"lon":5.37648,"is_reserved":false,"is_disabled":false,"rental_uris":{"android":"levelo://app?vid=c6ea87d3-99cd-40df-95ea-54551921edb0","ios":"levelo://app?vid=c6ea87d3-99cd-40df-95ea-54551921edb0"},"vehicle_type_id":"4","last_reported":1756383652,"current_range_meters":15200,"station_id":"ce4bhh12rcd13ifvqff0","pricing_plan_id":"cebpf4jnsgd1na2vs0mg"},{"bike_id":"d4411ce1-1269-4134-adda-1eb61c16980f","system_id":"levelo_inurba_marseille","lat":43.280985,"lon":5.378423,"is_reserved":false,"is_disabled":false,"rental_uris":{"android":"levelo://app?vid=d4411ce1-1269-4134-adda-1eb61c16980f","ios":"levelo://app?vid=d4411ce1-1269-4134-adda-1eb61c16980f"},"vehicle_type_id":"4","last_reported":1756383652,"current_range_meters":16000,"station_id":"ce4bha12rcd13ifvqee0","pricing_plan_id":"cebpf4jnsgd1na2vs0mg"},{"bike_id":"82d9cb72-f6f8-4fda-b856-2f617fc890ac","system_id":"levelo_inurba_marseille","lat":43.24165,"lon":5.3971,"is_reserved":false,"is_disabled":false,"rental_uris":{"android":"levelo://app?vid=82d9cb72-f6f8-4fda-b856-2f617fc890ac","ios":"levelo://app?vid=82d9cb72-f6f8-4fda-b856-2f617fc890ac"},"vehicle_type_id":"4","last_reported":1756383652,"current_range_meters":16000,"station_id":"ce4bhn12rcd13ifvqgpg","pricing_plan_id":"cebpf4jnsgd1na2vs0mg"},{"bike_id":"00865bff-72de-47be-acda-9cf6ec16a836","system_id":"levelo_inurba_marseille","lat":43.321012,"lon":5.367757,"is_reserved":false,"is_disabled":false,"rental_uris":{"android":"levelo://app?vid=00865bff-72de-47be-acda-9cf6ec16a836","ios":"levelo://app?vid=00865bff-72de-47be-acda-9cf6ec16a836"},"vehicle_type_id":"4","last_reported":1756383652,"current_range_meters":16000,"station_id":"ce4bhrh2rcd13ifvqhug","pricing_plan_id":"cebpf4jnsgd1na2vs0mg"},{"bike_id":"259905c0-0b2a-48d2-8997-dcb3931ef5bd","system_id":"levelo_inurba_marseille","lat":43.28095,"lon":5.3785,"is_reserved":false,"is_disabled":false,"rental_uris":{"android":"levelo://app?vid=259905c0-0b2a-48d2-8997-dcb3931ef5bd","ios":"levelo://app?vid=259905c0-0b2a-48d2-8997-dcb3931ef5bd"},"vehicle_type_id":"4","last_reported":1756383652,"current_range_meters":16000,"station_id":"ce4bha12rcd13ifvqee0","pricing_plan_id":"cebpf4jnsgd1na2vs0mg"},{"bike_id":"071c92a0-4d4b-4370-8d86-7f0ac0e007f8","system_id":"levelo_inurba_marseille","lat":43.28229,"lon":5.3906,"is_reserved":false,"is_disabled":false,"rental_uris":{"android":"levelo://app?vid=071c92a0-4d4b-4370-8d86-7f0ac0e007f8","ios":"levelo://app?vid=071c92a0-4d4b-4370-8d86-7f0ac0e007f8"},"vehicle_type_id":"4","last_reported":1756383652,"current_range_meters":16000,"station_id":"ce4bhn92rcd13ifvqgsg","pricing_plan_id":"cebpf4jnsgd1na2vs0mg"},{"bike_id":"1f061b04-26a2-47db-a95d-c828de2f77ca","system_id":"levelo_inurba_marseille","lat":43.29571,"lon":5.37528,"is_reserved":false,"is_disabled":false,"rental_uris":{"android":"levelo://app?vid=1f061b04-26a2-47db-a95d-c828de2f77ca","ios":"levelo://app?vid=1f061b04-26a2-47db-a95d-c828de2f77ca"},"vehicle_type_id":"4","last_reported":1756383652,"current_range_meters":16000,"station_id":"ce4bgh92rcd13ifvqb50","pricing_plan_id":"cebpf4jnsgd1na2vs0mg"},{"bike_id":"29c55d68-58c5-4ef2-b442-72bb9c55ddb0","system_id":"levelo_inurba_marseille","lat":43.323648,"lon":5.367619,"is_reserved":false,"is_disabled":false,"rental_uris":{"android":"levelo://app?vid=29c55d68-58c5-4ef2-b442-72bb9c55ddb0","ios":"levelo://app?vid=29c55d68-58c5-4ef2-b442-72bb9c55ddb0"},"vehicle_type_id":"4","last_reported":1756383652,"current_range_meters":16000,"station_id":"ce4bhsh2rcd13ifvqi2g","pricing_plan_id":"cebpf4jnsgd1na2vs0mg"},{"bike_id":"00d760bd-97d3-4734-8d89-5bd4b32cc048","system_id":"levelo_inurba_marseille","lat":43.29087,"lon":5.38138,"is_reserved":false,"is_disabled":false,"rental_uris":{"android":"levelo://app?vid=00d760bd-97d3-4734-8d89-5bd4b32cc048","ios":"levelo://app?vid=00d760bd-97d3-4734-8d89-5bd4b32cc048"},"vehicle_type_id":"4","last_reported":1756383652,"current_range_meters":15200,"station_id":"ce4bh512rcd13ifvqe2g","pricing_plan_id":"cebpf4jnsgd1na2vs0mg"},{"bike_id":"d0a92e61-7122-4ad6-a0d1-9d37d94ce062","system_id":"levelo_inurba_marseille","lat":43.29714,"lon":5.3905,"is_reserved":false,"is_disabled":false,"rental_uris":{"android":"levelo://app?vid=d0a92e61-7122-4ad6-a0d1-9d37d94ce062","ios":"levelo://app?vid=d0a92e61-7122-4ad6-a0d1-9d37d94ce062"},"vehicle_type_id":"4","last_reported":1756383652,"current_range_meters":16000,"station_id":"","pricing_plan_id":"cebpf4jnsgd1na2vs0mg"},{"bike_id":"db886a6e-1dd7-4ad6-80af-762275a5c8b0","system_id":"levelo_inurba_marseille","lat":43.279402,"lon":5.41046,"is_reserved":false,"is_disabled":false,"rental_uris":{"android":"levelo://app?vid=db886a6e-1dd7-4ad6-80af-762275a5c8b0","ios":"levelo://app?vid=db886a6e-1dd7-4ad6-80af-762275a5c8b0"},"vehicle_type_id":"4","last_reported":1756383652,"current_range_meters":16400,"station_id":"ce4bhnp2rcd13ifvqh0g","pricing_plan_id":"cebpf4jnsgd1na2vs0mg"},{"bike_id":"617f2013-95c7-457e-9577-1bd6f61a2ddf","system_id":"levelo_inurba_marseille","lat":43.2993,"lon":5.36537,"is_reserved":false,"is_disabled":false,"rental_uris":{"android":"levelo://app?vid=617f2013-95c7-457e-9577-1bd6f61a2ddf","ios":"levelo://app?vid=617f2013-95c7-457e-9577-1bd6f61a2ddf"},"vehicle_type_id":"4","last_reported":1756383652,"current_range_meters":16400,"station_id":"ce4bgm92rcd13ifvqbr0","pricing_plan_id":"cebpf4jnsgd1na2vs0mg"},{"bike_id":"62a8c0bf-06af-44b2-acbd-3e96055782c5","system_id":"levelo_inurba_marseille","lat":43.23076,"lon":5.35486,"is_reserved":false,"is_disabled":false,"rental_uris":{"android":"levelo://app?vid=62a8c0bf-06af-44b2-acbd-3e96055782c5","ios":"levelo://app?vid=62a8c0bf-06af-44b2-acbd-3e96055782c5"},"vehicle_type_id":"4","last_reported":1756383652,"current_range_meters":16400,"station_id":"cpo3342slgdg3j2ifvpg","pricing_plan_id":"cebpf4jnsgd1na2vs0mg"},{"bike_id":"5f206062-a31e-4cd5-b87f-24422ce31db1","system_id":"levelo_inurba_marseille","lat":43.29027,"lon":5.38637,"is_reserved":false,"is_disabled":false,"rental_uris":{"android":"levelo://app?vid=5f206062-a31e-4cd5-b87f-24422ce31db1","ios":"levelo://app?vid=5f206062-a31e-4cd5-b87f-24422ce31db1"},"vehicle_type_id":"4","last_reported":1756383652,"current_range_meters":16400,"station_id":"ce4bh4p2rcd13ifvqe0g","pricing_plan_id":"cebpf4jnsgd1na2vs0mg"},{"bike_id":"adec8780-3b9c-4278-a995-fd3bfbe634f7","system_id":"levelo_inurba_marseille","lat":43.28923,"lon":5.38399,"is_reserved":false,"is_disabled":false,"rental_uris":{"android":"levelo://app?vid=adec8780-3b9c-4278-a995-fd3bfbe634f7","ios":"levelo://app?vid=adec8780-3b9c-4278-a995-fd3bfbe634f7"},"vehicle_type_id":"4","last_reported":1756383652,"current_range_meters":16400,"station_id":"ce4bh612rcd13ifvqe6g","pricing_plan_id":"cebpf4jnsgd1na2vs0mg"},{"bike_id":"caf25334-dc40-42cd-b64b-576b94294987","system_id":"levelo_inurba_marseille","lat":43.26566,"lon":5.39043,"is_reserved":false,"is_disabled":false,"rental_uris":{"android":"levelo://app?vid=caf25334-dc40-42cd-b64b-576b94294987","ios":"levelo://app?vid=caf25334-dc40-42cd-b64b-576b94294987"},"vehicle_type_id":"4","last_reported":1756383652,"current_range_meters":16800,"station_id":"ce4bhe12rcd13ifvqf30","pricing_plan_id":"cebpf4jnsgd1na2vs0mg"},{"bike_id":"76853953-4750-4c5e-a02d-c060c687f7f4","system_id":"levelo_inurba_marseille","lat":43.26557,"lon":5.37303,"is_reserved":false,"is_disabled":false,"rental_uris":{"android":"levelo://app?vid=76853953-4750-4c5e-a02d-c060c687f7f4","ios":"levelo://app?vid=76853953-4750-4c5e-a02d-c060c687f7f4"},"vehicle_type_id":"4","last_reported":1756383652,"current_range_meters":16800,"station_id":"ce4bhg12rcd13ifvqf70","pricing_plan_id":"cebpf4jnsgd1na2vs0mg"},{"bike_id":"23d86b53-9a0f-4ce2-ba02-d400d3922931","system_id":"levelo_inurba_marseille","lat":43.27329,"lon":5.39138,"is_reserved":false,"is_disabled":false,"rental_uris":{"android":"levelo://app?vid=23d86b53-9a0f-4ce2-ba02-d400d3922931","ios":"levelo://app?vid=23d86b53-9a0f-4ce2-ba02-d400d3922931"},"vehicle_type_id":"4","last_reported":1756383652,"current_range_meters":16800,"station_id":"","pricing_plan_id":"cebpf4jnsgd1na2vs0mg"},{"bike_id":"d535bf59-462f-46ae-b9fb-52bfa64316d1","system_id":"levelo_inurba_marseille","lat":43.241771,"lon":5.397269,"is_reserved":false,"is_disabled":false,"rental_uris":{"android":"levelo://app?vid=d535bf59-462f-46ae-b9fb-52bfa64316d1","ios":"levelo://app?vid=d535bf59-462f-46ae-b9fb-52bfa64316d1"},"vehicle_type_id":"4","last_reported":1756383652,"current_range_meters":16800,"station_id":"ce4bhn12rcd13ifvqgpg","pricing_plan_id":"cebpf4jnsgd1na2vs0mg"},{"bike_id":"1d6d2e3d-e6be-45f3-9550-08daca30c94e","system_id":"levelo_inurba_marseille","lat":43.231454,"lon":5.437096,"is_reserved":false,"is_disabled":false,"rental_uris":{"android":"levelo://app?vid=1d6d2e3d-e6be-45f3-9550-08daca30c94e","ios":"levelo://app?vid=1d6d2e3d-e6be-45f3-9550-08daca30c94e"},"vehicle_type_id":"4","last_reported":1756383652,"current_range_meters":16800,"station_id":"ce4bhmp2rcd13ifvqgog","pricing_plan_id":"cebpf4jnsgd1na2vs0mg"},{"bike_id":"8a3d08a4-6e22-43fc-a3af-efea32020201","system_id":"levelo_inurba_marseille","lat":43.32361,"lon":5.36754,"is_reserved":false,"is_disabled":false,"rental_uris":{"android":"levelo://app?vid=8a3d08a4-6e22-43fc-a3af-efea32020201","ios":"levelo://app?vid=8a3d08a4-6e22-43fc-a3af-efea32020201"},"vehicle_type_id":"4","last_reported":1756383652,"current_range_meters":16800,"station_id":"ce4bhsh2rcd13ifvqi2g","pricing_plan_id":"cebpf4jnsgd1na2vs0mg"},{"bike_id":"151f1598-2786-4837-81d9-c8202439829c","system_id":"levelo_inurba_marseille","lat":43.29916,"lon":5.38527,"is_reserved":false,"is_disabled":false,"rental_uris":{"android":"levelo://app?vid=151f1598-2786-4837-81d9-c8202439829c","ios":"levelo://app?vid=151f1598-2786-4837-81d9-c8202439829c"},"vehicle_type_id":"4","last_reported":1756383652,"current_range_meters":16800,"station_id":"","pricing_plan_id":"cebpf4jnsgd1na2vs0mg"},{"bike_id":"a105b77d-2efb-4159-9821-8cb9fb53320e","system_id":"levelo_inurba_marseille","lat":43.231917,"lon":5.399934,"is_reserved":false,"is_disabled":false,"rental_uris":{"android":"levelo://app?vid=a105b77d-2efb-4159-9821-8cb9fb53320e","ios":"levelo://app?vid=a105b77d-2efb-4159-9821-8cb9fb53320e"},"vehicle_type_id":"4","last_reported":1756383652,"current_range_meters":16800,"station_id":"ce4bhn12rcd13ifvqgqg","pricing_plan_id":"cebpf4jnsgd1na2vs0mg"},{"bike_id":"ea2ebec9-531e-4177-847e-eff58c0856fb","system_id":"levelo_inurba_marseille","lat":43.30616,"lon":5.37232,"is_reserved":false,"is_disabled":false,"rental_uris":{"android":"levelo://app?vid=ea2ebec9-531e-4177-847e-eff58c0856fb","ios":"levelo://app?vid=ea2ebec9-531e-4177-847e-eff58c0856fb"},"vehicle_type_id":"4","last_reported":1756383652,"current_range_meters":16800,"station_id":"ce4bgqh2rcd13ifvqc4g","pricing_plan_id":"cebpf4jnsgd1na2vs0mg"},{"bike_id":"42515969-df58-4bc3-81b4-d2c5b3092781","system_id":"levelo_inurba_marseille","lat":43.27733,"lon":5.42016,"is_reserved":false,"is_disabled":false,"rental_uris":{"android":"levelo://app?vid=42515969-df58-4bc3-81b4-d2c5b3092781","ios":"levelo://app?vid=42515969-df58-4bc3-81b4-d2c5b3092781"},"vehicle_type_id":"4","last_reported":1756383652,"current_range_meters":17200,"station_id":"","pricing_plan_id":"cebpf4jnsgd1na2vs0mg"},{"bike_id":"2592d48e-4f91-4661-a841-16b2ce57828c","system_id":"levelo_inurba_marseille","lat":43.24229,"lon":5.38734,"is_reserved":false,"is_disabled":false,"rental_uris":{"android":"levelo://app?vid=2592d48e-4f91-4661-a841-16b2ce57828c","ios":"levelo://app?vid=2592d48e-4f91-4661-a841-16b2ce57828c"},"vehicle_type_id":"4","last_reported":1756383652,"current_range_meters":17200,"station_id":"","pricing_plan_id":"cebpf4jnsgd1na2vs0mg"},{"bike_id":"ee6f853e-fe44-40c6-8197-71e5ebc9de78","system_id":"levelo_inurba_marseille","lat":43.23155,"lon":5.4371,"is_reserved":false,"is_disabled":false,"rental_uris":{"android":"levelo://app?vid=ee6f853e-fe44-40c6-8197-71e5ebc9de78","ios":"levelo://app?vid=ee6f853e-fe44-40c6-8197-71e5ebc9de78"},"vehicle_type_id":"4","last_reported":1756383652,"current_range_meters":16400,"station_id":"ce4bhmp2rcd13ifvqgog","pricing_plan_id":"cebpf4jnsgd1na2vs0mg"},{"bike_id":"82a882ce-d29e-4ffa-b47c-a2a765fb017d","system_id":"levelo_inurba_marseille","lat":43.298971,"lon":5.436718,"is_reserved":false,"is_disabled":false,"rental_uris":{"android":"levelo://app?vid=82a882ce-d29e-4ffa-b47c-a2a765fb017d","ios":"levelo://app?vid=82a882ce-d29e-4ffa-b47c-a2a765fb017d"},"vehicle_type_id":"4","last_reported":1756383652,"current_range_meters":17600,"station_id":"ce4bhpp2rcd13ifvqhfg","pricing_plan_id":"cebpf4jnsgd1na2vs0mg"},{"bike_id":"70a041f0-2913-4688-99f3-56fcf5f2413b","system_id":"levelo_inurba_marseille","lat":43.24139,"lon":5.39789,"is_reserved":false,"is_disabled":false,"rental_uris":{"android":"levelo://app?vid=70a041f0-2913-4688-99f3-56fcf5f2413b","ios":"levelo://app?vid=70a041f0-2913-4688-99f3-56fcf5f2413b"},"vehicle_type_id":"4","last_reported":1756383652,"current_range_meters":17200,"station_id":"","pricing_plan_id":"cebpf4jnsgd1na2vs0mg"},{"bike_id":"06669016-cd47-459f-9dbc-b8f7fe75d379","system_id":"levelo_inurba_marseille","lat":43.32284,"lon":5.38271,"is_reserved":false,"is_disabled":false,"rental_uris":{"android":"levelo://app?vid=06669016-cd47-459f-9dbc-b8f7fe75d379","ios":"levelo://app?vid=06669016-cd47-459f-9dbc-b8f7fe75d379"},"vehicle_type_id":"4","last_reported":1756383652,"current_range_meters":17200,"station_id":"ce4bhr12rcd13ifvqhqg","pricing_plan_id":"cebpf4jnsgd1na2vs0mg"},{"bike_id":"199a26fc-c8bd-4430-8e37-f35ceea30614","system_id":"levelo_inurba_marseille","lat":43.26226,"lon":5.40451,"is_reserved":false,"is_disabled":false,"rental_uris":{"android":"levelo://app?vid=199a26fc-c8bd-4430-8e37-f35ceea30614","ios":"levelo://app?vid=199a26fc-c8bd-4430-8e37-f35ceea30614"},"vehicle_type_id":"4","last_reported":1756383652,"current_range_meters":17200,"station_id":"ce4bhmh2rcd13ifvqgmg","pricing_plan_id":"cebpf4jnsgd1na2vs0mg"},{"bike_id":"8d377e8b-3118-409b-8b6b-bceec5296942","system_id":"levelo_inurba_marseille","lat":43.34167,"lon":5.40888,"is_reserved":false,"is_disabled":false,"rental_uris":{"android":"levelo://app?vid=8d377e8b-3118-409b-8b6b-bceec5296942","ios":"levelo://app?vid=8d377e8b-3118-409b-8b6b-bceec5296942"},"vehicle_type_id":"4","last_reported":1756383652,"current_range_meters":16800,"station_id":"ce4bhqh2rcd13ifvqhlg","pricing_plan_id":"cebpf4jnsgd1na2vs0mg"},{"bike_id":"92594421-8cf0-4b8b-889c-a8296396cf9c","system_id":"levelo_inurba_marseille","lat":43.30147,"lon":5.38082,"is_reserved":false,"is_disabled":false,"rental_uris":{"android":"levelo://app?vid=92594421-8cf0-4b8b-889c-a8296396cf9c","ios":"levelo://app?vid=92594421-8cf0-4b8b-889c-a8296396cf9c"},"vehicle_type_id":"4","last_reported":1756383652,"current_range_meters":17200,"station_id":"ce4bgjp2rcd13ifvqbh0","pricing_plan_id":"cebpf4jnsgd1na2vs0mg"},{"bike_id":"c8ed8afa-4750-4d5e-b29e-7da3cd8f4dc7","system_id":"levelo_inurba_marseille","lat":43.32315,"lon":5.36729,"is_reserved":false,"is_disabled":false,"rental_uris":{"android":"levelo://app?vid=c8ed8afa-4750-4d5e-b29e-7da3cd8f4dc7","ios":"levelo://app?vid=c8ed8afa-4750-4d5e-b29e-7da3cd8f4dc7"},"vehicle_type_id":"4","last_reported":1756383652,"current_range_meters":17200,"station_id":"ce4bhsh2rcd13ifvqi2g","pricing_plan_id":"cebpf4jnsgd1na2vs0mg"},{"bike_id":"e1c3040f-3fd8-4122-a6f9-5cce72b5b31a","system_id":"levelo_inurba_marseille","lat":43.26286,"lon":5.39889,"is_reserved":false,"is_disabled":false,"rental_uris":{"android":"levelo://app?vid=e1c3040f-3fd8-4122-a6f9-5cce72b5b31a","ios":"levelo://app?vid=e1c3040f-3fd8-4122-a6f9-5cce72b5b31a"},"vehicle_type_id":"4","last_reported":1756383652,"current_range_meters":17600,"station_id":"","pricing_plan_id":"cebpf4jnsgd1na2vs0mg"},{"bike_id":"5e3b76f4-9b4a-4eff-b48c-52fca0568bd9","system_id":"levelo_inurba_marseille","lat":43.29577,"lon":5.36743,"is_reserved":false,"is_disabled":false,"rental_uris":{"android":"levelo://app?vid=5e3b76f4-9b4a-4eff-b48c-52fca0568bd9","ios":"levelo://app?vid=5e3b76f4-9b4a-4eff-b48c-52fca0568bd9"},"vehicle_type_id":"4","last_reported":1756383652,"current_range_meters":17600,"station_id":"ce4bgph2rcd13ifvqc2g","pricing_plan_id":"cebpf4jnsgd1na2vs0mg"},{"bike_id":"6c585c9e-34d5-486a-b1ef-53c3ee6bf89b","system_id":"levelo_inurba_marseille","lat":43.27981,"lon":5.38712,"is_reserved":false,"is_disabled":true,"rental_uris":{"android":"levelo://app?vid=6c585c9e-34d5-486a-b1ef-53c3ee6bf89b","ios":"levelo://app?vid=6c585c9e-34d5-486a-b1ef-53c3ee6bf89b"},"vehicle_type_id":"4","last_reported":1756383652,"current_range_meters":17600,"station_id":"ce4bhg12rcd13ifvqf80","pricing_plan_id":"cebpf4jnsgd1na2vs0mg"},{"bike_id":"ca808d34-9391-4691-b4c5-e9180d9c16d9","system_id":"levelo_inurba_marseille","lat":43.25338,"lon":5.4217,"is_reserved":false,"is_disabled":false,"rental_uris":{"android":"levelo://app?vid=ca808d34-9391-4691-b4c5-e9180d9c16d9","ios":"levelo://app?vid=ca808d34-9391-4691-b4c5-e9180d9c16d9"},"vehicle_type_id":"4","last_reported":1756383652,"current_range_meters":17600,"station_id":"st_d2m65c5bi1j21697t3ng","pricing_plan_id":"cebpf4jnsgd1na2vs0mg"},{"bike_id":"ab172cdd-c6a4-444d-8f63-4acd6166670c","system_id":"levelo_inurba_marseille","lat":43.269099,"lon":5.402543,"is_reserved":false,"is_disabled":false,"rental_uris":{"android":"levelo://app?vid=ab172cdd-c6a4-444d-8f63-4acd6166670c","ios":"levelo://app?vid=ab172cdd-c6a4-444d-8f63-4acd6166670c"},"vehicle_type_id":"4","last_reported":1756383652,"current_range_meters":17600,"station_id":"cjm6bp8fraef2m0cb0m0","pricing_plan_id":"cebpf4jnsgd1na2vs0mg"},{"bike_id":"c34a389b-e2e4-444b-af19-544b2fd6323c","system_id":"levelo_inurba_marseille","lat":43.28614,"lon":5.35101,"is_reserved":false,"is_disabled":false,"rental_uris":{"android":"levelo://app?vid=c34a389b-e2e4-444b-af19-544b2fd6323c","ios":"levelo://app?vid=c34a389b-e2e4-444b-af19-544b2fd6323c"},"vehicle_type_id":"4","last_reported":1756383652,"current_range_meters":17600,"station_id":"ce4bhch2rcd13ifvqeug","pricing_plan_id":"cebpf4jnsgd1na2vs0mg"},{"bike_id":"a3e4ee41-5175-47da-ad6e-4c5ae3eb42d9","system_id":"levelo_inurba_marseille","lat":43.21187,"lon":5.35064,"is_reserved":false,"is_disabled":false,"rental_uris":{"android":"levelo://app?vid=a3e4ee41-5175-47da-ad6e-4c5ae3eb42d9","ios":"levelo://app?vid=a3e4ee41-5175-47da-ad6e-4c5ae3eb42d9"},"vehicle_type_id":"4","last_reported":1756383652,"current_range_meters":17600,"station_id":"st_cvj6sg6p6f1abm77japg","pricing_plan_id":"cebpf4jnsgd1na2vs0mg"},{"bike_id":"f4a81e88-ae7f-457e-8048-08be3e4d2bca","system_id":"levelo_inurba_marseille","lat":43.27208,"lon":5.39186,"is_reserved":false,"is_disabled":true,"rental_uris":{"android":"levelo://app?vid=f4a81e88-ae7f-457e-8048-08be3e4d2bca","ios":"levelo://app?vid=f4a81e88-ae7f-457e-8048-08be3e4d2bca"},"vehicle_type_id":"4","last_reported":1756383652,"current_range_meters":17600,"station_id":"ce4bhhp2rcd13ifvqfm0","pricing_plan_id":"cebpf4jnsgd1na2vs0mg"},{"bike_id":"fd4d9e05-8373-4ab5-9aab-90d4feb0aee9","system_id":"levelo_inurba_marseille","lat":43.27924,"lon":5.3958,"is_reserved":false,"is_disabled":false,"rental_uris":{"android":"levelo://app?vid=fd4d9e05-8373-4ab5-9aab-90d4feb0aee9","ios":"levelo://app?vid=fd4d9e05-8373-4ab5-9aab-90d4feb0aee9"},"vehicle_type_id":"4","last_reported":1756383652,"current_range_meters":18000,"station_id":"ce4bhf92rcd13ifvqf40","pricing_plan_id":"cebpf4jnsgd1na2vs0mg"},{"bike_id":"731ff345-1377-45e9-acf9-0825f15b172a","system_id":"levelo_inurba_marseille","lat":43.22926,"lon":5.35388,"is_reserved":false,"is_disabled":false,"rental_uris":{"android":"levelo://app?vid=731ff345-1377-45e9-acf9-0825f15b172a","ios":"levelo://app?vid=731ff345-1377-45e9-acf9-0825f15b172a"},"vehicle_type_id":"4","last_reported":1756383652,"current_range_meters":18000,"station_id":"cpo3532slgdg3j2ikp40","pricing_plan_id":"cebpf4jnsgd1na2vs0mg"},{"bike_id":"f69dd816-d0a3-4b89-b996-27695800f3ae","system_id":"levelo_inurba_marseille","lat":43.23962,"lon":5.36635,"is_reserved":false,"is_disabled":false,"rental_uris":{"android":"levelo://app?vid=f69dd816-d0a3-4b89-b996-27695800f3ae","ios":"levelo://app?vid=f69dd816-d0a3-4b89-b996-27695800f3ae"},"vehicle_type_id":"4","last_reported":1756383652,"current_range_meters":18000,"station_id":"ce4bhi12rcd13ifvqfp0","pricing_plan_id":"cebpf4jnsgd1na2vs0mg"},{"bike_id":"f0384fbb-6485-4c18-9cc5-2fe16aa6e603","system_id":"levelo_inurba_marseille","lat":43.2417,"lon":5.36394,"is_reserved":false,"is_disabled":false,"rental_uris":{"android":"levelo://app?vid=f0384fbb-6485-4c18-9cc5-2fe16aa6e603","ios":"levelo://app?vid=f0384fbb-6485-4c18-9cc5-2fe16aa6e603"},"vehicle_type_id":"4","last_reported":1756383652,"current_range_meters":18000,"station_id":"cpo36qri1sfpv3e86is0","pricing_plan_id":"cebpf4jnsgd1na2vs0mg"},{"bike_id":"d1b1290c-bb4a-43b8-a1c6-41e14e9eb4de","system_id":"levelo_inurba_marseille","lat":43.25122,"lon":5.40324,"is_reserved":false,"is_disabled":false,"rental_uris":{"android":"levelo://app?vid=d1b1290c-bb4a-43b8-a1c6-41e14e9eb4de","ios":"levelo://app?vid=d1b1290c-bb4a-43b8-a1c6-41e14e9eb4de"},"vehicle_type_id":"4","last_reported":1756383652,"current_range_meters":18000,"station_id":"ce4bhlh2rcd13ifvqgig","pricing_plan_id":"cebpf4jnsgd1na2vs0mg"},{"bike_id":"679dd2c2-03ba-464f-b4ca-d253d6e39f03","system_id":"levelo_inurba_marseille","lat":43.28422,"lon":5.34987,"is_reserved":false,"is_disabled":false,"rental_uris":{"android":"levelo://app?vid=679dd2c2-03ba-464f-b4ca-d253d6e39f03","ios":"levelo://app?vid=679dd2c2-03ba-464f-b4ca-d253d6e39f03"},"vehicle_type_id":"4","last_reported":1756383652,"current_range_meters":18000,"station_id":"ce4bhbh2rcd13ifvqepg","pricing_plan_id":"cebpf4jnsgd1na2vs0mg"},{"bike_id":"fc335984-428d-4b89-8e33-02d6886b5377","system_id":"levelo_inurba_marseille","lat":43.2417,"lon":5.39725,"is_reserved":false,"is_disabled":false,"rental_uris":{"android":"levelo://app?vid=fc335984-428d-4b89-8e33-02d6886b5377","ios":"levelo://app?vid=fc335984-428d-4b89-8e33-02d6886b5377"},"vehicle_type_id":"4","last_reported":1756383652,"current_range_meters":18000,"station_id":"ce4bhn12rcd13ifvqgpg","pricing_plan_id":"cebpf4jnsgd1na2vs0mg"},{"bike_id":"8fc24c7d-fb83-4ae5-b858-f5f293f11379","system_id":"levelo_inurba_marseille","lat":43.296158,"lon":5.377134,"is_reserved":false,"is_disabled":false,"rental_uris":{"android":"levelo://app?vid=8fc24c7d-fb83-4ae5-b858-f5f293f11379","ios":"levelo://app?vid=8fc24c7d-fb83-4ae5-b858-f5f293f11379"},"vehicle_type_id":"4","last_reported":1756383652,"current_range_meters":18000,"station_id":"ce4bgi92rcd13ifvqb90","pricing_plan_id":"cebpf4jnsgd1na2vs0mg"},{"bike_id":"5f93eee0-aa0a-4b50-8491-24f509561135","system_id":"levelo_inurba_marseille","lat":43.31484,"lon":5.37299,"is_reserved":false,"is_disabled":false,"rental_uris":{"android":"levelo://app?vid=5f93eee0-aa0a-4b50-8491-24f509561135","ios":"levelo://app?vid=5f93eee0-aa0a-4b50-8491-24f509561135"},"vehicle_type_id":"4","last_reported":1756383652,"current_range_meters":18800,"station_id":"ce4bgt12rcd13ifvqcd0","pricing_plan_id":"cebpf4jnsgd1na2vs0mg"},{"bike_id":"bd3d43c4-42cb-47a1-a4a1-1bea9a4b8466","system_id":"levelo_inurba_marseille","lat":43.29572,"lon":5.3752,"is_reserved":false,"is_disabled":false,"rental_uris":{"android":"levelo://app?vid=bd3d43c4-42cb-47a1-a4a1-1bea9a4b8466","ios":"levelo://app?vid=bd3d43c4-42cb-47a1-a4a1-1bea9a4b8466"},"vehicle_type_id":"4","last_reported":1756383652,"current_range_meters":18800,"station_id":"ce4bgh92rcd13ifvqb50","pricing_plan_id":"cebpf4jnsgd1na2vs0mg"},{"bike_id":"af0e337f-d4cf-4e28-9020-c2f2b620012b","system_id":"levelo_inurba_marseille","lat":43.22931,"lon":5.35381,"is_reserved":false,"is_disabled":false,"rental_uris":{"android":"levelo://app?vid=af0e337f-d4cf-4e28-9020-c2f2b620012b","ios":"levelo://app?vid=af0e337f-d4cf-4e28-9020-c2f2b620012b"},"vehicle_type_id":"4","last_reported":1756383652,"current_range_meters":18800,"station_id":"cpo3532slgdg3j2ikp40","pricing_plan_id":"cebpf4jnsgd1na2vs0mg"},{"bike_id":"60863403-b289-4c9c-b2d0-3d448abf417f","system_id":"levelo_inurba_marseille","lat":43.28268,"lon":5.35068,"is_reserved":false,"is_disabled":true,"rental_uris":{"android":"levelo://app?vid=60863403-b289-4c9c-b2d0-3d448abf417f","ios":"levelo://app?vid=60863403-b289-4c9c-b2d0-3d448abf417f"},"vehicle_type_id":"4","last_reported":1756383652,"current_range_meters":18800,"station_id":"ce4bhbp2rcd13ifvqerg","pricing_plan_id":"cebpf4jnsgd1na2vs0mg"},{"bike_id":"0da4101a-8389-474f-a203-416bb53e9295","system_id":"levelo_inurba_marseille","lat":43.337544,"lon":5.374574,"is_reserved":false,"is_disabled":false,"rental_uris":{"android":"levelo://app?vid=0da4101a-8389-474f-a203-416bb53e9295","ios":"levelo://app?vid=0da4101a-8389-474f-a203-416bb53e9295"},"vehicle_type_id":"4","last_reported":1756383652,"current_range_meters":18800,"station_id":"","pricing_plan_id":"cebpf4jnsgd1na2vs0mg"},{"bike_id":"688af5fb-6252-4eed-9501-ed7d2b2be597","system_id":"levelo_inurba_marseille","lat":43.241632,"lon":5.364058,"is_reserved":false,"is_disabled":false,"rental_uris":{"android":"levelo://app?vid=688af5fb-6252-4eed-9501-ed7d2b2be597","ios":"levelo://app?vid=688af5fb-6252-4eed-9501-ed7d2b2be597"},"vehicle_type_id":"4","last_reported":1756383652,"current_range_meters":18800,"station_id":"cpo36qri1sfpv3e86is0","pricing_plan_id":"cebpf4jnsgd1na2vs0mg"},{"bike_id":"f7cd213d-8b5c-44c2-9a2a-6c74fe359cab","system_id":"levelo_inurba_marseille","lat":43.26016,"lon":5.37539,"is_reserved":false,"is_disabled":false,"rental_uris":{"android":"levelo://app?vid=f7cd213d-8b5c-44c2-9a2a-6c74fe359cab","ios":"levelo://app?vid=f7cd213d-8b5c-44c2-9a2a-6c74fe359cab"},"vehicle_type_id":"4","last_reported":1756383652,"current_range_meters":18800,"station_id":"","pricing_plan_id":"cebpf4jnsgd1na2vs0mg"},{"bike_id":"1a23cd83-b3fb-40b3-913e-523144d0ec1c","system_id":"levelo_inurba_marseille","lat":43.30736,"lon":5.42436,"is_reserved":false,"is_disabled":false,"rental_uris":{"android":"levelo://app?vid=1a23cd83-b3fb-40b3-913e-523144d0ec1c","ios":"levelo://app?vid=1a23cd83-b3fb-40b3-913e-523144d0ec1c"},"vehicle_type_id":"4","last_reported":1756383652,"current_range_meters":18800,"station_id":"st_cvj6ca6bvosntc0bfgr0","pricing_plan_id":"cebpf4jnsgd1na2vs0mg"},{"bike_id":"503ae16c-5391-4576-8386-5e3e42c72dbc","system_id":"levelo_inurba_marseille","lat":43.29914,"lon":5.38145,"is_reserved":false,"is_disabled":false,"rental_uris":{"android":"levelo://app?vid=503ae16c-5391-4576-8386-5e3e42c72dbc","ios":"levelo://app?vid=503ae16c-5391-4576-8386-5e3e42c72dbc"},"vehicle_type_id":"4","last_reported":1756383652,"current_range_meters":18000,"station_id":"ce4bgj12rcd13ifvqbc0","pricing_plan_id":"cebpf4jnsgd1na2vs0mg"},{"bike_id":"f7c72213-bc1f-4dc8-9236-f4004cdae7b1","system_id":"levelo_inurba_marseille","lat":43.217443,"lon":5.346041,"is_reserved":false,"is_disabled":false,"rental_uris":{"android":"levelo://app?vid=f7c72213-bc1f-4dc8-9236-f4004cdae7b1","ios":"levelo://app?vid=f7c72213-bc1f-4dc8-9236-f4004cdae7b1"},"vehicle_type_id":"4","last_reported":1756383652,"current_range_meters":18800,"station_id":"st_cvj6r9ubvosntc0bgbag","pricing_plan_id":"cebpf4jnsgd1na2vs0mg"},{"bike_id":"8a82cea5-e5cc-4fe0-bea7-72325d321d3b","system_id":"levelo_inurba_marseille","lat":43.31687,"lon":5.43709,"is_reserved":false,"is_disabled":false,"rental_uris":{"android":"levelo://app?vid=8a82cea5-e5cc-4fe0-bea7-72325d321d3b","ios":"levelo://app?vid=8a82cea5-e5cc-4fe0-bea7-72325d321d3b"},"vehicle_type_id":"4","last_reported":1756383652,"current_range_meters":18800,"station_id":"ce4bhp92rcd13ifvqhcg","pricing_plan_id":"cebpf4jnsgd1na2vs0mg"},{"bike_id":"000f2332-57ef-48e1-b908-0f5324afbde3","system_id":"levelo_inurba_marseille","lat":43.30554,"lon":5.36544,"is_reserved":false,"is_disabled":false,"rental_uris":{"android":"levelo://app?vid=000f2332-57ef-48e1-b908-0f5324afbde3","ios":"levelo://app?vid=000f2332-57ef-48e1-b908-0f5324afbde3"},"vehicle_type_id":"4","last_reported":1756383652,"current_range_meters":18800,"station_id":"ce4bgs12rcd13ifvqcag","pricing_plan_id":"cebpf4jnsgd1na2vs0mg"},{"bike_id":"159e778a-d20c-42da-86c4-bf4c3d4998a3","system_id":"levelo_inurba_marseille","lat":43.26229,"lon":5.37437,"is_reserved":false,"is_disabled":false,"rental_uris":{"android":"levelo://app?vid=159e778a-d20c-42da-86c4-bf4c3d4998a3","ios":"levelo://app?vid=159e778a-d20c-42da-86c4-bf4c3d4998a3"},"vehicle_type_id":"4","last_reported":1756383652,"current_range_meters":18800,"station_id":"","pricing_plan_id":"cebpf4jnsgd1na2vs0mg"},{"bike_id":"db409a24-d740-4742-b5be-636100fe35e9","system_id":"levelo_inurba_marseille","lat":43.28413,"lon":5.34989,"is_reserved":false,"is_disabled":false,"rental_uris":{"android":"levelo://app?vid=db409a24-d740-4742-b5be-636100fe35e9","ios":"levelo://app?vid=db409a24-d740-4742-b5be-636100fe35e9"},"vehicle_type_id":"4","last_reported":1756383652,"current_range_meters":18800,"station_id":"ce4bhbh2rcd13ifvqepg","pricing_plan_id":"cebpf4jnsgd1na2vs0mg"},{"bike_id":"daa67b3d-fc97-4380-8462-22d8b5674ead","system_id":"levelo_inurba_marseille","lat":43.29274,"lon":5.36848,"is_reserved":false,"is_disabled":false,"rental_uris":{"android":"levelo://app?vid=daa67b3d-fc97-4380-8462-22d8b5674ead","ios":"levelo://app?vid=daa67b3d-fc97-4380-8462-22d8b5674ead"},"vehicle_type_id":"4","last_reported":1756383652,"current_range_meters":19200,"station_id":"ce4bhbp2rcd13ifvqesg","pricing_plan_id":"cebpf4jnsgd1na2vs0mg"},{"bike_id":"ab2b2968-2afc-4029-82d1-f9d7f0e7846c","system_id":"levelo_inurba_marseille","lat":43.292618,"lon":5.376212,"is_reserved":false,"is_disabled":false,"rental_uris":{"android":"levelo://app?vid=ab2b2968-2afc-4029-82d1-f9d7f0e7846c","ios":"levelo://app?vid=ab2b2968-2afc-4029-82d1-f9d7f0e7846c"},"vehicle_type_id":"4","last_reported":1756383652,"current_range_meters":19200,"station_id":"ce4bgi12rcd13ifvqb80","pricing_plan_id":"cebpf4jnsgd1na2vs0mg"},{"bike_id":"e0300f92-32f0-4af0-a0ae-f13fe339461b","system_id":"levelo_inurba_marseille","lat":43.29258,"lon":5.37629,"is_reserved":false,"is_disabled":false,"rental_uris":{"android":"levelo://app?vid=e0300f92-32f0-4af0-a0ae-f13fe339461b","ios":"levelo://app?vid=e0300f92-32f0-4af0-a0ae-f13fe339461b"},"vehicle_type_id":"4","last_reported":1756383652,"current_range_meters":19200,"station_id":"ce4bgi12rcd13ifvqb80","pricing_plan_id":"cebpf4jnsgd1na2vs0mg"},{"bike_id":"dee5fc92-9d8d-42ec-97e1-996d8f5266a8","system_id":"levelo_inurba_marseille","lat":43.2296,"lon":5.35385,"is_reserved":false,"is_disabled":false,"rental_uris":{"android":"levelo://app?vid=dee5fc92-9d8d-42ec-97e1-996d8f5266a8","ios":"levelo://app?vid=dee5fc92-9d8d-42ec-97e1-996d8f5266a8"},"vehicle_type_id":"4","last_reported":1756383652,"current_range_meters":19200,"station_id":"cpo3532slgdg3j2ikp40","pricing_plan_id":"cebpf4jnsgd1na2vs0mg"},{"bike_id":"223a3dd0-7d97-4b7e-84db-058782e23987","system_id":"levelo_inurba_marseille","lat":43.29864,"lon":5.36293,"is_reserved":false,"is_disabled":false,"rental_uris":{"android":"levelo://app?vid=223a3dd0-7d97-4b7e-84db-058782e23987","ios":"levelo://app?vid=223a3dd0-7d97-4b7e-84db-058782e23987"},"vehicle_type_id":"4","last_reported":1756383652,"current_range_meters":19200,"station_id":"ce4bgpp2rcd13ifvqc3g","pricing_plan_id":"cebpf4jnsgd1na2vs0mg"},{"bike_id":"07761c7f-90f3-44f4-a950-f91cbca976d7","system_id":"levelo_inurba_marseille","lat":43.262275,"lon":5.374347,"is_reserved":false,"is_disabled":false,"rental_uris":{"android":"levelo://app?vid=07761c7f-90f3-44f4-a950-f91cbca976d7","ios":"levelo://app?vid=07761c7f-90f3-44f4-a950-f91cbca976d7"},"vehicle_type_id":"4","last_reported":1756383652,"current_range_meters":19200,"station_id":"ce4bhgp2rcd13ifvqfc0","pricing_plan_id":"cebpf4jnsgd1na2vs0mg"},{"bike_id":"920f8f5e-91c4-40b3-9008-3cb9c1c1ffcc","system_id":"levelo_inurba_marseille","lat":43.259426,"lon":5.409047,"is_reserved":false,"is_disabled":false,"rental_uris":{"android":"levelo://app?vid=920f8f5e-91c4-40b3-9008-3cb9c1c1ffcc","ios":"levelo://app?vid=920f8f5e-91c4-40b3-9008-3cb9c1c1ffcc"},"vehicle_type_id":"4","last_reported":1756383652,"current_range_meters":19200,"station_id":"ce4bhm92rcd13ifvqglg","pricing_plan_id":"cebpf4jnsgd1na2vs0mg"},{"bike_id":"196169a4-3222-419a-be3c-e08cc270c692","system_id":"levelo_inurba_marseille","lat":43.29307,"lon":5.373,"is_reserved":false,"is_disabled":false,"rental_uris":{"android":"levelo://app?vid=196169a4-3222-419a-be3c-e08cc270c692","ios":"levelo://app?vid=196169a4-3222-419a-be3c-e08cc270c692"},"vehicle_type_id":"4","last_reported":1756383652,"current_range_meters":19200,"station_id":"","pricing_plan_id":"cebpf4jnsgd1na2vs0mg"},{"bike_id":"239722dc-8548-47bb-85cb-de762ab886f0","system_id":"levelo_inurba_marseille","lat":43.27495,"lon":5.42451,"is_reserved":false,"is_disabled":false,"rental_uris":{"android":"levelo://app?vid=239722dc-8548-47bb-85cb-de762ab886f0","ios":"levelo://app?vid=239722dc-8548-47bb-85cb-de762ab886f0"},"vehicle_type_id":"4","last_reported":1756383652,"current_range_meters":19200,"station_id":"ce4bhn92rcd13ifvqgrg","pricing_plan_id":"cebpf4jnsgd1na2vs0mg"},{"bike_id":"6c6d719e-a8c1-4e2f-9b89-6e8ef872bc6a","system_id":"levelo_inurba_marseille","lat":43.27338,"lon":5.37885,"is_reserved":false,"is_disabled":false,"rental_uris":{"android":"levelo://app?vid=6c6d719e-a8c1-4e2f-9b89-6e8ef872bc6a","ios":"levelo://app?vid=6c6d719e-a8c1-4e2f-9b89-6e8ef872bc6a"},"vehicle_type_id":"4","last_reported":1756383652,"current_range_meters":19200,"station_id":"","pricing_plan_id":"cebpf4jnsgd1na2vs0mg"},{"bike_id":"d1012ec4-1fc3-4e5f-a82c-9d7d73d65c20","system_id":"levelo_inurba_marseille","lat":43.260152,"lon":5.417609,"is_reserved":false,"is_disabled":false,"rental_uris":{"android":"levelo://app?vid=d1012ec4-1fc3-4e5f-a82c-9d7d73d65c20","ios":"levelo://app?vid=d1012ec4-1fc3-4e5f-a82c-9d7d73d65c20"},"vehicle_type_id":"4","last_reported":1756383652,"current_range_meters":19200,"station_id":"","pricing_plan_id":"cebpf4jnsgd1na2vs0mg"},{"bike_id":"17346dce-e9f3-48b8-9a6a-34dc001fc6e7","system_id":"levelo_inurba_marseille","lat":43.29342,"lon":5.37847,"is_reserved":false,"is_disabled":false,"rental_uris":{"android":"levelo://app?vid=17346dce-e9f3-48b8-9a6a-34dc001fc6e7","ios":"levelo://app?vid=17346dce-e9f3-48b8-9a6a-34dc001fc6e7"},"vehicle_type_id":"4","last_reported":1756383652,"current_range_meters":19200,"station_id":"","pricing_plan_id":"cebpf4jnsgd1na2vs0mg"},{"bike_id":"8022b2eb-d44b-41bc-9f96-2c68d3cd359b","system_id":"levelo_inurba_marseille","lat":43.321014,"lon":5.367864,"is_reserved":false,"is_disabled":false,"rental_uris":{"android":"levelo://app?vid=8022b2eb-d44b-41bc-9f96-2c68d3cd359b","ios":"levelo://app?vid=8022b2eb-d44b-41bc-9f96-2c68d3cd359b"},"vehicle_type_id":"4","last_reported":1756383652,"current_range_meters":19600,"station_id":"ce4bhrh2rcd13ifvqhug","pricing_plan_id":"cebpf4jnsgd1na2vs0mg"},{"bike_id":"57c0c3de-8c27-4cdd-aeae-a46831cb9269","system_id":"levelo_inurba_marseille","lat":43.27572,"lon":5.38421,"is_reserved":false,"is_disabled":false,"rental_uris":{"android":"levelo://app?vid=57c0c3de-8c27-4cdd-aeae-a46831cb9269","ios":"levelo://app?vid=57c0c3de-8c27-4cdd-aeae-a46831cb9269"},"vehicle_type_id":"4","last_reported":1756383652,"current_range_meters":19200,"station_id":"ce4bhh92rcd13ifvqfi0","pricing_plan_id":"cebpf4jnsgd1na2vs0mg"},{"bike_id":"3235a8e4-0285-41ed-a073-4267b3ce62ac","system_id":"levelo_inurba_marseille","lat":43.27091,"lon":5.42285,"is_reserved":false,"is_disabled":false,"rental_uris":{"android":"levelo://app?vid=3235a8e4-0285-41ed-a073-4267b3ce62ac","ios":"levelo://app?vid=3235a8e4-0285-41ed-a073-4267b3ce62ac"},"vehicle_type_id":"4","last_reported":1756383652,"current_range_meters":20000,"station_id":"ce4bhk92rcd13ifvqgb0","pricing_plan_id":"cebpf4jnsgd1na2vs0mg"},{"bike_id":"ef92bd80-be1c-4588-8888-0b42cadf016b","system_id":"levelo_inurba_marseille","lat":43.26557,"lon":5.37282,"is_reserved":false,"is_disabled":false,"rental_uris":{"android":"levelo://app?vid=ef92bd80-be1c-4588-8888-0b42cadf016b","ios":"levelo://app?vid=ef92bd80-be1c-4588-8888-0b42cadf016b"},"vehicle_type_id":"4","last_reported":1756383652,"current_range_meters":20000,"station_id":"ce4bhg12rcd13ifvqf70","pricing_plan_id":"cebpf4jnsgd1na2vs0mg"},{"bike_id":"3a3545ec-2031-4f7e-b74f-451754af59a3","system_id":"levelo_inurba_marseille","lat":43.29789,"lon":5.37104,"is_reserved":false,"is_disabled":true,"rental_uris":{"android":"levelo://app?vid=3a3545ec-2031-4f7e-b74f-451754af59a3","ios":"levelo://app?vid=3a3545ec-2031-4f7e-b74f-451754af59a3"},"vehicle_type_id":"4","last_reported":1756383652,"current_range_meters":20000,"station_id":"ce4bgop2rcd13ifvqc1g","pricing_plan_id":"cebpf4jnsgd1na2vs0mg"},{"bike_id":"1c124bc1-4408-4049-800f-a9f288b13e6b","system_id":"levelo_inurba_marseille","lat":43.30307,"lon":5.39213,"is_reserved":false,"is_disabled":false,"rental_uris":{"android":"levelo://app?vid=1c124bc1-4408-4049-800f-a9f288b13e6b","ios":"levelo://app?vid=1c124bc1-4408-4049-800f-a9f288b13e6b"},"vehicle_type_id":"4","last_reported":1756383652,"current_range_meters":19600,"station_id":"ce4bgkh2rcd13ifvqbk0","pricing_plan_id":"cebpf4jnsgd1na2vs0mg"},{"bike_id":"3dd23926-ae78-488e-8f33-e0fe0712154d","system_id":"levelo_inurba_marseille","lat":43.31191,"lon":5.37792,"is_reserved":false,"is_disabled":false,"rental_uris":{"android":"levelo://app?vid=3dd23926-ae78-488e-8f33-e0fe0712154d","ios":"levelo://app?vid=3dd23926-ae78-488e-8f33-e0fe0712154d"},"vehicle_type_id":"4","last_reported":1756383652,"current_range_meters":20000,"station_id":"","pricing_plan_id":"cebpf4jnsgd1na2vs0mg"},{"bike_id":"c69bf677-63ec-4962-b4bb-ae2e8a2148c5","system_id":"levelo_inurba_marseille","lat":43.31071,"lon":5.38355,"is_reserved":false,"is_disabled":false,"rental_uris":{"android":"levelo://app?vid=c69bf677-63ec-4962-b4bb-ae2e8a2148c5","ios":"levelo://app?vid=c69bf677-63ec-4962-b4bb-ae2e8a2148c5"},"vehicle_type_id":"4","last_reported":1756383652,"current_range_meters":20000,"station_id":"ce4bgv92rcd13ifvqcr0","pricing_plan_id":"cebpf4jnsgd1na2vs0mg"},{"bike_id":"e66b3941-edc1-47d2-a508-6af05bed5109","system_id":"levelo_inurba_marseille","lat":43.22502,"lon":5.34782,"is_reserved":false,"is_disabled":false,"rental_uris":{"android":"levelo://app?vid=e66b3941-edc1-47d2-a508-6af05bed5109","ios":"levelo://app?vid=e66b3941-edc1-47d2-a508-6af05bed5109"},"vehicle_type_id":"4","last_reported":1756383652,"current_range_meters":20000,"station_id":"st_cvj5dfep6f1abm77gieg","pricing_plan_id":"cebpf4jnsgd1na2vs0mg"},{"bike_id":"bd8a8096-85ea-4e22-9f9f-64bd89fbd1c5","system_id":"levelo_inurba_marseille","lat":43.29711,"lon":5.36619,"is_reserved":false,"is_disabled":false,"rental_uris":{"android":"levelo://app?vid=bd8a8096-85ea-4e22-9f9f-64bd89fbd1c5","ios":"levelo://app?vid=bd8a8096-85ea-4e22-9f9f-64bd89fbd1c5"},"vehicle_type_id":"4","last_reported":1756383652,"current_range_meters":20400,"station_id":"ce4bgn12rcd13ifvqbt0","pricing_plan_id":"cebpf4jnsgd1na2vs0mg"},{"bike_id":"9d4cc5c9-f6ee-4c31-ab42-c23808bb60bb","system_id":"levelo_inurba_marseille","lat":43.30935,"lon":5.40136,"is_reserved":false,"is_disabled":false,"rental_uris":{"android":"levelo://app?vid=9d4cc5c9-f6ee-4c31-ab42-c23808bb60bb","ios":"levelo://app?vid=9d4cc5c9-f6ee-4c31-ab42-c23808bb60bb"},"vehicle_type_id":"4","last_reported":1756383652,"current_range_meters":20000,"station_id":"ce4bgvp2rcd13ifvqct0","pricing_plan_id":"cebpf4jnsgd1na2vs0mg"},{"bike_id":"53979212-14f0-46fd-99fd-e0132db84d1b","system_id":"levelo_inurba_marseille","lat":43.30142,"lon":5.38786,"is_reserved":false,"is_disabled":false,"rental_uris":{"android":"levelo://app?vid=53979212-14f0-46fd-99fd-e0132db84d1b","ios":"levelo://app?vid=53979212-14f0-46fd-99fd-e0132db84d1b"},"vehicle_type_id":"4","last_reported":1756383652,"current_range_meters":20400,"station_id":"ce4bghh2rcd13ifvqb60","pricing_plan_id":"cebpf4jnsgd1na2vs0mg"},{"bike_id":"1755d958-7f53-49d5-8ef6-88deafaf766e","system_id":"levelo_inurba_marseille","lat":43.296193,"lon":5.371521,"is_reserved":false,"is_disabled":true,"rental_uris":{"android":"levelo://app?vid=1755d958-7f53-49d5-8ef6-88deafaf766e","ios":"levelo://app?vid=1755d958-7f53-49d5-8ef6-88deafaf766e"},"vehicle_type_id":"4","last_reported":1756383652,"current_range_meters":20400,"station_id":"","pricing_plan_id":"cebpf4jnsgd1na2vs0mg"},{"bike_id":"62a813f2-1b4b-4d07-bf6d-c631c724a2a6","system_id":"levelo_inurba_marseille","lat":43.32484,"lon":5.36558,"is_reserved":false,"is_disabled":false,"rental_uris":{"android":"levelo://app?vid=62a813f2-1b4b-4d07-bf6d-c631c724a2a6","ios":"levelo://app?vid=62a813f2-1b4b-4d07-bf6d-c631c724a2a6"},"vehicle_type_id":"4","last_reported":1756383652,"current_range_meters":20400,"station_id":"ce4bhs12rcd13ifvqhvg","pricing_plan_id":"cebpf4jnsgd1na2vs0mg"},{"bike_id":"d9ecfac5-cb81-4449-a6b0-0a1cbea14214","system_id":"levelo_inurba_marseille","lat":43.29067,"lon":5.37174,"is_reserved":false,"is_disabled":false,"rental_uris":{"android":"levelo://app?vid=d9ecfac5-cb81-4449-a6b0-0a1cbea14214","ios":"levelo://app?vid=d9ecfac5-cb81-4449-a6b0-0a1cbea14214"},"vehicle_type_id":"4","last_reported":1756383652,"current_range_meters":20400,"station_id":"ce4bh5p2rcd13ifvqe4g","pricing_plan_id":"cebpf4jnsgd1na2vs0mg"},{"bike_id":"9a3f96f6-81eb-4032-8ed0-b7359ee25fe2","system_id":"levelo_inurba_marseille","lat":43.259381,"lon":5.408935,"is_reserved":false,"is_disabled":false,"rental_uris":{"android":"levelo://app?vid=9a3f96f6-81eb-4032-8ed0-b7359ee25fe2","ios":"levelo://app?vid=9a3f96f6-81eb-4032-8ed0-b7359ee25fe2"},"vehicle_type_id":"4","last_reported":1756383652,"current_range_meters":20800,"station_id":"ce4bhm92rcd13ifvqglg","pricing_plan_id":"cebpf4jnsgd1na2vs0mg"},{"bike_id":"84736ad0-39f1-4113-9b5c-f7765e1bea0d","system_id":"levelo_inurba_marseille","lat":43.29248,"lon":5.36879,"is_reserved":false,"is_disabled":false,"rental_uris":{"android":"levelo://app?vid=84736ad0-39f1-4113-9b5c-f7765e1bea0d","ios":"levelo://app?vid=84736ad0-39f1-4113-9b5c-f7765e1bea0d"},"vehicle_type_id":"4","last_reported":1756383652,"current_range_meters":20800,"station_id":"ce4bhbp2rcd13ifvqesg","pricing_plan_id":"cebpf4jnsgd1na2vs0mg"},{"bike_id":"48beb283-70d8-45c8-b0d3-a94e41a0daf0","system_id":"levelo_inurba_marseille","lat":43.24394,"lon":5.37064,"is_reserved":false,"is_disabled":false,"rental_uris":{"android":"levelo://app?vid=48beb283-70d8-45c8-b0d3-a94e41a0daf0","ios":"levelo://app?vid=48beb283-70d8-45c8-b0d3-a94e41a0daf0"},"vehicle_type_id":"4","last_reported":1756383652,"current_range_meters":20800,"station_id":"ce4bhhh2rcd13ifvqfk0","pricing_plan_id":"cebpf4jnsgd1na2vs0mg"},{"bike_id":"be56a579-3870-4545-85bd-dad43950a1f0","system_id":"levelo_inurba_marseille","lat":43.28156,"lon":5.4264,"is_reserved":false,"is_disabled":false,"rental_uris":{"android":"levelo://app?vid=be56a579-3870-4545-85bd-dad43950a1f0","ios":"levelo://app?vid=be56a579-3870-4545-85bd-dad43950a1f0"},"vehicle_type_id":"4","last_reported":1756383652,"current_range_meters":20800,"station_id":"ce4bhnh2rcd13ifvqgug","pricing_plan_id":"cebpf4jnsgd1na2vs0mg"},{"bike_id":"b9c6faf7-7a8d-432d-9456-0e2454eccdaa","system_id":"levelo_inurba_marseille","lat":43.299154,"lon":5.381492,"is_reserved":false,"is_disabled":false,"rental_uris":{"android":"levelo://app?vid=b9c6faf7-7a8d-432d-9456-0e2454eccdaa","ios":"levelo://app?vid=b9c6faf7-7a8d-432d-9456-0e2454eccdaa"},"vehicle_type_id":"4","last_reported":1756383652,"current_range_meters":20800,"station_id":"","pricing_plan_id":"cebpf4jnsgd1na2vs0mg"},{"bike_id":"f5f2ca21-5d95-4289-978c-eadf93ad3706","system_id":"levelo_inurba_marseille","lat":43.23144,"lon":5.4373,"is_reserved":false,"is_disabled":false,"rental_uris":{"android":"levelo://app?vid=f5f2ca21-5d95-4289-978c-eadf93ad3706","ios":"levelo://app?vid=f5f2ca21-5d95-4289-978c-eadf93ad3706"},"vehicle_type_id":"4","last_reported":1756383652,"current_range_meters":20800,"station_id":"ce4bhmp2rcd13ifvqgog","pricing_plan_id":"cebpf4jnsgd1na2vs0mg"},{"bike_id":"7b65a40b-0e45-4b8f-ab48-20e5aecf9667","system_id":"levelo_inurba_marseille","lat":43.25817,"lon":5.39431,"is_reserved":false,"is_disabled":false,"rental_uris":{"android":"levelo://app?vid=7b65a40b-0e45-4b8f-ab48-20e5aecf9667","ios":"levelo://app?vid=7b65a40b-0e45-4b8f-ab48-20e5aecf9667"},"vehicle_type_id":"4","last_reported":1756383652,"current_range_meters":20800,"station_id":"ce4bhip2rcd13ifvqft0","pricing_plan_id":"cebpf4jnsgd1na2vs0mg"},{"bike_id":"2402253a-b7c4-4938-a957-adfe1ef1c222","system_id":"levelo_inurba_marseille","lat":43.29895,"lon":5.38135,"is_reserved":false,"is_disabled":false,"rental_uris":{"android":"levelo://app?vid=2402253a-b7c4-4938-a957-adfe1ef1c222","ios":"levelo://app?vid=2402253a-b7c4-4938-a957-adfe1ef1c222"},"vehicle_type_id":"4","last_reported":1756383652,"current_range_meters":20800,"station_id":"ce4bgj12rcd13ifvqbc0","pricing_plan_id":"cebpf4jnsgd1na2vs0mg"},{"bike_id":"4955e156-2781-47e5-a8a4-1fee58a2d077","system_id":"levelo_inurba_marseille","lat":43.3055,"lon":5.36539,"is_reserved":false,"is_disabled":false,"rental_uris":{"android":"levelo://app?vid=4955e156-2781-47e5-a8a4-1fee58a2d077","ios":"levelo://app?vid=4955e156-2781-47e5-a8a4-1fee58a2d077"},"vehicle_type_id":"4","last_reported":1756383652,"current_range_meters":21600,"station_id":"ce4bgs12rcd13ifvqcag","pricing_plan_id":"cebpf4jnsgd1na2vs0mg"},{"bike_id":"d9e6196c-672f-43e7-bf32-5271100975d8","system_id":"levelo_inurba_marseille","lat":43.2906,"lon":5.37169,"is_reserved":false,"is_disabled":false,"rental_uris":{"android":"levelo://app?vid=d9e6196c-672f-43e7-bf32-5271100975d8","ios":"levelo://app?vid=d9e6196c-672f-43e7-bf32-5271100975d8"},"vehicle_type_id":"4","last_reported":1756383652,"current_range_meters":21600,"station_id":"ce4bh5p2rcd13ifvqe4g","pricing_plan_id":"cebpf4jnsgd1na2vs0mg"},{"bike_id":"91254781-5995-4c62-8be4-f60c0c53eb3c","system_id":"levelo_inurba_marseille","lat":43.21748,"lon":5.34604,"is_reserved":false,"is_disabled":false,"rental_uris":{"android":"levelo://app?vid=91254781-5995-4c62-8be4-f60c0c53eb3c","ios":"levelo://app?vid=91254781-5995-4c62-8be4-f60c0c53eb3c"},"vehicle_type_id":"4","last_reported":1756383652,"current_range_meters":21600,"station_id":"st_cvj6r9ubvosntc0bgbag","pricing_plan_id":"cebpf4jnsgd1na2vs0mg"},{"bike_id":"fa1ca9fe-4d06-44b0-b455-2c96f114f6b1","system_id":"levelo_inurba_marseille","lat":43.307984,"lon":5.435118,"is_reserved":false,"is_disabled":false,"rental_uris":{"android":"levelo://app?vid=fa1ca9fe-4d06-44b0-b455-2c96f114f6b1","ios":"levelo://app?vid=fa1ca9fe-4d06-44b0-b455-2c96f114f6b1"},"vehicle_type_id":"4","last_reported":1756383652,"current_range_meters":21600,"station_id":"ce4bhph2rcd13ifvqheg","pricing_plan_id":"cebpf4jnsgd1na2vs0mg"},{"bike_id":"caf016d7-55b6-4e19-acf9-49fa62b7a459","system_id":"levelo_inurba_marseille","lat":43.29589,"lon":5.37708,"is_reserved":false,"is_disabled":false,"rental_uris":{"android":"levelo://app?vid=caf016d7-55b6-4e19-acf9-49fa62b7a459","ios":"levelo://app?vid=caf016d7-55b6-4e19-acf9-49fa62b7a459"},"vehicle_type_id":"4","last_reported":1756383652,"current_range_meters":21600,"station_id":"ce4bgi92rcd13ifvqb90","pricing_plan_id":"cebpf4jnsgd1na2vs0mg"},{"bike_id":"9c7050d7-3c54-49c2-859f-0a66273d07f2","system_id":"levelo_inurba_marseille","lat":43.29362,"lon":5.37845,"is_reserved":false,"is_disabled":false,"rental_uris":{"android":"levelo://app?vid=9c7050d7-3c54-49c2-859f-0a66273d07f2","ios":"levelo://app?vid=9c7050d7-3c54-49c2-859f-0a66273d07f2"},"vehicle_type_id":"4","last_reported":1756383652,"current_range_meters":21600,"station_id":"ce4bgjh2rcd13ifvqbf0","pricing_plan_id":"cebpf4jnsgd1na2vs0mg"},{"bike_id":"42415e7e-e19c-49c1-a4bf-a8dbeaacb0f1","system_id":"levelo_inurba_marseille","lat":43.29371,"lon":5.37846,"is_reserved":false,"is_disabled":false,"rental_uris":{"android":"levelo://app?vid=42415e7e-e19c-49c1-a4bf-a8dbeaacb0f1","ios":"levelo://app?vid=42415e7e-e19c-49c1-a4bf-a8dbeaacb0f1"},"vehicle_type_id":"4","last_reported":1756383652,"current_range_meters":22000,"station_id":"ce4bgjh2rcd13ifvqbf0","pricing_plan_id":"cebpf4jnsgd1na2vs0mg"},{"bike_id":"c4ff6e2e-7c46-4a14-90e0-391caea45a27","system_id":"levelo_inurba_marseille","lat":43.24661,"lon":5.38922,"is_reserved":false,"is_disabled":false,"rental_uris":{"android":"levelo://app?vid=c4ff6e2e-7c46-4a14-90e0-391caea45a27","ios":"levelo://app?vid=c4ff6e2e-7c46-4a14-90e0-391caea45a27"},"vehicle_type_id":"4","last_reported":1756383652,"current_range_meters":22000,"station_id":"ce4bhg12rcd13ifvqf60","pricing_plan_id":"cebpf4jnsgd1na2vs0mg"},{"bike_id":"0e16483d-7c29-42d6-90d2-d9cb7ef31592","system_id":"levelo_inurba_marseille","lat":43.32347,"lon":5.36714,"is_reserved":false,"is_disabled":false,"rental_uris":{"android":"levelo://app?vid=0e16483d-7c29-42d6-90d2-d9cb7ef31592","ios":"levelo://app?vid=0e16483d-7c29-42d6-90d2-d9cb7ef31592"},"vehicle_type_id":"4","last_reported":1756383652,"current_range_meters":22000,"station_id":"ce4bhsh2rcd13ifvqi2g","pricing_plan_id":"cebpf4jnsgd1na2vs0mg"},{"bike_id":"5e4677e4-dd17-4437-830e-93e81c93591b","system_id":"levelo_inurba_marseille","lat":43.29614,"lon":5.37732,"is_reserved":false,"is_disabled":false,"rental_uris":{"android":"levelo://app?vid=5e4677e4-dd17-4437-830e-93e81c93591b","ios":"levelo://app?vid=5e4677e4-dd17-4437-830e-93e81c93591b"},"vehicle_type_id":"4","last_reported":1756383652,"current_range_meters":22400,"station_id":"ce4bgi92rcd13ifvqb90","pricing_plan_id":"cebpf4jnsgd1na2vs0mg"},{"bike_id":"7fa84784-2dda-4198-8e8b-5a7c7ec2289f","system_id":"levelo_inurba_marseille","lat":43.32372,"lon":5.36668,"is_reserved":false,"is_disabled":false,"rental_uris":{"android":"levelo://app?vid=7fa84784-2dda-4198-8e8b-5a7c7ec2289f","ios":"levelo://app?vid=7fa84784-2dda-4198-8e8b-5a7c7ec2289f"},"vehicle_type_id":"4","last_reported":1756383652,"current_range_meters":22400,"station_id":"ce4bhsh2rcd13ifvqi2g","pricing_plan_id":"cebpf4jnsgd1na2vs0mg"},{"bike_id":"ab4879ea-14fc-4274-854e-6eabdbab2245","system_id":"levelo_inurba_marseille","lat":43.262133,"lon":5.374392,"is_reserved":false,"is_disabled":false,"rental_uris":{"android":"levelo://app?vid=ab4879ea-14fc-4274-854e-6eabdbab2245","ios":"levelo://app?vid=ab4879ea-14fc-4274-854e-6eabdbab2245"},"vehicle_type_id":"4","last_reported":1756383652,"current_range_meters":22400,"station_id":"ce4bhgp2rcd13ifvqfc0","pricing_plan_id":"cebpf4jnsgd1na2vs0mg"},{"bike_id":"c0881cb5-357f-468d-a3c1-b313679c3509","system_id":"levelo_inurba_marseille","lat":43.337579,"lon":5.37436,"is_reserved":false,"is_disabled":false,"rental_uris":{"android":"levelo://app?vid=c0881cb5-357f-468d-a3c1-b313679c3509","ios":"levelo://app?vid=c0881cb5-357f-468d-a3c1-b313679c3509"},"vehicle_type_id":"4","last_reported":1756383652,"current_range_meters":22400,"station_id":"","pricing_plan_id":"cebpf4jnsgd1na2vs0mg"},{"bike_id":"d37863ec-5b02-42f9-84a2-cdcff0c5fd7f","system_id":"levelo_inurba_marseille","lat":43.27917,"lon":5.39577,"is_reserved":false,"is_disabled":false,"rental_uris":{"android":"levelo://app?vid=d37863ec-5b02-42f9-84a2-cdcff0c5fd7f","ios":"levelo://app?vid=d37863ec-5b02-42f9-84a2-cdcff0c5fd7f"},"vehicle_type_id":"4","last_reported":1756383652,"current_range_meters":22400,"station_id":"ce4bhf92rcd13ifvqf40","pricing_plan_id":"cebpf4jnsgd1na2vs0mg"},{"bike_id":"c3736018-2162-4cda-ac03-7fcd61ef6a85","system_id":"levelo_inurba_marseille","lat":43.31669,"lon":5.39895,"is_reserved":false,"is_disabled":false,"rental_uris":{"android":"levelo://app?vid=c3736018-2162-4cda-ac03-7fcd61ef6a85","ios":"levelo://app?vid=c3736018-2162-4cda-ac03-7fcd61ef6a85"},"vehicle_type_id":"4","last_reported":1756383652,"current_range_meters":22400,"station_id":"","pricing_plan_id":"cebpf4jnsgd1na2vs0mg"},{"bike_id":"94469496-96ae-450e-adaf-a7663bfd0e82","system_id":"levelo_inurba_marseille","lat":43.31596,"lon":5.37326,"is_reserved":false,"is_disabled":false,"rental_uris":{"android":"levelo://app?vid=94469496-96ae-450e-adaf-a7663bfd0e82","ios":"levelo://app?vid=94469496-96ae-450e-adaf-a7663bfd0e82"},"vehicle_type_id":"4","last_reported":1756383652,"current_range_meters":22400,"station_id":"","pricing_plan_id":"cebpf4jnsgd1na2vs0mg"},{"bike_id":"9ee36fe0-e94f-44ac-9763-e92d7fec4766","system_id":"levelo_inurba_marseille","lat":43.27824,"lon":5.40705,"is_reserved":false,"is_disabled":true,"rental_uris":{"android":"levelo://app?vid=9ee36fe0-e94f-44ac-9763-e92d7fec4766","ios":"levelo://app?vid=9ee36fe0-e94f-44ac-9763-e92d7fec4766"},"vehicle_type_id":"4","last_reported":1756383652,"current_range_meters":22400,"station_id":"ce4bhnh2rcd13ifvqgtg","pricing_plan_id":"cebpf4jnsgd1na2vs0mg"},{"bike_id":"89d7b2ce-08e6-4269-b50b-20bcac353979","system_id":"levelo_inurba_marseille","lat":43.31483,"lon":5.37306,"is_reserved":false,"is_disabled":false,"rental_uris":{"android":"levelo://app?vid=89d7b2ce-08e6-4269-b50b-20bcac353979","ios":"levelo://app?vid=89d7b2ce-08e6-4269-b50b-20bcac353979"},"vehicle_type_id":"4","last_reported":1756383652,"current_range_meters":22800,"station_id":"ce4bgt12rcd13ifvqcd0","pricing_plan_id":"cebpf4jnsgd1na2vs0mg"},{"bike_id":"d36709c6-f849-4090-a2ec-967cee475620","system_id":"levelo_inurba_marseille","lat":43.30148,"lon":5.37404,"is_reserved":false,"is_disabled":false,"rental_uris":{"android":"levelo://app?vid=d36709c6-f849-4090-a2ec-967cee475620","ios":"levelo://app?vid=d36709c6-f849-4090-a2ec-967cee475620"},"vehicle_type_id":"4","last_reported":1756383652,"current_range_meters":22800,"station_id":"","pricing_plan_id":"cebpf4jnsgd1na2vs0mg"},{"bike_id":"e9cb6436-0428-41b2-925a-cf5b31128397","system_id":"levelo_inurba_marseille","lat":43.32772,"lon":5.39128,"is_reserved":false,"is_disabled":false,"rental_uris":{"android":"levelo://app?vid=e9cb6436-0428-41b2-925a-cf5b31128397","ios":"levelo://app?vid=e9cb6436-0428-41b2-925a-cf5b31128397"},"vehicle_type_id":"4","last_reported":1756383652,"current_range_meters":22800,"station_id":"","pricing_plan_id":"cebpf4jnsgd1na2vs0mg"},{"bike_id":"e1f7bb36-3663-424f-8d22-e0cbd6f7c3fd","system_id":"levelo_inurba_marseille","lat":43.29569,"lon":5.37517,"is_reserved":false,"is_disabled":false,"rental_uris":{"android":"levelo://app?vid=e1f7bb36-3663-424f-8d22-e0cbd6f7c3fd","ios":"levelo://app?vid=e1f7bb36-3663-424f-8d22-e0cbd6f7c3fd"},"vehicle_type_id":"4","last_reported":1756383652,"current_range_meters":22800,"station_id":"ce4bgh92rcd13ifvqb50","pricing_plan_id":"cebpf4jnsgd1na2vs0mg"},{"bike_id":"135d089a-d341-434d-883f-b94f36c52352","system_id":"levelo_inurba_marseille","lat":43.29173,"lon":5.37142,"is_reserved":false,"is_disabled":false,"rental_uris":{"android":"levelo://app?vid=135d089a-d341-434d-883f-b94f36c52352","ios":"levelo://app?vid=135d089a-d341-434d-883f-b94f36c52352"},"vehicle_type_id":"4","last_reported":1756383652,"current_range_meters":22800,"station_id":"ce4bha92rcd13ifvqeh0","pricing_plan_id":"cebpf4jnsgd1na2vs0mg"},{"bike_id":"10dd7bc9-52e7-4035-a3f2-a9bbcd6787f2","system_id":"levelo_inurba_marseille","lat":43.29375,"lon":5.37839,"is_reserved":false,"is_disabled":false,"rental_uris":{"android":"levelo://app?vid=10dd7bc9-52e7-4035-a3f2-a9bbcd6787f2","ios":"levelo://app?vid=10dd7bc9-52e7-4035-a3f2-a9bbcd6787f2"},"vehicle_type_id":"4","last_reported":1756383652,"current_range_meters":22800,"station_id":"ce4bgjh2rcd13ifvqbf0","pricing_plan_id":"cebpf4jnsgd1na2vs0mg"},{"bike_id":"5d23faf1-3052-49a6-ab71-dab08de42efd","system_id":"levelo_inurba_marseille","lat":43.29032,"lon":5.38123,"is_reserved":false,"is_disabled":false,"rental_uris":{"android":"levelo://app?vid=5d23faf1-3052-49a6-ab71-dab08de42efd","ios":"levelo://app?vid=5d23faf1-3052-49a6-ab71-dab08de42efd"},"vehicle_type_id":"4","last_reported":1756383652,"current_range_meters":22800,"station_id":"ce4bh4p2rcd13ifvqe1g","pricing_plan_id":"cebpf4jnsgd1na2vs0mg"},{"bike_id":"912341cb-e7c1-4a3b-987d-99f8fe1346cb","system_id":"levelo_inurba_marseille","lat":43.24804,"lon":5.37456,"is_reserved":false,"is_disabled":false,"rental_uris":{"android":"levelo://app?vid=912341cb-e7c1-4a3b-987d-99f8fe1346cb","ios":"levelo://app?vid=912341cb-e7c1-4a3b-987d-99f8fe1346cb"},"vehicle_type_id":"4","last_reported":1756383652,"current_range_meters":22800,"station_id":"ce4bhgh2rcd13ifvqfb0","pricing_plan_id":"cebpf4jnsgd1na2vs0mg"},{"bike_id":"9c69762f-b87b-4a78-b9e2-5112fd9d141e","system_id":"levelo_inurba_marseille","lat":43.24386,"lon":5.37063,"is_reserved":false,"is_disabled":false,"rental_uris":{"android":"levelo://app?vid=9c69762f-b87b-4a78-b9e2-5112fd9d141e","ios":"levelo://app?vid=9c69762f-b87b-4a78-b9e2-5112fd9d141e"},"vehicle_type_id":"4","last_reported":1756383652,"current_range_meters":22400,"station_id":"ce4bhhh2rcd13ifvqfk0","pricing_plan_id":"cebpf4jnsgd1na2vs0mg"},{"bike_id":"6a3e5802-6548-4300-bdf5-0fedbdff8a76","system_id":"levelo_inurba_marseille","lat":43.322859,"lon":5.382743,"is_reserved":false,"is_disabled":false,"rental_uris":{"android":"levelo://app?vid=6a3e5802-6548-4300-bdf5-0fedbdff8a76","ios":"levelo://app?vid=6a3e5802-6548-4300-bdf5-0fedbdff8a76"},"vehicle_type_id":"4","last_reported":1756383652,"current_range_meters":22800,"station_id":"ce4bhr12rcd13ifvqhqg","pricing_plan_id":"cebpf4jnsgd1na2vs0mg"},{"bike_id":"62b1dadd-aa5d-4f25-8ac4-b5554d71201c","system_id":"levelo_inurba_marseille","lat":43.29374,"lon":5.37841,"is_reserved":false,"is_disabled":false,"rental_uris":{"android":"levelo://app?vid=62b1dadd-aa5d-4f25-8ac4-b5554d71201c","ios":"levelo://app?vid=62b1dadd-aa5d-4f25-8ac4-b5554d71201c"},"vehicle_type_id":"4","last_reported":1756383652,"current_range_meters":23200,"station_id":"ce4bgjh2rcd13ifvqbf0","pricing_plan_id":"cebpf4jnsgd1na2vs0mg"},{"bike_id":"fbe62576-590b-4f42-9b33-7e63d419f79f","system_id":"levelo_inurba_marseille","lat":43.3199,"lon":5.38145,"is_reserved":false,"is_disabled":false,"rental_uris":{"android":"levelo://app?vid=fbe62576-590b-4f42-9b33-7e63d419f79f","ios":"levelo://app?vid=fbe62576-590b-4f42-9b33-7e63d419f79f"},"vehicle_type_id":"4","last_reported":1756383652,"current_range_meters":23200,"station_id":"ce4bhr12rcd13ifvqhpg","pricing_plan_id":"cebpf4jnsgd1na2vs0mg"},{"bike_id":"6c0e5302-b5f2-45cf-9502-0b402b1e6662","system_id":"levelo_inurba_marseille","lat":43.29861,"lon":5.36241,"is_reserved":false,"is_disabled":false,"rental_uris":{"android":"levelo://app?vid=6c0e5302-b5f2-45cf-9502-0b402b1e6662","ios":"levelo://app?vid=6c0e5302-b5f2-45cf-9502-0b402b1e6662"},"vehicle_type_id":"4","last_reported":1756383652,"current_range_meters":23200,"station_id":"ce4bgpp2rcd13ifvqc3g","pricing_plan_id":"cebpf4jnsgd1na2vs0mg"},{"bike_id":"b9911da3-bdb3-495d-a5d5-70da40927edb","system_id":"levelo_inurba_marseille","lat":43.28415,"lon":5.34986,"is_reserved":false,"is_disabled":false,"rental_uris":{"android":"levelo://app?vid=b9911da3-bdb3-495d-a5d5-70da40927edb","ios":"levelo://app?vid=b9911da3-bdb3-495d-a5d5-70da40927edb"},"vehicle_type_id":"4","last_reported":1756383652,"current_range_meters":23200,"station_id":"ce4bhbh2rcd13ifvqepg","pricing_plan_id":"cebpf4jnsgd1na2vs0mg"},{"bike_id":"d6dcee3c-4cc4-48ae-ae7d-53e26d45b701","system_id":"levelo_inurba_marseille","lat":43.31363,"lon":5.36758,"is_reserved":false,"is_disabled":false,"rental_uris":{"android":"levelo://app?vid=d6dcee3c-4cc4-48ae-ae7d-53e26d45b701","ios":"levelo://app?vid=d6dcee3c-4cc4-48ae-ae7d-53e26d45b701"},"vehicle_type_id":"4","last_reported":1756383652,"current_range_meters":23200,"station_id":"ce4bgr92rcd13ifvqc6g","pricing_plan_id":"cebpf4jnsgd1na2vs0mg"},{"bike_id":"e23fe185-5190-4610-b4e2-63078e6f0bce","system_id":"levelo_inurba_marseille","lat":43.31338,"lon":5.36766,"is_reserved":false,"is_disabled":false,"rental_uris":{"android":"levelo://app?vid=e23fe185-5190-4610-b4e2-63078e6f0bce","ios":"levelo://app?vid=e23fe185-5190-4610-b4e2-63078e6f0bce"},"vehicle_type_id":"4","last_reported":1756383652,"current_range_meters":23200,"station_id":"ce4bgr92rcd13ifvqc6g","pricing_plan_id":"cebpf4jnsgd1na2vs0mg"},{"bike_id":"857f6989-3eec-4d38-b710-f95af1b889df","system_id":"levelo_inurba_marseille","lat":43.32356,"lon":5.36738,"is_reserved":false,"is_disabled":false,"rental_uris":{"android":"levelo://app?vid=857f6989-3eec-4d38-b710-f95af1b889df","ios":"levelo://app?vid=857f6989-3eec-4d38-b710-f95af1b889df"},"vehicle_type_id":"4","last_reported":1756383652,"current_range_meters":23200,"station_id":"ce4bhsh2rcd13ifvqi2g","pricing_plan_id":"cebpf4jnsgd1na2vs0mg"},{"bike_id":"2b3b5a15-a382-44ac-98cd-7eb2831e6cbf","system_id":"levelo_inurba_marseille","lat":43.332484,"lon":5.397733,"is_reserved":false,"is_disabled":false,"rental_uris":{"android":"levelo://app?vid=2b3b5a15-a382-44ac-98cd-7eb2831e6cbf","ios":"levelo://app?vid=2b3b5a15-a382-44ac-98cd-7eb2831e6cbf"},"vehicle_type_id":"4","last_reported":1756383652,"current_range_meters":23200,"station_id":"","pricing_plan_id":"cebpf4jnsgd1na2vs0mg"},{"bike_id":"af10f840-9282-4be6-8a32-dd834535ba59","system_id":"levelo_inurba_marseille","lat":43.25846,"lon":5.39974,"is_reserved":false,"is_disabled":false,"rental_uris":{"android":"levelo://app?vid=af10f840-9282-4be6-8a32-dd834535ba59","ios":"levelo://app?vid=af10f840-9282-4be6-8a32-dd834535ba59"},"vehicle_type_id":"4","last_reported":1756383652,"current_range_meters":24000,"station_id":"","pricing_plan_id":"cebpf4jnsgd1na2vs0mg"},{"bike_id":"beb66ba0-0c40-459a-9e83-2c74091ea483","system_id":"levelo_inurba_marseille","lat":43.324753,"lon":5.365447,"is_reserved":false,"is_disabled":false,"rental_uris":{"android":"levelo://app?vid=beb66ba0-0c40-459a-9e83-2c74091ea483","ios":"levelo://app?vid=beb66ba0-0c40-459a-9e83-2c74091ea483"},"vehicle_type_id":"4","last_reported":1756383652,"current_range_meters":24400,"station_id":"ce4bhs12rcd13ifvqhvg","pricing_plan_id":"cebpf4jnsgd1na2vs0mg"},{"bike_id":"8435bb2b-2ad9-43a4-abd1-2def052f85e8","system_id":"levelo_inurba_marseille","lat":43.21753,"lon":5.34598,"is_reserved":false,"is_disabled":false,"rental_uris":{"android":"levelo://app?vid=8435bb2b-2ad9-43a4-abd1-2def052f85e8","ios":"levelo://app?vid=8435bb2b-2ad9-43a4-abd1-2def052f85e8"},"vehicle_type_id":"4","last_reported":1756383652,"current_range_meters":24000,"station_id":"st_cvj6r9ubvosntc0bgbag","pricing_plan_id":"cebpf4jnsgd1na2vs0mg"},{"bike_id":"d0080eb2-f3d5-4b14-9e67-efd66f26b562","system_id":"levelo_inurba_marseille","lat":43.24172,"lon":5.39728,"is_reserved":false,"is_disabled":false,"rental_uris":{"android":"levelo://app?vid=d0080eb2-f3d5-4b14-9e67-efd66f26b562","ios":"levelo://app?vid=d0080eb2-f3d5-4b14-9e67-efd66f26b562"},"vehicle_type_id":"4","last_reported":1756383652,"current_range_meters":24000,"station_id":"ce4bhn12rcd13ifvqgpg","pricing_plan_id":"cebpf4jnsgd1na2vs0mg"},{"bike_id":"f1626663-ad90-47c2-861b-eefffbdaca6a","system_id":"levelo_inurba_marseille","lat":43.28279,"lon":5.35072,"is_reserved":false,"is_disabled":true,"rental_uris":{"android":"levelo://app?vid=f1626663-ad90-47c2-861b-eefffbdaca6a","ios":"levelo://app?vid=f1626663-ad90-47c2-861b-eefffbdaca6a"},"vehicle_type_id":"4","last_reported":1756383652,"current_range_meters":24000,"station_id":"ce4bhbp2rcd13ifvqerg","pricing_plan_id":"cebpf4jnsgd1na2vs0mg"},{"bike_id":"de5f2ec5-66e0-4856-9409-eff2d0262cba","system_id":"levelo_inurba_marseille","lat":43.24542,"lon":5.39517,"is_reserved":false,"is_disabled":false,"rental_uris":{"android":"levelo://app?vid=de5f2ec5-66e0-4856-9409-eff2d0262cba","ios":"levelo://app?vid=de5f2ec5-66e0-4856-9409-eff2d0262cba"},"vehicle_type_id":"4","last_reported":1756383652,"current_range_meters":24000,"station_id":"ce4bhlp2rcd13ifvqgjg","pricing_plan_id":"cebpf4jnsgd1na2vs0mg"},{"bike_id":"f27c5ada-3a94-406d-b3fd-149cf4ac0ce4","system_id":"levelo_inurba_marseille","lat":43.32268,"lon":5.38308,"is_reserved":false,"is_disabled":false,"rental_uris":{"android":"levelo://app?vid=f27c5ada-3a94-406d-b3fd-149cf4ac0ce4","ios":"levelo://app?vid=f27c5ada-3a94-406d-b3fd-149cf4ac0ce4"},"vehicle_type_id":"4","last_reported":1756383652,"current_range_meters":24000,"station_id":"ce4bhr12rcd13ifvqhqg","pricing_plan_id":"cebpf4jnsgd1na2vs0mg"},{"bike_id":"ad342a57-16de-4802-917b-2c54902b8e93","system_id":"levelo_inurba_marseille","lat":43.33767,"lon":5.374384,"is_reserved":false,"is_disabled":false,"rental_uris":{"android":"levelo://app?vid=ad342a57-16de-4802-917b-2c54902b8e93","ios":"levelo://app?vid=ad342a57-16de-4802-917b-2c54902b8e93"},"vehicle_type_id":"4","last_reported":1756383652,"current_range_meters":24000,"station_id":"","pricing_plan_id":"cebpf4jnsgd1na2vs0mg"},{"bike_id":"df3b2da2-4272-4f79-bc94-8eeea9155100","system_id":"levelo_inurba_marseille","lat":43.29573,"lon":5.37502,"is_reserved":false,"is_disabled":false,"rental_uris":{"android":"levelo://app?vid=df3b2da2-4272-4f79-bc94-8eeea9155100","ios":"levelo://app?vid=df3b2da2-4272-4f79-bc94-8eeea9155100"},"vehicle_type_id":"4","last_reported":1756383652,"current_range_meters":24000,"station_id":"ce4bgh92rcd13ifvqb50","pricing_plan_id":"cebpf4jnsgd1na2vs0mg"},{"bike_id":"04e6bb71-99d9-4e9f-b173-9ec2eff04f56","system_id":"levelo_inurba_marseille","lat":43.30315,"lon":5.40457,"is_reserved":false,"is_disabled":false,"rental_uris":{"android":"levelo://app?vid=04e6bb71-99d9-4e9f-b173-9ec2eff04f56","ios":"levelo://app?vid=04e6bb71-99d9-4e9f-b173-9ec2eff04f56"},"vehicle_type_id":"4","last_reported":1756383652,"current_range_meters":24000,"station_id":"ce4bh012rcd13ifvqd10","pricing_plan_id":"cebpf4jnsgd1na2vs0mg"},{"bike_id":"a8f63993-61f6-4149-9d61-7909c0e74331","system_id":"levelo_inurba_marseille","lat":43.29375,"lon":5.37844,"is_reserved":false,"is_disabled":false,"rental_uris":{"android":"levelo://app?vid=a8f63993-61f6-4149-9d61-7909c0e74331","ios":"levelo://app?vid=a8f63993-61f6-4149-9d61-7909c0e74331"},"vehicle_type_id":"4","last_reported":1756383652,"current_range_meters":24000,"station_id":"ce4bgjh2rcd13ifvqbf0","pricing_plan_id":"cebpf4jnsgd1na2vs0mg"},{"bike_id":"711b579a-e492-442a-8a08-454e93550a0e","system_id":"levelo_inurba_marseille","lat":43.32105,"lon":5.3678,"is_reserved":false,"is_disabled":false,"rental_uris":{"android":"levelo://app?vid=711b579a-e492-442a-8a08-454e93550a0e","ios":"levelo://app?vid=711b579a-e492-442a-8a08-454e93550a0e"},"vehicle_type_id":"4","last_reported":1756383652,"current_range_meters":24400,"station_id":"ce4bhrh2rcd13ifvqhug","pricing_plan_id":"cebpf4jnsgd1na2vs0mg"},{"bike_id":"37e18486-81d7-4abd-9f5c-1da572297c85","system_id":"levelo_inurba_marseille","lat":43.23152,"lon":5.43708,"is_reserved":false,"is_disabled":false,"rental_uris":{"android":"levelo://app?vid=37e18486-81d7-4abd-9f5c-1da572297c85","ios":"levelo://app?vid=37e18486-81d7-4abd-9f5c-1da572297c85"},"vehicle_type_id":"4","last_reported":1756383652,"current_range_meters":22800,"station_id":"ce4bhmp2rcd13ifvqgog","pricing_plan_id":"cebpf4jnsgd1na2vs0mg"},