{"last_updated":1731582470,"ttl":60,"version":"2.2","data":{"bikes":[{"bike_id":"8a86cdc2-56ee-4258-9f38-2fe0ed00da0e","system_id":"levelo_inurba_marseille","lat":43.30308,"lon":5.36896,"is_reserved":false,"is_disabled":false,"rental_uris":{"android":"levelo://app?vid=8a86cdc2-56ee-4258-9f38-2fe0ed00da0e","ios":"levelo://app?vid=8a86cdc2-56ee-4258-9f38-2fe0ed00da0e"},"vehicle_type_id":"4","last_reported":1731582470,"current_range_meters":30400,"station_id":"ce4bgqh2rcd13ifvqc5g","pricing_plan_id":"cebpf4jnsgd1na2vs0mg"},{"bike_id":"d72e41e0-b2be-44d4-9a5d-48e19d343592","system_id":"levelo_inurba_marseille","lat":43.31348,"lon":5.36717,"is_reserved":false,"is_disabled":false,"rental_uris":{"android":"levelo://app?vid=d72e41e0-b2be-44d4-9a5d-48e19d343592","ios":"levelo://app?vid=d72e41e0-b2be-44d4-9a5d-48e19d343592"},"vehicle_type_id":"4","last_reported":1731582470,"current_range_meters":32400,"station_id":"ce4bgr92rcd13ifvqc6g","pricing_plan_id":"cebpf4jnsgd1na2vs0mg"},{"bike_id":"b65884a7-d9b0-45b3-a1e6-8401e1cbb45e","system_id":"levelo_inurba_marseille","lat":43.30957,"lon":5.39022,"is_reserved":false,"is_disabled":false,"rental_uris":{"android":"levelo://app?vid=b65884a7-d9b0-45b3-a1e6-8401e1cbb45e","ios":"levelo://app?vid=b65884a7-d9b0-45b3-a1e6-8401e1cbb45e"},"vehicle_type_id":"4","last_reported":1731582470,"current_range_meters":28800,"station_id":"ce4bgup2rcd13ifvqco0","pricing_plan_id":"cebpf4jnsgd1na2vs0mg"},{"bike_id":"a65636a1-9916-40c3-9c94-f5277a18a30b","system_id":"levelo_inurba_marseille","lat":43.31228,"lon":5.36862,"is_reserved":false,"is_disabled":false,"rental_uris":{"android":"levelo://app?vid=a65636a1-9916-40c3-9c94-f5277a18a30b","ios":"levelo://app?vid=a65636a1-9916-40c3-9c94-f5277a18a30b"},"vehicle_type_id":"4","last_reported":1731582470,"current_range_meters":28000,"station_id":"ce4bgl92rcd13ifvqbq0","pricing_plan_id":"cebpf4jnsgd1na2vs0mg"},{"bike_id":"0d7d7976-cf9e-4c67-a7fe-246f7a366905","system_id":"levelo_inurba_marseille","lat":43.30149,"lon":5.38775,"is_reserved":false,"is_disabled":false,"rental_uris":{"android":"levelo://app?vid=0d7d7976-cf9e-4c67-a7fe-246f7a366905","ios":"levelo://app?vid=0d7d7976-cf9e-4c67-a7fe-246f7a366905"},"vehicle_type_id":"4","last_reported":1731582470,"current_range_meters":27600,"station_id":"ce4bghh2rcd13ifvqb60","pricing_plan_id":"cebpf4jnsgd1na2vs0mg"},{"bike_id":"859be4e9-8f1d-4549-bede-8958b00cfcc6","system_id":"levelo_inurba_marseille","lat":43.29169,"lon":5.37148,"is_reserved":false,"is_disabled":false,"rental_uris":{"android":"levelo://app?vid=859be4e9-8f1d-4549-bede-8958b00cfcc6","ios":"levelo://app?vid=859be4e9-8f1d-4549-bede-8958b00cfcc6"},"vehicle_type_id":"4","last_reported":1731582470,"current_range_meters":3200,"station_id":"ce4bha92rcd13ifvqeh0","pricing_plan_id":"cebpf4jnsgd1na2vs0mg"},{"bike_id":"0c275282-f059-4496-a54e-ec665479b0c1","system_id":"levelo_inurba_marseille","lat":43.29981,"lon":5.37173,"is_reserved":false,"is_disabled":false,"rental_uris":{"android":"levelo://app?vid=0c275282-f059-4496-a54e-ec665479b0c1","ios":"levelo://app?vid=0c275282-f059-4496-a54e-ec665479b0c1"},"vehicle_type_id":"4","last_reported":1731582470,"current_range_meters":36800,"station_id":"ce4bgr92rcd13ifvqc7g","pricing_plan_id":"cebpf4jnsgd1na2vs0mg"},{"bike_id":"a789c85f-e51c-488c-b82a-114415ab3524","system_id":"levelo_inurba_marseille","lat":43.25088,"lon":5.39521,"is_reserved":false,"is_disabled":false,"rental_uris":{"android":"levelo://app?vid=a789c85f-e51c-488c-b82a-114415ab3524","ios":"levelo://app?vid=a789c85f-e51c-488c-b82a-114415ab3524"},"vehicle_type_id":"4","last_reported":1731582470,"current_range_meters":21600,"station_id":"ce4bhm12rcd13ifvqgkg","pricing_plan_id":"cebpf4jnsgd1na2vs0mg"},{"bike_id":"be9a7d5c-a83f-41ba-b953-8e7db0668e00","system_id":"levelo_inurba_marseille","lat":43.28609,"lon":5.37058,"is_reserved":false,"is_disabled":false,"rental_uris":{"android":"levelo://app?vid=be9a7d5c-a83f-41ba-b953-8e7db0668e00","ios":"levelo://app?vid=be9a7d5c-a83f-41ba-b953-8e7db0668e00"},"vehicle_type_id":"4","last_reported":1731582470,"current_range_meters":12000,"station_id":"ce4bht12rcd13ifvqi60","pricing_plan_id":"cebpf4jnsgd1na2vs0mg"},{"bike_id":"ae292185-8e91-4db6-a612-c3563674c7fa","system_id":"levelo_inurba_marseille","lat":43.31759,"lon":5.39004,"is_reserved":false,"is_disabled":false,"rental_uris":{"android":"levelo://app?vid=ae292185-8e91-4db6-a612-c3563674c7fa","ios":"levelo://app?vid=ae292185-8e91-4db6-a612-c3563674c7fa"},"vehicle_type_id":"4","last_reported":1731582470,"current_range_meters":21600,"station_id":"ce4bhqp2rcd13ifvqhng","pricing_plan_id":"cebpf4jnsgd1na2vs0mg"},{"bike_id":"91fe36a8-bc4f-4b08-8287-b0444a16f338","system_id":"levelo_inurba_marseille","lat":43.23158,"lon":5.43743,"is_reserved":false,"is_disabled":false,"rental_uris":{"android":"levelo://app?vid=91fe36a8-bc4f-4b08-8287-b0444a16f338","ios":"levelo://app?vid=91fe36a8-bc4f-4b08-8287-b0444a16f338"},"vehicle_type_id":"4","last_reported":1731582470,"current_range_meters":38800,"station_id":"ce4bhmp2rcd13ifvqgog","pricing_plan_id":"cebpf4jnsgd1na2vs0mg"},{"bike_id":"8472a442-1b27-4429-9cbb-acb2837e6d0f","system_id":"levelo_inurba_marseille","lat":43.24081,"lon":5.37737,"is_reserved":false,"is_disabled":false,"rental_uris":{"android":"levelo://app?vid=8472a442-1b27-4429-9cbb-acb2837e6d0f","ios":"levelo://app?vid=8472a442-1b27-4429-9cbb-acb2837e6d0f"},"vehicle_type_id":"4","last_reported":1731582470,"current_range_meters":24800,"station_id":"ce4bhnp2rcd13ifvqgvg","pricing_plan_id":"cebpf4jnsgd1na2vs0mg"},{"bike_id":"cc792d10-5e3a-4b03-849b-38a1e4ffc260","system_id":"levelo_inurba_marseille","lat":43.337444,"lon":5.374475,"is_reserved":false,"is_disabled":false,"rental_uris":{"android":"levelo://app?vid=cc792d10-5e3a-4b03-849b-38a1e4ffc260","ios":"levelo://app?vid=cc792d10-5e3a-4b03-849b-38a1e4ffc260"},"vehicle_type_id":"4","last_reported":1731582470,"current_range_meters":35200,"station_id":"","pricing_plan_id":"cebpf4jnsgd1na2vs0mg"},{"bike_id":"1d31cf4d-c9fd-4282-a9cb-723e108c3e63","system_id":"levelo_inurba_marseille","lat":43.25501,"lon":5.3765,"is_reserved":false,"is_disabled":false,"rental_uris":{"android":"levelo://app?vid=1d31cf4d-c9fd-4282-a9cb-723e108c3e63","ios":"levelo://app?vid=1d31cf4d-c9fd-4282-a9cb-723e108c3e63"},"vehicle_type_id":"4","last_reported":1731582470,"current_range_meters":27600,"station_id":"ce4bhh12rcd13ifvqff0","pricing_plan_id":"cebpf4jnsgd1na2vs0mg"},{"bike_id":"9d3d8f04-350a-47f9-a91d-71c04ea9de18","system_id":"levelo_inurba_marseille","lat":43.23152,"lon":5.43708,"is_reserved":false,"is_disabled":false,"rental_uris":{"android":"levelo://app?vid=9d3d8f04-350a-47f9-a91d-71c04ea9de18","ios":"levelo://app?vid=9d3d8f04-350a-47f9-a91d-71c04ea9de18"},"vehicle_type_id":"4","last_reported":1731582470,"current_range_meters":37600,"station_id":"ce4bhmp2rcd13ifvqgog","pricing_plan_id":"cebpf4jnsgd1na2vs0mg"},{"bike_id":"f4c3fde6-2540-49a4-bb23-f1fa8ca9a78b","system_id":"levelo_inurba_marseille","lat":43.3056,"lon":5.36549,"is_reserved":false,"is_disabled":false,"rental_uris":{"android":"levelo://app?vid=f4c3fde6-2540-49a4-bb23-f1fa8ca9a78b","ios":"levelo://app?vid=f4c3fde6-2540-49a4-bb23-f1fa8ca9a78b"},"vehicle_type_id":"4","last_reported":1731582470,"current_range_meters":16000,"station_id":"ce4bgs12rcd13ifvqcag","pricing_plan_id":"cebpf4jnsgd1na2vs0mg"},{"bike_id":"c81ffe70-65b8-466e-8872-40543fe8578d","system_id":"levelo_inurba_marseille","lat":43.2996,"lon":5.41325,"is_reserved":false,"is_disabled":false,"rental_uris":{"android":"levelo://app?vid=c81ffe70-65b8-466e-8872-40543fe8578d","ios":"levelo://app?vid=c81ffe70-65b8-466e-8872-40543fe8578d"},"vehicle_type_id":"4","last_reported":1731582470,"current_range_meters":32800,"station_id":"ce4bhp12rcd13ifvqh9g","pricing_plan_id":"cebpf4jnsgd1na2vs0mg"},{"bike_id":"d0c862b4-807a-418f-bcb3-27e64970610f","system_id":"levelo_inurba_marseille","lat":43.2407,"lon":5.37755,"is_reserved":false,"is_disabled":false,"rental_uris":{"android":"levelo://app?vid=d0c862b4-807a-418f-bcb3-27e64970610f","ios":"levelo://app?vid=d0c862b4-807a-418f-bcb3-27e64970610f"},"vehicle_type_id":"4","last_reported":1731582470,"current_range_meters":8800,"station_id":"ce4bhnp2rcd13ifvqgvg","pricing_plan_id":"cebpf4jnsgd1na2vs0mg"},{"bike_id":"3a0419a3-13ed-4d36-8acb-56d7e9e39621","system_id":"levelo_inurba_marseille","lat":43.29848,"lon":5.36274,"is_reserved":false,"is_disabled":false,"rental_uris":{"android":"levelo://app?vid=3a0419a3-13ed-4d36-8acb-56d7e9e39621","ios":"levelo://app?vid=3a0419a3-13ed-4d36-8acb-56d7e9e39621"},"vehicle_type_id":"4","last_reported":1731582470,"current_range_meters":39200,"station_id":"ce4bgpp2rcd13ifvqc3g","pricing_plan_id":"cebpf4jnsgd1na2vs0mg"},{"bike_id":"7e465898-a890-47d7-a27e-266939b652fb","system_id":"levelo_inurba_marseille","lat":43.25003,"lon":5.38923,"is_reserved":false,"is_disabled":false,"rental_uris":{"android":"levelo://app?vid=7e465898-a890-47d7-a27e-266939b652fb","ios":"levelo://app?vid=7e465898-a890-47d7-a27e-266939b652fb"},"vehicle_type_id":"4","last_reported":1731582470,"current_range_meters":37600,"station_id":"ce4bhgp2rcd13ifvqfd0","pricing_plan_id":"cebpf4jnsgd1na2vs0mg"},{"bike_id":"08f294d4-70f0-4b44-abad-f15018ecadf8","system_id":"levelo_inurba_marseille","lat":43.23143,"lon":5.43717,"is_reserved":false,"is_disabled":false,"rental_uris":{"android":"levelo://app?vid=08f294d4-70f0-4b44-abad-f15018ecadf8","ios":"levelo://app?vid=08f294d4-70f0-4b44-abad-f15018ecadf8"},"vehicle_type_id":"4","last_reported":1731582470,"current_range_meters":36800,"station_id":"ce4bhmp2rcd13ifvqgog","pricing_plan_id":"cebpf4jnsgd1na2vs0mg"},{"bike_id":"d7726553-bf78-48cd-8619-37e98c61f521","system_id":"levelo_inurba_marseille","lat":43.30159,"lon":5.38078,"is_reserved":false,"is_disabled":false,"rental_uris":{"android":"levelo://app?vid=d7726553-bf78-48cd-8619-37e98c61f521","ios":"levelo://app?vid=d7726553-bf78-48cd-8619-37e98c61f521"},"vehicle_type_id":"4","last_reported":1731582470,"current_range_meters":32400,"station_id":"ce4bgjp2rcd13ifvqbh0","pricing_plan_id":"cebpf4jnsgd1na2vs0mg"},{"bike_id":"10f83ea1-21fc-49d5-934a-4b6f18d7a2b7","system_id":"levelo_inurba_marseille","lat":43.336,"lon":5.41033,"is_reserved":false,"is_disabled":false,"rental_uris":{"android":"levelo://app?vid=10f83ea1-21fc-49d5-934a-4b6f18d7a2b7","ios":"levelo://app?vid=10f83ea1-21fc-49d5-934a-4b6f18d7a2b7"},"vehicle_type_id":"4","last_reported":1731582470,"current_range_meters":37600,"station_id":"ce4bhqh2rcd13ifvqhmg","pricing_plan_id":"cebpf4jnsgd1na2vs0mg"},{"bike_id":"1622353b-6708-48bc-85a0-98f1e9da5565","system_id":"levelo_inurba_marseille","lat":43.279925,"lon":5.416535,"is_reserved":false,"is_disabled":false,"rental_uris":{"android":"levelo://app?vid=1622353b-6708-48bc-85a0-98f1e9da5565","ios":"levelo://app?vid=1622353b-6708-48bc-85a0-98f1e9da5565"},"vehicle_type_id":"4","last_reported":1731582470,"current_range_meters":21600,"station_id":"ce4bho12rcd13ifvqh1g","pricing_plan_id":"cebpf4jnsgd1na2vs0mg"},{"bike_id":"4b66fe0e-1c21-4673-aae3-433ab3e23357","system_id":"levelo_inurba_marseille","lat":43.31362,"lon":5.36714,"is_reserved":false,"is_disabled":false,"rental_uris":{"android":"levelo://app?vid=4b66fe0e-1c21-4673-aae3-433ab3e23357","ios":"levelo://app?vid=4b66fe0e-1c21-4673-aae3-433ab3e23357"},"vehicle_type_id":"4","last_reported":1731582470,"current_range_meters":8400,"station_id":"ce4bgr92rcd13ifvqc6g","pricing_plan_id":"cebpf4jnsgd1na2vs0mg"},{"bike_id":"89da5fee-e4da-42cf-b707-99a944cdfc4b","system_id":"levelo_inurba_marseille","lat":43.25005,"lon":5.38926,"is_reserved":false,"is_disabled":false,"rental_uris":{"android":"levelo://app?vid=89da5fee-e4da-42cf-b707-99a944cdfc4b","ios":"levelo://app?vid=89da5fee-e4da-42cf-b707-99a944cdfc4b"},"vehicle_type_id":"4","last_reported":1731582470,"current_range_meters":37600,"station_id":"ce4bhgp2rcd13ifvqfd0","pricing_plan_id":"cebpf4jnsgd1na2vs0mg"},{"bike_id":"4a74f469-1d99-48ee-a8ca-9199898c00a4","system_id":"levelo_inurba_marseille","lat":43.23199,"lon":5.35547,"is_reserved":false,"is_disabled":false,"rental_uris":{"android":"levelo://app?vid=4a74f469-1d99-48ee-a8ca-9199898c00a4","ios":"levelo://app?vid=4a74f469-1d99-48ee-a8ca-9199898c00a4"},"vehicle_type_id":"4","last_reported":1731582470,"current_range_meters":22000,"station_id":"ce4bhu92rcd13ifvqi70","pricing_plan_id":"cebpf4jnsgd1na2vs0mg"},{"bike_id":"c4b2bafb-ae76-412e-a120-055cc31bbdd6","system_id":"levelo_inurba_marseille","lat":43.25016,"lon":5.38905,"is_reserved":false,"is_disabled":false,"rental_uris":{"android":"levelo://app?vid=c4b2bafb-ae76-412e-a120-055cc31bbdd6","ios":"levelo://app?vid=c4b2bafb-ae76-412e-a120-055cc31bbdd6"},"vehicle_type_id":"4","last_reported":1731582470,"current_range_meters":22400,"station_id":"ce4bhgp2rcd13ifvqfd0","pricing_plan_id":"cebpf4jnsgd1na2vs0mg"},{"bike_id":"bb98d3d7-6c23-4d35-9283-356abff5348c","system_id":"levelo_inurba_marseille","lat":43.2917,"lon":5.37149,"is_reserved":false,"is_disabled":false,"rental_uris":{"android":"levelo://app?vid=bb98d3d7-6c23-4d35-9283-356abff5348c","ios":"levelo://app?vid=bb98d3d7-6c23-4d35-9283-356abff5348c"},"vehicle_type_id":"4","last_reported":1731582470,"current_range_meters":38800,"station_id":"ce4bha92rcd13ifvqeh0","pricing_plan_id":"cebpf4jnsgd1na2vs0mg"},{"bike_id":"304bc20b-dec5-43dd-9211-c6d16fa3594e","system_id":"levelo_inurba_marseille","lat":43.30537,"lon":5.36691,"is_reserved":false,"is_disabled":false,"rental_uris":{"android":"levelo://app?vid=304bc20b-dec5-43dd-9211-c6d16fa3594e","ios":"levelo://app?vid=304bc20b-dec5-43dd-9211-c6d16fa3594e"},"vehicle_type_id":"4","last_reported":1731582470,"current_range_meters":36800,"station_id":"ce4bgrp2rcd13ifvqc9g","pricing_plan_id":"cebpf4jnsgd1na2vs0mg"},{"bike_id":"c0d36329-4d48-4aa1-bc06-ca1aa8cf1f4d","system_id":"levelo_inurba_marseille","lat":43.29217,"lon":5.36069,"is_reserved":false,"is_disabled":false,"rental_uris":{"android":"levelo://app?vid=c0d36329-4d48-4aa1-bc06-ca1aa8cf1f4d","ios":"levelo://app?vid=c0d36329-4d48-4aa1-bc06-ca1aa8cf1f4d"},"vehicle_type_id":"4","last_reported":1731582470,"current_range_meters":24800,"station_id":"ce4bhbh2rcd13ifvqeqg","pricing_plan_id":"cebpf4jnsgd1na2vs0mg"},{"bike_id":"40dd4820-8a88-44e5-a999-7233fca7eafc","system_id":"levelo_inurba_marseille","lat":43.29545,"lon":5.37434,"is_reserved":false,"is_disabled":false,"rental_uris":{"android":"levelo://app?vid=40dd4820-8a88-44e5-a999-7233fca7eafc","ios":"levelo://app?vid=40dd4820-8a88-44e5-a999-7233fca7eafc"},"vehicle_type_id":"4","last_reported":1731582470,"current_range_meters":35200,"station_id":"ce4bhb12rcd13ifvqel0","pricing_plan_id":"cebpf4jnsgd1na2vs0mg"},{"bike_id":"4b1abe0a-9f48-4536-a8fc-6a4c289408b8","system_id":"levelo_inurba_marseille","lat":43.30551,"lon":5.36719,"is_reserved":false,"is_disabled":false,"rental_uris":{"android":"levelo://app?vid=4b1abe0a-9f48-4536-a8fc-6a4c289408b8","ios":"levelo://app?vid=4b1abe0a-9f48-4536-a8fc-6a4c289408b8"},"vehicle_type_id":"4","last_reported":1731582470,"current_range_meters":38800,"station_id":"ce4bgrp2rcd13ifvqc9g","pricing_plan_id":"cebpf4jnsgd1na2vs0mg"},{"bike_id":"47c967a5-3c8a-4d73-a522-90111361a0a0","system_id":"levelo_inurba_marseille","lat":43.32482,"lon":5.36561,"is_reserved":false,"is_disabled":false,"rental_uris":{"android":"levelo://app?vid=47c967a5-3c8a-4d73-a522-90111361a0a0","ios":"levelo://app?vid=47c967a5-3c8a-4d73-a522-90111361a0a0"},"vehicle_type_id":"4","last_reported":1731582470,"current_range_meters":40000,"station_id":"ce4bhs12rcd13ifvqhvg","pricing_plan_id":"cebpf4jnsgd1na2vs0mg"},{"bike_id":"b401526e-9797-412b-a024-2aeff2654ce6","system_id":"levelo_inurba_marseille","lat":43.27933,"lon":5.35496,"is_reserved":false,"is_disabled":false,"rental_uris":{"android":"levelo://app?vid=b401526e-9797-412b-a024-2aeff2654ce6","ios":"levelo://app?vid=b401526e-9797-412b-a024-2aeff2654ce6"},"vehicle_type_id":"4","last_reported":1731582470,"current_range_meters":6000,"station_id":"","pricing_plan_id":"cebpf4jnsgd1na2vs0mg"},{"bike_id":"d50b88b2-e32f-4c5e-b720-5751e260ac26","system_id":"levelo_inurba_marseille","lat":43.3361,"lon":5.410357,"is_reserved":false,"is_disabled":false,"rental_uris":{"android":"levelo://app?vid=d50b88b2-e32f-4c5e-b720-5751e260ac26","ios":"levelo://app?vid=d50b88b2-e32f-4c5e-b720-5751e260ac26"},"vehicle_type_id":"4","last_reported":1731582470,"current_range_meters":38800,"station_id":"ce4bhqh2rcd13ifvqhmg","pricing_plan_id":"cebpf4jnsgd1na2vs0mg"},{"bike_id":"2d988347-9c45-4c49-a1fc-7c2979a31818","system_id":"levelo_inurba_marseille","lat":43.28258,"lon":5.3506,"is_reserved":false,"is_disabled":false,"rental_uris":{"android":"levelo://app?vid=2d988347-9c45-4c49-a1fc-7c2979a31818","ios":"levelo://app?vid=2d988347-9c45-4c49-a1fc-7c2979a31818"},"vehicle_type_id":"4","last_reported":1731582470,"current_range_meters":20800,"station_id":"ce4bhbp2rcd13ifvqerg","pricing_plan_id":"cebpf4jnsgd1na2vs0mg"},{"bike_id":"d732473b-b2b1-41e5-95bc-68badaeac70f","system_id":"levelo_inurba_marseille","lat":43.28406,"lon":5.3752,"is_reserved":false,"is_disabled":false,"rental_uris":{"android":"levelo://app?vid=d732473b-b2b1-41e5-95bc-68badaeac70f","ios":"levelo://app?vid=d732473b-b2b1-41e5-95bc-68badaeac70f"},"vehicle_type_id":"4","last_reported":1731582470,"current_range_meters":12400,"station_id":"ce4bh412rcd13ifvqds0","pricing_plan_id":"cebpf4jnsgd1na2vs0mg"},{"bike_id":"d2e51693-906f-4e59-a304-0537c6274510","system_id":"levelo_inurba_marseille","lat":43.23151,"lon":5.4372,"is_reserved":false,"is_disabled":false,"rental_uris":{"android":"levelo://app?vid=d2e51693-906f-4e59-a304-0537c6274510","ios":"levelo://app?vid=d2e51693-906f-4e59-a304-0537c6274510"},"vehicle_type_id":"4","last_reported":1731582470,"current_range_meters":19200,"station_id":"ce4bhmp2rcd13ifvqgog","pricing_plan_id":"cebpf4jnsgd1na2vs0mg"},{"bike_id":"325e9b76-135a-4cd4-96f9-70c5fcf1edac","system_id":"levelo_inurba_marseille","lat":43.28643,"lon":5.38592,"is_reserved":false,"is_disabled":false,"rental_uris":{"android":"levelo://app?vid=325e9b76-135a-4cd4-96f9-70c5fcf1edac","ios":"levelo://app?vid=325e9b76-135a-4cd4-96f9-70c5fcf1edac"},"vehicle_type_id":"4","last_reported":1731582470,"current_range_meters":36000,"station_id":"ce4bh492rcd13ifvqdug","pricing_plan_id":"cebpf4jnsgd1na2vs0mg"},{"bike_id":"785a4434-c998-4c07-9e49-6240ac8eab46","system_id":"levelo_inurba_marseille","lat":43.33023,"lon":5.39041,"is_reserved":false,"is_disabled":false,"rental_uris":{"android":"levelo://app?vid=785a4434-c998-4c07-9e49-6240ac8eab46","ios":"levelo://app?vid=785a4434-c998-4c07-9e49-6240ac8eab46"},"vehicle_type_id":"4","last_reported":1731582470,"current_range_meters":27200,"station_id":"ce4bhr92rcd13ifvqhrg","pricing_plan_id":"cebpf4jnsgd1na2vs0mg"},{"bike_id":"a5906a4c-065f-4383-95f0-b2ef844c8865","system_id":"levelo_inurba_marseille","lat":43.26943,"lon":5.38928,"is_reserved":false,"is_disabled":false,"rental_uris":{"android":"levelo://app?vid=a5906a4c-065f-4383-95f0-b2ef844c8865","ios":"levelo://app?vid=a5906a4c-065f-4383-95f0-b2ef844c8865"},"vehicle_type_id":"4","last_reported":1731582470,"current_range_meters":38800,"station_id":"ce4bhhh2rcd13ifvqfl0","pricing_plan_id":"cebpf4jnsgd1na2vs0mg"},{"bike_id":"75801e28-b69b-4a5e-945c-714926c1ddf7","system_id":"levelo_inurba_marseille","lat":43.337444,"lon":5.374475,"is_reserved":false,"is_disabled":false,"rental_uris":{"android":"levelo://app?vid=75801e28-b69b-4a5e-945c-714926c1ddf7","ios":"levelo://app?vid=75801e28-b69b-4a5e-945c-714926c1ddf7"},"vehicle_type_id":"4","last_reported":1731582470,"current_range_meters":35600,"station_id":"","pricing_plan_id":"cebpf4jnsgd1na2vs0mg"},{"bike_id":"da8ccd01-26fc-4eaa-aa3f-44ee91fc4128","system_id":"levelo_inurba_marseille","lat":43.279115,"lon":5.380126,"is_reserved":false,"is_disabled":false,"rental_uris":{"android":"levelo://app?vid=da8ccd01-26fc-4eaa-aa3f-44ee91fc4128","ios":"levelo://app?vid=da8ccd01-26fc-4eaa-aa3f-44ee91fc4128"},"vehicle_type_id":"4","last_reported":1731582470,"current_range_meters":36800,"station_id":"ce4bhf92rcd13ifvqf50","pricing_plan_id":"cebpf4jnsgd1na2vs0mg"},{"bike_id":"460294fb-fd20-42e7-85c5-d0e52643477f","system_id":"levelo_inurba_marseille","lat":43.27491,"lon":5.42453,"is_reserved":false,"is_disabled":false,"rental_uris":{"android":"levelo://app?vid=460294fb-fd20-42e7-85c5-d0e52643477f","ios":"levelo://app?vid=460294fb-fd20-42e7-85c5-d0e52643477f"},"vehicle_type_id":"4","last_reported":1731582470,"current_range_meters":8400,"station_id":"ce4bhn92rcd13ifvqgrg","pricing_plan_id":"cebpf4jnsgd1na2vs0mg"},{"bike_id":"eebdc58d-ef9d-4db2-94b3-b9cfd3d032d6","system_id":"levelo_inurba_marseille","lat":43.30535,"lon":5.36691,"is_reserved":false,"is_disabled":false,"rental_uris":{"android":"levelo://app?vid=eebdc58d-ef9d-4db2-94b3-b9cfd3d032d6","ios":"levelo://app?vid=eebdc58d-ef9d-4db2-94b3-b9cfd3d032d6"},"vehicle_type_id":"4","last_reported":1731582470,"current_range_meters":32000,"station_id":"ce4bgrp2rcd13ifvqc9g","pricing_plan_id":"cebpf4jnsgd1na2vs0mg"},{"bike_id":"9a6b3fa5-17ed-462b-822c-1e04067883f8","system_id":"levelo_inurba_marseille","lat":43.24179,"lon":5.39728,"is_reserved":false,"is_disabled":false,"rental_uris":{"android":"levelo://app?vid=9a6b3fa5-17ed-462b-822c-1e04067883f8","ios":"levelo://app?vid=9a6b3fa5-17ed-462b-822c-1e04067883f8"},"vehicle_type_id":"4","last_reported":1731582470,"current_range_meters":28000,"station_id":"ce4bhn12rcd13ifvqgpg","pricing_plan_id":"cebpf4jnsgd1na2vs0mg"},{"bike_id":"e1a6970f-d408-49cf-a4fe-ef82d2512acf","system_id":"levelo_inurba_marseille","lat":43.32477,"lon":5.36561,"is_reserved":false,"is_disabled":false,"rental_uris":{"android":"levelo://app?vid=e1a6970f-d408-49cf-a4fe-ef82d2512acf","ios":"levelo://app?vid=e1a6970f-d408-49cf-a4fe-ef82d2512acf"},"vehicle_type_id":"4","last_reported":1731582470,"current_range_meters":14400,"station_id":"ce4bhs12rcd13ifvqhvg","pricing_plan_id":"cebpf4jnsgd1na2vs0mg"},{"bike_id":"431da0da-2765-40c5-8ec6-144e64d098fc","system_id":"levelo_inurba_marseille","lat":43.30541,"lon":5.36535,"is_reserved":false,"is_disabled":false,"rental_uris":{"android":"levelo://app?vid=431da0da-2765-40c5-8ec6-144e64d098fc","ios":"levelo://app?vid=431da0da-2765-40c5-8ec6-144e64d098fc"},"vehicle_type_id":"4","last_reported":1731582470,"current_range_meters":16800,"station_id":"ce4bgs12rcd13ifvqcag","pricing_plan_id":"cebpf4jnsgd1na2vs0mg"},{"bike_id":"d5248d2b-5b98-4ab1-bb99-9a959d0082a8","system_id":"levelo_inurba_marseille","lat":43.30527,"lon":5.36526,"is_reserved":false,"is_disabled":false,"rental_uris":{"android":"levelo://app?vid=d5248d2b-5b98-4ab1-bb99-9a959d0082a8","ios":"levelo://app?vid=d5248d2b-5b98-4ab1-bb99-9a959d0082a8"},"vehicle_type_id":"4","last_reported":1731582470,"current_range_meters":38800,"station_id":"ce4bgs12rcd13ifvqcag","pricing_plan_id":"cebpf4jnsgd1na2vs0mg"},{"bike_id":"62bccb22-187a-4b21-be91-a100963bb583","system_id":"levelo_inurba_marseille","lat":43.28665,"lon":5.36338,"is_reserved":false,"is_disabled":false,"rental_uris":{"android":"levelo://app?vid=62bccb22-187a-4b21-be91-a100963bb583","ios":"levelo://app?vid=62bccb22-187a-4b21-be91-a100963bb583"},"vehicle_type_id":"4","last_reported":1731582470,"current_range_meters":21600,"station_id":"ce4bhah2rcd13ifvqej0","pricing_plan_id":"cebpf4jnsgd1na2vs0mg"},{"bike_id":"e2badf85-87df-423f-90ae-3db5d2b1e066","system_id":"levelo_inurba_marseille","lat":43.28999,"lon":5.35609,"is_reserved":false,"is_disabled":false,"rental_uris":{"android":"levelo://app?vid=e2badf85-87df-423f-90ae-3db5d2b1e066","ios":"levelo://app?vid=e2badf85-87df-423f-90ae-3db5d2b1e066"},"vehicle_type_id":"4","last_reported":1731582470,"current_range_meters":28400,"station_id":"ce4bhb92rcd13ifvqen0","pricing_plan_id":"cebpf4jnsgd1na2vs0mg"},{"bike_id":"3121027d-a127-4e53-acc0-e354536dd3e4","system_id":"levelo_inurba_marseille","lat":43.25004,"lon":5.38922,"is_reserved":false,"is_disabled":false,"rental_uris":{"android":"levelo://app?vid=3121027d-a127-4e53-acc0-e354536dd3e4","ios":"levelo://app?vid=3121027d-a127-4e53-acc0-e354536dd3e4"},"vehicle_type_id":"4","last_reported":1731582470,"current_range_meters":37600,"station_id":"ce4bhgp2rcd13ifvqfd0","pricing_plan_id":"cebpf4jnsgd1na2vs0mg"},{"bike_id":"a885910c-aaa9-4ec7-b396-5d7f8239d63c","system_id":"levelo_inurba_marseille","lat":43.2917,"lon":5.37145,"is_reserved":false,"is_disabled":false,"rental_uris":{"android":"levelo://app?vid=a885910c-aaa9-4ec7-b396-5d7f8239d63c","ios":"levelo://app?vid=a885910c-aaa9-4ec7-b396-5d7f8239d63c"},"vehicle_type_id":"4","last_reported":1731582470,"current_range_meters":39200,"station_id":"ce4bha92rcd13ifvqeh0","pricing_plan_id":"cebpf4jnsgd1na2vs0mg"},{"bike_id":"a583d3ea-648d-4ca4-ab6d-7c3a4f13bd72","system_id":"levelo_inurba_marseille","lat":43.23967,"lon":5.36632,"is_reserved":false,"is_disabled":false,"rental_uris":{"android":"levelo://app?vid=a583d3ea-648d-4ca4-ab6d-7c3a4f13bd72","ios":"levelo://app?vid=a583d3ea-648d-4ca4-ab6d-7c3a4f13bd72"},"vehicle_type_id":"4","last_reported":1731582470,"current_range_meters":24000,"station_id":"ce4bhi12rcd13ifvqfp0","pricing_plan_id":"cebpf4jnsgd1na2vs0mg"},{"bike_id":"817849d8-25eb-48a4-b155-e11b87f519ff","system_id":"levelo_inurba_marseille","lat":43.30542,"lon":5.36527,"is_reserved":false,"is_disabled":false,"rental_uris":{"android":"levelo://app?vid=817849d8-25eb-48a4-b155-e11b87f519ff","ios":"levelo://app?vid=817849d8-25eb-48a4-b155-e11b87f519ff"},"vehicle_type_id":"4","last_reported":1731582470,"current_range_meters":38800,"station_id":"ce4bgs12rcd13ifvqcag","pricing_plan_id":"cebpf4jnsgd1na2vs0mg"},{"bike_id":"398d9db9-8851-4f3a-99db-79cff9eeb41f","system_id":"levelo_inurba_marseille","lat":43.26027,"lon":5.37546,"is_reserved":false,"is_disabled":false,"rental_uris":{"android":"levelo://app?vid=398d9db9-8851-4f3a-99db-79cff9eeb41f","ios":"levelo://app?vid=398d9db9-8851-4f3a-99db-79cff9eeb41f"},"vehicle_type_id":"4","last_reported":1731582470,"current_range_meters":19600,"station_id":"ce4bhgh2rcd13ifvqfa0","pricing_plan_id":"cebpf4jnsgd1na2vs0mg"},{"bike_id":"0aa50df3-327a-48eb-b5f0-a973f44a8663","system_id":"levelo_inurba_marseille","lat":43.24181,"lon":5.3972,"is_reserved":false,"is_disabled":false,"rental_uris":{"android":"levelo://app?vid=0aa50df3-327a-48eb-b5f0-a973f44a8663","ios":"levelo://app?vid=0aa50df3-327a-48eb-b5f0-a973f44a8663"},"vehicle_type_id":"4","last_reported":1731582470,"current_range_meters":26000,"station_id":"ce4bhn12rcd13ifvqgpg","pricing_plan_id":"cebpf4jnsgd1na2vs0mg"},{"bike_id":"50895aa3-3796-4b6a-9eaf-67e06ca3c582","system_id":"levelo_inurba_marseille","lat":43.28616,"lon":5.35101,"is_reserved":false,"is_disabled":false,"rental_uris":{"android":"levelo://app?vid=50895aa3-3796-4b6a-9eaf-67e06ca3c582","ios":"levelo://app?vid=50895aa3-3796-4b6a-9eaf-67e06ca3c582"},"vehicle_type_id":"4","last_reported":1731582470,"current_range_meters":28800,"station_id":"ce4bhch2rcd13ifvqeug","pricing_plan_id":"cebpf4jnsgd1na2vs0mg"},{"bike_id":"217cbaa9-31ca-49a1-87be-ea01a98acc0c","system_id":"levelo_inurba_marseille","lat":43.231565,"lon":5.43706,"is_reserved":false,"is_disabled":false,"rental_uris":{"android":"levelo://app?vid=217cbaa9-31ca-49a1-87be-ea01a98acc0c","ios":"levelo://app?vid=217cbaa9-31ca-49a1-87be-ea01a98acc0c"},"vehicle_type_id":"4","last_reported":1731582470,"current_range_meters":37600,"station_id":"ce4bhmp2rcd13ifvqgog","pricing_plan_id":"cebpf4jnsgd1na2vs0mg"},{"bike_id":"8aab1488-73a5-4ee0-9c75-e32727093ed6","system_id":"levelo_inurba_marseille","lat":43.26556,"lon":5.37277,"is_reserved":false,"is_disabled":false,"rental_uris":{"android":"levelo://app?vid=8aab1488-73a5-4ee0-9c75-e32727093ed6","ios":"levelo://app?vid=8aab1488-73a5-4ee0-9c75-e32727093ed6"},"vehicle_type_id":"4","last_reported":1731582470,"current_range_meters":25600,"station_id":"ce4bhg12rcd13ifvqf70","pricing_plan_id":"cebpf4jnsgd1na2vs0mg"},{"bike_id":"05ef0e5c-fc94-4eeb-bfa5-5f0566aac8e5","system_id":"levelo_inurba_marseille","lat":43.24172,"lon":5.39739,"is_reserved":false,"is_disabled":false,"rental_uris":{"android":"levelo://app?vid=05ef0e5c-fc94-4eeb-bfa5-5f0566aac8e5","ios":"levelo://app?vid=05ef0e5c-fc94-4eeb-bfa5-5f0566aac8e5"},"vehicle_type_id":"4","last_reported":1731582470,"current_range_meters":38800,"station_id":"ce4bhn12rcd13ifvqgpg","pricing_plan_id":"cebpf4jnsgd1na2vs0mg"},{"bike_id":"d99bff46-e3e0-4c25-9719-3fa3dd9a1a6e","system_id":"levelo_inurba_marseille","lat":43.31814,"lon":5.37823,"is_reserved":false,"is_disabled":false,"rental_uris":{"android":"levelo://app?vid=d99bff46-e3e0-4c25-9719-3fa3dd9a1a6e","ios":"levelo://app?vid=d99bff46-e3e0-4c25-9719-3fa3dd9a1a6e"},"vehicle_type_id":"4","last_reported":1731582470,"current_range_meters":20800,"station_id":"","pricing_plan_id":"cebpf4jnsgd1na2vs0mg"},{"bike_id":"7328681f-85a2-4fa2-ba05-e515e3f7c93f","system_id":"levelo_inurba_marseille","lat":43.29846,"lon":5.36282,"is_reserved":false,"is_disabled":false,"rental_uris":{"android":"levelo://app?vid=7328681f-85a2-4fa2-ba05-e515e3f7c93f","ios":"levelo://app?vid=7328681f-85a2-4fa2-ba05-e515e3f7c93f"},"vehicle_type_id":"4","last_reported":1731582470,"current_range_meters":38800,"station_id":"ce4bgpp2rcd13ifvqc3g","pricing_plan_id":"cebpf4jnsgd1na2vs0mg"},{"bike_id":"28027ead-f239-40f0-94da-00cfd8a0af48","system_id":"levelo_inurba_marseille","lat":43.30147,"lon":5.37423,"is_reserved":false,"is_disabled":false,"rental_uris":{"android":"levelo://app?vid=28027ead-f239-40f0-94da-00cfd8a0af48","ios":"levelo://app?vid=28027ead-f239-40f0-94da-00cfd8a0af48"},"vehicle_type_id":"4","last_reported":1731582470,"current_range_meters":10800,"station_id":"ce4bgs92rcd13ifvqcc0","pricing_plan_id":"cebpf4jnsgd1na2vs0mg"},{"bike_id":"81a89863-15b2-4a1c-bbea-87248b848171","system_id":"levelo_inurba_marseille","lat":43.31223,"lon":5.36855,"is_reserved":false,"is_disabled":false,"rental_uris":{"android":"levelo://app?vid=81a89863-15b2-4a1c-bbea-87248b848171","ios":"levelo://app?vid=81a89863-15b2-4a1c-bbea-87248b848171"},"vehicle_type_id":"4","last_reported":1731582470,"current_range_meters":32000,"station_id":"ce4bgl92rcd13ifvqbq0","pricing_plan_id":"cebpf4jnsgd1na2vs0mg"},{"bike_id":"21c3f886-bafe-4236-aa7c-30af499af7f0","system_id":"levelo_inurba_marseille","lat":43.32477,"lon":5.36558,"is_reserved":false,"is_disabled":false,"rental_uris":{"android":"levelo://app?vid=21c3f886-bafe-4236-aa7c-30af499af7f0","ios":"levelo://app?vid=21c3f886-bafe-4236-aa7c-30af499af7f0"},"vehicle_type_id":"4","last_reported":1731582470,"current_range_meters":10000,"station_id":"ce4bhs12rcd13ifvqhvg","pricing_plan_id":"cebpf4jnsgd1na2vs0mg"},{"bike_id":"14dc970f-991c-4178-b6ca-20b8175b56fa","system_id":"levelo_inurba_marseille","lat":43.29895,"lon":5.43671,"is_reserved":false,"is_disabled":false,"rental_uris":{"android":"levelo://app?vid=14dc970f-991c-4178-b6ca-20b8175b56fa","ios":"levelo://app?vid=14dc970f-991c-4178-b6ca-20b8175b56fa"},"vehicle_type_id":"4","last_reported":1731582470,"current_range_meters":10800,"station_id":"ce4bhpp2rcd13ifvqhfg","pricing_plan_id":"cebpf4jnsgd1na2vs0mg"},{"bike_id":"a64b2e87-dfc1-4098-aac6-83156bb73f66","system_id":"levelo_inurba_marseille","lat":43.25001,"lon":5.38933,"is_reserved":false,"is_disabled":false,"rental_uris":{"android":"levelo://app?vid=a64b2e87-dfc1-4098-aac6-83156bb73f66","ios":"levelo://app?vid=a64b2e87-dfc1-4098-aac6-83156bb73f66"},"vehicle_type_id":"4","last_reported":1731582470,"current_range_meters":30800,"station_id":"ce4bhgp2rcd13ifvqfd0","pricing_plan_id":"cebpf4jnsgd1na2vs0mg"},{"bike_id":"7c161af1-0cd1-4821-8b0d-b12932b87c6f","system_id":"levelo_inurba_marseille","lat":43.31262,"lon":5.36847,"is_reserved":false,"is_disabled":false,"rental_uris":{"android":"levelo://app?vid=7c161af1-0cd1-4821-8b0d-b12932b87c6f","ios":"levelo://app?vid=7c161af1-0cd1-4821-8b0d-b12932b87c6f"},"vehicle_type_id":"4","last_reported":1731582470,"current_range_meters":38400,"station_id":"ce4bgl92rcd13ifvqbq0","pricing_plan_id":"cebpf4jnsgd1na2vs0mg"},{"bike_id":"7e68d8eb-008a-41fa-8d76-b35dd2ccf3ff","system_id":"levelo_inurba_marseille","lat":43.25002,"lon":5.38924,"is_reserved":false,"is_disabled":false,"rental_uris":{"android":"levelo://app?vid=7e68d8eb-008a-41fa-8d76-b35dd2ccf3ff","ios":"levelo://app?vid=7e68d8eb-008a-41fa-8d76-b35dd2ccf3ff"},"vehicle_type_id":"4","last_reported":1731582470,"current_range_meters":26000,"station_id":"ce4bhgp2rcd13ifvqfd0","pricing_plan_id":"cebpf4jnsgd1na2vs0mg"},{"bike_id":"e7176aa2-d3c2-43a2-b061-c0a4679ce72f","system_id":"levelo_inurba_marseille","lat":43.29838,"lon":5.36259,"is_reserved":false,"is_disabled":false,"rental_uris":{"android":"levelo://app?vid=e7176aa2-d3c2-43a2-b061-c0a4679ce72f","ios":"levelo://app?vid=e7176aa2-d3c2-43a2-b061-c0a4679ce72f"},"vehicle_type_id":"4","last_reported":1731582470,"current_range_meters":38800,"station_id":"ce4bgpp2rcd13ifvqc3g","pricing_plan_id":"cebpf4jnsgd1na2vs0mg"},{"bike_id":"f15f84e3-6119-4797-bcba-f763c86025cb","system_id":"levelo_inurba_marseille","lat":43.337444,"lon":5.374475,"is_reserved":false,"is_disabled":false,"rental_uris":{"android":"levelo://app?vid=f15f84e3-6119-4797-bcba-f763c86025cb","ios":"levelo://app?vid=f15f84e3-6119-4797-bcba-f763c86025cb"},"vehicle_type_id":"4","last_reported":1731582470,"current_range_meters":35600,"station_id":"","pricing_plan_id":"cebpf4jnsgd1na2vs0mg"},{"bike_id":"036660bb-e0af-4432-82fb-e97d98ed5073","system_id":"levelo_inurba_marseille","lat":43.3095,"lon":5.39037,"is_reserved":false,"is_disabled":false,"rental_uris":{"android":"levelo://app?vid=036660bb-e0af-4432-82fb-e97d98ed5073","ios":"levelo://app?vid=036660bb-e0af-4432-82fb-e97d98ed5073"},"vehicle_type_id":"4","last_reported":1731582470,"current_range_meters":34800,"station_id":"ce4bgup2rcd13ifvqco0","pricing_plan_id":"cebpf4jnsgd1na2vs0mg"},{"bike_id":"8802484e-43c7-4e84-a32e-423d45ab10ae","system_id":"levelo_inurba_marseille","lat":43.27835,"lon":5.39208,"is_reserved":false,"is_disabled":false,"rental_uris":{"android":"levelo://app?vid=8802484e-43c7-4e84-a32e-423d45ab10ae","ios":"levelo://app?vid=8802484e-43c7-4e84-a32e-423d45ab10ae"},"vehicle_type_id":"4","last_reported":1731582470,"current_range_meters":17200,"station_id":"ce4bhjp2rcd13ifvqga0","pricing_plan_id":"cebpf4jnsgd1na2vs0mg"},{"bike_id":"15c0d423-6e07-4893-8f2e-46fe39d48212","system_id":"levelo_inurba_marseille","lat":43.30485,"lon":5.39823,"is_reserved":false,"is_disabled":false,"rental_uris":{"android":"levelo://app?vid=15c0d423-6e07-4893-8f2e-46fe39d48212","ios":"levelo://app?vid=15c0d423-6e07-4893-8f2e-46fe39d48212"},"vehicle_type_id":"4","last_reported":1731582470,"current_range_meters":6400,"station_id":"ce4bh092rcd13ifvqd20","pricing_plan_id":"cebpf4jnsgd1na2vs0mg"},{"bike_id":"c12e8bda-0e21-4687-9bad-39d69ce4f3e0","system_id":"levelo_inurba_marseille","lat":43.28258,"lon":5.35054,"is_reserved":false,"is_disabled":false,"rental_uris":{"android":"levelo://app?vid=c12e8bda-0e21-4687-9bad-39d69ce4f3e0","ios":"levelo://app?vid=c12e8bda-0e21-4687-9bad-39d69ce4f3e0"},"vehicle_type_id":"4","last_reported":1731582470,"current_range_meters":18000,"station_id":"ce4bhbp2rcd13ifvqerg","pricing_plan_id":"cebpf4jnsgd1na2vs0mg"},{"bike_id":"17d9bfac-df88-46ee-ba4d-7fd62ae79cdf","system_id":"levelo_inurba_marseille","lat":43.2963,"lon":5.40591,"is_reserved":false,"is_disabled":false,"rental_uris":{"android":"levelo://app?vid=17d9bfac-df88-46ee-ba4d-7fd62ae79cdf","ios":"levelo://app?vid=17d9bfac-df88-46ee-ba4d-7fd62ae79cdf"},"vehicle_type_id":"4","last_reported":1731582470,"current_range_meters":34800,"station_id":"ce4bh0h2rcd13ifvqd60","pricing_plan_id":"cebpf4jnsgd1na2vs0mg"},{"bike_id":"ba295aa4-e303-4da2-9863-82d8a34fc59c","system_id":"levelo_inurba_marseille","lat":43.2396,"lon":5.36638,"is_reserved":false,"is_disabled":false,"rental_uris":{"android":"levelo://app?vid=ba295aa4-e303-4da2-9863-82d8a34fc59c","ios":"levelo://app?vid=ba295aa4-e303-4da2-9863-82d8a34fc59c"},"vehicle_type_id":"4","last_reported":1731582470,"current_range_meters":14800,"station_id":"ce4bhi12rcd13ifvqfp0","pricing_plan_id":"cebpf4jnsgd1na2vs0mg"},{"bike_id":"fdda4263-7e44-4ebc-b6f3-499d9c13e74e","system_id":"levelo_inurba_marseille","lat":43.25585,"lon":5.38222,"is_reserved":false,"is_disabled":false,"rental_uris":{"android":"levelo://app?vid=fdda4263-7e44-4ebc-b6f3-499d9c13e74e","ios":"levelo://app?vid=fdda4263-7e44-4ebc-b6f3-499d9c13e74e"},"vehicle_type_id":"4","last_reported":1731582470,"current_range_meters":8400,"station_id":"ce4bhih2rcd13ifvqfs0","pricing_plan_id":"cebpf4jnsgd1na2vs0mg"},{"bike_id":"8963f262-bdcb-43f5-9e37-237198779ba8","system_id":"levelo_inurba_marseille","lat":43.33773,"lon":5.37442,"is_reserved":false,"is_disabled":false,"rental_uris":{"android":"levelo://app?vid=8963f262-bdcb-43f5-9e37-237198779ba8","ios":"levelo://app?vid=8963f262-bdcb-43f5-9e37-237198779ba8"},"vehicle_type_id":"4","last_reported":1731582470,"current_range_meters":34000,"station_id":"","pricing_plan_id":"cebpf4jnsgd1na2vs0mg"},{"bike_id":"398b47b3-a042-4cec-b1dd-254773a78263","system_id":"levelo_inurba_marseille","lat":43.27403,"lon":5.38948,"is_reserved":false,"is_disabled":false,"rental_uris":{"android":"levelo://app?vid=398b47b3-a042-4cec-b1dd-254773a78263","ios":"levelo://app?vid=398b47b3-a042-4cec-b1dd-254773a78263"},"vehicle_type_id":"4","last_reported":1731582470,"current_range_meters":4800,"station_id":"","pricing_plan_id":"cebpf4jnsgd1na2vs0mg"},{"bike_id":"5a1166d5-d0bb-49b4-8f26-a06056d47780","system_id":"levelo_inurba_marseille","lat":43.25586,"lon":5.38232,"is_reserved":false,"is_disabled":false,"rental_uris":{"android":"levelo://app?vid=5a1166d5-d0bb-49b4-8f26-a06056d47780","ios":"levelo://app?vid=5a1166d5-d0bb-49b4-8f26-a06056d47780"},"vehicle_type_id":"4","last_reported":1731582470,"current_range_meters":11600,"station_id":"ce4bhih2rcd13ifvqfs0","pricing_plan_id":"cebpf4jnsgd1na2vs0mg"},{"bike_id":"aca23579-0a19-4a4b-a12f-57b0591e79bd","system_id":"levelo_inurba_marseille","lat":43.24082,"lon":5.37749,"is_reserved":false,"is_disabled":false,"rental_uris":{"android":"levelo://app?vid=aca23579-0a19-4a4b-a12f-57b0591e79bd","ios":"levelo://app?vid=aca23579-0a19-4a4b-a12f-57b0591e79bd"},"vehicle_type_id":"4","last_reported":1731582470,"current_range_meters":28000,"station_id":"ce4bhnp2rcd13ifvqgvg","pricing_plan_id":"cebpf4jnsgd1na2vs0mg"},{"bike_id":"ac1081cc-aff5-436e-a11b-24d06190a755","system_id":"levelo_inurba_marseille","lat":43.337444,"lon":5.374475,"is_reserved":false,"is_disabled":false,"rental_uris":{"android":"levelo://app?vid=ac1081cc-aff5-436e-a11b-24d06190a755","ios":"levelo://app?vid=ac1081cc-aff5-436e-a11b-24d06190a755"},"vehicle_type_id":"4","last_reported":1731582470,"current_range_meters":34800,"station_id":"","pricing_plan_id":"cebpf4jnsgd1na2vs0mg"},{"bike_id":"e0223d4a-76ae-4328-bd57-ba87312b68f3","system_id":"levelo_inurba_marseille","lat":43.29687,"lon":5.3729,"is_reserved":false,"is_disabled":false,"rental_uris":{"android":"levelo://app?vid=e0223d4a-76ae-4328-bd57-ba87312b68f3","ios":"levelo://app?vid=e0223d4a-76ae-4328-bd57-ba87312b68f3"},"vehicle_type_id":"4","last_reported":1731582470,"current_range_meters":38800,"station_id":"ce4bgk12rcd13ifvqbj0","pricing_plan_id":"cebpf4jnsgd1na2vs0mg"},{"bike_id":"92e3ad17-17c9-4714-a148-ef9436ad6113","system_id":"levelo_inurba_marseille","lat":43.22935,"lon":5.3538,"is_reserved":false,"is_disabled":false,"rental_uris":{"android":"levelo://app?vid=92e3ad17-17c9-4714-a148-ef9436ad6113","ios":"levelo://app?vid=92e3ad17-17c9-4714-a148-ef9436ad6113"},"vehicle_type_id":"4","last_reported":1731582470,"current_range_meters":38800,"station_id":"cpo3532slgdg3j2ikp40","pricing_plan_id":"cebpf4jnsgd1na2vs0mg"},{"bike_id":"187a7fa8-9afd-4d26-b5e7-6a10712e67a7","system_id":"levelo_inurba_marseille","lat":43.2315,"lon":5.43714,"is_reserved":false,"is_disabled":false,"rental_uris":{"android":"levelo://app?vid=187a7fa8-9afd-4d26-b5e7-6a10712e67a7","ios":"levelo://app?vid=187a7fa8-9afd-4d26-b5e7-6a10712e67a7"},"vehicle_type_id":"4","last_reported":1731582470,"current_range_meters":39200,"station_id":"ce4bhmp2rcd13ifvqgog","pricing_plan_id":"cebpf4jnsgd1na2vs0mg"},{"bike_id":"856605d7-f375-4182-84a8-f5e071abd77c","system_id":"levelo_inurba_marseille","lat":43.30095,"lon":5.39079,"is_reserved":false,"is_disabled":false,"rental_uris":{"android":"levelo://app?vid=856605d7-f375-4182-84a8-f5e071abd77c","ios":"levelo://app?vid=856605d7-f375-4182-84a8-f5e071abd77c"},"vehicle_type_id":"4","last_reported":1731582470,"current_range_meters":24800,"station_id":"ce4bh192rcd13ifvqdb0","pricing_plan_id":"cebpf4jnsgd1na2vs0mg"},{"bike_id":"b57a5365-00b1-42ab-a3f6-488c665039da","system_id":"levelo_inurba_marseille","lat":43.267193,"lon":5.382013,"is_reserved":false,"is_disabled":false,"rental_uris":{"android":"levelo://app?vid=b57a5365-00b1-42ab-a3f6-488c665039da","ios":"levelo://app?vid=b57a5365-00b1-42ab-a3f6-488c665039da"},"vehicle_type_id":"4","last_reported":1731582470,"current_range_meters":36800,"station_id":"ce4bhg92rcd13ifvqf90","pricing_plan_id":"cebpf4jnsgd1na2vs0mg"},{"bike_id":"82f309e6-c4ae-421f-89cb-1d64a8e0ef10","system_id":"levelo_inurba_marseille","lat":43.337444,"lon":5.374475,"is_reserved":false,"is_disabled":false,"rental_uris":{"android":"levelo://app?vid=82f309e6-c4ae-421f-89cb-1d64a8e0ef10","ios":"levelo://app?vid=82f309e6-c4ae-421f-89cb-1d64a8e0ef10"},"vehicle_type_id":"4","last_reported":1731582470,"current_range_meters":33200,"station_id":"","pricing_plan_id":"cebpf4jnsgd1na2vs0mg"},{"bike_id":"5419d154-3ce9-4c40-9294-d16b9d2b3431","system_id":"levelo_inurba_marseille","lat":43.337444,"lon":5.374475,"is_reserved":false,"is_disabled":false,"rental_uris":{"android":"levelo://app?vid=5419d154-3ce9-4c40-9294-d16b9d2b3431","ios":"levelo://app?vid=5419d154-3ce9-4c40-9294-d16b9d2b3431"},"vehicle_type_id":"4","last_reported":1731582470,"current_range_meters":33200,"station_id":"","pricing_plan_id":"cebpf4jnsgd1na2vs0mg"},{"bike_id":"8146b127-e602-40cb-a6bf-0f40669d5db0","system_id":"levelo_inurba_marseille","lat":43.25725,"lon":5.41106,"is_reserved":false,"is_disabled":false,"rental_uris":{"android":"levelo://app?vid=8146b127-e602-40cb-a6bf-0f40669d5db0","ios":"levelo://app?vid=8146b127-e602-40cb-a6bf-0f40669d5db0"},"vehicle_type_id":"4","last_reported":1731582470,"current_range_meters":16800,"station_id":"ce4bhkp2rcd13ifvqgd0","pricing_plan_id":"cebpf4jnsgd1na2vs0mg"},{"bike_id":"6e4ab7d2-c1df-4ea4-bb4b-2f5c43ed5717","system_id":"levelo_inurba_marseille","lat":43.33768,"lon":5.37439,"is_reserved":false,"is_disabled":false,"rental_uris":{"android":"levelo://app?vid=6e4ab7d2-c1df-4ea4-bb4b-2f5c43ed5717","ios":"levelo://app?vid=6e4ab7d2-c1df-4ea4-bb4b-2f5c43ed5717"},"vehicle_type_id":"4","last_reported":1731582470,"current_range_meters":32800,"station_id":"","pricing_plan_id":"cebpf4jnsgd1na2vs0mg"},{"bike_id":"bd465249-964f-4479-968e-5f6e32af60f1","system_id":"levelo_inurba_marseille","lat":43.337444,"lon":5.374475,"is_reserved":false,"is_disabled":false,"rental_uris":{"android":"levelo://app?vid=bd465249-964f-4479-968e-5f6e32af60f1","ios":"levelo://app?vid=bd465249-964f-4479-968e-5f6e32af60f1"},"vehicle_type_id":"4","last_reported":1731582470,"current_range_meters":35200,"station_id":"","pricing_plan_id":"cebpf4jnsgd1na2vs0mg"},{"bike_id":"e9884c3e-ef8b-4f5f-bbd2-a8caa762df54","system_id":"levelo_inurba_marseille","lat":43.24803,"lon":5.37456,"is_reserved":false,"is_disabled":false,"rental_uris":{"android":"levelo://app?vid=e9884c3e-ef8b-4f5f-bbd2-a8caa762df54","ios":"levelo://app?vid=e9884c3e-ef8b-4f5f-bbd2-a8caa762df54"},"vehicle_type_id":"4","last_reported":1731582470,"current_range_meters":38000,"station_id":"ce4bhgh2rcd13ifvqfb0","pricing_plan_id":"cebpf4jnsgd1na2vs0mg"},{"bike_id":"ab567196-6448-4d50-a225-babc4359ed54","system_id":"levelo_inurba_marseille","lat":43.30555,"lon":5.36695,"is_reserved":false,"is_disabled":false,"rental_uris":{"android":"levelo://app?vid=ab567196-6448-4d50-a225-babc4359ed54","ios":"levelo://app?vid=ab567196-6448-4d50-a225-babc4359ed54"},"vehicle_type_id":"4","last_reported":1731582470,"current_range_meters":24400,"station_id":"ce4bgrp2rcd13ifvqc9g","pricing_plan_id":"cebpf4jnsgd1na2vs0mg"},{"bike_id":"9e456525-0f5f-4a80-9d37-85501f13c908","system_id":"levelo_inurba_marseille","lat":43.25083,"lon":5.39512,"is_reserved":false,"is_disabled":false,"rental_uris":{"android":"levelo://app?vid=9e456525-0f5f-4a80-9d37-85501f13c908","ios":"levelo://app?vid=9e456525-0f5f-4a80-9d37-85501f13c908"},"vehicle_type_id":"4","last_reported":1731582470,"current_range_meters":38800,"station_id":"ce4bhm12rcd13ifvqgkg","pricing_plan_id":"cebpf4jnsgd1na2vs0mg"},{"bike_id":"b5c79a16-fad2-4958-b667-4e5ffb0e0f86","system_id":"levelo_inurba_marseille","lat":43.27562,"lon":5.384035,"is_reserved":false,"is_disabled":false,"rental_uris":{"android":"levelo://app?vid=b5c79a16-fad2-4958-b667-4e5ffb0e0f86","ios":"levelo://app?vid=b5c79a16-fad2-4958-b667-4e5ffb0e0f86"},"vehicle_type_id":"4","last_reported":1731582470,"current_range_meters":32000,"station_id":"ce4bhh92rcd13ifvqfi0","pricing_plan_id":"cebpf4jnsgd1na2vs0mg"},{"bike_id":"cabce291-7cd2-4ccb-8473-0d479f841e8b","system_id":"levelo_inurba_marseille","lat":43.30307,"lon":5.36883,"is_reserved":false,"is_disabled":false,"rental_uris":{"android":"levelo://app?vid=cabce291-7cd2-4ccb-8473-0d479f841e8b","ios":"levelo://app?vid=cabce291-7cd2-4ccb-8473-0d479f841e8b"},"vehicle_type_id":"4","last_reported":1731582470,"current_range_meters":28000,"station_id":"ce4bgqh2rcd13ifvqc5g","pricing_plan_id":"cebpf4jnsgd1na2vs0mg"},{"bike_id":"c9d041c0-acec-4cf4-bba2-e01a92441368","system_id":"levelo_inurba_marseille","lat":43.337444,"lon":5.374475,"is_reserved":false,"is_disabled":false,"rental_uris":{"android":"levelo://app?vid=c9d041c0-acec-4cf4-bba2-e01a92441368","ios":"levelo://app?vid=c9d041c0-acec-4cf4-bba2-e01a92441368"},"vehicle_type_id":"4","last_reported":1731582470,"current_range_meters":34800,"station_id":"","pricing_plan_id":"cebpf4jnsgd1na2vs0mg"},{"bike_id":"c5632cbd-40af-4c93-9f93-5def2f16fea5","system_id":"levelo_inurba_marseille","lat":43.30961,"lon":5.39039,"is_reserved":false,"is_disabled":false,"rental_uris":{"android":"levelo://app?vid=c5632cbd-40af-4c93-9f93-5def2f16fea5","ios":"levelo://app?vid=c5632cbd-40af-4c93-9f93-5def2f16fea5"},"vehicle_type_id":"4","last_reported":1731582470,"current_range_meters":27600,"station_id":"ce4bgup2rcd13ifvqco0","pricing_plan_id":"cebpf4jnsgd1na2vs0mg"},{"bike_id":"39e019ca-49ae-43c8-8104-0364ba2271c5","system_id":"levelo_inurba_marseille","lat":43.31121,"lon":5.37775,"is_reserved":false,"is_disabled":false,"rental_uris":{"android":"levelo://app?vid=39e019ca-49ae-43c8-8104-0364ba2271c5","ios":"levelo://app?vid=39e019ca-49ae-43c8-8104-0364ba2271c5"},"vehicle_type_id":"4","last_reported":1731582470,"current_range_meters":26000,"station_id":"ce4bgt92rcd13ifvqcg0","pricing_plan_id":"cebpf4jnsgd1na2vs0mg"},{"bike_id":"f8861758-49fd-41b4-a46e-00cfd5e801f9","system_id":"levelo_inurba_marseille","lat":43.245464,"lon":5.395273,"is_reserved":false,"is_disabled":false,"rental_uris":{"android":"levelo://app?vid=f8861758-49fd-41b4-a46e-00cfd5e801f9","ios":"levelo://app?vid=f8861758-49fd-41b4-a46e-00cfd5e801f9"},"vehicle_type_id":"4","last_reported":1731582470,"current_range_meters":38800,"station_id":"ce4bhlp2rcd13ifvqgjg","pricing_plan_id":"cebpf4jnsgd1na2vs0mg"},{"bike_id":"1a3f88a7-ba66-47f0-b62b-2014c1df80d9","system_id":"levelo_inurba_marseille","lat":43.231527,"lon":5.437076,"is_reserved":false,"is_disabled":false,"rental_uris":{"android":"levelo://app?vid=1a3f88a7-ba66-47f0-b62b-2014c1df80d9","ios":"levelo://app?vid=1a3f88a7-ba66-47f0-b62b-2014c1df80d9"},"vehicle_type_id":"4","last_reported":1731582470,"current_range_meters":30000,"station_id":"ce4bhmp2rcd13ifvqgog","pricing_plan_id":"cebpf4jnsgd1na2vs0mg"},{"bike_id":"df66abf0-5814-42dd-b2a3-5842fb95e6fb","system_id":"levelo_inurba_marseille","lat":43.34148,"lon":5.40905,"is_reserved":false,"is_disabled":false,"rental_uris":{"android":"levelo://app?vid=df66abf0-5814-42dd-b2a3-5842fb95e6fb","ios":"levelo://app?vid=df66abf0-5814-42dd-b2a3-5842fb95e6fb"},"vehicle_type_id":"4","last_reported":1731582470,"current_range_meters":34000,"station_id":"ce4bhqh2rcd13ifvqhlg","pricing_plan_id":"cebpf4jnsgd1na2vs0mg"},{"bike_id":"405716d9-2be8-4559-9370-b01533cfe98b","system_id":"levelo_inurba_marseille","lat":43.313497,"lon":5.367217,"is_reserved":false,"is_disabled":false,"rental_uris":{"android":"levelo://app?vid=405716d9-2be8-4559-9370-b01533cfe98b","ios":"levelo://app?vid=405716d9-2be8-4559-9370-b01533cfe98b"},"vehicle_type_id":"4","last_reported":1731582470,"current_range_meters":32400,"station_id":"ce4bgr92rcd13ifvqc6g","pricing_plan_id":"cebpf4jnsgd1na2vs0mg"},{"bike_id":"01b80681-6c7f-4312-8c1b-ddf397101f9f","system_id":"levelo_inurba_marseille","lat":43.245464,"lon":5.395273,"is_reserved":false,"is_disabled":false,"rental_uris":{"android":"levelo://app?vid=01b80681-6c7f-4312-8c1b-ddf397101f9f","ios":"levelo://app?vid=01b80681-6c7f-4312-8c1b-ddf397101f9f"},"vehicle_type_id":"4","last_reported":1731582470,"current_range_meters":29600,"station_id":"ce4bhlp2rcd13ifvqgjg","pricing_plan_id":"cebpf4jnsgd1na2vs0mg"},{"bike_id":"1dca9f1f-5dd4-41c5-b48e-0f6ba47cad02","system_id":"levelo_inurba_marseille","lat":43.31166,"lon":5.41026,"is_reserved":false,"is_disabled":false,"rental_uris":{"android":"levelo://app?vid=1dca9f1f-5dd4-41c5-b48e-0f6ba47cad02","ios":"levelo://app?vid=1dca9f1f-5dd4-41c5-b48e-0f6ba47cad02"},"vehicle_type_id":"4","last_reported":1731582470,"current_range_meters":16400,"station_id":"ce4bhp92rcd13ifvqhag","pricing_plan_id":"cebpf4jnsgd1na2vs0mg"},{"bike_id":"92eef5a4-7413-4712-aa62-eb761eb3479d","system_id":"levelo_inurba_marseille","lat":43.28117,"lon":5.37844,"is_reserved":false,"is_disabled":false,"rental_uris":{"android":"levelo://app?vid=92eef5a4-7413-4712-aa62-eb761eb3479d","ios":"levelo://app?vid=92eef5a4-7413-4712-aa62-eb761eb3479d"},"vehicle_type_id":"4","last_reported":1731582470,"current_range_meters":37600,"station_id":"ce4bha12rcd13ifvqee0","pricing_plan_id":"cebpf4jnsgd1na2vs0mg"},{"bike_id":"dcf71a52-f3e1-4df6-92d3-80fe9464d673","system_id":"levelo_inurba_marseille","lat":43.27996,"lon":5.40013,"is_reserved":false,"is_disabled":false,"rental_uris":{"android":"levelo://app?vid=dcf71a52-f3e1-4df6-92d3-80fe9464d673","ios":"levelo://app?vid=dcf71a52-f3e1-4df6-92d3-80fe9464d673"},"vehicle_type_id":"4","last_reported":1731582470,"current_range_meters":38800,"station_id":"ce4bho92rcd13ifvqh4g","pricing_plan_id":"cebpf4jnsgd1na2vs0mg"},{"bike_id":"186565d5-1cae-40de-858e-d37979d0e250","system_id":"levelo_inurba_marseille","lat":43.30534,"lon":5.36528,"is_reserved":false,"is_disabled":false,"rental_uris":{"android":"levelo://app?vid=186565d5-1cae-40de-858e-d37979d0e250","ios":"levelo://app?vid=186565d5-1cae-40de-858e-d37979d0e250"},"vehicle_type_id":"4","last_reported":1731582470,"current_range_meters":18000,"station_id":"ce4bgs12rcd13ifvqcag","pricing_plan_id":"cebpf4jnsgd1na2vs0mg"},{"bike_id":"e0aa3f6e-e5ff-42f8-8038-3b8680bdfe14","system_id":"levelo_inurba_marseille","lat":43.290339,"lon":5.399781,"is_reserved":false,"is_disabled":false,"rental_uris":{"android":"levelo://app?vid=e0aa3f6e-e5ff-42f8-8038-3b8680bdfe14","ios":"levelo://app?vid=e0aa3f6e-e5ff-42f8-8038-3b8680bdfe14"},"vehicle_type_id":"4","last_reported":1731582470,"current_range_meters":35600,"station_id":"ce4bh392rcd13ifvqdm0","pricing_plan_id":"cebpf4jnsgd1na2vs0mg"},{"bike_id":"942ebb39-b1c0-4e2a-8bd6-9132b397a7ce","system_id":"levelo_inurba_marseille","lat":43.27995,"lon":5.41657,"is_reserved":false,"is_disabled":false,"rental_uris":{"android":"levelo://app?vid=942ebb39-b1c0-4e2a-8bd6-9132b397a7ce","ios":"levelo://app?vid=942ebb39-b1c0-4e2a-8bd6-9132b397a7ce"},"vehicle_type_id":"4","last_reported":1731582470,"current_range_meters":36400,"station_id":"ce4bho12rcd13ifvqh1g","pricing_plan_id":"cebpf4jnsgd1na2vs0mg"},{"bike_id":"7993481c-6af9-41f2-9bac-c327a53be150","system_id":"levelo_inurba_marseille","lat":43.23155,"lon":5.437,"is_reserved":false,"is_disabled":false,"rental_uris":{"android":"levelo://app?vid=7993481c-6af9-41f2-9bac-c327a53be150","ios":"levelo://app?vid=7993481c-6af9-41f2-9bac-c327a53be150"},"vehicle_type_id":"4","last_reported":1731582470,"current_range_meters":37600,"station_id":"ce4bhmp2rcd13ifvqgog","pricing_plan_id":"cebpf4jnsgd1na2vs0mg"},{"bike_id":"05b5cc87-0d2f-43a8-8dfc-707aefde731b","system_id":"levelo_inurba_marseille","lat":43.28929,"lon":5.38376,"is_reserved":false,"is_disabled":false,"rental_uris":{"android":"levelo://app?vid=05b5cc87-0d2f-43a8-8dfc-707aefde731b","ios":"levelo://app?vid=05b5cc87-0d2f-43a8-8dfc-707aefde731b"},"vehicle_type_id":"4","last_reported":1731582470,"current_range_meters":38000,"station_id":"ce4bh612rcd13ifvqe6g","pricing_plan_id":"cebpf4jnsgd1na2vs0mg"},{"bike_id":"0d5ee60c-2841-4969-89c8-a0d5ddfc8c67","system_id":"levelo_inurba_marseille","lat":43.28986,"lon":5.35603,"is_reserved":false,"is_disabled":false,"rental_uris":{"android":"levelo://app?vid=0d5ee60c-2841-4969-89c8-a0d5ddfc8c67","ios":"levelo://app?vid=0d5ee60c-2841-4969-89c8-a0d5ddfc8c67"},"vehicle_type_id":"4","last_reported":1731582470,"current_range_meters":9200,"station_id":"ce4bhb92rcd13ifvqen0","pricing_plan_id":"cebpf4jnsgd1na2vs0mg"},{"bike_id":"afe2e088-4a36-4017-9dde-ff8c960d2821","system_id":"levelo_inurba_marseille","lat":43.34145,"lon":5.40903,"is_reserved":false,"is_disabled":false,"rental_uris":{"android":"levelo://app?vid=afe2e088-4a36-4017-9dde-ff8c960d2821","ios":"levelo://app?vid=afe2e088-4a36-4017-9dde-ff8c960d2821"},"vehicle_type_id":"4","last_reported":1731582470,"current_range_meters":30000,"station_id":"ce4bhqh2rcd13ifvqhlg","pricing_plan_id":"cebpf4jnsgd1na2vs0mg"},{"bike_id":"9349eebe-93fd-472c-91d4-00e053b1829b","system_id":"levelo_inurba_marseille","lat":43.24387,"lon":5.37063,"is_reserved":false,"is_disabled":false,"rental_uris":{"android":"levelo://app?vid=9349eebe-93fd-472c-91d4-00e053b1829b","ios":"levelo://app?vid=9349eebe-93fd-472c-91d4-00e053b1829b"},"vehicle_type_id":"4","last_reported":1731582470,"current_range_meters":6800,"station_id":"ce4bhhh2rcd13ifvqfk0","pricing_plan_id":"cebpf4jnsgd1na2vs0mg"},{"bike_id":"3b57e4e1-af7d-4317-aba0-bd82d6e9a2f1","system_id":"levelo_inurba_marseille","lat":43.29716,"lon":5.37694,"is_reserved":false,"is_disabled":false,"rental_uris":{"android":"levelo://app?vid=3b57e4e1-af7d-4317-aba0-bd82d6e9a2f1","ios":"levelo://app?vid=3b57e4e1-af7d-4317-aba0-bd82d6e9a2f1"},"vehicle_type_id":"4","last_reported":1731582470,"current_range_meters":28000,"station_id":"ce4bgkh2rcd13ifvqbl0","pricing_plan_id":"cebpf4jnsgd1na2vs0mg"},{"bike_id":"337ea833-1b01-4041-a864-7a3676c066d7","system_id":"levelo_inurba_marseille","lat":43.27072,"lon":5.42273,"is_reserved":false,"is_disabled":false,"rental_uris":{"android":"levelo://app?vid=337ea833-1b01-4041-a864-7a3676c066d7","ios":"levelo://app?vid=337ea833-1b01-4041-a864-7a3676c066d7"},"vehicle_type_id":"4","last_reported":1731582470,"current_range_meters":38400,"station_id":"ce4bhk92rcd13ifvqgb0","pricing_plan_id":"cebpf4jnsgd1na2vs0mg"},{"bike_id":"ae0efc3e-9caa-4749-8dc2-6d5584e97fcd","system_id":"levelo_inurba_marseille","lat":43.28935,"lon":5.3664,"is_reserved":false,"is_disabled":false,"rental_uris":{"android":"levelo://app?vid=ae0efc3e-9caa-4749-8dc2-6d5584e97fcd","ios":"levelo://app?vid=ae0efc3e-9caa-4749-8dc2-6d5584e97fcd"},"vehicle_type_id":"4","last_reported":1731582470,"current_range_meters":25600,"station_id":"ce4bhap2rcd13ifvqek0","pricing_plan_id":"cebpf4jnsgd1na2vs0mg"},{"bike_id":"8dc67529-5229-43a1-8974-b429efa1d3ba","system_id":"levelo_inurba_marseille","lat":43.30544,"lon":5.3652,"is_reserved":false,"is_disabled":false,"rental_uris":{"android":"levelo://app?vid=8dc67529-5229-43a1-8974-b429efa1d3ba","ios":"levelo://app?vid=8dc67529-5229-43a1-8974-b429efa1d3ba"},"vehicle_type_id":"4","last_reported":1731582470,"current_range_meters":38800,"station_id":"ce4bgs12rcd13ifvqcag","pricing_plan_id":"cebpf4jnsgd1na2vs0mg"},{"bike_id":"96352786-b953-4b6d-96b3-5df619023394","system_id":"levelo_inurba_marseille","lat":43.31364,"lon":5.36709,"is_reserved":false,"is_disabled":false,"rental_uris":{"android":"levelo://app?vid=96352786-b953-4b6d-96b3-5df619023394","ios":"levelo://app?vid=96352786-b953-4b6d-96b3-5df619023394"},"vehicle_type_id":"4","last_reported":1731582470,"current_range_meters":6000,"station_id":"ce4bgr92rcd13ifvqc6g","pricing_plan_id":"cebpf4jnsgd1na2vs0mg"},{"bike_id":"4b0c5f0c-e1e0-486f-956e-a3d4d03ca077","system_id":"levelo_inurba_marseille","lat":43.27814,"lon":5.40709,"is_reserved":false,"is_disabled":false,"rental_uris":{"android":"levelo://app?vid=4b0c5f0c-e1e0-486f-956e-a3d4d03ca077","ios":"levelo://app?vid=4b0c5f0c-e1e0-486f-956e-a3d4d03ca077"},"vehicle_type_id":"4","last_reported":1731582470,"current_range_meters":38800,"station_id":"ce4bhnh2rcd13ifvqgtg","pricing_plan_id":"cebpf4jnsgd1na2vs0mg"},{"bike_id":"d1de8638-bffd-4be4-ae10-3dd7a5d6ff38","system_id":"levelo_inurba_marseille","lat":43.30548,"lon":5.36698,"is_reserved":false,"is_disabled":false,"rental_uris":{"android":"levelo://app?vid=d1de8638-bffd-4be4-ae10-3dd7a5d6ff38","ios":"levelo://app?vid=d1de8638-bffd-4be4-ae10-3dd7a5d6ff38"},"vehicle_type_id":"4","last_reported":1731582470,"current_range_meters":6800,"station_id":"ce4bgrp2rcd13ifvqc9g","pricing_plan_id":"cebpf4jnsgd1na2vs0mg"},{"bike_id":"37212eb8-cfa6-47ba-9ed7-bfed51287466","system_id":"levelo_inurba_marseille","lat":43.31445,"lon":5.3738,"is_reserved":false,"is_disabled":false,"rental_uris":{"android":"levelo://app?vid=37212eb8-cfa6-47ba-9ed7-bfed51287466","ios":"levelo://app?vid=37212eb8-cfa6-47ba-9ed7-bfed51287466"},"vehicle_type_id":"4","last_reported":1731582470,"current_range_meters":38400,"station_id":"","pricing_plan_id":"cebpf4jnsgd1na2vs0mg"},{"bike_id":"84055cf7-e10e-4e42-90eb-74a91ae20092","system_id":"levelo_inurba_marseille","lat":43.24167,"lon":5.36391,"is_reserved":false,"is_disabled":false,"rental_uris":{"android":"levelo://app?vid=84055cf7-e10e-4e42-90eb-74a91ae20092","ios":"levelo://app?vid=84055cf7-e10e-4e42-90eb-74a91ae20092"},"vehicle_type_id":"4","last_reported":1731582470,"current_range_meters":25200,"station_id":"cpo36qri1sfpv3e86is0","pricing_plan_id":"cebpf4jnsgd1na2vs0mg"},{"bike_id":"9d73d99b-c534-402b-a023-0f39938e9708","system_id":"levelo_inurba_marseille","lat":43.31229,"lon":5.36861,"is_reserved":false,"is_disabled":false,"rental_uris":{"android":"levelo://app?vid=9d73d99b-c534-402b-a023-0f39938e9708","ios":"levelo://app?vid=9d73d99b-c534-402b-a023-0f39938e9708"},"vehicle_type_id":"4","last_reported":1731582470,"current_range_meters":38000,"station_id":"ce4bgl92rcd13ifvqbq0","pricing_plan_id":"cebpf4jnsgd1na2vs0mg"},{"bike_id":"012927f2-0ce0-4abc-933c-6366952c031d","system_id":"levelo_inurba_marseille","lat":43.24182,"lon":5.3972,"is_reserved":false,"is_disabled":false,"rental_uris":{"android":"levelo://app?vid=012927f2-0ce0-4abc-933c-6366952c031d","ios":"levelo://app?vid=012927f2-0ce0-4abc-933c-6366952c031d"},"vehicle_type_id":"4","last_reported":1731582470,"current_range_meters":27600,"station_id":"ce4bhn12rcd13ifvqgpg","pricing_plan_id":"cebpf4jnsgd1na2vs0mg"},{"bike_id":"3f7042d7-7ab2-4583-9643-3e96635206e7","system_id":"levelo_inurba_marseille","lat":43.24185,"lon":5.39715,"is_reserved":false,"is_disabled":false,"rental_uris":{"android":"levelo://app?vid=3f7042d7-7ab2-4583-9643-3e96635206e7","ios":"levelo://app?vid=3f7042d7-7ab2-4583-9643-3e96635206e7"},"vehicle_type_id":"4","last_reported":1731582470,"current_range_meters":12800,"station_id":"ce4bhn12rcd13ifvqgpg","pricing_plan_id":"cebpf4jnsgd1na2vs0mg"},{"bike_id":"a8309f22-6b23-44b6-8cae-c8da391143bd","system_id":"levelo_inurba_marseille","lat":43.2998,"lon":5.37175,"is_reserved":false,"is_disabled":false,"rental_uris":{"android":"levelo://app?vid=a8309f22-6b23-44b6-8cae-c8da391143bd","ios":"levelo://app?vid=a8309f22-6b23-44b6-8cae-c8da391143bd"},"vehicle_type_id":"4","last_reported":1731582470,"current_range_meters":21600,"station_id":"ce4bgr92rcd13ifvqc7g","pricing_plan_id":"cebpf4jnsgd1na2vs0mg"},{"bike_id":"c67efefe-cf78-4841-b74f-1f957fa517a3","system_id":"levelo_inurba_marseille","lat":43.26801,"lon":5.40265,"is_reserved":false,"is_disabled":false,"rental_uris":{"android":"levelo://app?vid=c67efefe-cf78-4841-b74f-1f957fa517a3","ios":"levelo://app?vid=c67efefe-cf78-4841-b74f-1f957fa517a3"},"vehicle_type_id":"4","last_reported":1731582470,"current_range_meters":30800,"station_id":"ce501612rcd8frsf0b60","pricing_plan_id":"cebpf4jnsgd1na2vs0mg"},{"bike_id":"6cd6cd57-0685-4d87-903a-571cb9380930","system_id":"levelo_inurba_marseille","lat":43.23183,"lon":5.39981,"is_reserved":false,"is_disabled":false,"rental_uris":{"android":"levelo://app?vid=6cd6cd57-0685-4d87-903a-571cb9380930","ios":"levelo://app?vid=6cd6cd57-0685-4d87-903a-571cb9380930"},"vehicle_type_id":"4","last_reported":1731582470,"current_range_meters":36800,"station_id":"ce4bhn12rcd13ifvqgqg","pricing_plan_id":"cebpf4jnsgd1na2vs0mg"},{"bike_id":"7c9b8995-ac96-4708-b4eb-b4b17631b9d8","system_id":"levelo_inurba_marseille","lat":43.337444,"lon":5.374475,"is_reserved":false,"is_disabled":false,"rental_uris":{"android":"levelo://app?vid=7c9b8995-ac96-4708-b4eb-b4b17631b9d8","ios":"levelo://app?vid=7c9b8995-ac96-4708-b4eb-b4b17631b9d8"},"vehicle_type_id":"4","last_reported":1731582470,"current_range_meters":33200,"station_id":"","pricing_plan_id":"cebpf4jnsgd1na2vs0mg"},{"bike_id":"f55fed85-9bd8-43ce-90b4-77d3df944e35","system_id":"levelo_inurba_marseille","lat":43.30259,"lon":5.40058,"is_reserved":false,"is_disabled":false,"rental_uris":{"android":"levelo://app?vid=f55fed85-9bd8-43ce-90b4-77d3df944e35","ios":"levelo://app?vid=f55fed85-9bd8-43ce-90b4-77d3df944e35"},"vehicle_type_id":"4","last_reported":1731582470,"current_range_meters":6400,"station_id":"ce4bgvh2rcd13ifvqcs0","pricing_plan_id":"cebpf4jnsgd1na2vs0mg"},{"bike_id":"9571fd97-c0fe-4a0a-a188-293db4f2b9c7","system_id":"levelo_inurba_marseille","lat":43.23154,"lon":5.43704,"is_reserved":false,"is_disabled":false,"rental_uris":{"android":"levelo://app?vid=9571fd97-c0fe-4a0a-a188-293db4f2b9c7","ios":"levelo://app?vid=9571fd97-c0fe-4a0a-a188-293db4f2b9c7"},"vehicle_type_id":"4","last_reported":1731582470,"current_range_meters":38800,"station_id":"ce4bhmp2rcd13ifvqgog","pricing_plan_id":"cebpf4jnsgd1na2vs0mg"},{"bike_id":"a4df5d8f-a96e-44fd-a33c-a0551b9dcb5d","system_id":"levelo_inurba_marseille","lat":43.27072,"lon":5.42277,"is_reserved":false,"is_disabled":false,"rental_uris":{"android":"levelo://app?vid=a4df5d8f-a96e-44fd-a33c-a0551b9dcb5d","ios":"levelo://app?vid=a4df5d8f-a96e-44fd-a33c-a0551b9dcb5d"},"vehicle_type_id":"4","last_reported":1731582470,"current_range_meters":38800,"station_id":"ce4bhk92rcd13ifvqgb0","pricing_plan_id":"cebpf4jnsgd1na2vs0mg"},{"bike_id":"e6890b56-1fb7-4ed4-bea7-8e87367994b2","system_id":"levelo_inurba_marseille","lat":43.29968,"lon":5.38487,"is_reserved":false,"is_disabled":false,"rental_uris":{"android":"levelo://app?vid=e6890b56-1fb7-4ed4-bea7-8e87367994b2","ios":"levelo://app?vid=e6890b56-1fb7-4ed4-bea7-8e87367994b2"},"vehicle_type_id":"4","last_reported":1731582470,"current_range_meters":11200,"station_id":"ce4bgj92rcd13ifvqbd0","pricing_plan_id":"cebpf4jnsgd1na2vs0mg"},{"bike_id":"8d06e41d-acbb-422d-9c3f-49462f4119df","system_id":"levelo_inurba_marseille","lat":43.337444,"lon":5.374475,"is_reserved":false,"is_disabled":false,"rental_uris":{"android":"levelo://app?vid=8d06e41d-acbb-422d-9c3f-49462f4119df","ios":"levelo://app?vid=8d06e41d-acbb-422d-9c3f-49462f4119df"},"vehicle_type_id":"4","last_reported":1731582470,"current_range_meters":35600,"station_id":"","pricing_plan_id":"cebpf4jnsgd1na2vs0mg"},{"bike_id":"b29a6e4c-f0d0-4545-b2f5-67ae7f4af806","system_id":"levelo_inurba_marseille","lat":43.2997,"lon":5.38479,"is_reserved":false,"is_disabled":false,"rental_uris":{"android":"levelo://app?vid=b29a6e4c-f0d0-4545-b2f5-67ae7f4af806","ios":"levelo://app?vid=b29a6e4c-f0d0-4545-b2f5-67ae7f4af806"},"vehicle_type_id":"4","last_reported":1731582470,"current_range_meters":28000,"station_id":"ce4bgj92rcd13ifvqbd0","pricing_plan_id":"cebpf4jnsgd1na2vs0mg"},{"bike_id":"42c7598c-f61c-489d-b5ad-753e5af33aa3","system_id":"levelo_inurba_marseille","lat":43.23964,"lon":5.36632,"is_reserved":false,"is_disabled":false,"rental_uris":{"android":"levelo://app?vid=42c7598c-f61c-489d-b5ad-753e5af33aa3","ios":"levelo://app?vid=42c7598c-f61c-489d-b5ad-753e5af33aa3"},"vehicle_type_id":"4","last_reported":1731582470,"current_range_meters":5600,"station_id":"ce4bhi12rcd13ifvqfp0","pricing_plan_id":"cebpf4jnsgd1na2vs0mg"},{"bike_id":"35670989-c0f1-4d2e-a997-04f15f70804f","system_id":"levelo_inurba_marseille","lat":43.2894,"lon":5.39628,"is_reserved":false,"is_disabled":false,"rental_uris":{"android":"levelo://app?vid=35670989-c0f1-4d2e-a997-04f15f70804f","ios":"levelo://app?vid=35670989-c0f1-4d2e-a997-04f15f70804f"},"vehicle_type_id":"4","last_reported":1731582470,"current_range_meters":38800,"station_id":"ce4bh3h2rcd13ifvqdn0","pricing_plan_id":"cebpf4jnsgd1na2vs0mg"},{"bike_id":"a592f289-7c17-4820-9105-4cfe6872b948","system_id":"levelo_inurba_marseille","lat":43.28148,"lon":5.42641,"is_reserved":false,"is_disabled":false,"rental_uris":{"android":"levelo://app?vid=a592f289-7c17-4820-9105-4cfe6872b948","ios":"levelo://app?vid=a592f289-7c17-4820-9105-4cfe6872b948"},"vehicle_type_id":"4","last_reported":1731582470,"current_range_meters":36400,"station_id":"ce4bhnh2rcd13ifvqgug","pricing_plan_id":"cebpf4jnsgd1na2vs0mg"},{"bike_id":"5fcf0b0a-1c96-4f2a-bab7-01f1f4d82dde","system_id":"levelo_inurba_marseille","lat":43.23155,"lon":5.43706,"is_reserved":false,"is_disabled":false,"rental_uris":{"android":"levelo://app?vid=5fcf0b0a-1c96-4f2a-bab7-01f1f4d82dde","ios":"levelo://app?vid=5fcf0b0a-1c96-4f2a-bab7-01f1f4d82dde"},"vehicle_type_id":"4","last_reported":1731582470,"current_range_meters":34000,"station_id":"ce4bhmp2rcd13ifvqgog","pricing_plan_id":"cebpf4jnsgd1na2vs0mg"},{"bike_id":"353d23e4-0055-4c7c-a290-ac326954669a","system_id":"levelo_inurba_marseille","lat":43.29912,"lon":5.37469,"is_reserved":false,"is_disabled":false,"rental_uris":{"android":"levelo://app?vid=353d23e4-0055-4c7c-a290-ac326954669a","ios":"levelo://app?vid=353d23e4-0055-4c7c-a290-ac326954669a"},"vehicle_type_id":"4","last_reported":1731582470,"current_range_meters":24800,"station_id":"ce4bgjh2rcd13ifvqbg0","pricing_plan_id":"cebpf4jnsgd1na2vs0mg"},{"bike_id":"0772ca69-3ce5-400e-a7e2-b53ae1353ee2","system_id":"levelo_inurba_marseille","lat":43.34139,"lon":5.40902,"is_reserved":false,"is_disabled":false,"rental_uris":{"android":"levelo://app?vid=0772ca69-3ce5-400e-a7e2-b53ae1353ee2","ios":"levelo://app?vid=0772ca69-3ce5-400e-a7e2-b53ae1353ee2"},"vehicle_type_id":"4","last_reported":1731582470,"current_range_meters":21600,"station_id":"ce4bhqh2rcd13ifvqhlg","pricing_plan_id":"cebpf4jnsgd1na2vs0mg"},{"bike_id":"6caaa5ea-6625-4a36-a7ac-1c65607945b8","system_id":"levelo_inurba_marseille","lat":43.27428,"lon":5.39425,"is_reserved":false,"is_disabled":false,"rental_uris":{"android":"levelo://app?vid=6caaa5ea-6625-4a36-a7ac-1c65607945b8","ios":"levelo://app?vid=6caaa5ea-6625-4a36-a7ac-1c65607945b8"},"vehicle_type_id":"4","last_reported":1731582470,"current_range_meters":25600,"station_id":"ce4bhdp2rcd13ifvqf20","pricing_plan_id":"cebpf4jnsgd1na2vs0mg"},{"bike_id":"fc746dc4-7003-4908-8493-3a62027ab2bc","system_id":"levelo_inurba_marseille","lat":43.27682,"lon":5.38892,"is_reserved":false,"is_disabled":false,"rental_uris":{"android":"levelo://app?vid=fc746dc4-7003-4908-8493-3a62027ab2bc","ios":"levelo://app?vid=fc746dc4-7003-4908-8493-3a62027ab2bc"},"vehicle_type_id":"4","last_reported":1731582470,"current_range_meters":38800,"station_id":"ce4bhi12rcd13ifvqfo0","pricing_plan_id":"cebpf4jnsgd1na2vs0mg"},{"bike_id":"7209a431-5b18-4e7f-96ac-76d12a1bd180","system_id":"levelo_inurba_marseille","lat":43.299842,"lon":5.37181,"is_reserved":false,"is_disabled":false,"rental_uris":{"android":"levelo://app?vid=7209a431-5b18-4e7f-96ac-76d12a1bd180","ios":"levelo://app?vid=7209a431-5b18-4e7f-96ac-76d12a1bd180"},"vehicle_type_id":"4","last_reported":1731582470,"current_range_meters":12800,"station_id":"ce4bgr92rcd13ifvqc7g","pricing_plan_id":"cebpf4jnsgd1na2vs0mg"},{"bike_id":"42a14bb1-cb98-4de4-a3e1-2010834cdd84","system_id":"levelo_inurba_marseille","lat":43.28461,"lon":5.35886,"is_reserved":false,"is_disabled":false,"rental_uris":{"android":"levelo://app?vid=42a14bb1-cb98-4de4-a3e1-2010834cdd84","ios":"levelo://app?vid=42a14bb1-cb98-4de4-a3e1-2010834cdd84"},"vehicle_type_id":"4","last_reported":1731582470,"current_range_meters":38400,"station_id":"ce4bhah2rcd13ifvqei0","pricing_plan_id":"cebpf4jnsgd1na2vs0mg"},{"bike_id":"2ba01715-3170-4a7e-ae00-4a8868ac1042","system_id":"levelo_inurba_marseille","lat":43.25088,"lon":5.39512,"is_reserved":false,"is_disabled":false,"rental_uris":{"android":"levelo://app?vid=2ba01715-3170-4a7e-ae00-4a8868ac1042","ios":"levelo://app?vid=2ba01715-3170-4a7e-ae00-4a8868ac1042"},"vehicle_type_id":"4","last_reported":1731582470,"current_range_meters":28800,"station_id":"ce4bhm12rcd13ifvqgkg","pricing_plan_id":"cebpf4jnsgd1na2vs0mg"},{"bike_id":"54921e50-ea0d-462b-95c4-2912203fd7cc","system_id":"levelo_inurba_marseille","lat":43.27315,"lon":5.39064,"is_reserved":false,"is_disabled":false,"rental_uris":{"android":"levelo://app?vid=54921e50-ea0d-462b-95c4-2912203fd7cc","ios":"levelo://app?vid=54921e50-ea0d-462b-95c4-2912203fd7cc"},"vehicle_type_id":"4","last_reported":1731582470,"current_range_meters":30800,"station_id":"ce4bhgp2rcd13ifvqfe0","pricing_plan_id":"cebpf4jnsgd1na2vs0mg"},{"bike_id":"7735a892-8d6b-4a93-b64f-341778d38d92","system_id":"levelo_inurba_marseille","lat":43.3361,"lon":5.41022,"is_reserved":false,"is_disabled":false,"rental_uris":{"android":"levelo://app?vid=7735a892-8d6b-4a93-b64f-341778d38d92","ios":"levelo://app?vid=7735a892-8d6b-4a93-b64f-341778d38d92"},"vehicle_type_id":"4","last_reported":1731582470,"current_range_meters":25200,"station_id":"ce4bhqh2rcd13ifvqhmg","pricing_plan_id":"cebpf4jnsgd1na2vs0mg"},{"bike_id":"a5baad26-2b66-4d5a-a9af-3321501fc6d9","system_id":"levelo_inurba_marseille","lat":43.30948,"lon":5.39013,"is_reserved":false,"is_disabled":false,"rental_uris":{"android":"levelo://app?vid=a5baad26-2b66-4d5a-a9af-3321501fc6d9","ios":"levelo://app?vid=a5baad26-2b66-4d5a-a9af-3321501fc6d9"},"vehicle_type_id":"4","last_reported":1731582470,"current_range_meters":12800,"station_id":"ce4bgup2rcd13ifvqco0","pricing_plan_id":"cebpf4jnsgd1na2vs0mg"},{"bike_id":"e00b09e7-a5a6-4713-aa04-f6a5455df303","system_id":"levelo_inurba_marseille","lat":43.27946,"lon":5.41041,"is_reserved":false,"is_disabled":false,"rental_uris":{"android":"levelo://app?vid=e00b09e7-a5a6-4713-aa04-f6a5455df303","ios":"levelo://app?vid=e00b09e7-a5a6-4713-aa04-f6a5455df303"},"vehicle_type_id":"4","last_reported":1731582470,"current_range_meters":31200,"station_id":"ce4bhnp2rcd13ifvqh0g","pricing_plan_id":"cebpf4jnsgd1na2vs0mg"},{"bike_id":"2926cae5-cf8b-40dc-bb7d-0d217fc53fc5","system_id":"levelo_inurba_marseille","lat":43.3044,"lon":5.38893,"is_reserved":false,"is_disabled":false,"rental_uris":{"android":"levelo://app?vid=2926cae5-cf8b-40dc-bb7d-0d217fc53fc5","ios":"levelo://app?vid=2926cae5-cf8b-40dc-bb7d-0d217fc53fc5"},"vehicle_type_id":"4","last_reported":1731582470,"current_range_meters":34000,"station_id":"ce4bgk12rcd13ifvqbi0","pricing_plan_id":"cebpf4jnsgd1na2vs0mg"},{"bike_id":"6afbfcea-6eba-4719-b3c3-e0ced5ca46b0","system_id":"levelo_inurba_marseille","lat":43.30131,"lon":5.39862,"is_reserved":false,"is_disabled":false,"rental_uris":{"android":"levelo://app?vid=6afbfcea-6eba-4719-b3c3-e0ced5ca46b0","ios":"levelo://app?vid=6afbfcea-6eba-4719-b3c3-e0ced5ca46b0"},"vehicle_type_id":"4","last_reported":1731582470,"current_range_meters":24800,"station_id":"ce4bh0h2rcd13ifvqd40","pricing_plan_id":"cebpf4jnsgd1na2vs0mg"},{"bike_id":"d64789a5-6f7a-491a-b16a-1ea1a1a93312","system_id":"levelo_inurba_marseille","lat":43.30801,"lon":5.37649,"is_reserved":false,"is_disabled":false,"rental_uris":{"android":"levelo://app?vid=d64789a5-6f7a-491a-b16a-1ea1a1a93312","ios":"levelo://app?vid=d64789a5-6f7a-491a-b16a-1ea1a1a93312"},"vehicle_type_id":"4","last_reported":1731582470,"current_range_meters":18000,"station_id":"ce4bgv92rcd13ifvqcq0","pricing_plan_id":"cebpf4jnsgd1na2vs0mg"},{"bike_id":"7b26391e-23df-41d9-9842-230b8e859c34","system_id":"levelo_inurba_marseille","lat":43.23145,"lon":5.43711,"is_reserved":false,"is_disabled":false,"rental_uris":{"android":"levelo://app?vid=7b26391e-23df-41d9-9842-230b8e859c34","ios":"levelo://app?vid=7b26391e-23df-41d9-9842-230b8e859c34"},"vehicle_type_id":"4","last_reported":1731582470,"current_range_meters":37600,"station_id":"ce4bhmp2rcd13ifvqgog","pricing_plan_id":"cebpf4jnsgd1na2vs0mg"},{"bike_id":"490e7840-da20-4809-8711-2e7102ca3c83","system_id":"levelo_inurba_marseille","lat":43.284805,"lon":5.384149,"is_reserved":false,"is_disabled":false,"rental_uris":{"android":"levelo://app?vid=490e7840-da20-4809-8711-2e7102ca3c83","ios":"levelo://app?vid=490e7840-da20-4809-8711-2e7102ca3c83"},"vehicle_type_id":"4","last_reported":1731582470,"current_range_meters":6800,"station_id":"ce4bgn92rcd13ifvqbvg","pricing_plan_id":"cebpf4jnsgd1na2vs0mg"},{"bike_id":"b085effe-dd31-49bb-9975-b5df7a7638e6","system_id":"levelo_inurba_marseille","lat":43.29198,"lon":5.35822,"is_reserved":false,"is_disabled":false,"rental_uris":{"android":"levelo://app?vid=b085effe-dd31-49bb-9975-b5df7a7638e6","ios":"levelo://app?vid=b085effe-dd31-49bb-9975-b5df7a7638e6"},"vehicle_type_id":"4","last_reported":1731582470,"current_range_meters":28000,"station_id":"ce4bhb12rcd13ifvqel0","pricing_plan_id":"cebpf4jnsgd1na2vs0mg"},{"bike_id":"07ee4904-f535-458a-b0b5-2f7426ce7969","system_id":"levelo_inurba_marseille","lat":43.24079,"lon":5.37747,"is_reserved":false,"is_disabled":false,"rental_uris":{"android":"levelo://app?vid=07ee4904-f535-458a-b0b5-2f7426ce7969","ios":"levelo://app?vid=07ee4904-f535-458a-b0b5-2f7426ce7969"},"vehicle_type_id":"4","last_reported":1731582470,"current_range_meters":7200,"station_id":"ce4bhnp2rcd13ifvqgvg","pricing_plan_id":"cebpf4jnsgd1na2vs0mg"},{"bike_id":"8aa67a89-0dc6-4b92-b9d3-266a6f0ca2c6","system_id":"levelo_inurba_marseille","lat":43.30536,"lon":5.36695,"is_reserved":false,"is_disabled":false,"rental_uris":{"android":"levelo://app?vid=8aa67a89-0dc6-4b92-b9d3-266a6f0ca2c6","ios":"levelo://app?vid=8aa67a89-0dc6-4b92-b9d3-266a6f0ca2c6"},"vehicle_type_id":"4","last_reported":1731582470,"current_range_meters":39200,"station_id":"ce4bgrp2rcd13ifvqc9g","pricing_plan_id":"cebpf4jnsgd1na2vs0mg"},{"bike_id":"279ef950-d721-467a-b3bb-c9d273e63595","system_id":"levelo_inurba_marseille","lat":43.28468,"lon":5.3588,"is_reserved":false,"is_disabled":false,"rental_uris":{"android":"levelo://app?vid=279ef950-d721-467a-b3bb-c9d273e63595","ios":"levelo://app?vid=279ef950-d721-467a-b3bb-c9d273e63595"},"vehicle_type_id":"4","last_reported":1731582470,"current_range_meters":13600,"station_id":"ce4bhah2rcd13ifvqei0","pricing_plan_id":"cebpf4jnsgd1na2vs0mg"},{"bike_id":"13477c0b-7244-4a30-80fa-2b1c286e6691","system_id":"levelo_inurba_marseille","lat":43.30953,"lon":5.39011,"is_reserved":false,"is_disabled":false,"rental_uris":{"android":"levelo://app?vid=13477c0b-7244-4a30-80fa-2b1c286e6691","ios":"levelo://app?vid=13477c0b-7244-4a30-80fa-2b1c286e6691"},"vehicle_type_id":"4","last_reported":1731582470,"current_range_meters":26000,"station_id":"ce4bgup2rcd13ifvqco0","pricing_plan_id":"cebpf4jnsgd1na2vs0mg"},{"bike_id":"a6664e8b-d7e8-42bb-a34e-fc702e657c3c","system_id":"levelo_inurba_marseille","lat":43.3052,"lon":5.38032,"is_reserved":false,"is_disabled":false,"rental_uris":{"android":"levelo://app?vid=a6664e8b-d7e8-42bb-a34e-fc702e657c3c","ios":"levelo://app?vid=a6664e8b-d7e8-42bb-a34e-fc702e657c3c"},"vehicle_type_id":"4","last_reported":1731582470,"current_range_meters":38800,"station_id":"ce4bgv92rcd13ifvqcq0","pricing_plan_id":"cebpf4jnsgd1na2vs0mg"},{"bike_id":"afb8b4e9-41ca-4ecb-82f6-539a067b1cb8","system_id":"levelo_inurba_marseille","lat":43.29166,"lon":5.37147,"is_reserved":false,"is_disabled":false,"rental_uris":{"android":"levelo://app?vid=afb8b4e9-41ca-4ecb-82f6-539a067b1cb8","ios":"levelo://app?vid=afb8b4e9-41ca-4ecb-82f6-539a067b1cb8"},"vehicle_type_id":"4","last_reported":1731582470,"current_range_meters":19200,"station_id":"ce4bha92rcd13ifvqeh0","pricing_plan_id":"cebpf4jnsgd1na2vs0mg"},{"bike_id":"47d918a1-7282-4a7a-8ccf-c2762d1798c4","system_id":"levelo_inurba_marseille","lat":43.24085,"lon":5.37748,"is_reserved":false,"is_disabled":false,"rental_uris":{"android":"levelo://app?vid=47d918a1-7282-4a7a-8ccf-c2762d1798c4","ios":"levelo://app?vid=47d918a1-7282-4a7a-8ccf-c2762d1798c4"},"vehicle_type_id":"4","last_reported":1731582470,"current_range_meters":37600,"station_id":"ce4bhnp2rcd13ifvqgvg","pricing_plan_id":"cebpf4jnsgd1na2vs0mg"},{"bike_id":"b761fbf5-2bb8-4246-8985-7f4acd907d8e","system_id":"levelo_inurba_marseille","lat":43.2968,"lon":5.3729,"is_reserved":false,"is_disabled":false,"rental_uris":{"android":"levelo://app?vid=b761fbf5-2bb8-4246-8985-7f4acd907d8e","ios":"levelo://app?vid=b761fbf5-2bb8-4246-8985-7f4acd907d8e"},"vehicle_type_id":"4","last_reported":1731582470,"current_range_meters":35200,"station_id":"ce4bgk12rcd13ifvqbj0","pricing_plan_id":"cebpf4jnsgd1na2vs0mg"},{"bike_id":"6a6ea60f-2251-4c20-a3fd-b8dbfc3cb31a","system_id":"levelo_inurba_marseille","lat":43.33764,"lon":5.37473,"is_reserved":false,"is_disabled":false,"rental_uris":{"android":"levelo://app?vid=6a6ea60f-2251-4c20-a3fd-b8dbfc3cb31a","ios":"levelo://app?vid=6a6ea60f-2251-4c20-a3fd-b8dbfc3cb31a"},"vehicle_type_id":"4","last_reported":1731582470,"current_range_meters":35200,"station_id":"","pricing_plan_id":"cebpf4jnsgd1na2vs0mg"},{"bike_id":"70db44b8-982d-4a0f-b768-f0778476f968","system_id":"levelo_inurba_marseille","lat":43.24653,"lon":5.3889,"is_reserved":false,"is_disabled":false,"rental_uris":{"android":"levelo://app?vid=70db44b8-982d-4a0f-b768-f0778476f968","ios":"levelo://app?vid=70db44b8-982d-4a0f-b768-f0778476f968"},"vehicle_type_id":"4","last_reported":1731582470,"current_range_meters":31200,"station_id":"ce4bhg12rcd13ifvqf60","pricing_plan_id":"cebpf4jnsgd1na2vs0mg"},{"bike_id":"2868211a-801a-40e9-87f4-374361291305","system_id":"levelo_inurba_marseille","lat":43.28154,"lon":5.42645,"is_reserved":false,"is_disabled":false,"rental_uris":{"android":"levelo://app?vid=2868211a-801a-40e9-87f4-374361291305","ios":"levelo://app?vid=2868211a-801a-40e9-87f4-374361291305"},"vehicle_type_id":"4","last_reported":1731582470,"current_range_meters":26800,"station_id":"ce4bhnh2rcd13ifvqgug","pricing_plan_id":"cebpf4jnsgd1na2vs0mg"},{"bike_id":"e29f90f1-17a9-449f-989c-37480ccfb0f7","system_id":"levelo_inurba_marseille","lat":43.27166,"lon":5.40983,"is_reserved":false,"is_disabled":false,"rental_uris":{"android":"levelo://app?vid=e29f90f1-17a9-449f-989c-37480ccfb0f7","ios":"levelo://app?vid=e29f90f1-17a9-449f-989c-37480ccfb0f7"},"vehicle_type_id":"4","last_reported":1731582470,"current_range_meters":4000,"station_id":"ce4bhl12rcd13ifvqgf0","pricing_plan_id":"cebpf4jnsgd1na2vs0mg"},{"bike_id":"1311c692-6e9d-4afb-b7b0-20686564fe7a","system_id":"levelo_inurba_marseille","lat":43.337444,"lon":5.374475,"is_reserved":false,"is_disabled":false,"rental_uris":{"android":"levelo://app?vid=1311c692-6e9d-4afb-b7b0-20686564fe7a","ios":"levelo://app?vid=1311c692-6e9d-4afb-b7b0-20686564fe7a"},"vehicle_type_id":"4","last_reported":1731582470,"current_range_meters":33200,"station_id":"","pricing_plan_id":"cebpf4jnsgd1na2vs0mg"},{"bike_id":"07a4be1c-5cf0-4f3e-8c27-4c3e24078daa","system_id":"levelo_inurba_marseille","lat":43.24807,"lon":5.37456,"is_reserved":false,"is_disabled":false,"rental_uris":{"android":"levelo://app?vid=07a4be1c-5cf0-4f3e-8c27-4c3e24078daa","ios":"levelo://app?vid=07a4be1c-5cf0-4f3e-8c27-4c3e24078daa"},"vehicle_type_id":"4","last_reported":1731582470,"current_range_meters":38800,"station_id":"ce4bhgh2rcd13ifvqfb0","pricing_plan_id":"cebpf4jnsgd1na2vs0mg"},{"bike_id":"e4efcf71-d83d-402a-b01e-ecbb8f60a8a1","system_id":"levelo_inurba_marseille","lat":43.28466,"lon":5.35876,"is_reserved":false,"is_disabled":false,"rental_uris":{"android":"levelo://app?vid=e4efcf71-d83d-402a-b01e-ecbb8f60a8a1","ios":"levelo://app?vid=e4efcf71-d83d-402a-b01e-ecbb8f60a8a1"},"vehicle_type_id":"4","last_reported":1731582470,"current_range_meters":28800,"station_id":"ce4bhah2rcd13ifvqei0","pricing_plan_id":"cebpf4jnsgd1na2vs0mg"},{"bike_id":"8a65dbd7-2ca0-43b4-81e7-209f818930cf","system_id":"levelo_inurba_marseille","lat":43.29171,"lon":5.37152,"is_reserved":false,"is_disabled":false,"rental_uris":{"android":"levelo://app?vid=8a65dbd7-2ca0-43b4-81e7-209f818930cf","ios":"levelo://app?vid=8a65dbd7-2ca0-43b4-81e7-209f818930cf"},"vehicle_type_id":"4","last_reported":1731582470,"current_range_meters":38800,"station_id":"ce4bha92rcd13ifvqeh0","pricing_plan_id":"cebpf4jnsgd1na2vs0mg"},{"bike_id":"163fe7f7-6a69-4e3f-b7b8-bd391e653884","system_id":"levelo_inurba_marseille","lat":43.29971,"lon":5.37172,"is_reserved":false,"is_disabled":false,"rental_uris":{"android":"levelo://app?vid=163fe7f7-6a69-4e3f-b7b8-bd391e653884","ios":"levelo://app?vid=163fe7f7-6a69-4e3f-b7b8-bd391e653884"},"vehicle_type_id":"4","last_reported":1731582470,"current_range_meters":28400,"station_id":"ce4bgr92rcd13ifvqc7g","pricing_plan_id":"cebpf4jnsgd1na2vs0mg"},{"bike_id":"913e24fc-fcc0-4289-8c6b-d5f0b310633d","system_id":"levelo_inurba_marseille","lat":43.26685,"lon":5.38265,"is_reserved":false,"is_disabled":false,"rental_uris":{"android":"levelo://app?vid=913e24fc-fcc0-4289-8c6b-d5f0b310633d","ios":"levelo://app?vid=913e24fc-fcc0-4289-8c6b-d5f0b310633d"},"vehicle_type_id":"4","last_reported":1731582470,"current_range_meters":28000,"station_id":"ce4bhg92rcd13ifvqf90","pricing_plan_id":"cebpf4jnsgd1na2vs0mg"},{"bike_id":"b53e0a9a-34aa-4a7d-9ab3-f419e7bd5b50","system_id":"levelo_inurba_marseille","lat":43.27204,"lon":5.3918,"is_reserved":false,"is_disabled":false,"rental_uris":{"android":"levelo://app?vid=b53e0a9a-34aa-4a7d-9ab3-f419e7bd5b50","ios":"levelo://app?vid=b53e0a9a-34aa-4a7d-9ab3-f419e7bd5b50"},"vehicle_type_id":"4","last_reported":1731582470,"current_range_meters":37600,"station_id":"ce4bhhp2rcd13ifvqfm0","pricing_plan_id":"cebpf4jnsgd1na2vs0mg"},{"bike_id":"89a6716f-5f16-40b3-9241-949a22d82d45","system_id":"levelo_inurba_marseille","lat":43.26687,"lon":5.3827,"is_reserved":false,"is_disabled":false,"rental_uris":{"android":"levelo://app?vid=89a6716f-5f16-40b3-9241-949a22d82d45","ios":"levelo://app?vid=89a6716f-5f16-40b3-9241-949a22d82d45"},"vehicle_type_id":"4","last_reported":1731582470,"current_range_meters":27600,"station_id":"ce4bhg92rcd13ifvqf90","pricing_plan_id":"cebpf4jnsgd1na2vs0mg"},{"bike_id":"3e4efabd-b6ee-455f-8edb-144b5b7ee1b2","system_id":"levelo_inurba_marseille","lat":43.27421,"lon":5.39416,"is_reserved":false,"is_disabled":false,"rental_uris":{"android":"levelo://app?vid=3e4efabd-b6ee-455f-8edb-144b5b7ee1b2","ios":"levelo://app?vid=3e4efabd-b6ee-455f-8edb-144b5b7ee1b2"},"vehicle_type_id":"4","last_reported":1731582470,"current_range_meters":33200,"station_id":"ce4bhdp2rcd13ifvqf20","pricing_plan_id":"cebpf4jnsgd1na2vs0mg"},{"bike_id":"5202b004-fc42-475e-a16f-b05d55c94338","system_id":"levelo_inurba_marseille","lat":43.3015,"lon":5.38078,"is_reserved":false,"is_disabled":false,"rental_uris":{"android":"levelo://app?vid=5202b004-fc42-475e-a16f-b05d55c94338","ios":"levelo://app?vid=5202b004-fc42-475e-a16f-b05d55c94338"},"vehicle_type_id":"4","last_reported":1731582470,"current_range_meters":39200,"station_id":"ce4bgjp2rcd13ifvqbh0","pricing_plan_id":"cebpf4jnsgd1na2vs0mg"},{"bike_id":"14041b42-c763-4196-acb4-81474847f26a","system_id":"levelo_inurba_marseille","lat":43.24082,"lon":5.3775,"is_reserved":false,"is_disabled":false,"rental_uris":{"android":"levelo://app?vid=14041b42-c763-4196-acb4-81474847f26a","ios":"levelo://app?vid=14041b42-c763-4196-acb4-81474847f26a"},"vehicle_type_id":"4","last_reported":1731582470,"current_range_meters":37600,"station_id":"ce4bhnp2rcd13ifvqgvg","pricing_plan_id":"cebpf4jnsgd1na2vs0mg"},{"bike_id":"af4fdae5-746b-40ab-a091-4e45947ddf5c","system_id":"levelo_inurba_marseille","lat":43.29939,"lon":5.36538,"is_reserved":false,"is_disabled":false,"rental_uris":{"android":"levelo://app?vid=af4fdae5-746b-40ab-a091-4e45947ddf5c","ios":"levelo://app?vid=af4fdae5-746b-40ab-a091-4e45947ddf5c"},"vehicle_type_id":"4","last_reported":1731582470,"current_range_meters":12000,"station_id":"ce4bgm92rcd13ifvqbr0","pricing_plan_id":"cebpf4jnsgd1na2vs0mg"},{"bike_id":"439e4ab8-c6ac-47a8-a382-c8b4c1ea51a3","system_id":"levelo_inurba_marseille","lat":43.27376,"lon":5.39035,"is_reserved":false,"is_disabled":false,"rental_uris":{"android":"levelo://app?vid=439e4ab8-c6ac-47a8-a382-c8b4c1ea51a3","ios":"levelo://app?vid=439e4ab8-c6ac-47a8-a382-c8b4c1ea51a3"},"vehicle_type_id":"4","last_reported":1731582470,"current_range_meters":7200,"station_id":"ce4bhgp2rcd13ifvqfe0","pricing_plan_id":"cebpf4jnsgd1na2vs0mg"},{"bike_id":"2371864c-284f-40f2-86e3-82f3c9fa99d8","system_id":"levelo_inurba_marseille","lat":43.29979,"lon":5.37167,"is_reserved":false,"is_disabled":false,"rental_uris":{"android":"levelo://app?vid=2371864c-284f-40f2-86e3-82f3c9fa99d8","ios":"levelo://app?vid=2371864c-284f-40f2-86e3-82f3c9fa99d8"},"vehicle_type_id":"4","last_reported":1731582470,"current_range_meters":38800,"station_id":"ce4bgr92rcd13ifvqc7g","pricing_plan_id":"cebpf4jnsgd1na2vs0mg"},{"bike_id":"260b748c-c4a9-4f28-9364-549be7f55587","system_id":"levelo_inurba_marseille","lat":43.32341,"lon":5.40622,"is_reserved":false,"is_disabled":false,"rental_uris":{"android":"levelo://app?vid=260b748c-c4a9-4f28-9364-549be7f55587","ios":"levelo://app?vid=260b748c-c4a9-4f28-9364-549be7f55587"},"vehicle_type_id":"4","last_reported":1731582470,"current_range_meters":38000,"station_id":"ce4bhq92rcd13ifvqhjg","pricing_plan_id":"cebpf4jnsgd1na2vs0mg"},{"bike_id":"62ac3a40-b365-4763-a60d-2a9283104a83","system_id":"levelo_inurba_marseille","lat":43.29602,"lon":5.38102,"is_reserved":false,"is_disabled":false,"rental_uris":{"android":"levelo://app?vid=62ac3a40-b365-4763-a60d-2a9283104a83","ios":"levelo://app?vid=62ac3a40-b365-4763-a60d-2a9283104a83"},"vehicle_type_id":"4","last_reported":1731582470,"current_range_meters":8000,"station_id":"ce4bgl12rcd13ifvqbo0","pricing_plan_id":"cebpf4jnsgd1na2vs0mg"},{"bike_id":"bba76986-27db-4a0b-aac9-b12dd5c4e056","system_id":"levelo_inurba_marseille","lat":43.30538,"lon":5.36523,"is_reserved":false,"is_disabled":false,"rental_uris":{"android":"levelo://app?vid=bba76986-27db-4a0b-aac9-b12dd5c4e056","ios":"levelo://app?vid=bba76986-27db-4a0b-aac9-b12dd5c4e056"},"vehicle_type_id":"4","last_reported":1731582470,"current_range_meters":38800,"station_id":"ce4bgs12rcd13ifvqcag","pricing_plan_id":"cebpf4jnsgd1na2vs0mg"},{"bike_id":"e4984a30-1b06-4064-a0fd-3e3fc5b647cc","system_id":"levelo_inurba_marseille","lat":43.29275,"lon":5.36847,"is_reserved":false,"is_disabled":false,"rental_uris":{"android":"levelo://app?vid=e4984a30-1b06-4064-a0fd-3e3fc5b647cc","ios":"levelo://app?vid=e4984a30-1b06-4064-a0fd-3e3fc5b647cc"},"vehicle_type_id":"4","last_reported":1731582470,"current_range_meters":38000,"station_id":"ce4bhbp2rcd13ifvqesg","pricing_plan_id":"cebpf4jnsgd1na2vs0mg"},{"bike_id":"0eeb445c-4ef3-4af9-8c80-4f6c605cdc3c","system_id":"levelo_inurba_marseille","lat":43.29007,"lon":5.35614,"is_reserved":false,"is_disabled":false,"rental_uris":{"android":"levelo://app?vid=0eeb445c-4ef3-4af9-8c80-4f6c605cdc3c","ios":"levelo://app?vid=0eeb445c-4ef3-4af9-8c80-4f6c605cdc3c"},"vehicle_type_id":"4","last_reported":1731582470,"current_range_meters":6800,"station_id":"ce4bhb92rcd13ifvqen0","pricing_plan_id":"cebpf4jnsgd1na2vs0mg"},{"bike_id":"f5df91d9-4a7c-43df-9009-00af233090e5","system_id":"levelo_inurba_marseille","lat":43.33608,"lon":5.41027,"is_reserved":false,"is_disabled":false,"rental_uris":{"android":"levelo://app?vid=f5df91d9-4a7c-43df-9009-00af233090e5","ios":"levelo://app?vid=f5df91d9-4a7c-43df-9009-00af233090e5"},"vehicle_type_id":"4","last_reported":1731582470,"current_range_meters":38800,"station_id":"ce4bhqh2rcd13ifvqhmg","pricing_plan_id":"cebpf4jnsgd1na2vs0mg"},{"bike_id":"0736c583-b9ba-4390-abd4-f4bf2c6cf549","system_id":"levelo_inurba_marseille","lat":43.278076,"lon":5.407462,"is_reserved":false,"is_disabled":false,"rental_uris":{"android":"levelo://app?vid=0736c583-b9ba-4390-abd4-f4bf2c6cf549","ios":"levelo://app?vid=0736c583-b9ba-4390-abd4-f4bf2c6cf549"},"vehicle_type_id":"4","last_reported":1731582470,"current_range_meters":38000,"station_id":"ce4bhnh2rcd13ifvqgtg","pricing_plan_id":"cebpf4jnsgd1na2vs0mg"},{"bike_id":"59581e6e-843e-4d0f-99b5-ef3fc250a475","system_id":"levelo_inurba_marseille","lat":43.2968,"lon":5.37295,"is_reserved":false,"is_disabled":false,"rental_uris":{"android":"levelo://app?vid=59581e6e-843e-4d0f-99b5-ef3fc250a475","ios":"levelo://app?vid=59581e6e-843e-4d0f-99b5-ef3fc250a475"},"vehicle_type_id":"4","last_reported":1731582470,"current_range_meters":15200,"station_id":"ce4bgk12rcd13ifvqbj0","pricing_plan_id":"cebpf4jnsgd1na2vs0mg"},{"bike_id":"1bda1f07-b7d4-4dea-acbc-bba7a290c9cc","system_id":"levelo_inurba_marseille","lat":43.2985,"lon":5.36281,"is_reserved":false,"is_disabled":false,"rental_uris":{"android":"levelo://app?vid=1bda1f07-b7d4-4dea-acbc-bba7a290c9cc","ios":"levelo://app?vid=1bda1f07-b7d4-4dea-acbc-bba7a290c9cc"},"vehicle_type_id":"4","last_reported":1731582470,"current_range_meters":8400,"station_id":"ce4bgpp2rcd13ifvqc3g","pricing_plan_id":"cebpf4jnsgd1na2vs0mg"},{"bike_id":"c5eaa274-764e-4094-8ea1-94a8521ea9e2","system_id":"levelo_inurba_marseille","lat":43.30956,"lon":5.39033,"is_reserved":false,"is_disabled":false,"rental_uris":{"android":"levelo://app?vid=c5eaa274-764e-4094-8ea1-94a8521ea9e2","ios":"levelo://app?vid=c5eaa274-764e-4094-8ea1-94a8521ea9e2"},"vehicle_type_id":"4","last_reported":1731582470,"current_range_meters":36800,"station_id":"ce4bgup2rcd13ifvqco0","pricing_plan_id":"cebpf4jnsgd1na2vs0mg"},{"bike_id":"69c475f7-1f0a-4836-bf10-d2f807a812ef","system_id":"levelo_inurba_marseille","lat":43.29296,"lon":5.37453,"is_reserved":false,"is_disabled":false,"rental_uris":{"android":"levelo://app?vid=69c475f7-1f0a-4836-bf10-d2f807a812ef","ios":"levelo://app?vid=69c475f7-1f0a-4836-bf10-d2f807a812ef"},"vehicle_type_id":"4","last_reported":1731582470,"current_range_meters":20800,"station_id":"ce4bgi12rcd13ifvqb70","pricing_plan_id":"cebpf4jnsgd1na2vs0mg"},{"bike_id":"7859a5ae-74ed-4e8a-b212-d33efeb6280b","system_id":"levelo_inurba_marseille","lat":43.31018,"lon":5.38044,"is_reserved":false,"is_disabled":false,"rental_uris":{"android":"levelo://app?vid=7859a5ae-74ed-4e8a-b212-d33efeb6280b","ios":"levelo://app?vid=7859a5ae-74ed-4e8a-b212-d33efeb6280b"},"vehicle_type_id":"4","last_reported":1731582470,"current_range_meters":10000,"station_id":"ce4bgv92rcd13ifvqcq0","pricing_plan_id":"cebpf4jnsgd1na2vs0mg"},{"bike_id":"2bd2782f-03e7-4948-a6c5-5a949b0b1d95","system_id":"levelo_inurba_marseille","lat":43.29297,"lon":5.37155,"is_reserved":false,"is_disabled":false,"rental_uris":{"android":"levelo://app?vid=2bd2782f-03e7-4948-a6c5-5a949b0b1d95","ios":"levelo://app?vid=2bd2782f-03e7-4948-a6c5-5a949b0b1d95"},"vehicle_type_id":"4","last_reported":1731582470,"current_range_meters":34000,"station_id":"ce4bgh92rcd13ifvqb40","pricing_plan_id":"cebpf4jnsgd1na2vs0mg"},{"bike_id":"0479dbc2-9bd0-42b2-8322-a236078d845f","system_id":"levelo_inurba_marseille","lat":43.26789,"lon":5.39414,"is_reserved":false,"is_disabled":false,"rental_uris":{"android":"levelo://app?vid=0479dbc2-9bd0-42b2-8322-a236078d845f","ios":"levelo://app?vid=0479dbc2-9bd0-42b2-8322-a236078d845f"},"vehicle_type_id":"4","last_reported":1731582470,"current_range_meters":24000,"station_id":"ce4bhh12rcd13ifvqfg0","pricing_plan_id":"cebpf4jnsgd1na2vs0mg"},{"bike_id":"6f82e55a-c17d-4ba7-9370-2c8a0d93a3d0","system_id":"levelo_inurba_marseille","lat":43.26932,"lon":5.38918,"is_reserved":false,"is_disabled":false,"rental_uris":{"android":"levelo://app?vid=6f82e55a-c17d-4ba7-9370-2c8a0d93a3d0","ios":"levelo://app?vid=6f82e55a-c17d-4ba7-9370-2c8a0d93a3d0"},"vehicle_type_id":"4","last_reported":1731582470,"current_range_meters":38800,"station_id":"ce4bhhh2rcd13ifvqfl0","pricing_plan_id":"cebpf4jnsgd1na2vs0mg"},{"bike_id":"0f433459-e074-4293-bfa5-3b5b113abeb1","system_id":"levelo_inurba_marseille","lat":43.33724,"lon":5.39186,"is_reserved":false,"is_disabled":false,"rental_uris":{"android":"levelo://app?vid=0f433459-e074-4293-bfa5-3b5b113abeb1","ios":"levelo://app?vid=0f433459-e074-4293-bfa5-3b5b113abeb1"},"vehicle_type_id":"4","last_reported":1731582470,"current_range_meters":38000,"station_id":"ce4bhr92rcd13ifvqhsg","pricing_plan_id":"cebpf4jnsgd1na2vs0mg"},{"bike_id":"b6bca026-1efe-4754-928d-9042ba992b22","system_id":"levelo_inurba_marseille","lat":43.28417,"lon":5.34979,"is_reserved":false,"is_disabled":false,"rental_uris":{"android":"levelo://app?vid=b6bca026-1efe-4754-928d-9042ba992b22","ios":"levelo://app?vid=b6bca026-1efe-4754-928d-9042ba992b22"},"vehicle_type_id":"4","last_reported":1731582470,"current_range_meters":36400,"station_id":"ce4bhbh2rcd13ifvqepg","pricing_plan_id":"cebpf4jnsgd1na2vs0mg"},{"bike_id":"a36eaebd-3ea2-4272-b1cd-d9087ec1137a","system_id":"levelo_inurba_marseille","lat":43.29787,"lon":5.38107,"is_reserved":false,"is_disabled":false,"rental_uris":{"android":"levelo://app?vid=a36eaebd-3ea2-4272-b1cd-d9087ec1137a","ios":"levelo://app?vid=a36eaebd-3ea2-4272-b1cd-d9087ec1137a"},"vehicle_type_id":"4","last_reported":1731582470,"current_range_meters":36800,"station_id":"ce4bgip2rcd13ifvqbb0","pricing_plan_id":"cebpf4jnsgd1na2vs0mg"},{"bike_id":"dbd750a9-0c24-495b-8b51-27338322d10f","system_id":"levelo_inurba_marseille","lat":43.30511,"lon":5.36509,"is_reserved":false,"is_disabled":false,"rental_uris":{"android":"levelo://app?vid=dbd750a9-0c24-495b-8b51-27338322d10f","ios":"levelo://app?vid=dbd750a9-0c24-495b-8b51-27338322d10f"},"vehicle_type_id":"4","last_reported":1731582470,"current_range_meters":38800,"station_id":"ce4bgs12rcd13ifvqcag","pricing_plan_id":"cebpf4jnsgd1na2vs0mg"},{"bike_id":"8f6e4a2d-7245-40ff-b198-73575424a862","system_id":"levelo_inurba_marseille","lat":43.25582,"lon":5.38228,"is_reserved":false,"is_disabled":false,"rental_uris":{"android":"levelo://app?vid=8f6e4a2d-7245-40ff-b198-73575424a862","ios":"levelo://app?vid=8f6e4a2d-7245-40ff-b198-73575424a862"},"vehicle_type_id":"4","last_reported":1731582470,"current_range_meters":27200,"station_id":"ce4bhih2rcd13ifvqfs0","pricing_plan_id":"cebpf4jnsgd1na2vs0mg"},{"bike_id":"b448c76e-6a85-4e4e-8af8-7d9249501502","system_id":"levelo_inurba_marseille","lat":43.337444,"lon":5.374475,"is_reserved":false,"is_disabled":false,"rental_uris":{"android":"levelo://app?vid=b448c76e-6a85-4e4e-8af8-7d9249501502","ios":"levelo://app?vid=b448c76e-6a85-4e4e-8af8-7d9249501502"},"vehicle_type_id":"4","last_reported":1731582470,"current_range_meters":33200,"station_id":"","pricing_plan_id":"cebpf4jnsgd1na2vs0mg"},{"bike_id":"5ea0a09d-e268-48e3-ba2a-30aca33f044f","system_id":"levelo_inurba_marseille","lat":43.25942,"lon":5.40898,"is_reserved":false,"is_disabled":false,"rental_uris":{"android":"levelo://app?vid=5ea0a09d-e268-48e3-ba2a-30aca33f044f","ios":"levelo://app?vid=5ea0a09d-e268-48e3-ba2a-30aca33f044f"},"vehicle_type_id":"4","last_reported":1731582470,"current_range_meters":16000,"station_id":"ce4bhm92rcd13ifvqglg","pricing_plan_id":"cebpf4jnsgd1na2vs0mg"},{"bike_id":"bf54453f-c0f8-4652-aa19-45432de4dc68","system_id":"levelo_inurba_marseille","lat":43.30314,"lon":5.36896,"is_reserved":false,"is_disabled":false,"rental_uris":{"android":"levelo://app?vid=bf54453f-c0f8-4652-aa19-45432de4dc68","ios":"levelo://app?vid=bf54453f-c0f8-4652-aa19-45432de4dc68"},"vehicle_type_id":"4","last_reported":1731582470,"current_range_meters":37600,"station_id":"ce4bgqh2rcd13ifvqc5g","pricing_plan_id":"cebpf4jnsgd1na2vs0mg"},{"bike_id":"fa5ff0f2-173b-4dca-a940-a370161972e8","system_id":"levelo_inurba_marseille","lat":43.28611,"lon":5.37063,"is_reserved":false,"is_disabled":false,"rental_uris":{"android":"levelo://app?vid=fa5ff0f2-173b-4dca-a940-a370161972e8","ios":"levelo://app?vid=fa5ff0f2-173b-4dca-a940-a370161972e8"},"vehicle_type_id":"4","last_reported":1731582470,"current_range_meters":37600,"station_id":"ce4bht12rcd13ifvqi60","pricing_plan_id":"cebpf4jnsgd1na2vs0mg"},{"bike_id":"288e1e1b-b3f5-4d6f-b1aa-ecb1e6d1b9fb","system_id":"levelo_inurba_marseille","lat":43.317,"lon":5.40463,"is_reserved":false,"is_disabled":false,"rental_uris":{"android":"levelo://app?vid=288e1e1b-b3f5-4d6f-b1aa-ecb1e6d1b9fb","ios":"levelo://app?vid=288e1e1b-b3f5-4d6f-b1aa-ecb1e6d1b9fb"},"vehicle_type_id":"4","last_reported":1731582470,"current_range_meters":38800,"station_id":"ce4bh012rcd13ifvqd00","pricing_plan_id":"cebpf4jnsgd1na2vs0mg"},{"bike_id":"414dea06-0073-498d-8e43-6a1238984f59","system_id":"levelo_inurba_marseille","lat":43.337444,"lon":5.374475,"is_reserved":false,"is_disabled":false,"rental_uris":{"android":"levelo://app?vid=414dea06-0073-498d-8e43-6a1238984f59","ios":"levelo://app?vid=414dea06-0073-498d-8e43-6a1238984f59"},"vehicle_type_id":"4","last_reported":1731582470,"current_range_meters":35600,"station_id":"","pricing_plan_id":"cebpf4jnsgd1na2vs0mg"},{"bike_id":"36c07397-ae9b-4606-be09-bfd64132165b","system_id":"levelo_inurba_marseille","lat":43.30545,"lon":5.3669,"is_reserved":false,"is_disabled":false,"rental_uris":{"android":"levelo://app?vid=36c07397-ae9b-4606-be09-bfd64132165b","ios":"levelo://app?vid=36c07397-ae9b-4606-be09-bfd64132165b"},"vehicle_type_id":"4","last_reported":1731582470,"current_range_meters":35600,"station_id":"ce4bgrp2rcd13ifvqc9g","pricing_plan_id":"cebpf4jnsgd1na2vs0mg"},{"bike_id":"d25ce340-8437-4810-8aa3-3c106d4a8301","system_id":"levelo_inurba_marseille","lat":43.27907,"lon":5.3801,"is_reserved":false,"is_disabled":false,"rental_uris":{"android":"levelo://app?vid=d25ce340-8437-4810-8aa3-3c106d4a8301","ios":"levelo://app?vid=d25ce340-8437-4810-8aa3-3c106d4a8301"},"vehicle_type_id":"4","last_reported":1731582470,"current_range_meters":36400,"station_id":"ce4bhf92rcd13ifvqf50","pricing_plan_id":"cebpf4jnsgd1na2vs0mg"},{"bike_id":"b613702c-21b0-4c7d-8000-0fe3d104d85f","system_id":"levelo_inurba_marseille","lat":43.337444,"lon":5.374475,"is_reserved":false,"is_disabled":false,"rental_uris":{"android":"levelo://app?vid=b613702c-21b0-4c7d-8000-0fe3d104d85f","ios":"levelo://app?vid=b613702c-21b0-4c7d-8000-0fe3d104d85f"},"vehicle_type_id":"4","last_reported":1731582470,"current_range_meters":36800,"station_id":"","pricing_plan_id":"cebpf4jnsgd1na2vs0mg"},{"bike_id":"71675479-65a3-432e-900f-c13f815182ff","system_id":"levelo_inurba_marseille","lat":43.28373,"lon":5.38635,"is_reserved":false,"is_disabled":false,"rental_uris":{"android":"levelo://app?vid=71675479-65a3-432e-900f-c13f815182ff","ios":"levelo://app?vid=71675479-65a3-432e-900f-c13f815182ff"},"vehicle_type_id":"4","last_reported":1731582470,"current_range_meters":11200,"station_id":"ce4bh492rcd13ifvqdvg","pricing_plan_id":"cebpf4jnsgd1na2vs0mg"},{"bike_id":"4cbb71c3-7b75-4a14-a06c-952b73950be4","system_id":"levelo_inurba_marseille","lat":43.25002,"lon":5.38922,"is_reserved":false,"is_disabled":false,"rental_uris":{"android":"levelo://app?vid=4cbb71c3-7b75-4a14-a06c-952b73950be4","ios":"levelo://app?vid=4cbb71c3-7b75-4a14-a06c-952b73950be4"},"vehicle_type_id":"4","last_reported":1731582470,"current_range_meters":31200,"station_id":"ce4bhgp2rcd13ifvqfd0","pricing_plan_id":"cebpf4jnsgd1na2vs0mg"},