{"last_updated":1744841373,"ttl":60,"version":"2.2","data":{"bikes":[{"bike_id":"5b77a833-8185-45c2-9fe3-07eb40df54ca","system_id":"levelo_inurba_marseille","lat":43.33995,"lon":5.38057,"is_reserved":false,"is_disabled":true,"rental_uris":{"android":"levelo://app?vid=5b77a833-8185-45c2-9fe3-07eb40df54ca","ios":"levelo://app?vid=5b77a833-8185-45c2-9fe3-07eb40df54ca"},"vehicle_type_id":"4","last_reported":1744841373,"current_range_meters":0,"station_id":"","pricing_plan_id":"cebpf4jnsgd1na2vs0mg"},{"bike_id":"64a406cb-fc9e-42c8-aa26-a3bf16f67839","system_id":"levelo_inurba_marseille","lat":43.33777,"lon":5.37489,"is_reserved":false,"is_disabled":true,"rental_uris":{"android":"levelo://app?vid=64a406cb-fc9e-42c8-aa26-a3bf16f67839","ios":"levelo://app?vid=64a406cb-fc9e-42c8-aa26-a3bf16f67839"},"vehicle_type_id":"4","last_reported":1744841373,"current_range_meters":0,"station_id":"","pricing_plan_id":"cebpf4jnsgd1na2vs0mg"},{"bike_id":"2c59312c-3075-4778-941b-a07c5c400065","system_id":"levelo_inurba_marseille","lat":43.25029,"lon":5.38935,"is_reserved":false,"is_disabled":true,"rental_uris":{"android":"levelo://app?vid=2c59312c-3075-4778-941b-a07c5c400065","ios":"levelo://app?vid=2c59312c-3075-4778-941b-a07c5c400065"},"vehicle_type_id":"4","last_reported":1744841373,"current_range_meters":1200,"station_id":"ce4bhgp2rcd13ifvqfd0","pricing_plan_id":"cebpf4jnsgd1na2vs0mg"},{"bike_id":"b2aafb87-4bc6-4c18-96d6-febfb93cd882","system_id":"levelo_inurba_marseille","lat":43.30303,"lon":5.39214,"is_reserved":false,"is_disabled":false,"rental_uris":{"android":"levelo://app?vid=b2aafb87-4bc6-4c18-96d6-febfb93cd882","ios":"levelo://app?vid=b2aafb87-4bc6-4c18-96d6-febfb93cd882"},"vehicle_type_id":"4","last_reported":1744841373,"current_range_meters":3200,"station_id":"ce4bgkh2rcd13ifvqbk0","pricing_plan_id":"cebpf4jnsgd1na2vs0mg"},{"bike_id":"5ff4a267-dd4b-4f48-8a0c-427c1ff032aa","system_id":"levelo_inurba_marseille","lat":43.25505,"lon":5.37657,"is_reserved":false,"is_disabled":false,"rental_uris":{"android":"levelo://app?vid=5ff4a267-dd4b-4f48-8a0c-427c1ff032aa","ios":"levelo://app?vid=5ff4a267-dd4b-4f48-8a0c-427c1ff032aa"},"vehicle_type_id":"4","last_reported":1744841373,"current_range_meters":4000,"station_id":"ce4bhh12rcd13ifvqff0","pricing_plan_id":"cebpf4jnsgd1na2vs0mg"},{"bike_id":"829f3683-c287-4d6f-92bc-edf58824bda1","system_id":"levelo_inurba_marseille","lat":43.28576,"lon":5.39501,"is_reserved":false,"is_disabled":false,"rental_uris":{"android":"levelo://app?vid=829f3683-c287-4d6f-92bc-edf58824bda1","ios":"levelo://app?vid=829f3683-c287-4d6f-92bc-edf58824bda1"},"vehicle_type_id":"4","last_reported":1744841373,"current_range_meters":4800,"station_id":"ce4bh292rcd13ifvqdg0","pricing_plan_id":"cebpf4jnsgd1na2vs0mg"},{"bike_id":"7da39aba-455e-4163-9c62-41262016c1a1","system_id":"levelo_inurba_marseille","lat":43.28357,"lon":5.38124,"is_reserved":false,"is_disabled":false,"rental_uris":{"android":"levelo://app?vid=7da39aba-455e-4163-9c62-41262016c1a1","ios":"levelo://app?vid=7da39aba-455e-4163-9c62-41262016c1a1"},"vehicle_type_id":"4","last_reported":1744841373,"current_range_meters":4800,"station_id":"ce4bh412rcd13ifvqdr0","pricing_plan_id":"cebpf4jnsgd1na2vs0mg"},{"bike_id":"bbc22841-832a-489c-90a6-2cac4a12221a","system_id":"levelo_inurba_marseille","lat":43.28456,"lon":5.3589,"is_reserved":false,"is_disabled":false,"rental_uris":{"android":"levelo://app?vid=bbc22841-832a-489c-90a6-2cac4a12221a","ios":"levelo://app?vid=bbc22841-832a-489c-90a6-2cac4a12221a"},"vehicle_type_id":"4","last_reported":1744841373,"current_range_meters":5600,"station_id":"ce4bhah2rcd13ifvqei0","pricing_plan_id":"cebpf4jnsgd1na2vs0mg"},{"bike_id":"1f451eb9-6ea6-4a38-a97f-27218d1a945f","system_id":"levelo_inurba_marseille","lat":43.27214,"lon":5.39182,"is_reserved":false,"is_disabled":false,"rental_uris":{"android":"levelo://app?vid=1f451eb9-6ea6-4a38-a97f-27218d1a945f","ios":"levelo://app?vid=1f451eb9-6ea6-4a38-a97f-27218d1a945f"},"vehicle_type_id":"4","last_reported":1744841373,"current_range_meters":5600,"station_id":"ce4bhhp2rcd13ifvqfm0","pricing_plan_id":"cebpf4jnsgd1na2vs0mg"},{"bike_id":"df3eeb20-14cf-4be2-911f-5e93ad57ddc0","system_id":"levelo_inurba_marseille","lat":43.28077,"lon":5.3966,"is_reserved":false,"is_disabled":false,"rental_uris":{"android":"levelo://app?vid=df3eeb20-14cf-4be2-911f-5e93ad57ddc0","ios":"levelo://app?vid=df3eeb20-14cf-4be2-911f-5e93ad57ddc0"},"vehicle_type_id":"4","last_reported":1744841373,"current_range_meters":5600,"station_id":"ce4bho12rcd13ifvqh2g","pricing_plan_id":"cebpf4jnsgd1na2vs0mg"},{"bike_id":"4be423fc-b49d-4203-8abc-985b45dfd65e","system_id":"levelo_inurba_marseille","lat":43.32907,"lon":5.4338,"is_reserved":false,"is_disabled":false,"rental_uris":{"android":"levelo://app?vid=4be423fc-b49d-4203-8abc-985b45dfd65e","ios":"levelo://app?vid=4be423fc-b49d-4203-8abc-985b45dfd65e"},"vehicle_type_id":"4","last_reported":1744841373,"current_range_meters":6400,"station_id":"","pricing_plan_id":"cebpf4jnsgd1na2vs0mg"},{"bike_id":"e42a459d-16cc-4bfd-9a18-79c9ced580f3","system_id":"levelo_inurba_marseille","lat":43.23195,"lon":5.35552,"is_reserved":false,"is_disabled":false,"rental_uris":{"android":"levelo://app?vid=e42a459d-16cc-4bfd-9a18-79c9ced580f3","ios":"levelo://app?vid=e42a459d-16cc-4bfd-9a18-79c9ced580f3"},"vehicle_type_id":"4","last_reported":1744841373,"current_range_meters":6400,"station_id":"ce4bhu92rcd13ifvqi70","pricing_plan_id":"cebpf4jnsgd1na2vs0mg"},{"bike_id":"f813d5ea-a9c6-48a7-be5d-f7b6ce5328e6","system_id":"levelo_inurba_marseille","lat":43.24662,"lon":5.38152,"is_reserved":false,"is_disabled":false,"rental_uris":{"android":"levelo://app?vid=f813d5ea-a9c6-48a7-be5d-f7b6ce5328e6","ios":"levelo://app?vid=f813d5ea-a9c6-48a7-be5d-f7b6ce5328e6"},"vehicle_type_id":"4","last_reported":1744841373,"current_range_meters":7200,"station_id":"ce4bhih2rcd13ifvqfr0","pricing_plan_id":"cebpf4jnsgd1na2vs0mg"},{"bike_id":"27d65429-e235-4ad4-8e99-624219bf772a","system_id":"levelo_inurba_marseille","lat":43.30742,"lon":5.42438,"is_reserved":false,"is_disabled":false,"rental_uris":{"android":"levelo://app?vid=27d65429-e235-4ad4-8e99-624219bf772a","ios":"levelo://app?vid=27d65429-e235-4ad4-8e99-624219bf772a"},"vehicle_type_id":"4","last_reported":1744841373,"current_range_meters":7200,"station_id":"st_cvj6ca6bvosntc0bfgr0","pricing_plan_id":"cebpf4jnsgd1na2vs0mg"},{"bike_id":"b69156c9-6a49-4ab5-9612-623049b026dd","system_id":"levelo_inurba_marseille","lat":43.265518,"lon":5.372862,"is_reserved":false,"is_disabled":false,"rental_uris":{"android":"levelo://app?vid=b69156c9-6a49-4ab5-9612-623049b026dd","ios":"levelo://app?vid=b69156c9-6a49-4ab5-9612-623049b026dd"},"vehicle_type_id":"4","last_reported":1744841373,"current_range_meters":8000,"station_id":"ce4bhg12rcd13ifvqf70","pricing_plan_id":"cebpf4jnsgd1na2vs0mg"},{"bike_id":"51875e50-7830-42ab-87b5-bc339625ae5c","system_id":"levelo_inurba_marseille","lat":43.23961,"lon":5.36633,"is_reserved":false,"is_disabled":false,"rental_uris":{"android":"levelo://app?vid=51875e50-7830-42ab-87b5-bc339625ae5c","ios":"levelo://app?vid=51875e50-7830-42ab-87b5-bc339625ae5c"},"vehicle_type_id":"4","last_reported":1744841373,"current_range_meters":8000,"station_id":"ce4bhi12rcd13ifvqfp0","pricing_plan_id":"cebpf4jnsgd1na2vs0mg"},{"bike_id":"2797dcdb-c4e1-48b2-82d6-5677d371fa39","system_id":"levelo_inurba_marseille","lat":43.24161,"lon":5.36399,"is_reserved":false,"is_disabled":false,"rental_uris":{"android":"levelo://app?vid=2797dcdb-c4e1-48b2-82d6-5677d371fa39","ios":"levelo://app?vid=2797dcdb-c4e1-48b2-82d6-5677d371fa39"},"vehicle_type_id":"4","last_reported":1744841373,"current_range_meters":8000,"station_id":"cpo36qri1sfpv3e86is0","pricing_plan_id":"cebpf4jnsgd1na2vs0mg"},{"bike_id":"29d892ff-396f-4d0b-a265-444cbe69d0d6","system_id":"levelo_inurba_marseille","lat":43.29882,"lon":5.38914,"is_reserved":false,"is_disabled":false,"rental_uris":{"android":"levelo://app?vid=29d892ff-396f-4d0b-a265-444cbe69d0d6","ios":"levelo://app?vid=29d892ff-396f-4d0b-a265-444cbe69d0d6"},"vehicle_type_id":"4","last_reported":1744841373,"current_range_meters":8800,"station_id":"ce4bh392rcd13ifvqdl0","pricing_plan_id":"cebpf4jnsgd1na2vs0mg"},{"bike_id":"13212ea6-c79f-428f-bf88-2ce269adcaff","system_id":"levelo_inurba_marseille","lat":43.24803,"lon":5.37458,"is_reserved":false,"is_disabled":false,"rental_uris":{"android":"levelo://app?vid=13212ea6-c79f-428f-bf88-2ce269adcaff","ios":"levelo://app?vid=13212ea6-c79f-428f-bf88-2ce269adcaff"},"vehicle_type_id":"4","last_reported":1744841373,"current_range_meters":9200,"station_id":"ce4bhgh2rcd13ifvqfb0","pricing_plan_id":"cebpf4jnsgd1na2vs0mg"},{"bike_id":"545f67d0-5e27-4a16-857c-5daa0e7b4759","system_id":"levelo_inurba_marseille","lat":43.27996,"lon":5.4002,"is_reserved":false,"is_disabled":false,"rental_uris":{"android":"levelo://app?vid=545f67d0-5e27-4a16-857c-5daa0e7b4759","ios":"levelo://app?vid=545f67d0-5e27-4a16-857c-5daa0e7b4759"},"vehicle_type_id":"4","last_reported":1744841373,"current_range_meters":9200,"station_id":"ce4bho92rcd13ifvqh4g","pricing_plan_id":"cebpf4jnsgd1na2vs0mg"},{"bike_id":"847a57e8-0129-4285-b6be-15d7d295a3b2","system_id":"levelo_inurba_marseille","lat":43.29877,"lon":5.39732,"is_reserved":false,"is_disabled":false,"rental_uris":{"android":"levelo://app?vid=847a57e8-0129-4285-b6be-15d7d295a3b2","ios":"levelo://app?vid=847a57e8-0129-4285-b6be-15d7d295a3b2"},"vehicle_type_id":"4","last_reported":1744841373,"current_range_meters":9600,"station_id":"ce4bh0h2rcd13ifvqd50","pricing_plan_id":"cebpf4jnsgd1na2vs0mg"},{"bike_id":"613dd6ef-98e9-4602-95a8-908e8fddce9f","system_id":"levelo_inurba_marseille","lat":43.296222,"lon":5.377238,"is_reserved":false,"is_disabled":false,"rental_uris":{"android":"levelo://app?vid=613dd6ef-98e9-4602-95a8-908e8fddce9f","ios":"levelo://app?vid=613dd6ef-98e9-4602-95a8-908e8fddce9f"},"vehicle_type_id":"4","last_reported":1744841373,"current_range_meters":9600,"station_id":"ce4bh3h2rcd13ifvqdo0","pricing_plan_id":"cebpf4jnsgd1na2vs0mg"},{"bike_id":"561936ef-54e4-4d15-b2a7-dfd018b9e12e","system_id":"levelo_inurba_marseille","lat":43.29783,"lon":5.39339,"is_reserved":false,"is_disabled":false,"rental_uris":{"android":"levelo://app?vid=561936ef-54e4-4d15-b2a7-dfd018b9e12e","ios":"levelo://app?vid=561936ef-54e4-4d15-b2a7-dfd018b9e12e"},"vehicle_type_id":"4","last_reported":1744841373,"current_range_meters":9600,"station_id":"chh1huq6cuj3fo74tm60","pricing_plan_id":"cebpf4jnsgd1na2vs0mg"},{"bike_id":"56d75ea2-b8f3-4ca3-8522-3237f041fe6b","system_id":"levelo_inurba_marseille","lat":43.29273,"lon":5.40137,"is_reserved":false,"is_disabled":false,"rental_uris":{"android":"levelo://app?vid=56d75ea2-b8f3-4ca3-8522-3237f041fe6b","ios":"levelo://app?vid=56d75ea2-b8f3-4ca3-8522-3237f041fe6b"},"vehicle_type_id":"4","last_reported":1744841373,"current_range_meters":10000,"station_id":"ce4bh312rcd13ifvqdk0","pricing_plan_id":"cebpf4jnsgd1na2vs0mg"},{"bike_id":"2d6ae6b1-09e5-4258-83e0-3609dc765933","system_id":"levelo_inurba_marseille","lat":43.29442,"lon":5.39746,"is_reserved":false,"is_disabled":false,"rental_uris":{"android":"levelo://app?vid=2d6ae6b1-09e5-4258-83e0-3609dc765933","ios":"levelo://app?vid=2d6ae6b1-09e5-4258-83e0-3609dc765933"},"vehicle_type_id":"4","last_reported":1744841373,"current_range_meters":10000,"station_id":"ce4bh3h2rcd13ifvqdo0","pricing_plan_id":"cebpf4jnsgd1na2vs0mg"},{"bike_id":"57758a02-2e61-4253-8d62-3d1aa1b54ab1","system_id":"levelo_inurba_marseille","lat":43.25575,"lon":5.38246,"is_reserved":false,"is_disabled":false,"rental_uris":{"android":"levelo://app?vid=57758a02-2e61-4253-8d62-3d1aa1b54ab1","ios":"levelo://app?vid=57758a02-2e61-4253-8d62-3d1aa1b54ab1"},"vehicle_type_id":"4","last_reported":1744841373,"current_range_meters":10000,"station_id":"ce4bhih2rcd13ifvqfs0","pricing_plan_id":"cebpf4jnsgd1na2vs0mg"},{"bike_id":"e8412f40-a8dc-44ee-bbc2-e01b1cf2ab9a","system_id":"levelo_inurba_marseille","lat":43.27824,"lon":5.39198,"is_reserved":false,"is_disabled":false,"rental_uris":{"android":"levelo://app?vid=e8412f40-a8dc-44ee-bbc2-e01b1cf2ab9a","ios":"levelo://app?vid=e8412f40-a8dc-44ee-bbc2-e01b1cf2ab9a"},"vehicle_type_id":"4","last_reported":1744841373,"current_range_meters":10000,"station_id":"ce4bhjp2rcd13ifvqga0","pricing_plan_id":"cebpf4jnsgd1na2vs0mg"},{"bike_id":"ca4e1f9d-1ba6-4c9a-88af-8978a8ef4daa","system_id":"levelo_inurba_marseille","lat":43.30885,"lon":5.39628,"is_reserved":false,"is_disabled":false,"rental_uris":{"android":"levelo://app?vid=ca4e1f9d-1ba6-4c9a-88af-8978a8ef4daa","ios":"levelo://app?vid=ca4e1f9d-1ba6-4c9a-88af-8978a8ef4daa"},"vehicle_type_id":"4","last_reported":1744841373,"current_range_meters":10800,"station_id":"ce4bh012rcd13ifvqcv0","pricing_plan_id":"cebpf4jnsgd1na2vs0mg"},{"bike_id":"55092f83-b1e4-4c13-8d10-c405cef06ef5","system_id":"levelo_inurba_marseille","lat":43.30324,"lon":5.4043,"is_reserved":false,"is_disabled":false,"rental_uris":{"android":"levelo://app?vid=55092f83-b1e4-4c13-8d10-c405cef06ef5","ios":"levelo://app?vid=55092f83-b1e4-4c13-8d10-c405cef06ef5"},"vehicle_type_id":"4","last_reported":1744841373,"current_range_meters":10800,"station_id":"ce4bh012rcd13ifvqd10","pricing_plan_id":"cebpf4jnsgd1na2vs0mg"},{"bike_id":"b1203870-4d45-4676-8ec7-5019ca28aac8","system_id":"levelo_inurba_marseille","lat":43.30105,"lon":5.39084,"is_reserved":false,"is_disabled":false,"rental_uris":{"android":"levelo://app?vid=b1203870-4d45-4676-8ec7-5019ca28aac8","ios":"levelo://app?vid=b1203870-4d45-4676-8ec7-5019ca28aac8"},"vehicle_type_id":"4","last_reported":1744841373,"current_range_meters":10800,"station_id":"ce4bh192rcd13ifvqdb0","pricing_plan_id":"cebpf4jnsgd1na2vs0mg"},{"bike_id":"51a64e16-0b88-479c-8f70-cafff67635bb","system_id":"levelo_inurba_marseille","lat":43.2841,"lon":5.37519,"is_reserved":false,"is_disabled":false,"rental_uris":{"android":"levelo://app?vid=51a64e16-0b88-479c-8f70-cafff67635bb","ios":"levelo://app?vid=51a64e16-0b88-479c-8f70-cafff67635bb"},"vehicle_type_id":"4","last_reported":1744841373,"current_range_meters":10800,"station_id":"ce4bh412rcd13ifvqds0","pricing_plan_id":"cebpf4jnsgd1na2vs0mg"},{"bike_id":"141f2209-2858-4bb6-9131-24bc3711131e","system_id":"levelo_inurba_marseille","lat":43.29012,"lon":5.38616,"is_reserved":false,"is_disabled":false,"rental_uris":{"android":"levelo://app?vid=141f2209-2858-4bb6-9131-24bc3711131e","ios":"levelo://app?vid=141f2209-2858-4bb6-9131-24bc3711131e"},"vehicle_type_id":"4","last_reported":1744841373,"current_range_meters":10800,"station_id":"ce4bh4p2rcd13ifvqe0g","pricing_plan_id":"cebpf4jnsgd1na2vs0mg"},{"bike_id":"aafece41-771c-4727-9330-23c42c863e6d","system_id":"levelo_inurba_marseille","lat":43.28618,"lon":5.35098,"is_reserved":false,"is_disabled":false,"rental_uris":{"android":"levelo://app?vid=aafece41-771c-4727-9330-23c42c863e6d","ios":"levelo://app?vid=aafece41-771c-4727-9330-23c42c863e6d"},"vehicle_type_id":"4","last_reported":1744841373,"current_range_meters":10800,"station_id":"ce4bhch2rcd13ifvqeug","pricing_plan_id":"cebpf4jnsgd1na2vs0mg"},{"bike_id":"2c032a6e-a514-4c75-ac58-67d0e95dcf42","system_id":"levelo_inurba_marseille","lat":43.28645,"lon":5.35101,"is_reserved":false,"is_disabled":false,"rental_uris":{"android":"levelo://app?vid=2c032a6e-a514-4c75-ac58-67d0e95dcf42","ios":"levelo://app?vid=2c032a6e-a514-4c75-ac58-67d0e95dcf42"},"vehicle_type_id":"4","last_reported":1744841373,"current_range_meters":10800,"station_id":"ce4bhch2rcd13ifvqeug","pricing_plan_id":"cebpf4jnsgd1na2vs0mg"},{"bike_id":"14541b4c-c4ff-4f48-b140-23313b771198","system_id":"levelo_inurba_marseille","lat":43.27824,"lon":5.39207,"is_reserved":false,"is_disabled":false,"rental_uris":{"android":"levelo://app?vid=14541b4c-c4ff-4f48-b140-23313b771198","ios":"levelo://app?vid=14541b4c-c4ff-4f48-b140-23313b771198"},"vehicle_type_id":"4","last_reported":1744841373,"current_range_meters":10800,"station_id":"ce4bhjp2rcd13ifvqga0","pricing_plan_id":"cebpf4jnsgd1na2vs0mg"},{"bike_id":"dfc90e23-a51a-46c2-9aff-a5e54b4a553f","system_id":"levelo_inurba_marseille","lat":43.26222,"lon":5.40468,"is_reserved":false,"is_disabled":false,"rental_uris":{"android":"levelo://app?vid=dfc90e23-a51a-46c2-9aff-a5e54b4a553f","ios":"levelo://app?vid=dfc90e23-a51a-46c2-9aff-a5e54b4a553f"},"vehicle_type_id":"4","last_reported":1744841373,"current_range_meters":10800,"station_id":"ce4bhmh2rcd13ifvqgmg","pricing_plan_id":"cebpf4jnsgd1na2vs0mg"},{"bike_id":"257cd67d-848f-46ff-a9b4-b9d60cab96e4","system_id":"levelo_inurba_marseille","lat":43.297853,"lon":5.393472,"is_reserved":false,"is_disabled":false,"rental_uris":{"android":"levelo://app?vid=257cd67d-848f-46ff-a9b4-b9d60cab96e4","ios":"levelo://app?vid=257cd67d-848f-46ff-a9b4-b9d60cab96e4"},"vehicle_type_id":"4","last_reported":1744841373,"current_range_meters":10800,"station_id":"chh1huq6cuj3fo74tm60","pricing_plan_id":"cebpf4jnsgd1na2vs0mg"},{"bike_id":"834ec9e1-9d50-4bee-85ae-d1db335c55e5","system_id":"levelo_inurba_marseille","lat":43.31736,"lon":5.36517,"is_reserved":false,"is_disabled":false,"rental_uris":{"android":"levelo://app?vid=834ec9e1-9d50-4bee-85ae-d1db335c55e5","ios":"levelo://app?vid=834ec9e1-9d50-4bee-85ae-d1db335c55e5"},"vehicle_type_id":"4","last_reported":1744841373,"current_range_meters":11200,"station_id":"","pricing_plan_id":"cebpf4jnsgd1na2vs0mg"},{"bike_id":"1bc1ffd9-ea68-4189-8b4c-99816b896b8c","system_id":"levelo_inurba_marseille","lat":43.30593,"lon":5.39353,"is_reserved":false,"is_disabled":false,"rental_uris":{"android":"levelo://app?vid=1bc1ffd9-ea68-4189-8b4c-99816b896b8c","ios":"levelo://app?vid=1bc1ffd9-ea68-4189-8b4c-99816b896b8c"},"vehicle_type_id":"4","last_reported":1744841373,"current_range_meters":11200,"station_id":"ce4bh0p2rcd13ifvqd80","pricing_plan_id":"cebpf4jnsgd1na2vs0mg"},{"bike_id":"693abb56-2440-4e46-a9de-d094d1b968f7","system_id":"levelo_inurba_marseille","lat":43.28453,"lon":5.35895,"is_reserved":false,"is_disabled":false,"rental_uris":{"android":"levelo://app?vid=693abb56-2440-4e46-a9de-d094d1b968f7","ios":"levelo://app?vid=693abb56-2440-4e46-a9de-d094d1b968f7"},"vehicle_type_id":"4","last_reported":1744841373,"current_range_meters":11200,"station_id":"ce4bhah2rcd13ifvqei0","pricing_plan_id":"cebpf4jnsgd1na2vs0mg"},{"bike_id":"84b58d90-bb57-4bdb-8485-62b6e661a441","system_id":"levelo_inurba_marseille","lat":43.24181,"lon":5.39732,"is_reserved":false,"is_disabled":false,"rental_uris":{"android":"levelo://app?vid=84b58d90-bb57-4bdb-8485-62b6e661a441","ios":"levelo://app?vid=84b58d90-bb57-4bdb-8485-62b6e661a441"},"vehicle_type_id":"4","last_reported":1744841373,"current_range_meters":11200,"station_id":"ce4bhn12rcd13ifvqgpg","pricing_plan_id":"cebpf4jnsgd1na2vs0mg"},{"bike_id":"5eccede5-a092-4c79-861e-9ba408b79172","system_id":"levelo_inurba_marseille","lat":43.32105,"lon":5.36764,"is_reserved":false,"is_disabled":false,"rental_uris":{"android":"levelo://app?vid=5eccede5-a092-4c79-861e-9ba408b79172","ios":"levelo://app?vid=5eccede5-a092-4c79-861e-9ba408b79172"},"vehicle_type_id":"4","last_reported":1744841373,"current_range_meters":11200,"station_id":"ce4bhrh2rcd13ifvqhug","pricing_plan_id":"cebpf4jnsgd1na2vs0mg"},{"bike_id":"76332156-cb3a-4e22-af8d-bb13db9ead2e","system_id":"levelo_inurba_marseille","lat":43.30325,"lon":5.40434,"is_reserved":false,"is_disabled":false,"rental_uris":{"android":"levelo://app?vid=76332156-cb3a-4e22-af8d-bb13db9ead2e","ios":"levelo://app?vid=76332156-cb3a-4e22-af8d-bb13db9ead2e"},"vehicle_type_id":"4","last_reported":1744841373,"current_range_meters":11600,"station_id":"ce4bh012rcd13ifvqd10","pricing_plan_id":"cebpf4jnsgd1na2vs0mg"},{"bike_id":"97f3d0b0-b7e0-468e-8eaa-7b77ca25f0e9","system_id":"levelo_inurba_marseille","lat":43.3172,"lon":5.42404,"is_reserved":false,"is_disabled":false,"rental_uris":{"android":"levelo://app?vid=97f3d0b0-b7e0-468e-8eaa-7b77ca25f0e9","ios":"levelo://app?vid=97f3d0b0-b7e0-468e-8eaa-7b77ca25f0e9"},"vehicle_type_id":"4","last_reported":1744841373,"current_range_meters":12000,"station_id":"","pricing_plan_id":"cebpf4jnsgd1na2vs0mg"},{"bike_id":"2e4df3f8-36a0-4aaa-a40e-25b01eb78413","system_id":"levelo_inurba_marseille","lat":43.31114,"lon":5.37766,"is_reserved":false,"is_disabled":false,"rental_uris":{"android":"levelo://app?vid=2e4df3f8-36a0-4aaa-a40e-25b01eb78413","ios":"levelo://app?vid=2e4df3f8-36a0-4aaa-a40e-25b01eb78413"},"vehicle_type_id":"4","last_reported":1744841373,"current_range_meters":12000,"station_id":"ce4bgt92rcd13ifvqcg0","pricing_plan_id":"cebpf4jnsgd1na2vs0mg"},{"bike_id":"4f5cdb0c-fa2c-4fb6-a5aa-153c9ce915d8","system_id":"levelo_inurba_marseille","lat":43.28673,"lon":5.38674,"is_reserved":false,"is_disabled":false,"rental_uris":{"android":"levelo://app?vid=4f5cdb0c-fa2c-4fb6-a5aa-153c9ce915d8","ios":"levelo://app?vid=4f5cdb0c-fa2c-4fb6-a5aa-153c9ce915d8"},"vehicle_type_id":"4","last_reported":1744841373,"current_range_meters":12000,"station_id":"ce4bh492rcd13ifvqdug","pricing_plan_id":"cebpf4jnsgd1na2vs0mg"},{"bike_id":"d0ea97a0-822d-4e50-ad21-95eb2e1560c0","system_id":"levelo_inurba_marseille","lat":43.284729,"lon":5.384172,"is_reserved":false,"is_disabled":false,"rental_uris":{"android":"levelo://app?vid=d0ea97a0-822d-4e50-ad21-95eb2e1560c0","ios":"levelo://app?vid=d0ea97a0-822d-4e50-ad21-95eb2e1560c0"},"vehicle_type_id":"4","last_reported":1744841373,"current_range_meters":12000,"station_id":"ce4bhip2rcd13ifvqft0","pricing_plan_id":"cebpf4jnsgd1na2vs0mg"},{"bike_id":"9002d50e-d6d6-46d0-9f04-b56806ecb3e7","system_id":"levelo_inurba_marseille","lat":43.28611,"lon":5.37063,"is_reserved":false,"is_disabled":false,"rental_uris":{"android":"levelo://app?vid=9002d50e-d6d6-46d0-9f04-b56806ecb3e7","ios":"levelo://app?vid=9002d50e-d6d6-46d0-9f04-b56806ecb3e7"},"vehicle_type_id":"4","last_reported":1744841373,"current_range_meters":12000,"station_id":"ce4bht12rcd13ifvqi60","pricing_plan_id":"cebpf4jnsgd1na2vs0mg"},{"bike_id":"367f01cf-3209-4951-b89b-8264c8668817","system_id":"levelo_inurba_marseille","lat":43.306463,"lon":5.400867,"is_reserved":false,"is_disabled":false,"rental_uris":{"android":"levelo://app?vid=367f01cf-3209-4951-b89b-8264c8668817","ios":"levelo://app?vid=367f01cf-3209-4951-b89b-8264c8668817"},"vehicle_type_id":"4","last_reported":1744841373,"current_range_meters":12400,"station_id":"ce4bh112rcd13ifvqda0","pricing_plan_id":"cebpf4jnsgd1na2vs0mg"},{"bike_id":"cff7e17d-4349-4ec1-aff9-05067a138474","system_id":"levelo_inurba_marseille","lat":43.29186,"lon":5.39323,"is_reserved":false,"is_disabled":false,"rental_uris":{"android":"levelo://app?vid=cff7e17d-4349-4ec1-aff9-05067a138474","ios":"levelo://app?vid=cff7e17d-4349-4ec1-aff9-05067a138474"},"vehicle_type_id":"4","last_reported":1744841373,"current_range_meters":12400,"station_id":"ce4bh192rcd13ifvqdd0","pricing_plan_id":"cebpf4jnsgd1na2vs0mg"},{"bike_id":"93be371e-f079-4065-9c94-f1bd2172cfd1","system_id":"levelo_inurba_marseille","lat":43.28607,"lon":5.37073,"is_reserved":false,"is_disabled":false,"rental_uris":{"android":"levelo://app?vid=93be371e-f079-4065-9c94-f1bd2172cfd1","ios":"levelo://app?vid=93be371e-f079-4065-9c94-f1bd2172cfd1"},"vehicle_type_id":"4","last_reported":1744841373,"current_range_meters":12400,"station_id":"ce4bht12rcd13ifvqi60","pricing_plan_id":"cebpf4jnsgd1na2vs0mg"},{"bike_id":"736c7bdc-b98a-4581-a5dc-1bee5f63147b","system_id":"levelo_inurba_marseille","lat":43.30626,"lon":5.40076,"is_reserved":false,"is_disabled":false,"rental_uris":{"android":"levelo://app?vid=736c7bdc-b98a-4581-a5dc-1bee5f63147b","ios":"levelo://app?vid=736c7bdc-b98a-4581-a5dc-1bee5f63147b"},"vehicle_type_id":"4","last_reported":1744841373,"current_range_meters":12800,"station_id":"ce4bh112rcd13ifvqda0","pricing_plan_id":"cebpf4jnsgd1na2vs0mg"},{"bike_id":"9032f14c-fd09-4b52-bf50-b879d730ed1b","system_id":"levelo_inurba_marseille","lat":43.257,"lon":5.41114,"is_reserved":false,"is_disabled":false,"rental_uris":{"android":"levelo://app?vid=9032f14c-fd09-4b52-bf50-b879d730ed1b","ios":"levelo://app?vid=9032f14c-fd09-4b52-bf50-b879d730ed1b"},"vehicle_type_id":"4","last_reported":1744841373,"current_range_meters":12800,"station_id":"ce4bhkp2rcd13ifvqgd0","pricing_plan_id":"cebpf4jnsgd1na2vs0mg"},{"bike_id":"4b9b1e69-af86-4122-8d46-0d52505b1cab","system_id":"levelo_inurba_marseille","lat":43.2749,"lon":5.42459,"is_reserved":false,"is_disabled":false,"rental_uris":{"android":"levelo://app?vid=4b9b1e69-af86-4122-8d46-0d52505b1cab","ios":"levelo://app?vid=4b9b1e69-af86-4122-8d46-0d52505b1cab"},"vehicle_type_id":"4","last_reported":1744841373,"current_range_meters":12800,"station_id":"ce4bhn92rcd13ifvqgrg","pricing_plan_id":"cebpf4jnsgd1na2vs0mg"},{"bike_id":"bfe5d35a-fd31-453a-add0-2a926a22a6d8","system_id":"levelo_inurba_marseille","lat":43.28717,"lon":5.39991,"is_reserved":false,"is_disabled":false,"rental_uris":{"android":"levelo://app?vid=bfe5d35a-fd31-453a-add0-2a926a22a6d8","ios":"levelo://app?vid=bfe5d35a-fd31-453a-add0-2a926a22a6d8"},"vehicle_type_id":"4","last_reported":1744841373,"current_range_meters":12800,"station_id":"ce4bho92rcd13ifvqh3g","pricing_plan_id":"cebpf4jnsgd1na2vs0mg"},{"bike_id":"1bdba7a7-a82e-4252-906c-80db6beb180e","system_id":"levelo_inurba_marseille","lat":43.24895,"lon":5.39408,"is_reserved":false,"is_disabled":false,"rental_uris":{"android":"levelo://app?vid=1bdba7a7-a82e-4252-906c-80db6beb180e","ios":"levelo://app?vid=1bdba7a7-a82e-4252-906c-80db6beb180e"},"vehicle_type_id":"4","last_reported":1744841373,"current_range_meters":13600,"station_id":"","pricing_plan_id":"cebpf4jnsgd1na2vs0mg"},{"bike_id":"88a0cb80-a51d-46bc-8228-c9a9fb028348","system_id":"levelo_inurba_marseille","lat":43.25627,"lon":5.42004,"is_reserved":false,"is_disabled":false,"rental_uris":{"android":"levelo://app?vid=88a0cb80-a51d-46bc-8228-c9a9fb028348","ios":"levelo://app?vid=88a0cb80-a51d-46bc-8228-c9a9fb028348"},"vehicle_type_id":"4","last_reported":1744841373,"current_range_meters":13600,"station_id":"","pricing_plan_id":"cebpf4jnsgd1na2vs0mg"},{"bike_id":"75fe1ac9-0713-4597-92fb-c4b09207ec9e","system_id":"levelo_inurba_marseille","lat":43.29264,"lon":5.40902,"is_reserved":false,"is_disabled":false,"rental_uris":{"android":"levelo://app?vid=75fe1ac9-0713-4597-92fb-c4b09207ec9e","ios":"levelo://app?vid=75fe1ac9-0713-4597-92fb-c4b09207ec9e"},"vehicle_type_id":"4","last_reported":1744841373,"current_range_meters":13600,"station_id":"ce4bh192rcd13ifvqdc0","pricing_plan_id":"cebpf4jnsgd1na2vs0mg"},{"bike_id":"6bf5a380-400e-4cd6-bc1e-356afac9ee45","system_id":"levelo_inurba_marseille","lat":43.24163,"lon":5.3638,"is_reserved":false,"is_disabled":false,"rental_uris":{"android":"levelo://app?vid=6bf5a380-400e-4cd6-bc1e-356afac9ee45","ios":"levelo://app?vid=6bf5a380-400e-4cd6-bc1e-356afac9ee45"},"vehicle_type_id":"4","last_reported":1744841373,"current_range_meters":13600,"station_id":"cpo36qri1sfpv3e86is0","pricing_plan_id":"cebpf4jnsgd1na2vs0mg"},{"bike_id":"a5dcdcdd-bf90-4188-b000-5abff8fcd560","system_id":"levelo_inurba_marseille","lat":43.30928,"lon":5.4014,"is_reserved":false,"is_disabled":false,"rental_uris":{"android":"levelo://app?vid=a5dcdcdd-bf90-4188-b000-5abff8fcd560","ios":"levelo://app?vid=a5dcdcdd-bf90-4188-b000-5abff8fcd560"},"vehicle_type_id":"4","last_reported":1744841373,"current_range_meters":14000,"station_id":"ce4bgvp2rcd13ifvqct0","pricing_plan_id":"cebpf4jnsgd1na2vs0mg"},{"bike_id":"417e3a7a-0095-495e-9b83-1bc73bffd8f5","system_id":"levelo_inurba_marseille","lat":43.30888,"lon":5.39656,"is_reserved":false,"is_disabled":false,"rental_uris":{"android":"levelo://app?vid=417e3a7a-0095-495e-9b83-1bc73bffd8f5","ios":"levelo://app?vid=417e3a7a-0095-495e-9b83-1bc73bffd8f5"},"vehicle_type_id":"4","last_reported":1744841373,"current_range_meters":14000,"station_id":"ce4bh012rcd13ifvqcv0","pricing_plan_id":"cebpf4jnsgd1na2vs0mg"},{"bike_id":"a452b574-03cf-484e-b043-1b63eadf7414","system_id":"levelo_inurba_marseille","lat":43.30191,"lon":5.39477,"is_reserved":false,"is_disabled":false,"rental_uris":{"android":"levelo://app?vid=a452b574-03cf-484e-b043-1b63eadf7414","ios":"levelo://app?vid=a452b574-03cf-484e-b043-1b63eadf7414"},"vehicle_type_id":"4","last_reported":1744841373,"current_range_meters":14000,"station_id":"ce4bh0p2rcd13ifvqd70","pricing_plan_id":"cebpf4jnsgd1na2vs0mg"},{"bike_id":"6dd5e720-7be4-4987-a864-5cec97498832","system_id":"levelo_inurba_marseille","lat":43.29869,"lon":5.38913,"is_reserved":false,"is_disabled":false,"rental_uris":{"android":"levelo://app?vid=6dd5e720-7be4-4987-a864-5cec97498832","ios":"levelo://app?vid=6dd5e720-7be4-4987-a864-5cec97498832"},"vehicle_type_id":"4","last_reported":1744841373,"current_range_meters":14000,"station_id":"ce4bh392rcd13ifvqdl0","pricing_plan_id":"cebpf4jnsgd1na2vs0mg"},{"bike_id":"fe552450-c0a0-482b-ad4d-745c7e3315b5","system_id":"levelo_inurba_marseille","lat":43.23968,"lon":5.36628,"is_reserved":false,"is_disabled":false,"rental_uris":{"android":"levelo://app?vid=fe552450-c0a0-482b-ad4d-745c7e3315b5","ios":"levelo://app?vid=fe552450-c0a0-482b-ad4d-745c7e3315b5"},"vehicle_type_id":"4","last_reported":1744841373,"current_range_meters":14000,"station_id":"ce4bhi12rcd13ifvqfp0","pricing_plan_id":"cebpf4jnsgd1na2vs0mg"},{"bike_id":"d9a74604-4e04-4138-8f3c-bfc766e9e048","system_id":"levelo_inurba_marseille","lat":43.25856,"lon":5.39897,"is_reserved":false,"is_disabled":false,"rental_uris":{"android":"levelo://app?vid=d9a74604-4e04-4138-8f3c-bfc766e9e048","ios":"levelo://app?vid=d9a74604-4e04-4138-8f3c-bfc766e9e048"},"vehicle_type_id":"4","last_reported":1744841373,"current_range_meters":14000,"station_id":"ce4bhl92rcd13ifvqghg","pricing_plan_id":"cebpf4jnsgd1na2vs0mg"},{"bike_id":"36b27908-e03e-48dd-8616-02140a61855a","system_id":"levelo_inurba_marseille","lat":43.297241,"lon":5.38022,"is_reserved":false,"is_disabled":false,"rental_uris":{"android":"levelo://app?vid=36b27908-e03e-48dd-8616-02140a61855a","ios":"levelo://app?vid=36b27908-e03e-48dd-8616-02140a61855a"},"vehicle_type_id":"4","last_reported":1744841373,"current_range_meters":14400,"station_id":"ce4bgip2rcd13ifvqbb0","pricing_plan_id":"cebpf4jnsgd1na2vs0mg"},{"bike_id":"96b3cd09-0bfe-4125-8dcf-c4bdc8601e42","system_id":"levelo_inurba_marseille","lat":43.31192,"lon":5.38706,"is_reserved":false,"is_disabled":false,"rental_uris":{"android":"levelo://app?vid=96b3cd09-0bfe-4125-8dcf-c4bdc8601e42","ios":"levelo://app?vid=96b3cd09-0bfe-4125-8dcf-c4bdc8601e42"},"vehicle_type_id":"4","last_reported":1744841373,"current_range_meters":14400,"station_id":"ce4bgv12rcd13ifvqcp0","pricing_plan_id":"cebpf4jnsgd1na2vs0mg"},{"bike_id":"6695fc0d-b7c2-4b76-9759-125a5558ce82","system_id":"levelo_inurba_marseille","lat":43.30658,"lon":5.40069,"is_reserved":false,"is_disabled":false,"rental_uris":{"android":"levelo://app?vid=6695fc0d-b7c2-4b76-9759-125a5558ce82","ios":"levelo://app?vid=6695fc0d-b7c2-4b76-9759-125a5558ce82"},"vehicle_type_id":"4","last_reported":1744841373,"current_range_meters":14400,"station_id":"ce4bh112rcd13ifvqda0","pricing_plan_id":"cebpf4jnsgd1na2vs0mg"},{"bike_id":"ef365bd2-a34b-4049-a6ca-88aa62e24e6c","system_id":"levelo_inurba_marseille","lat":43.28348,"lon":5.38111,"is_reserved":false,"is_disabled":false,"rental_uris":{"android":"levelo://app?vid=ef365bd2-a34b-4049-a6ca-88aa62e24e6c","ios":"levelo://app?vid=ef365bd2-a34b-4049-a6ca-88aa62e24e6c"},"vehicle_type_id":"4","last_reported":1744841373,"current_range_meters":14400,"station_id":"ce4bh412rcd13ifvqdr0","pricing_plan_id":"cebpf4jnsgd1na2vs0mg"},{"bike_id":"78639c4a-dfa5-4f82-b777-6fd3b58b5770","system_id":"levelo_inurba_marseille","lat":43.28106,"lon":5.37831,"is_reserved":false,"is_disabled":false,"rental_uris":{"android":"levelo://app?vid=78639c4a-dfa5-4f82-b777-6fd3b58b5770","ios":"levelo://app?vid=78639c4a-dfa5-4f82-b777-6fd3b58b5770"},"vehicle_type_id":"4","last_reported":1744841373,"current_range_meters":14400,"station_id":"ce4bha12rcd13ifvqee0","pricing_plan_id":"cebpf4jnsgd1na2vs0mg"},{"bike_id":"4f3dfbf4-d1ae-44db-8110-b28c7d24107a","system_id":"levelo_inurba_marseille","lat":43.2707,"lon":5.40258,"is_reserved":false,"is_disabled":false,"rental_uris":{"android":"levelo://app?vid=4f3dfbf4-d1ae-44db-8110-b28c7d24107a","ios":"levelo://app?vid=4f3dfbf4-d1ae-44db-8110-b28c7d24107a"},"vehicle_type_id":"4","last_reported":1744841373,"current_range_meters":14400,"station_id":"ce4bhk92rcd13ifvqgc0","pricing_plan_id":"cebpf4jnsgd1na2vs0mg"},{"bike_id":"6032e738-f012-4275-92a6-1c203e24e4cd","system_id":"levelo_inurba_marseille","lat":43.29904,"lon":5.43651,"is_reserved":false,"is_disabled":false,"rental_uris":{"android":"levelo://app?vid=6032e738-f012-4275-92a6-1c203e24e4cd","ios":"levelo://app?vid=6032e738-f012-4275-92a6-1c203e24e4cd"},"vehicle_type_id":"4","last_reported":1744841373,"current_range_meters":14400,"station_id":"ce4bhpp2rcd13ifvqhfg","pricing_plan_id":"cebpf4jnsgd1na2vs0mg"},{"bike_id":"0bdb9c44-4315-4d6b-9cba-3d8155b8f804","system_id":"levelo_inurba_marseille","lat":43.26807,"lon":5.40255,"is_reserved":false,"is_disabled":false,"rental_uris":{"android":"levelo://app?vid=0bdb9c44-4315-4d6b-9cba-3d8155b8f804","ios":"levelo://app?vid=0bdb9c44-4315-4d6b-9cba-3d8155b8f804"},"vehicle_type_id":"4","last_reported":1744841373,"current_range_meters":14400,"station_id":"ce501612rcd8frsf0b60","pricing_plan_id":"cebpf4jnsgd1na2vs0mg"},{"bike_id":"6a63ba90-8282-42e3-94e2-7c94cdca9653","system_id":"levelo_inurba_marseille","lat":43.26954,"lon":5.38627,"is_reserved":false,"is_disabled":false,"rental_uris":{"android":"levelo://app?vid=6a63ba90-8282-42e3-94e2-7c94cdca9653","ios":"levelo://app?vid=6a63ba90-8282-42e3-94e2-7c94cdca9653"},"vehicle_type_id":"4","last_reported":1744841373,"current_range_meters":14800,"station_id":"ce4bhh92rcd13ifvqfh0","pricing_plan_id":"cebpf4jnsgd1na2vs0mg"},{"bike_id":"f39b2425-4ed5-4c3e-a787-10e42b68c167","system_id":"levelo_inurba_marseille","lat":43.29522,"lon":5.39401,"is_reserved":false,"is_disabled":false,"rental_uris":{"android":"levelo://app?vid=f39b2425-4ed5-4c3e-a787-10e42b68c167","ios":"levelo://app?vid=f39b2425-4ed5-4c3e-a787-10e42b68c167"},"vehicle_type_id":"4","last_reported":1744841373,"current_range_meters":15200,"station_id":"ce4bh292rcd13ifvqdf0","pricing_plan_id":"cebpf4jnsgd1na2vs0mg"},{"bike_id":"482d7f53-ba94-4319-bdfb-94ad5dc0e6c3","system_id":"levelo_inurba_marseille","lat":43.29555,"lon":5.3998,"is_reserved":false,"is_disabled":false,"rental_uris":{"android":"levelo://app?vid=482d7f53-ba94-4319-bdfb-94ad5dc0e6c3","ios":"levelo://app?vid=482d7f53-ba94-4319-bdfb-94ad5dc0e6c3"},"vehicle_type_id":"4","last_reported":1744841373,"current_range_meters":15200,"station_id":"ce4bh312rcd13ifvqdj0","pricing_plan_id":"cebpf4jnsgd1na2vs0mg"},{"bike_id":"96c6f12f-02a9-4598-a22a-c25354860292","system_id":"levelo_inurba_marseille","lat":43.28939,"lon":5.39625,"is_reserved":false,"is_disabled":false,"rental_uris":{"android":"levelo://app?vid=96c6f12f-02a9-4598-a22a-c25354860292","ios":"levelo://app?vid=96c6f12f-02a9-4598-a22a-c25354860292"},"vehicle_type_id":"4","last_reported":1744841373,"current_range_meters":16000,"station_id":"ce4bh3h2rcd13ifvqdn0","pricing_plan_id":"cebpf4jnsgd1na2vs0mg"},{"bike_id":"c5c76ae8-2915-4bf5-a264-5e3406fc9f78","system_id":"levelo_inurba_marseille","lat":43.29037,"lon":5.38638,"is_reserved":false,"is_disabled":false,"rental_uris":{"android":"levelo://app?vid=c5c76ae8-2915-4bf5-a264-5e3406fc9f78","ios":"levelo://app?vid=c5c76ae8-2915-4bf5-a264-5e3406fc9f78"},"vehicle_type_id":"4","last_reported":1744841373,"current_range_meters":16000,"station_id":"ce4bh4p2rcd13ifvqe0g","pricing_plan_id":"cebpf4jnsgd1na2vs0mg"},{"bike_id":"35100e48-d85e-4592-93bf-b13bb8464f4f","system_id":"levelo_inurba_marseille","lat":43.27997,"lon":5.41678,"is_reserved":false,"is_disabled":false,"rental_uris":{"android":"levelo://app?vid=35100e48-d85e-4592-93bf-b13bb8464f4f","ios":"levelo://app?vid=35100e48-d85e-4592-93bf-b13bb8464f4f"},"vehicle_type_id":"4","last_reported":1744841373,"current_range_meters":16000,"station_id":"ce4bho12rcd13ifvqh1g","pricing_plan_id":"cebpf4jnsgd1na2vs0mg"},{"bike_id":"7202a930-c528-41c4-b09a-234eef0ae5be","system_id":"levelo_inurba_marseille","lat":43.32656,"lon":5.40994,"is_reserved":false,"is_disabled":false,"rental_uris":{"android":"levelo://app?vid=7202a930-c528-41c4-b09a-234eef0ae5be","ios":"levelo://app?vid=7202a930-c528-41c4-b09a-234eef0ae5be"},"vehicle_type_id":"4","last_reported":1744841373,"current_range_meters":16000,"station_id":"ce4bhpp2rcd13ifvqhgg","pricing_plan_id":"cebpf4jnsgd1na2vs0mg"},{"bike_id":"394181cf-d138-4b85-a28e-7228cf97ac19","system_id":"levelo_inurba_marseille","lat":43.32006,"lon":5.38161,"is_reserved":false,"is_disabled":false,"rental_uris":{"android":"levelo://app?vid=394181cf-d138-4b85-a28e-7228cf97ac19","ios":"levelo://app?vid=394181cf-d138-4b85-a28e-7228cf97ac19"},"vehicle_type_id":"4","last_reported":1744841373,"current_range_meters":16000,"station_id":"ce4bhr12rcd13ifvqhpg","pricing_plan_id":"cebpf4jnsgd1na2vs0mg"},{"bike_id":"da0699e6-fffb-42fd-bda2-fa249cfedfd8","system_id":"levelo_inurba_marseille","lat":43.31479,"lon":5.37308,"is_reserved":false,"is_disabled":false,"rental_uris":{"android":"levelo://app?vid=da0699e6-fffb-42fd-bda2-fa249cfedfd8","ios":"levelo://app?vid=da0699e6-fffb-42fd-bda2-fa249cfedfd8"},"vehicle_type_id":"4","last_reported":1744841373,"current_range_meters":16400,"station_id":"ce4bgt12rcd13ifvqcd0","pricing_plan_id":"cebpf4jnsgd1na2vs0mg"},{"bike_id":"baf04868-3ad9-4949-b39a-063b0d0c8334","system_id":"levelo_inurba_marseille","lat":43.30925,"lon":5.40146,"is_reserved":false,"is_disabled":false,"rental_uris":{"android":"levelo://app?vid=baf04868-3ad9-4949-b39a-063b0d0c8334","ios":"levelo://app?vid=baf04868-3ad9-4949-b39a-063b0d0c8334"},"vehicle_type_id":"4","last_reported":1744841373,"current_range_meters":16400,"station_id":"ce4bgvp2rcd13ifvqct0","pricing_plan_id":"cebpf4jnsgd1na2vs0mg"},{"bike_id":"35442b16-33d9-4b20-92cf-b6f6d3bd2f31","system_id":"levelo_inurba_marseille","lat":43.28454,"lon":5.35897,"is_reserved":false,"is_disabled":false,"rental_uris":{"android":"levelo://app?vid=35442b16-33d9-4b20-92cf-b6f6d3bd2f31","ios":"levelo://app?vid=35442b16-33d9-4b20-92cf-b6f6d3bd2f31"},"vehicle_type_id":"4","last_reported":1744841373,"current_range_meters":16400,"station_id":"ce4bhah2rcd13ifvqei0","pricing_plan_id":"cebpf4jnsgd1na2vs0mg"},{"bike_id":"0b7b9afc-b2db-43f5-aeb8-7a1248a5408e","system_id":"levelo_inurba_marseille","lat":43.31284,"lon":5.37758,"is_reserved":false,"is_disabled":false,"rental_uris":{"android":"levelo://app?vid=0b7b9afc-b2db-43f5-aeb8-7a1248a5408e","ios":"levelo://app?vid=0b7b9afc-b2db-43f5-aeb8-7a1248a5408e"},"vehicle_type_id":"4","last_reported":1744841373,"current_range_meters":16800,"station_id":"","pricing_plan_id":"cebpf4jnsgd1na2vs0mg"},{"bike_id":"9b07eda3-bc0c-4f49-83de-3b9258e749ee","system_id":"levelo_inurba_marseille","lat":43.30636,"lon":5.40076,"is_reserved":false,"is_disabled":false,"rental_uris":{"android":"levelo://app?vid=9b07eda3-bc0c-4f49-83de-3b9258e749ee","ios":"levelo://app?vid=9b07eda3-bc0c-4f49-83de-3b9258e749ee"},"vehicle_type_id":"4","last_reported":1744841373,"current_range_meters":16800,"station_id":"ce4bh112rcd13ifvqda0","pricing_plan_id":"cebpf4jnsgd1na2vs0mg"},{"bike_id":"69cfcd50-444a-4061-bc35-7d0c950adb68","system_id":"levelo_inurba_marseille","lat":43.28675,"lon":5.38667,"is_reserved":false,"is_disabled":false,"rental_uris":{"android":"levelo://app?vid=69cfcd50-444a-4061-bc35-7d0c950adb68","ios":"levelo://app?vid=69cfcd50-444a-4061-bc35-7d0c950adb68"},"vehicle_type_id":"4","last_reported":1744841373,"current_range_meters":16800,"station_id":"ce4bh492rcd13ifvqdug","pricing_plan_id":"cebpf4jnsgd1na2vs0mg"},{"bike_id":"7d4a7fce-596b-40a1-bf8e-35f954a39aba","system_id":"levelo_inurba_marseille","lat":43.24803,"lon":5.37451,"is_reserved":false,"is_disabled":false,"rental_uris":{"android":"levelo://app?vid=7d4a7fce-596b-40a1-bf8e-35f954a39aba","ios":"levelo://app?vid=7d4a7fce-596b-40a1-bf8e-35f954a39aba"},"vehicle_type_id":"4","last_reported":1744841373,"current_range_meters":16800,"station_id":"ce4bhgh2rcd13ifvqfb0","pricing_plan_id":"cebpf4jnsgd1na2vs0mg"},{"bike_id":"f637015a-f468-4470-b7ec-72a0f3fb0055","system_id":"levelo_inurba_marseille","lat":43.30377,"lon":5.42484,"is_reserved":false,"is_disabled":false,"rental_uris":{"android":"levelo://app?vid=f637015a-f468-4470-b7ec-72a0f3fb0055","ios":"levelo://app?vid=f637015a-f468-4470-b7ec-72a0f3fb0055"},"vehicle_type_id":"4","last_reported":1744841373,"current_range_meters":16800,"station_id":"ce4bhoh2rcd13ifvqh6g","pricing_plan_id":"cebpf4jnsgd1na2vs0mg"},{"bike_id":"ec8c9ac7-1e95-4171-97f3-226ce1e3c951","system_id":"levelo_inurba_marseille","lat":43.32113,"lon":5.36774,"is_reserved":false,"is_disabled":false,"rental_uris":{"android":"levelo://app?vid=ec8c9ac7-1e95-4171-97f3-226ce1e3c951","ios":"levelo://app?vid=ec8c9ac7-1e95-4171-97f3-226ce1e3c951"},"vehicle_type_id":"4","last_reported":1744841373,"current_range_meters":16800,"station_id":"ce4bhrh2rcd13ifvqhug","pricing_plan_id":"cebpf4jnsgd1na2vs0mg"},{"bike_id":"dc88ca14-385b-47d2-8f34-ba0ff66a2869","system_id":"levelo_inurba_marseille","lat":43.30922,"lon":5.37874,"is_reserved":false,"is_disabled":false,"rental_uris":{"android":"levelo://app?vid=dc88ca14-385b-47d2-8f34-ba0ff66a2869","ios":"levelo://app?vid=dc88ca14-385b-47d2-8f34-ba0ff66a2869"},"vehicle_type_id":"4","last_reported":1744841373,"current_range_meters":17200,"station_id":"","pricing_plan_id":"cebpf4jnsgd1na2vs0mg"},{"bike_id":"b86b724e-376e-45a4-a88f-c409bfcfa380","system_id":"levelo_inurba_marseille","lat":43.30883,"lon":5.3963,"is_reserved":false,"is_disabled":false,"rental_uris":{"android":"levelo://app?vid=b86b724e-376e-45a4-a88f-c409bfcfa380","ios":"levelo://app?vid=b86b724e-376e-45a4-a88f-c409bfcfa380"},"vehicle_type_id":"4","last_reported":1744841373,"current_range_meters":17200,"station_id":"ce4bh012rcd13ifvqcv0","pricing_plan_id":"cebpf4jnsgd1na2vs0mg"},{"bike_id":"0e7f3c1c-5749-4ea0-8c4b-38be5bb50b3a","system_id":"levelo_inurba_marseille","lat":43.306356,"lon":5.40097,"is_reserved":false,"is_disabled":false,"rental_uris":{"android":"levelo://app?vid=0e7f3c1c-5749-4ea0-8c4b-38be5bb50b3a","ios":"levelo://app?vid=0e7f3c1c-5749-4ea0-8c4b-38be5bb50b3a"},"vehicle_type_id":"4","last_reported":1744841373,"current_range_meters":17200,"station_id":"ce4bh112rcd13ifvqda0","pricing_plan_id":"cebpf4jnsgd1na2vs0mg"},{"bike_id":"8bc01458-e04d-4e1e-9f4f-473a9ad28594","system_id":"levelo_inurba_marseille","lat":43.27911,"lon":5.39595,"is_reserved":false,"is_disabled":false,"rental_uris":{"android":"levelo://app?vid=8bc01458-e04d-4e1e-9f4f-473a9ad28594","ios":"levelo://app?vid=8bc01458-e04d-4e1e-9f4f-473a9ad28594"},"vehicle_type_id":"4","last_reported":1744841373,"current_range_meters":17600,"station_id":"ce4bhf92rcd13ifvqf40","pricing_plan_id":"cebpf4jnsgd1na2vs0mg"},{"bike_id":"17c9dc6c-271d-433f-9b4c-f545e7e15d51","system_id":"levelo_inurba_marseille","lat":43.28097,"lon":5.39648,"is_reserved":false,"is_disabled":false,"rental_uris":{"android":"levelo://app?vid=17c9dc6c-271d-433f-9b4c-f545e7e15d51","ios":"levelo://app?vid=17c9dc6c-271d-433f-9b4c-f545e7e15d51"},"vehicle_type_id":"4","last_reported":1744841373,"current_range_meters":17600,"station_id":"ce4bho12rcd13ifvqh2g","pricing_plan_id":"cebpf4jnsgd1na2vs0mg"},{"bike_id":"f9294aff-5b6f-4d62-9db7-b7bdca4ffaf5","system_id":"levelo_inurba_marseille","lat":43.32539,"lon":5.41426,"is_reserved":false,"is_disabled":false,"rental_uris":{"android":"levelo://app?vid=f9294aff-5b6f-4d62-9db7-b7bdca4ffaf5","ios":"levelo://app?vid=f9294aff-5b6f-4d62-9db7-b7bdca4ffaf5"},"vehicle_type_id":"4","last_reported":1744841373,"current_range_meters":17600,"station_id":"ce4bhq12rcd13ifvqhhg","pricing_plan_id":"cebpf4jnsgd1na2vs0mg"},{"bike_id":"a0ddb0a5-f7f0-4281-aa27-9e82747cc573","system_id":"levelo_inurba_marseille","lat":43.337619,"lon":5.374828,"is_reserved":false,"is_disabled":false,"rental_uris":{"android":"levelo://app?vid=a0ddb0a5-f7f0-4281-aa27-9e82747cc573","ios":"levelo://app?vid=a0ddb0a5-f7f0-4281-aa27-9e82747cc573"},"vehicle_type_id":"4","last_reported":1744841373,"current_range_meters":18000,"station_id":"","pricing_plan_id":"cebpf4jnsgd1na2vs0mg"},{"bike_id":"fd004068-7161-4dbb-a955-dc3b29ce8ef2","system_id":"levelo_inurba_marseille","lat":43.298767,"lon":5.389087,"is_reserved":false,"is_disabled":false,"rental_uris":{"android":"levelo://app?vid=fd004068-7161-4dbb-a955-dc3b29ce8ef2","ios":"levelo://app?vid=fd004068-7161-4dbb-a955-dc3b29ce8ef2"},"vehicle_type_id":"4","last_reported":1744841373,"current_range_meters":18000,"station_id":"ce4bh392rcd13ifvqdl0","pricing_plan_id":"cebpf4jnsgd1na2vs0mg"},{"bike_id":"927e7dc3-fe22-45a3-9137-be86ccd6ca89","system_id":"levelo_inurba_marseille","lat":43.28694,"lon":5.38674,"is_reserved":false,"is_disabled":false,"rental_uris":{"android":"levelo://app?vid=927e7dc3-fe22-45a3-9137-be86ccd6ca89","ios":"levelo://app?vid=927e7dc3-fe22-45a3-9137-be86ccd6ca89"},"vehicle_type_id":"4","last_reported":1744841373,"current_range_meters":18000,"station_id":"ce4bh492rcd13ifvqdug","pricing_plan_id":"cebpf4jnsgd1na2vs0mg"},{"bike_id":"c4a450be-396f-492a-9043-0903302593d4","system_id":"levelo_inurba_marseille","lat":43.29026,"lon":5.38629,"is_reserved":false,"is_disabled":false,"rental_uris":{"android":"levelo://app?vid=c4a450be-396f-492a-9043-0903302593d4","ios":"levelo://app?vid=c4a450be-396f-492a-9043-0903302593d4"},"vehicle_type_id":"4","last_reported":1744841373,"current_range_meters":18000,"station_id":"ce4bh4p2rcd13ifvqe0g","pricing_plan_id":"cebpf4jnsgd1na2vs0mg"},{"bike_id":"fd6bd8f5-60e2-460a-8cc7-178dbf1c5169","system_id":"levelo_inurba_marseille","lat":43.33725,"lon":5.39187,"is_reserved":false,"is_disabled":false,"rental_uris":{"android":"levelo://app?vid=fd6bd8f5-60e2-460a-8cc7-178dbf1c5169","ios":"levelo://app?vid=fd6bd8f5-60e2-460a-8cc7-178dbf1c5169"},"vehicle_type_id":"4","last_reported":1744841373,"current_range_meters":18000,"station_id":"ce4bhr92rcd13ifvqhsg","pricing_plan_id":"cebpf4jnsgd1na2vs0mg"},{"bike_id":"0291b7a7-5f86-48ec-8437-eba04e7bafe8","system_id":"levelo_inurba_marseille","lat":43.32362,"lon":5.3676,"is_reserved":false,"is_disabled":false,"rental_uris":{"android":"levelo://app?vid=0291b7a7-5f86-48ec-8437-eba04e7bafe8","ios":"levelo://app?vid=0291b7a7-5f86-48ec-8437-eba04e7bafe8"},"vehicle_type_id":"4","last_reported":1744841373,"current_range_meters":18000,"station_id":"ce4bhsh2rcd13ifvqi2g","pricing_plan_id":"cebpf4jnsgd1na2vs0mg"},{"bike_id":"c31f8854-b880-4984-807c-ccbbefc82b0c","system_id":"levelo_inurba_marseille","lat":43.29522,"lon":5.38544,"is_reserved":false,"is_disabled":false,"rental_uris":{"android":"levelo://app?vid=c31f8854-b880-4984-807c-ccbbefc82b0c","ios":"levelo://app?vid=c31f8854-b880-4984-807c-ccbbefc82b0c"},"vehicle_type_id":"4","last_reported":1744841373,"current_range_meters":18800,"station_id":"ce4bgih2rcd13ifvqba0","pricing_plan_id":"cebpf4jnsgd1na2vs0mg"},{"bike_id":"303c6ab6-4e54-4ff9-bf32-e2efd958cdb2","system_id":"levelo_inurba_marseille","lat":43.291648,"lon":5.384783,"is_reserved":false,"is_disabled":false,"rental_uris":{"android":"levelo://app?vid=303c6ab6-4e54-4ff9-bf32-e2efd958cdb2","ios":"levelo://app?vid=303c6ab6-4e54-4ff9-bf32-e2efd958cdb2"},"vehicle_type_id":"4","last_reported":1744841373,"current_range_meters":18800,"station_id":"ce4bh692rcd13ifvqe90","pricing_plan_id":"cebpf4jnsgd1na2vs0mg"},{"bike_id":"87cde924-2a81-438b-a29c-971b9fe65d0b","system_id":"levelo_inurba_marseille","lat":43.28102,"lon":5.37857,"is_reserved":false,"is_disabled":false,"rental_uris":{"android":"levelo://app?vid=87cde924-2a81-438b-a29c-971b9fe65d0b","ios":"levelo://app?vid=87cde924-2a81-438b-a29c-971b9fe65d0b"},"vehicle_type_id":"4","last_reported":1744841373,"current_range_meters":18800,"station_id":"ce4bha12rcd13ifvqee0","pricing_plan_id":"cebpf4jnsgd1na2vs0mg"},{"bike_id":"0f2f13a0-6a8d-44d3-bc7e-ecbee79e2e90","system_id":"levelo_inurba_marseille","lat":43.28662,"lon":5.36351,"is_reserved":false,"is_disabled":false,"rental_uris":{"android":"levelo://app?vid=0f2f13a0-6a8d-44d3-bc7e-ecbee79e2e90","ios":"levelo://app?vid=0f2f13a0-6a8d-44d3-bc7e-ecbee79e2e90"},"vehicle_type_id":"4","last_reported":1744841373,"current_range_meters":18800,"station_id":"ce4bhah2rcd13ifvqej0","pricing_plan_id":"cebpf4jnsgd1na2vs0mg"},{"bike_id":"d750596a-6ac6-4755-84cc-45acd4464f3d","system_id":"levelo_inurba_marseille","lat":43.24418,"lon":5.37091,"is_reserved":false,"is_disabled":false,"rental_uris":{"android":"levelo://app?vid=d750596a-6ac6-4755-84cc-45acd4464f3d","ios":"levelo://app?vid=d750596a-6ac6-4755-84cc-45acd4464f3d"},"vehicle_type_id":"4","last_reported":1744841373,"current_range_meters":18800,"station_id":"ce4bhhh2rcd13ifvqfk0","pricing_plan_id":"cebpf4jnsgd1na2vs0mg"},{"bike_id":"a9a13b2f-e2de-4f40-968c-4382de62974d","system_id":"levelo_inurba_marseille","lat":43.27938,"lon":5.41042,"is_reserved":false,"is_disabled":false,"rental_uris":{"android":"levelo://app?vid=a9a13b2f-e2de-4f40-968c-4382de62974d","ios":"levelo://app?vid=a9a13b2f-e2de-4f40-968c-4382de62974d"},"vehicle_type_id":"4","last_reported":1744841373,"current_range_meters":18800,"station_id":"ce4bhnp2rcd13ifvqh0g","pricing_plan_id":"cebpf4jnsgd1na2vs0mg"},{"bike_id":"84f55e76-8169-4171-bb3a-c6839bda6100","system_id":"levelo_inurba_marseille","lat":43.29964,"lon":5.41327,"is_reserved":false,"is_disabled":false,"rental_uris":{"android":"levelo://app?vid=84f55e76-8169-4171-bb3a-c6839bda6100","ios":"levelo://app?vid=84f55e76-8169-4171-bb3a-c6839bda6100"},"vehicle_type_id":"4","last_reported":1744841373,"current_range_meters":18800,"station_id":"ce4bhp12rcd13ifvqh9g","pricing_plan_id":"cebpf4jnsgd1na2vs0mg"},{"bike_id":"7c837a71-8b88-4110-b4a8-e48d657c442f","system_id":"levelo_inurba_marseille","lat":43.32338,"lon":5.40615,"is_reserved":false,"is_disabled":false,"rental_uris":{"android":"levelo://app?vid=7c837a71-8b88-4110-b4a8-e48d657c442f","ios":"levelo://app?vid=7c837a71-8b88-4110-b4a8-e48d657c442f"},"vehicle_type_id":"4","last_reported":1744841373,"current_range_meters":18800,"station_id":"ce4bhq92rcd13ifvqhjg","pricing_plan_id":"cebpf4jnsgd1na2vs0mg"},{"bike_id":"b652bdb7-a4d5-4927-bd0c-73ce3a2e3721","system_id":"levelo_inurba_marseille","lat":43.26813,"lon":5.40262,"is_reserved":false,"is_disabled":false,"rental_uris":{"android":"levelo://app?vid=b652bdb7-a4d5-4927-bd0c-73ce3a2e3721","ios":"levelo://app?vid=b652bdb7-a4d5-4927-bd0c-73ce3a2e3721"},"vehicle_type_id":"4","last_reported":1744841373,"current_range_meters":18800,"station_id":"ce501612rcd8frsf0b60","pricing_plan_id":"cebpf4jnsgd1na2vs0mg"},{"bike_id":"bbb1c662-cc65-4c72-8489-de78d2f0f12f","system_id":"levelo_inurba_marseille","lat":43.23059,"lon":5.35506,"is_reserved":false,"is_disabled":false,"rental_uris":{"android":"levelo://app?vid=bbb1c662-cc65-4c72-8489-de78d2f0f12f","ios":"levelo://app?vid=bbb1c662-cc65-4c72-8489-de78d2f0f12f"},"vehicle_type_id":"4","last_reported":1744841373,"current_range_meters":18800,"station_id":"cpo3342slgdg3j2ifvpg","pricing_plan_id":"cebpf4jnsgd1na2vs0mg"},{"bike_id":"08f4dcee-7656-4957-9022-f13783bb2667","system_id":"levelo_inurba_marseille","lat":43.29696,"lon":5.37209,"is_reserved":false,"is_disabled":false,"rental_uris":{"android":"levelo://app?vid=08f4dcee-7656-4957-9022-f13783bb2667","ios":"levelo://app?vid=08f4dcee-7656-4957-9022-f13783bb2667"},"vehicle_type_id":"4","last_reported":1744841373,"current_range_meters":19200,"station_id":"","pricing_plan_id":"cebpf4jnsgd1na2vs0mg"},{"bike_id":"d486101b-072f-470b-a885-f5f95c61cd86","system_id":"levelo_inurba_marseille","lat":43.31477,"lon":5.37289,"is_reserved":false,"is_disabled":false,"rental_uris":{"android":"levelo://app?vid=d486101b-072f-470b-a885-f5f95c61cd86","ios":"levelo://app?vid=d486101b-072f-470b-a885-f5f95c61cd86"},"vehicle_type_id":"4","last_reported":1744841373,"current_range_meters":19200,"station_id":"ce4bgt12rcd13ifvqcd0","pricing_plan_id":"cebpf4jnsgd1na2vs0mg"},{"bike_id":"2b0b4af8-8b6f-489a-93f8-1b4ec9ffba4d","system_id":"levelo_inurba_marseille","lat":43.31113,"lon":5.37759,"is_reserved":false,"is_disabled":false,"rental_uris":{"android":"levelo://app?vid=2b0b4af8-8b6f-489a-93f8-1b4ec9ffba4d","ios":"levelo://app?vid=2b0b4af8-8b6f-489a-93f8-1b4ec9ffba4d"},"vehicle_type_id":"4","last_reported":1744841373,"current_range_meters":19200,"station_id":"ce4bgt92rcd13ifvqcg0","pricing_plan_id":"cebpf4jnsgd1na2vs0mg"},{"bike_id":"3ee8ec63-9d9f-43be-b78d-905451db0951","system_id":"levelo_inurba_marseille","lat":43.304496,"lon":5.379155,"is_reserved":false,"is_disabled":false,"rental_uris":{"android":"levelo://app?vid=3ee8ec63-9d9f-43be-b78d-905451db0951","ios":"levelo://app?vid=3ee8ec63-9d9f-43be-b78d-905451db0951"},"vehicle_type_id":"4","last_reported":1744841373,"current_range_meters":19200,"station_id":"ce4bgth2rcd13ifvqch0","pricing_plan_id":"cebpf4jnsgd1na2vs0mg"},{"bike_id":"520c276d-3950-4ddd-a959-396761034c48","system_id":"levelo_inurba_marseille","lat":43.31166,"lon":5.38723,"is_reserved":false,"is_disabled":false,"rental_uris":{"android":"levelo://app?vid=520c276d-3950-4ddd-a959-396761034c48","ios":"levelo://app?vid=520c276d-3950-4ddd-a959-396761034c48"},"vehicle_type_id":"4","last_reported":1744841373,"current_range_meters":19200,"station_id":"ce4bgv12rcd13ifvqcp0","pricing_plan_id":"cebpf4jnsgd1na2vs0mg"},{"bike_id":"2ad36a18-8144-4d03-b545-e1edd925fad8","system_id":"levelo_inurba_marseille","lat":43.26064,"lon":5.39398,"is_reserved":false,"is_disabled":false,"rental_uris":{"android":"levelo://app?vid=2ad36a18-8144-4d03-b545-e1edd925fad8","ios":"levelo://app?vid=2ad36a18-8144-4d03-b545-e1edd925fad8"},"vehicle_type_id":"4","last_reported":1744841373,"current_range_meters":19200,"station_id":"ce4bhh92rcd13ifvqfj0","pricing_plan_id":"cebpf4jnsgd1na2vs0mg"},{"bike_id":"5e1950f1-3570-4e07-a7cc-3dbf8a21d845","system_id":"levelo_inurba_marseille","lat":43.281557,"lon":5.426361,"is_reserved":false,"is_disabled":false,"rental_uris":{"android":"levelo://app?vid=5e1950f1-3570-4e07-a7cc-3dbf8a21d845","ios":"levelo://app?vid=5e1950f1-3570-4e07-a7cc-3dbf8a21d845"},"vehicle_type_id":"4","last_reported":1744841373,"current_range_meters":19200,"station_id":"ce4bhnh2rcd13ifvqgug","pricing_plan_id":"cebpf4jnsgd1na2vs0mg"},{"bike_id":"84ad3fe7-f181-4334-ae1e-26549de53940","system_id":"levelo_inurba_marseille","lat":43.28457,"lon":5.35878,"is_reserved":false,"is_disabled":false,"rental_uris":{"android":"levelo://app?vid=84ad3fe7-f181-4334-ae1e-26549de53940","ios":"levelo://app?vid=84ad3fe7-f181-4334-ae1e-26549de53940"},"vehicle_type_id":"4","last_reported":1744841373,"current_range_meters":19600,"station_id":"ce4bhah2rcd13ifvqei0","pricing_plan_id":"cebpf4jnsgd1na2vs0mg"},{"bike_id":"2984cec8-23de-4a73-97a3-c0829eb8b5c7","system_id":"levelo_inurba_marseille","lat":43.27929,"lon":5.39577,"is_reserved":false,"is_disabled":false,"rental_uris":{"android":"levelo://app?vid=2984cec8-23de-4a73-97a3-c0829eb8b5c7","ios":"levelo://app?vid=2984cec8-23de-4a73-97a3-c0829eb8b5c7"},"vehicle_type_id":"4","last_reported":1744841373,"current_range_meters":19600,"station_id":"ce4bhf92rcd13ifvqf40","pricing_plan_id":"cebpf4jnsgd1na2vs0mg"},{"bike_id":"d39e5537-c00a-4bf8-9f22-53966b448679","system_id":"levelo_inurba_marseille","lat":43.29555,"lon":5.42277,"is_reserved":false,"is_disabled":false,"rental_uris":{"android":"levelo://app?vid=d39e5537-c00a-4bf8-9f22-53966b448679","ios":"levelo://app?vid=d39e5537-c00a-4bf8-9f22-53966b448679"},"vehicle_type_id":"4","last_reported":1744841373,"current_range_meters":19600,"station_id":"ce4bhph2rcd13ifvqhdg","pricing_plan_id":"cebpf4jnsgd1na2vs0mg"},{"bike_id":"6e2da659-c772-4fec-90dd-b2825c787cb8","system_id":"levelo_inurba_marseille","lat":43.30424,"lon":5.38881,"is_reserved":false,"is_disabled":false,"rental_uris":{"android":"levelo://app?vid=6e2da659-c772-4fec-90dd-b2825c787cb8","ios":"levelo://app?vid=6e2da659-c772-4fec-90dd-b2825c787cb8"},"vehicle_type_id":"4","last_reported":1744841373,"current_range_meters":20000,"station_id":"ce4bgk12rcd13ifvqbi0","pricing_plan_id":"cebpf4jnsgd1na2vs0mg"},{"bike_id":"bc9b4d95-5a32-4e67-8662-d0d55606d996","system_id":"levelo_inurba_marseille","lat":43.30888,"lon":5.39627,"is_reserved":false,"is_disabled":false,"rental_uris":{"android":"levelo://app?vid=bc9b4d95-5a32-4e67-8662-d0d55606d996","ios":"levelo://app?vid=bc9b4d95-5a32-4e67-8662-d0d55606d996"},"vehicle_type_id":"4","last_reported":1744841373,"current_range_meters":20000,"station_id":"ce4bh012rcd13ifvqcv0","pricing_plan_id":"cebpf4jnsgd1na2vs0mg"},{"bike_id":"448df0fa-d285-4203-829e-83a86148ecfe","system_id":"levelo_inurba_marseille","lat":43.30208,"lon":5.39469,"is_reserved":false,"is_disabled":false,"rental_uris":{"android":"levelo://app?vid=448df0fa-d285-4203-829e-83a86148ecfe","ios":"levelo://app?vid=448df0fa-d285-4203-829e-83a86148ecfe"},"vehicle_type_id":"4","last_reported":1744841373,"current_range_meters":20000,"station_id":"ce4bh0p2rcd13ifvqd70","pricing_plan_id":"cebpf4jnsgd1na2vs0mg"},{"bike_id":"31281794-86da-43f1-be4d-cec41a15e4cd","system_id":"levelo_inurba_marseille","lat":43.28111,"lon":5.37826,"is_reserved":false,"is_disabled":false,"rental_uris":{"android":"levelo://app?vid=31281794-86da-43f1-be4d-cec41a15e4cd","ios":"levelo://app?vid=31281794-86da-43f1-be4d-cec41a15e4cd"},"vehicle_type_id":"4","last_reported":1744841373,"current_range_meters":20000,"station_id":"ce4bha12rcd13ifvqee0","pricing_plan_id":"cebpf4jnsgd1na2vs0mg"},{"bike_id":"04fb422e-0aec-4205-8e11-f392462c55c3","system_id":"levelo_inurba_marseille","lat":43.26803,"lon":5.40279,"is_reserved":false,"is_disabled":false,"rental_uris":{"android":"levelo://app?vid=04fb422e-0aec-4205-8e11-f392462c55c3","ios":"levelo://app?vid=04fb422e-0aec-4205-8e11-f392462c55c3"},"vehicle_type_id":"4","last_reported":1744841373,"current_range_meters":20000,"station_id":"ce501612rcd8frsf0b60","pricing_plan_id":"cebpf4jnsgd1na2vs0mg"},{"bike_id":"b557e27d-0f32-4a0a-b488-e6933e60a2bf","system_id":"levelo_inurba_marseille","lat":43.29792,"lon":5.39348,"is_reserved":false,"is_disabled":false,"rental_uris":{"android":"levelo://app?vid=b557e27d-0f32-4a0a-b488-e6933e60a2bf","ios":"levelo://app?vid=b557e27d-0f32-4a0a-b488-e6933e60a2bf"},"vehicle_type_id":"4","last_reported":1744841373,"current_range_meters":20000,"station_id":"chh1huq6cuj3fo74tm60","pricing_plan_id":"cebpf4jnsgd1na2vs0mg"},{"bike_id":"d539324f-6b6b-4525-b920-ac614066a0d9","system_id":"levelo_inurba_marseille","lat":43.30886,"lon":5.39635,"is_reserved":false,"is_disabled":false,"rental_uris":{"android":"levelo://app?vid=d539324f-6b6b-4525-b920-ac614066a0d9","ios":"levelo://app?vid=d539324f-6b6b-4525-b920-ac614066a0d9"},"vehicle_type_id":"4","last_reported":1744841373,"current_range_meters":20400,"station_id":"ce4bh012rcd13ifvqcv0","pricing_plan_id":"cebpf4jnsgd1na2vs0mg"},{"bike_id":"f0ad0340-2706-495b-9aa6-2660a8a4d5c0","system_id":"levelo_inurba_marseille","lat":43.29217,"lon":5.40977,"is_reserved":false,"is_disabled":false,"rental_uris":{"android":"levelo://app?vid=f0ad0340-2706-495b-9aa6-2660a8a4d5c0","ios":"levelo://app?vid=f0ad0340-2706-495b-9aa6-2660a8a4d5c0"},"vehicle_type_id":"4","last_reported":1744841373,"current_range_meters":20400,"station_id":"ce4bh192rcd13ifvqdc0","pricing_plan_id":"cebpf4jnsgd1na2vs0mg"},{"bike_id":"d4a81af1-8a84-4539-aa58-616bfb5c9f39","system_id":"levelo_inurba_marseille","lat":43.24817,"lon":5.37446,"is_reserved":false,"is_disabled":false,"rental_uris":{"android":"levelo://app?vid=d4a81af1-8a84-4539-aa58-616bfb5c9f39","ios":"levelo://app?vid=d4a81af1-8a84-4539-aa58-616bfb5c9f39"},"vehicle_type_id":"4","last_reported":1744841373,"current_range_meters":20400,"station_id":"ce4bhgh2rcd13ifvqfb0","pricing_plan_id":"cebpf4jnsgd1na2vs0mg"},{"bike_id":"4b766682-d2f8-40ff-99c8-adabc4d6c4a8","system_id":"levelo_inurba_marseille","lat":43.29793,"lon":5.39342,"is_reserved":false,"is_disabled":false,"rental_uris":{"android":"levelo://app?vid=4b766682-d2f8-40ff-99c8-adabc4d6c4a8","ios":"levelo://app?vid=4b766682-d2f8-40ff-99c8-adabc4d6c4a8"},"vehicle_type_id":"4","last_reported":1744841373,"current_range_meters":20400,"station_id":"chh1huq6cuj3fo74tm60","pricing_plan_id":"cebpf4jnsgd1na2vs0mg"},{"bike_id":"c469ad3f-77ba-4f88-848e-bf9de29c8a72","system_id":"levelo_inurba_marseille","lat":43.3145,"lon":5.37381,"is_reserved":false,"is_disabled":false,"rental_uris":{"android":"levelo://app?vid=c469ad3f-77ba-4f88-848e-bf9de29c8a72","ios":"levelo://app?vid=c469ad3f-77ba-4f88-848e-bf9de29c8a72"},"vehicle_type_id":"4","last_reported":1744841373,"current_range_meters":20800,"station_id":"","pricing_plan_id":"cebpf4jnsgd1na2vs0mg"},{"bike_id":"c5324c02-d55e-4a74-98a9-c504f2719cba","system_id":"levelo_inurba_marseille","lat":43.30875,"lon":5.39625,"is_reserved":false,"is_disabled":false,"rental_uris":{"android":"levelo://app?vid=c5324c02-d55e-4a74-98a9-c504f2719cba","ios":"levelo://app?vid=c5324c02-d55e-4a74-98a9-c504f2719cba"},"vehicle_type_id":"4","last_reported":1744841373,"current_range_meters":20800,"station_id":"ce4bh012rcd13ifvqcv0","pricing_plan_id":"cebpf4jnsgd1na2vs0mg"},{"bike_id":"658aa346-91f8-4eb4-8c8d-0a90ae949f43","system_id":"levelo_inurba_marseille","lat":43.30588,"lon":5.39357,"is_reserved":false,"is_disabled":false,"rental_uris":{"android":"levelo://app?vid=658aa346-91f8-4eb4-8c8d-0a90ae949f43","ios":"levelo://app?vid=658aa346-91f8-4eb4-8c8d-0a90ae949f43"},"vehicle_type_id":"4","last_reported":1744841373,"current_range_meters":20800,"station_id":"ce4bh0p2rcd13ifvqd80","pricing_plan_id":"cebpf4jnsgd1na2vs0mg"},{"bike_id":"c8622233-5825-4cce-ad31-9ac0f6854c02","system_id":"levelo_inurba_marseille","lat":43.28867,"lon":5.35845,"is_reserved":false,"is_disabled":false,"rental_uris":{"android":"levelo://app?vid=c8622233-5825-4cce-ad31-9ac0f6854c02","ios":"levelo://app?vid=c8622233-5825-4cce-ad31-9ac0f6854c02"},"vehicle_type_id":"4","last_reported":1744841373,"current_range_meters":20800,"station_id":"ce4bhb12rcd13ifvqem0","pricing_plan_id":"cebpf4jnsgd1na2vs0mg"},{"bike_id":"3eb8d19d-dc63-48a7-802c-6f59b7f4ce2f","system_id":"levelo_inurba_marseille","lat":43.26234,"lon":5.40421,"is_reserved":false,"is_disabled":false,"rental_uris":{"android":"levelo://app?vid=3eb8d19d-dc63-48a7-802c-6f59b7f4ce2f","ios":"levelo://app?vid=3eb8d19d-dc63-48a7-802c-6f59b7f4ce2f"},"vehicle_type_id":"4","last_reported":1744841373,"current_range_meters":20800,"station_id":"ce4bhmh2rcd13ifvqgmg","pricing_plan_id":"cebpf4jnsgd1na2vs0mg"},{"bike_id":"ef6e9c6f-8f69-4fcf-9727-b556a001e5bc","system_id":"levelo_inurba_marseille","lat":43.29563,"lon":5.42286,"is_reserved":false,"is_disabled":false,"rental_uris":{"android":"levelo://app?vid=ef6e9c6f-8f69-4fcf-9727-b556a001e5bc","ios":"levelo://app?vid=ef6e9c6f-8f69-4fcf-9727-b556a001e5bc"},"vehicle_type_id":"4","last_reported":1744841373,"current_range_meters":20800,"station_id":"ce4bhph2rcd13ifvqhdg","pricing_plan_id":"cebpf4jnsgd1na2vs0mg"},{"bike_id":"0113ed11-7a29-404c-8c2e-46e6b3486f36","system_id":"levelo_inurba_marseille","lat":43.31075,"lon":5.38351,"is_reserved":false,"is_disabled":false,"rental_uris":{"android":"levelo://app?vid=0113ed11-7a29-404c-8c2e-46e6b3486f36","ios":"levelo://app?vid=0113ed11-7a29-404c-8c2e-46e6b3486f36"},"vehicle_type_id":"4","last_reported":1744841373,"current_range_meters":21600,"station_id":"ce4bgv92rcd13ifvqcr0","pricing_plan_id":"cebpf4jnsgd1na2vs0mg"},{"bike_id":"d7676a18-4d03-4a89-8def-d9f87f68b92b","system_id":"levelo_inurba_marseille","lat":43.3089,"lon":5.39638,"is_reserved":false,"is_disabled":false,"rental_uris":{"android":"levelo://app?vid=d7676a18-4d03-4a89-8def-d9f87f68b92b","ios":"levelo://app?vid=d7676a18-4d03-4a89-8def-d9f87f68b92b"},"vehicle_type_id":"4","last_reported":1744841373,"current_range_meters":21600,"station_id":"ce4bh012rcd13ifvqcv0","pricing_plan_id":"cebpf4jnsgd1na2vs0mg"},{"bike_id":"1d00456f-29c8-4f2b-94ca-209c3cd1138b","system_id":"levelo_inurba_marseille","lat":43.29451,"lon":5.39744,"is_reserved":false,"is_disabled":false,"rental_uris":{"android":"levelo://app?vid=1d00456f-29c8-4f2b-94ca-209c3cd1138b","ios":"levelo://app?vid=1d00456f-29c8-4f2b-94ca-209c3cd1138b"},"vehicle_type_id":"4","last_reported":1744841373,"current_range_meters":21600,"station_id":"ce4bh3h2rcd13ifvqdo0","pricing_plan_id":"cebpf4jnsgd1na2vs0mg"},{"bike_id":"32268efd-ace7-4c32-bffd-905d48d049d1","system_id":"levelo_inurba_marseille","lat":43.29035,"lon":5.38649,"is_reserved":false,"is_disabled":false,"rental_uris":{"android":"levelo://app?vid=32268efd-ace7-4c32-bffd-905d48d049d1","ios":"levelo://app?vid=32268efd-ace7-4c32-bffd-905d48d049d1"},"vehicle_type_id":"4","last_reported":1744841373,"current_range_meters":21600,"station_id":"ce4bh4p2rcd13ifvqe0g","pricing_plan_id":"cebpf4jnsgd1na2vs0mg"},{"bike_id":"afde6100-ca62-4186-95be-e21b648440a3","system_id":"levelo_inurba_marseille","lat":43.29928,"lon":5.36539,"is_reserved":false,"is_disabled":false,"rental_uris":{"android":"levelo://app?vid=afde6100-ca62-4186-95be-e21b648440a3","ios":"levelo://app?vid=afde6100-ca62-4186-95be-e21b648440a3"},"vehicle_type_id":"4","last_reported":1744841373,"current_range_meters":22000,"station_id":"ce4bgm92rcd13ifvqbr0","pricing_plan_id":"cebpf4jnsgd1na2vs0mg"},{"bike_id":"25a0659f-2e36-4690-bdd5-5c4110c6e672","system_id":"levelo_inurba_marseille","lat":43.30926,"lon":5.40143,"is_reserved":false,"is_disabled":false,"rental_uris":{"android":"levelo://app?vid=25a0659f-2e36-4690-bdd5-5c4110c6e672","ios":"levelo://app?vid=25a0659f-2e36-4690-bdd5-5c4110c6e672"},"vehicle_type_id":"4","last_reported":1744841373,"current_range_meters":22000,"station_id":"ce4bgvp2rcd13ifvqct0","pricing_plan_id":"cebpf4jnsgd1na2vs0mg"},{"bike_id":"926d437c-ff30-43a8-befb-7e373c75d533","system_id":"levelo_inurba_marseille","lat":43.28448,"lon":5.3589,"is_reserved":false,"is_disabled":false,"rental_uris":{"android":"levelo://app?vid=926d437c-ff30-43a8-befb-7e373c75d533","ios":"levelo://app?vid=926d437c-ff30-43a8-befb-7e373c75d533"},"vehicle_type_id":"4","last_reported":1744841373,"current_range_meters":22000,"station_id":"ce4bhah2rcd13ifvqei0","pricing_plan_id":"cebpf4jnsgd1na2vs0mg"},{"bike_id":"4094bc10-5153-4871-b586-4d67dfadaf29","system_id":"levelo_inurba_marseille","lat":43.24997,"lon":5.38932,"is_reserved":false,"is_disabled":false,"rental_uris":{"android":"levelo://app?vid=4094bc10-5153-4871-b586-4d67dfadaf29","ios":"levelo://app?vid=4094bc10-5153-4871-b586-4d67dfadaf29"},"vehicle_type_id":"4","last_reported":1744841373,"current_range_meters":22000,"station_id":"ce4bhgp2rcd13ifvqfd0","pricing_plan_id":"cebpf4jnsgd1na2vs0mg"},{"bike_id":"7eb8853e-3665-40f5-8308-1299f0674652","system_id":"levelo_inurba_marseille","lat":43.30379,"lon":5.42483,"is_reserved":false,"is_disabled":false,"rental_uris":{"android":"levelo://app?vid=7eb8853e-3665-40f5-8308-1299f0674652","ios":"levelo://app?vid=7eb8853e-3665-40f5-8308-1299f0674652"},"vehicle_type_id":"4","last_reported":1744841373,"current_range_meters":22000,"station_id":"ce4bhoh2rcd13ifvqh6g","pricing_plan_id":"cebpf4jnsgd1na2vs0mg"},{"bike_id":"7ed91d22-3d5b-4254-83bf-64eb2a7d5481","system_id":"levelo_inurba_marseille","lat":43.22501,"lon":5.34777,"is_reserved":false,"is_disabled":false,"rental_uris":{"android":"levelo://app?vid=7ed91d22-3d5b-4254-83bf-64eb2a7d5481","ios":"levelo://app?vid=7ed91d22-3d5b-4254-83bf-64eb2a7d5481"},"vehicle_type_id":"4","last_reported":1744841373,"current_range_meters":22400,"station_id":"","pricing_plan_id":"cebpf4jnsgd1na2vs0mg"},{"bike_id":"2d9b72bb-af7d-431d-9cde-4a3fe902ebe7","system_id":"levelo_inurba_marseille","lat":43.3117,"lon":5.38718,"is_reserved":false,"is_disabled":false,"rental_uris":{"android":"levelo://app?vid=2d9b72bb-af7d-431d-9cde-4a3fe902ebe7","ios":"levelo://app?vid=2d9b72bb-af7d-431d-9cde-4a3fe902ebe7"},"vehicle_type_id":"4","last_reported":1744841373,"current_range_meters":22400,"station_id":"ce4bgv12rcd13ifvqcp0","pricing_plan_id":"cebpf4jnsgd1na2vs0mg"},{"bike_id":"21f826db-5070-49f5-892f-84f485b6e13f","system_id":"levelo_inurba_marseille","lat":43.30596,"lon":5.39341,"is_reserved":false,"is_disabled":false,"rental_uris":{"android":"levelo://app?vid=21f826db-5070-49f5-892f-84f485b6e13f","ios":"levelo://app?vid=21f826db-5070-49f5-892f-84f485b6e13f"},"vehicle_type_id":"4","last_reported":1744841373,"current_range_meters":22400,"station_id":"ce4bh0p2rcd13ifvqd80","pricing_plan_id":"cebpf4jnsgd1na2vs0mg"},{"bike_id":"c72dc39e-8f1f-4b48-9b63-a919d99fd110","system_id":"levelo_inurba_marseille","lat":43.29193,"lon":5.39314,"is_reserved":false,"is_disabled":false,"rental_uris":{"android":"levelo://app?vid=c72dc39e-8f1f-4b48-9b63-a919d99fd110","ios":"levelo://app?vid=c72dc39e-8f1f-4b48-9b63-a919d99fd110"},"vehicle_type_id":"4","last_reported":1744841373,"current_range_meters":22400,"station_id":"ce4bh192rcd13ifvqdd0","pricing_plan_id":"cebpf4jnsgd1na2vs0mg"},{"bike_id":"421b8527-ab9a-4d48-8e78-647564edc005","system_id":"levelo_inurba_marseille","lat":43.28349,"lon":5.38114,"is_reserved":false,"is_disabled":false,"rental_uris":{"android":"levelo://app?vid=421b8527-ab9a-4d48-8e78-647564edc005","ios":"levelo://app?vid=421b8527-ab9a-4d48-8e78-647564edc005"},"vehicle_type_id":"4","last_reported":1744841373,"current_range_meters":22400,"station_id":"ce4bh412rcd13ifvqdr0","pricing_plan_id":"cebpf4jnsgd1na2vs0mg"},{"bike_id":"345f3b88-e34e-4d48-9f0c-6592661ae354","system_id":"levelo_inurba_marseille","lat":43.27946,"lon":5.41035,"is_reserved":false,"is_disabled":false,"rental_uris":{"android":"levelo://app?vid=345f3b88-e34e-4d48-9f0c-6592661ae354","ios":"levelo://app?vid=345f3b88-e34e-4d48-9f0c-6592661ae354"},"vehicle_type_id":"4","last_reported":1744841373,"current_range_meters":22400,"station_id":"ce4bhnp2rcd13ifvqh0g","pricing_plan_id":"cebpf4jnsgd1na2vs0mg"},{"bike_id":"cc250298-de78-48ca-910c-a354646c94bb","system_id":"levelo_inurba_marseille","lat":43.32002,"lon":5.38155,"is_reserved":false,"is_disabled":false,"rental_uris":{"android":"levelo://app?vid=cc250298-de78-48ca-910c-a354646c94bb","ios":"levelo://app?vid=cc250298-de78-48ca-910c-a354646c94bb"},"vehicle_type_id":"4","last_reported":1744841373,"current_range_meters":22400,"station_id":"ce4bhr12rcd13ifvqhpg","pricing_plan_id":"cebpf4jnsgd1na2vs0mg"},{"bike_id":"74cde955-2aca-408e-b399-855c23c35e00","system_id":"levelo_inurba_marseille","lat":43.29788,"lon":5.3934,"is_reserved":false,"is_disabled":false,"rental_uris":{"android":"levelo://app?vid=74cde955-2aca-408e-b399-855c23c35e00","ios":"levelo://app?vid=74cde955-2aca-408e-b399-855c23c35e00"},"vehicle_type_id":"4","last_reported":1744841373,"current_range_meters":22400,"station_id":"chh1huq6cuj3fo74tm60","pricing_plan_id":"cebpf4jnsgd1na2vs0mg"},{"bike_id":"789c3822-56ca-4769-bcd4-8845bdea2fda","system_id":"levelo_inurba_marseille","lat":43.2417,"lon":5.36408,"is_reserved":false,"is_disabled":false,"rental_uris":{"android":"levelo://app?vid=789c3822-56ca-4769-bcd4-8845bdea2fda","ios":"levelo://app?vid=789c3822-56ca-4769-bcd4-8845bdea2fda"},"vehicle_type_id":"4","last_reported":1744841373,"current_range_meters":22400,"station_id":"cpo36qri1sfpv3e86is0","pricing_plan_id":"cebpf4jnsgd1na2vs0mg"},{"bike_id":"33efbe4e-e642-4271-be29-4926b421ca5b","system_id":"levelo_inurba_marseille","lat":43.24163,"lon":5.36395,"is_reserved":false,"is_disabled":false,"rental_uris":{"android":"levelo://app?vid=33efbe4e-e642-4271-be29-4926b421ca5b","ios":"levelo://app?vid=33efbe4e-e642-4271-be29-4926b421ca5b"},"vehicle_type_id":"4","last_reported":1744841373,"current_range_meters":22400,"station_id":"cpo36qri1sfpv3e86is0","pricing_plan_id":"cebpf4jnsgd1na2vs0mg"},{"bike_id":"3b15e86a-6b6f-4ec6-9418-eeb3ac36c10f","system_id":"levelo_inurba_marseille","lat":43.31742,"lon":5.38848,"is_reserved":false,"is_disabled":false,"rental_uris":{"android":"levelo://app?vid=3b15e86a-6b6f-4ec6-9418-eeb3ac36c10f","ios":"levelo://app?vid=3b15e86a-6b6f-4ec6-9418-eeb3ac36c10f"},"vehicle_type_id":"4","last_reported":1744841373,"current_range_meters":22800,"station_id":"","pricing_plan_id":"cebpf4jnsgd1na2vs0mg"},{"bike_id":"49656461-bedc-4f0f-a69f-7ac8c555c02a","system_id":"levelo_inurba_marseille","lat":43.24394,"lon":5.37047,"is_reserved":false,"is_disabled":false,"rental_uris":{"android":"levelo://app?vid=49656461-bedc-4f0f-a69f-7ac8c555c02a","ios":"levelo://app?vid=49656461-bedc-4f0f-a69f-7ac8c555c02a"},"vehicle_type_id":"4","last_reported":1744841373,"current_range_meters":22800,"station_id":"ce4bhhh2rcd13ifvqfk0","pricing_plan_id":"cebpf4jnsgd1na2vs0mg"},{"bike_id":"2a3df68e-728a-4b9c-bbc2-4259a4448e26","system_id":"levelo_inurba_marseille","lat":43.279879,"lon":5.400204,"is_reserved":false,"is_disabled":false,"rental_uris":{"android":"levelo://app?vid=2a3df68e-728a-4b9c-bbc2-4259a4448e26","ios":"levelo://app?vid=2a3df68e-728a-4b9c-bbc2-4259a4448e26"},"vehicle_type_id":"4","last_reported":1744841373,"current_range_meters":22800,"station_id":"ce4bho92rcd13ifvqh4g","pricing_plan_id":"cebpf4jnsgd1na2vs0mg"},{"bike_id":"5e9aba98-7f2a-46bc-92ca-62cdc3d12e72","system_id":"levelo_inurba_marseille","lat":43.31077,"lon":5.38355,"is_reserved":false,"is_disabled":false,"rental_uris":{"android":"levelo://app?vid=5e9aba98-7f2a-46bc-92ca-62cdc3d12e72","ios":"levelo://app?vid=5e9aba98-7f2a-46bc-92ca-62cdc3d12e72"},"vehicle_type_id":"4","last_reported":1744841373,"current_range_meters":23200,"station_id":"ce4bgv92rcd13ifvqcr0","pricing_plan_id":"cebpf4jnsgd1na2vs0mg"},{"bike_id":"e87617ae-6b99-40b9-85b1-d3c6923a68ac","system_id":"levelo_inurba_marseille","lat":43.30327,"lon":5.40442,"is_reserved":false,"is_disabled":false,"rental_uris":{"android":"levelo://app?vid=e87617ae-6b99-40b9-85b1-d3c6923a68ac","ios":"levelo://app?vid=e87617ae-6b99-40b9-85b1-d3c6923a68ac"},"vehicle_type_id":"4","last_reported":1744841373,"current_range_meters":23200,"station_id":"ce4bh012rcd13ifvqd10","pricing_plan_id":"cebpf4jnsgd1na2vs0mg"},{"bike_id":"d6b2908d-3808-4538-bf2c-9f5ff8c47e29","system_id":"levelo_inurba_marseille","lat":43.25126,"lon":5.40311,"is_reserved":false,"is_disabled":false,"rental_uris":{"android":"levelo://app?vid=d6b2908d-3808-4538-bf2c-9f5ff8c47e29","ios":"levelo://app?vid=d6b2908d-3808-4538-bf2c-9f5ff8c47e29"},"vehicle_type_id":"4","last_reported":1744841373,"current_range_meters":23200,"station_id":"ce4bhlh2rcd13ifvqgig","pricing_plan_id":"cebpf4jnsgd1na2vs0mg"},{"bike_id":"5b64a94f-42ce-436f-b923-8d9492336a44","system_id":"levelo_inurba_marseille","lat":43.32293,"lon":5.38269,"is_reserved":false,"is_disabled":false,"rental_uris":{"android":"levelo://app?vid=5b64a94f-42ce-436f-b923-8d9492336a44","ios":"levelo://app?vid=5b64a94f-42ce-436f-b923-8d9492336a44"},"vehicle_type_id":"4","last_reported":1744841373,"current_range_meters":23200,"station_id":"ce4bhr12rcd13ifvqhqg","pricing_plan_id":"cebpf4jnsgd1na2vs0mg"},{"bike_id":"68342d9f-f0b6-47e7-b690-b27078e67a77","system_id":"levelo_inurba_marseille","lat":43.24169,"lon":5.36382,"is_reserved":false,"is_disabled":false,"rental_uris":{"android":"levelo://app?vid=68342d9f-f0b6-47e7-b690-b27078e67a77","ios":"levelo://app?vid=68342d9f-f0b6-47e7-b690-b27078e67a77"},"vehicle_type_id":"4","last_reported":1744841373,"current_range_meters":23200,"station_id":"cpo36qri1sfpv3e86is0","pricing_plan_id":"cebpf4jnsgd1na2vs0mg"},{"bike_id":"f9d3fbe6-73e5-424e-af02-f446d5b07152","system_id":"levelo_inurba_marseille","lat":43.21759,"lon":5.34619,"is_reserved":false,"is_disabled":false,"rental_uris":{"android":"levelo://app?vid=f9d3fbe6-73e5-424e-af02-f446d5b07152","ios":"levelo://app?vid=f9d3fbe6-73e5-424e-af02-f446d5b07152"},"vehicle_type_id":"4","last_reported":1744841373,"current_range_meters":23200,"station_id":"st_cvj6r9ubvosntc0bgbag","pricing_plan_id":"cebpf4jnsgd1na2vs0mg"},{"bike_id":"4cf9816a-d3d2-47a3-b1bd-70998bd96aff","system_id":"levelo_inurba_marseille","lat":43.29443,"lon":5.39748,"is_reserved":false,"is_disabled":false,"rental_uris":{"android":"levelo://app?vid=4cf9816a-d3d2-47a3-b1bd-70998bd96aff","ios":"levelo://app?vid=4cf9816a-d3d2-47a3-b1bd-70998bd96aff"},"vehicle_type_id":"4","last_reported":1744841373,"current_range_meters":24000,"station_id":"ce4bh3h2rcd13ifvqdo0","pricing_plan_id":"cebpf4jnsgd1na2vs0mg"},{"bike_id":"5fda126a-22f8-41ba-814e-a3e97f7a3c4e","system_id":"levelo_inurba_marseille","lat":43.28666,"lon":5.36351,"is_reserved":false,"is_disabled":false,"rental_uris":{"android":"levelo://app?vid=5fda126a-22f8-41ba-814e-a3e97f7a3c4e","ios":"levelo://app?vid=5fda126a-22f8-41ba-814e-a3e97f7a3c4e"},"vehicle_type_id":"4","last_reported":1744841373,"current_range_meters":24000,"station_id":"ce4bhah2rcd13ifvqej0","pricing_plan_id":"cebpf4jnsgd1na2vs0mg"},{"bike_id":"f47d0f94-8da3-44a8-aa47-8e9634ca35cd","system_id":"levelo_inurba_marseille","lat":43.29237,"lon":5.36076,"is_reserved":false,"is_disabled":false,"rental_uris":{"android":"levelo://app?vid=f47d0f94-8da3-44a8-aa47-8e9634ca35cd","ios":"levelo://app?vid=f47d0f94-8da3-44a8-aa47-8e9634ca35cd"},"vehicle_type_id":"4","last_reported":1744841373,"current_range_meters":24000,"station_id":"ce4bhbh2rcd13ifvqeqg","pricing_plan_id":"cebpf4jnsgd1na2vs0mg"},{"bike_id":"bfc0f2bb-f1f4-4fed-b9af-c547a21d1d5d","system_id":"levelo_inurba_marseille","lat":43.28628,"lon":5.35154,"is_reserved":false,"is_disabled":false,"rental_uris":{"android":"levelo://app?vid=bfc0f2bb-f1f4-4fed-b9af-c547a21d1d5d","ios":"levelo://app?vid=bfc0f2bb-f1f4-4fed-b9af-c547a21d1d5d"},"vehicle_type_id":"4","last_reported":1744841373,"current_range_meters":24000,"station_id":"ce4bhch2rcd13ifvqeug","pricing_plan_id":"cebpf4jnsgd1na2vs0mg"},{"bike_id":"7bce0807-93f9-4e13-8b17-c78186d378c3","system_id":"levelo_inurba_marseille","lat":43.26198,"lon":5.40429,"is_reserved":false,"is_disabled":false,"rental_uris":{"android":"levelo://app?vid=7bce0807-93f9-4e13-8b17-c78186d378c3","ios":"levelo://app?vid=7bce0807-93f9-4e13-8b17-c78186d378c3"},"vehicle_type_id":"4","last_reported":1744841373,"current_range_meters":24000,"station_id":"ce4bhmh2rcd13ifvqgmg","pricing_plan_id":"cebpf4jnsgd1na2vs0mg"},{"bike_id":"f49b23d8-f4bc-47a8-96e7-11a27acaa310","system_id":"levelo_inurba_marseille","lat":43.28692,"lon":5.39983,"is_reserved":false,"is_disabled":false,"rental_uris":{"android":"levelo://app?vid=f49b23d8-f4bc-47a8-96e7-11a27acaa310","ios":"levelo://app?vid=f49b23d8-f4bc-47a8-96e7-11a27acaa310"},"vehicle_type_id":"4","last_reported":1744841373,"current_range_meters":24000,"station_id":"ce4bho92rcd13ifvqh3g","pricing_plan_id":"cebpf4jnsgd1na2vs0mg"},{"bike_id":"88bfa4d6-b033-456c-a8d9-b51526e39406","system_id":"levelo_inurba_marseille","lat":43.299,"lon":5.43635,"is_reserved":false,"is_disabled":false,"rental_uris":{"android":"levelo://app?vid=88bfa4d6-b033-456c-a8d9-b51526e39406","ios":"levelo://app?vid=88bfa4d6-b033-456c-a8d9-b51526e39406"},"vehicle_type_id":"4","last_reported":1744841373,"current_range_meters":24000,"station_id":"ce4bhpp2rcd13ifvqhfg","pricing_plan_id":"cebpf4jnsgd1na2vs0mg"},{"bike_id":"5e6be620-a3d0-49c3-9ff0-b85332cde817","system_id":"levelo_inurba_marseille","lat":43.23197,"lon":5.35564,"is_reserved":false,"is_disabled":false,"rental_uris":{"android":"levelo://app?vid=5e6be620-a3d0-49c3-9ff0-b85332cde817","ios":"levelo://app?vid=5e6be620-a3d0-49c3-9ff0-b85332cde817"},"vehicle_type_id":"4","last_reported":1744841373,"current_range_meters":24000,"station_id":"ce4bhu92rcd13ifvqi70","pricing_plan_id":"cebpf4jnsgd1na2vs0mg"},{"bike_id":"c305c827-8b59-4e6c-91de-4d8a3fcbcac2","system_id":"levelo_inurba_marseille","lat":43.24168,"lon":5.36408,"is_reserved":false,"is_disabled":false,"rental_uris":{"android":"levelo://app?vid=c305c827-8b59-4e6c-91de-4d8a3fcbcac2","ios":"levelo://app?vid=c305c827-8b59-4e6c-91de-4d8a3fcbcac2"},"vehicle_type_id":"4","last_reported":1744841373,"current_range_meters":24000,"station_id":"cpo36qri1sfpv3e86is0","pricing_plan_id":"cebpf4jnsgd1na2vs0mg"},{"bike_id":"111a9116-5ac2-4b6d-93d2-b92f401f8e89","system_id":"levelo_inurba_marseille","lat":43.31856,"lon":5.37462,"is_reserved":false,"is_disabled":false,"rental_uris":{"android":"levelo://app?vid=111a9116-5ac2-4b6d-93d2-b92f401f8e89","ios":"levelo://app?vid=111a9116-5ac2-4b6d-93d2-b92f401f8e89"},"vehicle_type_id":"4","last_reported":1744841373,"current_range_meters":24400,"station_id":"","pricing_plan_id":"cebpf4jnsgd1na2vs0mg"},{"bike_id":"04cd718a-739b-4f09-8fdf-74e445452766","system_id":"levelo_inurba_marseille","lat":43.31484,"lon":5.37292,"is_reserved":false,"is_disabled":false,"rental_uris":{"android":"levelo://app?vid=04cd718a-739b-4f09-8fdf-74e445452766","ios":"levelo://app?vid=04cd718a-739b-4f09-8fdf-74e445452766"},"vehicle_type_id":"4","last_reported":1744841373,"current_range_meters":24400,"station_id":"ce4bgt12rcd13ifvqcd0","pricing_plan_id":"cebpf4jnsgd1na2vs0mg"},{"bike_id":"96b0ee13-4242-40f6-ab89-563fac05b70c","system_id":"levelo_inurba_marseille","lat":43.30928,"lon":5.40157,"is_reserved":false,"is_disabled":false,"rental_uris":{"android":"levelo://app?vid=96b0ee13-4242-40f6-ab89-563fac05b70c","ios":"levelo://app?vid=96b0ee13-4242-40f6-ab89-563fac05b70c"},"vehicle_type_id":"4","last_reported":1744841373,"current_range_meters":24400,"station_id":"ce4bgvp2rcd13ifvqct0","pricing_plan_id":"cebpf4jnsgd1na2vs0mg"},{"bike_id":"726d5e77-d6f2-4a7c-8e75-8c9e9b3ee3a4","system_id":"levelo_inurba_marseille","lat":43.3093,"lon":5.40146,"is_reserved":false,"is_disabled":false,"rental_uris":{"android":"levelo://app?vid=726d5e77-d6f2-4a7c-8e75-8c9e9b3ee3a4","ios":"levelo://app?vid=726d5e77-d6f2-4a7c-8e75-8c9e9b3ee3a4"},"vehicle_type_id":"4","last_reported":1744841373,"current_range_meters":24400,"station_id":"ce4bgvp2rcd13ifvqct0","pricing_plan_id":"cebpf4jnsgd1na2vs0mg"},{"bike_id":"39cdcda5-1688-4ef8-a8ba-562ba29d65b6","system_id":"levelo_inurba_marseille","lat":43.27902,"lon":5.39591,"is_reserved":false,"is_disabled":false,"rental_uris":{"android":"levelo://app?vid=39cdcda5-1688-4ef8-a8ba-562ba29d65b6","ios":"levelo://app?vid=39cdcda5-1688-4ef8-a8ba-562ba29d65b6"},"vehicle_type_id":"4","last_reported":1744841373,"current_range_meters":24400,"station_id":"ce4bhf92rcd13ifvqf40","pricing_plan_id":"cebpf4jnsgd1na2vs0mg"},{"bike_id":"d1a2b493-7d30-4a9c-a02b-dfad0b4f73f7","system_id":"levelo_inurba_marseille","lat":43.24809,"lon":5.3744,"is_reserved":false,"is_disabled":false,"rental_uris":{"android":"levelo://app?vid=d1a2b493-7d30-4a9c-a02b-dfad0b4f73f7","ios":"levelo://app?vid=d1a2b493-7d30-4a9c-a02b-dfad0b4f73f7"},"vehicle_type_id":"4","last_reported":1744841373,"current_range_meters":24400,"station_id":"ce4bhgh2rcd13ifvqfb0","pricing_plan_id":"cebpf4jnsgd1na2vs0mg"},{"bike_id":"9cd23c42-ae97-4a21-90fe-d31238070dfd","system_id":"levelo_inurba_marseille","lat":43.25727,"lon":5.41107,"is_reserved":false,"is_disabled":false,"rental_uris":{"android":"levelo://app?vid=9cd23c42-ae97-4a21-90fe-d31238070dfd","ios":"levelo://app?vid=9cd23c42-ae97-4a21-90fe-d31238070dfd"},"vehicle_type_id":"4","last_reported":1744841373,"current_range_meters":24400,"station_id":"ce4bhkp2rcd13ifvqgd0","pricing_plan_id":"cebpf4jnsgd1na2vs0mg"},{"bike_id":"829ce4a6-dd7c-4bdf-8d60-b533479cab14","system_id":"levelo_inurba_marseille","lat":43.26248,"lon":5.40462,"is_reserved":false,"is_disabled":false,"rental_uris":{"android":"levelo://app?vid=829ce4a6-dd7c-4bdf-8d60-b533479cab14","ios":"levelo://app?vid=829ce4a6-dd7c-4bdf-8d60-b533479cab14"},"vehicle_type_id":"4","last_reported":1744841373,"current_range_meters":24400,"station_id":"ce4bhmh2rcd13ifvqgmg","pricing_plan_id":"cebpf4jnsgd1na2vs0mg"},{"bike_id":"873bcab6-b973-48ed-b129-34762c209441","system_id":"levelo_inurba_marseille","lat":43.315,"lon":5.37314,"is_reserved":false,"is_disabled":false,"rental_uris":{"android":"levelo://app?vid=873bcab6-b973-48ed-b129-34762c209441","ios":"levelo://app?vid=873bcab6-b973-48ed-b129-34762c209441"},"vehicle_type_id":"4","last_reported":1744841373,"current_range_meters":24800,"station_id":"ce4bgt12rcd13ifvqcd0","pricing_plan_id":"cebpf4jnsgd1na2vs0mg"},{"bike_id":"7ffb8227-73d5-4fbe-b0e4-0780b8d299a1","system_id":"levelo_inurba_marseille","lat":43.30794,"lon":5.38163,"is_reserved":false,"is_disabled":false,"rental_uris":{"android":"levelo://app?vid=7ffb8227-73d5-4fbe-b0e4-0780b8d299a1","ios":"levelo://app?vid=7ffb8227-73d5-4fbe-b0e4-0780b8d299a1"},"vehicle_type_id":"4","last_reported":1744841373,"current_range_meters":24800,"station_id":"ce4bgt12rcd13ifvqce0","pricing_plan_id":"cebpf4jnsgd1na2vs0mg"},{"bike_id":"81f312e2-c4ee-4946-83ff-6e5617cc7a3d","system_id":"levelo_inurba_marseille","lat":43.30326,"lon":5.4043,"is_reserved":false,"is_disabled":false,"rental_uris":{"android":"levelo://app?vid=81f312e2-c4ee-4946-83ff-6e5617cc7a3d","ios":"levelo://app?vid=81f312e2-c4ee-4946-83ff-6e5617cc7a3d"},"vehicle_type_id":"4","last_reported":1744841373,"current_range_meters":24800,"station_id":"ce4bh012rcd13ifvqd10","pricing_plan_id":"cebpf4jnsgd1na2vs0mg"},{"bike_id":"f97a32d6-d529-4d2f-9372-f8d028ee2b18","system_id":"levelo_inurba_marseille","lat":43.281,"lon":5.37833,"is_reserved":false,"is_disabled":false,"rental_uris":{"android":"levelo://app?vid=f97a32d6-d529-4d2f-9372-f8d028ee2b18","ios":"levelo://app?vid=f97a32d6-d529-4d2f-9372-f8d028ee2b18"},"vehicle_type_id":"4","last_reported":1744841373,"current_range_meters":24800,"station_id":"ce4bha12rcd13ifvqee0","pricing_plan_id":"cebpf4jnsgd1na2vs0mg"},{"bike_id":"e7418951-ceeb-404d-a2d7-c47bf109d0ee","system_id":"levelo_inurba_marseille","lat":43.28452,"lon":5.35895,"is_reserved":false,"is_disabled":false,"rental_uris":{"android":"levelo://app?vid=e7418951-ceeb-404d-a2d7-c47bf109d0ee","ios":"levelo://app?vid=e7418951-ceeb-404d-a2d7-c47bf109d0ee"},"vehicle_type_id":"4","last_reported":1744841373,"current_range_meters":24800,"station_id":"ce4bhah2rcd13ifvqei0","pricing_plan_id":"cebpf4jnsgd1na2vs0mg"},{"bike_id":"c211eda0-2bf1-4f64-a659-aad36c81259a","system_id":"levelo_inurba_marseille","lat":43.288513,"lon":5.358494,"is_reserved":false,"is_disabled":false,"rental_uris":{"android":"levelo://app?vid=c211eda0-2bf1-4f64-a659-aad36c81259a","ios":"levelo://app?vid=c211eda0-2bf1-4f64-a659-aad36c81259a"},"vehicle_type_id":"4","last_reported":1744841373,"current_range_meters":24800,"station_id":"ce4bhb12rcd13ifvqem0","pricing_plan_id":"cebpf4jnsgd1na2vs0mg"},{"bike_id":"b1a40dc4-be56-4cd8-809a-03d48e89c946","system_id":"levelo_inurba_marseille","lat":43.32368,"lon":5.36776,"is_reserved":false,"is_disabled":false,"rental_uris":{"android":"levelo://app?vid=b1a40dc4-be56-4cd8-809a-03d48e89c946","ios":"levelo://app?vid=b1a40dc4-be56-4cd8-809a-03d48e89c946"},"vehicle_type_id":"4","last_reported":1744841373,"current_range_meters":24800,"station_id":"ce4bhsh2rcd13ifvqi2g","pricing_plan_id":"cebpf4jnsgd1na2vs0mg"},{"bike_id":"80bac1fe-218c-4068-937c-4aa733df023f","system_id":"levelo_inurba_marseille","lat":43.2861,"lon":5.37067,"is_reserved":false,"is_disabled":false,"rental_uris":{"android":"levelo://app?vid=80bac1fe-218c-4068-937c-4aa733df023f","ios":"levelo://app?vid=80bac1fe-218c-4068-937c-4aa733df023f"},"vehicle_type_id":"4","last_reported":1744841373,"current_range_meters":24800,"station_id":"ce4bht12rcd13ifvqi60","pricing_plan_id":"cebpf4jnsgd1na2vs0mg"},{"bike_id":"1e808752-def4-44f5-9888-8c6428bb9027","system_id":"levelo_inurba_marseille","lat":43.23191,"lon":5.35551,"is_reserved":false,"is_disabled":false,"rental_uris":{"android":"levelo://app?vid=1e808752-def4-44f5-9888-8c6428bb9027","ios":"levelo://app?vid=1e808752-def4-44f5-9888-8c6428bb9027"},"vehicle_type_id":"4","last_reported":1744841373,"current_range_meters":24800,"station_id":"ce4bhu92rcd13ifvqi70","pricing_plan_id":"cebpf4jnsgd1na2vs0mg"},{"bike_id":"d05b7cc4-f88b-4d02-ae6c-c344f22c0e5c","system_id":"levelo_inurba_marseille","lat":43.298,"lon":5.36531,"is_reserved":false,"is_disabled":false,"rental_uris":{"android":"levelo://app?vid=d05b7cc4-f88b-4d02-ae6c-c344f22c0e5c","ios":"levelo://app?vid=d05b7cc4-f88b-4d02-ae6c-c344f22c0e5c"},"vehicle_type_id":"4","last_reported":1744841373,"current_range_meters":25200,"station_id":"","pricing_plan_id":"cebpf4jnsgd1na2vs0mg"},{"bike_id":"f1439bbf-3f90-4d8a-b558-ba1d984b3cc6","system_id":"levelo_inurba_marseille","lat":43.30892,"lon":5.39649,"is_reserved":false,"is_disabled":false,"rental_uris":{"android":"levelo://app?vid=f1439bbf-3f90-4d8a-b558-ba1d984b3cc6","ios":"levelo://app?vid=f1439bbf-3f90-4d8a-b558-ba1d984b3cc6"},"vehicle_type_id":"4","last_reported":1744841373,"current_range_meters":25200,"station_id":"ce4bh012rcd13ifvqcv0","pricing_plan_id":"cebpf4jnsgd1na2vs0mg"},{"bike_id":"dc8f699c-e3e7-4669-ba42-be1dbdb422ba","system_id":"levelo_inurba_marseille","lat":43.3059,"lon":5.39347,"is_reserved":false,"is_disabled":false,"rental_uris":{"android":"levelo://app?vid=dc8f699c-e3e7-4669-ba42-be1dbdb422ba","ios":"levelo://app?vid=dc8f699c-e3e7-4669-ba42-be1dbdb422ba"},"vehicle_type_id":"4","last_reported":1744841373,"current_range_meters":25200,"station_id":"ce4bh0p2rcd13ifvqd80","pricing_plan_id":"cebpf4jnsgd1na2vs0mg"},{"bike_id":"3447a6b6-8238-4cd4-bed5-f18919495330","system_id":"levelo_inurba_marseille","lat":43.29445,"lon":5.39744,"is_reserved":false,"is_disabled":false,"rental_uris":{"android":"levelo://app?vid=3447a6b6-8238-4cd4-bed5-f18919495330","ios":"levelo://app?vid=3447a6b6-8238-4cd4-bed5-f18919495330"},"vehicle_type_id":"4","last_reported":1744841373,"current_range_meters":25200,"station_id":"ce4bh3h2rcd13ifvqdo0","pricing_plan_id":"cebpf4jnsgd1na2vs0mg"},{"bike_id":"a12fcb40-6a57-41e4-93cc-27db680785df","system_id":"levelo_inurba_marseille","lat":43.2846,"lon":5.35889,"is_reserved":false,"is_disabled":false,"rental_uris":{"android":"levelo://app?vid=a12fcb40-6a57-41e4-93cc-27db680785df","ios":"levelo://app?vid=a12fcb40-6a57-41e4-93cc-27db680785df"},"vehicle_type_id":"4","last_reported":1744841373,"current_range_meters":25200,"station_id":"ce4bhah2rcd13ifvqei0","pricing_plan_id":"cebpf4jnsgd1na2vs0mg"},{"bike_id":"1a9aac4e-3d91-4274-a239-65896c06ebd8","system_id":"levelo_inurba_marseille","lat":43.26558,"lon":5.3728,"is_reserved":false,"is_disabled":false,"rental_uris":{"android":"levelo://app?vid=1a9aac4e-3d91-4274-a239-65896c06ebd8","ios":"levelo://app?vid=1a9aac4e-3d91-4274-a239-65896c06ebd8"},"vehicle_type_id":"4","last_reported":1744841373,"current_range_meters":25200,"station_id":"ce4bhg12rcd13ifvqf70","pricing_plan_id":"cebpf4jnsgd1na2vs0mg"},{"bike_id":"91aa591a-3e56-4092-a295-ecb6aebe69eb","system_id":"levelo_inurba_marseille","lat":43.22532,"lon":5.34777,"is_reserved":false,"is_disabled":false,"rental_uris":{"android":"levelo://app?vid=91aa591a-3e56-4092-a295-ecb6aebe69eb","ios":"levelo://app?vid=91aa591a-3e56-4092-a295-ecb6aebe69eb"},"vehicle_type_id":"4","last_reported":1744841373,"current_range_meters":25200,"station_id":"st_cvj5dfep6f1abm77gieg","pricing_plan_id":"cebpf4jnsgd1na2vs0mg"},{"bike_id":"9eb6738d-486c-4d0a-88f4-70b8d81983d1","system_id":"levelo_inurba_marseille","lat":43.2177,"lon":5.34606,"is_reserved":false,"is_disabled":false,"rental_uris":{"android":"levelo://app?vid=9eb6738d-486c-4d0a-88f4-70b8d81983d1","ios":"levelo://app?vid=9eb6738d-486c-4d0a-88f4-70b8d81983d1"},"vehicle_type_id":"4","last_reported":1744841373,"current_range_meters":25200,"station_id":"st_cvj6r9ubvosntc0bgbag","pricing_plan_id":"cebpf4jnsgd1na2vs0mg"},{"bike_id":"aea2afb6-112e-4c3a-968a-5eb5aa77e9be","system_id":"levelo_inurba_marseille","lat":43.21193,"lon":5.35076,"is_reserved":false,"is_disabled":false,"rental_uris":{"android":"levelo://app?vid=aea2afb6-112e-4c3a-968a-5eb5aa77e9be","ios":"levelo://app?vid=aea2afb6-112e-4c3a-968a-5eb5aa77e9be"},"vehicle_type_id":"4","last_reported":1744841373,"current_range_meters":25200,"station_id":"st_cvj6sg6p6f1abm77japg","pricing_plan_id":"cebpf4jnsgd1na2vs0mg"},{"bike_id":"c205edf5-cc11-4037-b51a-c04fd0fac98e","system_id":"levelo_inurba_marseille","lat":43.23533,"lon":5.40318,"is_reserved":false,"is_disabled":false,"rental_uris":{"android":"levelo://app?vid=c205edf5-cc11-4037-b51a-c04fd0fac98e","ios":"levelo://app?vid=c205edf5-cc11-4037-b51a-c04fd0fac98e"},"vehicle_type_id":"4","last_reported":1744841373,"current_range_meters":25600,"station_id":"","pricing_plan_id":"cebpf4jnsgd1na2vs0mg"},{"bike_id":"14faadf3-1568-4451-8027-4e66a466f012","system_id":"levelo_inurba_marseille","lat":43.30803,"lon":5.38151,"is_reserved":false,"is_disabled":false,"rental_uris":{"android":"levelo://app?vid=14faadf3-1568-4451-8027-4e66a466f012","ios":"levelo://app?vid=14faadf3-1568-4451-8027-4e66a466f012"},"vehicle_type_id":"4","last_reported":1744841373,"current_range_meters":25600,"station_id":"ce4bgt12rcd13ifvqce0","pricing_plan_id":"cebpf4jnsgd1na2vs0mg"},{"bike_id":"ca1ac32f-daa3-46e9-879b-68321276778e","system_id":"levelo_inurba_marseille","lat":43.31113,"lon":5.37766,"is_reserved":false,"is_disabled":false,"rental_uris":{"android":"levelo://app?vid=ca1ac32f-daa3-46e9-879b-68321276778e","ios":"levelo://app?vid=ca1ac32f-daa3-46e9-879b-68321276778e"},"vehicle_type_id":"4","last_reported":1744841373,"current_range_meters":25600,"station_id":"ce4bgt92rcd13ifvqcg0","pricing_plan_id":"cebpf4jnsgd1na2vs0mg"},{"bike_id":"0cf51ce3-d1a9-40a2-80e5-0ff373881409","system_id":"levelo_inurba_marseille","lat":43.3108,"lon":5.38349,"is_reserved":false,"is_disabled":false,"rental_uris":{"android":"levelo://app?vid=0cf51ce3-d1a9-40a2-80e5-0ff373881409","ios":"levelo://app?vid=0cf51ce3-d1a9-40a2-80e5-0ff373881409"},"vehicle_type_id":"4","last_reported":1744841373,"current_range_meters":25600,"station_id":"ce4bgv92rcd13ifvqcr0","pricing_plan_id":"cebpf4jnsgd1na2vs0mg"},{"bike_id":"e17fb8f6-7851-4a7a-be31-c6d1d98e0415","system_id":"levelo_inurba_marseille","lat":43.31725,"lon":5.4046,"is_reserved":false,"is_disabled":false,"rental_uris":{"android":"levelo://app?vid=e17fb8f6-7851-4a7a-be31-c6d1d98e0415","ios":"levelo://app?vid=e17fb8f6-7851-4a7a-be31-c6d1d98e0415"},"vehicle_type_id":"4","last_reported":1744841373,"current_range_meters":25600,"station_id":"ce4bh012rcd13ifvqd00","pricing_plan_id":"cebpf4jnsgd1na2vs0mg"},{"bike_id":"24213b37-b766-4d9c-a174-f6bf34920497","system_id":"levelo_inurba_marseille","lat":43.28469,"lon":5.384178,"is_reserved":false,"is_disabled":false,"rental_uris":{"android":"levelo://app?vid=24213b37-b766-4d9c-a174-f6bf34920497","ios":"levelo://app?vid=24213b37-b766-4d9c-a174-f6bf34920497"},"vehicle_type_id":"4","last_reported":1744841373,"current_range_meters":25600,"station_id":"ce4bh512rcd13ifvqe3g","pricing_plan_id":"cebpf4jnsgd1na2vs0mg"},{"bike_id":"aa8eb0a5-71b9-41f1-9d1e-c044c513c5f9","system_id":"levelo_inurba_marseille","lat":43.27213,"lon":5.39189,"is_reserved":false,"is_disabled":false,"rental_uris":{"android":"levelo://app?vid=aa8eb0a5-71b9-41f1-9d1e-c044c513c5f9","ios":"levelo://app?vid=aa8eb0a5-71b9-41f1-9d1e-c044c513c5f9"},"vehicle_type_id":"4","last_reported":1744841373,"current_range_meters":25600,"station_id":"ce4bhhp2rcd13ifvqfm0","pricing_plan_id":"cebpf4jnsgd1na2vs0mg"},{"bike_id":"9b6a0450-86fd-400d-a03a-c181f56bc070","system_id":"levelo_inurba_marseille","lat":43.27936,"lon":5.41043,"is_reserved":false,"is_disabled":false,"rental_uris":{"android":"levelo://app?vid=9b6a0450-86fd-400d-a03a-c181f56bc070","ios":"levelo://app?vid=9b6a0450-86fd-400d-a03a-c181f56bc070"},"vehicle_type_id":"4","last_reported":1744841373,"current_range_meters":25600,"station_id":"ce4bhnp2rcd13ifvqh0g","pricing_plan_id":"cebpf4jnsgd1na2vs0mg"},{"bike_id":"7e9fbd33-cfb6-44a6-96fc-1f60d0c215f7","system_id":"levelo_inurba_marseille","lat":43.32361,"lon":5.36761,"is_reserved":false,"is_disabled":false,"rental_uris":{"android":"levelo://app?vid=7e9fbd33-cfb6-44a6-96fc-1f60d0c215f7","ios":"levelo://app?vid=7e9fbd33-cfb6-44a6-96fc-1f60d0c215f7"},"vehicle_type_id":"4","last_reported":1744841373,"current_range_meters":25600,"station_id":"ce4bhsh2rcd13ifvqi2g","pricing_plan_id":"cebpf4jnsgd1na2vs0mg"},{"bike_id":"532963c4-36d6-4595-b3ff-eb9b797f9912","system_id":"levelo_inurba_marseille","lat":43.32025,"lon":5.36792,"is_reserved":false,"is_disabled":false,"rental_uris":{"android":"levelo://app?vid=532963c4-36d6-4595-b3ff-eb9b797f9912","ios":"levelo://app?vid=532963c4-36d6-4595-b3ff-eb9b797f9912"},"vehicle_type_id":"4","last_reported":1744841373,"current_range_meters":26000,"station_id":"","pricing_plan_id":"cebpf4jnsgd1na2vs0mg"},{"bike_id":"6df9e6c5-ef33-4b0b-b31e-ec5053a8ae8a","system_id":"levelo_inurba_marseille","lat":43.28704,"lon":5.38665,"is_reserved":false,"is_disabled":false,"rental_uris":{"android":"levelo://app?vid=6df9e6c5-ef33-4b0b-b31e-ec5053a8ae8a","ios":"levelo://app?vid=6df9e6c5-ef33-4b0b-b31e-ec5053a8ae8a"},"vehicle_type_id":"4","last_reported":1744841373,"current_range_meters":26000,"station_id":"","pricing_plan_id":"cebpf4jnsgd1na2vs0mg"},{"bike_id":"8006db0e-11a9-4516-bc35-9c143e39ac6a","system_id":"levelo_inurba_marseille","lat":43.31171,"lon":5.38722,"is_reserved":false,"is_disabled":false,"rental_uris":{"android":"levelo://app?vid=8006db0e-11a9-4516-bc35-9c143e39ac6a","ios":"levelo://app?vid=8006db0e-11a9-4516-bc35-9c143e39ac6a"},"vehicle_type_id":"4","last_reported":1744841373,"current_range_meters":26000,"station_id":"ce4bgv12rcd13ifvqcp0","pricing_plan_id":"cebpf4jnsgd1na2vs0mg"},{"bike_id":"83ffd0b3-b21f-4dc0-af4e-07b2180e08bd","system_id":"levelo_inurba_marseille","lat":43.3107,"lon":5.38362,"is_reserved":false,"is_disabled":false,"rental_uris":{"android":"levelo://app?vid=83ffd0b3-b21f-4dc0-af4e-07b2180e08bd","ios":"levelo://app?vid=83ffd0b3-b21f-4dc0-af4e-07b2180e08bd"},"vehicle_type_id":"4","last_reported":1744841373,"current_range_meters":26000,"station_id":"ce4bgv92rcd13ifvqcr0","pricing_plan_id":"cebpf4jnsgd1na2vs0mg"},{"bike_id":"7a23c487-8d24-4cb4-a2a0-e97999baac57","system_id":"levelo_inurba_marseille","lat":43.31327,"lon":5.39691,"is_reserved":false,"is_disabled":false,"rental_uris":{"android":"levelo://app?vid=7a23c487-8d24-4cb4-a2a0-e97999baac57","ios":"levelo://app?vid=7a23c487-8d24-4cb4-a2a0-e97999baac57"},"vehicle_type_id":"4","last_reported":1744841373,"current_range_meters":26000,"station_id":"ce4bgvp2rcd13ifvqcu0","pricing_plan_id":"cebpf4jnsgd1na2vs0mg"},{"bike_id":"cdab0bda-bc51-4925-be56-ee684e64e114","system_id":"levelo_inurba_marseille","lat":43.2988,"lon":5.39734,"is_reserved":false,"is_disabled":false,"rental_uris":{"android":"levelo://app?vid=cdab0bda-bc51-4925-be56-ee684e64e114","ios":"levelo://app?vid=cdab0bda-bc51-4925-be56-ee684e64e114"},"vehicle_type_id":"4","last_reported":1744841373,"current_range_meters":26000,"station_id":"ce4bh0h2rcd13ifvqd50","pricing_plan_id":"cebpf4jnsgd1na2vs0mg"},{"bike_id":"502cdd58-3738-4fdd-93ed-6435f3ced9d8","system_id":"levelo_inurba_marseille","lat":43.29184,"lon":5.39326,"is_reserved":false,"is_disabled":false,"rental_uris":{"android":"levelo://app?vid=502cdd58-3738-4fdd-93ed-6435f3ced9d8","ios":"levelo://app?vid=502cdd58-3738-4fdd-93ed-6435f3ced9d8"},"vehicle_type_id":"4","last_reported":1744841373,"current_range_meters":26000,"station_id":"ce4bh192rcd13ifvqdd0","pricing_plan_id":"cebpf4jnsgd1na2vs0mg"},{"bike_id":"ff0a4dc5-0985-46f4-8865-bcdc6ffe6a9e","system_id":"levelo_inurba_marseille","lat":43.286989,"lon":5.37385,"is_reserved":false,"is_disabled":false,"rental_uris":{"android":"levelo://app?vid=ff0a4dc5-0985-46f4-8865-bcdc6ffe6a9e","ios":"levelo://app?vid=ff0a4dc5-0985-46f4-8865-bcdc6ffe6a9e"},"vehicle_type_id":"4","last_reported":1744841373,"current_range_meters":26000,"station_id":"ce4bh3p2rcd13ifvqdq0","pricing_plan_id":"cebpf4jnsgd1na2vs0mg"},{"bike_id":"2e4fbe9c-cd7a-4779-ad7f-26ec0f0cc6ce","system_id":"levelo_inurba_marseille","lat":43.24811,"lon":5.37454,"is_reserved":false,"is_disabled":false,"rental_uris":{"android":"levelo://app?vid=2e4fbe9c-cd7a-4779-ad7f-26ec0f0cc6ce","ios":"levelo://app?vid=2e4fbe9c-cd7a-4779-ad7f-26ec0f0cc6ce"},"vehicle_type_id":"4","last_reported":1744841373,"current_range_meters":26000,"station_id":"ce4bhgh2rcd13ifvqfb0","pricing_plan_id":"cebpf4jnsgd1na2vs0mg"},