{"last_updated":1721588753,"ttl":30,"version":"2.2","data":{"bikes":[{"bike_id":"1a5dceb2-a09e-4f7d-91ae-e61aa901ef45","system_id":"levelo_inurba_marseille","lat":43.312239,"lon":5.368562,"is_reserved":false,"is_disabled":false,"rental_uris":{"android":"levelo://app?vid=1a5dceb2-a09e-4f7d-91ae-e61aa901ef45","ios":"levelo://app?vid=1a5dceb2-a09e-4f7d-91ae-e61aa901ef45"},"vehicle_type_id":"4","last_reported":1721588753,"current_range_meters":25200,"station_id":"ce4bgl92rcd13ifvqbq0","pricing_plan_id":"cebpf4jnsgd1na2vs0mg"},{"bike_id":"4f012952-1ac1-49be-963e-7d5672fcf9b5","system_id":"levelo_inurba_marseille","lat":43.314811,"lon":5.373103,"is_reserved":false,"is_disabled":false,"rental_uris":{"android":"levelo://app?vid=4f012952-1ac1-49be-963e-7d5672fcf9b5","ios":"levelo://app?vid=4f012952-1ac1-49be-963e-7d5672fcf9b5"},"vehicle_type_id":"4","last_reported":1721588753,"current_range_meters":23200,"station_id":"ce4bgt12rcd13ifvqcd0","pricing_plan_id":"cebpf4jnsgd1na2vs0mg"},{"bike_id":"62864709-990d-4d18-a679-cd955470ba13","system_id":"levelo_inurba_marseille","lat":43.314811,"lon":5.373103,"is_reserved":false,"is_disabled":false,"rental_uris":{"android":"levelo://app?vid=62864709-990d-4d18-a679-cd955470ba13","ios":"levelo://app?vid=62864709-990d-4d18-a679-cd955470ba13"},"vehicle_type_id":"4","last_reported":1721588753,"current_range_meters":4800,"station_id":"ce4bgt12rcd13ifvqcd0","pricing_plan_id":"cebpf4jnsgd1na2vs0mg"},{"bike_id":"8daf811f-7478-4d32-9583-72b68fc62612","system_id":"levelo_inurba_marseille","lat":43.315,"lon":5.37301,"is_reserved":false,"is_disabled":false,"rental_uris":{"android":"levelo://app?vid=8daf811f-7478-4d32-9583-72b68fc62612","ios":"levelo://app?vid=8daf811f-7478-4d32-9583-72b68fc62612"},"vehicle_type_id":"4","last_reported":1721588753,"current_range_meters":5600,"station_id":"ce4bgt12rcd13ifvqcd0","pricing_plan_id":"cebpf4jnsgd1na2vs0mg"},{"bike_id":"ed6e2366-ba59-42df-bf4b-b2e94b03bb12","system_id":"levelo_inurba_marseille","lat":43.314811,"lon":5.373104,"is_reserved":false,"is_disabled":false,"rental_uris":{"android":"levelo://app?vid=ed6e2366-ba59-42df-bf4b-b2e94b03bb12","ios":"levelo://app?vid=ed6e2366-ba59-42df-bf4b-b2e94b03bb12"},"vehicle_type_id":"4","last_reported":1721588753,"current_range_meters":13600,"station_id":"ce4bgt12rcd13ifvqcd0","pricing_plan_id":"cebpf4jnsgd1na2vs0mg"},{"bike_id":"7fb93600-9047-486f-80dd-62d2739abfde","system_id":"levelo_inurba_marseille","lat":43.307428,"lon":5.371428,"is_reserved":false,"is_disabled":false,"rental_uris":{"android":"levelo://app?vid=7fb93600-9047-486f-80dd-62d2739abfde","ios":"levelo://app?vid=7fb93600-9047-486f-80dd-62d2739abfde"},"vehicle_type_id":"4","last_reported":1721588753,"current_range_meters":12800,"station_id":"","pricing_plan_id":"cebpf4jnsgd1na2vs0mg"},{"bike_id":"32bf86fb-39c7-4520-b12e-60e8f91c25e9","system_id":"levelo_inurba_marseille","lat":43.30643,"lon":5.36802,"is_reserved":false,"is_disabled":false,"rental_uris":{"android":"levelo://app?vid=32bf86fb-39c7-4520-b12e-60e8f91c25e9","ios":"levelo://app?vid=32bf86fb-39c7-4520-b12e-60e8f91c25e9"},"vehicle_type_id":"4","last_reported":1721588753,"current_range_meters":27200,"station_id":"","pricing_plan_id":"cebpf4jnsgd1na2vs0mg"},{"bike_id":"bf214419-1aef-4910-b108-3cca41fa0892","system_id":"levelo_inurba_marseille","lat":43.311125,"lon":5.377624,"is_reserved":false,"is_disabled":false,"rental_uris":{"android":"levelo://app?vid=bf214419-1aef-4910-b108-3cca41fa0892","ios":"levelo://app?vid=bf214419-1aef-4910-b108-3cca41fa0892"},"vehicle_type_id":"4","last_reported":1721588753,"current_range_meters":10400,"station_id":"ce4bgt92rcd13ifvqcg0","pricing_plan_id":"cebpf4jnsgd1na2vs0mg"},{"bike_id":"5f7632cf-bbf2-4880-9746-85633ab99542","system_id":"levelo_inurba_marseille","lat":43.311125,"lon":5.377624,"is_reserved":false,"is_disabled":false,"rental_uris":{"android":"levelo://app?vid=5f7632cf-bbf2-4880-9746-85633ab99542","ios":"levelo://app?vid=5f7632cf-bbf2-4880-9746-85633ab99542"},"vehicle_type_id":"4","last_reported":1721588753,"current_range_meters":30400,"station_id":"ce4bgt92rcd13ifvqcg0","pricing_plan_id":"cebpf4jnsgd1na2vs0mg"},{"bike_id":"f06103dd-13b1-4286-bd6b-c563ee6b6520","system_id":"levelo_inurba_marseille","lat":43.31157,"lon":5.37847,"is_reserved":false,"is_disabled":false,"rental_uris":{"android":"levelo://app?vid=f06103dd-13b1-4286-bd6b-c563ee6b6520","ios":"levelo://app?vid=f06103dd-13b1-4286-bd6b-c563ee6b6520"},"vehicle_type_id":"4","last_reported":1721588753,"current_range_meters":30400,"station_id":"","pricing_plan_id":"cebpf4jnsgd1na2vs0mg"},{"bike_id":"b5fd17fd-ada6-4f9e-ac5f-bd5ed6acd247","system_id":"levelo_inurba_marseille","lat":43.317075,"lon":5.377367,"is_reserved":false,"is_disabled":false,"rental_uris":{"android":"levelo://app?vid=b5fd17fd-ada6-4f9e-ac5f-bd5ed6acd247","ios":"levelo://app?vid=b5fd17fd-ada6-4f9e-ac5f-bd5ed6acd247"},"vehicle_type_id":"4","last_reported":1721588753,"current_range_meters":15200,"station_id":"ce4bgth2rcd13ifvqch0","pricing_plan_id":"cebpf4jnsgd1na2vs0mg"},{"bike_id":"e1f2ced9-c6e4-460d-93ee-052145e98bef","system_id":"levelo_inurba_marseille","lat":43.317075,"lon":5.377367,"is_reserved":false,"is_disabled":false,"rental_uris":{"android":"levelo://app?vid=e1f2ced9-c6e4-460d-93ee-052145e98bef","ios":"levelo://app?vid=e1f2ced9-c6e4-460d-93ee-052145e98bef"},"vehicle_type_id":"4","last_reported":1721588753,"current_range_meters":23200,"station_id":"ce4bgth2rcd13ifvqch0","pricing_plan_id":"cebpf4jnsgd1na2vs0mg"},{"bike_id":"558fc339-2f15-44ba-95cc-10246ab7422c","system_id":"levelo_inurba_marseille","lat":43.317075,"lon":5.377367,"is_reserved":false,"is_disabled":false,"rental_uris":{"android":"levelo://app?vid=558fc339-2f15-44ba-95cc-10246ab7422c","ios":"levelo://app?vid=558fc339-2f15-44ba-95cc-10246ab7422c"},"vehicle_type_id":"4","last_reported":1721588753,"current_range_meters":3600,"station_id":"ce4bgth2rcd13ifvqch0","pricing_plan_id":"cebpf4jnsgd1na2vs0mg"},{"bike_id":"33001a88-6f0f-4151-9d92-7ae33cae66b9","system_id":"levelo_inurba_marseille","lat":43.301429,"lon":5.37413,"is_reserved":false,"is_disabled":false,"rental_uris":{"android":"levelo://app?vid=33001a88-6f0f-4151-9d92-7ae33cae66b9","ios":"levelo://app?vid=33001a88-6f0f-4151-9d92-7ae33cae66b9"},"vehicle_type_id":"4","last_reported":1721588753,"current_range_meters":7600,"station_id":"ce4bgs92rcd13ifvqcc0","pricing_plan_id":"cebpf4jnsgd1na2vs0mg"},{"bike_id":"c8032b9f-992e-4914-ad0e-4aa1f360f1f0","system_id":"levelo_inurba_marseille","lat":43.303046,"lon":5.368981,"is_reserved":false,"is_disabled":false,"rental_uris":{"android":"levelo://app?vid=c8032b9f-992e-4914-ad0e-4aa1f360f1f0","ios":"levelo://app?vid=c8032b9f-992e-4914-ad0e-4aa1f360f1f0"},"vehicle_type_id":"4","last_reported":1721588753,"current_range_meters":18800,"station_id":"ce4bgqh2rcd13ifvqc5g","pricing_plan_id":"cebpf4jnsgd1na2vs0mg"},{"bike_id":"c2af6daf-d4dd-4495-9a21-df5dddd4e3ce","system_id":"levelo_inurba_marseille","lat":43.315289,"lon":5.380349,"is_reserved":false,"is_disabled":false,"rental_uris":{"android":"levelo://app?vid=c2af6daf-d4dd-4495-9a21-df5dddd4e3ce","ios":"levelo://app?vid=c2af6daf-d4dd-4495-9a21-df5dddd4e3ce"},"vehicle_type_id":"4","last_reported":1721588753,"current_range_meters":31200,"station_id":"ce4bhsp2rcd13ifvqi50","pricing_plan_id":"cebpf4jnsgd1na2vs0mg"},{"bike_id":"c69a672c-5893-4c6f-a4bc-398c0b76974c","system_id":"levelo_inurba_marseille","lat":43.315289,"lon":5.380349,"is_reserved":false,"is_disabled":false,"rental_uris":{"android":"levelo://app?vid=c69a672c-5893-4c6f-a4bc-398c0b76974c","ios":"levelo://app?vid=c69a672c-5893-4c6f-a4bc-398c0b76974c"},"vehicle_type_id":"4","last_reported":1721588753,"current_range_meters":4400,"station_id":"ce4bhsp2rcd13ifvqi50","pricing_plan_id":"cebpf4jnsgd1na2vs0mg"},{"bike_id":"4182f1a9-4633-4d8c-8c00-62346cf11dfb","system_id":"levelo_inurba_marseille","lat":43.315289,"lon":5.380349,"is_reserved":false,"is_disabled":false,"rental_uris":{"android":"levelo://app?vid=4182f1a9-4633-4d8c-8c00-62346cf11dfb","ios":"levelo://app?vid=4182f1a9-4633-4d8c-8c00-62346cf11dfb"},"vehicle_type_id":"4","last_reported":1721588753,"current_range_meters":30800,"station_id":"ce4bhsp2rcd13ifvqi50","pricing_plan_id":"cebpf4jnsgd1na2vs0mg"},{"bike_id":"00c19791-d522-4abc-b4b6-a7de48689b93","system_id":"levelo_inurba_marseille","lat":43.301939,"lon":5.366286,"is_reserved":false,"is_disabled":false,"rental_uris":{"android":"levelo://app?vid=00c19791-d522-4abc-b4b6-a7de48689b93","ios":"levelo://app?vid=00c19791-d522-4abc-b4b6-a7de48689b93"},"vehicle_type_id":"4","last_reported":1721588753,"current_range_meters":22800,"station_id":"ce4bgrh2rcd13ifvqc8g","pricing_plan_id":"cebpf4jnsgd1na2vs0mg"},{"bike_id":"4dac6784-7453-4f3b-ae37-6f9b37e3011a","system_id":"levelo_inurba_marseille","lat":43.30183,"lon":5.36595,"is_reserved":false,"is_disabled":false,"rental_uris":{"android":"levelo://app?vid=4dac6784-7453-4f3b-ae37-6f9b37e3011a","ios":"levelo://app?vid=4dac6784-7453-4f3b-ae37-6f9b37e3011a"},"vehicle_type_id":"4","last_reported":1721588753,"current_range_meters":22800,"station_id":"ce4bgrh2rcd13ifvqc8g","pricing_plan_id":"cebpf4jnsgd1na2vs0mg"},{"bike_id":"70c74561-362b-4ea3-8c26-6b980f1669e8","system_id":"levelo_inurba_marseille","lat":43.308012,"lon":5.381511,"is_reserved":false,"is_disabled":false,"rental_uris":{"android":"levelo://app?vid=70c74561-362b-4ea3-8c26-6b980f1669e8","ios":"levelo://app?vid=70c74561-362b-4ea3-8c26-6b980f1669e8"},"vehicle_type_id":"4","last_reported":1721588753,"current_range_meters":6400,"station_id":"ce4bgt12rcd13ifvqce0","pricing_plan_id":"cebpf4jnsgd1na2vs0mg"},{"bike_id":"420669c9-a9a0-48e8-b3c7-a49f7dc5666d","system_id":"levelo_inurba_marseille","lat":43.308012,"lon":5.381511,"is_reserved":false,"is_disabled":false,"rental_uris":{"android":"levelo://app?vid=420669c9-a9a0-48e8-b3c7-a49f7dc5666d","ios":"levelo://app?vid=420669c9-a9a0-48e8-b3c7-a49f7dc5666d"},"vehicle_type_id":"4","last_reported":1721588753,"current_range_meters":13600,"station_id":"ce4bgt12rcd13ifvqce0","pricing_plan_id":"cebpf4jnsgd1na2vs0mg"},{"bike_id":"cca907d5-b315-4709-9e1e-5a6e61ca8091","system_id":"levelo_inurba_marseille","lat":43.324677,"lon":5.36526,"is_reserved":false,"is_disabled":false,"rental_uris":{"android":"levelo://app?vid=cca907d5-b315-4709-9e1e-5a6e61ca8091","ios":"levelo://app?vid=cca907d5-b315-4709-9e1e-5a6e61ca8091"},"vehicle_type_id":"4","last_reported":1721588753,"current_range_meters":29200,"station_id":"ce4bhs12rcd13ifvqhvg","pricing_plan_id":"cebpf4jnsgd1na2vs0mg"},{"bike_id":"2baca4ef-0d69-4564-91f0-6aa88a9ace5b","system_id":"levelo_inurba_marseille","lat":43.32477,"lon":5.36562,"is_reserved":false,"is_disabled":false,"rental_uris":{"android":"levelo://app?vid=2baca4ef-0d69-4564-91f0-6aa88a9ace5b","ios":"levelo://app?vid=2baca4ef-0d69-4564-91f0-6aa88a9ace5b"},"vehicle_type_id":"4","last_reported":1721588753,"current_range_meters":6000,"station_id":"ce4bhs12rcd13ifvqhvg","pricing_plan_id":"cebpf4jnsgd1na2vs0mg"},{"bike_id":"751b495a-ded5-440d-924d-2bf060460f69","system_id":"levelo_inurba_marseille","lat":43.324787,"lon":5.365787,"is_reserved":false,"is_disabled":false,"rental_uris":{"android":"levelo://app?vid=751b495a-ded5-440d-924d-2bf060460f69","ios":"levelo://app?vid=751b495a-ded5-440d-924d-2bf060460f69"},"vehicle_type_id":"4","last_reported":1721588753,"current_range_meters":12800,"station_id":"ce4bhs12rcd13ifvqhvg","pricing_plan_id":"cebpf4jnsgd1na2vs0mg"},{"bike_id":"d36ada01-9704-436e-bead-e3ba678f37e7","system_id":"levelo_inurba_marseille","lat":43.3248,"lon":5.3656,"is_reserved":false,"is_disabled":false,"rental_uris":{"android":"levelo://app?vid=d36ada01-9704-436e-bead-e3ba678f37e7","ios":"levelo://app?vid=d36ada01-9704-436e-bead-e3ba678f37e7"},"vehicle_type_id":"4","last_reported":1721588753,"current_range_meters":28800,"station_id":"ce4bhs12rcd13ifvqhvg","pricing_plan_id":"cebpf4jnsgd1na2vs0mg"},{"bike_id":"3cf9f690-12ec-4ec2-8991-c2d1722723c7","system_id":"levelo_inurba_marseille","lat":43.32481,"lon":5.36565,"is_reserved":false,"is_disabled":false,"rental_uris":{"android":"levelo://app?vid=3cf9f690-12ec-4ec2-8991-c2d1722723c7","ios":"levelo://app?vid=3cf9f690-12ec-4ec2-8991-c2d1722723c7"},"vehicle_type_id":"4","last_reported":1721588753,"current_range_meters":6000,"station_id":"ce4bhs12rcd13ifvqhvg","pricing_plan_id":"cebpf4jnsgd1na2vs0mg"},{"bike_id":"b93f7c73-4e77-42cd-bee5-2ed46c2dcba0","system_id":"levelo_inurba_marseille","lat":43.3248,"lon":5.365443,"is_reserved":false,"is_disabled":false,"rental_uris":{"android":"levelo://app?vid=b93f7c73-4e77-42cd-bee5-2ed46c2dcba0","ios":"levelo://app?vid=b93f7c73-4e77-42cd-bee5-2ed46c2dcba0"},"vehicle_type_id":"4","last_reported":1721588753,"current_range_meters":30400,"station_id":"ce4bhs12rcd13ifvqhvg","pricing_plan_id":"cebpf4jnsgd1na2vs0mg"},{"bike_id":"fa7acdd3-4b4e-46d8-b6d5-ce3ba98c1061","system_id":"levelo_inurba_marseille","lat":43.3248,"lon":5.36533,"is_reserved":false,"is_disabled":false,"rental_uris":{"android":"levelo://app?vid=fa7acdd3-4b4e-46d8-b6d5-ce3ba98c1061","ios":"levelo://app?vid=fa7acdd3-4b4e-46d8-b6d5-ce3ba98c1061"},"vehicle_type_id":"4","last_reported":1721588753,"current_range_meters":24400,"station_id":"ce4bhs12rcd13ifvqhvg","pricing_plan_id":"cebpf4jnsgd1na2vs0mg"},{"bike_id":"e26e8d6f-5b99-4dec-8fd7-4acac3bae8f7","system_id":"levelo_inurba_marseille","lat":43.32489,"lon":5.36557,"is_reserved":false,"is_disabled":false,"rental_uris":{"android":"levelo://app?vid=e26e8d6f-5b99-4dec-8fd7-4acac3bae8f7","ios":"levelo://app?vid=e26e8d6f-5b99-4dec-8fd7-4acac3bae8f7"},"vehicle_type_id":"4","last_reported":1721588753,"current_range_meters":27200,"station_id":"ce4bhs12rcd13ifvqhvg","pricing_plan_id":"cebpf4jnsgd1na2vs0mg"},{"bike_id":"7727b4bf-2d90-4e22-9bd0-a870eeb75029","system_id":"levelo_inurba_marseille","lat":43.310804,"lon":5.38359,"is_reserved":false,"is_disabled":false,"rental_uris":{"android":"levelo://app?vid=7727b4bf-2d90-4e22-9bd0-a870eeb75029","ios":"levelo://app?vid=7727b4bf-2d90-4e22-9bd0-a870eeb75029"},"vehicle_type_id":"4","last_reported":1721588753,"current_range_meters":4000,"station_id":"ce4bgv92rcd13ifvqcr0","pricing_plan_id":"cebpf4jnsgd1na2vs0mg"},{"bike_id":"ed1541f7-c5fe-471a-b1fe-2f4c39748c77","system_id":"levelo_inurba_marseille","lat":43.30271,"lon":5.37713,"is_reserved":false,"is_disabled":false,"rental_uris":{"android":"levelo://app?vid=ed1541f7-c5fe-471a-b1fe-2f4c39748c77","ios":"levelo://app?vid=ed1541f7-c5fe-471a-b1fe-2f4c39748c77"},"vehicle_type_id":"4","last_reported":1721588753,"current_range_meters":16000,"station_id":"ce4bguh2rcd13ifvqcj0","pricing_plan_id":"cebpf4jnsgd1na2vs0mg"},{"bike_id":"c7995120-3995-405f-8dd5-7294629cc4d8","system_id":"levelo_inurba_marseille","lat":43.319935,"lon":5.381699,"is_reserved":false,"is_disabled":false,"rental_uris":{"android":"levelo://app?vid=c7995120-3995-405f-8dd5-7294629cc4d8","ios":"levelo://app?vid=c7995120-3995-405f-8dd5-7294629cc4d8"},"vehicle_type_id":"4","last_reported":1721588753,"current_range_meters":26000,"station_id":"ce4bhr12rcd13ifvqhpg","pricing_plan_id":"cebpf4jnsgd1na2vs0mg"},{"bike_id":"999339ad-dfc0-421b-9be0-1cee6a0845aa","system_id":"levelo_inurba_marseille","lat":43.31357,"lon":5.38489,"is_reserved":false,"is_disabled":false,"rental_uris":{"android":"levelo://app?vid=999339ad-dfc0-421b-9be0-1cee6a0845aa","ios":"levelo://app?vid=999339ad-dfc0-421b-9be0-1cee6a0845aa"},"vehicle_type_id":"4","last_reported":1721588753,"current_range_meters":0,"station_id":"ce4bgt92rcd13ifvqcf0","pricing_plan_id":"cebpf4jnsgd1na2vs0mg"},{"bike_id":"a91cc37e-e272-4ae4-8d77-4a776fa76ddf","system_id":"levelo_inurba_marseille","lat":43.29975,"lon":5.37169,"is_reserved":false,"is_disabled":false,"rental_uris":{"android":"levelo://app?vid=a91cc37e-e272-4ae4-8d77-4a776fa76ddf","ios":"levelo://app?vid=a91cc37e-e272-4ae4-8d77-4a776fa76ddf"},"vehicle_type_id":"4","last_reported":1721588753,"current_range_meters":10000,"station_id":"ce4bgr92rcd13ifvqc7g","pricing_plan_id":"cebpf4jnsgd1na2vs0mg"},{"bike_id":"a5d5a1ac-c6be-42ef-872e-5297d61db603","system_id":"levelo_inurba_marseille","lat":43.305364,"lon":5.384119,"is_reserved":false,"is_disabled":false,"rental_uris":{"android":"levelo://app?vid=a5d5a1ac-c6be-42ef-872e-5297d61db603","ios":"levelo://app?vid=a5d5a1ac-c6be-42ef-872e-5297d61db603"},"vehicle_type_id":"4","last_reported":1721588753,"current_range_meters":5600,"station_id":"ce4bgg92rcd13ifvqb30","pricing_plan_id":"cebpf4jnsgd1na2vs0mg"},{"bike_id":"337b7aeb-a4db-4a81-a3e2-81f2ba3f0ac5","system_id":"levelo_inurba_marseille","lat":43.311722,"lon":5.387247,"is_reserved":false,"is_disabled":false,"rental_uris":{"android":"levelo://app?vid=337b7aeb-a4db-4a81-a3e2-81f2ba3f0ac5","ios":"levelo://app?vid=337b7aeb-a4db-4a81-a3e2-81f2ba3f0ac5"},"vehicle_type_id":"4","last_reported":1721588753,"current_range_meters":0,"station_id":"ce4bgv12rcd13ifvqcp0","pricing_plan_id":"cebpf4jnsgd1na2vs0mg"},{"bike_id":"91c34503-24e9-4b9c-b91d-a8140c22a636","system_id":"levelo_inurba_marseille","lat":43.299243,"lon":5.37481,"is_reserved":false,"is_disabled":false,"rental_uris":{"android":"levelo://app?vid=91c34503-24e9-4b9c-b91d-a8140c22a636","ios":"levelo://app?vid=91c34503-24e9-4b9c-b91d-a8140c22a636"},"vehicle_type_id":"4","last_reported":1721588753,"current_range_meters":17200,"station_id":"ce4bgjh2rcd13ifvqbg0","pricing_plan_id":"cebpf4jnsgd1na2vs0mg"},{"bike_id":"3ee5ef8c-ccc5-4de0-820d-99218e22cd84","system_id":"levelo_inurba_marseille","lat":43.311722,"lon":5.387247,"is_reserved":false,"is_disabled":false,"rental_uris":{"android":"levelo://app?vid=3ee5ef8c-ccc5-4de0-820d-99218e22cd84","ios":"levelo://app?vid=3ee5ef8c-ccc5-4de0-820d-99218e22cd84"},"vehicle_type_id":"4","last_reported":1721588753,"current_range_meters":800,"station_id":"ce4bgv12rcd13ifvqcp0","pricing_plan_id":"cebpf4jnsgd1na2vs0mg"},{"bike_id":"5e66a98c-7fc3-4cff-a069-20545dff3ed9","system_id":"levelo_inurba_marseille","lat":43.32279,"lon":5.38263,"is_reserved":false,"is_disabled":false,"rental_uris":{"android":"levelo://app?vid=5e66a98c-7fc3-4cff-a069-20545dff3ed9","ios":"levelo://app?vid=5e66a98c-7fc3-4cff-a069-20545dff3ed9"},"vehicle_type_id":"4","last_reported":1721588753,"current_range_meters":13200,"station_id":"ce4bhr12rcd13ifvqhqg","pricing_plan_id":"cebpf4jnsgd1na2vs0mg"},{"bike_id":"765d6a12-e855-4cff-afe8-80cc1fb85794","system_id":"levelo_inurba_marseille","lat":43.322881,"lon":5.382581,"is_reserved":false,"is_disabled":false,"rental_uris":{"android":"levelo://app?vid=765d6a12-e855-4cff-afe8-80cc1fb85794","ios":"levelo://app?vid=765d6a12-e855-4cff-afe8-80cc1fb85794"},"vehicle_type_id":"4","last_reported":1721588753,"current_range_meters":23200,"station_id":"ce4bhr12rcd13ifvqhqg","pricing_plan_id":"cebpf4jnsgd1na2vs0mg"},{"bike_id":"c1c1198b-922e-42d2-b46a-8cbc2f26f481","system_id":"levelo_inurba_marseille","lat":43.297794,"lon":5.370888,"is_reserved":false,"is_disabled":false,"rental_uris":{"android":"levelo://app?vid=c1c1198b-922e-42d2-b46a-8cbc2f26f481","ios":"levelo://app?vid=c1c1198b-922e-42d2-b46a-8cbc2f26f481"},"vehicle_type_id":"4","last_reported":1721588753,"current_range_meters":7600,"station_id":"ce4bgop2rcd13ifvqc1g","pricing_plan_id":"cebpf4jnsgd1na2vs0mg"},{"bike_id":"8117cde1-ddf4-42b1-815f-0e933d18614f","system_id":"levelo_inurba_marseille","lat":43.298769,"lon":5.375379,"is_reserved":false,"is_disabled":false,"rental_uris":{"android":"levelo://app?vid=8117cde1-ddf4-42b1-815f-0e933d18614f","ios":"levelo://app?vid=8117cde1-ddf4-42b1-815f-0e933d18614f"},"vehicle_type_id":"4","last_reported":1721588753,"current_range_meters":16800,"station_id":"","pricing_plan_id":"cebpf4jnsgd1na2vs0mg"},{"bike_id":"77b2323a-b4ee-4a99-ba00-b7410191cbd0","system_id":"levelo_inurba_marseille","lat":43.32286,"lon":5.38265,"is_reserved":false,"is_disabled":false,"rental_uris":{"android":"levelo://app?vid=77b2323a-b4ee-4a99-ba00-b7410191cbd0","ios":"levelo://app?vid=77b2323a-b4ee-4a99-ba00-b7410191cbd0"},"vehicle_type_id":"4","last_reported":1721588753,"current_range_meters":27600,"station_id":"ce4bhr12rcd13ifvqhqg","pricing_plan_id":"cebpf4jnsgd1na2vs0mg"},{"bike_id":"47511488-9e51-407f-95c1-0129806c910f","system_id":"levelo_inurba_marseille","lat":43.32292,"lon":5.38258,"is_reserved":false,"is_disabled":false,"rental_uris":{"android":"levelo://app?vid=47511488-9e51-407f-95c1-0129806c910f","ios":"levelo://app?vid=47511488-9e51-407f-95c1-0129806c910f"},"vehicle_type_id":"4","last_reported":1721588753,"current_range_meters":23600,"station_id":"ce4bhr12rcd13ifvqhqg","pricing_plan_id":"cebpf4jnsgd1na2vs0mg"},{"bike_id":"5e80d656-9ab3-4bef-be91-0a5f796da40b","system_id":"levelo_inurba_marseille","lat":43.297774,"lon":5.370875,"is_reserved":false,"is_disabled":false,"rental_uris":{"android":"levelo://app?vid=5e80d656-9ab3-4bef-be91-0a5f796da40b","ios":"levelo://app?vid=5e80d656-9ab3-4bef-be91-0a5f796da40b"},"vehicle_type_id":"4","last_reported":1721588753,"current_range_meters":10800,"station_id":"ce4bgop2rcd13ifvqc1g","pricing_plan_id":"cebpf4jnsgd1na2vs0mg"},{"bike_id":"cf301f15-85eb-45ee-a491-23bfeed05b8f","system_id":"levelo_inurba_marseille","lat":43.322872,"lon":5.382756,"is_reserved":false,"is_disabled":false,"rental_uris":{"android":"levelo://app?vid=cf301f15-85eb-45ee-a491-23bfeed05b8f","ios":"levelo://app?vid=cf301f15-85eb-45ee-a491-23bfeed05b8f"},"vehicle_type_id":"4","last_reported":1721588753,"current_range_meters":28800,"station_id":"ce4bhr12rcd13ifvqhqg","pricing_plan_id":"cebpf4jnsgd1na2vs0mg"},{"bike_id":"8bbb2f7b-401f-4d2b-a904-5ff22178f105","system_id":"levelo_inurba_marseille","lat":43.322872,"lon":5.382756,"is_reserved":false,"is_disabled":false,"rental_uris":{"android":"levelo://app?vid=8bbb2f7b-401f-4d2b-a904-5ff22178f105","ios":"levelo://app?vid=8bbb2f7b-401f-4d2b-a904-5ff22178f105"},"vehicle_type_id":"4","last_reported":1721588753,"current_range_meters":30000,"station_id":"ce4bhr12rcd13ifvqhqg","pricing_plan_id":"cebpf4jnsgd1na2vs0mg"},{"bike_id":"8cf1bcd7-c540-4393-83fb-58652ed92bc5","system_id":"levelo_inurba_marseille","lat":43.322872,"lon":5.382756,"is_reserved":false,"is_disabled":false,"rental_uris":{"android":"levelo://app?vid=8cf1bcd7-c540-4393-83fb-58652ed92bc5","ios":"levelo://app?vid=8cf1bcd7-c540-4393-83fb-58652ed92bc5"},"vehicle_type_id":"4","last_reported":1721588753,"current_range_meters":30400,"station_id":"ce4bhr12rcd13ifvqhqg","pricing_plan_id":"cebpf4jnsgd1na2vs0mg"},{"bike_id":"05f419f0-7d10-4683-a23a-e930531839f5","system_id":"levelo_inurba_marseille","lat":43.322872,"lon":5.382756,"is_reserved":false,"is_disabled":false,"rental_uris":{"android":"levelo://app?vid=05f419f0-7d10-4683-a23a-e930531839f5","ios":"levelo://app?vid=05f419f0-7d10-4683-a23a-e930531839f5"},"vehicle_type_id":"4","last_reported":1721588753,"current_range_meters":31200,"station_id":"ce4bhr12rcd13ifvqhqg","pricing_plan_id":"cebpf4jnsgd1na2vs0mg"},{"bike_id":"c6a8292a-ec4f-4f0f-af73-d7f7d0097988","system_id":"levelo_inurba_marseille","lat":43.297163,"lon":5.365866,"is_reserved":false,"is_disabled":false,"rental_uris":{"android":"levelo://app?vid=c6a8292a-ec4f-4f0f-af73-d7f7d0097988","ios":"levelo://app?vid=c6a8292a-ec4f-4f0f-af73-d7f7d0097988"},"vehicle_type_id":"4","last_reported":1721588753,"current_range_meters":14000,"station_id":"ce4bgn12rcd13ifvqbt0","pricing_plan_id":"cebpf4jnsgd1na2vs0mg"},{"bike_id":"c8e5c32d-6b30-4529-afb0-d4cfec51a871","system_id":"levelo_inurba_marseille","lat":43.297163,"lon":5.365866,"is_reserved":false,"is_disabled":false,"rental_uris":{"android":"levelo://app?vid=c8e5c32d-6b30-4529-afb0-d4cfec51a871","ios":"levelo://app?vid=c8e5c32d-6b30-4529-afb0-d4cfec51a871"},"vehicle_type_id":"4","last_reported":1721588753,"current_range_meters":8800,"station_id":"ce4bgn12rcd13ifvqbt0","pricing_plan_id":"cebpf4jnsgd1na2vs0mg"},{"bike_id":"a5ddb84c-03e2-4d9b-b2b2-6c528b168170","system_id":"levelo_inurba_marseille","lat":43.297163,"lon":5.365866,"is_reserved":false,"is_disabled":false,"rental_uris":{"android":"levelo://app?vid=a5ddb84c-03e2-4d9b-b2b2-6c528b168170","ios":"levelo://app?vid=a5ddb84c-03e2-4d9b-b2b2-6c528b168170"},"vehicle_type_id":"4","last_reported":1721588753,"current_range_meters":22000,"station_id":"ce4bgn12rcd13ifvqbt0","pricing_plan_id":"cebpf4jnsgd1na2vs0mg"},{"bike_id":"fb1a7708-5a56-4b44-9b4e-3263bd0b3627","system_id":"levelo_inurba_marseille","lat":43.297163,"lon":5.365866,"is_reserved":false,"is_disabled":false,"rental_uris":{"android":"levelo://app?vid=fb1a7708-5a56-4b44-9b4e-3263bd0b3627","ios":"levelo://app?vid=fb1a7708-5a56-4b44-9b4e-3263bd0b3627"},"vehicle_type_id":"4","last_reported":1721588753,"current_range_meters":20800,"station_id":"ce4bgn12rcd13ifvqbt0","pricing_plan_id":"cebpf4jnsgd1na2vs0mg"},{"bike_id":"4f071ffb-ae52-429f-bc2e-669cd2ae2229","system_id":"levelo_inurba_marseille","lat":43.29607,"lon":5.36944,"is_reserved":false,"is_disabled":false,"rental_uris":{"android":"levelo://app?vid=4f071ffb-ae52-429f-bc2e-669cd2ae2229","ios":"levelo://app?vid=4f071ffb-ae52-429f-bc2e-669cd2ae2229"},"vehicle_type_id":"4","last_reported":1721588753,"current_range_meters":4800,"station_id":"","pricing_plan_id":"cebpf4jnsgd1na2vs0mg"},{"bike_id":"bfc039a4-96b7-47c7-8d69-2eeeb81b3971","system_id":"levelo_inurba_marseille","lat":43.29605,"lon":5.36947,"is_reserved":false,"is_disabled":false,"rental_uris":{"android":"levelo://app?vid=bfc039a4-96b7-47c7-8d69-2eeeb81b3971","ios":"levelo://app?vid=bfc039a4-96b7-47c7-8d69-2eeeb81b3971"},"vehicle_type_id":"4","last_reported":1721588753,"current_range_meters":7600,"station_id":"","pricing_plan_id":"cebpf4jnsgd1na2vs0mg"},{"bike_id":"a60da848-6125-4677-b3d4-34009a8dd39a","system_id":"levelo_inurba_marseille","lat":43.2962,"lon":5.37096,"is_reserved":false,"is_disabled":false,"rental_uris":{"android":"levelo://app?vid=a60da848-6125-4677-b3d4-34009a8dd39a","ios":"levelo://app?vid=a60da848-6125-4677-b3d4-34009a8dd39a"},"vehicle_type_id":"4","last_reported":1721588753,"current_range_meters":4000,"station_id":"","pricing_plan_id":"cebpf4jnsgd1na2vs0mg"},{"bike_id":"4ad080ee-89b0-4955-b26d-337b754d5c6f","system_id":"levelo_inurba_marseille","lat":43.296131,"lon":5.370791,"is_reserved":false,"is_disabled":false,"rental_uris":{"android":"levelo://app?vid=4ad080ee-89b0-4955-b26d-337b754d5c6f","ios":"levelo://app?vid=4ad080ee-89b0-4955-b26d-337b754d5c6f"},"vehicle_type_id":"4","last_reported":1721588753,"current_range_meters":800,"station_id":"ce4bgnh2rcd13ifvqc0g","pricing_plan_id":"cebpf4jnsgd1na2vs0mg"},{"bike_id":"3e016a57-874c-43e4-a86b-618e668e96d2","system_id":"levelo_inurba_marseille","lat":43.29573,"lon":5.367355,"is_reserved":false,"is_disabled":false,"rental_uris":{"android":"levelo://app?vid=3e016a57-874c-43e4-a86b-618e668e96d2","ios":"levelo://app?vid=3e016a57-874c-43e4-a86b-618e668e96d2"},"vehicle_type_id":"4","last_reported":1721588753,"current_range_meters":28000,"station_id":"ce4bgph2rcd13ifvqc2g","pricing_plan_id":"cebpf4jnsgd1na2vs0mg"},{"bike_id":"37da94d3-d9fc-4cf8-aade-1b7ff13f9571","system_id":"levelo_inurba_marseille","lat":43.29573,"lon":5.367355,"is_reserved":false,"is_disabled":false,"rental_uris":{"android":"levelo://app?vid=37da94d3-d9fc-4cf8-aade-1b7ff13f9571","ios":"levelo://app?vid=37da94d3-d9fc-4cf8-aade-1b7ff13f9571"},"vehicle_type_id":"4","last_reported":1721588753,"current_range_meters":26400,"station_id":"ce4bgph2rcd13ifvqc2g","pricing_plan_id":"cebpf4jnsgd1na2vs0mg"},{"bike_id":"082ba899-132d-4cc3-a75c-14eba10cefa0","system_id":"levelo_inurba_marseille","lat":43.29573,"lon":5.367355,"is_reserved":false,"is_disabled":false,"rental_uris":{"android":"levelo://app?vid=082ba899-132d-4cc3-a75c-14eba10cefa0","ios":"levelo://app?vid=082ba899-132d-4cc3-a75c-14eba10cefa0"},"vehicle_type_id":"4","last_reported":1721588753,"current_range_meters":20000,"station_id":"ce4bgph2rcd13ifvqc2g","pricing_plan_id":"cebpf4jnsgd1na2vs0mg"},{"bike_id":"baec4984-9342-4f8c-860e-2fd6ee24cf54","system_id":"levelo_inurba_marseille","lat":43.299028,"lon":5.381509,"is_reserved":false,"is_disabled":false,"rental_uris":{"android":"levelo://app?vid=baec4984-9342-4f8c-860e-2fd6ee24cf54","ios":"levelo://app?vid=baec4984-9342-4f8c-860e-2fd6ee24cf54"},"vehicle_type_id":"4","last_reported":1721588753,"current_range_meters":18400,"station_id":"ce4bgj12rcd13ifvqbc0","pricing_plan_id":"cebpf4jnsgd1na2vs0mg"},{"bike_id":"6f543396-87e9-44c0-b572-656bedfb5689","system_id":"levelo_inurba_marseille","lat":43.296935,"lon":5.376544,"is_reserved":false,"is_disabled":false,"rental_uris":{"android":"levelo://app?vid=6f543396-87e9-44c0-b572-656bedfb5689","ios":"levelo://app?vid=6f543396-87e9-44c0-b572-656bedfb5689"},"vehicle_type_id":"4","last_reported":1721588753,"current_range_meters":20000,"station_id":"ce4bgkh2rcd13ifvqbl0","pricing_plan_id":"cebpf4jnsgd1na2vs0mg"},{"bike_id":"42e5c8bd-bb15-49a8-b7c6-53c985e8ddb8","system_id":"levelo_inurba_marseille","lat":43.299028,"lon":5.381509,"is_reserved":false,"is_disabled":false,"rental_uris":{"android":"levelo://app?vid=42e5c8bd-bb15-49a8-b7c6-53c985e8ddb8","ios":"levelo://app?vid=42e5c8bd-bb15-49a8-b7c6-53c985e8ddb8"},"vehicle_type_id":"4","last_reported":1721588753,"current_range_meters":30000,"station_id":"ce4bgj12rcd13ifvqbc0","pricing_plan_id":"cebpf4jnsgd1na2vs0mg"},{"bike_id":"8f08a644-ffff-4b4d-9b82-074c35eab405","system_id":"levelo_inurba_marseille","lat":43.29579,"lon":5.37514,"is_reserved":false,"is_disabled":false,"rental_uris":{"android":"levelo://app?vid=8f08a644-ffff-4b4d-9b82-074c35eab405","ios":"levelo://app?vid=8f08a644-ffff-4b4d-9b82-074c35eab405"},"vehicle_type_id":"4","last_reported":1721588753,"current_range_meters":9600,"station_id":"ce4bgh92rcd13ifvqb50","pricing_plan_id":"cebpf4jnsgd1na2vs0mg"},{"bike_id":"c0e45d01-b8c8-43b5-ac9b-b90094c87f24","system_id":"levelo_inurba_marseille","lat":43.304278,"lon":5.388868,"is_reserved":false,"is_disabled":false,"rental_uris":{"android":"levelo://app?vid=c0e45d01-b8c8-43b5-ac9b-b90094c87f24","ios":"levelo://app?vid=c0e45d01-b8c8-43b5-ac9b-b90094c87f24"},"vehicle_type_id":"4","last_reported":1721588753,"current_range_meters":13200,"station_id":"ce4bgk12rcd13ifvqbi0","pricing_plan_id":"cebpf4jnsgd1na2vs0mg"},{"bike_id":"516b21ec-1443-4840-a809-e20a761ec476","system_id":"levelo_inurba_marseille","lat":43.295748,"lon":5.37522,"is_reserved":false,"is_disabled":false,"rental_uris":{"android":"levelo://app?vid=516b21ec-1443-4840-a809-e20a761ec476","ios":"levelo://app?vid=516b21ec-1443-4840-a809-e20a761ec476"},"vehicle_type_id":"4","last_reported":1721588753,"current_range_meters":24000,"station_id":"ce4bgh92rcd13ifvqb50","pricing_plan_id":"cebpf4jnsgd1na2vs0mg"},{"bike_id":"db50b660-f759-44aa-9617-02caf04faab1","system_id":"levelo_inurba_marseille","lat":43.295748,"lon":5.37522,"is_reserved":false,"is_disabled":false,"rental_uris":{"android":"levelo://app?vid=db50b660-f759-44aa-9617-02caf04faab1","ios":"levelo://app?vid=db50b660-f759-44aa-9617-02caf04faab1"},"vehicle_type_id":"4","last_reported":1721588753,"current_range_meters":7200,"station_id":"ce4bgh92rcd13ifvqb50","pricing_plan_id":"cebpf4jnsgd1na2vs0mg"},{"bike_id":"e1325c3d-445f-49ed-ab6e-933a080de9c6","system_id":"levelo_inurba_marseille","lat":43.295748,"lon":5.37522,"is_reserved":false,"is_disabled":false,"rental_uris":{"android":"levelo://app?vid=e1325c3d-445f-49ed-ab6e-933a080de9c6","ios":"levelo://app?vid=e1325c3d-445f-49ed-ab6e-933a080de9c6"},"vehicle_type_id":"4","last_reported":1721588753,"current_range_meters":25600,"station_id":"ce4bgh92rcd13ifvqb50","pricing_plan_id":"cebpf4jnsgd1na2vs0mg"},{"bike_id":"aaa27635-dd55-4165-8f2d-06bc7c1a3027","system_id":"levelo_inurba_marseille","lat":43.296263,"lon":5.377094,"is_reserved":false,"is_disabled":false,"rental_uris":{"android":"levelo://app?vid=aaa27635-dd55-4165-8f2d-06bc7c1a3027","ios":"levelo://app?vid=aaa27635-dd55-4165-8f2d-06bc7c1a3027"},"vehicle_type_id":"4","last_reported":1721588753,"current_range_meters":0,"station_id":"ce4bgi92rcd13ifvqb90","pricing_plan_id":"cebpf4jnsgd1na2vs0mg"},{"bike_id":"1d9283e0-4dd6-478d-8ce6-b57c76c5bfcf","system_id":"levelo_inurba_marseille","lat":43.296263,"lon":5.377094,"is_reserved":false,"is_disabled":false,"rental_uris":{"android":"levelo://app?vid=1d9283e0-4dd6-478d-8ce6-b57c76c5bfcf","ios":"levelo://app?vid=1d9283e0-4dd6-478d-8ce6-b57c76c5bfcf"},"vehicle_type_id":"4","last_reported":1721588753,"current_range_meters":24000,"station_id":"ce4bgi92rcd13ifvqb90","pricing_plan_id":"cebpf4jnsgd1na2vs0mg"},{"bike_id":"2bd89fb5-bf44-4a0d-9481-bb551024315b","system_id":"levelo_inurba_marseille","lat":43.295279,"lon":5.375048,"is_reserved":false,"is_disabled":false,"rental_uris":{"android":"levelo://app?vid=2bd89fb5-bf44-4a0d-9481-bb551024315b","ios":"levelo://app?vid=2bd89fb5-bf44-4a0d-9481-bb551024315b"},"vehicle_type_id":"4","last_reported":1721588753,"current_range_meters":14000,"station_id":"ce4bgkp2rcd13ifvqbmg","pricing_plan_id":"cebpf4jnsgd1na2vs0mg"},{"bike_id":"ecd68958-7d38-48a7-add1-dfba011117d1","system_id":"levelo_inurba_marseille","lat":43.295279,"lon":5.375048,"is_reserved":false,"is_disabled":false,"rental_uris":{"android":"levelo://app?vid=ecd68958-7d38-48a7-add1-dfba011117d1","ios":"levelo://app?vid=ecd68958-7d38-48a7-add1-dfba011117d1"},"vehicle_type_id":"4","last_reported":1721588753,"current_range_meters":30800,"station_id":"ce4bgkp2rcd13ifvqbmg","pricing_plan_id":"cebpf4jnsgd1na2vs0mg"},{"bike_id":"18491e9b-089a-423d-92a6-2224fb4ac1cb","system_id":"levelo_inurba_marseille","lat":43.30473,"lon":5.39011,"is_reserved":false,"is_disabled":false,"rental_uris":{"android":"levelo://app?vid=18491e9b-089a-423d-92a6-2224fb4ac1cb","ios":"levelo://app?vid=18491e9b-089a-423d-92a6-2224fb4ac1cb"},"vehicle_type_id":"4","last_reported":1721588753,"current_range_meters":0,"station_id":"","pricing_plan_id":"cebpf4jnsgd1na2vs0mg"},{"bike_id":"da9008d6-309f-418e-aea1-ea51db182d48","system_id":"levelo_inurba_marseille","lat":43.301396,"lon":5.387812,"is_reserved":false,"is_disabled":false,"rental_uris":{"android":"levelo://app?vid=da9008d6-309f-418e-aea1-ea51db182d48","ios":"levelo://app?vid=da9008d6-309f-418e-aea1-ea51db182d48"},"vehicle_type_id":"4","last_reported":1721588753,"current_range_meters":16000,"station_id":"ce4bghh2rcd13ifvqb60","pricing_plan_id":"cebpf4jnsgd1na2vs0mg"},{"bike_id":"2af7dd86-6169-4e21-b0ae-50b0efde0ad2","system_id":"levelo_inurba_marseille","lat":43.296556,"lon":5.381175,"is_reserved":false,"is_disabled":false,"rental_uris":{"android":"levelo://app?vid=2af7dd86-6169-4e21-b0ae-50b0efde0ad2","ios":"levelo://app?vid=2af7dd86-6169-4e21-b0ae-50b0efde0ad2"},"vehicle_type_id":"4","last_reported":1721588753,"current_range_meters":23600,"station_id":"","pricing_plan_id":"cebpf4jnsgd1na2vs0mg"},{"bike_id":"405c5694-2acd-42d8-aef3-a745144f4eb7","system_id":"levelo_inurba_marseille","lat":43.32368,"lon":5.388713,"is_reserved":false,"is_disabled":false,"rental_uris":{"android":"levelo://app?vid=405c5694-2acd-42d8-aef3-a745144f4eb7","ios":"levelo://app?vid=405c5694-2acd-42d8-aef3-a745144f4eb7"},"vehicle_type_id":"4","last_reported":1721588753,"current_range_meters":1600,"station_id":"ce4bhqp2rcd13ifvqhog","pricing_plan_id":"cebpf4jnsgd1na2vs0mg"},{"bike_id":"0df18f18-c3bc-4890-9514-33265fce11bd","system_id":"levelo_inurba_marseille","lat":43.32366,"lon":5.38878,"is_reserved":false,"is_disabled":false,"rental_uris":{"android":"levelo://app?vid=0df18f18-c3bc-4890-9514-33265fce11bd","ios":"levelo://app?vid=0df18f18-c3bc-4890-9514-33265fce11bd"},"vehicle_type_id":"4","last_reported":1721588753,"current_range_meters":4800,"station_id":"ce4bhqp2rcd13ifvqhog","pricing_plan_id":"cebpf4jnsgd1na2vs0mg"},{"bike_id":"6a3cab3d-f70b-4468-8583-0dd127dfd743","system_id":"levelo_inurba_marseille","lat":43.32368,"lon":5.38877,"is_reserved":false,"is_disabled":false,"rental_uris":{"android":"levelo://app?vid=6a3cab3d-f70b-4468-8583-0dd127dfd743","ios":"levelo://app?vid=6a3cab3d-f70b-4468-8583-0dd127dfd743"},"vehicle_type_id":"4","last_reported":1721588753,"current_range_meters":20800,"station_id":"ce4bhqp2rcd13ifvqhog","pricing_plan_id":"cebpf4jnsgd1na2vs0mg"},{"bike_id":"ad318520-997b-43f0-8e9e-acf04dff00d5","system_id":"levelo_inurba_marseille","lat":43.32367,"lon":5.3888,"is_reserved":false,"is_disabled":false,"rental_uris":{"android":"levelo://app?vid=ad318520-997b-43f0-8e9e-acf04dff00d5","ios":"levelo://app?vid=ad318520-997b-43f0-8e9e-acf04dff00d5"},"vehicle_type_id":"4","last_reported":1721588753,"current_range_meters":10000,"station_id":"ce4bhqp2rcd13ifvqhog","pricing_plan_id":"cebpf4jnsgd1na2vs0mg"},{"bike_id":"e76e1216-80c6-440d-9de7-7f99b52d91b9","system_id":"levelo_inurba_marseille","lat":43.32367,"lon":5.388836,"is_reserved":false,"is_disabled":false,"rental_uris":{"android":"levelo://app?vid=e76e1216-80c6-440d-9de7-7f99b52d91b9","ios":"levelo://app?vid=e76e1216-80c6-440d-9de7-7f99b52d91b9"},"vehicle_type_id":"4","last_reported":1721588753,"current_range_meters":6800,"station_id":"ce4bhqp2rcd13ifvqhog","pricing_plan_id":"cebpf4jnsgd1na2vs0mg"},{"bike_id":"9a72d5e6-1f0f-4b75-9360-92565f1ee587","system_id":"levelo_inurba_marseille","lat":43.32367,"lon":5.388836,"is_reserved":false,"is_disabled":false,"rental_uris":{"android":"levelo://app?vid=9a72d5e6-1f0f-4b75-9360-92565f1ee587","ios":"levelo://app?vid=9a72d5e6-1f0f-4b75-9360-92565f1ee587"},"vehicle_type_id":"4","last_reported":1721588753,"current_range_meters":10800,"station_id":"ce4bhqp2rcd13ifvqhog","pricing_plan_id":"cebpf4jnsgd1na2vs0mg"},{"bike_id":"9238307d-215a-4ea1-a17a-2d901f0eeef1","system_id":"levelo_inurba_marseille","lat":43.29602,"lon":5.381084,"is_reserved":false,"is_disabled":false,"rental_uris":{"android":"levelo://app?vid=9238307d-215a-4ea1-a17a-2d901f0eeef1","ios":"levelo://app?vid=9238307d-215a-4ea1-a17a-2d901f0eeef1"},"vehicle_type_id":"4","last_reported":1721588753,"current_range_meters":0,"station_id":"ce4bgl12rcd13ifvqbo0","pricing_plan_id":"cebpf4jnsgd1na2vs0mg"},{"bike_id":"6ec5d0f4-5ede-4de3-81bf-474ebc1ec1a5","system_id":"levelo_inurba_marseille","lat":43.29602,"lon":5.381084,"is_reserved":false,"is_disabled":false,"rental_uris":{"android":"levelo://app?vid=6ec5d0f4-5ede-4de3-81bf-474ebc1ec1a5","ios":"levelo://app?vid=6ec5d0f4-5ede-4de3-81bf-474ebc1ec1a5"},"vehicle_type_id":"4","last_reported":1721588753,"current_range_meters":25600,"station_id":"ce4bgl12rcd13ifvqbo0","pricing_plan_id":"cebpf4jnsgd1na2vs0mg"},{"bike_id":"a714632d-44c0-4d33-8aa9-55a02a942e0d","system_id":"levelo_inurba_marseille","lat":43.325174,"lon":5.387797,"is_reserved":false,"is_disabled":false,"rental_uris":{"android":"levelo://app?vid=a714632d-44c0-4d33-8aa9-55a02a942e0d","ios":"levelo://app?vid=a714632d-44c0-4d33-8aa9-55a02a942e0d"},"vehicle_type_id":"4","last_reported":1721588753,"current_range_meters":5600,"station_id":"","pricing_plan_id":"cebpf4jnsgd1na2vs0mg"},{"bike_id":"51d40ae6-e68f-417f-a360-c0d9604e41d9","system_id":"levelo_inurba_marseille","lat":43.29602,"lon":5.381084,"is_reserved":false,"is_disabled":false,"rental_uris":{"android":"levelo://app?vid=51d40ae6-e68f-417f-a360-c0d9604e41d9","ios":"levelo://app?vid=51d40ae6-e68f-417f-a360-c0d9604e41d9"},"vehicle_type_id":"4","last_reported":1721588753,"current_range_meters":27600,"station_id":"ce4bgl12rcd13ifvqbo0","pricing_plan_id":"cebpf4jnsgd1na2vs0mg"},{"bike_id":"94b28e0f-2284-45ec-80de-5fbac555daee","system_id":"levelo_inurba_marseille","lat":43.292749,"lon":5.368398,"is_reserved":false,"is_disabled":false,"rental_uris":{"android":"levelo://app?vid=94b28e0f-2284-45ec-80de-5fbac555daee","ios":"levelo://app?vid=94b28e0f-2284-45ec-80de-5fbac555daee"},"vehicle_type_id":"4","last_reported":1721588753,"current_range_meters":0,"station_id":"ce4bhbp2rcd13ifvqesg","pricing_plan_id":"cebpf4jnsgd1na2vs0mg"},{"bike_id":"994d8637-e263-496f-b980-8b15382f07cc","system_id":"levelo_inurba_marseille","lat":43.292749,"lon":5.368402,"is_reserved":false,"is_disabled":false,"rental_uris":{"android":"levelo://app?vid=994d8637-e263-496f-b980-8b15382f07cc","ios":"levelo://app?vid=994d8637-e263-496f-b980-8b15382f07cc"},"vehicle_type_id":"4","last_reported":1721588753,"current_range_meters":0,"station_id":"ce4bhbp2rcd13ifvqesg","pricing_plan_id":"cebpf4jnsgd1na2vs0mg"},{"bike_id":"35da5184-86d1-41dc-bd75-ed05c2968b0b","system_id":"levelo_inurba_marseille","lat":43.292749,"lon":5.368398,"is_reserved":false,"is_disabled":false,"rental_uris":{"android":"levelo://app?vid=35da5184-86d1-41dc-bd75-ed05c2968b0b","ios":"levelo://app?vid=35da5184-86d1-41dc-bd75-ed05c2968b0b"},"vehicle_type_id":"4","last_reported":1721588753,"current_range_meters":2000,"station_id":"ce4bhbp2rcd13ifvqesg","pricing_plan_id":"cebpf4jnsgd1na2vs0mg"},{"bike_id":"2bb6f90a-bf1e-486b-8751-7df49e5f89de","system_id":"levelo_inurba_marseille","lat":43.332767,"lon":5.362675,"is_reserved":false,"is_disabled":false,"rental_uris":{"android":"levelo://app?vid=2bb6f90a-bf1e-486b-8751-7df49e5f89de","ios":"levelo://app?vid=2bb6f90a-bf1e-486b-8751-7df49e5f89de"},"vehicle_type_id":"4","last_reported":1721588753,"current_range_meters":2400,"station_id":"","pricing_plan_id":"cebpf4jnsgd1na2vs0mg"},{"bike_id":"9a16adb8-f790-423c-940e-040e52c20806","system_id":"levelo_inurba_marseille","lat":43.29234,"lon":5.36472,"is_reserved":false,"is_disabled":false,"rental_uris":{"android":"levelo://app?vid=9a16adb8-f790-423c-940e-040e52c20806","ios":"levelo://app?vid=9a16adb8-f790-423c-940e-040e52c20806"},"vehicle_type_id":"4","last_reported":1721588753,"current_range_meters":30000,"station_id":"","pricing_plan_id":"cebpf4jnsgd1na2vs0mg"},{"bike_id":"10f011a1-1618-4281-8900-49e4c8fef3fe","system_id":"levelo_inurba_marseille","lat":43.303002,"lon":5.392142,"is_reserved":false,"is_disabled":false,"rental_uris":{"android":"levelo://app?vid=10f011a1-1618-4281-8900-49e4c8fef3fe","ios":"levelo://app?vid=10f011a1-1618-4281-8900-49e4c8fef3fe"},"vehicle_type_id":"4","last_reported":1721588753,"current_range_meters":20800,"station_id":"ce4bgkh2rcd13ifvqbk0","pricing_plan_id":"cebpf4jnsgd1na2vs0mg"},{"bike_id":"28f829fd-cc95-46bc-b865-1a47d336a3e6","system_id":"levelo_inurba_marseille","lat":43.287185,"lon":5.379373,"is_reserved":false,"is_disabled":false,"rental_uris":{"android":"levelo://app?vid=28f829fd-cc95-46bc-b865-1a47d336a3e6","ios":"levelo://app?vid=28f829fd-cc95-46bc-b865-1a47d336a3e6"},"vehicle_type_id":"4","last_reported":1721588753,"current_range_meters":2400,"station_id":"ce4bh9p2rcd13ifvqec0","pricing_plan_id":"cebpf4jnsgd1na2vs0mg"},{"bike_id":"9ae9a3aa-4eed-41ca-87fa-44dfe7c35702","system_id":"levelo_inurba_marseille","lat":43.2936,"lon":5.37835,"is_reserved":false,"is_disabled":false,"rental_uris":{"android":"levelo://app?vid=9ae9a3aa-4eed-41ca-87fa-44dfe7c35702","ios":"levelo://app?vid=9ae9a3aa-4eed-41ca-87fa-44dfe7c35702"},"vehicle_type_id":"4","last_reported":1721588753,"current_range_meters":4800,"station_id":"ce4bgjh2rcd13ifvqbf0","pricing_plan_id":"cebpf4jnsgd1na2vs0mg"},{"bike_id":"258ddfef-f355-48ae-abcd-b2f2c4d13e71","system_id":"levelo_inurba_marseille","lat":43.292311,"lon":5.360731,"is_reserved":false,"is_disabled":false,"rental_uris":{"android":"levelo://app?vid=258ddfef-f355-48ae-abcd-b2f2c4d13e71","ios":"levelo://app?vid=258ddfef-f355-48ae-abcd-b2f2c4d13e71"},"vehicle_type_id":"4","last_reported":1721588753,"current_range_meters":9200,"station_id":"ce4bhbh2rcd13ifvqeqg","pricing_plan_id":"cebpf4jnsgd1na2vs0mg"},{"bike_id":"c1463560-4e71-4af7-953b-1230ff5e2625","system_id":"levelo_inurba_marseille","lat":43.29222,"lon":5.3605,"is_reserved":false,"is_disabled":false,"rental_uris":{"android":"levelo://app?vid=c1463560-4e71-4af7-953b-1230ff5e2625","ios":"levelo://app?vid=c1463560-4e71-4af7-953b-1230ff5e2625"},"vehicle_type_id":"4","last_reported":1721588753,"current_range_meters":31200,"station_id":"ce4bhbh2rcd13ifvqeqg","pricing_plan_id":"cebpf4jnsgd1na2vs0mg"},{"bike_id":"c9b5dbb2-78c6-44d1-9dcc-1e285ed81f11","system_id":"levelo_inurba_marseille","lat":43.291671,"lon":5.371575,"is_reserved":false,"is_disabled":false,"rental_uris":{"android":"levelo://app?vid=c9b5dbb2-78c6-44d1-9dcc-1e285ed81f11","ios":"levelo://app?vid=c9b5dbb2-78c6-44d1-9dcc-1e285ed81f11"},"vehicle_type_id":"4","last_reported":1721588753,"current_range_meters":2000,"station_id":"ce4bha92rcd13ifvqeh0","pricing_plan_id":"cebpf4jnsgd1na2vs0mg"},{"bike_id":"286dc4e1-7c76-4a6e-b7e3-0d523d043743","system_id":"levelo_inurba_marseille","lat":43.298764,"lon":5.388973,"is_reserved":false,"is_disabled":false,"rental_uris":{"android":"levelo://app?vid=286dc4e1-7c76-4a6e-b7e3-0d523d043743","ios":"levelo://app?vid=286dc4e1-7c76-4a6e-b7e3-0d523d043743"},"vehicle_type_id":"4","last_reported":1721588753,"current_range_meters":28000,"station_id":"ce4bh392rcd13ifvqdl0","pricing_plan_id":"cebpf4jnsgd1na2vs0mg"},{"bike_id":"83ff2d45-d3ce-4f92-ba7a-628b2f672f20","system_id":"levelo_inurba_marseille","lat":43.292005,"lon":5.357875,"is_reserved":false,"is_disabled":false,"rental_uris":{"android":"levelo://app?vid=83ff2d45-d3ce-4f92-ba7a-628b2f672f20","ios":"levelo://app?vid=83ff2d45-d3ce-4f92-ba7a-628b2f672f20"},"vehicle_type_id":"4","last_reported":1721588753,"current_range_meters":24800,"station_id":"ce4bhb12rcd13ifvqel0","pricing_plan_id":"cebpf4jnsgd1na2vs0mg"},{"bike_id":"f5b157ee-b5d2-496e-a817-7386f3552ba4","system_id":"levelo_inurba_marseille","lat":43.29195,"lon":5.35795,"is_reserved":false,"is_disabled":false,"rental_uris":{"android":"levelo://app?vid=f5b157ee-b5d2-496e-a817-7386f3552ba4","ios":"levelo://app?vid=f5b157ee-b5d2-496e-a817-7386f3552ba4"},"vehicle_type_id":"4","last_reported":1721588753,"current_range_meters":6000,"station_id":"ce4bhb12rcd13ifvqel0","pricing_plan_id":"cebpf4jnsgd1na2vs0mg"},{"bike_id":"06b80e3f-622d-41f7-b2ce-74f8207e0818","system_id":"levelo_inurba_marseille","lat":43.29192,"lon":5.35795,"is_reserved":false,"is_disabled":false,"rental_uris":{"android":"levelo://app?vid=06b80e3f-622d-41f7-b2ce-74f8207e0818","ios":"levelo://app?vid=06b80e3f-622d-41f7-b2ce-74f8207e0818"},"vehicle_type_id":"4","last_reported":1721588753,"current_range_meters":17200,"station_id":"ce4bhb12rcd13ifvqel0","pricing_plan_id":"cebpf4jnsgd1na2vs0mg"},{"bike_id":"27e1f76b-11cf-4fc4-aeca-a02d814aa228","system_id":"levelo_inurba_marseille","lat":43.29191,"lon":5.35794,"is_reserved":false,"is_disabled":false,"rental_uris":{"android":"levelo://app?vid=27e1f76b-11cf-4fc4-aeca-a02d814aa228","ios":"levelo://app?vid=27e1f76b-11cf-4fc4-aeca-a02d814aa228"},"vehicle_type_id":"4","last_reported":1721588753,"current_range_meters":29200,"station_id":"ce4bhb12rcd13ifvqel0","pricing_plan_id":"cebpf4jnsgd1na2vs0mg"},{"bike_id":"95e492b6-fa12-4fe5-a436-ab5659f81aaa","system_id":"levelo_inurba_marseille","lat":43.309038,"lon":5.396546,"is_reserved":false,"is_disabled":false,"rental_uris":{"android":"levelo://app?vid=95e492b6-fa12-4fe5-a436-ab5659f81aaa","ios":"levelo://app?vid=95e492b6-fa12-4fe5-a436-ab5659f81aaa"},"vehicle_type_id":"4","last_reported":1721588753,"current_range_meters":20400,"station_id":"ce4bh012rcd13ifvqcv0","pricing_plan_id":"cebpf4jnsgd1na2vs0mg"},{"bike_id":"241f07cb-ef5e-434e-8d93-81168a752634","system_id":"levelo_inurba_marseille","lat":43.3088,"lon":5.39647,"is_reserved":false,"is_disabled":false,"rental_uris":{"android":"levelo://app?vid=241f07cb-ef5e-434e-8d93-81168a752634","ios":"levelo://app?vid=241f07cb-ef5e-434e-8d93-81168a752634"},"vehicle_type_id":"4","last_reported":1721588753,"current_range_meters":9600,"station_id":"ce4bh012rcd13ifvqcv0","pricing_plan_id":"cebpf4jnsgd1na2vs0mg"},{"bike_id":"a0c81c92-20cd-44e9-b145-32d71d8cd4ff","system_id":"levelo_inurba_marseille","lat":43.309047,"lon":5.396551,"is_reserved":false,"is_disabled":false,"rental_uris":{"android":"levelo://app?vid=a0c81c92-20cd-44e9-b145-32d71d8cd4ff","ios":"levelo://app?vid=a0c81c92-20cd-44e9-b145-32d71d8cd4ff"},"vehicle_type_id":"4","last_reported":1721588753,"current_range_meters":24800,"station_id":"ce4bh012rcd13ifvqcv0","pricing_plan_id":"cebpf4jnsgd1na2vs0mg"},{"bike_id":"4e4d6ac7-02c2-4620-b87e-7b9093c56f02","system_id":"levelo_inurba_marseille","lat":43.309038,"lon":5.396546,"is_reserved":false,"is_disabled":false,"rental_uris":{"android":"levelo://app?vid=4e4d6ac7-02c2-4620-b87e-7b9093c56f02","ios":"levelo://app?vid=4e4d6ac7-02c2-4620-b87e-7b9093c56f02"},"vehicle_type_id":"4","last_reported":1721588753,"current_range_meters":8800,"station_id":"ce4bh012rcd13ifvqcv0","pricing_plan_id":"cebpf4jnsgd1na2vs0mg"},{"bike_id":"3637cc80-356c-461f-9ee7-08f421382f1e","system_id":"levelo_inurba_marseille","lat":43.290779,"lon":5.371482,"is_reserved":false,"is_disabled":false,"rental_uris":{"android":"levelo://app?vid=3637cc80-356c-461f-9ee7-08f421382f1e","ios":"levelo://app?vid=3637cc80-356c-461f-9ee7-08f421382f1e"},"vehicle_type_id":"4","last_reported":1721588753,"current_range_meters":0,"station_id":"ce4bh5p2rcd13ifvqe4g","pricing_plan_id":"cebpf4jnsgd1na2vs0mg"},{"bike_id":"d50f7cbf-c314-44f8-89d4-2cacde5b6d6d","system_id":"levelo_inurba_marseille","lat":43.302008,"lon":5.394694,"is_reserved":false,"is_disabled":false,"rental_uris":{"android":"levelo://app?vid=d50f7cbf-c314-44f8-89d4-2cacde5b6d6d","ios":"levelo://app?vid=d50f7cbf-c314-44f8-89d4-2cacde5b6d6d"},"vehicle_type_id":"4","last_reported":1721588753,"current_range_meters":26400,"station_id":"ce4bh0p2rcd13ifvqd70","pricing_plan_id":"cebpf4jnsgd1na2vs0mg"},{"bike_id":"f87bd05a-5941-46d6-a82d-2c03b77cbab4","system_id":"levelo_inurba_marseille","lat":43.290624,"lon":5.359245,"is_reserved":false,"is_disabled":false,"rental_uris":{"android":"levelo://app?vid=f87bd05a-5941-46d6-a82d-2c03b77cbab4","ios":"levelo://app?vid=f87bd05a-5941-46d6-a82d-2c03b77cbab4"},"vehicle_type_id":"4","last_reported":1721588753,"current_range_meters":29200,"station_id":"ce4bha92rcd13ifvqeg0","pricing_plan_id":"cebpf4jnsgd1na2vs0mg"},{"bike_id":"4d159087-9609-4f5c-97f3-63b23d1087dd","system_id":"levelo_inurba_marseille","lat":43.283494,"lon":5.380945,"is_reserved":false,"is_disabled":false,"rental_uris":{"android":"levelo://app?vid=4d159087-9609-4f5c-97f3-63b23d1087dd","ios":"levelo://app?vid=4d159087-9609-4f5c-97f3-63b23d1087dd"},"vehicle_type_id":"4","last_reported":1721588753,"current_range_meters":29200,"station_id":"ce4bh412rcd13ifvqdr0","pricing_plan_id":"cebpf4jnsgd1na2vs0mg"},{"bike_id":"1bd0cb7d-677e-43cf-9f5b-7f3aed961794","system_id":"levelo_inurba_marseille","lat":43.294153,"lon":5.386305,"is_reserved":false,"is_disabled":false,"rental_uris":{"android":"levelo://app?vid=1bd0cb7d-677e-43cf-9f5b-7f3aed961794","ios":"levelo://app?vid=1bd0cb7d-677e-43cf-9f5b-7f3aed961794"},"vehicle_type_id":"4","last_reported":1721588753,"current_range_meters":6800,"station_id":"ce4bh2h2rcd13ifvqdh0","pricing_plan_id":"cebpf4jnsgd1na2vs0mg"},{"bike_id":"a01ea380-e79c-4900-8c1c-70c110a72b59","system_id":"levelo_inurba_marseille","lat":43.294153,"lon":5.386305,"is_reserved":false,"is_disabled":false,"rental_uris":{"android":"levelo://app?vid=a01ea380-e79c-4900-8c1c-70c110a72b59","ios":"levelo://app?vid=a01ea380-e79c-4900-8c1c-70c110a72b59"},"vehicle_type_id":"4","last_reported":1721588753,"current_range_meters":2800,"station_id":"ce4bh2h2rcd13ifvqdh0","pricing_plan_id":"cebpf4jnsgd1na2vs0mg"},{"bike_id":"a5a91df4-53ee-46dc-8275-8d9fabb23675","system_id":"levelo_inurba_marseille","lat":43.294162,"lon":5.386292,"is_reserved":false,"is_disabled":false,"rental_uris":{"android":"levelo://app?vid=a5a91df4-53ee-46dc-8275-8d9fabb23675","ios":"levelo://app?vid=a5a91df4-53ee-46dc-8275-8d9fabb23675"},"vehicle_type_id":"4","last_reported":1721588753,"current_range_meters":0,"station_id":"ce4bh2h2rcd13ifvqdh0","pricing_plan_id":"cebpf4jnsgd1na2vs0mg"},{"bike_id":"fc425fbe-3572-46b6-98e3-3fe4e7b41a39","system_id":"levelo_inurba_marseille","lat":43.290319,"lon":5.375732,"is_reserved":false,"is_disabled":false,"rental_uris":{"android":"levelo://app?vid=fc425fbe-3572-46b6-98e3-3fe4e7b41a39","ios":"levelo://app?vid=fc425fbe-3572-46b6-98e3-3fe4e7b41a39"},"vehicle_type_id":"4","last_reported":1721588753,"current_range_meters":10400,"station_id":"ce4bh692rcd13ifvqe90","pricing_plan_id":"cebpf4jnsgd1na2vs0mg"},{"bike_id":"42ed1358-3ee9-40b8-8766-f182b695c0a6","system_id":"levelo_inurba_marseille","lat":43.289184,"lon":5.366408,"is_reserved":false,"is_disabled":false,"rental_uris":{"android":"levelo://app?vid=42ed1358-3ee9-40b8-8766-f182b695c0a6","ios":"levelo://app?vid=42ed1358-3ee9-40b8-8766-f182b695c0a6"},"vehicle_type_id":"4","last_reported":1721588753,"current_range_meters":31600,"station_id":"ce4bhap2rcd13ifvqek0","pricing_plan_id":"cebpf4jnsgd1na2vs0mg"},{"bike_id":"4cfe1a39-93b2-4dcf-ae8a-4d8fd1330fae","system_id":"levelo_inurba_marseille","lat":43.289184,"lon":5.366408,"is_reserved":false,"is_disabled":false,"rental_uris":{"android":"levelo://app?vid=4cfe1a39-93b2-4dcf-ae8a-4d8fd1330fae","ios":"levelo://app?vid=4cfe1a39-93b2-4dcf-ae8a-4d8fd1330fae"},"vehicle_type_id":"4","last_reported":1721588753,"current_range_meters":10400,"station_id":"ce4bhap2rcd13ifvqek0","pricing_plan_id":"cebpf4jnsgd1na2vs0mg"},{"bike_id":"ad6e1a64-99b6-4f3f-9852-b71046453f92","system_id":"levelo_inurba_marseille","lat":43.289468,"lon":5.363719,"is_reserved":false,"is_disabled":false,"rental_uris":{"android":"levelo://app?vid=ad6e1a64-99b6-4f3f-9852-b71046453f92","ios":"levelo://app?vid=ad6e1a64-99b6-4f3f-9852-b71046453f92"},"vehicle_type_id":"4","last_reported":1721588753,"current_range_meters":24400,"station_id":"ce4bhc92rcd13ifvqetg","pricing_plan_id":"cebpf4jnsgd1na2vs0mg"},{"bike_id":"1fd63ebd-4532-42b5-a83f-b2adc29f3bf0","system_id":"levelo_inurba_marseille","lat":43.289184,"lon":5.366408,"is_reserved":false,"is_disabled":false,"rental_uris":{"android":"levelo://app?vid=1fd63ebd-4532-42b5-a83f-b2adc29f3bf0","ios":"levelo://app?vid=1fd63ebd-4532-42b5-a83f-b2adc29f3bf0"},"vehicle_type_id":"4","last_reported":1721588753,"current_range_meters":25600,"station_id":"ce4bhap2rcd13ifvqek0","pricing_plan_id":"cebpf4jnsgd1na2vs0mg"},{"bike_id":"7bd6da3f-7fba-4030-85ab-dae347d7ce24","system_id":"levelo_inurba_marseille","lat":43.289184,"lon":5.366408,"is_reserved":false,"is_disabled":false,"rental_uris":{"android":"levelo://app?vid=7bd6da3f-7fba-4030-85ab-dae347d7ce24","ios":"levelo://app?vid=7bd6da3f-7fba-4030-85ab-dae347d7ce24"},"vehicle_type_id":"4","last_reported":1721588753,"current_range_meters":10400,"station_id":"ce4bhap2rcd13ifvqek0","pricing_plan_id":"cebpf4jnsgd1na2vs0mg"},{"bike_id":"99baab40-0b4b-4997-97c3-a78e16f19c1d","system_id":"levelo_inurba_marseille","lat":43.289468,"lon":5.363719,"is_reserved":false,"is_disabled":false,"rental_uris":{"android":"levelo://app?vid=99baab40-0b4b-4997-97c3-a78e16f19c1d","ios":"levelo://app?vid=99baab40-0b4b-4997-97c3-a78e16f19c1d"},"vehicle_type_id":"4","last_reported":1721588753,"current_range_meters":8400,"station_id":"ce4bhc92rcd13ifvqetg","pricing_plan_id":"cebpf4jnsgd1na2vs0mg"},{"bike_id":"89cf1168-8beb-447a-b51a-996f5531f912","system_id":"levelo_inurba_marseille","lat":43.289184,"lon":5.366408,"is_reserved":false,"is_disabled":false,"rental_uris":{"android":"levelo://app?vid=89cf1168-8beb-447a-b51a-996f5531f912","ios":"levelo://app?vid=89cf1168-8beb-447a-b51a-996f5531f912"},"vehicle_type_id":"4","last_reported":1721588753,"current_range_meters":11600,"station_id":"ce4bhap2rcd13ifvqek0","pricing_plan_id":"cebpf4jnsgd1na2vs0mg"},{"bike_id":"97caf1af-11d4-4cbf-937f-47e1cffeae04","system_id":"levelo_inurba_marseille","lat":43.289184,"lon":5.366408,"is_reserved":false,"is_disabled":false,"rental_uris":{"android":"levelo://app?vid=97caf1af-11d4-4cbf-937f-47e1cffeae04","ios":"levelo://app?vid=97caf1af-11d4-4cbf-937f-47e1cffeae04"},"vehicle_type_id":"4","last_reported":1721588753,"current_range_meters":2000,"station_id":"ce4bhap2rcd13ifvqek0","pricing_plan_id":"cebpf4jnsgd1na2vs0mg"},{"bike_id":"ce20c56f-063c-4958-866f-25ac23d3a4ca","system_id":"levelo_inurba_marseille","lat":43.289184,"lon":5.366408,"is_reserved":false,"is_disabled":false,"rental_uris":{"android":"levelo://app?vid=ce20c56f-063c-4958-866f-25ac23d3a4ca","ios":"levelo://app?vid=ce20c56f-063c-4958-866f-25ac23d3a4ca"},"vehicle_type_id":"4","last_reported":1721588753,"current_range_meters":12400,"station_id":"ce4bhap2rcd13ifvqek0","pricing_plan_id":"cebpf4jnsgd1na2vs0mg"},{"bike_id":"0cf3528e-ffc5-4c2a-af61-762deb4ee0f2","system_id":"levelo_inurba_marseille","lat":43.292642,"lon":5.384254,"is_reserved":false,"is_disabled":false,"rental_uris":{"android":"levelo://app?vid=0cf3528e-ffc5-4c2a-af61-762deb4ee0f2","ios":"levelo://app?vid=0cf3528e-ffc5-4c2a-af61-762deb4ee0f2"},"vehicle_type_id":"4","last_reported":1721588753,"current_range_meters":3600,"station_id":"ce4bh692rcd13ifvqea0","pricing_plan_id":"cebpf4jnsgd1na2vs0mg"},{"bike_id":"6ad9bb38-6359-45cd-9b84-1ff452f37670","system_id":"levelo_inurba_marseille","lat":43.292644,"lon":5.384257,"is_reserved":false,"is_disabled":false,"rental_uris":{"android":"levelo://app?vid=6ad9bb38-6359-45cd-9b84-1ff452f37670","ios":"levelo://app?vid=6ad9bb38-6359-45cd-9b84-1ff452f37670"},"vehicle_type_id":"4","last_reported":1721588753,"current_range_meters":30000,"station_id":"ce4bh692rcd13ifvqea0","pricing_plan_id":"cebpf4jnsgd1na2vs0mg"},{"bike_id":"45d4f1c3-ba8c-4b04-8dfe-2df353a77985","system_id":"levelo_inurba_marseille","lat":43.292642,"lon":5.384254,"is_reserved":false,"is_disabled":false,"rental_uris":{"android":"levelo://app?vid=45d4f1c3-ba8c-4b04-8dfe-2df353a77985","ios":"levelo://app?vid=45d4f1c3-ba8c-4b04-8dfe-2df353a77985"},"vehicle_type_id":"4","last_reported":1721588753,"current_range_meters":22400,"station_id":"ce4bh692rcd13ifvqea0","pricing_plan_id":"cebpf4jnsgd1na2vs0mg"},{"bike_id":"6b6829e5-1b0f-4ed8-847a-c6fd79a8268f","system_id":"levelo_inurba_marseille","lat":43.304296,"lon":5.397513,"is_reserved":false,"is_disabled":false,"rental_uris":{"android":"levelo://app?vid=6b6829e5-1b0f-4ed8-847a-c6fd79a8268f","ios":"levelo://app?vid=6b6829e5-1b0f-4ed8-847a-c6fd79a8268f"},"vehicle_type_id":"4","last_reported":1721588753,"current_range_meters":4000,"station_id":"ce4bh092rcd13ifvqd20","pricing_plan_id":"cebpf4jnsgd1na2vs0mg"},{"bike_id":"b9ceff6b-883b-4506-8773-28484097386c","system_id":"levelo_inurba_marseille","lat":43.292644,"lon":5.384257,"is_reserved":false,"is_disabled":false,"rental_uris":{"android":"levelo://app?vid=b9ceff6b-883b-4506-8773-28484097386c","ios":"levelo://app?vid=b9ceff6b-883b-4506-8773-28484097386c"},"vehicle_type_id":"4","last_reported":1721588753,"current_range_meters":31200,"station_id":"ce4bh692rcd13ifvqea0","pricing_plan_id":"cebpf4jnsgd1na2vs0mg"},{"bike_id":"1117e5f3-978d-465a-8793-36bf12ba7fb8","system_id":"levelo_inurba_marseille","lat":43.29256,"lon":5.38432,"is_reserved":false,"is_disabled":false,"rental_uris":{"android":"levelo://app?vid=1117e5f3-978d-465a-8793-36bf12ba7fb8","ios":"levelo://app?vid=1117e5f3-978d-465a-8793-36bf12ba7fb8"},"vehicle_type_id":"4","last_reported":1721588753,"current_range_meters":28000,"station_id":"ce4bh692rcd13ifvqea0","pricing_plan_id":"cebpf4jnsgd1na2vs0mg"},{"bike_id":"c9a34b61-e1bc-472c-a979-e4566141ac73","system_id":"levelo_inurba_marseille","lat":43.290104,"lon":5.356111,"is_reserved":false,"is_disabled":false,"rental_uris":{"android":"levelo://app?vid=c9a34b61-e1bc-472c-a979-e4566141ac73","ios":"levelo://app?vid=c9a34b61-e1bc-472c-a979-e4566141ac73"},"vehicle_type_id":"4","last_reported":1721588753,"current_range_meters":26800,"station_id":"ce4bhb92rcd13ifvqen0","pricing_plan_id":"cebpf4jnsgd1na2vs0mg"},{"bike_id":"cd69d33f-84ef-4bfa-8f27-d4515227458c","system_id":"levelo_inurba_marseille","lat":43.290104,"lon":5.356111,"is_reserved":false,"is_disabled":false,"rental_uris":{"android":"levelo://app?vid=cd69d33f-84ef-4bfa-8f27-d4515227458c","ios":"levelo://app?vid=cd69d33f-84ef-4bfa-8f27-d4515227458c"},"vehicle_type_id":"4","last_reported":1721588753,"current_range_meters":0,"station_id":"ce4bhb92rcd13ifvqen0","pricing_plan_id":"cebpf4jnsgd1na2vs0mg"},{"bike_id":"e85c4784-e13a-424a-9e96-39183b7cdb72","system_id":"levelo_inurba_marseille","lat":43.290103,"lon":5.356114,"is_reserved":false,"is_disabled":false,"rental_uris":{"android":"levelo://app?vid=e85c4784-e13a-424a-9e96-39183b7cdb72","ios":"levelo://app?vid=e85c4784-e13a-424a-9e96-39183b7cdb72"},"vehicle_type_id":"4","last_reported":1721588753,"current_range_meters":11600,"station_id":"ce4bhb92rcd13ifvqen0","pricing_plan_id":"cebpf4jnsgd1na2vs0mg"},{"bike_id":"09f36665-cfb6-4842-b897-772d247cf5f6","system_id":"levelo_inurba_marseille","lat":43.290104,"lon":5.356111,"is_reserved":false,"is_disabled":false,"rental_uris":{"android":"levelo://app?vid=09f36665-cfb6-4842-b897-772d247cf5f6","ios":"levelo://app?vid=09f36665-cfb6-4842-b897-772d247cf5f6"},"vehicle_type_id":"4","last_reported":1721588753,"current_range_meters":8800,"station_id":"ce4bhb92rcd13ifvqen0","pricing_plan_id":"cebpf4jnsgd1na2vs0mg"},{"bike_id":"7f87f076-d21d-4004-962f-654f0e823e8f","system_id":"levelo_inurba_marseille","lat":43.290103,"lon":5.356114,"is_reserved":false,"is_disabled":false,"rental_uris":{"android":"levelo://app?vid=7f87f076-d21d-4004-962f-654f0e823e8f","ios":"levelo://app?vid=7f87f076-d21d-4004-962f-654f0e823e8f"},"vehicle_type_id":"4","last_reported":1721588753,"current_range_meters":5200,"station_id":"ce4bhb92rcd13ifvqen0","pricing_plan_id":"cebpf4jnsgd1na2vs0mg"},{"bike_id":"00065f3a-e67f-4b11-9f90-d508e7cf540d","system_id":"levelo_inurba_marseille","lat":43.28856,"lon":5.358371,"is_reserved":false,"is_disabled":false,"rental_uris":{"android":"levelo://app?vid=00065f3a-e67f-4b11-9f90-d508e7cf540d","ios":"levelo://app?vid=00065f3a-e67f-4b11-9f90-d508e7cf540d"},"vehicle_type_id":"4","last_reported":1721588753,"current_range_meters":2000,"station_id":"ce4bhb12rcd13ifvqem0","pricing_plan_id":"cebpf4jnsgd1na2vs0mg"},{"bike_id":"01538ea2-31b6-47b7-8e13-f6d15b810ad9","system_id":"levelo_inurba_marseille","lat":43.290104,"lon":5.356111,"is_reserved":false,"is_disabled":false,"rental_uris":{"android":"levelo://app?vid=01538ea2-31b6-47b7-8e13-f6d15b810ad9","ios":"levelo://app?vid=01538ea2-31b6-47b7-8e13-f6d15b810ad9"},"vehicle_type_id":"4","last_reported":1721588753,"current_range_meters":22000,"station_id":"ce4bhb92rcd13ifvqen0","pricing_plan_id":"cebpf4jnsgd1na2vs0mg"},{"bike_id":"6c4c6051-c260-4286-bff1-c1d40acab027","system_id":"levelo_inurba_marseille","lat":43.290995,"lon":5.381361,"is_reserved":false,"is_disabled":false,"rental_uris":{"android":"levelo://app?vid=6c4c6051-c260-4286-bff1-c1d40acab027","ios":"levelo://app?vid=6c4c6051-c260-4286-bff1-c1d40acab027"},"vehicle_type_id":"4","last_reported":1721588753,"current_range_meters":26400,"station_id":"ce4bh512rcd13ifvqe2g","pricing_plan_id":"cebpf4jnsgd1na2vs0mg"},{"bike_id":"182f318f-828a-4b8a-9286-df6dde5508c5","system_id":"levelo_inurba_marseille","lat":43.295169,"lon":5.390426,"is_reserved":false,"is_disabled":false,"rental_uris":{"android":"levelo://app?vid=182f318f-828a-4b8a-9286-df6dde5508c5","ios":"levelo://app?vid=182f318f-828a-4b8a-9286-df6dde5508c5"},"vehicle_type_id":"4","last_reported":1721588753,"current_range_meters":18400,"station_id":"ce4bh3p2rcd13ifvqdp0","pricing_plan_id":"cebpf4jnsgd1na2vs0mg"},{"bike_id":"07dcb512-4723-4f09-bc31-fb94bc4b546b","system_id":"levelo_inurba_marseille","lat":43.2979,"lon":5.39341,"is_reserved":false,"is_disabled":false,"rental_uris":{"android":"levelo://app?vid=07dcb512-4723-4f09-bc31-fb94bc4b546b","ios":"levelo://app?vid=07dcb512-4723-4f09-bc31-fb94bc4b546b"},"vehicle_type_id":"4","last_reported":1721588753,"current_range_meters":16000,"station_id":"chh1huq6cuj3fo74tm60","pricing_plan_id":"cebpf4jnsgd1na2vs0mg"},{"bike_id":"9f3866a8-6364-4a13-aecf-cd96af8b305d","system_id":"levelo_inurba_marseille","lat":43.297807,"lon":5.393533,"is_reserved":false,"is_disabled":false,"rental_uris":{"android":"levelo://app?vid=9f3866a8-6364-4a13-aecf-cd96af8b305d","ios":"levelo://app?vid=9f3866a8-6364-4a13-aecf-cd96af8b305d"},"vehicle_type_id":"4","last_reported":1721588753,"current_range_meters":22800,"station_id":"chh1huq6cuj3fo74tm60","pricing_plan_id":"cebpf4jnsgd1na2vs0mg"},{"bike_id":"bbab7c7a-2505-46a8-97cf-3abab2247c36","system_id":"levelo_inurba_marseille","lat":43.297807,"lon":5.393533,"is_reserved":false,"is_disabled":false,"rental_uris":{"android":"levelo://app?vid=bbab7c7a-2505-46a8-97cf-3abab2247c36","ios":"levelo://app?vid=bbab7c7a-2505-46a8-97cf-3abab2247c36"},"vehicle_type_id":"4","last_reported":1721588753,"current_range_meters":7600,"station_id":"chh1huq6cuj3fo74tm60","pricing_plan_id":"cebpf4jnsgd1na2vs0mg"},{"bike_id":"6064b869-cd76-42d3-9634-a495bb904a7a","system_id":"levelo_inurba_marseille","lat":43.330442,"lon":5.389148,"is_reserved":false,"is_disabled":false,"rental_uris":{"android":"levelo://app?vid=6064b869-cd76-42d3-9634-a495bb904a7a","ios":"levelo://app?vid=6064b869-cd76-42d3-9634-a495bb904a7a"},"vehicle_type_id":"4","last_reported":1721588753,"current_range_meters":17200,"station_id":"ce4bhr92rcd13ifvqhrg","pricing_plan_id":"cebpf4jnsgd1na2vs0mg"},{"bike_id":"be0d0d84-50a8-4cfd-a255-09a81e7e5a8f","system_id":"levelo_inurba_marseille","lat":43.33028,"lon":5.39036,"is_reserved":false,"is_disabled":false,"rental_uris":{"android":"levelo://app?vid=be0d0d84-50a8-4cfd-a255-09a81e7e5a8f","ios":"levelo://app?vid=be0d0d84-50a8-4cfd-a255-09a81e7e5a8f"},"vehicle_type_id":"4","last_reported":1721588753,"current_range_meters":6400,"station_id":"ce4bhr92rcd13ifvqhrg","pricing_plan_id":"cebpf4jnsgd1na2vs0mg"},{"bike_id":"5cf66303-0077-44b4-87cc-51ae7f5c35c5","system_id":"levelo_inurba_marseille","lat":43.330442,"lon":5.389148,"is_reserved":false,"is_disabled":false,"rental_uris":{"android":"levelo://app?vid=5cf66303-0077-44b4-87cc-51ae7f5c35c5","ios":"levelo://app?vid=5cf66303-0077-44b4-87cc-51ae7f5c35c5"},"vehicle_type_id":"4","last_reported":1721588753,"current_range_meters":27200,"station_id":"ce4bhr92rcd13ifvqhrg","pricing_plan_id":"cebpf4jnsgd1na2vs0mg"},{"bike_id":"7a24fee4-2a6f-4a56-ab43-dd7a3637f2ab","system_id":"levelo_inurba_marseille","lat":43.330442,"lon":5.389148,"is_reserved":false,"is_disabled":false,"rental_uris":{"android":"levelo://app?vid=7a24fee4-2a6f-4a56-ab43-dd7a3637f2ab","ios":"levelo://app?vid=7a24fee4-2a6f-4a56-ab43-dd7a3637f2ab"},"vehicle_type_id":"4","last_reported":1721588753,"current_range_meters":25200,"station_id":"ce4bhr92rcd13ifvqhrg","pricing_plan_id":"cebpf4jnsgd1na2vs0mg"},{"bike_id":"21ad3d88-7f24-41d8-9257-f7383491b885","system_id":"levelo_inurba_marseille","lat":43.306412,"lon":5.401035,"is_reserved":false,"is_disabled":false,"rental_uris":{"android":"levelo://app?vid=21ad3d88-7f24-41d8-9257-f7383491b885","ios":"levelo://app?vid=21ad3d88-7f24-41d8-9257-f7383491b885"},"vehicle_type_id":"4","last_reported":1721588753,"current_range_meters":13600,"station_id":"ce4bh112rcd13ifvqda0","pricing_plan_id":"cebpf4jnsgd1na2vs0mg"},{"bike_id":"adbadfa8-8624-433d-8e88-02797a52a200","system_id":"levelo_inurba_marseille","lat":43.310201,"lon":5.400757,"is_reserved":false,"is_disabled":false,"rental_uris":{"android":"levelo://app?vid=adbadfa8-8624-433d-8e88-02797a52a200","ios":"levelo://app?vid=adbadfa8-8624-433d-8e88-02797a52a200"},"vehicle_type_id":"4","last_reported":1721588753,"current_range_meters":28800,"station_id":"","pricing_plan_id":"cebpf4jnsgd1na2vs0mg"},{"bike_id":"20823a5e-a539-4fe9-b432-1fc5f73467e9","system_id":"levelo_inurba_marseille","lat":43.290336,"lon":5.386425,"is_reserved":false,"is_disabled":false,"rental_uris":{"android":"levelo://app?vid=20823a5e-a539-4fe9-b432-1fc5f73467e9","ios":"levelo://app?vid=20823a5e-a539-4fe9-b432-1fc5f73467e9"},"vehicle_type_id":"4","last_reported":1721588753,"current_range_meters":22800,"station_id":"ce4bh4p2rcd13ifvqe0g","pricing_plan_id":"cebpf4jnsgd1na2vs0mg"},{"bike_id":"20d9be7b-9b9f-42d5-9e7e-64557b312137","system_id":"levelo_inurba_marseille","lat":43.28856,"lon":5.358371,"is_reserved":false,"is_disabled":false,"rental_uris":{"android":"levelo://app?vid=20d9be7b-9b9f-42d5-9e7e-64557b312137","ios":"levelo://app?vid=20d9be7b-9b9f-42d5-9e7e-64557b312137"},"vehicle_type_id":"4","last_reported":1721588753,"current_range_meters":9200,"station_id":"ce4bhb12rcd13ifvqem0","pricing_plan_id":"cebpf4jnsgd1na2vs0mg"},{"bike_id":"cffb6dcd-b9f3-4205-8b68-08b3b5fc5979","system_id":"levelo_inurba_marseille","lat":43.28856,"lon":5.358371,"is_reserved":false,"is_disabled":false,"rental_uris":{"android":"levelo://app?vid=cffb6dcd-b9f3-4205-8b68-08b3b5fc5979","ios":"levelo://app?vid=cffb6dcd-b9f3-4205-8b68-08b3b5fc5979"},"vehicle_type_id":"4","last_reported":1721588753,"current_range_meters":25200,"station_id":"ce4bhb12rcd13ifvqem0","pricing_plan_id":"cebpf4jnsgd1na2vs0mg"},{"bike_id":"679ea295-5458-43ec-af03-2c291a649366","system_id":"levelo_inurba_marseille","lat":43.31275,"lon":5.40164,"is_reserved":false,"is_disabled":false,"rental_uris":{"android":"levelo://app?vid=679ea295-5458-43ec-af03-2c291a649366","ios":"levelo://app?vid=679ea295-5458-43ec-af03-2c291a649366"},"vehicle_type_id":"4","last_reported":1721588753,"current_range_meters":0,"station_id":"ce4bh092rcd13ifvqd30","pricing_plan_id":"cebpf4jnsgd1na2vs0mg"},{"bike_id":"66d7ff37-dd28-46b2-b25e-a2fcc8798c19","system_id":"levelo_inurba_marseille","lat":43.309371,"lon":5.401449,"is_reserved":false,"is_disabled":false,"rental_uris":{"android":"levelo://app?vid=66d7ff37-dd28-46b2-b25e-a2fcc8798c19","ios":"levelo://app?vid=66d7ff37-dd28-46b2-b25e-a2fcc8798c19"},"vehicle_type_id":"4","last_reported":1721588753,"current_range_meters":11600,"station_id":"ce4bgvp2rcd13ifvqct0","pricing_plan_id":"cebpf4jnsgd1na2vs0mg"},{"bike_id":"f713f70d-fceb-4449-abbb-3570cec44a2a","system_id":"levelo_inurba_marseille","lat":43.309371,"lon":5.401449,"is_reserved":false,"is_disabled":false,"rental_uris":{"android":"levelo://app?vid=f713f70d-fceb-4449-abbb-3570cec44a2a","ios":"levelo://app?vid=f713f70d-fceb-4449-abbb-3570cec44a2a"},"vehicle_type_id":"4","last_reported":1721588753,"current_range_meters":8800,"station_id":"ce4bgvp2rcd13ifvqct0","pricing_plan_id":"cebpf4jnsgd1na2vs0mg"},{"bike_id":"da1ef795-4411-4787-a704-e9710fe27f7e","system_id":"levelo_inurba_marseille","lat":43.337472,"lon":5.374599,"is_reserved":false,"is_disabled":false,"rental_uris":{"android":"levelo://app?vid=da1ef795-4411-4787-a704-e9710fe27f7e","ios":"levelo://app?vid=da1ef795-4411-4787-a704-e9710fe27f7e"},"vehicle_type_id":"4","last_reported":1721588753,"current_range_meters":18000,"station_id":"","pricing_plan_id":"cebpf4jnsgd1na2vs0mg"},{"bike_id":"9458a255-a47a-41f1-849e-755dc4612ffe","system_id":"levelo_inurba_marseille","lat":43.337516,"lon":5.374541,"is_reserved":false,"is_disabled":false,"rental_uris":{"android":"levelo://app?vid=9458a255-a47a-41f1-849e-755dc4612ffe","ios":"levelo://app?vid=9458a255-a47a-41f1-849e-755dc4612ffe"},"vehicle_type_id":"4","last_reported":1721588753,"current_range_meters":18800,"station_id":"","pricing_plan_id":"cebpf4jnsgd1na2vs0mg"},{"bike_id":"0ad3db73-21e8-41b5-aad3-7f410c37748d","system_id":"levelo_inurba_marseille","lat":43.33754,"lon":5.37454,"is_reserved":false,"is_disabled":false,"rental_uris":{"android":"levelo://app?vid=0ad3db73-21e8-41b5-aad3-7f410c37748d","ios":"levelo://app?vid=0ad3db73-21e8-41b5-aad3-7f410c37748d"},"vehicle_type_id":"4","last_reported":1721588753,"current_range_meters":9600,"station_id":"","pricing_plan_id":"cebpf4jnsgd1na2vs0mg"},{"bike_id":"63cc4a5c-fe68-4a6a-ab36-a2f17fbccb3f","system_id":"levelo_inurba_marseille","lat":43.30652,"lon":5.4008,"is_reserved":false,"is_disabled":false,"rental_uris":{"android":"levelo://app?vid=63cc4a5c-fe68-4a6a-ab36-a2f17fbccb3f","ios":"levelo://app?vid=63cc4a5c-fe68-4a6a-ab36-a2f17fbccb3f"},"vehicle_type_id":"4","last_reported":1721588753,"current_range_meters":0,"station_id":"ce4bh112rcd13ifvqda0","pricing_plan_id":"cebpf4jnsgd1na2vs0mg"},{"bike_id":"9fd23b8b-c7c3-4b5a-b11d-8284b8e4dfa2","system_id":"levelo_inurba_marseille","lat":43.337578,"lon":5.374428,"is_reserved":false,"is_disabled":false,"rental_uris":{"android":"levelo://app?vid=9fd23b8b-c7c3-4b5a-b11d-8284b8e4dfa2","ios":"levelo://app?vid=9fd23b8b-c7c3-4b5a-b11d-8284b8e4dfa2"},"vehicle_type_id":"4","last_reported":1721588753,"current_range_meters":21600,"station_id":"","pricing_plan_id":"cebpf4jnsgd1na2vs0mg"},{"bike_id":"c92917fe-83c2-4005-95d6-56cac26a239a","system_id":"levelo_inurba_marseille","lat":43.306491,"lon":5.400879,"is_reserved":false,"is_disabled":false,"rental_uris":{"android":"levelo://app?vid=c92917fe-83c2-4005-95d6-56cac26a239a","ios":"levelo://app?vid=c92917fe-83c2-4005-95d6-56cac26a239a"},"vehicle_type_id":"4","last_reported":1721588753,"current_range_meters":0,"station_id":"","pricing_plan_id":"cebpf4jnsgd1na2vs0mg"},{"bike_id":"d0723523-f35a-472e-b198-a5153fc33bb6","system_id":"levelo_inurba_marseille","lat":43.33759,"lon":5.37487,"is_reserved":false,"is_disabled":false,"rental_uris":{"android":"levelo://app?vid=d0723523-f35a-472e-b198-a5153fc33bb6","ios":"levelo://app?vid=d0723523-f35a-472e-b198-a5153fc33bb6"},"vehicle_type_id":"4","last_reported":1721588753,"current_range_meters":16400,"station_id":"","pricing_plan_id":"cebpf4jnsgd1na2vs0mg"},{"bike_id":"ac377a63-6a02-42fa-8a70-d5bb9b7546c9","system_id":"levelo_inurba_marseille","lat":43.337691,"lon":5.374316,"is_reserved":false,"is_disabled":false,"rental_uris":{"android":"levelo://app?vid=ac377a63-6a02-42fa-8a70-d5bb9b7546c9","ios":"levelo://app?vid=ac377a63-6a02-42fa-8a70-d5bb9b7546c9"},"vehicle_type_id":"4","last_reported":1721588753,"current_range_meters":15200,"station_id":"","pricing_plan_id":"cebpf4jnsgd1na2vs0mg"},{"bike_id":"4b3ca146-a352-457c-a1c6-a7eb81d24136","system_id":"levelo_inurba_marseille","lat":43.290336,"lon":5.386425,"is_reserved":false,"is_disabled":false,"rental_uris":{"android":"levelo://app?vid=4b3ca146-a352-457c-a1c6-a7eb81d24136","ios":"levelo://app?vid=4b3ca146-a352-457c-a1c6-a7eb81d24136"},"vehicle_type_id":"4","last_reported":1721588753,"current_range_meters":18000,"station_id":"ce4bh4p2rcd13ifvqe0g","pricing_plan_id":"cebpf4jnsgd1na2vs0mg"},{"bike_id":"dbfa7463-bcdb-44d5-9c19-6ae9deb9d513","system_id":"levelo_inurba_marseille","lat":43.283498,"lon":5.380948,"is_reserved":false,"is_disabled":false,"rental_uris":{"android":"levelo://app?vid=dbfa7463-bcdb-44d5-9c19-6ae9deb9d513","ios":"levelo://app?vid=dbfa7463-bcdb-44d5-9c19-6ae9deb9d513"},"vehicle_type_id":"4","last_reported":1721588753,"current_range_meters":800,"station_id":"ce4bh412rcd13ifvqdr0","pricing_plan_id":"cebpf4jnsgd1na2vs0mg"},{"bike_id":"2824c2c5-57c8-4109-a380-d7ea85562d6e","system_id":"levelo_inurba_marseille","lat":43.286961,"lon":5.373785,"is_reserved":false,"is_disabled":false,"rental_uris":{"android":"levelo://app?vid=2824c2c5-57c8-4109-a380-d7ea85562d6e","ios":"levelo://app?vid=2824c2c5-57c8-4109-a380-d7ea85562d6e"},"vehicle_type_id":"4","last_reported":1721588753,"current_range_meters":26400,"station_id":"ce4bh3p2rcd13ifvqdq0","pricing_plan_id":"cebpf4jnsgd1na2vs0mg"},{"bike_id":"33502e58-ca12-4b6e-a480-fce74b51d143","system_id":"levelo_inurba_marseille","lat":43.286961,"lon":5.373785,"is_reserved":false,"is_disabled":false,"rental_uris":{"android":"levelo://app?vid=33502e58-ca12-4b6e-a480-fce74b51d143","ios":"levelo://app?vid=33502e58-ca12-4b6e-a480-fce74b51d143"},"vehicle_type_id":"4","last_reported":1721588753,"current_range_meters":22000,"station_id":"ce4bh3p2rcd13ifvqdq0","pricing_plan_id":"cebpf4jnsgd1na2vs0mg"},{"bike_id":"a1204d73-02f0-402b-adac-10415495c4b1","system_id":"levelo_inurba_marseille","lat":43.298681,"lon":5.397225,"is_reserved":false,"is_disabled":false,"rental_uris":{"android":"levelo://app?vid=a1204d73-02f0-402b-adac-10415495c4b1","ios":"levelo://app?vid=a1204d73-02f0-402b-adac-10415495c4b1"},"vehicle_type_id":"4","last_reported":1721588753,"current_range_meters":31200,"station_id":"ce4bh0h2rcd13ifvqd50","pricing_plan_id":"cebpf4jnsgd1na2vs0mg"},{"bike_id":"b78a37d7-218f-43b5-80e9-c2f7d4ff1103","system_id":"levelo_inurba_marseille","lat":43.286593,"lon":5.363346,"is_reserved":false,"is_disabled":false,"rental_uris":{"android":"levelo://app?vid=b78a37d7-218f-43b5-80e9-c2f7d4ff1103","ios":"levelo://app?vid=b78a37d7-218f-43b5-80e9-c2f7d4ff1103"},"vehicle_type_id":"4","last_reported":1721588753,"current_range_meters":16000,"station_id":"ce4bhah2rcd13ifvqej0","pricing_plan_id":"cebpf4jnsgd1na2vs0mg"},{"bike_id":"389de67d-8616-4598-9b8d-bd98c52766e1","system_id":"levelo_inurba_marseille","lat":43.290336,"lon":5.386425,"is_reserved":false,"is_disabled":false,"rental_uris":{"android":"levelo://app?vid=389de67d-8616-4598-9b8d-bd98c52766e1","ios":"levelo://app?vid=389de67d-8616-4598-9b8d-bd98c52766e1"},"vehicle_type_id":"4","last_reported":1721588753,"current_range_meters":13200,"station_id":"ce4bh4p2rcd13ifvqe0g","pricing_plan_id":"cebpf4jnsgd1na2vs0mg"},{"bike_id":"f3c16be4-21bd-4b6f-831a-de8945b2b3e9","system_id":"levelo_inurba_marseille","lat":43.286039,"lon":5.370679,"is_reserved":false,"is_disabled":false,"rental_uris":{"android":"levelo://app?vid=f3c16be4-21bd-4b6f-831a-de8945b2b3e9","ios":"levelo://app?vid=f3c16be4-21bd-4b6f-831a-de8945b2b3e9"},"vehicle_type_id":"4","last_reported":1721588753,"current_range_meters":10400,"station_id":"ce4bht12rcd13ifvqi60","pricing_plan_id":"cebpf4jnsgd1na2vs0mg"},{"bike_id":"85d2842d-5db5-448f-b188-d01ad1ddd1d0","system_id":"levelo_inurba_marseille","lat":43.286039,"lon":5.370681,"is_reserved":false,"is_disabled":false,"rental_uris":{"android":"levelo://app?vid=85d2842d-5db5-448f-b188-d01ad1ddd1d0","ios":"levelo://app?vid=85d2842d-5db5-448f-b188-d01ad1ddd1d0"},"vehicle_type_id":"4","last_reported":1721588753,"current_range_meters":800,"station_id":"ce4bht12rcd13ifvqi60","pricing_plan_id":"cebpf4jnsgd1na2vs0mg"},{"bike_id":"6ccfdcbb-f5ff-4937-be2d-6343aaa8f6b3","system_id":"levelo_inurba_marseille","lat":43.286039,"lon":5.370679,"is_reserved":false,"is_disabled":false,"rental_uris":{"android":"levelo://app?vid=6ccfdcbb-f5ff-4937-be2d-6343aaa8f6b3","ios":"levelo://app?vid=6ccfdcbb-f5ff-4937-be2d-6343aaa8f6b3"},"vehicle_type_id":"4","last_reported":1721588753,"current_range_meters":21200,"station_id":"ce4bht12rcd13ifvqi60","pricing_plan_id":"cebpf4jnsgd1na2vs0mg"},{"bike_id":"88a353c7-379e-4573-8c50-7fe3fc9563fd","system_id":"levelo_inurba_marseille","lat":43.286039,"lon":5.370679,"is_reserved":false,"is_disabled":false,"rental_uris":{"android":"levelo://app?vid=88a353c7-379e-4573-8c50-7fe3fc9563fd","ios":"levelo://app?vid=88a353c7-379e-4573-8c50-7fe3fc9563fd"},"vehicle_type_id":"4","last_reported":1721588753,"current_range_meters":22400,"station_id":"ce4bht12rcd13ifvqi60","pricing_plan_id":"cebpf4jnsgd1na2vs0mg"},{"bike_id":"c046de60-bb51-4ceb-8bfc-208d6e77e0ce","system_id":"levelo_inurba_marseille","lat":43.286039,"lon":5.370679,"is_reserved":false,"is_disabled":false,"rental_uris":{"android":"levelo://app?vid=c046de60-bb51-4ceb-8bfc-208d6e77e0ce","ios":"levelo://app?vid=c046de60-bb51-4ceb-8bfc-208d6e77e0ce"},"vehicle_type_id":"4","last_reported":1721588753,"current_range_meters":6000,"station_id":"ce4bht12rcd13ifvqi60","pricing_plan_id":"cebpf4jnsgd1na2vs0mg"},{"bike_id":"e425b677-fa54-4284-8ded-f8d2ebe87ace","system_id":"levelo_inurba_marseille","lat":43.286039,"lon":5.370681,"is_reserved":false,"is_disabled":false,"rental_uris":{"android":"levelo://app?vid=e425b677-fa54-4284-8ded-f8d2ebe87ace","ios":"levelo://app?vid=e425b677-fa54-4284-8ded-f8d2ebe87ace"},"vehicle_type_id":"4","last_reported":1721588753,"current_range_meters":5200,"station_id":"ce4bht12rcd13ifvqi60","pricing_plan_id":"cebpf4jnsgd1na2vs0mg"},{"bike_id":"1d1414c6-6c0e-45d5-a7ae-9d572d410639","system_id":"levelo_inurba_marseille","lat":43.286039,"lon":5.370681,"is_reserved":false,"is_disabled":false,"rental_uris":{"android":"levelo://app?vid=1d1414c6-6c0e-45d5-a7ae-9d572d410639","ios":"levelo://app?vid=1d1414c6-6c0e-45d5-a7ae-9d572d410639"},"vehicle_type_id":"4","last_reported":1721588753,"current_range_meters":0,"station_id":"ce4bht12rcd13ifvqi60","pricing_plan_id":"cebpf4jnsgd1na2vs0mg"},{"bike_id":"4de39fd0-eed3-4f39-9371-432a49dcdbc6","system_id":"levelo_inurba_marseille","lat":43.286039,"lon":5.370679,"is_reserved":false,"is_disabled":false,"rental_uris":{"android":"levelo://app?vid=4de39fd0-eed3-4f39-9371-432a49dcdbc6","ios":"levelo://app?vid=4de39fd0-eed3-4f39-9371-432a49dcdbc6"},"vehicle_type_id":"4","last_reported":1721588753,"current_range_meters":0,"station_id":"ce4bht12rcd13ifvqi60","pricing_plan_id":"cebpf4jnsgd1na2vs0mg"},{"bike_id":"90dfeb67-71e9-4cab-ab19-55001298a4ca","system_id":"levelo_inurba_marseille","lat":43.286039,"lon":5.370679,"is_reserved":false,"is_disabled":false,"rental_uris":{"android":"levelo://app?vid=90dfeb67-71e9-4cab-ab19-55001298a4ca","ios":"levelo://app?vid=90dfeb67-71e9-4cab-ab19-55001298a4ca"},"vehicle_type_id":"4","last_reported":1721588753,"current_range_meters":12800,"station_id":"ce4bht12rcd13ifvqi60","pricing_plan_id":"cebpf4jnsgd1na2vs0mg"},{"bike_id":"021a4479-4131-40b0-a42d-4fc5c700df67","system_id":"levelo_inurba_marseille","lat":43.286039,"lon":5.370681,"is_reserved":false,"is_disabled":false,"rental_uris":{"android":"levelo://app?vid=021a4479-4131-40b0-a42d-4fc5c700df67","ios":"levelo://app?vid=021a4479-4131-40b0-a42d-4fc5c700df67"},"vehicle_type_id":"4","last_reported":1721588753,"current_range_meters":21200,"station_id":"ce4bht12rcd13ifvqi60","pricing_plan_id":"cebpf4jnsgd1na2vs0mg"},{"bike_id":"4050dfe1-fbda-4bf8-9cdb-fa9c94976db7","system_id":"levelo_inurba_marseille","lat":43.286039,"lon":5.370681,"is_reserved":false,"is_disabled":false,"rental_uris":{"android":"levelo://app?vid=4050dfe1-fbda-4bf8-9cdb-fa9c94976db7","ios":"levelo://app?vid=4050dfe1-fbda-4bf8-9cdb-fa9c94976db7"},"vehicle_type_id":"4","last_reported":1721588753,"current_range_meters":20400,"station_id":"ce4bht12rcd13ifvqi60","pricing_plan_id":"cebpf4jnsgd1na2vs0mg"},{"bike_id":"26e6be83-6fb5-48d8-b8ed-9451fd8a27a0","system_id":"levelo_inurba_marseille","lat":43.294314,"lon":5.397498,"is_reserved":false,"is_disabled":false,"rental_uris":{"android":"levelo://app?vid=26e6be83-6fb5-48d8-b8ed-9451fd8a27a0","ios":"levelo://app?vid=26e6be83-6fb5-48d8-b8ed-9451fd8a27a0"},"vehicle_type_id":"4","last_reported":1721588753,"current_range_meters":800,"station_id":"ce4bh3h2rcd13ifvqdo0","pricing_plan_id":"cebpf4jnsgd1na2vs0mg"},{"bike_id":"3ac050e9-31c2-4343-84fa-a12215b49e3d","system_id":"levelo_inurba_marseille","lat":43.285787,"lon":5.366496,"is_reserved":false,"is_disabled":false,"rental_uris":{"android":"levelo://app?vid=3ac050e9-31c2-4343-84fa-a12215b49e3d","ios":"levelo://app?vid=3ac050e9-31c2-4343-84fa-a12215b49e3d"},"vehicle_type_id":"4","last_reported":1721588753,"current_range_meters":14800,"station_id":"","pricing_plan_id":"cebpf4jnsgd1na2vs0mg"},{"bike_id":"cdfac0e7-faf3-4579-a3f8-1a82941a8514","system_id":"levelo_inurba_marseille","lat":43.287185,"lon":5.379373,"is_reserved":false,"is_disabled":false,"rental_uris":{"android":"levelo://app?vid=cdfac0e7-faf3-4579-a3f8-1a82941a8514","ios":"levelo://app?vid=cdfac0e7-faf3-4579-a3f8-1a82941a8514"},"vehicle_type_id":"4","last_reported":1721588753,"current_range_meters":6000,"station_id":"ce4bh9p2rcd13ifvqec0","pricing_plan_id":"cebpf4jnsgd1na2vs0mg"},{"bike_id":"4cf2ec55-9ff4-419c-a2a6-39da3c177dc5","system_id":"levelo_inurba_marseille","lat":43.28716,"lon":5.37927,"is_reserved":false,"is_disabled":false,"rental_uris":{"android":"levelo://app?vid=4cf2ec55-9ff4-419c-a2a6-39da3c177dc5","ios":"levelo://app?vid=4cf2ec55-9ff4-419c-a2a6-39da3c177dc5"},"vehicle_type_id":"4","last_reported":1721588753,"current_range_meters":31200,"station_id":"ce4bh9p2rcd13ifvqec0","pricing_plan_id":"cebpf4jnsgd1na2vs0mg"},{"bike_id":"295489f9-6248-412c-b34b-714218cc74ff","system_id":"levelo_inurba_marseille","lat":43.28712,"lon":5.37936,"is_reserved":false,"is_disabled":false,"rental_uris":{"android":"levelo://app?vid=295489f9-6248-412c-b34b-714218cc74ff","ios":"levelo://app?vid=295489f9-6248-412c-b34b-714218cc74ff"},"vehicle_type_id":"4","last_reported":1721588753,"current_range_meters":6800,"station_id":"ce4bh9p2rcd13ifvqec0","pricing_plan_id":"cebpf4jnsgd1na2vs0mg"},{"bike_id":"c896b117-e1aa-4587-96cb-d5e746d9fd03","system_id":"levelo_inurba_marseille","lat":43.291994,"lon":5.392907,"is_reserved":false,"is_disabled":false,"rental_uris":{"android":"levelo://app?vid=c896b117-e1aa-4587-96cb-d5e746d9fd03","ios":"levelo://app?vid=c896b117-e1aa-4587-96cb-d5e746d9fd03"},"vehicle_type_id":"4","last_reported":1721588753,"current_range_meters":0,"station_id":"ce4bh192rcd13ifvqdd0","pricing_plan_id":"cebpf4jnsgd1na2vs0mg"},{"bike_id":"778074cc-f615-4fbb-9a02-9ee88ca9a65f","system_id":"levelo_inurba_marseille","lat":43.291994,"lon":5.392907,"is_reserved":false,"is_disabled":false,"rental_uris":{"android":"levelo://app?vid=778074cc-f615-4fbb-9a02-9ee88ca9a65f","ios":"levelo://app?vid=778074cc-f615-4fbb-9a02-9ee88ca9a65f"},"vehicle_type_id":"4","last_reported":1721588753,"current_range_meters":0,"station_id":"ce4bh192rcd13ifvqdd0","pricing_plan_id":"cebpf4jnsgd1na2vs0mg"},{"bike_id":"d07f0931-3319-4656-9420-d3afb83e9c83","system_id":"levelo_inurba_marseille","lat":43.294314,"lon":5.397498,"is_reserved":false,"is_disabled":false,"rental_uris":{"android":"levelo://app?vid=d07f0931-3319-4656-9420-d3afb83e9c83","ios":"levelo://app?vid=d07f0931-3319-4656-9420-d3afb83e9c83"},"vehicle_type_id":"4","last_reported":1721588753,"current_range_meters":12400,"station_id":"ce4bh3h2rcd13ifvqdo0","pricing_plan_id":"cebpf4jnsgd1na2vs0mg"},{"bike_id":"c2e5b199-6566-44f1-b501-3624d75e5238","system_id":"levelo_inurba_marseille","lat":43.284538,"lon":5.358657,"is_reserved":false,"is_disabled":false,"rental_uris":{"android":"levelo://app?vid=c2e5b199-6566-44f1-b501-3624d75e5238","ios":"levelo://app?vid=c2e5b199-6566-44f1-b501-3624d75e5238"},"vehicle_type_id":"4","last_reported":1721588753,"current_range_meters":28000,"station_id":"ce4bhah2rcd13ifvqei0","pricing_plan_id":"cebpf4jnsgd1na2vs0mg"},{"bike_id":"5c8a5424-c23f-41ba-bee0-51ac12fb0e10","system_id":"levelo_inurba_marseille","lat":43.284538,"lon":5.358657,"is_reserved":false,"is_disabled":false,"rental_uris":{"android":"levelo://app?vid=5c8a5424-c23f-41ba-bee0-51ac12fb0e10","ios":"levelo://app?vid=5c8a5424-c23f-41ba-bee0-51ac12fb0e10"},"vehicle_type_id":"4","last_reported":1721588753,"current_range_meters":17600,"station_id":"ce4bhah2rcd13ifvqei0","pricing_plan_id":"cebpf4jnsgd1na2vs0mg"},{"bike_id":"c4305b62-8f0c-4f44-80cc-88995b919cec","system_id":"levelo_inurba_marseille","lat":43.284534,"lon":5.358662,"is_reserved":false,"is_disabled":false,"rental_uris":{"android":"levelo://app?vid=c4305b62-8f0c-4f44-80cc-88995b919cec","ios":"levelo://app?vid=c4305b62-8f0c-4f44-80cc-88995b919cec"},"vehicle_type_id":"4","last_reported":1721588753,"current_range_meters":28000,"station_id":"ce4bhah2rcd13ifvqei0","pricing_plan_id":"cebpf4jnsgd1na2vs0mg"},{"bike_id":"5f786aaf-1472-415e-ada4-2fd475033890","system_id":"levelo_inurba_marseille","lat":43.28624,"lon":5.35104,"is_reserved":false,"is_disabled":false,"rental_uris":{"android":"levelo://app?vid=5f786aaf-1472-415e-ada4-2fd475033890","ios":"levelo://app?vid=5f786aaf-1472-415e-ada4-2fd475033890"},"vehicle_type_id":"4","last_reported":1721588753,"current_range_meters":31200,"station_id":"ce4bhch2rcd13ifvqeug","pricing_plan_id":"cebpf4jnsgd1na2vs0mg"},{"bike_id":"a03c3388-d609-47e6-a53e-1636ac0893fd","system_id":"levelo_inurba_marseille","lat":43.28624,"lon":5.35104,"is_reserved":false,"is_disabled":false,"rental_uris":{"android":"levelo://app?vid=a03c3388-d609-47e6-a53e-1636ac0893fd","ios":"levelo://app?vid=a03c3388-d609-47e6-a53e-1636ac0893fd"},"vehicle_type_id":"4","last_reported":1721588753,"current_range_meters":22400,"station_id":"ce4bhch2rcd13ifvqeug","pricing_plan_id":"cebpf4jnsgd1na2vs0mg"},{"bike_id":"754fd29f-4517-4b78-80af-c4da039915bb","system_id":"levelo_inurba_marseille","lat":43.28622,"lon":5.35106,"is_reserved":false,"is_disabled":false,"rental_uris":{"android":"levelo://app?vid=754fd29f-4517-4b78-80af-c4da039915bb","ios":"levelo://app?vid=754fd29f-4517-4b78-80af-c4da039915bb"},"vehicle_type_id":"4","last_reported":1721588753,"current_range_meters":25200,"station_id":"ce4bhch2rcd13ifvqeug","pricing_plan_id":"cebpf4jnsgd1na2vs0mg"},{"bike_id":"1218f252-62bb-4f0f-8c07-48f8b1818320","system_id":"levelo_inurba_marseille","lat":43.28621,"lon":5.35109,"is_reserved":false,"is_disabled":false,"rental_uris":{"android":"levelo://app?vid=1218f252-62bb-4f0f-8c07-48f8b1818320","ios":"levelo://app?vid=1218f252-62bb-4f0f-8c07-48f8b1818320"},"vehicle_type_id":"4","last_reported":1721588753,"current_range_meters":4000,"station_id":"ce4bhch2rcd13ifvqeug","pricing_plan_id":"cebpf4jnsgd1na2vs0mg"},{"bike_id":"d258d122-b6c7-499f-9dd7-59b26c1dbd85","system_id":"levelo_inurba_marseille","lat":43.294314,"lon":5.397498,"is_reserved":false,"is_disabled":false,"rental_uris":{"android":"levelo://app?vid=d258d122-b6c7-499f-9dd7-59b26c1dbd85","ios":"levelo://app?vid=d258d122-b6c7-499f-9dd7-59b26c1dbd85"},"vehicle_type_id":"4","last_reported":1721588753,"current_range_meters":28800,"station_id":"ce4bh3h2rcd13ifvqdo0","pricing_plan_id":"cebpf4jnsgd1na2vs0mg"},{"bike_id":"4876186d-acc5-48fb-b582-f80cf1a91fd3","system_id":"levelo_inurba_marseille","lat":43.285856,"lon":5.350771,"is_reserved":false,"is_disabled":false,"rental_uris":{"android":"levelo://app?vid=4876186d-acc5-48fb-b582-f80cf1a91fd3","ios":"levelo://app?vid=4876186d-acc5-48fb-b582-f80cf1a91fd3"},"vehicle_type_id":"4","last_reported":1721588753,"current_range_meters":18800,"station_id":"ce4bhch2rcd13ifvqeug","pricing_plan_id":"cebpf4jnsgd1na2vs0mg"},{"bike_id":"9c1a2246-995e-4f89-8013-60c081923027","system_id":"levelo_inurba_marseille","lat":43.286207,"lon":5.351053,"is_reserved":false,"is_disabled":false,"rental_uris":{"android":"levelo://app?vid=9c1a2246-995e-4f89-8013-60c081923027","ios":"levelo://app?vid=9c1a2246-995e-4f89-8013-60c081923027"},"vehicle_type_id":"4","last_reported":1721588753,"current_range_meters":26000,"station_id":"ce4bhch2rcd13ifvqeug","pricing_plan_id":"cebpf4jnsgd1na2vs0mg"},{"bike_id":"d1ac43f1-92fc-4b5f-a9bb-fef7d79e68dc","system_id":"levelo_inurba_marseille","lat":43.28621,"lon":5.35104,"is_reserved":false,"is_disabled":false,"rental_uris":{"android":"levelo://app?vid=d1ac43f1-92fc-4b5f-a9bb-fef7d79e68dc","ios":"levelo://app?vid=d1ac43f1-92fc-4b5f-a9bb-fef7d79e68dc"},"vehicle_type_id":"4","last_reported":1721588753,"current_range_meters":23600,"station_id":"ce4bhch2rcd13ifvqeug","pricing_plan_id":"cebpf4jnsgd1na2vs0mg"},{"bike_id":"2f5da0b5-f6d0-4206-b14e-63e16b4d8962","system_id":"levelo_inurba_marseille","lat":43.28619,"lon":5.35109,"is_reserved":false,"is_disabled":false,"rental_uris":{"android":"levelo://app?vid=2f5da0b5-f6d0-4206-b14e-63e16b4d8962","ios":"levelo://app?vid=2f5da0b5-f6d0-4206-b14e-63e16b4d8962"},"vehicle_type_id":"4","last_reported":1721588753,"current_range_meters":28000,"station_id":"ce4bhch2rcd13ifvqeug","pricing_plan_id":"cebpf4jnsgd1na2vs0mg"},{"bike_id":"aa4fc1b0-c441-475b-aa03-2fe2890712d1","system_id":"levelo_inurba_marseille","lat":43.28619,"lon":5.35106,"is_reserved":false,"is_disabled":false,"rental_uris":{"android":"levelo://app?vid=aa4fc1b0-c441-475b-aa03-2fe2890712d1","ios":"levelo://app?vid=aa4fc1b0-c441-475b-aa03-2fe2890712d1"},"vehicle_type_id":"4","last_reported":1721588753,"current_range_meters":11600,"station_id":"ce4bhch2rcd13ifvqeug","pricing_plan_id":"cebpf4jnsgd1na2vs0mg"},{"bike_id":"2c5cf88a-babb-4a3a-b6a4-a736d0d24427","system_id":"levelo_inurba_marseille","lat":43.28618,"lon":5.35109,"is_reserved":false,"is_disabled":false,"rental_uris":{"android":"levelo://app?vid=2c5cf88a-babb-4a3a-b6a4-a736d0d24427","ios":"levelo://app?vid=2c5cf88a-babb-4a3a-b6a4-a736d0d24427"},"vehicle_type_id":"4","last_reported":1721588753,"current_range_meters":26400,"station_id":"ce4bhch2rcd13ifvqeug","pricing_plan_id":"cebpf4jnsgd1na2vs0mg"},{"bike_id":"b3c19098-6043-437b-8e06-63c20fe37fea","system_id":"levelo_inurba_marseille","lat":43.28617,"lon":5.35111,"is_reserved":false,"is_disabled":false,"rental_uris":{"android":"levelo://app?vid=b3c19098-6043-437b-8e06-63c20fe37fea","ios":"levelo://app?vid=b3c19098-6043-437b-8e06-63c20fe37fea"},"vehicle_type_id":"4","last_reported":1721588753,"current_range_meters":31200,"station_id":"ce4bhch2rcd13ifvqeug","pricing_plan_id":"cebpf4jnsgd1na2vs0mg"},{"bike_id":"bcc0f077-fc93-41ac-b290-449bb271b9ce","system_id":"levelo_inurba_marseille","lat":43.28618,"lon":5.35106,"is_reserved":false,"is_disabled":false,"rental_uris":{"android":"levelo://app?vid=bcc0f077-fc93-41ac-b290-449bb271b9ce","ios":"levelo://app?vid=bcc0f077-fc93-41ac-b290-449bb271b9ce"},"vehicle_type_id":"4","last_reported":1721588753,"current_range_meters":31200,"station_id":"ce4bhch2rcd13ifvqeug","pricing_plan_id":"cebpf4jnsgd1na2vs0mg"},{"bike_id":"4e63e9d4-dcc9-4e27-bdc7-7ab27b577e39","system_id":"levelo_inurba_marseille","lat":43.28617,"lon":5.35109,"is_reserved":false,"is_disabled":false,"rental_uris":{"android":"levelo://app?vid=4e63e9d4-dcc9-4e27-bdc7-7ab27b577e39","ios":"levelo://app?vid=4e63e9d4-dcc9-4e27-bdc7-7ab27b577e39"},"vehicle_type_id":"4","last_reported":1721588753,"current_range_meters":22800,"station_id":"ce4bhch2rcd13ifvqeug","pricing_plan_id":"cebpf4jnsgd1na2vs0mg"},{"bike_id":"2a7f0312-e077-4d09-aa10-b44d0bbc5ba0","system_id":"levelo_inurba_marseille","lat":43.28619,"lon":5.35101,"is_reserved":false,"is_disabled":false,"rental_uris":{"android":"levelo://app?vid=2a7f0312-e077-4d09-aa10-b44d0bbc5ba0","ios":"levelo://app?vid=2a7f0312-e077-4d09-aa10-b44d0bbc5ba0"},"vehicle_type_id":"4","last_reported":1721588753,"current_range_meters":30800,"station_id":"ce4bhch2rcd13ifvqeug","pricing_plan_id":"cebpf4jnsgd1na2vs0mg"},{"bike_id":"3c4d6dd1-a3bd-48cd-8209-912a580ac55f","system_id":"levelo_inurba_marseille","lat":43.28618,"lon":5.35104,"is_reserved":false,"is_disabled":false,"rental_uris":{"android":"levelo://app?vid=3c4d6dd1-a3bd-48cd-8209-912a580ac55f","ios":"levelo://app?vid=3c4d6dd1-a3bd-48cd-8209-912a580ac55f"},"vehicle_type_id":"4","last_reported":1721588753,"current_range_meters":16000,"station_id":"ce4bhch2rcd13ifvqeug","pricing_plan_id":"cebpf4jnsgd1na2vs0mg"},{"bike_id":"030885e8-7104-4aa3-952e-a6599450c02c","system_id":"levelo_inurba_marseille","lat":43.28618,"lon":5.35102,"is_reserved":false,"is_disabled":false,"rental_uris":{"android":"levelo://app?vid=030885e8-7104-4aa3-952e-a6599450c02c","ios":"levelo://app?vid=030885e8-7104-4aa3-952e-a6599450c02c"},"vehicle_type_id":"4","last_reported":1721588753,"current_range_meters":10400,"station_id":"ce4bhch2rcd13ifvqeug","pricing_plan_id":"cebpf4jnsgd1na2vs0mg"},{"bike_id":"174ec0c2-75d9-4694-9f41-9d045feea630","system_id":"levelo_inurba_marseille","lat":43.28618,"lon":5.35102,"is_reserved":false,"is_disabled":false,"rental_uris":{"android":"levelo://app?vid=174ec0c2-75d9-4694-9f41-9d045feea630","ios":"levelo://app?vid=174ec0c2-75d9-4694-9f41-9d045feea630"},"vehicle_type_id":"4","last_reported":1721588753,"current_range_meters":14400,"station_id":"ce4bhch2rcd13ifvqeug","pricing_plan_id":"cebpf4jnsgd1na2vs0mg"},{"bike_id":"a4752e73-0f3a-4a01-b0d2-5a0fe55576f2","system_id":"levelo_inurba_marseille","lat":43.28617,"lon":5.35105,"is_reserved":false,"is_disabled":false,"rental_uris":{"android":"levelo://app?vid=a4752e73-0f3a-4a01-b0d2-5a0fe55576f2","ios":"levelo://app?vid=a4752e73-0f3a-4a01-b0d2-5a0fe55576f2"},"vehicle_type_id":"4","last_reported":1721588753,"current_range_meters":27200,"station_id":"ce4bhch2rcd13ifvqeug","pricing_plan_id":"cebpf4jnsgd1na2vs0mg"},{"bike_id":"18d4b674-5883-4b98-8f1b-bc795809b060","system_id":"levelo_inurba_marseille","lat":43.28619,"lon":5.35098,"is_reserved":false,"is_disabled":false,"rental_uris":{"android":"levelo://app?vid=18d4b674-5883-4b98-8f1b-bc795809b060","ios":"levelo://app?vid=18d4b674-5883-4b98-8f1b-bc795809b060"},"vehicle_type_id":"4","last_reported":1721588753,"current_range_meters":25200,"station_id":"ce4bhch2rcd13ifvqeug","pricing_plan_id":"cebpf4jnsgd1na2vs0mg"},{"bike_id":"f84f6a8e-4024-4aa1-83bc-755d475e9691","system_id":"levelo_inurba_marseille","lat":43.28616,"lon":5.35106,"is_reserved":false,"is_disabled":false,"rental_uris":{"android":"levelo://app?vid=f84f6a8e-4024-4aa1-83bc-755d475e9691","ios":"levelo://app?vid=f84f6a8e-4024-4aa1-83bc-755d475e9691"},"vehicle_type_id":"4","last_reported":1721588753,"current_range_meters":13200,"station_id":"ce4bhch2rcd13ifvqeug","pricing_plan_id":"cebpf4jnsgd1na2vs0mg"},{"bike_id":"88b784d8-c740-4a3b-9495-681f8a489cc7","system_id":"levelo_inurba_marseille","lat":43.28615,"lon":5.35109,"is_reserved":false,"is_disabled":false,"rental_uris":{"android":"levelo://app?vid=88b784d8-c740-4a3b-9495-681f8a489cc7","ios":"levelo://app?vid=88b784d8-c740-4a3b-9495-681f8a489cc7"},"vehicle_type_id":"4","last_reported":1721588753,"current_range_meters":9200,"station_id":"ce4bhch2rcd13ifvqeug","pricing_plan_id":"cebpf4jnsgd1na2vs0mg"},{"bike_id":"e51b6998-24af-4138-b156-ea2caed9cba2","system_id":"levelo_inurba_marseille","lat":43.28616,"lon":5.35105,"is_reserved":false,"is_disabled":false,"rental_uris":{"android":"levelo://app?vid=e51b6998-24af-4138-b156-ea2caed9cba2","ios":"levelo://app?vid=e51b6998-24af-4138-b156-ea2caed9cba2"},"vehicle_type_id":"4","last_reported":1721588753,"current_range_meters":31200,"station_id":"ce4bhch2rcd13ifvqeug","pricing_plan_id":"cebpf4jnsgd1na2vs0mg"},{"bike_id":"05e07208-763c-48cd-837e-409ef3054101","system_id":"levelo_inurba_marseille","lat":43.28615,"lon":5.35107,"is_reserved":false,"is_disabled":false,"rental_uris":{"android":"levelo://app?vid=05e07208-763c-48cd-837e-409ef3054101","ios":"levelo://app?vid=05e07208-763c-48cd-837e-409ef3054101"},"vehicle_type_id":"4","last_reported":1721588753,"current_range_meters":31200,"station_id":"ce4bhch2rcd13ifvqeug","pricing_plan_id":"cebpf4jnsgd1na2vs0mg"},{"bike_id":"12994335-79f1-471c-bec6-5b3811c44e66","system_id":"levelo_inurba_marseille","lat":43.28617,"lon":5.35099,"is_reserved":false,"is_disabled":false,"rental_uris":{"android":"levelo://app?vid=12994335-79f1-471c-bec6-5b3811c44e66","ios":"levelo://app?vid=12994335-79f1-471c-bec6-5b3811c44e66"},"vehicle_type_id":"4","last_reported":1721588753,"current_range_meters":18800,"station_id":"ce4bhch2rcd13ifvqeug","pricing_plan_id":"cebpf4jnsgd1na2vs0mg"},{"bike_id":"76e5be6a-ac28-4bf6-8c20-bd67c497cf23","system_id":"levelo_inurba_marseille","lat":43.28616,"lon":5.35102,"is_reserved":false,"is_disabled":false,"rental_uris":{"android":"levelo://app?vid=76e5be6a-ac28-4bf6-8c20-bd67c497cf23","ios":"levelo://app?vid=76e5be6a-ac28-4bf6-8c20-bd67c497cf23"},"vehicle_type_id":"4","last_reported":1721588753,"current_range_meters":31200,"station_id":"ce4bhch2rcd13ifvqeug","pricing_plan_id":"cebpf4jnsgd1na2vs0mg"},{"bike_id":"e53bcf95-1afe-4ea3-8b21-0656b0f938ba","system_id":"levelo_inurba_marseille","lat":43.28616,"lon":5.351,"is_reserved":false,"is_disabled":false,"rental_uris":{"android":"levelo://app?vid=e53bcf95-1afe-4ea3-8b21-0656b0f938ba","ios":"levelo://app?vid=e53bcf95-1afe-4ea3-8b21-0656b0f938ba"},"vehicle_type_id":"4","last_reported":1721588753,"current_range_meters":30800,"station_id":"ce4bhch2rcd13ifvqeug","pricing_plan_id":"cebpf4jnsgd1na2vs0mg"},{"bike_id":"8a4b64cc-32f4-4157-8ae7-d83c848a74e1","system_id":"levelo_inurba_marseille","lat":43.286158,"lon":5.350996,"is_reserved":false,"is_disabled":false,"rental_uris":{"android":"levelo://app?vid=8a4b64cc-32f4-4157-8ae7-d83c848a74e1","ios":"levelo://app?vid=8a4b64cc-32f4-4157-8ae7-d83c848a74e1"},"vehicle_type_id":"4","last_reported":1721588753,"current_range_meters":28000,"station_id":"ce4bhch2rcd13ifvqeug","pricing_plan_id":"cebpf4jnsgd1na2vs0mg"},{"bike_id":"cb4bc52d-05ee-4191-b1a3-08e5e4a3a4a7","system_id":"levelo_inurba_marseille","lat":43.28616,"lon":5.35098,"is_reserved":false,"is_disabled":false,"rental_uris":{"android":"levelo://app?vid=cb4bc52d-05ee-4191-b1a3-08e5e4a3a4a7","ios":"levelo://app?vid=cb4bc52d-05ee-4191-b1a3-08e5e4a3a4a7"},"vehicle_type_id":"4","last_reported":1721588753,"current_range_meters":31200,"station_id":"ce4bhch2rcd13ifvqeug","pricing_plan_id":"cebpf4jnsgd1na2vs0mg"},