{"last_updated":1728911904,"ttl":60,"version":"2.2","data":{"bikes":[{"bike_id":"a9a7cf18-0b8b-45fe-a5f2-948929e8bf64","system_id":"levelo_inurba_marseille","lat":43.23151,"lon":5.43717,"is_reserved":false,"is_disabled":false,"rental_uris":{"android":"levelo://app?vid=a9a7cf18-0b8b-45fe-a5f2-948929e8bf64","ios":"levelo://app?vid=a9a7cf18-0b8b-45fe-a5f2-948929e8bf64"},"vehicle_type_id":"4","last_reported":1728911905,"current_range_meters":9600,"station_id":"ce4bhmp2rcd13ifvqgog","pricing_plan_id":"cebpf4jnsgd1na2vs0mg"},{"bike_id":"be207e6b-1d51-4bd2-aff1-38b476032232","system_id":"levelo_inurba_marseille","lat":43.29011,"lon":5.38126,"is_reserved":false,"is_disabled":false,"rental_uris":{"android":"levelo://app?vid=be207e6b-1d51-4bd2-aff1-38b476032232","ios":"levelo://app?vid=be207e6b-1d51-4bd2-aff1-38b476032232"},"vehicle_type_id":"4","last_reported":1728911905,"current_range_meters":18800,"station_id":"ce4bh4p2rcd13ifvqe1g","pricing_plan_id":"cebpf4jnsgd1na2vs0mg"},{"bike_id":"4c87ca31-f55a-48dc-a67f-eb9aeb2e0d9e","system_id":"levelo_inurba_marseille","lat":43.28151,"lon":5.42638,"is_reserved":false,"is_disabled":false,"rental_uris":{"android":"levelo://app?vid=4c87ca31-f55a-48dc-a67f-eb9aeb2e0d9e","ios":"levelo://app?vid=4c87ca31-f55a-48dc-a67f-eb9aeb2e0d9e"},"vehicle_type_id":"4","last_reported":1728911905,"current_range_meters":28800,"station_id":"ce4bhnh2rcd13ifvqgug","pricing_plan_id":"cebpf4jnsgd1na2vs0mg"},{"bike_id":"c91cca1d-bc4f-4d46-89fd-084a4dce297b","system_id":"levelo_inurba_marseille","lat":43.29804,"lon":5.38094,"is_reserved":false,"is_disabled":false,"rental_uris":{"android":"levelo://app?vid=c91cca1d-bc4f-4d46-89fd-084a4dce297b","ios":"levelo://app?vid=c91cca1d-bc4f-4d46-89fd-084a4dce297b"},"vehicle_type_id":"4","last_reported":1728911905,"current_range_meters":28000,"station_id":"ce4bgip2rcd13ifvqbb0","pricing_plan_id":"cebpf4jnsgd1na2vs0mg"},{"bike_id":"72cf6927-8aff-4a5e-970d-97504ca42599","system_id":"levelo_inurba_marseille","lat":43.26548,"lon":5.37284,"is_reserved":false,"is_disabled":false,"rental_uris":{"android":"levelo://app?vid=72cf6927-8aff-4a5e-970d-97504ca42599","ios":"levelo://app?vid=72cf6927-8aff-4a5e-970d-97504ca42599"},"vehicle_type_id":"4","last_reported":1728911905,"current_range_meters":22800,"station_id":"ce4bhg12rcd13ifvqf70","pricing_plan_id":"cebpf4jnsgd1na2vs0mg"},{"bike_id":"dc331925-335d-4ca2-bc8c-e502d2196b42","system_id":"levelo_inurba_marseille","lat":43.26952,"lon":5.38641,"is_reserved":false,"is_disabled":false,"rental_uris":{"android":"levelo://app?vid=dc331925-335d-4ca2-bc8c-e502d2196b42","ios":"levelo://app?vid=dc331925-335d-4ca2-bc8c-e502d2196b42"},"vehicle_type_id":"4","last_reported":1728911905,"current_range_meters":8800,"station_id":"ce4bhh92rcd13ifvqfh0","pricing_plan_id":"cebpf4jnsgd1na2vs0mg"},{"bike_id":"7ddc71d1-b19a-4986-8f3c-2e869e7706ba","system_id":"levelo_inurba_marseille","lat":43.28416,"lon":5.34992,"is_reserved":false,"is_disabled":false,"rental_uris":{"android":"levelo://app?vid=7ddc71d1-b19a-4986-8f3c-2e869e7706ba","ios":"levelo://app?vid=7ddc71d1-b19a-4986-8f3c-2e869e7706ba"},"vehicle_type_id":"4","last_reported":1728911905,"current_range_meters":38000,"station_id":"ce4bhbh2rcd13ifvqepg","pricing_plan_id":"cebpf4jnsgd1na2vs0mg"},{"bike_id":"cc52ec16-9b91-4feb-bc8e-76494a4e5ff2","system_id":"levelo_inurba_marseille","lat":43.29372,"lon":5.37843,"is_reserved":false,"is_disabled":false,"rental_uris":{"android":"levelo://app?vid=cc52ec16-9b91-4feb-bc8e-76494a4e5ff2","ios":"levelo://app?vid=cc52ec16-9b91-4feb-bc8e-76494a4e5ff2"},"vehicle_type_id":"4","last_reported":1728911905,"current_range_meters":36000,"station_id":"ce4bgjh2rcd13ifvqbf0","pricing_plan_id":"cebpf4jnsgd1na2vs0mg"},{"bike_id":"be738ba0-0bea-493f-89d2-b4b26426787a","system_id":"levelo_inurba_marseille","lat":43.29101,"lon":5.38151,"is_reserved":false,"is_disabled":false,"rental_uris":{"android":"levelo://app?vid=be738ba0-0bea-493f-89d2-b4b26426787a","ios":"levelo://app?vid=be738ba0-0bea-493f-89d2-b4b26426787a"},"vehicle_type_id":"4","last_reported":1728911905,"current_range_meters":28000,"station_id":"ce4bh512rcd13ifvqe2g","pricing_plan_id":"cebpf4jnsgd1na2vs0mg"},{"bike_id":"b20957d4-179b-46e8-baa0-e096cc508800","system_id":"levelo_inurba_marseille","lat":43.27905,"lon":5.38009,"is_reserved":false,"is_disabled":false,"rental_uris":{"android":"levelo://app?vid=b20957d4-179b-46e8-baa0-e096cc508800","ios":"levelo://app?vid=b20957d4-179b-46e8-baa0-e096cc508800"},"vehicle_type_id":"4","last_reported":1728911905,"current_range_meters":4000,"station_id":"ce4bhf92rcd13ifvqf50","pricing_plan_id":"cebpf4jnsgd1na2vs0mg"},{"bike_id":"4e613db3-e5ba-4196-89fc-a847f0665a2e","system_id":"levelo_inurba_marseille","lat":43.27498,"lon":5.42466,"is_reserved":false,"is_disabled":false,"rental_uris":{"android":"levelo://app?vid=4e613db3-e5ba-4196-89fc-a847f0665a2e","ios":"levelo://app?vid=4e613db3-e5ba-4196-89fc-a847f0665a2e"},"vehicle_type_id":"4","last_reported":1728911905,"current_range_meters":22400,"station_id":"ce4bhn92rcd13ifvqgrg","pricing_plan_id":"cebpf4jnsgd1na2vs0mg"},{"bike_id":"84212960-e71d-460a-b54a-864eaa67c75b","system_id":"levelo_inurba_marseille","lat":43.28154,"lon":5.42644,"is_reserved":false,"is_disabled":false,"rental_uris":{"android":"levelo://app?vid=84212960-e71d-460a-b54a-864eaa67c75b","ios":"levelo://app?vid=84212960-e71d-460a-b54a-864eaa67c75b"},"vehicle_type_id":"4","last_reported":1728911905,"current_range_meters":6400,"station_id":"ce4bhnh2rcd13ifvqgug","pricing_plan_id":"cebpf4jnsgd1na2vs0mg"},{"bike_id":"3f9629f5-d29c-42cb-8689-0f43b5e631ce","system_id":"levelo_inurba_marseille","lat":43.29955,"lon":5.41326,"is_reserved":false,"is_disabled":false,"rental_uris":{"android":"levelo://app?vid=3f9629f5-d29c-42cb-8689-0f43b5e631ce","ios":"levelo://app?vid=3f9629f5-d29c-42cb-8689-0f43b5e631ce"},"vehicle_type_id":"4","last_reported":1728911905,"current_range_meters":24800,"station_id":"ce4bhp12rcd13ifvqh9g","pricing_plan_id":"cebpf4jnsgd1na2vs0mg"},{"bike_id":"0589d0d8-7280-47e1-bc8c-30fa4694b936","system_id":"levelo_inurba_marseille","lat":43.31756,"lon":5.39017,"is_reserved":false,"is_disabled":false,"rental_uris":{"android":"levelo://app?vid=0589d0d8-7280-47e1-bc8c-30fa4694b936","ios":"levelo://app?vid=0589d0d8-7280-47e1-bc8c-30fa4694b936"},"vehicle_type_id":"4","last_reported":1728911905,"current_range_meters":27200,"station_id":"ce4bhqp2rcd13ifvqhng","pricing_plan_id":"cebpf4jnsgd1na2vs0mg"},{"bike_id":"72847957-b91c-4739-a051-6dd0337137d9","system_id":"levelo_inurba_marseille","lat":43.29842,"lon":5.36276,"is_reserved":false,"is_disabled":false,"rental_uris":{"android":"levelo://app?vid=72847957-b91c-4739-a051-6dd0337137d9","ios":"levelo://app?vid=72847957-b91c-4739-a051-6dd0337137d9"},"vehicle_type_id":"4","last_reported":1728911905,"current_range_meters":25600,"station_id":"ce4bgpp2rcd13ifvqc3g","pricing_plan_id":"cebpf4jnsgd1na2vs0mg"},{"bike_id":"1116e29b-a23b-43ff-91e1-cb9bf79a1af7","system_id":"levelo_inurba_marseille","lat":43.28663,"lon":5.36367,"is_reserved":false,"is_disabled":false,"rental_uris":{"android":"levelo://app?vid=1116e29b-a23b-43ff-91e1-cb9bf79a1af7","ios":"levelo://app?vid=1116e29b-a23b-43ff-91e1-cb9bf79a1af7"},"vehicle_type_id":"4","last_reported":1728911905,"current_range_meters":39200,"station_id":"ce4bhah2rcd13ifvqej0","pricing_plan_id":"cebpf4jnsgd1na2vs0mg"},{"bike_id":"a7c1bca9-9784-48b5-b1c1-fbf9a380c681","system_id":"levelo_inurba_marseille","lat":43.27495,"lon":5.42456,"is_reserved":false,"is_disabled":false,"rental_uris":{"android":"levelo://app?vid=a7c1bca9-9784-48b5-b1c1-fbf9a380c681","ios":"levelo://app?vid=a7c1bca9-9784-48b5-b1c1-fbf9a380c681"},"vehicle_type_id":"4","last_reported":1728911905,"current_range_meters":4800,"station_id":"ce4bhn92rcd13ifvqgrg","pricing_plan_id":"cebpf4jnsgd1na2vs0mg"},{"bike_id":"ab9a601c-5f10-4d3a-b526-b721ab4b9353","system_id":"levelo_inurba_marseille","lat":43.29719,"lon":5.37688,"is_reserved":false,"is_disabled":false,"rental_uris":{"android":"levelo://app?vid=ab9a601c-5f10-4d3a-b526-b721ab4b9353","ios":"levelo://app?vid=ab9a601c-5f10-4d3a-b526-b721ab4b9353"},"vehicle_type_id":"4","last_reported":1728911905,"current_range_meters":38400,"station_id":"ce4bgkh2rcd13ifvqbl0","pricing_plan_id":"cebpf4jnsgd1na2vs0mg"},{"bike_id":"9a5f02e7-f2c0-4d66-9b29-b5537d018711","system_id":"levelo_inurba_marseille","lat":43.25824,"lon":5.3944,"is_reserved":false,"is_disabled":false,"rental_uris":{"android":"levelo://app?vid=9a5f02e7-f2c0-4d66-9b29-b5537d018711","ios":"levelo://app?vid=9a5f02e7-f2c0-4d66-9b29-b5537d018711"},"vehicle_type_id":"4","last_reported":1728911905,"current_range_meters":36800,"station_id":"ce4bhip2rcd13ifvqft0","pricing_plan_id":"cebpf4jnsgd1na2vs0mg"},{"bike_id":"e50744ec-6573-4d8d-8e61-afa7b3b35806","system_id":"levelo_inurba_marseille","lat":43.32657,"lon":5.40994,"is_reserved":false,"is_disabled":false,"rental_uris":{"android":"levelo://app?vid=e50744ec-6573-4d8d-8e61-afa7b3b35806","ios":"levelo://app?vid=e50744ec-6573-4d8d-8e61-afa7b3b35806"},"vehicle_type_id":"4","last_reported":1728911905,"current_range_meters":35200,"station_id":"ce4bhpp2rcd13ifvqhgg","pricing_plan_id":"cebpf4jnsgd1na2vs0mg"},{"bike_id":"9b006703-6ad1-417a-a37f-01be00ec5bde","system_id":"levelo_inurba_marseille","lat":43.23152,"lon":5.43717,"is_reserved":false,"is_disabled":false,"rental_uris":{"android":"levelo://app?vid=9b006703-6ad1-417a-a37f-01be00ec5bde","ios":"levelo://app?vid=9b006703-6ad1-417a-a37f-01be00ec5bde"},"vehicle_type_id":"4","last_reported":1728911905,"current_range_meters":3600,"station_id":"ce4bhmp2rcd13ifvqgog","pricing_plan_id":"cebpf4jnsgd1na2vs0mg"},{"bike_id":"1c9343e4-7b78-402e-b1fe-6599c269887e","system_id":"levelo_inurba_marseille","lat":43.314515,"lon":5.37384,"is_reserved":false,"is_disabled":false,"rental_uris":{"android":"levelo://app?vid=1c9343e4-7b78-402e-b1fe-6599c269887e","ios":"levelo://app?vid=1c9343e4-7b78-402e-b1fe-6599c269887e"},"vehicle_type_id":"4","last_reported":1728911905,"current_range_meters":28000,"station_id":"","pricing_plan_id":"cebpf4jnsgd1na2vs0mg"},{"bike_id":"43242376-b610-476b-80d1-6908dafebed6","system_id":"levelo_inurba_marseille","lat":43.27056,"lon":5.40263,"is_reserved":false,"is_disabled":false,"rental_uris":{"android":"levelo://app?vid=43242376-b610-476b-80d1-6908dafebed6","ios":"levelo://app?vid=43242376-b610-476b-80d1-6908dafebed6"},"vehicle_type_id":"4","last_reported":1728911905,"current_range_meters":12800,"station_id":"ce4bhk92rcd13ifvqgc0","pricing_plan_id":"cebpf4jnsgd1na2vs0mg"},{"bike_id":"c82ba427-6650-49e4-ac87-a99c82a84bb4","system_id":"levelo_inurba_marseille","lat":43.30179,"lon":5.36611,"is_reserved":false,"is_disabled":false,"rental_uris":{"android":"levelo://app?vid=c82ba427-6650-49e4-ac87-a99c82a84bb4","ios":"levelo://app?vid=c82ba427-6650-49e4-ac87-a99c82a84bb4"},"vehicle_type_id":"4","last_reported":1728911905,"current_range_meters":39200,"station_id":"ce4bgrh2rcd13ifvqc8g","pricing_plan_id":"cebpf4jnsgd1na2vs0mg"},{"bike_id":"a1377604-2a48-4e9d-b6a2-cee20e0184d4","system_id":"levelo_inurba_marseille","lat":43.29162,"lon":5.37139,"is_reserved":false,"is_disabled":false,"rental_uris":{"android":"levelo://app?vid=a1377604-2a48-4e9d-b6a2-cee20e0184d4","ios":"levelo://app?vid=a1377604-2a48-4e9d-b6a2-cee20e0184d4"},"vehicle_type_id":"4","last_reported":1728911905,"current_range_meters":4800,"station_id":"ce4bha92rcd13ifvqeh0","pricing_plan_id":"cebpf4jnsgd1na2vs0mg"},{"bike_id":"28dc14f3-5507-4242-99be-0e7fec408fc2","system_id":"levelo_inurba_marseille","lat":43.31483,"lon":5.37308,"is_reserved":false,"is_disabled":false,"rental_uris":{"android":"levelo://app?vid=28dc14f3-5507-4242-99be-0e7fec408fc2","ios":"levelo://app?vid=28dc14f3-5507-4242-99be-0e7fec408fc2"},"vehicle_type_id":"4","last_reported":1728911905,"current_range_meters":9600,"station_id":"ce4bgt12rcd13ifvqcd0","pricing_plan_id":"cebpf4jnsgd1na2vs0mg"},{"bike_id":"e5e81cb2-5a31-44cd-ac8f-9a45f773b9b5","system_id":"levelo_inurba_marseille","lat":43.28612,"lon":5.37063,"is_reserved":false,"is_disabled":false,"rental_uris":{"android":"levelo://app?vid=e5e81cb2-5a31-44cd-ac8f-9a45f773b9b5","ios":"levelo://app?vid=e5e81cb2-5a31-44cd-ac8f-9a45f773b9b5"},"vehicle_type_id":"4","last_reported":1728911905,"current_range_meters":40000,"station_id":"ce4bht12rcd13ifvqi60","pricing_plan_id":"cebpf4jnsgd1na2vs0mg"},{"bike_id":"969cfeb2-178b-4d82-8b59-635595546a6c","system_id":"levelo_inurba_marseille","lat":43.28999,"lon":5.35609,"is_reserved":false,"is_disabled":false,"rental_uris":{"android":"levelo://app?vid=969cfeb2-178b-4d82-8b59-635595546a6c","ios":"levelo://app?vid=969cfeb2-178b-4d82-8b59-635595546a6c"},"vehicle_type_id":"4","last_reported":1728911905,"current_range_meters":39200,"station_id":"","pricing_plan_id":"cebpf4jnsgd1na2vs0mg"},{"bike_id":"ee574c0d-cfe6-4d4f-b37e-e5fd1824cfbe","system_id":"levelo_inurba_marseille","lat":43.28946,"lon":5.39634,"is_reserved":false,"is_disabled":false,"rental_uris":{"android":"levelo://app?vid=ee574c0d-cfe6-4d4f-b37e-e5fd1824cfbe","ios":"levelo://app?vid=ee574c0d-cfe6-4d4f-b37e-e5fd1824cfbe"},"vehicle_type_id":"4","last_reported":1728911905,"current_range_meters":3600,"station_id":"ce4bh3h2rcd13ifvqdn0","pricing_plan_id":"cebpf4jnsgd1na2vs0mg"},{"bike_id":"ade64326-bf0d-41c3-ad1a-aeb29fe0cb7e","system_id":"levelo_inurba_marseille","lat":43.27494,"lon":5.42452,"is_reserved":false,"is_disabled":false,"rental_uris":{"android":"levelo://app?vid=ade64326-bf0d-41c3-ad1a-aeb29fe0cb7e","ios":"levelo://app?vid=ade64326-bf0d-41c3-ad1a-aeb29fe0cb7e"},"vehicle_type_id":"4","last_reported":1728911905,"current_range_meters":17200,"station_id":"ce4bhn92rcd13ifvqgrg","pricing_plan_id":"cebpf4jnsgd1na2vs0mg"},{"bike_id":"0c7f703d-2da7-4cdd-8890-bcf7d6dcf878","system_id":"levelo_inurba_marseille","lat":43.29524,"lon":5.37498,"is_reserved":false,"is_disabled":false,"rental_uris":{"android":"levelo://app?vid=0c7f703d-2da7-4cdd-8890-bcf7d6dcf878","ios":"levelo://app?vid=0c7f703d-2da7-4cdd-8890-bcf7d6dcf878"},"vehicle_type_id":"4","last_reported":1728911905,"current_range_meters":6800,"station_id":"ce4bgkp2rcd13ifvqbmg","pricing_plan_id":"cebpf4jnsgd1na2vs0mg"},{"bike_id":"4a5939c9-d97b-474f-8594-77a16be1c688","system_id":"levelo_inurba_marseille","lat":43.25,"lon":5.38933,"is_reserved":false,"is_disabled":false,"rental_uris":{"android":"levelo://app?vid=4a5939c9-d97b-474f-8594-77a16be1c688","ios":"levelo://app?vid=4a5939c9-d97b-474f-8594-77a16be1c688"},"vehicle_type_id":"4","last_reported":1728911905,"current_range_meters":33200,"station_id":"ce4bhgp2rcd13ifvqfd0","pricing_plan_id":"cebpf4jnsgd1na2vs0mg"},{"bike_id":"c0747cb4-574a-4869-940b-4c0f8e5185f0","system_id":"levelo_inurba_marseille","lat":43.29871,"lon":5.39724,"is_reserved":false,"is_disabled":false,"rental_uris":{"android":"levelo://app?vid=c0747cb4-574a-4869-940b-4c0f8e5185f0","ios":"levelo://app?vid=c0747cb4-574a-4869-940b-4c0f8e5185f0"},"vehicle_type_id":"4","last_reported":1728911905,"current_range_meters":38800,"station_id":"ce4bh0h2rcd13ifvqd50","pricing_plan_id":"cebpf4jnsgd1na2vs0mg"},{"bike_id":"c355a965-9dd0-4b07-b983-3618ea069bbb","system_id":"levelo_inurba_marseille","lat":43.24387,"lon":5.37051,"is_reserved":false,"is_disabled":false,"rental_uris":{"android":"levelo://app?vid=c355a965-9dd0-4b07-b983-3618ea069bbb","ios":"levelo://app?vid=c355a965-9dd0-4b07-b983-3618ea069bbb"},"vehicle_type_id":"4","last_reported":1728911905,"current_range_meters":30000,"station_id":"ce4bhhh2rcd13ifvqfk0","pricing_plan_id":"cebpf4jnsgd1na2vs0mg"},{"bike_id":"f9ef51fc-0de2-4380-a7a8-f7c53ff6af9e","system_id":"levelo_inurba_marseille","lat":43.28102,"lon":5.37833,"is_reserved":false,"is_disabled":false,"rental_uris":{"android":"levelo://app?vid=f9ef51fc-0de2-4380-a7a8-f7c53ff6af9e","ios":"levelo://app?vid=f9ef51fc-0de2-4380-a7a8-f7c53ff6af9e"},"vehicle_type_id":"4","last_reported":1728911905,"current_range_meters":10000,"station_id":"ce4bha12rcd13ifvqee0","pricing_plan_id":"cebpf4jnsgd1na2vs0mg"},{"bike_id":"151f06ed-3f2d-47f8-a489-f077727a2cc6","system_id":"levelo_inurba_marseille","lat":43.29592,"lon":5.38109,"is_reserved":false,"is_disabled":false,"rental_uris":{"android":"levelo://app?vid=151f06ed-3f2d-47f8-a489-f077727a2cc6","ios":"levelo://app?vid=151f06ed-3f2d-47f8-a489-f077727a2cc6"},"vehicle_type_id":"4","last_reported":1728911905,"current_range_meters":38800,"station_id":"ce4bgl12rcd13ifvqbo0","pricing_plan_id":"cebpf4jnsgd1na2vs0mg"},{"bike_id":"51a43f96-867e-4ab9-8ec5-999842e38d95","system_id":"levelo_inurba_marseille","lat":43.31072,"lon":5.40092,"is_reserved":false,"is_disabled":false,"rental_uris":{"android":"levelo://app?vid=51a43f96-867e-4ab9-8ec5-999842e38d95","ios":"levelo://app?vid=51a43f96-867e-4ab9-8ec5-999842e38d95"},"vehicle_type_id":"4","last_reported":1728911905,"current_range_meters":25200,"station_id":"","pricing_plan_id":"cebpf4jnsgd1na2vs0mg"},{"bike_id":"66bf2405-3b2c-4cd1-ba98-3d950d072db3","system_id":"levelo_inurba_marseille","lat":43.33761,"lon":5.37468,"is_reserved":false,"is_disabled":false,"rental_uris":{"android":"levelo://app?vid=66bf2405-3b2c-4cd1-ba98-3d950d072db3","ios":"levelo://app?vid=66bf2405-3b2c-4cd1-ba98-3d950d072db3"},"vehicle_type_id":"4","last_reported":1728911905,"current_range_meters":39200,"station_id":"ce4bgl12rcd13ifvqbo0","pricing_plan_id":"cebpf4jnsgd1na2vs0mg"},{"bike_id":"7fc43cba-fdb7-4ab0-9883-d67852ce743b","system_id":"levelo_inurba_marseille","lat":43.32473,"lon":5.36549,"is_reserved":false,"is_disabled":false,"rental_uris":{"android":"levelo://app?vid=7fc43cba-fdb7-4ab0-9883-d67852ce743b","ios":"levelo://app?vid=7fc43cba-fdb7-4ab0-9883-d67852ce743b"},"vehicle_type_id":"4","last_reported":1728911905,"current_range_meters":12800,"station_id":"ce4bhs12rcd13ifvqhvg","pricing_plan_id":"cebpf4jnsgd1na2vs0mg"},{"bike_id":"091bfcf6-f3f9-460c-abd0-b8a3278a244b","system_id":"levelo_inurba_marseille","lat":43.2971,"lon":5.37706,"is_reserved":false,"is_disabled":false,"rental_uris":{"android":"levelo://app?vid=091bfcf6-f3f9-460c-abd0-b8a3278a244b","ios":"levelo://app?vid=091bfcf6-f3f9-460c-abd0-b8a3278a244b"},"vehicle_type_id":"4","last_reported":1728911905,"current_range_meters":17200,"station_id":"ce4bgkh2rcd13ifvqbl0","pricing_plan_id":"cebpf4jnsgd1na2vs0mg"},{"bike_id":"9753c9cc-fe07-4761-862d-bce145981232","system_id":"levelo_inurba_marseille","lat":43.31372,"lon":5.36725,"is_reserved":false,"is_disabled":false,"rental_uris":{"android":"levelo://app?vid=9753c9cc-fe07-4761-862d-bce145981232","ios":"levelo://app?vid=9753c9cc-fe07-4761-862d-bce145981232"},"vehicle_type_id":"4","last_reported":1728911905,"current_range_meters":11600,"station_id":"ce4bgr92rcd13ifvqc6g","pricing_plan_id":"cebpf4jnsgd1na2vs0mg"},{"bike_id":"22a96efd-39c4-4912-a6a0-80515b1ce0d5","system_id":"levelo_inurba_marseille","lat":43.27563,"lon":5.38414,"is_reserved":false,"is_disabled":false,"rental_uris":{"android":"levelo://app?vid=22a96efd-39c4-4912-a6a0-80515b1ce0d5","ios":"levelo://app?vid=22a96efd-39c4-4912-a6a0-80515b1ce0d5"},"vehicle_type_id":"4","last_reported":1728911905,"current_range_meters":9200,"station_id":"ce4bhh92rcd13ifvqfi0","pricing_plan_id":"cebpf4jnsgd1na2vs0mg"},{"bike_id":"d8d27750-cf44-4386-8009-8d56c70bfc53","system_id":"levelo_inurba_marseille","lat":43.2979,"lon":5.38103,"is_reserved":false,"is_disabled":false,"rental_uris":{"android":"levelo://app?vid=d8d27750-cf44-4386-8009-8d56c70bfc53","ios":"levelo://app?vid=d8d27750-cf44-4386-8009-8d56c70bfc53"},"vehicle_type_id":"4","last_reported":1728911905,"current_range_meters":4800,"station_id":"ce4bgip2rcd13ifvqbb0","pricing_plan_id":"cebpf4jnsgd1na2vs0mg"},{"bike_id":"c15e58fe-1da2-4eaf-9795-b4e2cb115bf5","system_id":"levelo_inurba_marseille","lat":43.28436,"lon":5.39199,"is_reserved":false,"is_disabled":false,"rental_uris":{"android":"levelo://app?vid=c15e58fe-1da2-4eaf-9795-b4e2cb115bf5","ios":"levelo://app?vid=c15e58fe-1da2-4eaf-9795-b4e2cb115bf5"},"vehicle_type_id":"4","last_reported":1728911905,"current_range_meters":25200,"station_id":"ce4bhoh2rcd13ifvqh5g","pricing_plan_id":"cebpf4jnsgd1na2vs0mg"},{"bike_id":"f17f2dff-343c-4567-bcdd-7eb17fb163e0","system_id":"levelo_inurba_marseille","lat":43.30351,"lon":5.41882,"is_reserved":false,"is_disabled":false,"rental_uris":{"android":"levelo://app?vid=f17f2dff-343c-4567-bcdd-7eb17fb163e0","ios":"levelo://app?vid=f17f2dff-343c-4567-bcdd-7eb17fb163e0"},"vehicle_type_id":"4","last_reported":1728911905,"current_range_meters":25200,"station_id":"ce4bhop2rcd13ifvqh7g","pricing_plan_id":"cebpf4jnsgd1na2vs0mg"},{"bike_id":"4482dbd3-0d31-4b43-bbd3-5cfbb130291d","system_id":"levelo_inurba_marseille","lat":43.23186,"lon":5.35546,"is_reserved":false,"is_disabled":false,"rental_uris":{"android":"levelo://app?vid=4482dbd3-0d31-4b43-bbd3-5cfbb130291d","ios":"levelo://app?vid=4482dbd3-0d31-4b43-bbd3-5cfbb130291d"},"vehicle_type_id":"4","last_reported":1728911905,"current_range_meters":6000,"station_id":"ce4bhu92rcd13ifvqi70","pricing_plan_id":"cebpf4jnsgd1na2vs0mg"},{"bike_id":"ffed46bb-56c0-4326-bb0a-792428814091","system_id":"levelo_inurba_marseille","lat":43.29196,"lon":5.3932,"is_reserved":false,"is_disabled":false,"rental_uris":{"android":"levelo://app?vid=ffed46bb-56c0-4326-bb0a-792428814091","ios":"levelo://app?vid=ffed46bb-56c0-4326-bb0a-792428814091"},"vehicle_type_id":"4","last_reported":1728911905,"current_range_meters":22800,"station_id":"ce4bh192rcd13ifvqdd0","pricing_plan_id":"cebpf4jnsgd1na2vs0mg"},{"bike_id":"5a6fd978-a1d1-40a3-a294-ae48efed4672","system_id":"levelo_inurba_marseille","lat":43.24164,"lon":5.36394,"is_reserved":false,"is_disabled":false,"rental_uris":{"android":"levelo://app?vid=5a6fd978-a1d1-40a3-a294-ae48efed4672","ios":"levelo://app?vid=5a6fd978-a1d1-40a3-a294-ae48efed4672"},"vehicle_type_id":"4","last_reported":1728911905,"current_range_meters":38800,"station_id":"cpo36qri1sfpv3e86is0","pricing_plan_id":"cebpf4jnsgd1na2vs0mg"},{"bike_id":"c7c904a1-209b-4758-a09e-d9cbf52bac7e","system_id":"levelo_inurba_marseille","lat":43.29598,"lon":5.38105,"is_reserved":false,"is_disabled":false,"rental_uris":{"android":"levelo://app?vid=c7c904a1-209b-4758-a09e-d9cbf52bac7e","ios":"levelo://app?vid=c7c904a1-209b-4758-a09e-d9cbf52bac7e"},"vehicle_type_id":"4","last_reported":1728911905,"current_range_meters":18800,"station_id":"ce4bgl12rcd13ifvqbo0","pricing_plan_id":"cebpf4jnsgd1na2vs0mg"},{"bike_id":"462225cd-166e-4b82-847a-caadf9312bb2","system_id":"levelo_inurba_marseille","lat":43.27963,"lon":5.38727,"is_reserved":false,"is_disabled":false,"rental_uris":{"android":"levelo://app?vid=462225cd-166e-4b82-847a-caadf9312bb2","ios":"levelo://app?vid=462225cd-166e-4b82-847a-caadf9312bb2"},"vehicle_type_id":"4","last_reported":1728911905,"current_range_meters":32000,"station_id":"ce4bhg12rcd13ifvqf80","pricing_plan_id":"cebpf4jnsgd1na2vs0mg"},{"bike_id":"8ded8003-567e-4953-b97f-20bdedd1e902","system_id":"levelo_inurba_marseille","lat":43.27493,"lon":5.42457,"is_reserved":false,"is_disabled":false,"rental_uris":{"android":"levelo://app?vid=8ded8003-567e-4953-b97f-20bdedd1e902","ios":"levelo://app?vid=8ded8003-567e-4953-b97f-20bdedd1e902"},"vehicle_type_id":"4","last_reported":1728911905,"current_range_meters":8400,"station_id":"ce4bhn92rcd13ifvqgrg","pricing_plan_id":"cebpf4jnsgd1na2vs0mg"},{"bike_id":"b178b062-35cd-4f92-91db-f4ae171fe0ea","system_id":"levelo_inurba_marseille","lat":43.292851,"lon":5.368404,"is_reserved":false,"is_disabled":false,"rental_uris":{"android":"levelo://app?vid=b178b062-35cd-4f92-91db-f4ae171fe0ea","ios":"levelo://app?vid=b178b062-35cd-4f92-91db-f4ae171fe0ea"},"vehicle_type_id":"4","last_reported":1728911905,"current_range_meters":14400,"station_id":"","pricing_plan_id":"cebpf4jnsgd1na2vs0mg"},{"bike_id":"b17bd6a0-4c14-4c8c-96d0-fdc1bec84ba5","system_id":"levelo_inurba_marseille","lat":43.31071,"lon":5.38353,"is_reserved":false,"is_disabled":false,"rental_uris":{"android":"levelo://app?vid=b17bd6a0-4c14-4c8c-96d0-fdc1bec84ba5","ios":"levelo://app?vid=b17bd6a0-4c14-4c8c-96d0-fdc1bec84ba5"},"vehicle_type_id":"4","last_reported":1728911905,"current_range_meters":11600,"station_id":"ce4bgv92rcd13ifvqcr0","pricing_plan_id":"cebpf4jnsgd1na2vs0mg"},{"bike_id":"a0004b86-0108-4a59-8420-8474f739e195","system_id":"levelo_inurba_marseille","lat":43.31755,"lon":5.39016,"is_reserved":false,"is_disabled":false,"rental_uris":{"android":"levelo://app?vid=a0004b86-0108-4a59-8420-8474f739e195","ios":"levelo://app?vid=a0004b86-0108-4a59-8420-8474f739e195"},"vehicle_type_id":"4","last_reported":1728911905,"current_range_meters":36800,"station_id":"ce4bhqp2rcd13ifvqhng","pricing_plan_id":"cebpf4jnsgd1na2vs0mg"},{"bike_id":"c0670d96-b06e-446b-a07e-6b5eeebc59d7","system_id":"levelo_inurba_marseille","lat":43.274948,"lon":5.424466,"is_reserved":false,"is_disabled":false,"rental_uris":{"android":"levelo://app?vid=c0670d96-b06e-446b-a07e-6b5eeebc59d7","ios":"levelo://app?vid=c0670d96-b06e-446b-a07e-6b5eeebc59d7"},"vehicle_type_id":"4","last_reported":1728911905,"current_range_meters":16800,"station_id":"ce4bhn92rcd13ifvqgrg","pricing_plan_id":"cebpf4jnsgd1na2vs0mg"},{"bike_id":"49e081dc-2e4a-404f-b9cc-fbdb12c7a859","system_id":"levelo_inurba_marseille","lat":43.3053,"lon":5.36528,"is_reserved":false,"is_disabled":false,"rental_uris":{"android":"levelo://app?vid=49e081dc-2e4a-404f-b9cc-fbdb12c7a859","ios":"levelo://app?vid=49e081dc-2e4a-404f-b9cc-fbdb12c7a859"},"vehicle_type_id":"4","last_reported":1728911905,"current_range_meters":39200,"station_id":"ce4bgs12rcd13ifvqcag","pricing_plan_id":"cebpf4jnsgd1na2vs0mg"},{"bike_id":"cc160756-c5be-47df-8986-85e756db12d6","system_id":"levelo_inurba_marseille","lat":43.29647,"lon":5.37258,"is_reserved":false,"is_disabled":false,"rental_uris":{"android":"levelo://app?vid=cc160756-c5be-47df-8986-85e756db12d6","ios":"levelo://app?vid=cc160756-c5be-47df-8986-85e756db12d6"},"vehicle_type_id":"4","last_reported":1728911905,"current_range_meters":10800,"station_id":"ce4bgk12rcd13ifvqbj0","pricing_plan_id":"cebpf4jnsgd1na2vs0mg"},{"bike_id":"5427fc69-c1d6-4ea4-b1f4-ac67770aa2b9","system_id":"levelo_inurba_marseille","lat":43.30955,"lon":5.39034,"is_reserved":false,"is_disabled":false,"rental_uris":{"android":"levelo://app?vid=5427fc69-c1d6-4ea4-b1f4-ac67770aa2b9","ios":"levelo://app?vid=5427fc69-c1d6-4ea4-b1f4-ac67770aa2b9"},"vehicle_type_id":"4","last_reported":1728911905,"current_range_meters":39200,"station_id":"ce4bgup2rcd13ifvqco0","pricing_plan_id":"cebpf4jnsgd1na2vs0mg"},{"bike_id":"61f4ae0b-dc19-4b1b-9d53-4fe07e8abc83","system_id":"levelo_inurba_marseille","lat":43.31358,"lon":5.38487,"is_reserved":false,"is_disabled":false,"rental_uris":{"android":"levelo://app?vid=61f4ae0b-dc19-4b1b-9d53-4fe07e8abc83","ios":"levelo://app?vid=61f4ae0b-dc19-4b1b-9d53-4fe07e8abc83"},"vehicle_type_id":"4","last_reported":1728911905,"current_range_meters":12400,"station_id":"ce4bgt92rcd13ifvqcf0","pricing_plan_id":"cebpf4jnsgd1na2vs0mg"},{"bike_id":"a0d3d324-fa7e-4417-aee7-85012ecab44e","system_id":"levelo_inurba_marseille","lat":43.34259,"lon":5.44597,"is_reserved":false,"is_disabled":false,"rental_uris":{"android":"levelo://app?vid=a0d3d324-fa7e-4417-aee7-85012ecab44e","ios":"levelo://app?vid=a0d3d324-fa7e-4417-aee7-85012ecab44e"},"vehicle_type_id":"4","last_reported":1728911905,"current_range_meters":28000,"station_id":"","pricing_plan_id":"cebpf4jnsgd1na2vs0mg"},{"bike_id":"1f426ed7-0e22-4d88-9ee9-59dcffd19314","system_id":"levelo_inurba_marseille","lat":43.29369,"lon":5.37845,"is_reserved":false,"is_disabled":false,"rental_uris":{"android":"levelo://app?vid=1f426ed7-0e22-4d88-9ee9-59dcffd19314","ios":"levelo://app?vid=1f426ed7-0e22-4d88-9ee9-59dcffd19314"},"vehicle_type_id":"4","last_reported":1728911905,"current_range_meters":28800,"station_id":"ce4bgjh2rcd13ifvqbf0","pricing_plan_id":"cebpf4jnsgd1na2vs0mg"},{"bike_id":"c49fdcd3-77bb-48de-8c5c-f2516e3fe22f","system_id":"levelo_inurba_marseille","lat":43.29973,"lon":5.3718,"is_reserved":false,"is_disabled":false,"rental_uris":{"android":"levelo://app?vid=c49fdcd3-77bb-48de-8c5c-f2516e3fe22f","ios":"levelo://app?vid=c49fdcd3-77bb-48de-8c5c-f2516e3fe22f"},"vehicle_type_id":"4","last_reported":1728911905,"current_range_meters":24400,"station_id":"ce4bgr92rcd13ifvqc7g","pricing_plan_id":"cebpf4jnsgd1na2vs0mg"},{"bike_id":"52c21ac1-3345-433a-826c-e345b7086896","system_id":"levelo_inurba_marseille","lat":43.23151,"lon":5.43705,"is_reserved":false,"is_disabled":false,"rental_uris":{"android":"levelo://app?vid=52c21ac1-3345-433a-826c-e345b7086896","ios":"levelo://app?vid=52c21ac1-3345-433a-826c-e345b7086896"},"vehicle_type_id":"4","last_reported":1728911905,"current_range_meters":3600,"station_id":"ce4bhmp2rcd13ifvqgog","pricing_plan_id":"cebpf4jnsgd1na2vs0mg"},{"bike_id":"2b7e1507-3293-42c7-b21e-b79470cff341","system_id":"levelo_inurba_marseille","lat":43.23154,"lon":5.43698,"is_reserved":false,"is_disabled":false,"rental_uris":{"android":"levelo://app?vid=2b7e1507-3293-42c7-b21e-b79470cff341","ios":"levelo://app?vid=2b7e1507-3293-42c7-b21e-b79470cff341"},"vehicle_type_id":"4","last_reported":1728911905,"current_range_meters":39200,"station_id":"ce4bhmp2rcd13ifvqgog","pricing_plan_id":"cebpf4jnsgd1na2vs0mg"},{"bike_id":"2b11f373-e200-40b4-a5cd-f83d3c187bf8","system_id":"levelo_inurba_marseille","lat":43.24087,"lon":5.37745,"is_reserved":false,"is_disabled":false,"rental_uris":{"android":"levelo://app?vid=2b11f373-e200-40b4-a5cd-f83d3c187bf8","ios":"levelo://app?vid=2b11f373-e200-40b4-a5cd-f83d3c187bf8"},"vehicle_type_id":"4","last_reported":1728911905,"current_range_meters":10000,"station_id":"ce4bhnp2rcd13ifvqgvg","pricing_plan_id":"cebpf4jnsgd1na2vs0mg"},{"bike_id":"3a6440f7-d8d6-444b-bcb5-c18d16425ed6","system_id":"levelo_inurba_marseille","lat":43.32103,"lon":5.36771,"is_reserved":false,"is_disabled":false,"rental_uris":{"android":"levelo://app?vid=3a6440f7-d8d6-444b-bcb5-c18d16425ed6","ios":"levelo://app?vid=3a6440f7-d8d6-444b-bcb5-c18d16425ed6"},"vehicle_type_id":"4","last_reported":1728911905,"current_range_meters":38800,"station_id":"ce4bhrh2rcd13ifvqhug","pricing_plan_id":"cebpf4jnsgd1na2vs0mg"},{"bike_id":"382c089c-cb86-4d8c-8dd1-b725cc804514","system_id":"levelo_inurba_marseille","lat":43.29802,"lon":5.38099,"is_reserved":false,"is_disabled":false,"rental_uris":{"android":"levelo://app?vid=382c089c-cb86-4d8c-8dd1-b725cc804514","ios":"levelo://app?vid=382c089c-cb86-4d8c-8dd1-b725cc804514"},"vehicle_type_id":"4","last_reported":1728911905,"current_range_meters":39200,"station_id":"ce4bgip2rcd13ifvqbb0","pricing_plan_id":"cebpf4jnsgd1na2vs0mg"},{"bike_id":"52272774-4ba5-4bdc-9542-4bf676333bb7","system_id":"levelo_inurba_marseille","lat":43.30534,"lon":5.36706,"is_reserved":false,"is_disabled":false,"rental_uris":{"android":"levelo://app?vid=52272774-4ba5-4bdc-9542-4bf676333bb7","ios":"levelo://app?vid=52272774-4ba5-4bdc-9542-4bf676333bb7"},"vehicle_type_id":"4","last_reported":1728911905,"current_range_meters":38800,"station_id":"ce4bgrp2rcd13ifvqc9g","pricing_plan_id":"cebpf4jnsgd1na2vs0mg"},{"bike_id":"f3278731-3bc4-4912-b4da-44ee97b6f852","system_id":"levelo_inurba_marseille","lat":43.27963,"lon":5.38739,"is_reserved":false,"is_disabled":false,"rental_uris":{"android":"levelo://app?vid=f3278731-3bc4-4912-b4da-44ee97b6f852","ios":"levelo://app?vid=f3278731-3bc4-4912-b4da-44ee97b6f852"},"vehicle_type_id":"4","last_reported":1728911905,"current_range_meters":24000,"station_id":"ce4bhg12rcd13ifvqf80","pricing_plan_id":"cebpf4jnsgd1na2vs0mg"},{"bike_id":"d501dec5-0d4d-4c36-91b8-2eb229b75f5f","system_id":"levelo_inurba_marseille","lat":43.32038,"lon":5.4154,"is_reserved":false,"is_disabled":false,"rental_uris":{"android":"levelo://app?vid=d501dec5-0d4d-4c36-91b8-2eb229b75f5f","ios":"levelo://app?vid=d501dec5-0d4d-4c36-91b8-2eb229b75f5f"},"vehicle_type_id":"4","last_reported":1728911905,"current_range_meters":9200,"station_id":"ce4bhq92rcd13ifvqhkg","pricing_plan_id":"cebpf4jnsgd1na2vs0mg"},{"bike_id":"c389edc9-9992-4c2e-857b-eebd3d66f1ac","system_id":"levelo_inurba_marseille","lat":43.29846,"lon":5.36277,"is_reserved":false,"is_disabled":false,"rental_uris":{"android":"levelo://app?vid=c389edc9-9992-4c2e-857b-eebd3d66f1ac","ios":"levelo://app?vid=c389edc9-9992-4c2e-857b-eebd3d66f1ac"},"vehicle_type_id":"4","last_reported":1728911905,"current_range_meters":40000,"station_id":"ce4bgpp2rcd13ifvqc3g","pricing_plan_id":"cebpf4jnsgd1na2vs0mg"},{"bike_id":"65f620f2-29cf-4b4a-bb60-8d940c0cc756","system_id":"levelo_inurba_marseille","lat":43.30535,"lon":5.36535,"is_reserved":false,"is_disabled":false,"rental_uris":{"android":"levelo://app?vid=65f620f2-29cf-4b4a-bb60-8d940c0cc756","ios":"levelo://app?vid=65f620f2-29cf-4b4a-bb60-8d940c0cc756"},"vehicle_type_id":"4","last_reported":1728911905,"current_range_meters":12800,"station_id":"ce4bgs12rcd13ifvqcag","pricing_plan_id":"cebpf4jnsgd1na2vs0mg"},{"bike_id":"9efd45e1-49e7-4d03-acaa-f2a8fa49dbad","system_id":"levelo_inurba_marseille","lat":43.29519,"lon":5.39051,"is_reserved":false,"is_disabled":false,"rental_uris":{"android":"levelo://app?vid=9efd45e1-49e7-4d03-acaa-f2a8fa49dbad","ios":"levelo://app?vid=9efd45e1-49e7-4d03-acaa-f2a8fa49dbad"},"vehicle_type_id":"4","last_reported":1728911905,"current_range_meters":6800,"station_id":"ce4bh3p2rcd13ifvqdp0","pricing_plan_id":"cebpf4jnsgd1na2vs0mg"},{"bike_id":"3c921ba0-d884-4133-aaa1-f3c23db9b048","system_id":"levelo_inurba_marseille","lat":43.28716,"lon":5.37935,"is_reserved":false,"is_disabled":false,"rental_uris":{"android":"levelo://app?vid=3c921ba0-d884-4133-aaa1-f3c23db9b048","ios":"levelo://app?vid=3c921ba0-d884-4133-aaa1-f3c23db9b048"},"vehicle_type_id":"4","last_reported":1728911905,"current_range_meters":25200,"station_id":"ce4bh9p2rcd13ifvqec0","pricing_plan_id":"cebpf4jnsgd1na2vs0mg"},{"bike_id":"83c29142-170a-4ab1-9656-c74d85375df5","system_id":"levelo_inurba_marseille","lat":43.23146,"lon":5.43712,"is_reserved":false,"is_disabled":false,"rental_uris":{"android":"levelo://app?vid=83c29142-170a-4ab1-9656-c74d85375df5","ios":"levelo://app?vid=83c29142-170a-4ab1-9656-c74d85375df5"},"vehicle_type_id":"4","last_reported":1728911905,"current_range_meters":38800,"station_id":"ce4bhmp2rcd13ifvqgog","pricing_plan_id":"cebpf4jnsgd1na2vs0mg"},{"bike_id":"3afb0681-8fbd-47fe-8917-e12bc3cf488b","system_id":"levelo_inurba_marseille","lat":43.33714,"lon":5.39182,"is_reserved":false,"is_disabled":false,"rental_uris":{"android":"levelo://app?vid=3afb0681-8fbd-47fe-8917-e12bc3cf488b","ios":"levelo://app?vid=3afb0681-8fbd-47fe-8917-e12bc3cf488b"},"vehicle_type_id":"4","last_reported":1728911905,"current_range_meters":37600,"station_id":"ce4bhr92rcd13ifvqhsg","pricing_plan_id":"cebpf4jnsgd1na2vs0mg"},{"bike_id":"025048a1-1d87-4678-a467-42cb27858e40","system_id":"levelo_inurba_marseille","lat":43.30538,"lon":5.36701,"is_reserved":false,"is_disabled":false,"rental_uris":{"android":"levelo://app?vid=025048a1-1d87-4678-a467-42cb27858e40","ios":"levelo://app?vid=025048a1-1d87-4678-a467-42cb27858e40"},"vehicle_type_id":"4","last_reported":1728911905,"current_range_meters":38800,"station_id":"ce4bgrp2rcd13ifvqc9g","pricing_plan_id":"cebpf4jnsgd1na2vs0mg"},{"bike_id":"478aca39-090c-4b2d-b4b1-9cc619d802e0","system_id":"levelo_inurba_marseille","lat":43.27971,"lon":5.38737,"is_reserved":false,"is_disabled":false,"rental_uris":{"android":"levelo://app?vid=478aca39-090c-4b2d-b4b1-9cc619d802e0","ios":"levelo://app?vid=478aca39-090c-4b2d-b4b1-9cc619d802e0"},"vehicle_type_id":"4","last_reported":1728911905,"current_range_meters":17200,"station_id":"ce4bhg12rcd13ifvqf80","pricing_plan_id":"cebpf4jnsgd1na2vs0mg"},{"bike_id":"9c7d9c8b-2b2b-4a6b-be66-6ca74153735b","system_id":"levelo_inurba_marseille","lat":43.29035,"lon":5.37553,"is_reserved":false,"is_disabled":false,"rental_uris":{"android":"levelo://app?vid=9c7d9c8b-2b2b-4a6b-be66-6ca74153735b","ios":"levelo://app?vid=9c7d9c8b-2b2b-4a6b-be66-6ca74153735b"},"vehicle_type_id":"4","last_reported":1728911905,"current_range_meters":36800,"station_id":"ce4bh692rcd13ifvqe90","pricing_plan_id":"cebpf4jnsgd1na2vs0mg"},{"bike_id":"20a97b63-3c94-4909-bbc8-8180aa0b1cbe","system_id":"levelo_inurba_marseille","lat":43.29013,"lon":5.38128,"is_reserved":false,"is_disabled":false,"rental_uris":{"android":"levelo://app?vid=20a97b63-3c94-4909-bbc8-8180aa0b1cbe","ios":"levelo://app?vid=20a97b63-3c94-4909-bbc8-8180aa0b1cbe"},"vehicle_type_id":"4","last_reported":1728911905,"current_range_meters":23200,"station_id":"ce4bh4p2rcd13ifvqe1g","pricing_plan_id":"cebpf4jnsgd1na2vs0mg"},{"bike_id":"4026c934-0f4e-4bf4-8b57-20fa8f2adc87","system_id":"levelo_inurba_marseille","lat":43.29789,"lon":5.38095,"is_reserved":false,"is_disabled":false,"rental_uris":{"android":"levelo://app?vid=4026c934-0f4e-4bf4-8b57-20fa8f2adc87","ios":"levelo://app?vid=4026c934-0f4e-4bf4-8b57-20fa8f2adc87"},"vehicle_type_id":"4","last_reported":1728911905,"current_range_meters":11600,"station_id":"ce4bgip2rcd13ifvqbb0","pricing_plan_id":"cebpf4jnsgd1na2vs0mg"},{"bike_id":"9e28eef6-65d5-45f3-949e-f408b00a230d","system_id":"levelo_inurba_marseille","lat":43.29021,"lon":5.38647,"is_reserved":false,"is_disabled":false,"rental_uris":{"android":"levelo://app?vid=9e28eef6-65d5-45f3-949e-f408b00a230d","ios":"levelo://app?vid=9e28eef6-65d5-45f3-949e-f408b00a230d"},"vehicle_type_id":"4","last_reported":1728911905,"current_range_meters":3200,"station_id":"ce4bh4p2rcd13ifvqe0g","pricing_plan_id":"cebpf4jnsgd1na2vs0mg"},{"bike_id":"ebc29e8e-a5cd-4c41-ae7c-f77a08fdcdde","system_id":"levelo_inurba_marseille","lat":43.30533,"lon":5.36539,"is_reserved":false,"is_disabled":false,"rental_uris":{"android":"levelo://app?vid=ebc29e8e-a5cd-4c41-ae7c-f77a08fdcdde","ios":"levelo://app?vid=ebc29e8e-a5cd-4c41-ae7c-f77a08fdcdde"},"vehicle_type_id":"4","last_reported":1728911905,"current_range_meters":34000,"station_id":"ce4bgs12rcd13ifvqcag","pricing_plan_id":"cebpf4jnsgd1na2vs0mg"},{"bike_id":"0414a6f3-3a4f-43b9-8c1f-b9716e2b2116","system_id":"levelo_inurba_marseille","lat":43.2396,"lon":5.36639,"is_reserved":false,"is_disabled":false,"rental_uris":{"android":"levelo://app?vid=0414a6f3-3a4f-43b9-8c1f-b9716e2b2116","ios":"levelo://app?vid=0414a6f3-3a4f-43b9-8c1f-b9716e2b2116"},"vehicle_type_id":"4","last_reported":1728911905,"current_range_meters":38000,"station_id":"ce4bhi12rcd13ifvqfp0","pricing_plan_id":"cebpf4jnsgd1na2vs0mg"},{"bike_id":"69865d35-9015-4f0b-ba17-045bf17a9e77","system_id":"levelo_inurba_marseille","lat":43.2606,"lon":5.39395,"is_reserved":false,"is_disabled":false,"rental_uris":{"android":"levelo://app?vid=69865d35-9015-4f0b-ba17-045bf17a9e77","ios":"levelo://app?vid=69865d35-9015-4f0b-ba17-045bf17a9e77"},"vehicle_type_id":"4","last_reported":1728911905,"current_range_meters":24000,"station_id":"ce4bhh92rcd13ifvqfj0","pricing_plan_id":"cebpf4jnsgd1na2vs0mg"},{"bike_id":"2a57a800-0862-4e83-b310-8c8038f5fd5b","system_id":"levelo_inurba_marseille","lat":43.24389,"lon":5.37059,"is_reserved":false,"is_disabled":false,"rental_uris":{"android":"levelo://app?vid=2a57a800-0862-4e83-b310-8c8038f5fd5b","ios":"levelo://app?vid=2a57a800-0862-4e83-b310-8c8038f5fd5b"},"vehicle_type_id":"4","last_reported":1728911905,"current_range_meters":38400,"station_id":"ce4bhhh2rcd13ifvqfk0","pricing_plan_id":"cebpf4jnsgd1na2vs0mg"},{"bike_id":"a5437488-402b-4c25-8575-54d01fe694dc","system_id":"levelo_inurba_marseille","lat":43.30136,"lon":5.38799,"is_reserved":false,"is_disabled":false,"rental_uris":{"android":"levelo://app?vid=a5437488-402b-4c25-8575-54d01fe694dc","ios":"levelo://app?vid=a5437488-402b-4c25-8575-54d01fe694dc"},"vehicle_type_id":"4","last_reported":1728911905,"current_range_meters":38800,"station_id":"ce4bghh2rcd13ifvqb60","pricing_plan_id":"cebpf4jnsgd1na2vs0mg"},{"bike_id":"c7e6c756-277a-4832-a9d1-9d4a1c1f2814","system_id":"levelo_inurba_marseille","lat":43.26055,"lon":5.39396,"is_reserved":false,"is_disabled":false,"rental_uris":{"android":"levelo://app?vid=c7e6c756-277a-4832-a9d1-9d4a1c1f2814","ios":"levelo://app?vid=c7e6c756-277a-4832-a9d1-9d4a1c1f2814"},"vehicle_type_id":"4","last_reported":1728911905,"current_range_meters":22400,"station_id":"ce4bhh92rcd13ifvqfj0","pricing_plan_id":"cebpf4jnsgd1na2vs0mg"},{"bike_id":"dbd9b3c9-2532-4c6c-9db8-2a88860212b2","system_id":"levelo_inurba_marseille","lat":43.28963,"lon":5.4269,"is_reserved":false,"is_disabled":false,"rental_uris":{"android":"levelo://app?vid=dbd9b3c9-2532-4c6c-9db8-2a88860212b2","ios":"levelo://app?vid=dbd9b3c9-2532-4c6c-9db8-2a88860212b2"},"vehicle_type_id":"4","last_reported":1728911905,"current_range_meters":28400,"station_id":"","pricing_plan_id":"cebpf4jnsgd1na2vs0mg"},{"bike_id":"48dd957f-d869-4d35-9d4f-a701d30e8bd2","system_id":"levelo_inurba_marseille","lat":43.31124,"lon":5.37754,"is_reserved":false,"is_disabled":false,"rental_uris":{"android":"levelo://app?vid=48dd957f-d869-4d35-9d4f-a701d30e8bd2","ios":"levelo://app?vid=48dd957f-d869-4d35-9d4f-a701d30e8bd2"},"vehicle_type_id":"4","last_reported":1728911905,"current_range_meters":38800,"station_id":"ce4bgt92rcd13ifvqcg0","pricing_plan_id":"cebpf4jnsgd1na2vs0mg"},{"bike_id":"5bfc2153-539f-41dc-b2be-bfe55ff2ab42","system_id":"levelo_inurba_marseille","lat":43.30259,"lon":5.40083,"is_reserved":false,"is_disabled":false,"rental_uris":{"android":"levelo://app?vid=5bfc2153-539f-41dc-b2be-bfe55ff2ab42","ios":"levelo://app?vid=5bfc2153-539f-41dc-b2be-bfe55ff2ab42"},"vehicle_type_id":"4","last_reported":1728911905,"current_range_meters":35200,"station_id":"ce4bgvh2rcd13ifvqcs0","pricing_plan_id":"cebpf4jnsgd1na2vs0mg"},{"bike_id":"962561bf-93c4-4a4e-839f-c4b4f62bd94d","system_id":"levelo_inurba_marseille","lat":43.25857,"lon":5.39905,"is_reserved":false,"is_disabled":false,"rental_uris":{"android":"levelo://app?vid=962561bf-93c4-4a4e-839f-c4b4f62bd94d","ios":"levelo://app?vid=962561bf-93c4-4a4e-839f-c4b4f62bd94d"},"vehicle_type_id":"4","last_reported":1728911905,"current_range_meters":34800,"station_id":"ce4bhl92rcd13ifvqghg","pricing_plan_id":"cebpf4jnsgd1na2vs0mg"},{"bike_id":"b80c714b-6a66-4d5c-832e-bd487c535a72","system_id":"levelo_inurba_marseille","lat":43.31109,"lon":5.38064,"is_reserved":false,"is_disabled":false,"rental_uris":{"android":"levelo://app?vid=b80c714b-6a66-4d5c-832e-bd487c535a72","ios":"levelo://app?vid=b80c714b-6a66-4d5c-832e-bd487c535a72"},"vehicle_type_id":"4","last_reported":1728911905,"current_range_meters":19600,"station_id":"ce4bgt92rcd13ifvqcf0","pricing_plan_id":"cebpf4jnsgd1na2vs0mg"},{"bike_id":"2140b6a3-5118-4150-823e-9225aeb56201","system_id":"levelo_inurba_marseille","lat":43.23193,"lon":5.35548,"is_reserved":false,"is_disabled":false,"rental_uris":{"android":"levelo://app?vid=2140b6a3-5118-4150-823e-9225aeb56201","ios":"levelo://app?vid=2140b6a3-5118-4150-823e-9225aeb56201"},"vehicle_type_id":"4","last_reported":1728911905,"current_range_meters":8400,"station_id":"ce4bhu92rcd13ifvqi70","pricing_plan_id":"cebpf4jnsgd1na2vs0mg"},{"bike_id":"3c4fbeed-06e3-4f6c-8b5b-cde1b5e8fee3","system_id":"levelo_inurba_marseille","lat":43.24655,"lon":5.38891,"is_reserved":false,"is_disabled":false,"rental_uris":{"android":"levelo://app?vid=3c4fbeed-06e3-4f6c-8b5b-cde1b5e8fee3","ios":"levelo://app?vid=3c4fbeed-06e3-4f6c-8b5b-cde1b5e8fee3"},"vehicle_type_id":"4","last_reported":1728911905,"current_range_meters":38800,"station_id":"ce4bhg12rcd13ifvqf60","pricing_plan_id":"cebpf4jnsgd1na2vs0mg"},{"bike_id":"f3ffa9e3-8fd9-4512-81b9-b80cbaf83903","system_id":"levelo_inurba_marseille","lat":43.28151,"lon":5.42637,"is_reserved":false,"is_disabled":false,"rental_uris":{"android":"levelo://app?vid=f3ffa9e3-8fd9-4512-81b9-b80cbaf83903","ios":"levelo://app?vid=f3ffa9e3-8fd9-4512-81b9-b80cbaf83903"},"vehicle_type_id":"4","last_reported":1728911905,"current_range_meters":38800,"station_id":"ce4bhnh2rcd13ifvqgug","pricing_plan_id":"cebpf4jnsgd1na2vs0mg"},{"bike_id":"732fc934-8a2a-4f4e-90b2-2f7c3ba21a4d","system_id":"levelo_inurba_marseille","lat":43.30644,"lon":5.40104,"is_reserved":false,"is_disabled":false,"rental_uris":{"android":"levelo://app?vid=732fc934-8a2a-4f4e-90b2-2f7c3ba21a4d","ios":"levelo://app?vid=732fc934-8a2a-4f4e-90b2-2f7c3ba21a4d"},"vehicle_type_id":"4","last_reported":1728911905,"current_range_meters":29600,"station_id":"ce4bh112rcd13ifvqda0","pricing_plan_id":"cebpf4jnsgd1na2vs0mg"},{"bike_id":"ab4f516d-91b4-432d-b99c-cec9d891427c","system_id":"levelo_inurba_marseille","lat":43.30789,"lon":5.37634,"is_reserved":false,"is_disabled":false,"rental_uris":{"android":"levelo://app?vid=ab4f516d-91b4-432d-b99c-cec9d891427c","ios":"levelo://app?vid=ab4f516d-91b4-432d-b99c-cec9d891427c"},"vehicle_type_id":"4","last_reported":1728911905,"current_range_meters":6800,"station_id":"ce4bgv92rcd13ifvqcq0","pricing_plan_id":"cebpf4jnsgd1na2vs0mg"},{"bike_id":"1b4dafe7-0258-4cb7-ac06-8cb06c6733c9","system_id":"levelo_inurba_marseille","lat":43.30923,"lon":5.40145,"is_reserved":false,"is_disabled":false,"rental_uris":{"android":"levelo://app?vid=1b4dafe7-0258-4cb7-ac06-8cb06c6733c9","ios":"levelo://app?vid=1b4dafe7-0258-4cb7-ac06-8cb06c6733c9"},"vehicle_type_id":"4","last_reported":1728911905,"current_range_meters":38400,"station_id":"ce4bgvp2rcd13ifvqct0","pricing_plan_id":"cebpf4jnsgd1na2vs0mg"},{"bike_id":"d4338133-aae8-485b-afb7-f4eb536f8136","system_id":"levelo_inurba_marseille","lat":43.30149,"lon":5.381,"is_reserved":false,"is_disabled":false,"rental_uris":{"android":"levelo://app?vid=d4338133-aae8-485b-afb7-f4eb536f8136","ios":"levelo://app?vid=d4338133-aae8-485b-afb7-f4eb536f8136"},"vehicle_type_id":"4","last_reported":1728911905,"current_range_meters":36800,"station_id":"ce4bgjp2rcd13ifvqbh0","pricing_plan_id":"cebpf4jnsgd1na2vs0mg"},{"bike_id":"02edf250-0bdc-44d6-9936-04b527fbc30e","system_id":"levelo_inurba_marseille","lat":43.2439,"lon":5.37067,"is_reserved":false,"is_disabled":false,"rental_uris":{"android":"levelo://app?vid=02edf250-0bdc-44d6-9936-04b527fbc30e","ios":"levelo://app?vid=02edf250-0bdc-44d6-9936-04b527fbc30e"},"vehicle_type_id":"4","last_reported":1728911905,"current_range_meters":16400,"station_id":"ce4bhhh2rcd13ifvqfk0","pricing_plan_id":"cebpf4jnsgd1na2vs0mg"},{"bike_id":"ec8a6478-bef1-4d60-a7f2-ab8e64ac4863","system_id":"levelo_inurba_marseille","lat":43.30885,"lon":5.37195,"is_reserved":false,"is_disabled":false,"rental_uris":{"android":"levelo://app?vid=ec8a6478-bef1-4d60-a7f2-ab8e64ac4863","ios":"levelo://app?vid=ec8a6478-bef1-4d60-a7f2-ab8e64ac4863"},"vehicle_type_id":"4","last_reported":1728911905,"current_range_meters":19200,"station_id":"ce4bguh2rcd13ifvqckg","pricing_plan_id":"cebpf4jnsgd1na2vs0mg"},{"bike_id":"e1a249da-68c2-4f6a-923b-0ba6aa9c495e","system_id":"levelo_inurba_marseille","lat":43.29793,"lon":5.38086,"is_reserved":false,"is_disabled":false,"rental_uris":{"android":"levelo://app?vid=e1a249da-68c2-4f6a-923b-0ba6aa9c495e","ios":"levelo://app?vid=e1a249da-68c2-4f6a-923b-0ba6aa9c495e"},"vehicle_type_id":"4","last_reported":1728911905,"current_range_meters":3600,"station_id":"ce4bgip2rcd13ifvqbb0","pricing_plan_id":"cebpf4jnsgd1na2vs0mg"},{"bike_id":"2ef29e8c-b71a-4e4e-a610-9fb55751e2ba","system_id":"levelo_inurba_marseille","lat":43.23149,"lon":5.43715,"is_reserved":false,"is_disabled":false,"rental_uris":{"android":"levelo://app?vid=2ef29e8c-b71a-4e4e-a610-9fb55751e2ba","ios":"levelo://app?vid=2ef29e8c-b71a-4e4e-a610-9fb55751e2ba"},"vehicle_type_id":"4","last_reported":1728911905,"current_range_meters":24800,"station_id":"ce4bhmp2rcd13ifvqgog","pricing_plan_id":"cebpf4jnsgd1na2vs0mg"},{"bike_id":"83d94ba6-63ff-4a3e-8cbe-319587d39ea5","system_id":"levelo_inurba_marseille","lat":43.24645,"lon":5.38905,"is_reserved":false,"is_disabled":false,"rental_uris":{"android":"levelo://app?vid=83d94ba6-63ff-4a3e-8cbe-319587d39ea5","ios":"levelo://app?vid=83d94ba6-63ff-4a3e-8cbe-319587d39ea5"},"vehicle_type_id":"4","last_reported":1728911905,"current_range_meters":24400,"station_id":"ce4bhg12rcd13ifvqf60","pricing_plan_id":"cebpf4jnsgd1na2vs0mg"},{"bike_id":"2d807640-ec73-406e-b06c-a06e2ac7f11e","system_id":"levelo_inurba_marseille","lat":43.24077,"lon":5.37755,"is_reserved":false,"is_disabled":false,"rental_uris":{"android":"levelo://app?vid=2d807640-ec73-406e-b06c-a06e2ac7f11e","ios":"levelo://app?vid=2d807640-ec73-406e-b06c-a06e2ac7f11e"},"vehicle_type_id":"4","last_reported":1728911905,"current_range_meters":20800,"station_id":"ce4bhnp2rcd13ifvqgvg","pricing_plan_id":"cebpf4jnsgd1na2vs0mg"},{"bike_id":"4e16868a-c965-407f-b7f1-11666f275677","system_id":"levelo_inurba_marseille","lat":43.28465,"lon":5.38418,"is_reserved":false,"is_disabled":false,"rental_uris":{"android":"levelo://app?vid=4e16868a-c965-407f-b7f1-11666f275677","ios":"levelo://app?vid=4e16868a-c965-407f-b7f1-11666f275677"},"vehicle_type_id":"4","last_reported":1728911905,"current_range_meters":38800,"station_id":"ce4bh512rcd13ifvqe3g","pricing_plan_id":"cebpf4jnsgd1na2vs0mg"},{"bike_id":"59e4027f-298d-4b6f-a1fb-12c9c41bda1b","system_id":"levelo_inurba_marseille","lat":43.30796,"lon":5.38146,"is_reserved":false,"is_disabled":false,"rental_uris":{"android":"levelo://app?vid=59e4027f-298d-4b6f-a1fb-12c9c41bda1b","ios":"levelo://app?vid=59e4027f-298d-4b6f-a1fb-12c9c41bda1b"},"vehicle_type_id":"4","last_reported":1728911905,"current_range_meters":38800,"station_id":"ce4bgt12rcd13ifvqce0","pricing_plan_id":"cebpf4jnsgd1na2vs0mg"},{"bike_id":"de27cb7d-b23c-447c-8ca6-b6fa66b073b7","system_id":"levelo_inurba_marseille","lat":43.2408,"lon":5.37745,"is_reserved":false,"is_disabled":false,"rental_uris":{"android":"levelo://app?vid=de27cb7d-b23c-447c-8ca6-b6fa66b073b7","ios":"levelo://app?vid=de27cb7d-b23c-447c-8ca6-b6fa66b073b7"},"vehicle_type_id":"4","last_reported":1728911905,"current_range_meters":20400,"station_id":"ce4bhnp2rcd13ifvqgvg","pricing_plan_id":"cebpf4jnsgd1na2vs0mg"},{"bike_id":"e01e41b6-906b-4d38-bd47-8409331ef9cb","system_id":"levelo_inurba_marseille","lat":43.24166,"lon":5.3639,"is_reserved":false,"is_disabled":false,"rental_uris":{"android":"levelo://app?vid=e01e41b6-906b-4d38-bd47-8409331ef9cb","ios":"levelo://app?vid=e01e41b6-906b-4d38-bd47-8409331ef9cb"},"vehicle_type_id":"4","last_reported":1728911905,"current_range_meters":37600,"station_id":"cpo36qri1sfpv3e86is0","pricing_plan_id":"cebpf4jnsgd1na2vs0mg"},{"bike_id":"89211ee2-076f-4df3-92bd-cd8885f2e76d","system_id":"levelo_inurba_marseille","lat":43.23192,"lon":5.35554,"is_reserved":false,"is_disabled":false,"rental_uris":{"android":"levelo://app?vid=89211ee2-076f-4df3-92bd-cd8885f2e76d","ios":"levelo://app?vid=89211ee2-076f-4df3-92bd-cd8885f2e76d"},"vehicle_type_id":"4","last_reported":1728911905,"current_range_meters":40000,"station_id":"ce4bhu92rcd13ifvqi70","pricing_plan_id":"cebpf4jnsgd1na2vs0mg"},{"bike_id":"fcddcca0-aaa9-43dc-b10e-9d24f7630236","system_id":"levelo_inurba_marseille","lat":43.29959,"lon":5.38489,"is_reserved":false,"is_disabled":false,"rental_uris":{"android":"levelo://app?vid=fcddcca0-aaa9-43dc-b10e-9d24f7630236","ios":"levelo://app?vid=fcddcca0-aaa9-43dc-b10e-9d24f7630236"},"vehicle_type_id":"4","last_reported":1728911905,"current_range_meters":36000,"station_id":"ce4bgj92rcd13ifvqbd0","pricing_plan_id":"cebpf4jnsgd1na2vs0mg"},{"bike_id":"6f108c79-169f-46fd-b08b-6b93e5050ee6","system_id":"levelo_inurba_marseille","lat":43.33708,"lon":5.39175,"is_reserved":false,"is_disabled":false,"rental_uris":{"android":"levelo://app?vid=6f108c79-169f-46fd-b08b-6b93e5050ee6","ios":"levelo://app?vid=6f108c79-169f-46fd-b08b-6b93e5050ee6"},"vehicle_type_id":"4","last_reported":1728911905,"current_range_meters":10800,"station_id":"ce4bhr92rcd13ifvqhsg","pricing_plan_id":"cebpf4jnsgd1na2vs0mg"},{"bike_id":"7f61a033-3c13-40ae-b658-d92f090db93a","system_id":"levelo_inurba_marseille","lat":43.29715,"lon":5.37714,"is_reserved":false,"is_disabled":false,"rental_uris":{"android":"levelo://app?vid=7f61a033-3c13-40ae-b658-d92f090db93a","ios":"levelo://app?vid=7f61a033-3c13-40ae-b658-d92f090db93a"},"vehicle_type_id":"4","last_reported":1728911905,"current_range_meters":36800,"station_id":"ce4bgkh2rcd13ifvqbl0","pricing_plan_id":"cebpf4jnsgd1na2vs0mg"},{"bike_id":"b1264496-61d4-4daa-bb64-3e792e762694","system_id":"levelo_inurba_marseille","lat":43.2992,"lon":5.37479,"is_reserved":false,"is_disabled":false,"rental_uris":{"android":"levelo://app?vid=b1264496-61d4-4daa-bb64-3e792e762694","ios":"levelo://app?vid=b1264496-61d4-4daa-bb64-3e792e762694"},"vehicle_type_id":"4","last_reported":1728911905,"current_range_meters":38800,"station_id":"ce4bgjh2rcd13ifvqbg0","pricing_plan_id":"cebpf4jnsgd1na2vs0mg"},{"bike_id":"4401e9fe-8fae-4df0-be02-0119e3aeedbd","system_id":"levelo_inurba_marseille","lat":43.33779,"lon":5.37428,"is_reserved":false,"is_disabled":false,"rental_uris":{"android":"levelo://app?vid=4401e9fe-8fae-4df0-be02-0119e3aeedbd","ios":"levelo://app?vid=4401e9fe-8fae-4df0-be02-0119e3aeedbd"},"vehicle_type_id":"4","last_reported":1728911905,"current_range_meters":38800,"station_id":"","pricing_plan_id":"cebpf4jnsgd1na2vs0mg"},{"bike_id":"37f4c099-0cf1-486c-8562-a19f1b742c6e","system_id":"levelo_inurba_marseille","lat":43.29792,"lon":5.38092,"is_reserved":false,"is_disabled":false,"rental_uris":{"android":"levelo://app?vid=37f4c099-0cf1-486c-8562-a19f1b742c6e","ios":"levelo://app?vid=37f4c099-0cf1-486c-8562-a19f1b742c6e"},"vehicle_type_id":"4","last_reported":1728911905,"current_range_meters":22800,"station_id":"ce4bgip2rcd13ifvqbb0","pricing_plan_id":"cebpf4jnsgd1na2vs0mg"},{"bike_id":"fa4c4cf2-32cb-4a01-a189-b8c4f6f1b4d6","system_id":"levelo_inurba_marseille","lat":43.24389,"lon":5.37057,"is_reserved":false,"is_disabled":false,"rental_uris":{"android":"levelo://app?vid=fa4c4cf2-32cb-4a01-a189-b8c4f6f1b4d6","ios":"levelo://app?vid=fa4c4cf2-32cb-4a01-a189-b8c4f6f1b4d6"},"vehicle_type_id":"4","last_reported":1728911905,"current_range_meters":22800,"station_id":"ce4bhhh2rcd13ifvqfk0","pricing_plan_id":"cebpf4jnsgd1na2vs0mg"},{"bike_id":"76aefb69-25a5-4bcf-a117-8e3c139e6be2","system_id":"levelo_inurba_marseille","lat":43.28348,"lon":5.38104,"is_reserved":false,"is_disabled":false,"rental_uris":{"android":"levelo://app?vid=76aefb69-25a5-4bcf-a117-8e3c139e6be2","ios":"levelo://app?vid=76aefb69-25a5-4bcf-a117-8e3c139e6be2"},"vehicle_type_id":"4","last_reported":1728911905,"current_range_meters":11200,"station_id":"ce4bhn12rcd13ifvqgqg","pricing_plan_id":"cebpf4jnsgd1na2vs0mg"},{"bike_id":"1b210df7-3cc3-43f4-b71a-6c23aec506a8","system_id":"levelo_inurba_marseille","lat":43.30129,"lon":5.39862,"is_reserved":false,"is_disabled":false,"rental_uris":{"android":"levelo://app?vid=1b210df7-3cc3-43f4-b71a-6c23aec506a8","ios":"levelo://app?vid=1b210df7-3cc3-43f4-b71a-6c23aec506a8"},"vehicle_type_id":"4","last_reported":1728911905,"current_range_meters":19200,"station_id":"ce4bh0h2rcd13ifvqd40","pricing_plan_id":"cebpf4jnsgd1na2vs0mg"},{"bike_id":"48189474-19dd-45e7-8817-267e58cc3e38","system_id":"levelo_inurba_marseille","lat":43.27309,"lon":5.39073,"is_reserved":false,"is_disabled":false,"rental_uris":{"android":"levelo://app?vid=48189474-19dd-45e7-8817-267e58cc3e38","ios":"levelo://app?vid=48189474-19dd-45e7-8817-267e58cc3e38"},"vehicle_type_id":"4","last_reported":1728911905,"current_range_meters":16800,"station_id":"ce4bhgp2rcd13ifvqfe0","pricing_plan_id":"cebpf4jnsgd1na2vs0mg"},{"bike_id":"922b5829-363b-46ee-8cbc-b34afc5c8cff","system_id":"levelo_inurba_marseille","lat":43.2511,"lon":5.40323,"is_reserved":false,"is_disabled":false,"rental_uris":{"android":"levelo://app?vid=922b5829-363b-46ee-8cbc-b34afc5c8cff","ios":"levelo://app?vid=922b5829-363b-46ee-8cbc-b34afc5c8cff"},"vehicle_type_id":"4","last_reported":1728911905,"current_range_meters":16000,"station_id":"ce4bhlh2rcd13ifvqgig","pricing_plan_id":"cebpf4jnsgd1na2vs0mg"},{"bike_id":"aa099222-c456-475a-afb0-5129771eb8a8","system_id":"levelo_inurba_marseille","lat":43.29222,"lon":5.36058,"is_reserved":false,"is_disabled":false,"rental_uris":{"android":"levelo://app?vid=aa099222-c456-475a-afb0-5129771eb8a8","ios":"levelo://app?vid=aa099222-c456-475a-afb0-5129771eb8a8"},"vehicle_type_id":"4","last_reported":1728911905,"current_range_meters":26000,"station_id":"ce4bhbh2rcd13ifvqeqg","pricing_plan_id":"cebpf4jnsgd1na2vs0mg"},{"bike_id":"d7e80666-b8cd-45a3-b561-dba9019d8a21","system_id":"levelo_inurba_marseille","lat":43.28609,"lon":5.37062,"is_reserved":false,"is_disabled":false,"rental_uris":{"android":"levelo://app?vid=d7e80666-b8cd-45a3-b561-dba9019d8a21","ios":"levelo://app?vid=d7e80666-b8cd-45a3-b561-dba9019d8a21"},"vehicle_type_id":"4","last_reported":1728911905,"current_range_meters":31200,"station_id":"ce4bht12rcd13ifvqi60","pricing_plan_id":"cebpf4jnsgd1na2vs0mg"},{"bike_id":"873415cb-2ee1-4fd8-8174-5b88c494509c","system_id":"levelo_inurba_marseille","lat":43.29596,"lon":5.38104,"is_reserved":false,"is_disabled":false,"rental_uris":{"android":"levelo://app?vid=873415cb-2ee1-4fd8-8174-5b88c494509c","ios":"levelo://app?vid=873415cb-2ee1-4fd8-8174-5b88c494509c"},"vehicle_type_id":"4","last_reported":1728911905,"current_range_meters":21600,"station_id":"ce4bgl12rcd13ifvqbo0","pricing_plan_id":"cebpf4jnsgd1na2vs0mg"},{"bike_id":"176a7a39-6d04-4fe2-b6fd-3ae9686d8ffb","system_id":"levelo_inurba_marseille","lat":43.26059,"lon":5.39396,"is_reserved":false,"is_disabled":false,"rental_uris":{"android":"levelo://app?vid=176a7a39-6d04-4fe2-b6fd-3ae9686d8ffb","ios":"levelo://app?vid=176a7a39-6d04-4fe2-b6fd-3ae9686d8ffb"},"vehicle_type_id":"4","last_reported":1728911905,"current_range_meters":40000,"station_id":"ce4bhh92rcd13ifvqfj0","pricing_plan_id":"cebpf4jnsgd1na2vs0mg"},{"bike_id":"03a60c6f-fbb3-425b-8d0c-831cdbdc9cf9","system_id":"levelo_inurba_marseille","lat":43.30279,"lon":5.37703,"is_reserved":false,"is_disabled":false,"rental_uris":{"android":"levelo://app?vid=03a60c6f-fbb3-425b-8d0c-831cdbdc9cf9","ios":"levelo://app?vid=03a60c6f-fbb3-425b-8d0c-831cdbdc9cf9"},"vehicle_type_id":"4","last_reported":1728911905,"current_range_meters":34800,"station_id":"ce4bguh2rcd13ifvqcj0","pricing_plan_id":"cebpf4jnsgd1na2vs0mg"},{"bike_id":"20594a99-46f8-41f2-b805-61cf6db5b9d8","system_id":"levelo_inurba_marseille","lat":43.290015,"lon":5.386093,"is_reserved":false,"is_disabled":false,"rental_uris":{"android":"levelo://app?vid=20594a99-46f8-41f2-b805-61cf6db5b9d8","ios":"levelo://app?vid=20594a99-46f8-41f2-b805-61cf6db5b9d8"},"vehicle_type_id":"4","last_reported":1728911905,"current_range_meters":28400,"station_id":"ce4bh4p2rcd13ifvqe0g","pricing_plan_id":"cebpf4jnsgd1na2vs0mg"},{"bike_id":"5656e8f0-a8dd-42d7-8b46-4d03613c3306","system_id":"levelo_inurba_marseille","lat":43.30274,"lon":5.37715,"is_reserved":false,"is_disabled":false,"rental_uris":{"android":"levelo://app?vid=5656e8f0-a8dd-42d7-8b46-4d03613c3306","ios":"levelo://app?vid=5656e8f0-a8dd-42d7-8b46-4d03613c3306"},"vehicle_type_id":"4","last_reported":1728911905,"current_range_meters":32400,"station_id":"ce4bguh2rcd13ifvqcj0","pricing_plan_id":"cebpf4jnsgd1na2vs0mg"},{"bike_id":"ff96eee3-1ac8-4888-9ae7-e4b6cc8154af","system_id":"levelo_inurba_marseille","lat":43.33739,"lon":5.3746,"is_reserved":false,"is_disabled":false,"rental_uris":{"android":"levelo://app?vid=ff96eee3-1ac8-4888-9ae7-e4b6cc8154af","ios":"levelo://app?vid=ff96eee3-1ac8-4888-9ae7-e4b6cc8154af"},"vehicle_type_id":"4","last_reported":1728911905,"current_range_meters":38400,"station_id":"","pricing_plan_id":"cebpf4jnsgd1na2vs0mg"},{"bike_id":"0bf375c2-b0ba-4e2f-8e75-ff559808ad84","system_id":"levelo_inurba_marseille","lat":43.29783,"lon":5.39351,"is_reserved":false,"is_disabled":false,"rental_uris":{"android":"levelo://app?vid=0bf375c2-b0ba-4e2f-8e75-ff559808ad84","ios":"levelo://app?vid=0bf375c2-b0ba-4e2f-8e75-ff559808ad84"},"vehicle_type_id":"4","last_reported":1728911905,"current_range_meters":9200,"station_id":"chh1huq6cuj3fo74tm60","pricing_plan_id":"cebpf4jnsgd1na2vs0mg"},{"bike_id":"e1c9b893-ca01-4062-b0d3-7097294f3727","system_id":"levelo_inurba_marseille","lat":43.25082,"lon":5.39512,"is_reserved":false,"is_disabled":false,"rental_uris":{"android":"levelo://app?vid=e1c9b893-ca01-4062-b0d3-7097294f3727","ios":"levelo://app?vid=e1c9b893-ca01-4062-b0d3-7097294f3727"},"vehicle_type_id":"4","last_reported":1728911905,"current_range_meters":26000,"station_id":"ce4bhm12rcd13ifvqgkg","pricing_plan_id":"cebpf4jnsgd1na2vs0mg"},{"bike_id":"b1381054-fe2c-4eda-aa66-61de02a081d2","system_id":"levelo_inurba_marseille","lat":43.30425,"lon":5.3975,"is_reserved":false,"is_disabled":false,"rental_uris":{"android":"levelo://app?vid=b1381054-fe2c-4eda-aa66-61de02a081d2","ios":"levelo://app?vid=b1381054-fe2c-4eda-aa66-61de02a081d2"},"vehicle_type_id":"4","last_reported":1728911905,"current_range_meters":16800,"station_id":"ce4bh092rcd13ifvqd20","pricing_plan_id":"cebpf4jnsgd1na2vs0mg"},{"bike_id":"e342120b-0784-41d0-b4e6-cc16308206b2","system_id":"levelo_inurba_marseille","lat":43.29627,"lon":5.4059,"is_reserved":false,"is_disabled":false,"rental_uris":{"android":"levelo://app?vid=e342120b-0784-41d0-b4e6-cc16308206b2","ios":"levelo://app?vid=e342120b-0784-41d0-b4e6-cc16308206b2"},"vehicle_type_id":"4","last_reported":1728911905,"current_range_meters":36000,"station_id":"ce4bh0h2rcd13ifvqd60","pricing_plan_id":"cebpf4jnsgd1na2vs0mg"},{"bike_id":"bd400042-a614-48b2-898f-7d4cfac83ac7","system_id":"levelo_inurba_marseille","lat":43.27905,"lon":5.38002,"is_reserved":false,"is_disabled":false,"rental_uris":{"android":"levelo://app?vid=bd400042-a614-48b2-898f-7d4cfac83ac7","ios":"levelo://app?vid=bd400042-a614-48b2-898f-7d4cfac83ac7"},"vehicle_type_id":"4","last_reported":1728911905,"current_range_meters":38000,"station_id":"ce4bhf92rcd13ifvqf50","pricing_plan_id":"cebpf4jnsgd1na2vs0mg"},{"bike_id":"3311acd7-ce53-4215-8a9a-1dff6d1e0df8","system_id":"levelo_inurba_marseille","lat":43.24384,"lon":5.3706,"is_reserved":false,"is_disabled":false,"rental_uris":{"android":"levelo://app?vid=3311acd7-ce53-4215-8a9a-1dff6d1e0df8","ios":"levelo://app?vid=3311acd7-ce53-4215-8a9a-1dff6d1e0df8"},"vehicle_type_id":"4","last_reported":1728911905,"current_range_meters":28000,"station_id":"ce4bhhh2rcd13ifvqfk0","pricing_plan_id":"cebpf4jnsgd1na2vs0mg"},{"bike_id":"3926b2ad-cc04-47b0-bfa0-051be2880b3d","system_id":"levelo_inurba_marseille","lat":43.30885,"lon":5.39648,"is_reserved":false,"is_disabled":false,"rental_uris":{"android":"levelo://app?vid=3926b2ad-cc04-47b0-bfa0-051be2880b3d","ios":"levelo://app?vid=3926b2ad-cc04-47b0-bfa0-051be2880b3d"},"vehicle_type_id":"4","last_reported":1728911905,"current_range_meters":32000,"station_id":"ce4bh012rcd13ifvqcv0","pricing_plan_id":"cebpf4jnsgd1na2vs0mg"},{"bike_id":"07c15e29-cc59-4468-a927-2166c2fd1f6e","system_id":"levelo_inurba_marseille","lat":43.24071,"lon":5.37759,"is_reserved":false,"is_disabled":false,"rental_uris":{"android":"levelo://app?vid=07c15e29-cc59-4468-a927-2166c2fd1f6e","ios":"levelo://app?vid=07c15e29-cc59-4468-a927-2166c2fd1f6e"},"vehicle_type_id":"4","last_reported":1728911905,"current_range_meters":4400,"station_id":"ce4bhnp2rcd13ifvqgvg","pricing_plan_id":"cebpf4jnsgd1na2vs0mg"},{"bike_id":"672ba60d-61bc-4b61-bfd9-66dba02e5389","system_id":"levelo_inurba_marseille","lat":43.26545,"lon":5.37295,"is_reserved":false,"is_disabled":false,"rental_uris":{"android":"levelo://app?vid=672ba60d-61bc-4b61-bfd9-66dba02e5389","ios":"levelo://app?vid=672ba60d-61bc-4b61-bfd9-66dba02e5389"},"vehicle_type_id":"4","last_reported":1728911905,"current_range_meters":16000,"station_id":"ce4bhg12rcd13ifvqf70","pricing_plan_id":"cebpf4jnsgd1na2vs0mg"},{"bike_id":"d0e23646-8bc4-4268-a8b7-6e34aba1a77a","system_id":"levelo_inurba_marseille","lat":43.2465,"lon":5.38897,"is_reserved":false,"is_disabled":false,"rental_uris":{"android":"levelo://app?vid=d0e23646-8bc4-4268-a8b7-6e34aba1a77a","ios":"levelo://app?vid=d0e23646-8bc4-4268-a8b7-6e34aba1a77a"},"vehicle_type_id":"4","last_reported":1728911905,"current_range_meters":31200,"station_id":"ce4bhg12rcd13ifvqf60","pricing_plan_id":"cebpf4jnsgd1na2vs0mg"},{"bike_id":"0a6f1c74-6f97-4af2-9de4-e0e4a3654d37","system_id":"levelo_inurba_marseille","lat":43.23151,"lon":5.43729,"is_reserved":false,"is_disabled":false,"rental_uris":{"android":"levelo://app?vid=0a6f1c74-6f97-4af2-9de4-e0e4a3654d37","ios":"levelo://app?vid=0a6f1c74-6f97-4af2-9de4-e0e4a3654d37"},"vehicle_type_id":"4","last_reported":1728911905,"current_range_meters":36400,"station_id":"ce4bhmp2rcd13ifvqgog","pricing_plan_id":"cebpf4jnsgd1na2vs0mg"},{"bike_id":"95e69cb9-becd-47c0-acf3-16314a528eb5","system_id":"levelo_inurba_marseille","lat":43.28146,"lon":5.42633,"is_reserved":false,"is_disabled":false,"rental_uris":{"android":"levelo://app?vid=95e69cb9-becd-47c0-acf3-16314a528eb5","ios":"levelo://app?vid=95e69cb9-becd-47c0-acf3-16314a528eb5"},"vehicle_type_id":"4","last_reported":1728911905,"current_range_meters":39200,"station_id":"ce4bhnh2rcd13ifvqgug","pricing_plan_id":"cebpf4jnsgd1na2vs0mg"},{"bike_id":"40bc6735-ca61-48f5-9019-08f286e3a318","system_id":"levelo_inurba_marseille","lat":43.3054,"lon":5.36699,"is_reserved":false,"is_disabled":false,"rental_uris":{"android":"levelo://app?vid=40bc6735-ca61-48f5-9019-08f286e3a318","ios":"levelo://app?vid=40bc6735-ca61-48f5-9019-08f286e3a318"},"vehicle_type_id":"4","last_reported":1728911905,"current_range_meters":26000,"station_id":"ce4bgrp2rcd13ifvqc9g","pricing_plan_id":"cebpf4jnsgd1na2vs0mg"},{"bike_id":"a14829ce-f968-4f5e-b6eb-77bff3352624","system_id":"levelo_inurba_marseille","lat":43.3027,"lon":5.37712,"is_reserved":false,"is_disabled":false,"rental_uris":{"android":"levelo://app?vid=a14829ce-f968-4f5e-b6eb-77bff3352624","ios":"levelo://app?vid=a14829ce-f968-4f5e-b6eb-77bff3352624"},"vehicle_type_id":"4","last_reported":1728911905,"current_range_meters":18000,"station_id":"ce4bguh2rcd13ifvqcj0","pricing_plan_id":"cebpf4jnsgd1na2vs0mg"},{"bike_id":"70d2c401-ee11-4214-afb6-0f4d6e3615a1","system_id":"levelo_inurba_marseille","lat":43.25872,"lon":5.39894,"is_reserved":false,"is_disabled":false,"rental_uris":{"android":"levelo://app?vid=70d2c401-ee11-4214-afb6-0f4d6e3615a1","ios":"levelo://app?vid=70d2c401-ee11-4214-afb6-0f4d6e3615a1"},"vehicle_type_id":"4","last_reported":1728911905,"current_range_meters":39200,"station_id":"ce4bhl92rcd13ifvqghg","pricing_plan_id":"cebpf4jnsgd1na2vs0mg"},{"bike_id":"a7939735-f815-420b-80b1-29f0e1ad70b4","system_id":"levelo_inurba_marseille","lat":43.31338,"lon":5.3673,"is_reserved":false,"is_disabled":false,"rental_uris":{"android":"levelo://app?vid=a7939735-f815-420b-80b1-29f0e1ad70b4","ios":"levelo://app?vid=a7939735-f815-420b-80b1-29f0e1ad70b4"},"vehicle_type_id":"4","last_reported":1728911905,"current_range_meters":30000,"station_id":"ce4bgr92rcd13ifvqc6g","pricing_plan_id":"cebpf4jnsgd1na2vs0mg"},{"bike_id":"292b9425-1372-40d4-bf0a-fe57aa779a41","system_id":"levelo_inurba_marseille","lat":43.23064,"lon":5.35489,"is_reserved":false,"is_disabled":false,"rental_uris":{"android":"levelo://app?vid=292b9425-1372-40d4-bf0a-fe57aa779a41","ios":"levelo://app?vid=292b9425-1372-40d4-bf0a-fe57aa779a41"},"vehicle_type_id":"4","last_reported":1728911905,"current_range_meters":38000,"station_id":"cpo3342slgdg3j2ifvpg","pricing_plan_id":"cebpf4jnsgd1na2vs0mg"},{"bike_id":"09a8f79c-993d-4815-bf53-cfa84d21eee6","system_id":"levelo_inurba_marseille","lat":43.25938,"lon":5.40905,"is_reserved":false,"is_disabled":false,"rental_uris":{"android":"levelo://app?vid=09a8f79c-993d-4815-bf53-cfa84d21eee6","ios":"levelo://app?vid=09a8f79c-993d-4815-bf53-cfa84d21eee6"},"vehicle_type_id":"4","last_reported":1728911905,"current_range_meters":23200,"station_id":"ce4bhm92rcd13ifvqglg","pricing_plan_id":"cebpf4jnsgd1na2vs0mg"},{"bike_id":"7a9bcd29-426b-49b2-b00d-fa47e73de371","system_id":"levelo_inurba_marseille","lat":43.25725,"lon":5.41112,"is_reserved":false,"is_disabled":false,"rental_uris":{"android":"levelo://app?vid=7a9bcd29-426b-49b2-b00d-fa47e73de371","ios":"levelo://app?vid=7a9bcd29-426b-49b2-b00d-fa47e73de371"},"vehicle_type_id":"4","last_reported":1728911905,"current_range_meters":4000,"station_id":"ce4bhkp2rcd13ifvqgd0","pricing_plan_id":"cebpf4jnsgd1na2vs0mg"},{"bike_id":"55c9e804-6649-4242-958e-9fcce44c9a1f","system_id":"levelo_inurba_marseille","lat":43.29955,"lon":5.41327,"is_reserved":false,"is_disabled":false,"rental_uris":{"android":"levelo://app?vid=55c9e804-6649-4242-958e-9fcce44c9a1f","ios":"levelo://app?vid=55c9e804-6649-4242-958e-9fcce44c9a1f"},"vehicle_type_id":"4","last_reported":1728911905,"current_range_meters":34000,"station_id":"ce4bhp12rcd13ifvqh9g","pricing_plan_id":"cebpf4jnsgd1na2vs0mg"},{"bike_id":"2feb0969-edd6-47d8-98a0-a230f500bdd0","system_id":"levelo_inurba_marseille","lat":43.29618,"lon":5.37162,"is_reserved":false,"is_disabled":false,"rental_uris":{"android":"levelo://app?vid=2feb0969-edd6-47d8-98a0-a230f500bdd0","ios":"levelo://app?vid=2feb0969-edd6-47d8-98a0-a230f500bdd0"},"vehicle_type_id":"4","last_reported":1728911905,"current_range_meters":24400,"station_id":"ce4bgnh2rcd13ifvqc0g","pricing_plan_id":"cebpf4jnsgd1na2vs0mg"},{"bike_id":"319db2db-70a0-4432-b12c-db6bad30cafc","system_id":"levelo_inurba_marseille","lat":43.29849,"lon":5.36286,"is_reserved":false,"is_disabled":false,"rental_uris":{"android":"levelo://app?vid=319db2db-70a0-4432-b12c-db6bad30cafc","ios":"levelo://app?vid=319db2db-70a0-4432-b12c-db6bad30cafc"},"vehicle_type_id":"4","last_reported":1728911905,"current_range_meters":32000,"station_id":"ce4bgpp2rcd13ifvqc3g","pricing_plan_id":"cebpf4jnsgd1na2vs0mg"},{"bike_id":"bbcd97b8-abcf-4a54-9053-e41804657f51","system_id":"levelo_inurba_marseille","lat":43.29976,"lon":5.38496,"is_reserved":false,"is_disabled":false,"rental_uris":{"android":"levelo://app?vid=bbcd97b8-abcf-4a54-9053-e41804657f51","ios":"levelo://app?vid=bbcd97b8-abcf-4a54-9053-e41804657f51"},"vehicle_type_id":"4","last_reported":1728911905,"current_range_meters":13600,"station_id":"ce4bgj92rcd13ifvqbd0","pricing_plan_id":"cebpf4jnsgd1na2vs0mg"},{"bike_id":"02507b5d-784d-4f28-a0a4-c82f20ca248f","system_id":"levelo_inurba_marseille","lat":43.28164,"lon":5.38187,"is_reserved":false,"is_disabled":false,"rental_uris":{"android":"levelo://app?vid=02507b5d-784d-4f28-a0a4-c82f20ca248f","ios":"levelo://app?vid=02507b5d-784d-4f28-a0a4-c82f20ca248f"},"vehicle_type_id":"4","last_reported":1728911905,"current_range_meters":38000,"station_id":"ce4bhh92rcd13ifvqfj0","pricing_plan_id":"cebpf4jnsgd1na2vs0mg"},{"bike_id":"2c1638e5-4be7-4564-a61a-45b1d6f91a3c","system_id":"levelo_inurba_marseille","lat":43.30606,"lon":5.37219,"is_reserved":false,"is_disabled":false,"rental_uris":{"android":"levelo://app?vid=2c1638e5-4be7-4564-a61a-45b1d6f91a3c","ios":"levelo://app?vid=2c1638e5-4be7-4564-a61a-45b1d6f91a3c"},"vehicle_type_id":"4","last_reported":1728911905,"current_range_meters":29600,"station_id":"ce4bgqh2rcd13ifvqc4g","pricing_plan_id":"cebpf4jnsgd1na2vs0mg"},{"bike_id":"f9431acc-4158-4e63-bbe0-7544277cc35e","system_id":"levelo_inurba_marseille","lat":43.29032,"lon":5.37567,"is_reserved":false,"is_disabled":false,"rental_uris":{"android":"levelo://app?vid=f9431acc-4158-4e63-bbe0-7544277cc35e","ios":"levelo://app?vid=f9431acc-4158-4e63-bbe0-7544277cc35e"},"vehicle_type_id":"4","last_reported":1728911905,"current_range_meters":30800,"station_id":"ce4bh692rcd13ifvqe90","pricing_plan_id":"cebpf4jnsgd1na2vs0mg"},{"bike_id":"913fa819-1c44-4d06-8f1c-4e7cd5beec8b","system_id":"levelo_inurba_marseille","lat":43.29548,"lon":5.42283,"is_reserved":false,"is_disabled":false,"rental_uris":{"android":"levelo://app?vid=913fa819-1c44-4d06-8f1c-4e7cd5beec8b","ios":"levelo://app?vid=913fa819-1c44-4d06-8f1c-4e7cd5beec8b"},"vehicle_type_id":"4","last_reported":1728911905,"current_range_meters":36800,"station_id":"ce4bhph2rcd13ifvqhdg","pricing_plan_id":"cebpf4jnsgd1na2vs0mg"},{"bike_id":"e42a5c5b-19d2-48bc-8dfc-c8514ef28621","system_id":"levelo_inurba_marseille","lat":43.24166,"lon":5.36402,"is_reserved":false,"is_disabled":false,"rental_uris":{"android":"levelo://app?vid=e42a5c5b-19d2-48bc-8dfc-c8514ef28621","ios":"levelo://app?vid=e42a5c5b-19d2-48bc-8dfc-c8514ef28621"},"vehicle_type_id":"4","last_reported":1728911905,"current_range_meters":30000,"station_id":"cpo36qri1sfpv3e86is0","pricing_plan_id":"cebpf4jnsgd1na2vs0mg"},{"bike_id":"e1b15212-e20a-4be7-b4a0-76c6e3422c49","system_id":"levelo_inurba_marseille","lat":43.29839,"lon":5.36273,"is_reserved":false,"is_disabled":false,"rental_uris":{"android":"levelo://app?vid=e1b15212-e20a-4be7-b4a0-76c6e3422c49","ios":"levelo://app?vid=e1b15212-e20a-4be7-b4a0-76c6e3422c49"},"vehicle_type_id":"4","last_reported":1728911905,"current_range_meters":27600,"station_id":"ce4bgpp2rcd13ifvqc3g","pricing_plan_id":"cebpf4jnsgd1na2vs0mg"},{"bike_id":"9f93002b-4bab-4469-ab1a-34b3a8f8301e","system_id":"levelo_inurba_marseille","lat":43.30269,"lon":5.37703,"is_reserved":false,"is_disabled":false,"rental_uris":{"android":"levelo://app?vid=9f93002b-4bab-4469-ab1a-34b3a8f8301e","ios":"levelo://app?vid=9f93002b-4bab-4469-ab1a-34b3a8f8301e"},"vehicle_type_id":"4","last_reported":1728911905,"current_range_meters":6800,"station_id":"ce4bguh2rcd13ifvqcj0","pricing_plan_id":"cebpf4jnsgd1na2vs0mg"},{"bike_id":"ea7c4819-c8b9-496b-8324-151ca1400df4","system_id":"levelo_inurba_marseille","lat":43.291,"lon":5.38149,"is_reserved":false,"is_disabled":false,"rental_uris":{"android":"levelo://app?vid=ea7c4819-c8b9-496b-8324-151ca1400df4","ios":"levelo://app?vid=ea7c4819-c8b9-496b-8324-151ca1400df4"},"vehicle_type_id":"4","last_reported":1728911905,"current_range_meters":24400,"station_id":"ce4bh512rcd13ifvqe2g","pricing_plan_id":"cebpf4jnsgd1na2vs0mg"},{"bike_id":"28e70f94-24b9-4205-b375-58c98f3bda7a","system_id":"levelo_inurba_marseille","lat":43.25864,"lon":5.39902,"is_reserved":false,"is_disabled":false,"rental_uris":{"android":"levelo://app?vid=28e70f94-24b9-4205-b375-58c98f3bda7a","ios":"levelo://app?vid=28e70f94-24b9-4205-b375-58c98f3bda7a"},"vehicle_type_id":"4","last_reported":1728911905,"current_range_meters":37600,"station_id":"ce4bhl92rcd13ifvqghg","pricing_plan_id":"cebpf4jnsgd1na2vs0mg"},{"bike_id":"339289c4-7b38-4d77-815f-139b6ca78fd9","system_id":"levelo_inurba_marseille","lat":43.291931,"lon":5.358038,"is_reserved":false,"is_disabled":false,"rental_uris":{"android":"levelo://app?vid=339289c4-7b38-4d77-815f-139b6ca78fd9","ios":"levelo://app?vid=339289c4-7b38-4d77-815f-139b6ca78fd9"},"vehicle_type_id":"4","last_reported":1728911905,"current_range_meters":24000,"station_id":"ce4bhb12rcd13ifvqel0","pricing_plan_id":"cebpf4jnsgd1na2vs0mg"},{"bike_id":"4d739139-0ec9-48fa-8ee5-a19b69fa74e4","system_id":"levelo_inurba_marseille","lat":43.23193,"lon":5.35545,"is_reserved":false,"is_disabled":false,"rental_uris":{"android":"levelo://app?vid=4d739139-0ec9-48fa-8ee5-a19b69fa74e4","ios":"levelo://app?vid=4d739139-0ec9-48fa-8ee5-a19b69fa74e4"},"vehicle_type_id":"4","last_reported":1728911905,"current_range_meters":2800,"station_id":"ce4bhu92rcd13ifvqi70","pricing_plan_id":"cebpf4jnsgd1na2vs0mg"},{"bike_id":"dbb3054c-5a22-40f0-8a11-c70fce130da1","system_id":"levelo_inurba_marseille","lat":43.24545,"lon":5.39523,"is_reserved":false,"is_disabled":false,"rental_uris":{"android":"levelo://app?vid=dbb3054c-5a22-40f0-8a11-c70fce130da1","ios":"levelo://app?vid=dbb3054c-5a22-40f0-8a11-c70fce130da1"},"vehicle_type_id":"4","last_reported":1728911905,"current_range_meters":19200,"station_id":"ce4bhlp2rcd13ifvqgjg","pricing_plan_id":"cebpf4jnsgd1na2vs0mg"},{"bike_id":"d06f24f3-1961-4c39-8b26-c72733863fe9","system_id":"levelo_inurba_marseille","lat":43.33781,"lon":5.37443,"is_reserved":false,"is_disabled":false,"rental_uris":{"android":"levelo://app?vid=d06f24f3-1961-4c39-8b26-c72733863fe9","ios":"levelo://app?vid=d06f24f3-1961-4c39-8b26-c72733863fe9"},"vehicle_type_id":"4","last_reported":1728911905,"current_range_meters":28800,"station_id":"","pricing_plan_id":"cebpf4jnsgd1na2vs0mg"},{"bike_id":"7e9d412a-4a2b-4b3e-801e-7d104da3d5c4","system_id":"levelo_inurba_marseille","lat":43.28696,"lon":5.39982,"is_reserved":false,"is_disabled":false,"rental_uris":{"android":"levelo://app?vid=7e9d412a-4a2b-4b3e-801e-7d104da3d5c4","ios":"levelo://app?vid=7e9d412a-4a2b-4b3e-801e-7d104da3d5c4"},"vehicle_type_id":"4","last_reported":1728911905,"current_range_meters":35200,"station_id":"ce4bho92rcd13ifvqh3g","pricing_plan_id":"cebpf4jnsgd1na2vs0mg"},{"bike_id":"081c4dee-2078-4467-b64a-d66267b1ab9e","system_id":"levelo_inurba_marseille","lat":43.3112,"lon":5.37773,"is_reserved":false,"is_disabled":false,"rental_uris":{"android":"levelo://app?vid=081c4dee-2078-4467-b64a-d66267b1ab9e","ios":"levelo://app?vid=081c4dee-2078-4467-b64a-d66267b1ab9e"},"vehicle_type_id":"4","last_reported":1728911905,"current_range_meters":10000,"station_id":"ce4bgt92rcd13ifvqcg0","pricing_plan_id":"cebpf4jnsgd1na2vs0mg"},{"bike_id":"21598ab8-71c1-4d5f-bb69-8c5708cf1e3e","system_id":"levelo_inurba_marseille","lat":43.31214,"lon":5.36853,"is_reserved":false,"is_disabled":false,"rental_uris":{"android":"levelo://app?vid=21598ab8-71c1-4d5f-bb69-8c5708cf1e3e","ios":"levelo://app?vid=21598ab8-71c1-4d5f-bb69-8c5708cf1e3e"},"vehicle_type_id":"4","last_reported":1728911905,"current_range_meters":25200,"station_id":"ce4bgl92rcd13ifvqbq0","pricing_plan_id":"cebpf4jnsgd1na2vs0mg"},{"bike_id":"32770edf-74bf-40bc-b52e-568d0c2ae6b6","system_id":"levelo_inurba_marseille","lat":43.30534,"lon":5.38423,"is_reserved":false,"is_disabled":false,"rental_uris":{"android":"levelo://app?vid=32770edf-74bf-40bc-b52e-568d0c2ae6b6","ios":"levelo://app?vid=32770edf-74bf-40bc-b52e-568d0c2ae6b6"},"vehicle_type_id":"4","last_reported":1728911905,"current_range_meters":27600,"station_id":"ce4bgg92rcd13ifvqb30","pricing_plan_id":"cebpf4jnsgd1na2vs0mg"},{"bike_id":"ce9777d2-beb0-43c3-831b-489e40f97aa0","system_id":"levelo_inurba_marseille","lat":43.280945,"lon":5.401379,"is_reserved":false,"is_disabled":false,"rental_uris":{"android":"levelo://app?vid=ce9777d2-beb0-43c3-831b-489e40f97aa0","ios":"levelo://app?vid=ce9777d2-beb0-43c3-831b-489e40f97aa0"},"vehicle_type_id":"4","last_reported":1728911905,"current_range_meters":12400,"station_id":"ce4bho92rcd13ifvqh4g","pricing_plan_id":"cebpf4jnsgd1na2vs0mg"},{"bike_id":"de55ef64-fd38-455a-b0e1-1ae601486694","system_id":"levelo_inurba_marseille","lat":43.28463,"lon":5.35896,"is_reserved":false,"is_disabled":false,"rental_uris":{"android":"levelo://app?vid=de55ef64-fd38-455a-b0e1-1ae601486694","ios":"levelo://app?vid=de55ef64-fd38-455a-b0e1-1ae601486694"},"vehicle_type_id":"4","last_reported":1728911905,"current_range_meters":30800,"station_id":"ce4bhah2rcd13ifvqei0","pricing_plan_id":"cebpf4jnsgd1na2vs0mg"},{"bike_id":"d41309ab-1a1f-4395-acaa-455483c3f8e1","system_id":"levelo_inurba_marseille","lat":43.23199,"lon":5.35549,"is_reserved":false,"is_disabled":false,"rental_uris":{"android":"levelo://app?vid=d41309ab-1a1f-4395-acaa-455483c3f8e1","ios":"levelo://app?vid=d41309ab-1a1f-4395-acaa-455483c3f8e1"},"vehicle_type_id":"4","last_reported":1728911905,"current_range_meters":37600,"station_id":"ce4bhu92rcd13ifvqi70","pricing_plan_id":"cebpf4jnsgd1na2vs0mg"},{"bike_id":"80febe76-3a6d-4eb8-be47-3066f3aaa6b8","system_id":"levelo_inurba_marseille","lat":43.25821,"lon":5.3943,"is_reserved":false,"is_disabled":false,"rental_uris":{"android":"levelo://app?vid=80febe76-3a6d-4eb8-be47-3066f3aaa6b8","ios":"levelo://app?vid=80febe76-3a6d-4eb8-be47-3066f3aaa6b8"},"vehicle_type_id":"4","last_reported":1728911905,"current_range_meters":3600,"station_id":"ce4bhip2rcd13ifvqft0","pricing_plan_id":"cebpf4jnsgd1na2vs0mg"},{"bike_id":"786764f3-fb4f-49ef-aacc-53a245b0b161","system_id":"levelo_inurba_marseille","lat":43.28718,"lon":5.3608,"is_reserved":false,"is_disabled":false,"rental_uris":{"android":"levelo://app?vid=786764f3-fb4f-49ef-aacc-53a245b0b161","ios":"levelo://app?vid=786764f3-fb4f-49ef-aacc-53a245b0b161"},"vehicle_type_id":"4","last_reported":1728911905,"current_range_meters":38400,"station_id":"cki0cbj6b192h4jlfktg","pricing_plan_id":"cebpf4jnsgd1na2vs0mg"},{"bike_id":"2e543809-e713-4eb6-bdfb-6cf271b7dabd","system_id":"levelo_inurba_marseille","lat":43.3091,"lon":5.3685,"is_reserved":false,"is_disabled":false,"rental_uris":{"android":"levelo://app?vid=2e543809-e713-4eb6-bdfb-6cf271b7dabd","ios":"levelo://app?vid=2e543809-e713-4eb6-bdfb-6cf271b7dabd"},"vehicle_type_id":"4","last_reported":1728911905,"current_range_meters":29600,"station_id":"ce4bgn92rcd13ifvqbvg","pricing_plan_id":"cebpf4jnsgd1na2vs0mg"},{"bike_id":"eaedc49c-645c-4444-a4d2-8456bbc17d70","system_id":"levelo_inurba_marseille","lat":43.29902,"lon":5.43656,"is_reserved":false,"is_disabled":false,"rental_uris":{"android":"levelo://app?vid=eaedc49c-645c-4444-a4d2-8456bbc17d70","ios":"levelo://app?vid=eaedc49c-645c-4444-a4d2-8456bbc17d70"},"vehicle_type_id":"4","last_reported":1728911905,"current_range_meters":15200,"station_id":"ce4bhpp2rcd13ifvqhfg","pricing_plan_id":"cebpf4jnsgd1na2vs0mg"},{"bike_id":"fedf1404-1438-4fe4-877e-19d0319428ee","system_id":"levelo_inurba_marseille","lat":43.24801,"lon":5.37458,"is_reserved":false,"is_disabled":false,"rental_uris":{"android":"levelo://app?vid=fedf1404-1438-4fe4-877e-19d0319428ee","ios":"levelo://app?vid=fedf1404-1438-4fe4-877e-19d0319428ee"},"vehicle_type_id":"4","last_reported":1728911905,"current_range_meters":36800,"station_id":"ce4bhgh2rcd13ifvqfb0","pricing_plan_id":"cebpf4jnsgd1na2vs0mg"},{"bike_id":"72b31da5-29d9-4edb-a378-abfe468f2132","system_id":"levelo_inurba_marseille","lat":43.297074,"lon":5.366124,"is_reserved":false,"is_disabled":false,"rental_uris":{"android":"levelo://app?vid=72b31da5-29d9-4edb-a378-abfe468f2132","ios":"levelo://app?vid=72b31da5-29d9-4edb-a378-abfe468f2132"},"vehicle_type_id":"4","last_reported":1728911905,"current_range_meters":6800,"station_id":"ce4bgn12rcd13ifvqbt0","pricing_plan_id":"cebpf4jnsgd1na2vs0mg"},{"bike_id":"d0e1a926-e28a-4542-ae19-c14cf17fc9a9","system_id":"levelo_inurba_marseille","lat":43.29962,"lon":5.38474,"is_reserved":false,"is_disabled":false,"rental_uris":{"android":"levelo://app?vid=d0e1a926-e28a-4542-ae19-c14cf17fc9a9","ios":"levelo://app?vid=d0e1a926-e28a-4542-ae19-c14cf17fc9a9"},"vehicle_type_id":"4","last_reported":1728911905,"current_range_meters":35600,"station_id":"ce4bgj92rcd13ifvqbd0","pricing_plan_id":"cebpf4jnsgd1na2vs0mg"},{"bike_id":"8d6ee936-64a9-411a-afe6-ea2e97b43d87","system_id":"levelo_inurba_marseille","lat":43.28721,"lon":5.3794,"is_reserved":false,"is_disabled":false,"rental_uris":{"android":"levelo://app?vid=8d6ee936-64a9-411a-afe6-ea2e97b43d87","ios":"levelo://app?vid=8d6ee936-64a9-411a-afe6-ea2e97b43d87"},"vehicle_type_id":"4","last_reported":1728911905,"current_range_meters":40000,"station_id":"ce4bh9p2rcd13ifvqec0","pricing_plan_id":"cebpf4jnsgd1na2vs0mg"},{"bike_id":"543b35a4-a816-4e4e-b35d-6b39206ab939","system_id":"levelo_inurba_marseille","lat":43.23147,"lon":5.4371,"is_reserved":false,"is_disabled":false,"rental_uris":{"android":"levelo://app?vid=543b35a4-a816-4e4e-b35d-6b39206ab939","ios":"levelo://app?vid=543b35a4-a816-4e4e-b35d-6b39206ab939"},"vehicle_type_id":"4","last_reported":1728911905,"current_range_meters":26000,"station_id":"ce4bhmp2rcd13ifvqgog","pricing_plan_id":"cebpf4jnsgd1na2vs0mg"},{"bike_id":"caed2cc4-eef4-4707-82e2-8e7b286f2f40","system_id":"levelo_inurba_marseille","lat":43.28438,"lon":5.39213,"is_reserved":false,"is_disabled":false,"rental_uris":{"android":"levelo://app?vid=caed2cc4-eef4-4707-82e2-8e7b286f2f40","ios":"levelo://app?vid=caed2cc4-eef4-4707-82e2-8e7b286f2f40"},"vehicle_type_id":"4","last_reported":1728911905,"current_range_meters":38800,"station_id":"ce4bhoh2rcd13ifvqh5g","pricing_plan_id":"cebpf4jnsgd1na2vs0mg"},{"bike_id":"ab4a30ab-8054-4e06-98f1-3f177dd5d213","system_id":"levelo_inurba_marseille","lat":43.29035,"lon":5.39966,"is_reserved":false,"is_disabled":false,"rental_uris":{"android":"levelo://app?vid=ab4a30ab-8054-4e06-98f1-3f177dd5d213","ios":"levelo://app?vid=ab4a30ab-8054-4e06-98f1-3f177dd5d213"},"vehicle_type_id":"4","last_reported":1728911905,"current_range_meters":10800,"station_id":"ce4bh392rcd13ifvqdm0","pricing_plan_id":"cebpf4jnsgd1na2vs0mg"},{"bike_id":"1b8bfdfe-f0e2-479e-9664-b9c45a24a782","system_id":"levelo_inurba_marseille","lat":43.23152,"lon":5.43703,"is_reserved":false,"is_disabled":false,"rental_uris":{"android":"levelo://app?vid=1b8bfdfe-f0e2-479e-9664-b9c45a24a782","ios":"levelo://app?vid=1b8bfdfe-f0e2-479e-9664-b9c45a24a782"},"vehicle_type_id":"4","last_reported":1728911905,"current_range_meters":15200,"station_id":"ce4bhmp2rcd13ifvqgog","pricing_plan_id":"cebpf4jnsgd1na2vs0mg"},{"bike_id":"a5fe0612-2ba4-4448-a6f4-dda9b1b68d0f","system_id":"levelo_inurba_marseille","lat":43.30186,"lon":5.36611,"is_reserved":false,"is_disabled":false,"rental_uris":{"android":"levelo://app?vid=a5fe0612-2ba4-4448-a6f4-dda9b1b68d0f","ios":"levelo://app?vid=a5fe0612-2ba4-4448-a6f4-dda9b1b68d0f"},"vehicle_type_id":"4","last_reported":1728911905,"current_range_meters":27200,"station_id":"ce4bgrh2rcd13ifvqc8g","pricing_plan_id":"cebpf4jnsgd1na2vs0mg"},{"bike_id":"30773d4c-09ea-44ec-a93b-f8829d65d05a","system_id":"levelo_inurba_marseille","lat":43.28263,"lon":5.3507,"is_reserved":false,"is_disabled":false,"rental_uris":{"android":"levelo://app?vid=30773d4c-09ea-44ec-a93b-f8829d65d05a","ios":"levelo://app?vid=30773d4c-09ea-44ec-a93b-f8829d65d05a"},"vehicle_type_id":"4","last_reported":1728911905,"current_range_meters":18000,"station_id":"ce4bhbp2rcd13ifvqerg","pricing_plan_id":"cebpf4jnsgd1na2vs0mg"},{"bike_id":"1af2813b-98a0-4b62-aaf8-89652b30f639","system_id":"levelo_inurba_marseille","lat":43.22936,"lon":5.35378,"is_reserved":false,"is_disabled":false,"rental_uris":{"android":"levelo://app?vid=1af2813b-98a0-4b62-aaf8-89652b30f639","ios":"levelo://app?vid=1af2813b-98a0-4b62-aaf8-89652b30f639"},"vehicle_type_id":"4","last_reported":1728911905,"current_range_meters":36400,"station_id":"cpo3532slgdg3j2ikp40","pricing_plan_id":"cebpf4jnsgd1na2vs0mg"},{"bike_id":"dcd5cc7d-cf57-48db-b385-7b3ffc8b59c3","system_id":"levelo_inurba_marseille","lat":43.28154,"lon":5.42643,"is_reserved":false,"is_disabled":false,"rental_uris":{"android":"levelo://app?vid=dcd5cc7d-cf57-48db-b385-7b3ffc8b59c3","ios":"levelo://app?vid=dcd5cc7d-cf57-48db-b385-7b3ffc8b59c3"},"vehicle_type_id":"4","last_reported":1728911905,"current_range_meters":3200,"station_id":"ce4bhnh2rcd13ifvqgug","pricing_plan_id":"cebpf4jnsgd1na2vs0mg"},{"bike_id":"a48fec7f-8663-4f03-a876-61c3c7d53d25","system_id":"levelo_inurba_marseille","lat":43.28692,"lon":5.39976,"is_reserved":false,"is_disabled":false,"rental_uris":{"android":"levelo://app?vid=a48fec7f-8663-4f03-a876-61c3c7d53d25","ios":"levelo://app?vid=a48fec7f-8663-4f03-a876-61c3c7d53d25"},"vehicle_type_id":"4","last_reported":1728911905,"current_range_meters":38800,"station_id":"ce4bho92rcd13ifvqh3g","pricing_plan_id":"cebpf4jnsgd1na2vs0mg"},{"bike_id":"f93454e1-a669-4c63-a4ca-b572042c7971","system_id":"levelo_inurba_marseille","lat":43.23193,"lon":5.35554,"is_reserved":false,"is_disabled":false,"rental_uris":{"android":"levelo://app?vid=f93454e1-a669-4c63-a4ca-b572042c7971","ios":"levelo://app?vid=f93454e1-a669-4c63-a4ca-b572042c7971"},"vehicle_type_id":"4","last_reported":1728911905,"current_range_meters":29600,"station_id":"ce4bhu92rcd13ifvqi70","pricing_plan_id":"cebpf4jnsgd1na2vs0mg"},{"bike_id":"845443f5-48b9-48cc-bcd6-6be32eca0125","system_id":"levelo_inurba_marseille","lat":43.337444,"lon":5.374475,"is_reserved":false,"is_disabled":false,"rental_uris":{"android":"levelo://app?vid=845443f5-48b9-48cc-bcd6-6be32eca0125","ios":"levelo://app?vid=845443f5-48b9-48cc-bcd6-6be32eca0125"},"vehicle_type_id":"4","last_reported":1728911905,"current_range_meters":38000,"station_id":"ce4bhp12rcd13ifvqh9g","pricing_plan_id":"cebpf4jnsgd1na2vs0mg"},{"bike_id":"cd9af7ea-256a-4ac3-805e-7af5a1c52f37","system_id":"levelo_inurba_marseille","lat":43.29274,"lon":5.37441,"is_reserved":false,"is_disabled":false,"rental_uris":{"android":"levelo://app?vid=cd9af7ea-256a-4ac3-805e-7af5a1c52f37","ios":"levelo://app?vid=cd9af7ea-256a-4ac3-805e-7af5a1c52f37"},"vehicle_type_id":"4","last_reported":1728911905,"current_range_meters":18000,"station_id":"ce4bgi12rcd13ifvqb70","pricing_plan_id":"cebpf4jnsgd1na2vs0mg"},{"bike_id":"eb30d56c-9104-495d-8110-7cdf1a5ca939","system_id":"levelo_inurba_marseille","lat":43.28716,"lon":5.37934,"is_reserved":false,"is_disabled":false,"rental_uris":{"android":"levelo://app?vid=eb30d56c-9104-495d-8110-7cdf1a5ca939","ios":"levelo://app?vid=eb30d56c-9104-495d-8110-7cdf1a5ca939"},"vehicle_type_id":"4","last_reported":1728911905,"current_range_meters":32400,"station_id":"ce4bh9p2rcd13ifvqec0","pricing_plan_id":"cebpf4jnsgd1na2vs0mg"},{"bike_id":"f89eeca3-f788-45e3-a285-753cb13e4971","system_id":"levelo_inurba_marseille","lat":43.28151,"lon":5.42645,"is_reserved":false,"is_disabled":false,"rental_uris":{"android":"levelo://app?vid=f89eeca3-f788-45e3-a285-753cb13e4971","ios":"levelo://app?vid=f89eeca3-f788-45e3-a285-753cb13e4971"},"vehicle_type_id":"4","last_reported":1728911905,"current_range_meters":20400,"station_id":"ce4bhnh2rcd13ifvqgug","pricing_plan_id":"cebpf4jnsgd1na2vs0mg"},{"bike_id":"75d64712-a213-4a1c-afc5-bd5573565a07","system_id":"levelo_inurba_marseille","lat":43.29199,"lon":5.39319,"is_reserved":false,"is_disabled":false,"rental_uris":{"android":"levelo://app?vid=75d64712-a213-4a1c-afc5-bd5573565a07","ios":"levelo://app?vid=75d64712-a213-4a1c-afc5-bd5573565a07"},"vehicle_type_id":"4","last_reported":1728911905,"current_range_meters":39200,"station_id":"ce4bh192rcd13ifvqdd0","pricing_plan_id":"cebpf4jnsgd1na2vs0mg"},{"bike_id":"6a344486-14e7-432e-98bf-b8beed8e06c6","system_id":"levelo_inurba_marseille","lat":43.32336,"lon":5.38328,"is_reserved":false,"is_disabled":false,"rental_uris":{"android":"levelo://app?vid=6a344486-14e7-432e-98bf-b8beed8e06c6","ios":"levelo://app?vid=6a344486-14e7-432e-98bf-b8beed8e06c6"},"vehicle_type_id":"4","last_reported":1728911905,"current_range_meters":35200,"station_id":"","pricing_plan_id":"cebpf4jnsgd1na2vs0mg"},{"bike_id":"abae8124-cd80-4e1c-9ddb-d1163cd0dcd0","system_id":"levelo_inurba_marseille","lat":43.23151,"lon":5.43701,"is_reserved":false,"is_disabled":false,"rental_uris":{"android":"levelo://app?vid=abae8124-cd80-4e1c-9ddb-d1163cd0dcd0","ios":"levelo://app?vid=abae8124-cd80-4e1c-9ddb-d1163cd0dcd0"},"vehicle_type_id":"4","last_reported":1728911905,"current_range_meters":32800,"station_id":"ce4bhmp2rcd13ifvqgog","pricing_plan_id":"cebpf4jnsgd1na2vs0mg"},{"bike_id":"adeb888d-42d0-4663-b172-22dc1b0b3475","system_id":"levelo_inurba_marseille","lat":43.2909,"lon":5.38128,"is_reserved":false,"is_disabled":false,"rental_uris":{"android":"levelo://app?vid=adeb888d-42d0-4663-b172-22dc1b0b3475","ios":"levelo://app?vid=adeb888d-42d0-4663-b172-22dc1b0b3475"},"vehicle_type_id":"4","last_reported":1728911905,"current_range_meters":30800,"station_id":"ce4bh512rcd13ifvqe2g","pricing_plan_id":"cebpf4jnsgd1na2vs0mg"},{"bike_id":"fb98a24e-0938-4426-b862-7886718862d9","system_id":"levelo_inurba_marseille","lat":43.29916,"lon":5.37499,"is_reserved":false,"is_disabled":false,"rental_uris":{"android":"levelo://app?vid=fb98a24e-0938-4426-b862-7886718862d9","ios":"levelo://app?vid=fb98a24e-0938-4426-b862-7886718862d9"},"vehicle_type_id":"4","last_reported":1728911905,"current_range_meters":26000,"station_id":"ce4bgjh2rcd13ifvqbg0","pricing_plan_id":"cebpf4jnsgd1na2vs0mg"},{"bike_id":"88b1b375-c59a-47a7-a1c5-dd13a9b1c50e","system_id":"levelo_inurba_marseille","lat":43.28336,"lon":5.38093,"is_reserved":false,"is_disabled":false,"rental_uris":{"android":"levelo://app?vid=88b1b375-c59a-47a7-a1c5-dd13a9b1c50e","ios":"levelo://app?vid=88b1b375-c59a-47a7-a1c5-dd13a9b1c50e"},"vehicle_type_id":"4","last_reported":1728911905,"current_range_meters":39200,"station_id":"ce4bh412rcd13ifvqdr0","pricing_plan_id":"cebpf4jnsgd1na2vs0mg"},{"bike_id":"71d61622-4637-49fb-aed9-99d0538b4e8c","system_id":"levelo_inurba_marseille","lat":43.29555,"lon":5.42289,"is_reserved":false,"is_disabled":false,"rental_uris":{"android":"levelo://app?vid=71d61622-4637-49fb-aed9-99d0538b4e8c","ios":"levelo://app?vid=71d61622-4637-49fb-aed9-99d0538b4e8c"},"vehicle_type_id":"4","last_reported":1728911905,"current_range_meters":35600,"station_id":"ce4bhph2rcd13ifvqhdg","pricing_plan_id":"cebpf4jnsgd1na2vs0mg"},{"bike_id":"ffe45a73-7c70-4794-bf2c-fc06684f0039","system_id":"levelo_inurba_marseille","lat":43.31112,"lon":5.3777,"is_reserved":false,"is_disabled":false,"rental_uris":{"android":"levelo://app?vid=ffe45a73-7c70-4794-bf2c-fc06684f0039","ios":"levelo://app?vid=ffe45a73-7c70-4794-bf2c-fc06684f0039"},"vehicle_type_id":"4","last_reported":1728911905,"current_range_meters":37600,"station_id":"ce4bgt92rcd13ifvqcg0","pricing_plan_id":"cebpf4jnsgd1na2vs0mg"},{"bike_id":"754da881-cbc9-4b35-beb2-51d368048841","system_id":"levelo_inurba_marseille","lat":43.33731,"lon":5.37454,"is_reserved":false,"is_disabled":false,"rental_uris":{"android":"levelo://app?vid=754da881-cbc9-4b35-beb2-51d368048841","ios":"levelo://app?vid=754da881-cbc9-4b35-beb2-51d368048841"},"vehicle_type_id":"4","last_reported":1728911905,"current_range_meters":37600,"station_id":"","pricing_plan_id":"cebpf4jnsgd1na2vs0mg"},{"bike_id":"b016e211-9152-4a62-8c13-e5c3a6588f19","system_id":"levelo_inurba_marseille","lat":43.30885,"lon":5.39653,"is_reserved":false,"is_disabled":false,"rental_uris":{"android":"levelo://app?vid=b016e211-9152-4a62-8c13-e5c3a6588f19","ios":"levelo://app?vid=b016e211-9152-4a62-8c13-e5c3a6588f19"},"vehicle_type_id":"4","last_reported":1728911905,"current_range_meters":33200,"station_id":"ce4bh012rcd13ifvqcv0","pricing_plan_id":"cebpf4jnsgd1na2vs0mg"},{"bike_id":"ab18969e-cb34-4c76-80f6-8bb681db9b82","system_id":"levelo_inurba_marseille","lat":43.28719,"lon":5.36087,"is_reserved":false,"is_disabled":false,"rental_uris":{"android":"levelo://app?vid=ab18969e-cb34-4c76-80f6-8bb681db9b82","ios":"levelo://app?vid=ab18969e-cb34-4c76-80f6-8bb681db9b82"},"vehicle_type_id":"4","last_reported":1728911905,"current_range_meters":28400,"station_id":"cki0cbj6b192h4jlfktg","pricing_plan_id":"cebpf4jnsgd1na2vs0mg"},{"bike_id":"80004c0b-1888-4bc4-861c-1bb18fe1efd7","system_id":"levelo_inurba_marseille","lat":43.29552,"lon":5.42282,"is_reserved":false,"is_disabled":false,"rental_uris":{"android":"levelo://app?vid=80004c0b-1888-4bc4-861c-1bb18fe1efd7","ios":"levelo://app?vid=80004c0b-1888-4bc4-861c-1bb18fe1efd7"},"vehicle_type_id":"4","last_reported":1728911905,"current_range_meters":5600,"station_id":"ce4bhph2rcd13ifvqhdg","pricing_plan_id":"cebpf4jnsgd1na2vs0mg"},{"bike_id":"9be67892-dff7-4914-b6a0-c36c0c2ea311","system_id":"levelo_inurba_marseille","lat":43.29415,"lon":5.38623,"is_reserved":false,"is_disabled":false,"rental_uris":{"android":"levelo://app?vid=9be67892-dff7-4914-b6a0-c36c0c2ea311","ios":"levelo://app?vid=9be67892-dff7-4914-b6a0-c36c0c2ea311"},"vehicle_type_id":"4","last_reported":1728911905,"current_range_meters":19600,"station_id":"ce4bh2h2rcd13ifvqdh0","pricing_plan_id":"cebpf4jnsgd1na2vs0mg"},{"bike_id":"79b19701-16ba-41dd-b8e4-0e538de90618","system_id":"levelo_inurba_marseille","lat":43.33024,"lon":5.39037,"is_reserved":false,"is_disabled":false,"rental_uris":{"android":"levelo://app?vid=79b19701-16ba-41dd-b8e4-0e538de90618","ios":"levelo://app?vid=79b19701-16ba-41dd-b8e4-0e538de90618"},"vehicle_type_id":"4","last_reported":1728911905,"current_range_meters":36400,"station_id":"ce4bhr92rcd13ifvqhrg","pricing_plan_id":"cebpf4jnsgd1na2vs0mg"},{"bike_id":"8e4310b3-8820-4ff1-8c01-58d119cd8be3","system_id":"levelo_inurba_marseille","lat":43.30278,"lon":5.377,"is_reserved":false,"is_disabled":false,"rental_uris":{"android":"levelo://app?vid=8e4310b3-8820-4ff1-8c01-58d119cd8be3","ios":"levelo://app?vid=8e4310b3-8820-4ff1-8c01-58d119cd8be3"},"vehicle_type_id":"4","last_reported":1728911905,"current_range_meters":37600,"station_id":"ce4bguh2rcd13ifvqcj0","pricing_plan_id":"cebpf4jnsgd1na2vs0mg"},{"bike_id":"7e0b85bb-b71f-41be-83eb-5db867618641","system_id":"levelo_inurba_marseille","lat":43.3,"lon":5.38604,"is_reserved":false,"is_disabled":false,"rental_uris":{"android":"levelo://app?vid=7e0b85bb-b71f-41be-83eb-5db867618641","ios":"levelo://app?vid=7e0b85bb-b71f-41be-83eb-5db867618641"},"vehicle_type_id":"4","last_reported":1728911905,"current_range_meters":16000,"station_id":"","pricing_plan_id":"cebpf4jnsgd1na2vs0mg"},{"bike_id":"b250cbcd-46bd-44b1-8819-7961f8e6d330","system_id":"levelo_inurba_marseille","lat":43.24388,"lon":5.37052,"is_reserved":false,"is_disabled":false,"rental_uris":{"android":"levelo://app?vid=b250cbcd-46bd-44b1-8819-7961f8e6d330","ios":"levelo://app?vid=b250cbcd-46bd-44b1-8819-7961f8e6d330"},"vehicle_type_id":"4","last_reported":1728911905,"current_range_meters":40000,"station_id":"ce4bhhh2rcd13ifvqfk0","pricing_plan_id":"cebpf4jnsgd1na2vs0mg"},{"bike_id":"8a38e389-9320-4fcb-b1ab-50e9c9a999be","system_id":"levelo_inurba_marseille","lat":43.337702,"lon":5.374448,"is_reserved":false,"is_disabled":false,"rental_uris":{"android":"levelo://app?vid=8a38e389-9320-4fcb-b1ab-50e9c9a999be","ios":"levelo://app?vid=8a38e389-9320-4fcb-b1ab-50e9c9a999be"},"vehicle_type_id":"4","last_reported":1728911905,"current_range_meters":32400,"station_id":"","pricing_plan_id":"cebpf4jnsgd1na2vs0mg"},{"bike_id":"00a5f327-d584-4c8c-bd69-c9ad8a103ce9","system_id":"levelo_inurba_marseille","lat":43.24651,"lon":5.38896,"is_reserved":false,"is_disabled":false,"rental_uris":{"android":"levelo://app?vid=00a5f327-d584-4c8c-bd69-c9ad8a103ce9","ios":"levelo://app?vid=00a5f327-d584-4c8c-bd69-c9ad8a103ce9"},"vehicle_type_id":"4","last_reported":1728911905,"current_range_meters":30000,"station_id":"ce4bhg12rcd13ifvqf60","pricing_plan_id":"cebpf4jnsgd1na2vs0mg"},{"bike_id":"35929eb7-b88a-4734-b78f-f1073b82f9b4","system_id":"levelo_inurba_marseille","lat":43.31328,"lon":5.38622,"is_reserved":false,"is_disabled":false,"rental_uris":{"android":"levelo://app?vid=35929eb7-b88a-4734-b78f-f1073b82f9b4","ios":"levelo://app?vid=35929eb7-b88a-4734-b78f-f1073b82f9b4"},"vehicle_type_id":"4","last_reported":1728911905,"current_range_meters":28800,"station_id":"","pricing_plan_id":"cebpf4jnsgd1na2vs0mg"},{"bike_id":"53b6d9d4-000e-4a9d-a080-3ec593c022e0","system_id":"levelo_inurba_marseille","lat":43.286072,"lon":5.370622,"is_reserved":false,"is_disabled":false,"rental_uris":{"android":"levelo://app?vid=53b6d9d4-000e-4a9d-a080-3ec593c022e0","ios":"levelo://app?vid=53b6d9d4-000e-4a9d-a080-3ec593c022e0"},"vehicle_type_id":"4","last_reported":1728911905,"current_range_meters":27200,"station_id":"ce4bht12rcd13ifvqi60","pricing_plan_id":"cebpf4jnsgd1na2vs0mg"},{"bike_id":"440da7bc-8232-43ea-a2df-f8feb74e77f4","system_id":"levelo_inurba_marseille","lat":43.30942,"lon":5.40149,"is_reserved":false,"is_disabled":false,"rental_uris":{"android":"levelo://app?vid=440da7bc-8232-43ea-a2df-f8feb74e77f4","ios":"levelo://app?vid=440da7bc-8232-43ea-a2df-f8feb74e77f4"},"vehicle_type_id":"4","last_reported":1728911905,"current_range_meters":14400,"station_id":"ce4bgvp2rcd13ifvqct0","pricing_plan_id":"cebpf4jnsgd1na2vs0mg"},{"bike_id":"6484c328-3310-4860-83fc-c04cb372ae68","system_id":"levelo_inurba_marseille","lat":43.26056,"lon":5.39394,"is_reserved":false,"is_disabled":false,"rental_uris":{"android":"levelo://app?vid=6484c328-3310-4860-83fc-c04cb372ae68","ios":"levelo://app?vid=6484c328-3310-4860-83fc-c04cb372ae68"},"vehicle_type_id":"4","last_reported":1728911905,"current_range_meters":36800,"station_id":"ce4bhh92rcd13ifvqfj0","pricing_plan_id":"cebpf4jnsgd1na2vs0mg"},{"bike_id":"f269126c-1b0b-4a1a-a1d6-f8c3716f5336","system_id":"levelo_inurba_marseille","lat":43.23194,"lon":5.35554,"is_reserved":false,"is_disabled":false,"rental_uris":{"android":"levelo://app?vid=f269126c-1b0b-4a1a-a1d6-f8c3716f5336","ios":"levelo://app?vid=f269126c-1b0b-4a1a-a1d6-f8c3716f5336"},"vehicle_type_id":"4","last_reported":1728911905,"current_range_meters":37600,"station_id":"ce4bhu92rcd13ifvqi70","pricing_plan_id":"cebpf4jnsgd1na2vs0mg"},