{"last_updated":1706764001,"ttl":30,"version":"2.2","data":{"bikes":[{"bike_id":"2a9bb2ce-18ef-432e-a513-ce0a4d81ec20","system_id":"levelo_inurba_marseille","lat":43.313391,"lon":5.36706,"is_reserved":false,"is_disabled":false,"rental_uris":{"android":"levelo://app?vid=2a9bb2ce-18ef-432e-a513-ce0a4d81ec20","ios":"levelo://app?vid=2a9bb2ce-18ef-432e-a513-ce0a4d81ec20"},"vehicle_type_id":"4","last_reported":1706764001,"current_range_meters":14800,"station_id":"ce4bgr92rcd13ifvqc6g","pricing_plan_id":"free"},{"bike_id":"aa2081ff-9cef-4ef7-b1e2-feb5d80225c4","system_id":"levelo_inurba_marseille","lat":43.313391,"lon":5.36706,"is_reserved":false,"is_disabled":false,"rental_uris":{"android":"levelo://app?vid=aa2081ff-9cef-4ef7-b1e2-feb5d80225c4","ios":"levelo://app?vid=aa2081ff-9cef-4ef7-b1e2-feb5d80225c4"},"vehicle_type_id":"4","last_reported":1706764001,"current_range_meters":16000,"station_id":"ce4bgr92rcd13ifvqc6g","pricing_plan_id":"free"},{"bike_id":"0044859a-0672-47c0-b475-073f63505aab","system_id":"levelo_inurba_marseille","lat":43.312239,"lon":5.368562,"is_reserved":false,"is_disabled":false,"rental_uris":{"android":"levelo://app?vid=0044859a-0672-47c0-b475-073f63505aab","ios":"levelo://app?vid=0044859a-0672-47c0-b475-073f63505aab"},"vehicle_type_id":"4","last_reported":1706764001,"current_range_meters":31600,"station_id":"ce4bgl92rcd13ifvqbq0","pricing_plan_id":"free"},{"bike_id":"1acafcb7-c866-4661-bb2d-1adf9d61a537","system_id":"levelo_inurba_marseille","lat":43.312239,"lon":5.368562,"is_reserved":false,"is_disabled":false,"rental_uris":{"android":"levelo://app?vid=1acafcb7-c866-4661-bb2d-1adf9d61a537","ios":"levelo://app?vid=1acafcb7-c866-4661-bb2d-1adf9d61a537"},"vehicle_type_id":"4","last_reported":1706764001,"current_range_meters":22000,"station_id":"ce4bgl92rcd13ifvqbq0","pricing_plan_id":"free"},{"bike_id":"a7db206e-aebb-47ab-9d6a-f330d1552adb","system_id":"levelo_inurba_marseille","lat":43.312239,"lon":5.368562,"is_reserved":false,"is_disabled":false,"rental_uris":{"android":"levelo://app?vid=a7db206e-aebb-47ab-9d6a-f330d1552adb","ios":"levelo://app?vid=a7db206e-aebb-47ab-9d6a-f330d1552adb"},"vehicle_type_id":"4","last_reported":1706764001,"current_range_meters":9200,"station_id":"ce4bgl92rcd13ifvqbq0","pricing_plan_id":"free"},{"bike_id":"dbaaa398-e4b6-4a50-add5-02dadd9b7a72","system_id":"levelo_inurba_marseille","lat":43.314811,"lon":5.373104,"is_reserved":false,"is_disabled":false,"rental_uris":{"android":"levelo://app?vid=dbaaa398-e4b6-4a50-add5-02dadd9b7a72","ios":"levelo://app?vid=dbaaa398-e4b6-4a50-add5-02dadd9b7a72"},"vehicle_type_id":"4","last_reported":1706764001,"current_range_meters":24400,"station_id":"ce4bgt12rcd13ifvqcd0","pricing_plan_id":"free"},{"bike_id":"61ccfecd-cb0b-452c-a1d2-72b2f8176461","system_id":"levelo_inurba_marseille","lat":43.314811,"lon":5.373104,"is_reserved":false,"is_disabled":false,"rental_uris":{"android":"levelo://app?vid=61ccfecd-cb0b-452c-a1d2-72b2f8176461","ios":"levelo://app?vid=61ccfecd-cb0b-452c-a1d2-72b2f8176461"},"vehicle_type_id":"4","last_reported":1706764001,"current_range_meters":24400,"station_id":"ce4bgt12rcd13ifvqcd0","pricing_plan_id":"free"},{"bike_id":"b1ce74e6-9370-4661-bb3a-badb15599f47","system_id":"levelo_inurba_marseille","lat":43.309039,"lon":5.371797,"is_reserved":false,"is_disabled":false,"rental_uris":{"android":"levelo://app?vid=b1ce74e6-9370-4661-bb3a-badb15599f47","ios":"levelo://app?vid=b1ce74e6-9370-4661-bb3a-badb15599f47"},"vehicle_type_id":"4","last_reported":1706764001,"current_range_meters":28000,"station_id":"ce4bguh2rcd13ifvqckg","pricing_plan_id":"free"},{"bike_id":"f9553263-dd39-4091-980f-072fec009ca7","system_id":"levelo_inurba_marseille","lat":43.309039,"lon":5.371797,"is_reserved":false,"is_disabled":false,"rental_uris":{"android":"levelo://app?vid=f9553263-dd39-4091-980f-072fec009ca7","ios":"levelo://app?vid=f9553263-dd39-4091-980f-072fec009ca7"},"vehicle_type_id":"4","last_reported":1706764001,"current_range_meters":27200,"station_id":"ce4bguh2rcd13ifvqckg","pricing_plan_id":"free"},{"bike_id":"e3457f0e-2c28-40aa-8510-b585d622a528","system_id":"levelo_inurba_marseille","lat":43.309034,"lon":5.371783,"is_reserved":false,"is_disabled":false,"rental_uris":{"android":"levelo://app?vid=e3457f0e-2c28-40aa-8510-b585d622a528","ios":"levelo://app?vid=e3457f0e-2c28-40aa-8510-b585d622a528"},"vehicle_type_id":"4","last_reported":1706764001,"current_range_meters":23600,"station_id":"ce4bguh2rcd13ifvqckg","pricing_plan_id":"free"},{"bike_id":"992afe73-edb2-417a-bd83-be5a2de974d7","system_id":"levelo_inurba_marseille","lat":43.309039,"lon":5.371797,"is_reserved":false,"is_disabled":false,"rental_uris":{"android":"levelo://app?vid=992afe73-edb2-417a-bd83-be5a2de974d7","ios":"levelo://app?vid=992afe73-edb2-417a-bd83-be5a2de974d7"},"vehicle_type_id":"4","last_reported":1706764001,"current_range_meters":28400,"station_id":"ce4bguh2rcd13ifvqckg","pricing_plan_id":"free"},{"bike_id":"4a7916a4-22aa-47e8-acc2-9c76f41ab2d5","system_id":"levelo_inurba_marseille","lat":43.305989,"lon":5.37225,"is_reserved":false,"is_disabled":false,"rental_uris":{"android":"levelo://app?vid=4a7916a4-22aa-47e8-acc2-9c76f41ab2d5","ios":"levelo://app?vid=4a7916a4-22aa-47e8-acc2-9c76f41ab2d5"},"vehicle_type_id":"4","last_reported":1706764001,"current_range_meters":24800,"station_id":"ce4bgqh2rcd13ifvqc4g","pricing_plan_id":"free"},{"bike_id":"9da54a9f-98e9-430b-87a7-f3e994306244","system_id":"levelo_inurba_marseille","lat":43.305989,"lon":5.37225,"is_reserved":false,"is_disabled":false,"rental_uris":{"android":"levelo://app?vid=9da54a9f-98e9-430b-87a7-f3e994306244","ios":"levelo://app?vid=9da54a9f-98e9-430b-87a7-f3e994306244"},"vehicle_type_id":"4","last_reported":1706764001,"current_range_meters":27600,"station_id":"ce4bgqh2rcd13ifvqc4g","pricing_plan_id":"free"},{"bike_id":"d5e0e471-5569-42a9-ab84-d313ebd90ad0","system_id":"levelo_inurba_marseille","lat":43.305989,"lon":5.37225,"is_reserved":false,"is_disabled":false,"rental_uris":{"android":"levelo://app?vid=d5e0e471-5569-42a9-ab84-d313ebd90ad0","ios":"levelo://app?vid=d5e0e471-5569-42a9-ab84-d313ebd90ad0"},"vehicle_type_id":"4","last_reported":1706764001,"current_range_meters":26800,"station_id":"ce4bgqh2rcd13ifvqc4g","pricing_plan_id":"free"},{"bike_id":"7e6a549c-eb7f-45e3-95b1-967b5f18a31c","system_id":"levelo_inurba_marseille","lat":43.305989,"lon":5.37225,"is_reserved":false,"is_disabled":false,"rental_uris":{"android":"levelo://app?vid=7e6a549c-eb7f-45e3-95b1-967b5f18a31c","ios":"levelo://app?vid=7e6a549c-eb7f-45e3-95b1-967b5f18a31c"},"vehicle_type_id":"4","last_reported":1706764001,"current_range_meters":23600,"station_id":"ce4bgqh2rcd13ifvqc4g","pricing_plan_id":"free"},{"bike_id":"b6ef815c-9313-4c32-a8a4-d4cf054d8aa0","system_id":"levelo_inurba_marseille","lat":43.311131,"lon":5.377651,"is_reserved":false,"is_disabled":false,"rental_uris":{"android":"levelo://app?vid=b6ef815c-9313-4c32-a8a4-d4cf054d8aa0","ios":"levelo://app?vid=b6ef815c-9313-4c32-a8a4-d4cf054d8aa0"},"vehicle_type_id":"4","last_reported":1706764001,"current_range_meters":4000,"station_id":"ce4bgt92rcd13ifvqcg0","pricing_plan_id":"free"},{"bike_id":"1be6c73d-db61-4437-bf33-bc72323c948a","system_id":"levelo_inurba_marseille","lat":43.311131,"lon":5.377651,"is_reserved":false,"is_disabled":false,"rental_uris":{"android":"levelo://app?vid=1be6c73d-db61-4437-bf33-bc72323c948a","ios":"levelo://app?vid=1be6c73d-db61-4437-bf33-bc72323c948a"},"vehicle_type_id":"4","last_reported":1706764001,"current_range_meters":12000,"station_id":"ce4bgt92rcd13ifvqcg0","pricing_plan_id":"free"},{"bike_id":"b89163d2-f2b5-4b6d-aabd-1475735c5e98","system_id":"levelo_inurba_marseille","lat":43.311131,"lon":5.377651,"is_reserved":false,"is_disabled":false,"rental_uris":{"android":"levelo://app?vid=b89163d2-f2b5-4b6d-aabd-1475735c5e98","ios":"levelo://app?vid=b89163d2-f2b5-4b6d-aabd-1475735c5e98"},"vehicle_type_id":"4","last_reported":1706764001,"current_range_meters":11200,"station_id":"ce4bgt92rcd13ifvqcg0","pricing_plan_id":"free"},{"bike_id":"cac1e1b4-72b2-4ef3-ae38-adcc524630ae","system_id":"levelo_inurba_marseille","lat":43.311131,"lon":5.377651,"is_reserved":false,"is_disabled":false,"rental_uris":{"android":"levelo://app?vid=cac1e1b4-72b2-4ef3-ae38-adcc524630ae","ios":"levelo://app?vid=cac1e1b4-72b2-4ef3-ae38-adcc524630ae"},"vehicle_type_id":"4","last_reported":1706764001,"current_range_meters":25200,"station_id":"ce4bgt92rcd13ifvqcg0","pricing_plan_id":"free"},{"bike_id":"adbcea5a-1f31-42c3-ab33-329278704fc2","system_id":"levelo_inurba_marseille","lat":43.311131,"lon":5.377651,"is_reserved":false,"is_disabled":false,"rental_uris":{"android":"levelo://app?vid=adbcea5a-1f31-42c3-ab33-329278704fc2","ios":"levelo://app?vid=adbcea5a-1f31-42c3-ab33-329278704fc2"},"vehicle_type_id":"4","last_reported":1706764001,"current_range_meters":24400,"station_id":"ce4bgt92rcd13ifvqcg0","pricing_plan_id":"free"},{"bike_id":"852d4421-c9a5-4af3-af11-a280ba8c26a7","system_id":"levelo_inurba_marseille","lat":43.311131,"lon":5.377651,"is_reserved":false,"is_disabled":false,"rental_uris":{"android":"levelo://app?vid=852d4421-c9a5-4af3-af11-a280ba8c26a7","ios":"levelo://app?vid=852d4421-c9a5-4af3-af11-a280ba8c26a7"},"vehicle_type_id":"4","last_reported":1706764001,"current_range_meters":16400,"station_id":"ce4bgt92rcd13ifvqcg0","pricing_plan_id":"free"},{"bike_id":"5694533a-06d3-48eb-a5e7-dbdf286b63e0","system_id":"levelo_inurba_marseille","lat":43.307945,"lon":5.376487,"is_reserved":false,"is_disabled":false,"rental_uris":{"android":"levelo://app?vid=5694533a-06d3-48eb-a5e7-dbdf286b63e0","ios":"levelo://app?vid=5694533a-06d3-48eb-a5e7-dbdf286b63e0"},"vehicle_type_id":"4","last_reported":1706764001,"current_range_meters":18000,"station_id":"ce4bgv92rcd13ifvqcq0","pricing_plan_id":"free"},{"bike_id":"a33b9d0c-3e41-40d7-b28f-44e3da351e05","system_id":"levelo_inurba_marseille","lat":43.307945,"lon":5.376487,"is_reserved":false,"is_disabled":false,"rental_uris":{"android":"levelo://app?vid=a33b9d0c-3e41-40d7-b28f-44e3da351e05","ios":"levelo://app?vid=a33b9d0c-3e41-40d7-b28f-44e3da351e05"},"vehicle_type_id":"4","last_reported":1706764001,"current_range_meters":18800,"station_id":"ce4bgv92rcd13ifvqcq0","pricing_plan_id":"free"},{"bike_id":"f33f70d5-46c2-4de5-ac55-7370e52b4850","system_id":"levelo_inurba_marseille","lat":43.307945,"lon":5.376487,"is_reserved":false,"is_disabled":false,"rental_uris":{"android":"levelo://app?vid=f33f70d5-46c2-4de5-ac55-7370e52b4850","ios":"levelo://app?vid=f33f70d5-46c2-4de5-ac55-7370e52b4850"},"vehicle_type_id":"4","last_reported":1706764001,"current_range_meters":28800,"station_id":"ce4bgv92rcd13ifvqcq0","pricing_plan_id":"free"},{"bike_id":"ef339a28-d0f2-4c2f-b5a0-6706d5d07f2d","system_id":"levelo_inurba_marseille","lat":43.307945,"lon":5.376487,"is_reserved":false,"is_disabled":false,"rental_uris":{"android":"levelo://app?vid=ef339a28-d0f2-4c2f-b5a0-6706d5d07f2d","ios":"levelo://app?vid=ef339a28-d0f2-4c2f-b5a0-6706d5d07f2d"},"vehicle_type_id":"4","last_reported":1706764001,"current_range_meters":6800,"station_id":"ce4bgv92rcd13ifvqcq0","pricing_plan_id":"free"},{"bike_id":"9a4db2da-70f6-4b03-8ce0-90eeb4bb8164","system_id":"levelo_inurba_marseille","lat":43.307945,"lon":5.376487,"is_reserved":false,"is_disabled":false,"rental_uris":{"android":"levelo://app?vid=9a4db2da-70f6-4b03-8ce0-90eeb4bb8164","ios":"levelo://app?vid=9a4db2da-70f6-4b03-8ce0-90eeb4bb8164"},"vehicle_type_id":"4","last_reported":1706764001,"current_range_meters":32000,"station_id":"ce4bgv92rcd13ifvqcq0","pricing_plan_id":"free"},{"bike_id":"2d2a6656-6a04-4c39-bb72-1906e926ab8c","system_id":"levelo_inurba_marseille","lat":43.307945,"lon":5.376487,"is_reserved":false,"is_disabled":false,"rental_uris":{"android":"levelo://app?vid=2d2a6656-6a04-4c39-bb72-1906e926ab8c","ios":"levelo://app?vid=2d2a6656-6a04-4c39-bb72-1906e926ab8c"},"vehicle_type_id":"4","last_reported":1706764001,"current_range_meters":32000,"station_id":"ce4bgv92rcd13ifvqcq0","pricing_plan_id":"free"},{"bike_id":"15ea6dcf-d9d1-4738-8f78-7b95632877c6","system_id":"levelo_inurba_marseille","lat":43.307945,"lon":5.376487,"is_reserved":false,"is_disabled":false,"rental_uris":{"android":"levelo://app?vid=15ea6dcf-d9d1-4738-8f78-7b95632877c6","ios":"levelo://app?vid=15ea6dcf-d9d1-4738-8f78-7b95632877c6"},"vehicle_type_id":"4","last_reported":1706764001,"current_range_meters":30800,"station_id":"ce4bgv92rcd13ifvqcq0","pricing_plan_id":"free"},{"bike_id":"18a7ab6b-e68c-44de-99bd-cd4b624a0994","system_id":"levelo_inurba_marseille","lat":43.317075,"lon":5.377367,"is_reserved":false,"is_disabled":false,"rental_uris":{"android":"levelo://app?vid=18a7ab6b-e68c-44de-99bd-cd4b624a0994","ios":"levelo://app?vid=18a7ab6b-e68c-44de-99bd-cd4b624a0994"},"vehicle_type_id":"4","last_reported":1706764001,"current_range_meters":4400,"station_id":"ce4bgth2rcd13ifvqch0","pricing_plan_id":"free"},{"bike_id":"55de07b4-fc42-45d2-a1c7-04a8a2f348ab","system_id":"levelo_inurba_marseille","lat":43.315293,"lon":5.380349,"is_reserved":false,"is_disabled":false,"rental_uris":{"android":"levelo://app?vid=55de07b4-fc42-45d2-a1c7-04a8a2f348ab","ios":"levelo://app?vid=55de07b4-fc42-45d2-a1c7-04a8a2f348ab"},"vehicle_type_id":"4","last_reported":1706764001,"current_range_meters":27600,"station_id":"ce4bhsp2rcd13ifvqi50","pricing_plan_id":"free"},{"bike_id":"19e4f2cb-c5e2-4b1b-a435-37acda86b984","system_id":"levelo_inurba_marseille","lat":43.315293,"lon":5.380349,"is_reserved":false,"is_disabled":false,"rental_uris":{"android":"levelo://app?vid=19e4f2cb-c5e2-4b1b-a435-37acda86b984","ios":"levelo://app?vid=19e4f2cb-c5e2-4b1b-a435-37acda86b984"},"vehicle_type_id":"4","last_reported":1706764001,"current_range_meters":30400,"station_id":"ce4bhsp2rcd13ifvqi50","pricing_plan_id":"free"},{"bike_id":"d621c7c6-f8f7-4aff-8255-da4375603046","system_id":"levelo_inurba_marseille","lat":43.301939,"lon":5.366286,"is_reserved":false,"is_disabled":false,"rental_uris":{"android":"levelo://app?vid=d621c7c6-f8f7-4aff-8255-da4375603046","ios":"levelo://app?vid=d621c7c6-f8f7-4aff-8255-da4375603046"},"vehicle_type_id":"4","last_reported":1706764001,"current_range_meters":2800,"station_id":"ce4bgrh2rcd13ifvqc8g","pricing_plan_id":"free"},{"bike_id":"840ff190-aee7-4cf4-9d9b-245638d58f47","system_id":"levelo_inurba_marseille","lat":43.301939,"lon":5.366286,"is_reserved":false,"is_disabled":false,"rental_uris":{"android":"levelo://app?vid=840ff190-aee7-4cf4-9d9b-245638d58f47","ios":"levelo://app?vid=840ff190-aee7-4cf4-9d9b-245638d58f47"},"vehicle_type_id":"4","last_reported":1706764001,"current_range_meters":30000,"station_id":"ce4bgrh2rcd13ifvqc8g","pricing_plan_id":"free"},{"bike_id":"45b09986-e2e9-4620-8615-d458060bcb40","system_id":"levelo_inurba_marseille","lat":43.308012,"lon":5.381511,"is_reserved":false,"is_disabled":false,"rental_uris":{"android":"levelo://app?vid=45b09986-e2e9-4620-8615-d458060bcb40","ios":"levelo://app?vid=45b09986-e2e9-4620-8615-d458060bcb40"},"vehicle_type_id":"4","last_reported":1706764001,"current_range_meters":30000,"station_id":"ce4bgt12rcd13ifvqce0","pricing_plan_id":"free"},{"bike_id":"3bcc9c29-0427-4de7-b99c-39008410bcd7","system_id":"levelo_inurba_marseille","lat":43.308012,"lon":5.381511,"is_reserved":false,"is_disabled":false,"rental_uris":{"android":"levelo://app?vid=3bcc9c29-0427-4de7-b99c-39008410bcd7","ios":"levelo://app?vid=3bcc9c29-0427-4de7-b99c-39008410bcd7"},"vehicle_type_id":"4","last_reported":1706764001,"current_range_meters":26800,"station_id":"ce4bgt12rcd13ifvqce0","pricing_plan_id":"free"},{"bike_id":"a232e7aa-9308-4ca7-ba7c-74bd83259879","system_id":"levelo_inurba_marseille","lat":43.308012,"lon":5.381511,"is_reserved":false,"is_disabled":false,"rental_uris":{"android":"levelo://app?vid=a232e7aa-9308-4ca7-ba7c-74bd83259879","ios":"levelo://app?vid=a232e7aa-9308-4ca7-ba7c-74bd83259879"},"vehicle_type_id":"4","last_reported":1706764001,"current_range_meters":15600,"station_id":"ce4bgt12rcd13ifvqce0","pricing_plan_id":"free"},{"bike_id":"b06f7a1c-b76d-466a-86ef-5b51c7afb6c9","system_id":"levelo_inurba_marseille","lat":43.308012,"lon":5.381511,"is_reserved":false,"is_disabled":false,"rental_uris":{"android":"levelo://app?vid=b06f7a1c-b76d-466a-86ef-5b51c7afb6c9","ios":"levelo://app?vid=b06f7a1c-b76d-466a-86ef-5b51c7afb6c9"},"vehicle_type_id":"4","last_reported":1706764001,"current_range_meters":32000,"station_id":"ce4bgt12rcd13ifvqce0","pricing_plan_id":"free"},{"bike_id":"400663b7-69ed-4a13-942b-4cbb86936bcd","system_id":"levelo_inurba_marseille","lat":43.308012,"lon":5.381511,"is_reserved":false,"is_disabled":false,"rental_uris":{"android":"levelo://app?vid=400663b7-69ed-4a13-942b-4cbb86936bcd","ios":"levelo://app?vid=400663b7-69ed-4a13-942b-4cbb86936bcd"},"vehicle_type_id":"4","last_reported":1706764001,"current_range_meters":29600,"station_id":"ce4bgt12rcd13ifvqce0","pricing_plan_id":"free"},{"bike_id":"b78c25b3-ad70-417d-be8c-13bee4b622f6","system_id":"levelo_inurba_marseille","lat":43.308012,"lon":5.381511,"is_reserved":false,"is_disabled":false,"rental_uris":{"android":"levelo://app?vid=b78c25b3-ad70-417d-be8c-13bee4b622f6","ios":"levelo://app?vid=b78c25b3-ad70-417d-be8c-13bee4b622f6"},"vehicle_type_id":"4","last_reported":1706764001,"current_range_meters":30000,"station_id":"ce4bgt12rcd13ifvqce0","pricing_plan_id":"free"},{"bike_id":"4c7439c5-f41a-4403-b2b7-f6576e5d3fb1","system_id":"levelo_inurba_marseille","lat":43.308012,"lon":5.381511,"is_reserved":false,"is_disabled":false,"rental_uris":{"android":"levelo://app?vid=4c7439c5-f41a-4403-b2b7-f6576e5d3fb1","ios":"levelo://app?vid=4c7439c5-f41a-4403-b2b7-f6576e5d3fb1"},"vehicle_type_id":"4","last_reported":1706764001,"current_range_meters":22400,"station_id":"ce4bgt12rcd13ifvqce0","pricing_plan_id":"free"},{"bike_id":"156f10d5-dd05-4168-a0aa-7067ac107ad7","system_id":"levelo_inurba_marseille","lat":43.308012,"lon":5.381511,"is_reserved":false,"is_disabled":false,"rental_uris":{"android":"levelo://app?vid=156f10d5-dd05-4168-a0aa-7067ac107ad7","ios":"levelo://app?vid=156f10d5-dd05-4168-a0aa-7067ac107ad7"},"vehicle_type_id":"4","last_reported":1706764001,"current_range_meters":14800,"station_id":"ce4bgt12rcd13ifvqce0","pricing_plan_id":"free"},{"bike_id":"a348725e-733f-471b-aabb-a608e94f42f4","system_id":"levelo_inurba_marseille","lat":43.304606,"lon":5.379026,"is_reserved":false,"is_disabled":false,"rental_uris":{"android":"levelo://app?vid=a348725e-733f-471b-aabb-a608e94f42f4","ios":"levelo://app?vid=a348725e-733f-471b-aabb-a608e94f42f4"},"vehicle_type_id":"4","last_reported":1706764001,"current_range_meters":27600,"station_id":"ce4bgup2rcd13ifvqcn0","pricing_plan_id":"free"},{"bike_id":"8fcec010-b35c-4f9d-83a8-1d725802a0f1","system_id":"levelo_inurba_marseille","lat":43.304606,"lon":5.379026,"is_reserved":false,"is_disabled":false,"rental_uris":{"android":"levelo://app?vid=8fcec010-b35c-4f9d-83a8-1d725802a0f1","ios":"levelo://app?vid=8fcec010-b35c-4f9d-83a8-1d725802a0f1"},"vehicle_type_id":"4","last_reported":1706764001,"current_range_meters":22000,"station_id":"ce4bgup2rcd13ifvqcn0","pricing_plan_id":"free"},{"bike_id":"4c1d912b-8425-4b28-bcd4-0691a1724560","system_id":"levelo_inurba_marseille","lat":43.324778,"lon":5.365772,"is_reserved":false,"is_disabled":false,"rental_uris":{"android":"levelo://app?vid=4c1d912b-8425-4b28-bcd4-0691a1724560","ios":"levelo://app?vid=4c1d912b-8425-4b28-bcd4-0691a1724560"},"vehicle_type_id":"4","last_reported":1706764001,"current_range_meters":15600,"station_id":"ce4bhs12rcd13ifvqhvg","pricing_plan_id":"free"},{"bike_id":"f9b3aa5a-40af-4040-a917-268c7acc95ae","system_id":"levelo_inurba_marseille","lat":43.32479,"lon":5.365809,"is_reserved":false,"is_disabled":false,"rental_uris":{"android":"levelo://app?vid=f9b3aa5a-40af-4040-a917-268c7acc95ae","ios":"levelo://app?vid=f9b3aa5a-40af-4040-a917-268c7acc95ae"},"vehicle_type_id":"4","last_reported":1706764001,"current_range_meters":14000,"station_id":"ce4bhs12rcd13ifvqhvg","pricing_plan_id":"free"},{"bike_id":"72f64bf3-3a8b-40c9-9789-32db1a120b80","system_id":"levelo_inurba_marseille","lat":43.324843,"lon":5.365581,"is_reserved":false,"is_disabled":false,"rental_uris":{"android":"levelo://app?vid=72f64bf3-3a8b-40c9-9789-32db1a120b80","ios":"levelo://app?vid=72f64bf3-3a8b-40c9-9789-32db1a120b80"},"vehicle_type_id":"4","last_reported":1706764001,"current_range_meters":12000,"station_id":"","pricing_plan_id":"free"},{"bike_id":"d09b101b-245f-48b2-b4b4-8cc2cf66b737","system_id":"levelo_inurba_marseille","lat":43.324771,"lon":5.36557,"is_reserved":false,"is_disabled":false,"rental_uris":{"android":"levelo://app?vid=d09b101b-245f-48b2-b4b4-8cc2cf66b737","ios":"levelo://app?vid=d09b101b-245f-48b2-b4b4-8cc2cf66b737"},"vehicle_type_id":"4","last_reported":1706764001,"current_range_meters":16000,"station_id":"ce4bhs12rcd13ifvqhvg","pricing_plan_id":"free"},{"bike_id":"10aca401-5c5a-49af-8e79-9f51f5490e28","system_id":"levelo_inurba_marseille","lat":43.310804,"lon":5.38359,"is_reserved":false,"is_disabled":false,"rental_uris":{"android":"levelo://app?vid=10aca401-5c5a-49af-8e79-9f51f5490e28","ios":"levelo://app?vid=10aca401-5c5a-49af-8e79-9f51f5490e28"},"vehicle_type_id":"4","last_reported":1706764001,"current_range_meters":13200,"station_id":"ce4bgv92rcd13ifvqcr0","pricing_plan_id":"free"},{"bike_id":"a62e06ae-c8aa-4940-9dfd-8ac2135cc776","system_id":"levelo_inurba_marseille","lat":43.310804,"lon":5.38359,"is_reserved":false,"is_disabled":false,"rental_uris":{"android":"levelo://app?vid=a62e06ae-c8aa-4940-9dfd-8ac2135cc776","ios":"levelo://app?vid=a62e06ae-c8aa-4940-9dfd-8ac2135cc776"},"vehicle_type_id":"4","last_reported":1706764001,"current_range_meters":21200,"station_id":"ce4bgv92rcd13ifvqcr0","pricing_plan_id":"free"},{"bike_id":"0e857da2-ce03-4d3c-b774-da27eb29dc96","system_id":"levelo_inurba_marseille","lat":43.302784,"lon":5.377158,"is_reserved":false,"is_disabled":false,"rental_uris":{"android":"levelo://app?vid=0e857da2-ce03-4d3c-b774-da27eb29dc96","ios":"levelo://app?vid=0e857da2-ce03-4d3c-b774-da27eb29dc96"},"vehicle_type_id":"4","last_reported":1706764001,"current_range_meters":30800,"station_id":"ce4bguh2rcd13ifvqcj0","pricing_plan_id":"free"},{"bike_id":"c55bff11-da14-4a7e-af8c-59a6ce00d25a","system_id":"levelo_inurba_marseille","lat":43.302784,"lon":5.377158,"is_reserved":false,"is_disabled":false,"rental_uris":{"android":"levelo://app?vid=c55bff11-da14-4a7e-af8c-59a6ce00d25a","ios":"levelo://app?vid=c55bff11-da14-4a7e-af8c-59a6ce00d25a"},"vehicle_type_id":"4","last_reported":1706764001,"current_range_meters":18000,"station_id":"ce4bguh2rcd13ifvqcj0","pricing_plan_id":"free"},{"bike_id":"71d03508-4277-4dfe-bff8-76bcfdbb3775","system_id":"levelo_inurba_marseille","lat":43.319935,"lon":5.381699,"is_reserved":false,"is_disabled":false,"rental_uris":{"android":"levelo://app?vid=71d03508-4277-4dfe-bff8-76bcfdbb3775","ios":"levelo://app?vid=71d03508-4277-4dfe-bff8-76bcfdbb3775"},"vehicle_type_id":"4","last_reported":1706764001,"current_range_meters":6400,"station_id":"ce4bhr12rcd13ifvqhpg","pricing_plan_id":"free"},{"bike_id":"b6a27ef5-c24a-41bb-8660-01c51af87bb9","system_id":"levelo_inurba_marseille","lat":43.319935,"lon":5.381699,"is_reserved":false,"is_disabled":false,"rental_uris":{"android":"levelo://app?vid=b6a27ef5-c24a-41bb-8660-01c51af87bb9","ios":"levelo://app?vid=b6a27ef5-c24a-41bb-8660-01c51af87bb9"},"vehicle_type_id":"4","last_reported":1706764001,"current_range_meters":6800,"station_id":"ce4bhr12rcd13ifvqhpg","pricing_plan_id":"free"},{"bike_id":"74a5bc9b-7b98-4c08-b89d-ae418136b231","system_id":"levelo_inurba_marseille","lat":43.310231,"lon":5.384496,"is_reserved":false,"is_disabled":false,"rental_uris":{"android":"levelo://app?vid=74a5bc9b-7b98-4c08-b89d-ae418136b231","ios":"levelo://app?vid=74a5bc9b-7b98-4c08-b89d-ae418136b231"},"vehicle_type_id":"4","last_reported":1706764001,"current_range_meters":4400,"station_id":"","pricing_plan_id":"free"},{"bike_id":"cb4b67cb-9f6e-451e-803c-1480a7c88031","system_id":"levelo_inurba_marseille","lat":43.313571,"lon":5.384829,"is_reserved":false,"is_disabled":false,"rental_uris":{"android":"levelo://app?vid=cb4b67cb-9f6e-451e-803c-1480a7c88031","ios":"levelo://app?vid=cb4b67cb-9f6e-451e-803c-1480a7c88031"},"vehicle_type_id":"4","last_reported":1706764001,"current_range_meters":22800,"station_id":"ce4bgt92rcd13ifvqcf0","pricing_plan_id":"free"},{"bike_id":"f91a67e2-0e26-45f2-90f5-18656c8ea9ee","system_id":"levelo_inurba_marseille","lat":43.313571,"lon":5.384829,"is_reserved":false,"is_disabled":false,"rental_uris":{"android":"levelo://app?vid=f91a67e2-0e26-45f2-90f5-18656c8ea9ee","ios":"levelo://app?vid=f91a67e2-0e26-45f2-90f5-18656c8ea9ee"},"vehicle_type_id":"4","last_reported":1706764001,"current_range_meters":4800,"station_id":"ce4bgt92rcd13ifvqcf0","pricing_plan_id":"free"},{"bike_id":"4884250b-5fef-4e5e-800f-c584c23a8811","system_id":"levelo_inurba_marseille","lat":43.313571,"lon":5.384829,"is_reserved":false,"is_disabled":false,"rental_uris":{"android":"levelo://app?vid=4884250b-5fef-4e5e-800f-c584c23a8811","ios":"levelo://app?vid=4884250b-5fef-4e5e-800f-c584c23a8811"},"vehicle_type_id":"4","last_reported":1706764001,"current_range_meters":31600,"station_id":"ce4bgt92rcd13ifvqcf0","pricing_plan_id":"free"},{"bike_id":"1967f1d6-327f-4890-9729-78924b394c0c","system_id":"levelo_inurba_marseille","lat":43.313571,"lon":5.384829,"is_reserved":false,"is_disabled":false,"rental_uris":{"android":"levelo://app?vid=1967f1d6-327f-4890-9729-78924b394c0c","ios":"levelo://app?vid=1967f1d6-327f-4890-9729-78924b394c0c"},"vehicle_type_id":"4","last_reported":1706764001,"current_range_meters":30800,"station_id":"ce4bgt92rcd13ifvqcf0","pricing_plan_id":"free"},{"bike_id":"c8b1764a-5737-44fd-b47b-d68b60e83c9a","system_id":"levelo_inurba_marseille","lat":43.313571,"lon":5.384829,"is_reserved":false,"is_disabled":false,"rental_uris":{"android":"levelo://app?vid=c8b1764a-5737-44fd-b47b-d68b60e83c9a","ios":"levelo://app?vid=c8b1764a-5737-44fd-b47b-d68b60e83c9a"},"vehicle_type_id":"4","last_reported":1706764001,"current_range_meters":23600,"station_id":"ce4bgt92rcd13ifvqcf0","pricing_plan_id":"free"},{"bike_id":"ebfae927-b09f-4893-86fb-6abbf12f1acc","system_id":"levelo_inurba_marseille","lat":43.299399,"lon":5.365393,"is_reserved":false,"is_disabled":false,"rental_uris":{"android":"levelo://app?vid=ebfae927-b09f-4893-86fb-6abbf12f1acc","ios":"levelo://app?vid=ebfae927-b09f-4893-86fb-6abbf12f1acc"},"vehicle_type_id":"4","last_reported":1706764001,"current_range_meters":12800,"station_id":"ce4bgm92rcd13ifvqbr0","pricing_plan_id":"free"},{"bike_id":"3969ad6b-ce21-4aa5-9219-a862123a1e42","system_id":"levelo_inurba_marseille","lat":43.305364,"lon":5.384119,"is_reserved":false,"is_disabled":false,"rental_uris":{"android":"levelo://app?vid=3969ad6b-ce21-4aa5-9219-a862123a1e42","ios":"levelo://app?vid=3969ad6b-ce21-4aa5-9219-a862123a1e42"},"vehicle_type_id":"4","last_reported":1706764001,"current_range_meters":27600,"station_id":"ce4bgg92rcd13ifvqb30","pricing_plan_id":"free"},{"bike_id":"4848fb21-d114-456a-9516-bc53d62f112b","system_id":"levelo_inurba_marseille","lat":43.305364,"lon":5.384119,"is_reserved":false,"is_disabled":false,"rental_uris":{"android":"levelo://app?vid=4848fb21-d114-456a-9516-bc53d62f112b","ios":"levelo://app?vid=4848fb21-d114-456a-9516-bc53d62f112b"},"vehicle_type_id":"4","last_reported":1706764001,"current_range_meters":28400,"station_id":"ce4bgg92rcd13ifvqb30","pricing_plan_id":"free"},{"bike_id":"1ea28af2-bc8f-4ee1-b35d-5954dc643e5b","system_id":"levelo_inurba_marseille","lat":43.311722,"lon":5.387247,"is_reserved":false,"is_disabled":false,"rental_uris":{"android":"levelo://app?vid=1ea28af2-bc8f-4ee1-b35d-5954dc643e5b","ios":"levelo://app?vid=1ea28af2-bc8f-4ee1-b35d-5954dc643e5b"},"vehicle_type_id":"4","last_reported":1706764001,"current_range_meters":31200,"station_id":"ce4bgv12rcd13ifvqcp0","pricing_plan_id":"free"},{"bike_id":"1b31ada3-6ce5-4862-b69b-599c34da3cae","system_id":"levelo_inurba_marseille","lat":43.311722,"lon":5.387247,"is_reserved":false,"is_disabled":false,"rental_uris":{"android":"levelo://app?vid=1b31ada3-6ce5-4862-b69b-599c34da3cae","ios":"levelo://app?vid=1b31ada3-6ce5-4862-b69b-599c34da3cae"},"vehicle_type_id":"4","last_reported":1706764001,"current_range_meters":30400,"station_id":"ce4bgv12rcd13ifvqcp0","pricing_plan_id":"free"},{"bike_id":"69618add-e15f-40ef-a797-cf23a4e803a3","system_id":"levelo_inurba_marseille","lat":43.311722,"lon":5.387247,"is_reserved":false,"is_disabled":false,"rental_uris":{"android":"levelo://app?vid=69618add-e15f-40ef-a797-cf23a4e803a3","ios":"levelo://app?vid=69618add-e15f-40ef-a797-cf23a4e803a3"},"vehicle_type_id":"4","last_reported":1706764001,"current_range_meters":3600,"station_id":"ce4bgv12rcd13ifvqcp0","pricing_plan_id":"free"},{"bike_id":"54581f70-3f06-43b4-9c13-967ecd30fa44","system_id":"levelo_inurba_marseille","lat":43.311722,"lon":5.387247,"is_reserved":false,"is_disabled":false,"rental_uris":{"android":"levelo://app?vid=54581f70-3f06-43b4-9c13-967ecd30fa44","ios":"levelo://app?vid=54581f70-3f06-43b4-9c13-967ecd30fa44"},"vehicle_type_id":"4","last_reported":1706764001,"current_range_meters":800,"station_id":"ce4bgv12rcd13ifvqcp0","pricing_plan_id":"free"},{"bike_id":"34788841-031f-4bde-9a35-9b3480912d23","system_id":"levelo_inurba_marseille","lat":43.311722,"lon":5.387247,"is_reserved":false,"is_disabled":false,"rental_uris":{"android":"levelo://app?vid=34788841-031f-4bde-9a35-9b3480912d23","ios":"levelo://app?vid=34788841-031f-4bde-9a35-9b3480912d23"},"vehicle_type_id":"4","last_reported":1706764001,"current_range_meters":31600,"station_id":"ce4bgv12rcd13ifvqcp0","pricing_plan_id":"free"},{"bike_id":"2e00c260-07d9-4fa4-842b-c9abc039281b","system_id":"levelo_inurba_marseille","lat":43.311722,"lon":5.387247,"is_reserved":false,"is_disabled":false,"rental_uris":{"android":"levelo://app?vid=2e00c260-07d9-4fa4-842b-c9abc039281b","ios":"levelo://app?vid=2e00c260-07d9-4fa4-842b-c9abc039281b"},"vehicle_type_id":"4","last_reported":1706764001,"current_range_meters":31600,"station_id":"ce4bgv12rcd13ifvqcp0","pricing_plan_id":"free"},{"bike_id":"bd1b08ae-a33d-4064-b280-f937cb59f606","system_id":"levelo_inurba_marseille","lat":43.311722,"lon":5.387247,"is_reserved":false,"is_disabled":false,"rental_uris":{"android":"levelo://app?vid=bd1b08ae-a33d-4064-b280-f937cb59f606","ios":"levelo://app?vid=bd1b08ae-a33d-4064-b280-f937cb59f606"},"vehicle_type_id":"4","last_reported":1706764001,"current_range_meters":9600,"station_id":"ce4bgv12rcd13ifvqcp0","pricing_plan_id":"free"},{"bike_id":"14f58613-3f56-4321-bf4f-6664bbbc54b0","system_id":"levelo_inurba_marseille","lat":43.322872,"lon":5.382756,"is_reserved":false,"is_disabled":false,"rental_uris":{"android":"levelo://app?vid=14f58613-3f56-4321-bf4f-6664bbbc54b0","ios":"levelo://app?vid=14f58613-3f56-4321-bf4f-6664bbbc54b0"},"vehicle_type_id":"4","last_reported":1706764001,"current_range_meters":0,"station_id":"ce4bhr12rcd13ifvqhqg","pricing_plan_id":"free"},{"bike_id":"15a97b08-f5cc-4267-8f99-9a3c39cfc79f","system_id":"levelo_inurba_marseille","lat":43.32827,"lon":5.36675,"is_reserved":false,"is_disabled":false,"rental_uris":{"android":"levelo://app?vid=15a97b08-f5cc-4267-8f99-9a3c39cfc79f","ios":"levelo://app?vid=15a97b08-f5cc-4267-8f99-9a3c39cfc79f"},"vehicle_type_id":"4","last_reported":1706764001,"current_range_meters":400,"station_id":"ce4bhs92rcd13ifvqi0g","pricing_plan_id":"free"},{"bike_id":"e39e1e8c-dbfb-42b4-a9cb-91b185aea536","system_id":"levelo_inurba_marseille","lat":43.328371,"lon":5.366909,"is_reserved":false,"is_disabled":false,"rental_uris":{"android":"levelo://app?vid=e39e1e8c-dbfb-42b4-a9cb-91b185aea536","ios":"levelo://app?vid=e39e1e8c-dbfb-42b4-a9cb-91b185aea536"},"vehicle_type_id":"4","last_reported":1706764001,"current_range_meters":27200,"station_id":"ce4bhs92rcd13ifvqi0g","pricing_plan_id":"free"},{"bike_id":"b6c7cbb1-6e12-4300-add5-4257f48c7c91","system_id":"levelo_inurba_marseille","lat":43.297163,"lon":5.365866,"is_reserved":false,"is_disabled":false,"rental_uris":{"android":"levelo://app?vid=b6c7cbb1-6e12-4300-add5-4257f48c7c91","ios":"levelo://app?vid=b6c7cbb1-6e12-4300-add5-4257f48c7c91"},"vehicle_type_id":"4","last_reported":1706764001,"current_range_meters":30400,"station_id":"ce4bgn12rcd13ifvqbt0","pricing_plan_id":"free"},{"bike_id":"359edfee-a8b5-4e14-8bc4-a7fa356532b9","system_id":"levelo_inurba_marseille","lat":43.31751,"lon":5.38907,"is_reserved":false,"is_disabled":false,"rental_uris":{"android":"levelo://app?vid=359edfee-a8b5-4e14-8bc4-a7fa356532b9","ios":"levelo://app?vid=359edfee-a8b5-4e14-8bc4-a7fa356532b9"},"vehicle_type_id":"4","last_reported":1706764001,"current_range_meters":25200,"station_id":"","pricing_plan_id":"free"},{"bike_id":"15d42343-688d-4891-9503-221cd9fc84a0","system_id":"levelo_inurba_marseille","lat":43.299998,"lon":5.382806,"is_reserved":false,"is_disabled":false,"rental_uris":{"android":"levelo://app?vid=15d42343-688d-4891-9503-221cd9fc84a0","ios":"levelo://app?vid=15d42343-688d-4891-9503-221cd9fc84a0"},"vehicle_type_id":"4","last_reported":1706764001,"current_range_meters":5200,"station_id":"","pricing_plan_id":"free"},{"bike_id":"0fba1268-2501-4812-95f1-5bccc5f50fd4","system_id":"levelo_inurba_marseille","lat":43.296921,"lon":5.376579,"is_reserved":false,"is_disabled":false,"rental_uris":{"android":"levelo://app?vid=0fba1268-2501-4812-95f1-5bccc5f50fd4","ios":"levelo://app?vid=0fba1268-2501-4812-95f1-5bccc5f50fd4"},"vehicle_type_id":"4","last_reported":1706764001,"current_range_meters":30000,"station_id":"ce4bgkh2rcd13ifvqbl0","pricing_plan_id":"free"},{"bike_id":"3f16af68-0d99-426e-8f94-88ccec3f7268","system_id":"levelo_inurba_marseille","lat":43.299028,"lon":5.381509,"is_reserved":false,"is_disabled":false,"rental_uris":{"android":"levelo://app?vid=3f16af68-0d99-426e-8f94-88ccec3f7268","ios":"levelo://app?vid=3f16af68-0d99-426e-8f94-88ccec3f7268"},"vehicle_type_id":"4","last_reported":1706764001,"current_range_meters":30800,"station_id":"ce4bgj12rcd13ifvqbc0","pricing_plan_id":"free"},{"bike_id":"81229830-9328-4f4d-8185-17503eae8d5c","system_id":"levelo_inurba_marseille","lat":43.299028,"lon":5.381509,"is_reserved":false,"is_disabled":false,"rental_uris":{"android":"levelo://app?vid=81229830-9328-4f4d-8185-17503eae8d5c","ios":"levelo://app?vid=81229830-9328-4f4d-8185-17503eae8d5c"},"vehicle_type_id":"4","last_reported":1706764001,"current_range_meters":27600,"station_id":"ce4bgj12rcd13ifvqbc0","pricing_plan_id":"free"},{"bike_id":"183797b7-2f1d-4e80-8486-850aa25fa422","system_id":"levelo_inurba_marseille","lat":43.299028,"lon":5.381509,"is_reserved":false,"is_disabled":false,"rental_uris":{"android":"levelo://app?vid=183797b7-2f1d-4e80-8486-850aa25fa422","ios":"levelo://app?vid=183797b7-2f1d-4e80-8486-850aa25fa422"},"vehicle_type_id":"4","last_reported":1706764001,"current_range_meters":31600,"station_id":"ce4bgj12rcd13ifvqbc0","pricing_plan_id":"free"},{"bike_id":"f1cc1051-edc5-4fcb-b418-63e708eb125f","system_id":"levelo_inurba_marseille","lat":43.299028,"lon":5.381509,"is_reserved":false,"is_disabled":false,"rental_uris":{"android":"levelo://app?vid=f1cc1051-edc5-4fcb-b418-63e708eb125f","ios":"levelo://app?vid=f1cc1051-edc5-4fcb-b418-63e708eb125f"},"vehicle_type_id":"4","last_reported":1706764001,"current_range_meters":27200,"station_id":"ce4bgj12rcd13ifvqbc0","pricing_plan_id":"free"},{"bike_id":"f4b307b4-bee4-4540-88bc-26cc68398579","system_id":"levelo_inurba_marseille","lat":43.309589,"lon":5.390258,"is_reserved":false,"is_disabled":false,"rental_uris":{"android":"levelo://app?vid=f4b307b4-bee4-4540-88bc-26cc68398579","ios":"levelo://app?vid=f4b307b4-bee4-4540-88bc-26cc68398579"},"vehicle_type_id":"4","last_reported":1706764001,"current_range_meters":25600,"station_id":"ce4bgup2rcd13ifvqco0","pricing_plan_id":"free"},{"bike_id":"f23b5a40-a67c-44df-9eda-631b3e4fe3d3","system_id":"levelo_inurba_marseille","lat":43.309589,"lon":5.390258,"is_reserved":false,"is_disabled":false,"rental_uris":{"android":"levelo://app?vid=f23b5a40-a67c-44df-9eda-631b3e4fe3d3","ios":"levelo://app?vid=f23b5a40-a67c-44df-9eda-631b3e4fe3d3"},"vehicle_type_id":"4","last_reported":1706764001,"current_range_meters":30400,"station_id":"ce4bgup2rcd13ifvqco0","pricing_plan_id":"free"},{"bike_id":"8c66d845-7e11-47c5-8523-1205c0e4acd5","system_id":"levelo_inurba_marseille","lat":43.309589,"lon":5.390258,"is_reserved":false,"is_disabled":false,"rental_uris":{"android":"levelo://app?vid=8c66d845-7e11-47c5-8523-1205c0e4acd5","ios":"levelo://app?vid=8c66d845-7e11-47c5-8523-1205c0e4acd5"},"vehicle_type_id":"4","last_reported":1706764001,"current_range_meters":27600,"station_id":"ce4bgup2rcd13ifvqco0","pricing_plan_id":"free"},{"bike_id":"071244f1-5189-40c4-bbc7-acdf97e09958","system_id":"levelo_inurba_marseille","lat":43.317557,"lon":5.390173,"is_reserved":false,"is_disabled":false,"rental_uris":{"android":"levelo://app?vid=071244f1-5189-40c4-bbc7-acdf97e09958","ios":"levelo://app?vid=071244f1-5189-40c4-bbc7-acdf97e09958"},"vehicle_type_id":"4","last_reported":1706764001,"current_range_meters":28000,"station_id":"ce4bhqp2rcd13ifvqhng","pricing_plan_id":"free"},{"bike_id":"f6fea7bb-175a-4094-86b5-dd2cf3f3ae6c","system_id":"levelo_inurba_marseille","lat":43.317557,"lon":5.390173,"is_reserved":false,"is_disabled":false,"rental_uris":{"android":"levelo://app?vid=f6fea7bb-175a-4094-86b5-dd2cf3f3ae6c","ios":"levelo://app?vid=f6fea7bb-175a-4094-86b5-dd2cf3f3ae6c"},"vehicle_type_id":"4","last_reported":1706764001,"current_range_meters":16000,"station_id":"ce4bhqp2rcd13ifvqhng","pricing_plan_id":"free"},{"bike_id":"3f3e242f-8cc6-4d62-ae31-664c01f8ce61","system_id":"levelo_inurba_marseille","lat":43.317557,"lon":5.390173,"is_reserved":false,"is_disabled":false,"rental_uris":{"android":"levelo://app?vid=3f3e242f-8cc6-4d62-ae31-664c01f8ce61","ios":"levelo://app?vid=3f3e242f-8cc6-4d62-ae31-664c01f8ce61"},"vehicle_type_id":"4","last_reported":1706764001,"current_range_meters":23200,"station_id":"ce4bhqp2rcd13ifvqhng","pricing_plan_id":"free"},{"bike_id":"e8689a64-6cc1-482f-bfa5-74a84913c82a","system_id":"levelo_inurba_marseille","lat":43.29981,"lon":5.38388,"is_reserved":false,"is_disabled":false,"rental_uris":{"android":"levelo://app?vid=e8689a64-6cc1-482f-bfa5-74a84913c82a","ios":"levelo://app?vid=e8689a64-6cc1-482f-bfa5-74a84913c82a"},"vehicle_type_id":"4","last_reported":1706764001,"current_range_meters":8800,"station_id":"","pricing_plan_id":"free"},{"bike_id":"792486bd-74a9-40c9-90c0-5004d95a9c35","system_id":"levelo_inurba_marseille","lat":43.295748,"lon":5.37522,"is_reserved":false,"is_disabled":false,"rental_uris":{"android":"levelo://app?vid=792486bd-74a9-40c9-90c0-5004d95a9c35","ios":"levelo://app?vid=792486bd-74a9-40c9-90c0-5004d95a9c35"},"vehicle_type_id":"4","last_reported":1706764001,"current_range_meters":29600,"station_id":"ce4bgh92rcd13ifvqb50","pricing_plan_id":"free"},{"bike_id":"a3d1ccf4-9b92-44a8-80cc-a0ab5a92f84b","system_id":"levelo_inurba_marseille","lat":43.304278,"lon":5.388868,"is_reserved":false,"is_disabled":false,"rental_uris":{"android":"levelo://app?vid=a3d1ccf4-9b92-44a8-80cc-a0ab5a92f84b","ios":"levelo://app?vid=a3d1ccf4-9b92-44a8-80cc-a0ab5a92f84b"},"vehicle_type_id":"4","last_reported":1706764001,"current_range_meters":24000,"station_id":"ce4bgk12rcd13ifvqbi0","pricing_plan_id":"free"},{"bike_id":"48062a1e-276c-4641-98f1-7f444b2955aa","system_id":"levelo_inurba_marseille","lat":43.304299,"lon":5.388877,"is_reserved":false,"is_disabled":false,"rental_uris":{"android":"levelo://app?vid=48062a1e-276c-4641-98f1-7f444b2955aa","ios":"levelo://app?vid=48062a1e-276c-4641-98f1-7f444b2955aa"},"vehicle_type_id":"4","last_reported":1706764001,"current_range_meters":21200,"station_id":"ce4bgk12rcd13ifvqbi0","pricing_plan_id":"free"},{"bike_id":"3bb6ba40-3b56-4741-9a0b-677cdb575144","system_id":"levelo_inurba_marseille","lat":43.304278,"lon":5.388868,"is_reserved":false,"is_disabled":false,"rental_uris":{"android":"levelo://app?vid=3bb6ba40-3b56-4741-9a0b-677cdb575144","ios":"levelo://app?vid=3bb6ba40-3b56-4741-9a0b-677cdb575144"},"vehicle_type_id":"4","last_reported":1706764001,"current_range_meters":25200,"station_id":"ce4bgk12rcd13ifvqbi0","pricing_plan_id":"free"},{"bike_id":"75a89ef1-9360-41fc-8312-d6203aec33c6","system_id":"levelo_inurba_marseille","lat":43.30434,"lon":5.38892,"is_reserved":false,"is_disabled":false,"rental_uris":{"android":"levelo://app?vid=75a89ef1-9360-41fc-8312-d6203aec33c6","ios":"levelo://app?vid=75a89ef1-9360-41fc-8312-d6203aec33c6"},"vehicle_type_id":"4","last_reported":1706764001,"current_range_meters":22000,"station_id":"ce4bgk12rcd13ifvqbi0","pricing_plan_id":"free"},{"bike_id":"7a906174-dfa4-4ef0-9322-efec4ab94a78","system_id":"levelo_inurba_marseille","lat":43.2998,"lon":5.38485,"is_reserved":false,"is_disabled":false,"rental_uris":{"android":"levelo://app?vid=7a906174-dfa4-4ef0-9322-efec4ab94a78","ios":"levelo://app?vid=7a906174-dfa4-4ef0-9322-efec4ab94a78"},"vehicle_type_id":"4","last_reported":1706764001,"current_range_meters":29600,"station_id":"ce4bgj92rcd13ifvqbd0","pricing_plan_id":"free"},{"bike_id":"3154c4fb-7e75-478c-9a14-8274b9743225","system_id":"levelo_inurba_marseille","lat":43.299724,"lon":5.384848,"is_reserved":false,"is_disabled":false,"rental_uris":{"android":"levelo://app?vid=3154c4fb-7e75-478c-9a14-8274b9743225","ios":"levelo://app?vid=3154c4fb-7e75-478c-9a14-8274b9743225"},"vehicle_type_id":"4","last_reported":1706764001,"current_range_meters":27200,"station_id":"ce4bgj92rcd13ifvqbd0","pricing_plan_id":"free"},{"bike_id":"646c9c23-6d9e-4325-9db5-3af49ab0c4a0","system_id":"levelo_inurba_marseille","lat":43.299717,"lon":5.384845,"is_reserved":false,"is_disabled":false,"rental_uris":{"android":"levelo://app?vid=646c9c23-6d9e-4325-9db5-3af49ab0c4a0","ios":"levelo://app?vid=646c9c23-6d9e-4325-9db5-3af49ab0c4a0"},"vehicle_type_id":"4","last_reported":1706764001,"current_range_meters":28800,"station_id":"ce4bgj92rcd13ifvqbd0","pricing_plan_id":"free"},{"bike_id":"de25d637-84ec-4203-b892-3e1c2d7c4ddb","system_id":"levelo_inurba_marseille","lat":43.331765,"lon":5.364383,"is_reserved":false,"is_disabled":false,"rental_uris":{"android":"levelo://app?vid=de25d637-84ec-4203-b892-3e1c2d7c4ddb","ios":"levelo://app?vid=de25d637-84ec-4203-b892-3e1c2d7c4ddb"},"vehicle_type_id":"4","last_reported":1706764001,"current_range_meters":4000,"station_id":"","pricing_plan_id":"free"},{"bike_id":"99f80fef-ed1d-46b1-b493-0f77f1603d11","system_id":"levelo_inurba_marseille","lat":43.32367,"lon":5.388836,"is_reserved":false,"is_disabled":false,"rental_uris":{"android":"levelo://app?vid=99f80fef-ed1d-46b1-b493-0f77f1603d11","ios":"levelo://app?vid=99f80fef-ed1d-46b1-b493-0f77f1603d11"},"vehicle_type_id":"4","last_reported":1706764001,"current_range_meters":12000,"station_id":"ce4bhqp2rcd13ifvqhog","pricing_plan_id":"free"},{"bike_id":"202df9dd-3b20-4310-9dde-7a88eca4db2d","system_id":"levelo_inurba_marseille","lat":43.323587,"lon":5.388787,"is_reserved":false,"is_disabled":false,"rental_uris":{"android":"levelo://app?vid=202df9dd-3b20-4310-9dde-7a88eca4db2d","ios":"levelo://app?vid=202df9dd-3b20-4310-9dde-7a88eca4db2d"},"vehicle_type_id":"4","last_reported":1706764001,"current_range_meters":6400,"station_id":"ce4bhqp2rcd13ifvqhog","pricing_plan_id":"free"},{"bike_id":"efa6bd51-c94f-4107-9e97-437d3697b8cb","system_id":"levelo_inurba_marseille","lat":43.32367,"lon":5.388836,"is_reserved":false,"is_disabled":false,"rental_uris":{"android":"levelo://app?vid=efa6bd51-c94f-4107-9e97-437d3697b8cb","ios":"levelo://app?vid=efa6bd51-c94f-4107-9e97-437d3697b8cb"},"vehicle_type_id":"4","last_reported":1706764001,"current_range_meters":7600,"station_id":"ce4bhqp2rcd13ifvqhog","pricing_plan_id":"free"},{"bike_id":"efb486b1-0e75-4c9f-a931-316ac654b617","system_id":"levelo_inurba_marseille","lat":43.32367,"lon":5.388836,"is_reserved":false,"is_disabled":false,"rental_uris":{"android":"levelo://app?vid=efb486b1-0e75-4c9f-a931-316ac654b617","ios":"levelo://app?vid=efb486b1-0e75-4c9f-a931-316ac654b617"},"vehicle_type_id":"4","last_reported":1706764001,"current_range_meters":14000,"station_id":"ce4bhqp2rcd13ifvqhog","pricing_plan_id":"free"},{"bike_id":"6e928346-224f-4023-a878-56e821d77867","system_id":"levelo_inurba_marseille","lat":43.29601,"lon":5.381084,"is_reserved":false,"is_disabled":false,"rental_uris":{"android":"levelo://app?vid=6e928346-224f-4023-a878-56e821d77867","ios":"levelo://app?vid=6e928346-224f-4023-a878-56e821d77867"},"vehicle_type_id":"4","last_reported":1706764001,"current_range_meters":800,"station_id":"ce4bgl12rcd13ifvqbo0","pricing_plan_id":"free"},{"bike_id":"5c8a8fb9-e5ea-41d6-a97e-48148e4680a3","system_id":"levelo_inurba_marseille","lat":43.29602,"lon":5.381084,"is_reserved":false,"is_disabled":false,"rental_uris":{"android":"levelo://app?vid=5c8a8fb9-e5ea-41d6-a97e-48148e4680a3","ios":"levelo://app?vid=5c8a8fb9-e5ea-41d6-a97e-48148e4680a3"},"vehicle_type_id":"4","last_reported":1706764001,"current_range_meters":20800,"station_id":"ce4bgl12rcd13ifvqbo0","pricing_plan_id":"free"},{"bike_id":"9671f161-cad0-4752-9caf-6710f9196ee0","system_id":"levelo_inurba_marseille","lat":43.29602,"lon":5.381084,"is_reserved":false,"is_disabled":false,"rental_uris":{"android":"levelo://app?vid=9671f161-cad0-4752-9caf-6710f9196ee0","ios":"levelo://app?vid=9671f161-cad0-4752-9caf-6710f9196ee0"},"vehicle_type_id":"4","last_reported":1706764001,"current_range_meters":20000,"station_id":"ce4bgl12rcd13ifvqbo0","pricing_plan_id":"free"},{"bike_id":"e284e574-5726-4982-a80f-8c585d7a8d30","system_id":"levelo_inurba_marseille","lat":43.29305,"lon":5.371664,"is_reserved":false,"is_disabled":false,"rental_uris":{"android":"levelo://app?vid=e284e574-5726-4982-a80f-8c585d7a8d30","ios":"levelo://app?vid=e284e574-5726-4982-a80f-8c585d7a8d30"},"vehicle_type_id":"4","last_reported":1706764001,"current_range_meters":0,"station_id":"","pricing_plan_id":"free"},{"bike_id":"8161d889-b1aa-44f6-b76e-35bc19603c2b","system_id":"levelo_inurba_marseille","lat":43.292749,"lon":5.368402,"is_reserved":false,"is_disabled":false,"rental_uris":{"android":"levelo://app?vid=8161d889-b1aa-44f6-b76e-35bc19603c2b","ios":"levelo://app?vid=8161d889-b1aa-44f6-b76e-35bc19603c2b"},"vehicle_type_id":"4","last_reported":1706764001,"current_range_meters":26000,"station_id":"ce4bhbp2rcd13ifvqesg","pricing_plan_id":"free"},{"bike_id":"72d972fc-60c1-4ce0-9552-f841e0674cdb","system_id":"levelo_inurba_marseille","lat":43.305994,"lon":5.393687,"is_reserved":false,"is_disabled":false,"rental_uris":{"android":"levelo://app?vid=72d972fc-60c1-4ce0-9552-f841e0674cdb","ios":"levelo://app?vid=72d972fc-60c1-4ce0-9552-f841e0674cdb"},"vehicle_type_id":"4","last_reported":1706764001,"current_range_meters":31600,"station_id":"ce4bh0p2rcd13ifvqd80","pricing_plan_id":"free"},{"bike_id":"8396c9d7-200b-4687-aa10-9c398374cc55","system_id":"levelo_inurba_marseille","lat":43.305994,"lon":5.393687,"is_reserved":false,"is_disabled":false,"rental_uris":{"android":"levelo://app?vid=8396c9d7-200b-4687-aa10-9c398374cc55","ios":"levelo://app?vid=8396c9d7-200b-4687-aa10-9c398374cc55"},"vehicle_type_id":"4","last_reported":1706764001,"current_range_meters":11600,"station_id":"ce4bh0p2rcd13ifvqd80","pricing_plan_id":"free"},{"bike_id":"84c7150b-19af-40a7-a940-1974cc68622d","system_id":"levelo_inurba_marseille","lat":43.303002,"lon":5.392142,"is_reserved":false,"is_disabled":false,"rental_uris":{"android":"levelo://app?vid=84c7150b-19af-40a7-a940-1974cc68622d","ios":"levelo://app?vid=84c7150b-19af-40a7-a940-1974cc68622d"},"vehicle_type_id":"4","last_reported":1706764001,"current_range_meters":27600,"station_id":"ce4bgkh2rcd13ifvqbk0","pricing_plan_id":"free"},{"bike_id":"e25efc7d-5a6d-4023-8918-7ab1bb310d33","system_id":"levelo_inurba_marseille","lat":43.302992,"lon":5.392136,"is_reserved":false,"is_disabled":false,"rental_uris":{"android":"levelo://app?vid=e25efc7d-5a6d-4023-8918-7ab1bb310d33","ios":"levelo://app?vid=e25efc7d-5a6d-4023-8918-7ab1bb310d33"},"vehicle_type_id":"4","last_reported":1706764001,"current_range_meters":28400,"station_id":"ce4bgkh2rcd13ifvqbk0","pricing_plan_id":"free"},{"bike_id":"3b29f610-7f40-4c1c-8fa8-5cd01016fff4","system_id":"levelo_inurba_marseille","lat":43.300852,"lon":5.390859,"is_reserved":false,"is_disabled":false,"rental_uris":{"android":"levelo://app?vid=3b29f610-7f40-4c1c-8fa8-5cd01016fff4","ios":"levelo://app?vid=3b29f610-7f40-4c1c-8fa8-5cd01016fff4"},"vehicle_type_id":"4","last_reported":1706764001,"current_range_meters":31600,"station_id":"ce4bh192rcd13ifvqdb0","pricing_plan_id":"free"},{"bike_id":"4474dc7b-7e54-4bcd-940e-57303c388c17","system_id":"levelo_inurba_marseille","lat":43.298677,"lon":5.389144,"is_reserved":false,"is_disabled":false,"rental_uris":{"android":"levelo://app?vid=4474dc7b-7e54-4bcd-940e-57303c388c17","ios":"levelo://app?vid=4474dc7b-7e54-4bcd-940e-57303c388c17"},"vehicle_type_id":"4","last_reported":1706764001,"current_range_meters":30400,"station_id":"ce4bh392rcd13ifvqdl0","pricing_plan_id":"free"},{"bike_id":"41759470-05d0-48b1-b7dc-9c70c6b94e11","system_id":"levelo_inurba_marseille","lat":43.30883,"lon":5.39631,"is_reserved":false,"is_disabled":false,"rental_uris":{"android":"levelo://app?vid=41759470-05d0-48b1-b7dc-9c70c6b94e11","ios":"levelo://app?vid=41759470-05d0-48b1-b7dc-9c70c6b94e11"},"vehicle_type_id":"4","last_reported":1706764001,"current_range_meters":6400,"station_id":"ce4bh012rcd13ifvqcv0","pricing_plan_id":"free"},{"bike_id":"0658b839-2464-491d-ae2d-81d59935b490","system_id":"levelo_inurba_marseille","lat":43.308872,"lon":5.396349,"is_reserved":false,"is_disabled":false,"rental_uris":{"android":"levelo://app?vid=0658b839-2464-491d-ae2d-81d59935b490","ios":"levelo://app?vid=0658b839-2464-491d-ae2d-81d59935b490"},"vehicle_type_id":"4","last_reported":1706764001,"current_range_meters":400,"station_id":"ce4bh012rcd13ifvqcv0","pricing_plan_id":"free"},{"bike_id":"ca3d87c3-82bd-4978-b15a-03c5420dc1b0","system_id":"levelo_inurba_marseille","lat":43.309047,"lon":5.396551,"is_reserved":false,"is_disabled":false,"rental_uris":{"android":"levelo://app?vid=ca3d87c3-82bd-4978-b15a-03c5420dc1b0","ios":"levelo://app?vid=ca3d87c3-82bd-4978-b15a-03c5420dc1b0"},"vehicle_type_id":"4","last_reported":1706764001,"current_range_meters":27600,"station_id":"ce4bh012rcd13ifvqcv0","pricing_plan_id":"free"},{"bike_id":"5e3b1660-7009-482f-b60c-6ee6caf98735","system_id":"levelo_inurba_marseille","lat":43.291994,"lon":5.357886,"is_reserved":false,"is_disabled":false,"rental_uris":{"android":"levelo://app?vid=5e3b1660-7009-482f-b60c-6ee6caf98735","ios":"levelo://app?vid=5e3b1660-7009-482f-b60c-6ee6caf98735"},"vehicle_type_id":"4","last_reported":1706764001,"current_range_meters":26800,"station_id":"ce4bhb12rcd13ifvqel0","pricing_plan_id":"free"},{"bike_id":"1f818925-7a8c-48bd-b2f3-1e615da45bac","system_id":"levelo_inurba_marseille","lat":43.308868,"lon":5.396378,"is_reserved":false,"is_disabled":false,"rental_uris":{"android":"levelo://app?vid=1f818925-7a8c-48bd-b2f3-1e615da45bac","ios":"levelo://app?vid=1f818925-7a8c-48bd-b2f3-1e615da45bac"},"vehicle_type_id":"4","last_reported":1706764001,"current_range_meters":19200,"station_id":"ce4bh012rcd13ifvqcv0","pricing_plan_id":"free"},{"bike_id":"de227b3a-8139-49ba-9141-466e5590e02b","system_id":"levelo_inurba_marseille","lat":43.308794,"lon":5.396359,"is_reserved":false,"is_disabled":false,"rental_uris":{"android":"levelo://app?vid=de227b3a-8139-49ba-9141-466e5590e02b","ios":"levelo://app?vid=de227b3a-8139-49ba-9141-466e5590e02b"},"vehicle_type_id":"4","last_reported":1706764001,"current_range_meters":17600,"station_id":"ce4bh012rcd13ifvqcv0","pricing_plan_id":"free"},{"bike_id":"72cf10c6-3a8a-40fa-b9d2-eca6676fbfc9","system_id":"levelo_inurba_marseille","lat":43.291994,"lon":5.357886,"is_reserved":false,"is_disabled":false,"rental_uris":{"android":"levelo://app?vid=72cf10c6-3a8a-40fa-b9d2-eca6676fbfc9","ios":"levelo://app?vid=72cf10c6-3a8a-40fa-b9d2-eca6676fbfc9"},"vehicle_type_id":"4","last_reported":1706764001,"current_range_meters":22800,"station_id":"ce4bhb12rcd13ifvqel0","pricing_plan_id":"free"},{"bike_id":"a9a4da08-495b-4fa5-ba32-47bd0fea8815","system_id":"levelo_inurba_marseille","lat":43.308851,"lon":5.396384,"is_reserved":false,"is_disabled":false,"rental_uris":{"android":"levelo://app?vid=a9a4da08-495b-4fa5-ba32-47bd0fea8815","ios":"levelo://app?vid=a9a4da08-495b-4fa5-ba32-47bd0fea8815"},"vehicle_type_id":"4","last_reported":1706764001,"current_range_meters":17600,"station_id":"ce4bh012rcd13ifvqcv0","pricing_plan_id":"free"},{"bike_id":"0bfa982f-ec6c-4f61-8bb5-d8c3ba6793a6","system_id":"levelo_inurba_marseille","lat":43.308833,"lon":5.396392,"is_reserved":false,"is_disabled":false,"rental_uris":{"android":"levelo://app?vid=0bfa982f-ec6c-4f61-8bb5-d8c3ba6793a6","ios":"levelo://app?vid=0bfa982f-ec6c-4f61-8bb5-d8c3ba6793a6"},"vehicle_type_id":"4","last_reported":1706764001,"current_range_meters":20400,"station_id":"ce4bh012rcd13ifvqcv0","pricing_plan_id":"free"},{"bike_id":"f1a464bd-0d69-455a-abe8-9f8c9121dd3a","system_id":"levelo_inurba_marseille","lat":43.313291,"lon":5.396838,"is_reserved":false,"is_disabled":false,"rental_uris":{"android":"levelo://app?vid=f1a464bd-0d69-455a-abe8-9f8c9121dd3a","ios":"levelo://app?vid=f1a464bd-0d69-455a-abe8-9f8c9121dd3a"},"vehicle_type_id":"4","last_reported":1706764001,"current_range_meters":29200,"station_id":"ce4bgvp2rcd13ifvqcu0","pricing_plan_id":"free"},{"bike_id":"53a9b648-d0a7-4c22-b4f8-cc0f0089a3d5","system_id":"levelo_inurba_marseille","lat":43.308831,"lon":5.396399,"is_reserved":false,"is_disabled":false,"rental_uris":{"android":"levelo://app?vid=53a9b648-d0a7-4c22-b4f8-cc0f0089a3d5","ios":"levelo://app?vid=53a9b648-d0a7-4c22-b4f8-cc0f0089a3d5"},"vehicle_type_id":"4","last_reported":1706764001,"current_range_meters":18000,"station_id":"ce4bh012rcd13ifvqcv0","pricing_plan_id":"free"},{"bike_id":"cd4e9f08-8bad-491a-84ec-e2a431078c70","system_id":"levelo_inurba_marseille","lat":43.30883,"lon":5.396413,"is_reserved":false,"is_disabled":false,"rental_uris":{"android":"levelo://app?vid=cd4e9f08-8bad-491a-84ec-e2a431078c70","ios":"levelo://app?vid=cd4e9f08-8bad-491a-84ec-e2a431078c70"},"vehicle_type_id":"4","last_reported":1706764001,"current_range_meters":6800,"station_id":"ce4bh012rcd13ifvqcv0","pricing_plan_id":"free"},{"bike_id":"5f1ddc79-fa18-48aa-a601-7af24d9c69df","system_id":"levelo_inurba_marseille","lat":43.30888,"lon":5.396428,"is_reserved":false,"is_disabled":false,"rental_uris":{"android":"levelo://app?vid=5f1ddc79-fa18-48aa-a601-7af24d9c69df","ios":"levelo://app?vid=5f1ddc79-fa18-48aa-a601-7af24d9c69df"},"vehicle_type_id":"4","last_reported":1706764001,"current_range_meters":0,"station_id":"ce4bh012rcd13ifvqcv0","pricing_plan_id":"free"},{"bike_id":"2983d506-c322-4e48-b149-0edfd49f85b5","system_id":"levelo_inurba_marseille","lat":43.308824,"lon":5.396435,"is_reserved":false,"is_disabled":false,"rental_uris":{"android":"levelo://app?vid=2983d506-c322-4e48-b149-0edfd49f85b5","ios":"levelo://app?vid=2983d506-c322-4e48-b149-0edfd49f85b5"},"vehicle_type_id":"4","last_reported":1706764001,"current_range_meters":10000,"station_id":"ce4bh012rcd13ifvqcv0","pricing_plan_id":"free"},{"bike_id":"4544aa02-15cb-442f-bf95-dda24b00f359","system_id":"levelo_inurba_marseille","lat":43.30881,"lon":5.396432,"is_reserved":false,"is_disabled":false,"rental_uris":{"android":"levelo://app?vid=4544aa02-15cb-442f-bf95-dda24b00f359","ios":"levelo://app?vid=4544aa02-15cb-442f-bf95-dda24b00f359"},"vehicle_type_id":"4","last_reported":1706764001,"current_range_meters":21600,"station_id":"ce4bh012rcd13ifvqcv0","pricing_plan_id":"free"},{"bike_id":"9769e390-d5d9-4d9f-a0c9-68210a44462c","system_id":"levelo_inurba_marseille","lat":43.291994,"lon":5.357886,"is_reserved":false,"is_disabled":false,"rental_uris":{"android":"levelo://app?vid=9769e390-d5d9-4d9f-a0c9-68210a44462c","ios":"levelo://app?vid=9769e390-d5d9-4d9f-a0c9-68210a44462c"},"vehicle_type_id":"4","last_reported":1706764001,"current_range_meters":29200,"station_id":"ce4bhb12rcd13ifvqel0","pricing_plan_id":"free"},{"bike_id":"dcbcff10-03a8-49a9-a6a6-abd8aa9b95c1","system_id":"levelo_inurba_marseille","lat":43.308816,"lon":5.396441,"is_reserved":false,"is_disabled":false,"rental_uris":{"android":"levelo://app?vid=dcbcff10-03a8-49a9-a6a6-abd8aa9b95c1","ios":"levelo://app?vid=dcbcff10-03a8-49a9-a6a6-abd8aa9b95c1"},"vehicle_type_id":"4","last_reported":1706764001,"current_range_meters":15600,"station_id":"ce4bh012rcd13ifvqcv0","pricing_plan_id":"free"},{"bike_id":"ea719c2b-5bc5-49c2-9cf0-33c445c6a873","system_id":"levelo_inurba_marseille","lat":43.291994,"lon":5.357886,"is_reserved":false,"is_disabled":false,"rental_uris":{"android":"levelo://app?vid=ea719c2b-5bc5-49c2-9cf0-33c445c6a873","ios":"levelo://app?vid=ea719c2b-5bc5-49c2-9cf0-33c445c6a873"},"vehicle_type_id":"4","last_reported":1706764001,"current_range_meters":7200,"station_id":"ce4bhb12rcd13ifvqel0","pricing_plan_id":"free"},{"bike_id":"975c5a9e-df9d-4e6d-ac66-eebb43cbfc32","system_id":"levelo_inurba_marseille","lat":43.308854,"lon":5.396474,"is_reserved":false,"is_disabled":false,"rental_uris":{"android":"levelo://app?vid=975c5a9e-df9d-4e6d-ac66-eebb43cbfc32","ios":"levelo://app?vid=975c5a9e-df9d-4e6d-ac66-eebb43cbfc32"},"vehicle_type_id":"4","last_reported":1706764001,"current_range_meters":6000,"station_id":"ce4bh012rcd13ifvqcv0","pricing_plan_id":"free"},{"bike_id":"4319f2a1-1e14-4c2c-b927-fda3dde88f49","system_id":"levelo_inurba_marseille","lat":43.291886,"lon":5.357946,"is_reserved":false,"is_disabled":false,"rental_uris":{"android":"levelo://app?vid=4319f2a1-1e14-4c2c-b927-fda3dde88f49","ios":"levelo://app?vid=4319f2a1-1e14-4c2c-b927-fda3dde88f49"},"vehicle_type_id":"4","last_reported":1706764001,"current_range_meters":29200,"station_id":"ce4bhb12rcd13ifvqel0","pricing_plan_id":"free"},{"bike_id":"01bf2c3c-b239-44a2-8eb8-3a763b419abc","system_id":"levelo_inurba_marseille","lat":43.313291,"lon":5.396838,"is_reserved":false,"is_disabled":false,"rental_uris":{"android":"levelo://app?vid=01bf2c3c-b239-44a2-8eb8-3a763b419abc","ios":"levelo://app?vid=01bf2c3c-b239-44a2-8eb8-3a763b419abc"},"vehicle_type_id":"4","last_reported":1706764001,"current_range_meters":31600,"station_id":"ce4bgvp2rcd13ifvqcu0","pricing_plan_id":"free"},{"bike_id":"8c38e05c-22c7-41e9-8d01-b9cc4eb2b76f","system_id":"levelo_inurba_marseille","lat":43.313291,"lon":5.396838,"is_reserved":false,"is_disabled":false,"rental_uris":{"android":"levelo://app?vid=8c38e05c-22c7-41e9-8d01-b9cc4eb2b76f","ios":"levelo://app?vid=8c38e05c-22c7-41e9-8d01-b9cc4eb2b76f"},"vehicle_type_id":"4","last_reported":1706764001,"current_range_meters":30800,"station_id":"ce4bgvp2rcd13ifvqcu0","pricing_plan_id":"free"},{"bike_id":"4a9fb3ca-a479-4359-acce-0a4d941d08aa","system_id":"levelo_inurba_marseille","lat":43.30206,"lon":5.39461,"is_reserved":false,"is_disabled":false,"rental_uris":{"android":"levelo://app?vid=4a9fb3ca-a479-4359-acce-0a4d941d08aa","ios":"levelo://app?vid=4a9fb3ca-a479-4359-acce-0a4d941d08aa"},"vehicle_type_id":"4","last_reported":1706764001,"current_range_meters":31200,"station_id":"ce4bh0p2rcd13ifvqd70","pricing_plan_id":"free"},{"bike_id":"85d26d74-98c6-4005-8d22-0246ed297cd0","system_id":"levelo_inurba_marseille","lat":43.302008,"lon":5.394694,"is_reserved":false,"is_disabled":false,"rental_uris":{"android":"levelo://app?vid=85d26d74-98c6-4005-8d22-0246ed297cd0","ios":"levelo://app?vid=85d26d74-98c6-4005-8d22-0246ed297cd0"},"vehicle_type_id":"4","last_reported":1706764001,"current_range_meters":31200,"station_id":"ce4bh0p2rcd13ifvqd70","pricing_plan_id":"free"},{"bike_id":"0736c199-d02d-4954-86a7-b40555117eb9","system_id":"levelo_inurba_marseille","lat":43.302008,"lon":5.394694,"is_reserved":false,"is_disabled":false,"rental_uris":{"android":"levelo://app?vid=0736c199-d02d-4954-86a7-b40555117eb9","ios":"levelo://app?vid=0736c199-d02d-4954-86a7-b40555117eb9"},"vehicle_type_id":"4","last_reported":1706764001,"current_range_meters":20400,"station_id":"ce4bh0p2rcd13ifvqd70","pricing_plan_id":"free"},{"bike_id":"2f2f8b28-b0ec-4d44-b7f3-cd2dec7dee8d","system_id":"levelo_inurba_marseille","lat":43.30206,"lon":5.39466,"is_reserved":false,"is_disabled":false,"rental_uris":{"android":"levelo://app?vid=2f2f8b28-b0ec-4d44-b7f3-cd2dec7dee8d","ios":"levelo://app?vid=2f2f8b28-b0ec-4d44-b7f3-cd2dec7dee8d"},"vehicle_type_id":"4","last_reported":1706764001,"current_range_meters":29600,"station_id":"ce4bh0p2rcd13ifvqd70","pricing_plan_id":"free"},{"bike_id":"71983818-e9b2-47ce-a350-84451725dd36","system_id":"levelo_inurba_marseille","lat":43.302008,"lon":5.394694,"is_reserved":false,"is_disabled":false,"rental_uris":{"android":"levelo://app?vid=71983818-e9b2-47ce-a350-84451725dd36","ios":"levelo://app?vid=71983818-e9b2-47ce-a350-84451725dd36"},"vehicle_type_id":"4","last_reported":1706764001,"current_range_meters":30400,"station_id":"ce4bh0p2rcd13ifvqd70","pricing_plan_id":"free"},{"bike_id":"7999414f-6546-439b-b701-0027b24c97fd","system_id":"levelo_inurba_marseille","lat":43.290624,"lon":5.359245,"is_reserved":false,"is_disabled":false,"rental_uris":{"android":"levelo://app?vid=7999414f-6546-439b-b701-0027b24c97fd","ios":"levelo://app?vid=7999414f-6546-439b-b701-0027b24c97fd"},"vehicle_type_id":"4","last_reported":1706764001,"current_range_meters":26800,"station_id":"ce4bha92rcd13ifvqeg0","pricing_plan_id":"free"},{"bike_id":"2c1e47ad-3478-424c-8c66-23a600b1f0dc","system_id":"levelo_inurba_marseille","lat":43.290441,"lon":5.359123,"is_reserved":false,"is_disabled":false,"rental_uris":{"android":"levelo://app?vid=2c1e47ad-3478-424c-8c66-23a600b1f0dc","ios":"levelo://app?vid=2c1e47ad-3478-424c-8c66-23a600b1f0dc"},"vehicle_type_id":"4","last_reported":1706764001,"current_range_meters":11600,"station_id":"","pricing_plan_id":"free"},{"bike_id":"882772a8-9849-439b-86be-3fb4253e8cac","system_id":"levelo_inurba_marseille","lat":43.290401,"lon":5.359156,"is_reserved":false,"is_disabled":false,"rental_uris":{"android":"levelo://app?vid=882772a8-9849-439b-86be-3fb4253e8cac","ios":"levelo://app?vid=882772a8-9849-439b-86be-3fb4253e8cac"},"vehicle_type_id":"4","last_reported":1706764001,"current_range_meters":12400,"station_id":"ce4bha92rcd13ifvqeg0","pricing_plan_id":"free"},{"bike_id":"b497bf29-7b4e-4201-a374-72d16682a714","system_id":"levelo_inurba_marseille","lat":43.290624,"lon":5.359245,"is_reserved":false,"is_disabled":false,"rental_uris":{"android":"levelo://app?vid=b497bf29-7b4e-4201-a374-72d16682a714","ios":"levelo://app?vid=b497bf29-7b4e-4201-a374-72d16682a714"},"vehicle_type_id":"4","last_reported":1706764001,"current_range_meters":28800,"station_id":"ce4bha92rcd13ifvqeg0","pricing_plan_id":"free"},{"bike_id":"6d5370fe-dd1a-418d-b348-c1284f929019","system_id":"levelo_inurba_marseille","lat":43.289184,"lon":5.366408,"is_reserved":false,"is_disabled":false,"rental_uris":{"android":"levelo://app?vid=6d5370fe-dd1a-418d-b348-c1284f929019","ios":"levelo://app?vid=6d5370fe-dd1a-418d-b348-c1284f929019"},"vehicle_type_id":"4","last_reported":1706764001,"current_range_meters":30400,"station_id":"ce4bhap2rcd13ifvqek0","pricing_plan_id":"free"},{"bike_id":"df212392-d617-40f6-be90-a0daec80aab7","system_id":"levelo_inurba_marseille","lat":43.289468,"lon":5.363719,"is_reserved":false,"is_disabled":false,"rental_uris":{"android":"levelo://app?vid=df212392-d617-40f6-be90-a0daec80aab7","ios":"levelo://app?vid=df212392-d617-40f6-be90-a0daec80aab7"},"vehicle_type_id":"4","last_reported":1706764001,"current_range_meters":22800,"station_id":"ce4bhc92rcd13ifvqetg","pricing_plan_id":"free"},{"bike_id":"9eaefdc5-0aa9-4ad7-98be-e1bace31ef9f","system_id":"levelo_inurba_marseille","lat":43.289468,"lon":5.363719,"is_reserved":false,"is_disabled":false,"rental_uris":{"android":"levelo://app?vid=9eaefdc5-0aa9-4ad7-98be-e1bace31ef9f","ios":"levelo://app?vid=9eaefdc5-0aa9-4ad7-98be-e1bace31ef9f"},"vehicle_type_id":"4","last_reported":1706764001,"current_range_meters":29200,"station_id":"ce4bhc92rcd13ifvqetg","pricing_plan_id":"free"},{"bike_id":"2d18ab25-689c-45a3-8604-eb3f93206bd3","system_id":"levelo_inurba_marseille","lat":43.289468,"lon":5.363719,"is_reserved":false,"is_disabled":false,"rental_uris":{"android":"levelo://app?vid=2d18ab25-689c-45a3-8604-eb3f93206bd3","ios":"levelo://app?vid=2d18ab25-689c-45a3-8604-eb3f93206bd3"},"vehicle_type_id":"4","last_reported":1706764001,"current_range_meters":2000,"station_id":"ce4bhc92rcd13ifvqetg","pricing_plan_id":"free"},{"bike_id":"b08446d7-2439-4f96-8ace-944b29af1f0b","system_id":"levelo_inurba_marseille","lat":43.289468,"lon":5.363719,"is_reserved":false,"is_disabled":false,"rental_uris":{"android":"levelo://app?vid=b08446d7-2439-4f96-8ace-944b29af1f0b","ios":"levelo://app?vid=b08446d7-2439-4f96-8ace-944b29af1f0b"},"vehicle_type_id":"4","last_reported":1706764001,"current_range_meters":800,"station_id":"ce4bhc92rcd13ifvqetg","pricing_plan_id":"free"},{"bike_id":"267c4fb6-cce5-4224-9f79-ddf50aacbc65","system_id":"levelo_inurba_marseille","lat":43.289468,"lon":5.363719,"is_reserved":false,"is_disabled":false,"rental_uris":{"android":"levelo://app?vid=267c4fb6-cce5-4224-9f79-ddf50aacbc65","ios":"levelo://app?vid=267c4fb6-cce5-4224-9f79-ddf50aacbc65"},"vehicle_type_id":"4","last_reported":1706764001,"current_range_meters":30000,"station_id":"ce4bhc92rcd13ifvqetg","pricing_plan_id":"free"},{"bike_id":"1659eab0-6469-47a4-b18c-a220e91ef494","system_id":"levelo_inurba_marseille","lat":43.304264,"lon":5.397533,"is_reserved":false,"is_disabled":false,"rental_uris":{"android":"levelo://app?vid=1659eab0-6469-47a4-b18c-a220e91ef494","ios":"levelo://app?vid=1659eab0-6469-47a4-b18c-a220e91ef494"},"vehicle_type_id":"4","last_reported":1706764001,"current_range_meters":1200,"station_id":"ce4bh092rcd13ifvqd20","pricing_plan_id":"free"},{"bike_id":"948345e0-f74b-49cb-89dc-56d131da36c9","system_id":"levelo_inurba_marseille","lat":43.304249,"lon":5.397529,"is_reserved":false,"is_disabled":false,"rental_uris":{"android":"levelo://app?vid=948345e0-f74b-49cb-89dc-56d131da36c9","ios":"levelo://app?vid=948345e0-f74b-49cb-89dc-56d131da36c9"},"vehicle_type_id":"4","last_reported":1706764001,"current_range_meters":19600,"station_id":"ce4bh092rcd13ifvqd20","pricing_plan_id":"free"},{"bike_id":"edf1d5aa-4559-4b08-8f74-b1a08f321e4b","system_id":"levelo_inurba_marseille","lat":43.304231,"lon":5.397528,"is_reserved":false,"is_disabled":false,"rental_uris":{"android":"levelo://app?vid=edf1d5aa-4559-4b08-8f74-b1a08f321e4b","ios":"levelo://app?vid=edf1d5aa-4559-4b08-8f74-b1a08f321e4b"},"vehicle_type_id":"4","last_reported":1706764001,"current_range_meters":7200,"station_id":"ce4bh092rcd13ifvqd20","pricing_plan_id":"free"},{"bike_id":"dcc2b11b-ec68-4e4e-8480-3938508f53f0","system_id":"levelo_inurba_marseille","lat":43.304225,"lon":5.39754,"is_reserved":false,"is_disabled":false,"rental_uris":{"android":"levelo://app?vid=dcc2b11b-ec68-4e4e-8480-3938508f53f0","ios":"levelo://app?vid=dcc2b11b-ec68-4e4e-8480-3938508f53f0"},"vehicle_type_id":"4","last_reported":1706764001,"current_range_meters":7600,"station_id":"ce4bh092rcd13ifvqd20","pricing_plan_id":"free"},{"bike_id":"60dfff9c-afce-49d5-a20f-bf7b9c0cfc0a","system_id":"levelo_inurba_marseille","lat":43.304296,"lon":5.397513,"is_reserved":false,"is_disabled":false,"rental_uris":{"android":"levelo://app?vid=60dfff9c-afce-49d5-a20f-bf7b9c0cfc0a","ios":"levelo://app?vid=60dfff9c-afce-49d5-a20f-bf7b9c0cfc0a"},"vehicle_type_id":"4","last_reported":1706764001,"current_range_meters":29600,"station_id":"ce4bh092rcd13ifvqd20","pricing_plan_id":"free"},{"bike_id":"cd758980-13e2-4df4-b6fd-f3394b56da3e","system_id":"levelo_inurba_marseille","lat":43.289168,"lon":5.372926,"is_reserved":false,"is_disabled":false,"rental_uris":{"android":"levelo://app?vid=cd758980-13e2-4df4-b6fd-f3394b56da3e","ios":"levelo://app?vid=cd758980-13e2-4df4-b6fd-f3394b56da3e"},"vehicle_type_id":"4","last_reported":1706764001,"current_range_meters":18000,"station_id":"","pricing_plan_id":"free"},{"bike_id":"d6b98879-1ab0-4ce8-af6b-614733082008","system_id":"levelo_inurba_marseille","lat":43.290103,"lon":5.356114,"is_reserved":false,"is_disabled":false,"rental_uris":{"android":"levelo://app?vid=d6b98879-1ab0-4ce8-af6b-614733082008","ios":"levelo://app?vid=d6b98879-1ab0-4ce8-af6b-614733082008"},"vehicle_type_id":"4","last_reported":1706764001,"current_range_meters":25600,"station_id":"ce4bhb92rcd13ifvqen0","pricing_plan_id":"free"},{"bike_id":"873e6a69-c6e0-4007-998e-fcc2017ff5f1","system_id":"levelo_inurba_marseille","lat":43.290104,"lon":5.356111,"is_reserved":false,"is_disabled":false,"rental_uris":{"android":"levelo://app?vid=873e6a69-c6e0-4007-998e-fcc2017ff5f1","ios":"levelo://app?vid=873e6a69-c6e0-4007-998e-fcc2017ff5f1"},"vehicle_type_id":"4","last_reported":1706764001,"current_range_meters":28800,"station_id":"ce4bhb92rcd13ifvqen0","pricing_plan_id":"free"},{"bike_id":"fccc2666-c86a-4175-b728-bcd5d2466dc1","system_id":"levelo_inurba_marseille","lat":43.290995,"lon":5.381361,"is_reserved":false,"is_disabled":false,"rental_uris":{"android":"levelo://app?vid=fccc2666-c86a-4175-b728-bcd5d2466dc1","ios":"levelo://app?vid=fccc2666-c86a-4175-b728-bcd5d2466dc1"},"vehicle_type_id":"4","last_reported":1706764001,"current_range_meters":30400,"station_id":"ce4bh512rcd13ifvqe2g","pricing_plan_id":"free"},{"bike_id":"b492bb92-d9ca-409b-97c4-633c169ea473","system_id":"levelo_inurba_marseille","lat":43.290995,"lon":5.381361,"is_reserved":false,"is_disabled":false,"rental_uris":{"android":"levelo://app?vid=b492bb92-d9ca-409b-97c4-633c169ea473","ios":"levelo://app?vid=b492bb92-d9ca-409b-97c4-633c169ea473"},"vehicle_type_id":"4","last_reported":1706764001,"current_range_meters":29600,"station_id":"ce4bh512rcd13ifvqe2g","pricing_plan_id":"free"},{"bike_id":"97c85f6d-f546-4a60-b948-ee087d5d7f1a","system_id":"levelo_inurba_marseille","lat":43.297933,"lon":5.393358,"is_reserved":false,"is_disabled":false,"rental_uris":{"android":"levelo://app?vid=97c85f6d-f546-4a60-b948-ee087d5d7f1a","ios":"levelo://app?vid=97c85f6d-f546-4a60-b948-ee087d5d7f1a"},"vehicle_type_id":"4","last_reported":1706764001,"current_range_meters":25600,"station_id":"chh1huq6cuj3fo74tm60","pricing_plan_id":"free"},{"bike_id":"2f0af02b-765e-4e24-995b-d4ba9b17ceaf","system_id":"levelo_inurba_marseille","lat":43.330442,"lon":5.389148,"is_reserved":false,"is_disabled":false,"rental_uris":{"android":"levelo://app?vid=2f0af02b-765e-4e24-995b-d4ba9b17ceaf","ios":"levelo://app?vid=2f0af02b-765e-4e24-995b-d4ba9b17ceaf"},"vehicle_type_id":"4","last_reported":1706764001,"current_range_meters":400,"station_id":"ce4bhr92rcd13ifvqhrg","pricing_plan_id":"free"},{"bike_id":"3f302049-670f-477d-9137-035672a71386","system_id":"levelo_inurba_marseille","lat":43.330442,"lon":5.389148,"is_reserved":false,"is_disabled":false,"rental_uris":{"android":"levelo://app?vid=3f302049-670f-477d-9137-035672a71386","ios":"levelo://app?vid=3f302049-670f-477d-9137-035672a71386"},"vehicle_type_id":"4","last_reported":1706764001,"current_range_meters":5600,"station_id":"ce4bhr92rcd13ifvqhrg","pricing_plan_id":"free"},{"bike_id":"982581f3-fc22-4e55-a1f1-e90001c1c6f0","system_id":"levelo_inurba_marseille","lat":43.29004,"lon":5.37949,"is_reserved":false,"is_disabled":false,"rental_uris":{"android":"levelo://app?vid=982581f3-fc22-4e55-a1f1-e90001c1c6f0","ios":"levelo://app?vid=982581f3-fc22-4e55-a1f1-e90001c1c6f0"},"vehicle_type_id":"4","last_reported":1706764001,"current_range_meters":10000,"station_id":"","pricing_plan_id":"free"},{"bike_id":"636ae832-297d-4fb8-a694-19f15ef8da39","system_id":"levelo_inurba_marseille","lat":43.295169,"lon":5.390426,"is_reserved":false,"is_disabled":false,"rental_uris":{"android":"levelo://app?vid=636ae832-297d-4fb8-a694-19f15ef8da39","ios":"levelo://app?vid=636ae832-297d-4fb8-a694-19f15ef8da39"},"vehicle_type_id":"4","last_reported":1706764001,"current_range_meters":23200,"station_id":"ce4bh3p2rcd13ifvqdp0","pricing_plan_id":"free"},{"bike_id":"f6ec17c8-df88-4a6b-81ff-2a4173a1b892","system_id":"levelo_inurba_marseille","lat":43.289743,"lon":5.378304,"is_reserved":false,"is_disabled":false,"rental_uris":{"android":"levelo://app?vid=f6ec17c8-df88-4a6b-81ff-2a4173a1b892","ios":"levelo://app?vid=f6ec17c8-df88-4a6b-81ff-2a4173a1b892"},"vehicle_type_id":"4","last_reported":1706764001,"current_range_meters":25600,"station_id":"ce4bh9p2rcd13ifvqed0","pricing_plan_id":"free"},{"bike_id":"d9ad6114-8950-45cb-bd32-a1912cbdccd4","system_id":"levelo_inurba_marseille","lat":43.295129,"lon":5.390374,"is_reserved":false,"is_disabled":false,"rental_uris":{"android":"levelo://app?vid=d9ad6114-8950-45cb-bd32-a1912cbdccd4","ios":"levelo://app?vid=d9ad6114-8950-45cb-bd32-a1912cbdccd4"},"vehicle_type_id":"4","last_reported":1706764001,"current_range_meters":20000,"station_id":"ce4bh3p2rcd13ifvqdp0","pricing_plan_id":"free"},{"bike_id":"86f67f1f-83af-45e5-ad1a-db0f1b25a907","system_id":"levelo_inurba_marseille","lat":43.28856,"lon":5.358371,"is_reserved":false,"is_disabled":false,"rental_uris":{"android":"levelo://app?vid=86f67f1f-83af-45e5-ad1a-db0f1b25a907","ios":"levelo://app?vid=86f67f1f-83af-45e5-ad1a-db0f1b25a907"},"vehicle_type_id":"4","last_reported":1706764001,"current_range_meters":23600,"station_id":"ce4bhb12rcd13ifvqem0","pricing_plan_id":"free"},{"bike_id":"d85e73cc-0091-45d8-b104-cfa06fbfa938","system_id":"levelo_inurba_marseille","lat":43.288508,"lon":5.358396,"is_reserved":false,"is_disabled":false,"rental_uris":{"android":"levelo://app?vid=d85e73cc-0091-45d8-b104-cfa06fbfa938","ios":"levelo://app?vid=d85e73cc-0091-45d8-b104-cfa06fbfa938"},"vehicle_type_id":"4","last_reported":1706764001,"current_range_meters":30800,"station_id":"ce4bhb12rcd13ifvqem0","pricing_plan_id":"free"},{"bike_id":"972acf2a-459b-4109-984d-7d1b99b2d973","system_id":"levelo_inurba_marseille","lat":43.28856,"lon":5.358371,"is_reserved":false,"is_disabled":false,"rental_uris":{"android":"levelo://app?vid=972acf2a-459b-4109-984d-7d1b99b2d973","ios":"levelo://app?vid=972acf2a-459b-4109-984d-7d1b99b2d973"},"vehicle_type_id":"4","last_reported":1706764001,"current_range_meters":30000,"station_id":"ce4bhb12rcd13ifvqem0","pricing_plan_id":"free"},{"bike_id":"e533a72a-233d-4b15-9bea-0b573bd75a89","system_id":"levelo_inurba_marseille","lat":43.28849,"lon":5.35841,"is_reserved":false,"is_disabled":false,"rental_uris":{"android":"levelo://app?vid=e533a72a-233d-4b15-9bea-0b573bd75a89","ios":"levelo://app?vid=e533a72a-233d-4b15-9bea-0b573bd75a89"},"vehicle_type_id":"4","last_reported":1706764001,"current_range_meters":26800,"station_id":"ce4bhb12rcd13ifvqem0","pricing_plan_id":"free"},{"bike_id":"f7bcc24b-317a-4f37-a99b-5e688e57824a","system_id":"levelo_inurba_marseille","lat":43.288491,"lon":5.358384,"is_reserved":false,"is_disabled":false,"rental_uris":{"android":"levelo://app?vid=f7bcc24b-317a-4f37-a99b-5e688e57824a","ios":"levelo://app?vid=f7bcc24b-317a-4f37-a99b-5e688e57824a"},"vehicle_type_id":"4","last_reported":1706764001,"current_range_meters":28000,"station_id":"ce4bhb12rcd13ifvqem0","pricing_plan_id":"free"},{"bike_id":"f4598fbe-4abd-41ce-8054-422a360f8e62","system_id":"levelo_inurba_marseille","lat":43.28856,"lon":5.358371,"is_reserved":false,"is_disabled":false,"rental_uris":{"android":"levelo://app?vid=f4598fbe-4abd-41ce-8054-422a360f8e62","ios":"levelo://app?vid=f4598fbe-4abd-41ce-8054-422a360f8e62"},"vehicle_type_id":"4","last_reported":1706764001,"current_range_meters":18800,"station_id":"ce4bhb12rcd13ifvqem0","pricing_plan_id":"free"},{"bike_id":"69fc39f7-326e-4127-8377-bfb3e3304975","system_id":"levelo_inurba_marseille","lat":43.33723,"lon":5.37438,"is_reserved":false,"is_disabled":false,"rental_uris":{"android":"levelo://app?vid=69fc39f7-326e-4127-8377-bfb3e3304975","ios":"levelo://app?vid=69fc39f7-326e-4127-8377-bfb3e3304975"},"vehicle_type_id":"4","last_reported":1706764001,"current_range_meters":26800,"station_id":"","pricing_plan_id":"free"},{"bike_id":"4fff2917-d8a2-4509-9f34-37418b69d728","system_id":"levelo_inurba_marseille","lat":43.312609,"lon":5.401662,"is_reserved":false,"is_disabled":false,"rental_uris":{"android":"levelo://app?vid=4fff2917-d8a2-4509-9f34-37418b69d728","ios":"levelo://app?vid=4fff2917-d8a2-4509-9f34-37418b69d728"},"vehicle_type_id":"4","last_reported":1706764001,"current_range_meters":28400,"station_id":"ce4bh092rcd13ifvqd30","pricing_plan_id":"free"},{"bike_id":"ef1dd3cb-c443-4923-850e-15636069a79a","system_id":"levelo_inurba_marseille","lat":43.309371,"lon":5.401449,"is_reserved":false,"is_disabled":false,"rental_uris":{"android":"levelo://app?vid=ef1dd3cb-c443-4923-850e-15636069a79a","ios":"levelo://app?vid=ef1dd3cb-c443-4923-850e-15636069a79a"},"vehicle_type_id":"4","last_reported":1706764001,"current_range_meters":21600,"station_id":"ce4bgvp2rcd13ifvqct0","pricing_plan_id":"free"},{"bike_id":"084269e4-e406-4984-82aa-3b4fd394bb9a","system_id":"levelo_inurba_marseille","lat":43.33745,"lon":5.37446,"is_reserved":false,"is_disabled":false,"rental_uris":{"android":"levelo://app?vid=084269e4-e406-4984-82aa-3b4fd394bb9a","ios":"levelo://app?vid=084269e4-e406-4984-82aa-3b4fd394bb9a"},"vehicle_type_id":"4","last_reported":1706764001,"current_range_meters":20400,"station_id":"","pricing_plan_id":"free"},{"bike_id":"e9079ff5-9dd9-4f56-99d2-4bc16d2a9684","system_id":"levelo_inurba_marseille","lat":43.309371,"lon":5.401449,"is_reserved":false,"is_disabled":false,"rental_uris":{"android":"levelo://app?vid=e9079ff5-9dd9-4f56-99d2-4bc16d2a9684","ios":"levelo://app?vid=e9079ff5-9dd9-4f56-99d2-4bc16d2a9684"},"vehicle_type_id":"4","last_reported":1706764001,"current_range_meters":8000,"station_id":"ce4bgvp2rcd13ifvqct0","pricing_plan_id":"free"},{"bike_id":"ee025212-fd4f-4819-9246-e3d8a0cf725c","system_id":"levelo_inurba_marseille","lat":43.309371,"lon":5.401449,"is_reserved":false,"is_disabled":false,"rental_uris":{"android":"levelo://app?vid=ee025212-fd4f-4819-9246-e3d8a0cf725c","ios":"levelo://app?vid=ee025212-fd4f-4819-9246-e3d8a0cf725c"},"vehicle_type_id":"4","last_reported":1706764001,"current_range_meters":16400,"station_id":"ce4bgvp2rcd13ifvqct0","pricing_plan_id":"free"},{"bike_id":"9669223a-274d-4ff4-981d-91aef056fb28","system_id":"levelo_inurba_marseille","lat":43.309371,"lon":5.401449,"is_reserved":false,"is_disabled":false,"rental_uris":{"android":"levelo://app?vid=9669223a-274d-4ff4-981d-91aef056fb28","ios":"levelo://app?vid=9669223a-274d-4ff4-981d-91aef056fb28"},"vehicle_type_id":"4","last_reported":1706764001,"current_range_meters":5600,"station_id":"ce4bgvp2rcd13ifvqct0","pricing_plan_id":"free"},{"bike_id":"286f917e-0a5a-4a5d-a8b9-fc4f7abedf84","system_id":"levelo_inurba_marseille","lat":43.33746,"lon":5.37459,"is_reserved":false,"is_disabled":false,"rental_uris":{"android":"levelo://app?vid=286f917e-0a5a-4a5d-a8b9-fc4f7abedf84","ios":"levelo://app?vid=286f917e-0a5a-4a5d-a8b9-fc4f7abedf84"},"vehicle_type_id":"4","last_reported":1706764001,"current_range_meters":16800,"station_id":"","pricing_plan_id":"free"},{"bike_id":"9816c790-e56e-49e3-95e6-d95f99c4fc72","system_id":"levelo_inurba_marseille","lat":43.30646,"lon":5.40069,"is_reserved":false,"is_disabled":false,"rental_uris":{"android":"levelo://app?vid=9816c790-e56e-49e3-95e6-d95f99c4fc72","ios":"levelo://app?vid=9816c790-e56e-49e3-95e6-d95f99c4fc72"},"vehicle_type_id":"4","last_reported":1706764001,"current_range_meters":24400,"station_id":"ce4bh112rcd13ifvqda0","pricing_plan_id":"free"},{"bike_id":"553ad8e7-2f75-44a1-a37a-f33426fb8624","system_id":"levelo_inurba_marseille","lat":43.309371,"lon":5.401449,"is_reserved":false,"is_disabled":false,"rental_uris":{"android":"levelo://app?vid=553ad8e7-2f75-44a1-a37a-f33426fb8624","ios":"levelo://app?vid=553ad8e7-2f75-44a1-a37a-f33426fb8624"},"vehicle_type_id":"4","last_reported":1706764001,"current_range_meters":26000,"station_id":"ce4bgvp2rcd13ifvqct0","pricing_plan_id":"free"},{"bike_id":"f79fff51-2fc1-47db-bb77-f6ecb6841c15","system_id":"levelo_inurba_marseille","lat":43.306487,"lon":5.400735,"is_reserved":false,"is_disabled":false,"rental_uris":{"android":"levelo://app?vid=f79fff51-2fc1-47db-bb77-f6ecb6841c15","ios":"levelo://app?vid=f79fff51-2fc1-47db-bb77-f6ecb6841c15"},"vehicle_type_id":"4","last_reported":1706764001,"current_range_meters":26800,"station_id":"ce4bh112rcd13ifvqda0","pricing_plan_id":"free"},{"bike_id":"6ea83407-2071-4ba5-b0ff-8da075711967","system_id":"levelo_inurba_marseille","lat":43.3064,"lon":5.400706,"is_reserved":false,"is_disabled":false,"rental_uris":{"android":"levelo://app?vid=6ea83407-2071-4ba5-b0ff-8da075711967","ios":"levelo://app?vid=6ea83407-2071-4ba5-b0ff-8da075711967"},"vehicle_type_id":"4","last_reported":1706764001,"current_range_meters":27600,"station_id":"ce4bh112rcd13ifvqda0","pricing_plan_id":"free"},{"bike_id":"dad258af-9add-4a05-a405-45817817e4c5","system_id":"levelo_inurba_marseille","lat":43.306436,"lon":5.400785,"is_reserved":false,"is_disabled":false,"rental_uris":{"android":"levelo://app?vid=dad258af-9add-4a05-a405-45817817e4c5","ios":"levelo://app?vid=dad258af-9add-4a05-a405-45817817e4c5"},"vehicle_type_id":"4","last_reported":1706764001,"current_range_meters":5600,"station_id":"ce4bh112rcd13ifvqda0","pricing_plan_id":"free"},{"bike_id":"b7d3b81d-d85a-44b5-a0c7-8f9c9f74639e","system_id":"levelo_inurba_marseille","lat":43.337587,"lon":5.374576,"is_reserved":false,"is_disabled":false,"rental_uris":{"android":"levelo://app?vid=b7d3b81d-d85a-44b5-a0c7-8f9c9f74639e","ios":"levelo://app?vid=b7d3b81d-d85a-44b5-a0c7-8f9c9f74639e"},"vehicle_type_id":"4","last_reported":1706764001,"current_range_meters":12800,"station_id":"","pricing_plan_id":"free"},{"bike_id":"12568932-a9a7-4d52-8b2c-668683b75358","system_id":"levelo_inurba_marseille","lat":43.33754,"lon":5.375013,"is_reserved":false,"is_disabled":false,"rental_uris":{"android":"levelo://app?vid=12568932-a9a7-4d52-8b2c-668683b75358","ios":"levelo://app?vid=12568932-a9a7-4d52-8b2c-668683b75358"},"vehicle_type_id":"4","last_reported":1706764001,"current_range_meters":14800,"station_id":"","pricing_plan_id":"free"},{"bike_id":"3a0dbb8a-c75c-4ad9-b7fd-4d10459765f5","system_id":"levelo_inurba_marseille","lat":43.306412,"lon":5.401035,"is_reserved":false,"is_disabled":false,"rental_uris":{"android":"levelo://app?vid=3a0dbb8a-c75c-4ad9-b7fd-4d10459765f5","ios":"levelo://app?vid=3a0dbb8a-c75c-4ad9-b7fd-4d10459765f5"},"vehicle_type_id":"4","last_reported":1706764001,"current_range_meters":29600,"station_id":"ce4bh112rcd13ifvqda0","pricing_plan_id":"free"},{"bike_id":"1facbbf3-baac-42f8-85eb-cb1e36f3e4b9","system_id":"levelo_inurba_marseille","lat":43.337623,"lon":5.374883,"is_reserved":false,"is_disabled":false,"rental_uris":{"android":"levelo://app?vid=1facbbf3-baac-42f8-85eb-cb1e36f3e4b9","ios":"levelo://app?vid=1facbbf3-baac-42f8-85eb-cb1e36f3e4b9"},"vehicle_type_id":"4","last_reported":1706764001,"current_range_meters":1600,"station_id":"","pricing_plan_id":"free"},{"bike_id":"0a9c8c4f-b8ab-4fd4-b079-61a852011143","system_id":"levelo_inurba_marseille","lat":43.330129,"lon":5.392824,"is_reserved":false,"is_disabled":false,"rental_uris":{"android":"levelo://app?vid=0a9c8c4f-b8ab-4fd4-b079-61a852011143","ios":"levelo://app?vid=0a9c8c4f-b8ab-4fd4-b079-61a852011143"},"vehicle_type_id":"4","last_reported":1706764001,"current_range_meters":24000,"station_id":"","pricing_plan_id":"free"},{"bike_id":"42caae05-87d2-4215-9838-c482f306c229","system_id":"levelo_inurba_marseille","lat":43.301117,"lon":5.398795,"is_reserved":false,"is_disabled":false,"rental_uris":{"android":"levelo://app?vid=42caae05-87d2-4215-9838-c482f306c229","ios":"levelo://app?vid=42caae05-87d2-4215-9838-c482f306c229"},"vehicle_type_id":"4","last_reported":1706764001,"current_range_meters":31200,"station_id":"ce4bh0h2rcd13ifvqd40","pricing_plan_id":"free"},{"bike_id":"20f0d32b-8756-4d9f-ad2c-1d76c88d6a11","system_id":"levelo_inurba_marseille","lat":43.301117,"lon":5.398795,"is_reserved":false,"is_disabled":false,"rental_uris":{"android":"levelo://app?vid=20f0d32b-8756-4d9f-ad2c-1d76c88d6a11","ios":"levelo://app?vid=20f0d32b-8756-4d9f-ad2c-1d76c88d6a11"},"vehicle_type_id":"4","last_reported":1706764001,"current_range_meters":29200,"station_id":"ce4bh0h2rcd13ifvqd40","pricing_plan_id":"free"},{"bike_id":"d98de82c-bf96-435e-af1f-62b8235b43e4","system_id":"levelo_inurba_marseille","lat":43.301382,"lon":5.398629,"is_reserved":false,"is_disabled":false,"rental_uris":{"android":"levelo://app?vid=d98de82c-bf96-435e-af1f-62b8235b43e4","ios":"levelo://app?vid=d98de82c-bf96-435e-af1f-62b8235b43e4"},"vehicle_type_id":"4","last_reported":1706764001,"current_range_meters":31200,"station_id":"ce4bh0h2rcd13ifvqd40","pricing_plan_id":"free"},{"bike_id":"ab7fee84-9fdb-433e-bd4e-68a6ad8d7719","system_id":"levelo_inurba_marseille","lat":43.30132,"lon":5.39865,"is_reserved":false,"is_disabled":false,"rental_uris":{"android":"levelo://app?vid=ab7fee84-9fdb-433e-bd4e-68a6ad8d7719","ios":"levelo://app?vid=ab7fee84-9fdb-433e-bd4e-68a6ad8d7719"},"vehicle_type_id":"4","last_reported":1706764001,"current_range_meters":12000,"station_id":"ce4bh0h2rcd13ifvqd40","pricing_plan_id":"free"},{"bike_id":"e0eac80f-1bce-4022-8b6c-7aae746c6dd7","system_id":"levelo_inurba_marseille","lat":43.301117,"lon":5.398795,"is_reserved":false,"is_disabled":false,"rental_uris":{"android":"levelo://app?vid=e0eac80f-1bce-4022-8b6c-7aae746c6dd7","ios":"levelo://app?vid=e0eac80f-1bce-4022-8b6c-7aae746c6dd7"},"vehicle_type_id":"4","last_reported":1706764001,"current_range_meters":21200,"station_id":"ce4bh0h2rcd13ifvqd40","pricing_plan_id":"free"},{"bike_id":"fedcb529-0529-4b1b-a5c2-1a14e8976af1","system_id":"levelo_inurba_marseille","lat":43.301355,"lon":5.398698,"is_reserved":false,"is_disabled":false,"rental_uris":{"android":"levelo://app?vid=fedcb529-0529-4b1b-a5c2-1a14e8976af1","ios":"levelo://app?vid=fedcb529-0529-4b1b-a5c2-1a14e8976af1"},"vehicle_type_id":"4","last_reported":1706764001,"current_range_meters":5200,"station_id":"ce4bh0h2rcd13ifvqd40","pricing_plan_id":"free"},{"bike_id":"b81a4a9c-e7f7-4e2b-838d-d674b8d354f2","system_id":"levelo_inurba_marseille","lat":43.301351,"lon":5.398697,"is_reserved":false,"is_disabled":false,"rental_uris":{"android":"levelo://app?vid=b81a4a9c-e7f7-4e2b-838d-d674b8d354f2","ios":"levelo://app?vid=b81a4a9c-e7f7-4e2b-838d-d674b8d354f2"},"vehicle_type_id":"4","last_reported":1706764001,"current_range_meters":30800,"station_id":"ce4bh0h2rcd13ifvqd40","pricing_plan_id":"free"},{"bike_id":"e8c81310-5aa1-4a42-ba63-04c0c69b1743","system_id":"levelo_inurba_marseille","lat":43.301326,"lon":5.398689,"is_reserved":false,"is_disabled":false,"rental_uris":{"android":"levelo://app?vid=e8c81310-5aa1-4a42-ba63-04c0c69b1743","ios":"levelo://app?vid=e8c81310-5aa1-4a42-ba63-04c0c69b1743"},"vehicle_type_id":"4","last_reported":1706764001,"current_range_meters":7200,"station_id":"ce4bh0h2rcd13ifvqd40","pricing_plan_id":"free"},{"bike_id":"1ab7d96e-9ff0-4cbe-aac1-a303c88564d4","system_id":"levelo_inurba_marseille","lat":43.301117,"lon":5.398795,"is_reserved":false,"is_disabled":false,"rental_uris":{"android":"levelo://app?vid=1ab7d96e-9ff0-4cbe-aac1-a303c88564d4","ios":"levelo://app?vid=1ab7d96e-9ff0-4cbe-aac1-a303c88564d4"},"vehicle_type_id":"4","last_reported":1706764001,"current_range_meters":31200,"station_id":"ce4bh0h2rcd13ifvqd40","pricing_plan_id":"free"},{"bike_id":"03a54a53-352d-43ee-b767-41a1fc4fdf4b","system_id":"levelo_inurba_marseille","lat":43.301401,"lon":5.398747,"is_reserved":false,"is_disabled":false,"rental_uris":{"android":"levelo://app?vid=03a54a53-352d-43ee-b767-41a1fc4fdf4b","ios":"levelo://app?vid=03a54a53-352d-43ee-b767-41a1fc4fdf4b"},"vehicle_type_id":"4","last_reported":1706764001,"current_range_meters":20000,"station_id":"ce4bh0h2rcd13ifvqd40","pricing_plan_id":"free"},{"bike_id":"649ca6ed-b3f6-422b-a8a7-9ccdd0c16145","system_id":"levelo_inurba_marseille","lat":43.28727,"lon":5.36078,"is_reserved":false,"is_disabled":false,"rental_uris":{"android":"levelo://app?vid=649ca6ed-b3f6-422b-a8a7-9ccdd0c16145","ios":"levelo://app?vid=649ca6ed-b3f6-422b-a8a7-9ccdd0c16145"},"vehicle_type_id":"4","last_reported":1706764001,"current_range_meters":11600,"station_id":"cki0cbj6b192h4jlfktg","pricing_plan_id":"free"},{"bike_id":"303023ad-204c-4a03-bb4b-a6511d42bbc0","system_id":"levelo_inurba_marseille","lat":43.28727,"lon":5.36078,"is_reserved":false,"is_disabled":false,"rental_uris":{"android":"levelo://app?vid=303023ad-204c-4a03-bb4b-a6511d42bbc0","ios":"levelo://app?vid=303023ad-204c-4a03-bb4b-a6511d42bbc0"},"vehicle_type_id":"4","last_reported":1706764001,"current_range_meters":31600,"station_id":"cki0cbj6b192h4jlfktg","pricing_plan_id":"free"},{"bike_id":"465ca944-bb12-4f3b-b4be-8bcde9a2f431","system_id":"levelo_inurba_marseille","lat":43.29294,"lon":5.38991,"is_reserved":false,"is_disabled":false,"rental_uris":{"android":"levelo://app?vid=465ca944-bb12-4f3b-b4be-8bcde9a2f431","ios":"levelo://app?vid=465ca944-bb12-4f3b-b4be-8bcde9a2f431"},"vehicle_type_id":"4","last_reported":1706764001,"current_range_meters":16400,"station_id":"","pricing_plan_id":"free"},{"bike_id":"3275148a-6e8a-454b-906f-781cf5153544","system_id":"levelo_inurba_marseille","lat":43.28727,"lon":5.36078,"is_reserved":false,"is_disabled":false,"rental_uris":{"android":"levelo://app?vid=3275148a-6e8a-454b-906f-781cf5153544","ios":"levelo://app?vid=3275148a-6e8a-454b-906f-781cf5153544"},"vehicle_type_id":"4","last_reported":1706764001,"current_range_meters":2400,"station_id":"cki0cbj6b192h4jlfktg","pricing_plan_id":"free"},{"bike_id":"13ea6016-14fe-4b0c-ae3b-9d538c889ace","system_id":"levelo_inurba_marseille","lat":43.298817,"lon":5.397323,"is_reserved":false,"is_disabled":false,"rental_uris":{"android":"levelo://app?vid=13ea6016-14fe-4b0c-ae3b-9d538c889ace","ios":"levelo://app?vid=13ea6016-14fe-4b0c-ae3b-9d538c889ace"},"vehicle_type_id":"4","last_reported":1706764001,"current_range_meters":17200,"station_id":"ce4bh0h2rcd13ifvqd50","pricing_plan_id":"free"},{"bike_id":"90d06b13-6b45-4f00-af12-ae7d9325353a","system_id":"levelo_inurba_marseille","lat":43.298817,"lon":5.397324,"is_reserved":false,"is_disabled":false,"rental_uris":{"android":"levelo://app?vid=90d06b13-6b45-4f00-af12-ae7d9325353a","ios":"levelo://app?vid=90d06b13-6b45-4f00-af12-ae7d9325353a"},"vehicle_type_id":"4","last_reported":1706764001,"current_range_meters":25200,"station_id":"ce4bh0h2rcd13ifvqd50","pricing_plan_id":"free"},{"bike_id":"3a6e58ba-6d6f-4302-81f4-5f942f707ef6","system_id":"levelo_inurba_marseille","lat":43.29881,"lon":5.39735,"is_reserved":false,"is_disabled":false,"rental_uris":{"android":"levelo://app?vid=3a6e58ba-6d6f-4302-81f4-5f942f707ef6","ios":"levelo://app?vid=3a6e58ba-6d6f-4302-81f4-5f942f707ef6"},"vehicle_type_id":"4","last_reported":1706764001,"current_range_meters":20800,"station_id":"ce4bh0h2rcd13ifvqd50","pricing_plan_id":"free"},{"bike_id":"6bdc2774-89a6-4b7f-a89f-60d71d475ed4","system_id":"levelo_inurba_marseille","lat":43.29875,"lon":5.3973,"is_reserved":false,"is_disabled":false,"rental_uris":{"android":"levelo://app?vid=6bdc2774-89a6-4b7f-a89f-60d71d475ed4","ios":"levelo://app?vid=6bdc2774-89a6-4b7f-a89f-60d71d475ed4"},"vehicle_type_id":"4","last_reported":1706764001,"current_range_meters":31200,"station_id":"ce4bh0h2rcd13ifvqd50","pricing_plan_id":"free"},{"bike_id":"7869142d-4a88-4e51-bfb7-fcda9675011a","system_id":"levelo_inurba_marseille","lat":43.298774,"lon":5.397341,"is_reserved":false,"is_disabled":false,"rental_uris":{"android":"levelo://app?vid=7869142d-4a88-4e51-bfb7-fcda9675011a","ios":"levelo://app?vid=7869142d-4a88-4e51-bfb7-fcda9675011a"},"vehicle_type_id":"4","last_reported":1706764001,"current_range_meters":6800,"station_id":"ce4bh0h2rcd13ifvqd50","pricing_plan_id":"free"},{"bike_id":"14d0ef62-1764-41e7-af4c-4664d45255ba","system_id":"levelo_inurba_marseille","lat":43.295748,"lon":5.37522,"is_reserved":false,"is_disabled":false,"rental_uris":{"android":"levelo://app?vid=14d0ef62-1764-41e7-af4c-4664d45255ba","ios":"levelo://app?vid=14d0ef62-1764-41e7-af4c-4664d45255ba"},"vehicle_type_id":"4","last_reported":1706764001,"current_range_meters":19200,"station_id":"ce4bgh92rcd13ifvqb50","pricing_plan_id":"free"},{"bike_id":"06606c64-66d8-4397-9c44-69e79d7284b0","system_id":"levelo_inurba_marseille","lat":43.298681,"lon":5.397225,"is_reserved":false,"is_disabled":false,"rental_uris":{"android":"levelo://app?vid=06606c64-66d8-4397-9c44-69e79d7284b0","ios":"levelo://app?vid=06606c64-66d8-4397-9c44-69e79d7284b0"},"vehicle_type_id":"4","last_reported":1706764001,"current_range_meters":29200,"station_id":"ce4bh0h2rcd13ifvqd50","pricing_plan_id":"free"},{"bike_id":"455d74e2-1eea-4946-89d3-303afc03399e","system_id":"levelo_inurba_marseille","lat":43.286961,"lon":5.373785,"is_reserved":false,"is_disabled":false,"rental_uris":{"android":"levelo://app?vid=455d74e2-1eea-4946-89d3-303afc03399e","ios":"levelo://app?vid=455d74e2-1eea-4946-89d3-303afc03399e"},"vehicle_type_id":"4","last_reported":1706764001,"current_range_meters":30400,"station_id":"ce4bh3p2rcd13ifvqdq0","pricing_plan_id":"free"},{"bike_id":"e4b15150-9c0d-4e1c-9fe1-3a72d090179b","system_id":"levelo_inurba_marseille","lat":43.28701,"lon":5.37379,"is_reserved":false,"is_disabled":false,"rental_uris":{"android":"levelo://app?vid=e4b15150-9c0d-4e1c-9fe1-3a72d090179b","ios":"levelo://app?vid=e4b15150-9c0d-4e1c-9fe1-3a72d090179b"},"vehicle_type_id":"4","last_reported":1706764001,"current_range_meters":26000,"station_id":"ce4bh3p2rcd13ifvqdq0","pricing_plan_id":"free"},{"bike_id":"545e2fb8-27fd-465f-8c1a-ab93d373afa6","system_id":"levelo_inurba_marseille","lat":43.286961,"lon":5.373785,"is_reserved":false,"is_disabled":false,"rental_uris":{"android":"levelo://app?vid=545e2fb8-27fd-465f-8c1a-ab93d373afa6","ios":"levelo://app?vid=545e2fb8-27fd-465f-8c1a-ab93d373afa6"},"vehicle_type_id":"4","last_reported":1706764001,"current_range_meters":24400,"station_id":"ce4bh3p2rcd13ifvqdq0","pricing_plan_id":"free"},{"bike_id":"e4926e38-19bc-4a55-a993-00a2a02ebeba","system_id":"levelo_inurba_marseille","lat":43.286591,"lon":5.363346,"is_reserved":false,"is_disabled":false,"rental_uris":{"android":"levelo://app?vid=e4926e38-19bc-4a55-a993-00a2a02ebeba","ios":"levelo://app?vid=e4926e38-19bc-4a55-a993-00a2a02ebeba"},"vehicle_type_id":"4","last_reported":1706764001,"current_range_meters":31200,"station_id":"ce4bhah2rcd13ifvqej0","pricing_plan_id":"free"},{"bike_id":"b97c6404-377b-4a61-8114-5c1b9dedd4b2","system_id":"levelo_inurba_marseille","lat":43.298687,"lon":5.39739,"is_reserved":false,"is_disabled":false,"rental_uris":{"android":"levelo://app?vid=b97c6404-377b-4a61-8114-5c1b9dedd4b2","ios":"levelo://app?vid=b97c6404-377b-4a61-8114-5c1b9dedd4b2"},"vehicle_type_id":"4","last_reported":1706764001,"current_range_meters":21200,"station_id":"ce4bh0h2rcd13ifvqd50","pricing_plan_id":"free"},{"bike_id":"fc619683-ab24-4493-b771-f698aec1c7a4","system_id":"levelo_inurba_marseille","lat":43.286961,"lon":5.373785,"is_reserved":false,"is_disabled":false,"rental_uris":{"android":"levelo://app?vid=fc619683-ab24-4493-b771-f698aec1c7a4","ios":"levelo://app?vid=fc619683-ab24-4493-b771-f698aec1c7a4"},"vehicle_type_id":"4","last_reported":1706764001,"current_range_meters":29200,"station_id":"ce4bh3p2rcd13ifvqdq0","pricing_plan_id":"free"},{"bike_id":"ce9e77d2-ffa4-400e-a193-59528db8e58a","system_id":"levelo_inurba_marseille","lat":43.286575,"lon":5.363486,"is_reserved":false,"is_disabled":false,"rental_uris":{"android":"levelo://app?vid=ce9e77d2-ffa4-400e-a193-59528db8e58a","ios":"levelo://app?vid=ce9e77d2-ffa4-400e-a193-59528db8e58a"},"vehicle_type_id":"4","last_reported":1706764001,"current_range_meters":3200,"station_id":"ce4bhah2rcd13ifvqej0","pricing_plan_id":"free"},{"bike_id":"65252669-308e-4cd9-9d44-9fb29eba8c7f","system_id":"levelo_inurba_marseille","lat":43.298681,"lon":5.397225,"is_reserved":false,"is_disabled":false,"rental_uris":{"android":"levelo://app?vid=65252669-308e-4cd9-9d44-9fb29eba8c7f","ios":"levelo://app?vid=65252669-308e-4cd9-9d44-9fb29eba8c7f"},"vehicle_type_id":"4","last_reported":1706764001,"current_range_meters":29200,"station_id":"ce4bh0h2rcd13ifvqd50","pricing_plan_id":"free"},{"bike_id":"3d56484b-6841-4355-9242-1f0b7f848037","system_id":"levelo_inurba_marseille","lat":43.298681,"lon":5.397225,"is_reserved":false,"is_disabled":false,"rental_uris":{"android":"levelo://app?vid=3d56484b-6841-4355-9242-1f0b7f848037","ios":"levelo://app?vid=3d56484b-6841-4355-9242-1f0b7f848037"},"vehicle_type_id":"4","last_reported":1706764001,"current_range_meters":29200,"station_id":"ce4bh0h2rcd13ifvqd50","pricing_plan_id":"free"},{"bike_id":"22cf41a7-4386-4a50-8453-0b03967055d6","system_id":"levelo_inurba_marseille","lat":43.28652,"lon":5.36344,"is_reserved":false,"is_disabled":false,"rental_uris":{"android":"levelo://app?vid=22cf41a7-4386-4a50-8453-0b03967055d6","ios":"levelo://app?vid=22cf41a7-4386-4a50-8453-0b03967055d6"},"vehicle_type_id":"4","last_reported":1706764001,"current_range_meters":20000,"station_id":"ce4bhah2rcd13ifvqej0","pricing_plan_id":"free"},{"bike_id":"bf1a0cd8-d98f-495e-a0dc-1376c04306f9","system_id":"levelo_inurba_marseille","lat":43.295201,"lon":5.394036,"is_reserved":false,"is_disabled":false,"rental_uris":{"android":"levelo://app?vid=bf1a0cd8-d98f-495e-a0dc-1376c04306f9","ios":"levelo://app?vid=bf1a0cd8-d98f-495e-a0dc-1376c04306f9"},"vehicle_type_id":"4","last_reported":1706764001,"current_range_meters":21200,"station_id":"ce4bh292rcd13ifvqdf0","pricing_plan_id":"free"},{"bike_id":"7fad1b10-3be1-49cb-8a7d-c797840ab7f6","system_id":"levelo_inurba_marseille","lat":43.295117,"lon":5.39395,"is_reserved":false,"is_disabled":false,"rental_uris":{"android":"levelo://app?vid=7fad1b10-3be1-49cb-8a7d-c797840ab7f6","ios":"levelo://app?vid=7fad1b10-3be1-49cb-8a7d-c797840ab7f6"},"vehicle_type_id":"4","last_reported":1706764001,"current_range_meters":21600,"station_id":"ce4bh292rcd13ifvqdf0","pricing_plan_id":"free"},{"bike_id":"60df56c2-e9b8-41b2-b8de-0aee54368b26","system_id":"levelo_inurba_marseille","lat":43.295196,"lon":5.39397,"is_reserved":false,"is_disabled":false,"rental_uris":{"android":"levelo://app?vid=60df56c2-e9b8-41b2-b8de-0aee54368b26","ios":"levelo://app?vid=60df56c2-e9b8-41b2-b8de-0aee54368b26"},"vehicle_type_id":"4","last_reported":1706764001,"current_range_meters":30800,"station_id":"ce4bh292rcd13ifvqdf0","pricing_plan_id":"free"},{"bike_id":"813c964c-7443-4aa5-a683-1000efc0fbc7","system_id":"levelo_inurba_marseille","lat":43.302759,"lon":5.400793,"is_reserved":false,"is_disabled":false,"rental_uris":{"android":"levelo://app?vid=813c964c-7443-4aa5-a683-1000efc0fbc7","ios":"levelo://app?vid=813c964c-7443-4aa5-a683-1000efc0fbc7"},"vehicle_type_id":"4","last_reported":1706764001,"current_range_meters":31200,"station_id":"ce4bgvh2rcd13ifvqcs0","pricing_plan_id":"free"},{"bike_id":"34d22d23-7359-44a6-8662-0c6bf879dc4e","system_id":"levelo_inurba_marseille","lat":43.302759,"lon":5.400793,"is_reserved":false,"is_disabled":false,"rental_uris":{"android":"levelo://app?vid=34d22d23-7359-44a6-8662-0c6bf879dc4e","ios":"levelo://app?vid=34d22d23-7359-44a6-8662-0c6bf879dc4e"},"vehicle_type_id":"4","last_reported":1706764001,"current_range_meters":31600,"station_id":"ce4bgvh2rcd13ifvqcs0","pricing_plan_id":"free"},{"bike_id":"634f87b1-d574-421b-9af5-5ace03e7d4bb","system_id":"levelo_inurba_marseille","lat":43.302759,"lon":5.400793,"is_reserved":false,"is_disabled":false,"rental_uris":{"android":"levelo://app?vid=634f87b1-d574-421b-9af5-5ace03e7d4bb","ios":"levelo://app?vid=634f87b1-d574-421b-9af5-5ace03e7d4bb"},"vehicle_type_id":"4","last_reported":1706764001,"current_range_meters":21600,"station_id":"ce4bgvh2rcd13ifvqcs0","pricing_plan_id":"free"},{"bike_id":"702bc8fa-15f7-4946-bb54-4b03084cea63","system_id":"levelo_inurba_marseille","lat":43.302759,"lon":5.400793,"is_reserved":false,"is_disabled":false,"rental_uris":{"android":"levelo://app?vid=702bc8fa-15f7-4946-bb54-4b03084cea63","ios":"levelo://app?vid=702bc8fa-15f7-4946-bb54-4b03084cea63"},