{"last_updated":1752740131,"ttl":60,"version":"2.2","data":{"bikes":[{"bike_id":"53b742a7-31ae-4272-9bba-7740339e2a2f","system_id":"levelo_inurba_marseille","lat":43.33747,"lon":5.37463,"is_reserved":false,"is_disabled":false,"rental_uris":{"android":"levelo://app?vid=53b742a7-31ae-4272-9bba-7740339e2a2f","ios":"levelo://app?vid=53b742a7-31ae-4272-9bba-7740339e2a2f"},"vehicle_type_id":"1","last_reported":1752740131,"current_range_meters":25200,"station_id":"","pricing_plan_id":"cebpf4jnsgd1na2vs0mg"},{"bike_id":"26bdb76f-6f13-4aa8-b997-17cd4a2c26b6","system_id":"levelo_inurba_marseille","lat":43.32358,"lon":5.3675,"is_reserved":false,"is_disabled":false,"rental_uris":{"android":"levelo://app?vid=26bdb76f-6f13-4aa8-b997-17cd4a2c26b6","ios":"levelo://app?vid=26bdb76f-6f13-4aa8-b997-17cd4a2c26b6"},"vehicle_type_id":"4","last_reported":1752740131,"current_range_meters":2800,"station_id":"ce4bhsh2rcd13ifvqi2g","pricing_plan_id":"cebpf4jnsgd1na2vs0mg"},{"bike_id":"d4789e41-8ea3-4b6a-b86e-99b841af59f1","system_id":"levelo_inurba_marseille","lat":43.32369,"lon":5.38886,"is_reserved":false,"is_disabled":false,"rental_uris":{"android":"levelo://app?vid=d4789e41-8ea3-4b6a-b86e-99b841af59f1","ios":"levelo://app?vid=d4789e41-8ea3-4b6a-b86e-99b841af59f1"},"vehicle_type_id":"4","last_reported":1752740131,"current_range_meters":2800,"station_id":"ce4bhqp2rcd13ifvqhog","pricing_plan_id":"cebpf4jnsgd1na2vs0mg"},{"bike_id":"e2f2f893-16c7-42e5-8c51-893940a1136e","system_id":"levelo_inurba_marseille","lat":43.30125,"lon":5.36875,"is_reserved":false,"is_disabled":false,"rental_uris":{"android":"levelo://app?vid=e2f2f893-16c7-42e5-8c51-893940a1136e","ios":"levelo://app?vid=e2f2f893-16c7-42e5-8c51-893940a1136e"},"vehicle_type_id":"4","last_reported":1752740131,"current_range_meters":3200,"station_id":"","pricing_plan_id":"cebpf4jnsgd1na2vs0mg"},{"bike_id":"734dce5d-97bf-4f85-9eec-e22f7e4cfcfe","system_id":"levelo_inurba_marseille","lat":43.30647,"lon":5.40083,"is_reserved":false,"is_disabled":false,"rental_uris":{"android":"levelo://app?vid=734dce5d-97bf-4f85-9eec-e22f7e4cfcfe","ios":"levelo://app?vid=734dce5d-97bf-4f85-9eec-e22f7e4cfcfe"},"vehicle_type_id":"4","last_reported":1752740131,"current_range_meters":3200,"station_id":"ce4bh112rcd13ifvqda0","pricing_plan_id":"cebpf4jnsgd1na2vs0mg"},{"bike_id":"d887aaf1-2e1f-4e23-a1c8-955c729b3690","system_id":"levelo_inurba_marseille","lat":43.292311,"lon":5.360706,"is_reserved":false,"is_disabled":false,"rental_uris":{"android":"levelo://app?vid=d887aaf1-2e1f-4e23-a1c8-955c729b3690","ios":"levelo://app?vid=d887aaf1-2e1f-4e23-a1c8-955c729b3690"},"vehicle_type_id":"4","last_reported":1752740131,"current_range_meters":3200,"station_id":"ce4bhbh2rcd13ifvqeqg","pricing_plan_id":"cebpf4jnsgd1na2vs0mg"},{"bike_id":"ecbb3b37-ccf7-40b6-aa37-7917dd300aa1","system_id":"levelo_inurba_marseille","lat":43.298,"lon":5.38112,"is_reserved":false,"is_disabled":false,"rental_uris":{"android":"levelo://app?vid=ecbb3b37-ccf7-40b6-aa37-7917dd300aa1","ios":"levelo://app?vid=ecbb3b37-ccf7-40b6-aa37-7917dd300aa1"},"vehicle_type_id":"4","last_reported":1752740131,"current_range_meters":3600,"station_id":"ce4bgip2rcd13ifvqbb0","pricing_plan_id":"cebpf4jnsgd1na2vs0mg"},{"bike_id":"ca1291b9-1b23-4d29-9e51-134cffbaea95","system_id":"levelo_inurba_marseille","lat":43.28104,"lon":5.37838,"is_reserved":false,"is_disabled":false,"rental_uris":{"android":"levelo://app?vid=ca1291b9-1b23-4d29-9e51-134cffbaea95","ios":"levelo://app?vid=ca1291b9-1b23-4d29-9e51-134cffbaea95"},"vehicle_type_id":"4","last_reported":1752740131,"current_range_meters":4000,"station_id":"ce4bha12rcd13ifvqee0","pricing_plan_id":"cebpf4jnsgd1na2vs0mg"},{"bike_id":"d98ef30e-38a0-41ef-a00a-304afa979a1e","system_id":"levelo_inurba_marseille","lat":43.29899,"lon":5.43652,"is_reserved":false,"is_disabled":false,"rental_uris":{"android":"levelo://app?vid=d98ef30e-38a0-41ef-a00a-304afa979a1e","ios":"levelo://app?vid=d98ef30e-38a0-41ef-a00a-304afa979a1e"},"vehicle_type_id":"4","last_reported":1752740131,"current_range_meters":5600,"station_id":"ce4bhpp2rcd13ifvqhfg","pricing_plan_id":"cebpf4jnsgd1na2vs0mg"},{"bike_id":"e45c1185-8872-412b-a773-839fe8b0ac20","system_id":"levelo_inurba_marseille","lat":43.29712,"lon":5.37693,"is_reserved":false,"is_disabled":false,"rental_uris":{"android":"levelo://app?vid=e45c1185-8872-412b-a773-839fe8b0ac20","ios":"levelo://app?vid=e45c1185-8872-412b-a773-839fe8b0ac20"},"vehicle_type_id":"4","last_reported":1752740131,"current_range_meters":5600,"station_id":"ce4bgkh2rcd13ifvqbl0","pricing_plan_id":"cebpf4jnsgd1na2vs0mg"},{"bike_id":"080b0f22-14dd-4044-a18f-ee7f74366cea","system_id":"levelo_inurba_marseille","lat":43.319916,"lon":5.381481,"is_reserved":false,"is_disabled":true,"rental_uris":{"android":"levelo://app?vid=080b0f22-14dd-4044-a18f-ee7f74366cea","ios":"levelo://app?vid=080b0f22-14dd-4044-a18f-ee7f74366cea"},"vehicle_type_id":"4","last_reported":1752740131,"current_range_meters":6000,"station_id":"ce4bhr12rcd13ifvqhpg","pricing_plan_id":"cebpf4jnsgd1na2vs0mg"},{"bike_id":"1145602c-3b12-4604-b8ff-291284dfc532","system_id":"levelo_inurba_marseille","lat":43.22512,"lon":5.34776,"is_reserved":false,"is_disabled":false,"rental_uris":{"android":"levelo://app?vid=1145602c-3b12-4604-b8ff-291284dfc532","ios":"levelo://app?vid=1145602c-3b12-4604-b8ff-291284dfc532"},"vehicle_type_id":"4","last_reported":1752740131,"current_range_meters":6400,"station_id":"st_cvj5dfep6f1abm77gieg","pricing_plan_id":"cebpf4jnsgd1na2vs0mg"},{"bike_id":"8938e6ce-e832-4ca2-9ad3-13b3e69a1e29","system_id":"levelo_inurba_marseille","lat":43.3171,"lon":5.37735,"is_reserved":false,"is_disabled":false,"rental_uris":{"android":"levelo://app?vid=8938e6ce-e832-4ca2-9ad3-13b3e69a1e29","ios":"levelo://app?vid=8938e6ce-e832-4ca2-9ad3-13b3e69a1e29"},"vehicle_type_id":"4","last_reported":1752740131,"current_range_meters":6400,"station_id":"ce4bgth2rcd13ifvqch0","pricing_plan_id":"cebpf4jnsgd1na2vs0mg"},{"bike_id":"2c6e34ec-e4ad-4b55-908f-732bdcecdb2f","system_id":"levelo_inurba_marseille","lat":43.211895,"lon":5.35067,"is_reserved":false,"is_disabled":false,"rental_uris":{"android":"levelo://app?vid=2c6e34ec-e4ad-4b55-908f-732bdcecdb2f","ios":"levelo://app?vid=2c6e34ec-e4ad-4b55-908f-732bdcecdb2f"},"vehicle_type_id":"4","last_reported":1752740131,"current_range_meters":6800,"station_id":"st_cvj6sg6p6f1abm77japg","pricing_plan_id":"cebpf4jnsgd1na2vs0mg"},{"bike_id":"e73db4ab-cb65-49e2-aeab-e8d76799777d","system_id":"levelo_inurba_marseille","lat":43.2315,"lon":5.43721,"is_reserved":false,"is_disabled":false,"rental_uris":{"android":"levelo://app?vid=e73db4ab-cb65-49e2-aeab-e8d76799777d","ios":"levelo://app?vid=e73db4ab-cb65-49e2-aeab-e8d76799777d"},"vehicle_type_id":"4","last_reported":1752740131,"current_range_meters":6800,"station_id":"ce4bhmp2rcd13ifvqgog","pricing_plan_id":"cebpf4jnsgd1na2vs0mg"},{"bike_id":"71267007-a906-43cc-99ef-e1d5f8c3f667","system_id":"levelo_inurba_marseille","lat":43.298493,"lon":5.36286,"is_reserved":false,"is_disabled":false,"rental_uris":{"android":"levelo://app?vid=71267007-a906-43cc-99ef-e1d5f8c3f667","ios":"levelo://app?vid=71267007-a906-43cc-99ef-e1d5f8c3f667"},"vehicle_type_id":"4","last_reported":1752740131,"current_range_meters":6800,"station_id":"ce4bgpp2rcd13ifvqc3g","pricing_plan_id":"cebpf4jnsgd1na2vs0mg"},{"bike_id":"a5b711eb-b7ea-4418-88cd-82f05b3c722a","system_id":"levelo_inurba_marseille","lat":43.26574,"lon":5.387,"is_reserved":false,"is_disabled":false,"rental_uris":{"android":"levelo://app?vid=a5b711eb-b7ea-4418-88cd-82f05b3c722a","ios":"levelo://app?vid=a5b711eb-b7ea-4418-88cd-82f05b3c722a"},"vehicle_type_id":"4","last_reported":1752740131,"current_range_meters":6800,"station_id":"","pricing_plan_id":"cebpf4jnsgd1na2vs0mg"},{"bike_id":"2533a2dd-5895-449d-a845-dc2b5afff885","system_id":"levelo_inurba_marseille","lat":43.31486,"lon":5.37307,"is_reserved":false,"is_disabled":false,"rental_uris":{"android":"levelo://app?vid=2533a2dd-5895-449d-a845-dc2b5afff885","ios":"levelo://app?vid=2533a2dd-5895-449d-a845-dc2b5afff885"},"vehicle_type_id":"4","last_reported":1752740131,"current_range_meters":6800,"station_id":"ce4bgt12rcd13ifvqcd0","pricing_plan_id":"cebpf4jnsgd1na2vs0mg"},{"bike_id":"667ea8c5-7f3f-4466-92e1-f07ac8ff0426","system_id":"levelo_inurba_marseille","lat":43.30132,"lon":5.36986,"is_reserved":false,"is_disabled":false,"rental_uris":{"android":"levelo://app?vid=667ea8c5-7f3f-4466-92e1-f07ac8ff0426","ios":"levelo://app?vid=667ea8c5-7f3f-4466-92e1-f07ac8ff0426"},"vehicle_type_id":"4","last_reported":1752740131,"current_range_meters":8000,"station_id":"","pricing_plan_id":"cebpf4jnsgd1na2vs0mg"},{"bike_id":"f668d1a2-154f-4b3a-9672-303a2c6d23bf","system_id":"levelo_inurba_marseille","lat":43.31068,"lon":5.38347,"is_reserved":false,"is_disabled":true,"rental_uris":{"android":"levelo://app?vid=f668d1a2-154f-4b3a-9672-303a2c6d23bf","ios":"levelo://app?vid=f668d1a2-154f-4b3a-9672-303a2c6d23bf"},"vehicle_type_id":"4","last_reported":1752740131,"current_range_meters":8000,"station_id":"ce4bgv92rcd13ifvqcr0","pricing_plan_id":"cebpf4jnsgd1na2vs0mg"},{"bike_id":"c3504d01-ae21-4d51-b5bb-c5e7be14a75e","system_id":"levelo_inurba_marseille","lat":43.31289,"lon":5.36829,"is_reserved":false,"is_disabled":false,"rental_uris":{"android":"levelo://app?vid=c3504d01-ae21-4d51-b5bb-c5e7be14a75e","ios":"levelo://app?vid=c3504d01-ae21-4d51-b5bb-c5e7be14a75e"},"vehicle_type_id":"4","last_reported":1752740131,"current_range_meters":8000,"station_id":"ce4bgl92rcd13ifvqbq0","pricing_plan_id":"cebpf4jnsgd1na2vs0mg"},{"bike_id":"4c44f66f-63d8-4917-8265-23379560af8c","system_id":"levelo_inurba_marseille","lat":43.32106,"lon":5.36767,"is_reserved":false,"is_disabled":false,"rental_uris":{"android":"levelo://app?vid=4c44f66f-63d8-4917-8265-23379560af8c","ios":"levelo://app?vid=4c44f66f-63d8-4917-8265-23379560af8c"},"vehicle_type_id":"4","last_reported":1752740131,"current_range_meters":8000,"station_id":"ce4bhrh2rcd13ifvqhug","pricing_plan_id":"cebpf4jnsgd1na2vs0mg"},{"bike_id":"c4e3adcf-b133-4a48-ad8a-5f7284a8ca7c","system_id":"levelo_inurba_marseille","lat":43.231499,"lon":5.437217,"is_reserved":false,"is_disabled":false,"rental_uris":{"android":"levelo://app?vid=c4e3adcf-b133-4a48-ad8a-5f7284a8ca7c","ios":"levelo://app?vid=c4e3adcf-b133-4a48-ad8a-5f7284a8ca7c"},"vehicle_type_id":"4","last_reported":1752740131,"current_range_meters":8000,"station_id":"ce4bhmp2rcd13ifvqgog","pricing_plan_id":"cebpf4jnsgd1na2vs0mg"},{"bike_id":"bb5d9deb-7517-43be-8a1b-f804625d2132","system_id":"levelo_inurba_marseille","lat":43.29311,"lon":5.37441,"is_reserved":false,"is_disabled":false,"rental_uris":{"android":"levelo://app?vid=bb5d9deb-7517-43be-8a1b-f804625d2132","ios":"levelo://app?vid=bb5d9deb-7517-43be-8a1b-f804625d2132"},"vehicle_type_id":"4","last_reported":1752740131,"current_range_meters":8400,"station_id":"ce4bgi12rcd13ifvqb70","pricing_plan_id":"cebpf4jnsgd1na2vs0mg"},{"bike_id":"d088024d-801c-46b7-a4f4-bb7919407cd0","system_id":"levelo_inurba_marseille","lat":43.32465,"lon":5.3656,"is_reserved":false,"is_disabled":false,"rental_uris":{"android":"levelo://app?vid=d088024d-801c-46b7-a4f4-bb7919407cd0","ios":"levelo://app?vid=d088024d-801c-46b7-a4f4-bb7919407cd0"},"vehicle_type_id":"4","last_reported":1752740131,"current_range_meters":8400,"station_id":"ce4bhs12rcd13ifvqhvg","pricing_plan_id":"cebpf4jnsgd1na2vs0mg"},{"bike_id":"ec666801-8273-485b-841f-83f1c5683a28","system_id":"levelo_inurba_marseille","lat":43.33752,"lon":5.37474,"is_reserved":false,"is_disabled":false,"rental_uris":{"android":"levelo://app?vid=ec666801-8273-485b-841f-83f1c5683a28","ios":"levelo://app?vid=ec666801-8273-485b-841f-83f1c5683a28"},"vehicle_type_id":"4","last_reported":1752740131,"current_range_meters":8800,"station_id":"","pricing_plan_id":"cebpf4jnsgd1na2vs0mg"},{"bike_id":"f5f9b4cc-f212-42b7-8bcb-29a0991fe431","system_id":"levelo_inurba_marseille","lat":43.304643,"lon":5.379148,"is_reserved":false,"is_disabled":false,"rental_uris":{"android":"levelo://app?vid=f5f9b4cc-f212-42b7-8bcb-29a0991fe431","ios":"levelo://app?vid=f5f9b4cc-f212-42b7-8bcb-29a0991fe431"},"vehicle_type_id":"4","last_reported":1752740131,"current_range_meters":8800,"station_id":"ce4bgup2rcd13ifvqcn0","pricing_plan_id":"cebpf4jnsgd1na2vs0mg"},{"bike_id":"59cae48c-4f20-4a04-9ff4-ea6be55244c3","system_id":"levelo_inurba_marseille","lat":43.29072,"lon":5.37178,"is_reserved":false,"is_disabled":false,"rental_uris":{"android":"levelo://app?vid=59cae48c-4f20-4a04-9ff4-ea6be55244c3","ios":"levelo://app?vid=59cae48c-4f20-4a04-9ff4-ea6be55244c3"},"vehicle_type_id":"4","last_reported":1752740131,"current_range_meters":8800,"station_id":"ce4bh5p2rcd13ifvqe4g","pricing_plan_id":"cebpf4jnsgd1na2vs0mg"},{"bike_id":"3497b8c1-eec3-4bcf-a2a8-074629d1c01b","system_id":"levelo_inurba_marseille","lat":43.305316,"lon":5.367038,"is_reserved":false,"is_disabled":false,"rental_uris":{"android":"levelo://app?vid=3497b8c1-eec3-4bcf-a2a8-074629d1c01b","ios":"levelo://app?vid=3497b8c1-eec3-4bcf-a2a8-074629d1c01b"},"vehicle_type_id":"4","last_reported":1752740131,"current_range_meters":8800,"station_id":"","pricing_plan_id":"cebpf4jnsgd1na2vs0mg"},{"bike_id":"2ff4d698-3190-4f85-b048-f7c5c0205bc4","system_id":"levelo_inurba_marseille","lat":43.27421,"lon":5.39417,"is_reserved":false,"is_disabled":false,"rental_uris":{"android":"levelo://app?vid=2ff4d698-3190-4f85-b048-f7c5c0205bc4","ios":"levelo://app?vid=2ff4d698-3190-4f85-b048-f7c5c0205bc4"},"vehicle_type_id":"4","last_reported":1752740131,"current_range_meters":8800,"station_id":"ce4bhdp2rcd13ifvqf20","pricing_plan_id":"cebpf4jnsgd1na2vs0mg"},{"bike_id":"0a61248d-5a7e-4ca2-a4ad-e07ad0cbfb83","system_id":"levelo_inurba_marseille","lat":43.2957,"lon":5.37533,"is_reserved":false,"is_disabled":false,"rental_uris":{"android":"levelo://app?vid=0a61248d-5a7e-4ca2-a4ad-e07ad0cbfb83","ios":"levelo://app?vid=0a61248d-5a7e-4ca2-a4ad-e07ad0cbfb83"},"vehicle_type_id":"4","last_reported":1752740131,"current_range_meters":9200,"station_id":"ce4bgh92rcd13ifvqb50","pricing_plan_id":"cebpf4jnsgd1na2vs0mg"},{"bike_id":"9e365865-b118-4295-83f9-77049644431e","system_id":"levelo_inurba_marseille","lat":43.31376,"lon":5.36686,"is_reserved":false,"is_disabled":false,"rental_uris":{"android":"levelo://app?vid=9e365865-b118-4295-83f9-77049644431e","ios":"levelo://app?vid=9e365865-b118-4295-83f9-77049644431e"},"vehicle_type_id":"4","last_reported":1752740131,"current_range_meters":9200,"station_id":"ce4bgr92rcd13ifvqc6g","pricing_plan_id":"cebpf4jnsgd1na2vs0mg"},{"bike_id":"54b283c6-c314-444c-b492-3e78ed7f2d30","system_id":"levelo_inurba_marseille","lat":43.32949,"lon":5.39087,"is_reserved":false,"is_disabled":false,"rental_uris":{"android":"levelo://app?vid=54b283c6-c314-444c-b492-3e78ed7f2d30","ios":"levelo://app?vid=54b283c6-c314-444c-b492-3e78ed7f2d30"},"vehicle_type_id":"4","last_reported":1752740131,"current_range_meters":9200,"station_id":"","pricing_plan_id":"cebpf4jnsgd1na2vs0mg"},{"bike_id":"4ce55f4d-3b70-4375-b63b-9a909ade43f9","system_id":"levelo_inurba_marseille","lat":43.21189,"lon":5.35061,"is_reserved":false,"is_disabled":false,"rental_uris":{"android":"levelo://app?vid=4ce55f4d-3b70-4375-b63b-9a909ade43f9","ios":"levelo://app?vid=4ce55f4d-3b70-4375-b63b-9a909ade43f9"},"vehicle_type_id":"4","last_reported":1752740131,"current_range_meters":9600,"station_id":"st_cvj6sg6p6f1abm77japg","pricing_plan_id":"cebpf4jnsgd1na2vs0mg"},{"bike_id":"7ee9e0af-a712-4dc6-9ed4-e1a0af365380","system_id":"levelo_inurba_marseille","lat":43.31363,"lon":5.36712,"is_reserved":false,"is_disabled":false,"rental_uris":{"android":"levelo://app?vid=7ee9e0af-a712-4dc6-9ed4-e1a0af365380","ios":"levelo://app?vid=7ee9e0af-a712-4dc6-9ed4-e1a0af365380"},"vehicle_type_id":"4","last_reported":1752740131,"current_range_meters":10000,"station_id":"ce4bgr92rcd13ifvqc6g","pricing_plan_id":"cebpf4jnsgd1na2vs0mg"},{"bike_id":"42fe4969-651a-4993-8067-5deeed4c701b","system_id":"levelo_inurba_marseille","lat":43.31352,"lon":5.36737,"is_reserved":false,"is_disabled":false,"rental_uris":{"android":"levelo://app?vid=42fe4969-651a-4993-8067-5deeed4c701b","ios":"levelo://app?vid=42fe4969-651a-4993-8067-5deeed4c701b"},"vehicle_type_id":"4","last_reported":1752740131,"current_range_meters":10000,"station_id":"ce4bgr92rcd13ifvqc6g","pricing_plan_id":"cebpf4jnsgd1na2vs0mg"},{"bike_id":"f2c77edb-72e7-4faa-876b-e76362dd1db6","system_id":"levelo_inurba_marseille","lat":43.30535,"lon":5.3653,"is_reserved":false,"is_disabled":false,"rental_uris":{"android":"levelo://app?vid=f2c77edb-72e7-4faa-876b-e76362dd1db6","ios":"levelo://app?vid=f2c77edb-72e7-4faa-876b-e76362dd1db6"},"vehicle_type_id":"4","last_reported":1752740131,"current_range_meters":10000,"station_id":"ce4bgs12rcd13ifvqcag","pricing_plan_id":"cebpf4jnsgd1na2vs0mg"},{"bike_id":"f731ebcb-af86-4348-88d4-09eeedc1b3e0","system_id":"levelo_inurba_marseille","lat":43.28678,"lon":5.38663,"is_reserved":false,"is_disabled":false,"rental_uris":{"android":"levelo://app?vid=f731ebcb-af86-4348-88d4-09eeedc1b3e0","ios":"levelo://app?vid=f731ebcb-af86-4348-88d4-09eeedc1b3e0"},"vehicle_type_id":"4","last_reported":1752740131,"current_range_meters":10000,"station_id":"ce4bh492rcd13ifvqdug","pricing_plan_id":"cebpf4jnsgd1na2vs0mg"},{"bike_id":"61a9e916-b95f-4f2c-8dca-c5b11be80287","system_id":"levelo_inurba_marseille","lat":43.29245,"lon":5.36031,"is_reserved":false,"is_disabled":false,"rental_uris":{"android":"levelo://app?vid=61a9e916-b95f-4f2c-8dca-c5b11be80287","ios":"levelo://app?vid=61a9e916-b95f-4f2c-8dca-c5b11be80287"},"vehicle_type_id":"4","last_reported":1752740131,"current_range_meters":10000,"station_id":"ce4bhbh2rcd13ifvqeqg","pricing_plan_id":"cebpf4jnsgd1na2vs0mg"},{"bike_id":"78679572-3bfd-4157-9dc2-e6eab36eb3e1","system_id":"levelo_inurba_marseille","lat":43.26692,"lon":5.38259,"is_reserved":false,"is_disabled":false,"rental_uris":{"android":"levelo://app?vid=78679572-3bfd-4157-9dc2-e6eab36eb3e1","ios":"levelo://app?vid=78679572-3bfd-4157-9dc2-e6eab36eb3e1"},"vehicle_type_id":"4","last_reported":1752740131,"current_range_meters":10000,"station_id":"ce4bhg92rcd13ifvqf90","pricing_plan_id":"cebpf4jnsgd1na2vs0mg"},{"bike_id":"2cc4c7ab-a454-4fc0-acb0-2ff772b5ddd7","system_id":"levelo_inurba_marseille","lat":43.26941,"lon":5.40263,"is_reserved":false,"is_disabled":false,"rental_uris":{"android":"levelo://app?vid=2cc4c7ab-a454-4fc0-acb0-2ff772b5ddd7","ios":"levelo://app?vid=2cc4c7ab-a454-4fc0-acb0-2ff772b5ddd7"},"vehicle_type_id":"4","last_reported":1752740131,"current_range_meters":10000,"station_id":"cjm6bp8fraef2m0cb0m0","pricing_plan_id":"cebpf4jnsgd1na2vs0mg"},{"bike_id":"964a87d9-b043-4d78-a43b-0fe002e9ebed","system_id":"levelo_inurba_marseille","lat":43.2862,"lon":5.35096,"is_reserved":false,"is_disabled":true,"rental_uris":{"android":"levelo://app?vid=964a87d9-b043-4d78-a43b-0fe002e9ebed","ios":"levelo://app?vid=964a87d9-b043-4d78-a43b-0fe002e9ebed"},"vehicle_type_id":"4","last_reported":1752740131,"current_range_meters":10000,"station_id":"ce4bhch2rcd13ifvqeug","pricing_plan_id":"cebpf4jnsgd1na2vs0mg"},{"bike_id":"315a482e-6b18-4647-a2c3-ec2ceb2b1906","system_id":"levelo_inurba_marseille","lat":43.29622,"lon":5.37711,"is_reserved":false,"is_disabled":false,"rental_uris":{"android":"levelo://app?vid=315a482e-6b18-4647-a2c3-ec2ceb2b1906","ios":"levelo://app?vid=315a482e-6b18-4647-a2c3-ec2ceb2b1906"},"vehicle_type_id":"4","last_reported":1752740131,"current_range_meters":10800,"station_id":"ce4bgi92rcd13ifvqb90","pricing_plan_id":"cebpf4jnsgd1na2vs0mg"},{"bike_id":"46cf7696-31d3-4873-bcf1-8bfb7b7856d0","system_id":"levelo_inurba_marseille","lat":43.296022,"lon":5.377286,"is_reserved":false,"is_disabled":false,"rental_uris":{"android":"levelo://app?vid=46cf7696-31d3-4873-bcf1-8bfb7b7856d0","ios":"levelo://app?vid=46cf7696-31d3-4873-bcf1-8bfb7b7856d0"},"vehicle_type_id":"4","last_reported":1752740131,"current_range_meters":10800,"station_id":"ce4bgi92rcd13ifvqb90","pricing_plan_id":"cebpf4jnsgd1na2vs0mg"},{"bike_id":"d5ada2c8-1dda-4324-b4d4-9118519581d5","system_id":"levelo_inurba_marseille","lat":43.29424,"lon":5.38612,"is_reserved":false,"is_disabled":true,"rental_uris":{"android":"levelo://app?vid=d5ada2c8-1dda-4324-b4d4-9118519581d5","ios":"levelo://app?vid=d5ada2c8-1dda-4324-b4d4-9118519581d5"},"vehicle_type_id":"4","last_reported":1752740131,"current_range_meters":10800,"station_id":"ce4bh2h2rcd13ifvqdh0","pricing_plan_id":"cebpf4jnsgd1na2vs0mg"},{"bike_id":"47e84c87-4631-48fa-8064-ac43c2313bba","system_id":"levelo_inurba_marseille","lat":43.29295,"lon":5.3717,"is_reserved":false,"is_disabled":true,"rental_uris":{"android":"levelo://app?vid=47e84c87-4631-48fa-8064-ac43c2313bba","ios":"levelo://app?vid=47e84c87-4631-48fa-8064-ac43c2313bba"},"vehicle_type_id":"4","last_reported":1752740131,"current_range_meters":10800,"station_id":"ce4bgh92rcd13ifvqb40","pricing_plan_id":"cebpf4jnsgd1na2vs0mg"},{"bike_id":"b6e666ca-40a6-4894-a9e0-7106dd62ed9e","system_id":"levelo_inurba_marseille","lat":43.29212,"lon":5.39983,"is_reserved":false,"is_disabled":false,"rental_uris":{"android":"levelo://app?vid=b6e666ca-40a6-4894-a9e0-7106dd62ed9e","ios":"levelo://app?vid=b6e666ca-40a6-4894-a9e0-7106dd62ed9e"},"vehicle_type_id":"4","last_reported":1752740131,"current_range_meters":10800,"station_id":"","pricing_plan_id":"cebpf4jnsgd1na2vs0mg"},{"bike_id":"2bacaccd-1bb2-41bf-ab2e-30b8a5fb7d5d","system_id":"levelo_inurba_marseille","lat":43.27369,"lon":5.3625,"is_reserved":false,"is_disabled":false,"rental_uris":{"android":"levelo://app?vid=2bacaccd-1bb2-41bf-ab2e-30b8a5fb7d5d","ios":"levelo://app?vid=2bacaccd-1bb2-41bf-ab2e-30b8a5fb7d5d"},"vehicle_type_id":"4","last_reported":1752740131,"current_range_meters":10800,"station_id":"ce4bhbh2rcd13ifvqeo0","pricing_plan_id":"cebpf4jnsgd1na2vs0mg"},{"bike_id":"9eaf072e-fd31-4296-8388-8574f90d4c98","system_id":"levelo_inurba_marseille","lat":43.28611,"lon":5.37066,"is_reserved":false,"is_disabled":false,"rental_uris":{"android":"levelo://app?vid=9eaf072e-fd31-4296-8388-8574f90d4c98","ios":"levelo://app?vid=9eaf072e-fd31-4296-8388-8574f90d4c98"},"vehicle_type_id":"4","last_reported":1752740131,"current_range_meters":10800,"station_id":"ce4bht12rcd13ifvqi60","pricing_plan_id":"cebpf4jnsgd1na2vs0mg"},{"bike_id":"7dee92bf-5b07-4927-aa41-9e9493644eeb","system_id":"levelo_inurba_marseille","lat":43.21187,"lon":5.35059,"is_reserved":false,"is_disabled":false,"rental_uris":{"android":"levelo://app?vid=7dee92bf-5b07-4927-aa41-9e9493644eeb","ios":"levelo://app?vid=7dee92bf-5b07-4927-aa41-9e9493644eeb"},"vehicle_type_id":"4","last_reported":1752740131,"current_range_meters":10800,"station_id":"st_cvj6sg6p6f1abm77japg","pricing_plan_id":"cebpf4jnsgd1na2vs0mg"},{"bike_id":"c7b5043d-0c11-4390-91da-21cb908fed90","system_id":"levelo_inurba_marseille","lat":43.290062,"lon":5.356095,"is_reserved":false,"is_disabled":false,"rental_uris":{"android":"levelo://app?vid=c7b5043d-0c11-4390-91da-21cb908fed90","ios":"levelo://app?vid=c7b5043d-0c11-4390-91da-21cb908fed90"},"vehicle_type_id":"4","last_reported":1752740131,"current_range_meters":11200,"station_id":"ce4bhb92rcd13ifvqen0","pricing_plan_id":"cebpf4jnsgd1na2vs0mg"},{"bike_id":"2979d731-9333-4af5-a963-386268404255","system_id":"levelo_inurba_marseille","lat":43.22941,"lon":5.35371,"is_reserved":false,"is_disabled":false,"rental_uris":{"android":"levelo://app?vid=2979d731-9333-4af5-a963-386268404255","ios":"levelo://app?vid=2979d731-9333-4af5-a963-386268404255"},"vehicle_type_id":"4","last_reported":1752740131,"current_range_meters":11200,"station_id":"cpo3532slgdg3j2ikp40","pricing_plan_id":"cebpf4jnsgd1na2vs0mg"},{"bike_id":"63b68163-23ff-4509-a7ff-da745c70a782","system_id":"levelo_inurba_marseille","lat":43.295232,"lon":5.394075,"is_reserved":false,"is_disabled":false,"rental_uris":{"android":"levelo://app?vid=63b68163-23ff-4509-a7ff-da745c70a782","ios":"levelo://app?vid=63b68163-23ff-4509-a7ff-da745c70a782"},"vehicle_type_id":"4","last_reported":1752740131,"current_range_meters":11200,"station_id":"","pricing_plan_id":"cebpf4jnsgd1na2vs0mg"},{"bike_id":"e906c121-548d-42ee-83a1-189a15ff61aa","system_id":"levelo_inurba_marseille","lat":43.26679,"lon":5.38271,"is_reserved":false,"is_disabled":false,"rental_uris":{"android":"levelo://app?vid=e906c121-548d-42ee-83a1-189a15ff61aa","ios":"levelo://app?vid=e906c121-548d-42ee-83a1-189a15ff61aa"},"vehicle_type_id":"4","last_reported":1752740131,"current_range_meters":11200,"station_id":"ce4bhg92rcd13ifvqf90","pricing_plan_id":"cebpf4jnsgd1na2vs0mg"},{"bike_id":"1be28061-1b85-4eb2-8cf5-d832f5e8190e","system_id":"levelo_inurba_marseille","lat":43.30288,"lon":5.37713,"is_reserved":false,"is_disabled":false,"rental_uris":{"android":"levelo://app?vid=1be28061-1b85-4eb2-8cf5-d832f5e8190e","ios":"levelo://app?vid=1be28061-1b85-4eb2-8cf5-d832f5e8190e"},"vehicle_type_id":"4","last_reported":1752740131,"current_range_meters":11600,"station_id":"ce4bguh2rcd13ifvqcj0","pricing_plan_id":"cebpf4jnsgd1na2vs0mg"},{"bike_id":"c8f397ff-62d3-4182-bd31-641e440044e3","system_id":"levelo_inurba_marseille","lat":43.30191,"lon":5.36623,"is_reserved":false,"is_disabled":false,"rental_uris":{"android":"levelo://app?vid=c8f397ff-62d3-4182-bd31-641e440044e3","ios":"levelo://app?vid=c8f397ff-62d3-4182-bd31-641e440044e3"},"vehicle_type_id":"4","last_reported":1752740131,"current_range_meters":11600,"station_id":"ce4bgrh2rcd13ifvqc8g","pricing_plan_id":"cebpf4jnsgd1na2vs0mg"},{"bike_id":"64813af9-a144-4878-8e40-05b74c70e560","system_id":"levelo_inurba_marseille","lat":43.29802,"lon":5.38079,"is_reserved":false,"is_disabled":false,"rental_uris":{"android":"levelo://app?vid=64813af9-a144-4878-8e40-05b74c70e560","ios":"levelo://app?vid=64813af9-a144-4878-8e40-05b74c70e560"},"vehicle_type_id":"4","last_reported":1752740131,"current_range_meters":11600,"station_id":"ce4bgip2rcd13ifvqbb0","pricing_plan_id":"cebpf4jnsgd1na2vs0mg"},{"bike_id":"b0c23ffa-b795-431a-b0b1-75d1e25c5c1e","system_id":"levelo_inurba_marseille","lat":43.30465,"lon":5.37898,"is_reserved":false,"is_disabled":false,"rental_uris":{"android":"levelo://app?vid=b0c23ffa-b795-431a-b0b1-75d1e25c5c1e","ios":"levelo://app?vid=b0c23ffa-b795-431a-b0b1-75d1e25c5c1e"},"vehicle_type_id":"4","last_reported":1752740131,"current_range_meters":11600,"station_id":"ce4bgup2rcd13ifvqcn0","pricing_plan_id":"cebpf4jnsgd1na2vs0mg"},{"bike_id":"7fc6ebd8-c0b1-4e77-8345-e5ffce2a02ab","system_id":"levelo_inurba_marseille","lat":43.2416,"lon":5.364024,"is_reserved":false,"is_disabled":false,"rental_uris":{"android":"levelo://app?vid=7fc6ebd8-c0b1-4e77-8345-e5ffce2a02ab","ios":"levelo://app?vid=7fc6ebd8-c0b1-4e77-8345-e5ffce2a02ab"},"vehicle_type_id":"4","last_reported":1752740131,"current_range_meters":11600,"station_id":"cpo36qri1sfpv3e86is0","pricing_plan_id":"cebpf4jnsgd1na2vs0mg"},{"bike_id":"266d7aec-1666-472b-8c5d-281a36e42319","system_id":"levelo_inurba_marseille","lat":43.2958,"lon":5.36738,"is_reserved":false,"is_disabled":false,"rental_uris":{"android":"levelo://app?vid=266d7aec-1666-472b-8c5d-281a36e42319","ios":"levelo://app?vid=266d7aec-1666-472b-8c5d-281a36e42319"},"vehicle_type_id":"4","last_reported":1752740131,"current_range_meters":12000,"station_id":"ce4bgph2rcd13ifvqc2g","pricing_plan_id":"cebpf4jnsgd1na2vs0mg"},{"bike_id":"ee23a044-c4cc-4470-bd62-e2f1a53231d7","system_id":"levelo_inurba_marseille","lat":43.30551,"lon":5.36562,"is_reserved":false,"is_disabled":false,"rental_uris":{"android":"levelo://app?vid=ee23a044-c4cc-4470-bd62-e2f1a53231d7","ios":"levelo://app?vid=ee23a044-c4cc-4470-bd62-e2f1a53231d7"},"vehicle_type_id":"4","last_reported":1752740131,"current_range_meters":12000,"station_id":"ce4bgs12rcd13ifvqcag","pricing_plan_id":"cebpf4jnsgd1na2vs0mg"},{"bike_id":"fec9ee64-026c-46c6-a4c8-c66ae693a529","system_id":"levelo_inurba_marseille","lat":43.29375,"lon":5.37192,"is_reserved":false,"is_disabled":true,"rental_uris":{"android":"levelo://app?vid=fec9ee64-026c-46c6-a4c8-c66ae693a529","ios":"levelo://app?vid=fec9ee64-026c-46c6-a4c8-c66ae693a529"},"vehicle_type_id":"4","last_reported":1752740131,"current_range_meters":12000,"station_id":"","pricing_plan_id":"cebpf4jnsgd1na2vs0mg"},{"bike_id":"0ab85e17-3302-44cf-99ab-0bbf39336ea9","system_id":"levelo_inurba_marseille","lat":43.2558,"lon":5.38226,"is_reserved":false,"is_disabled":false,"rental_uris":{"android":"levelo://app?vid=0ab85e17-3302-44cf-99ab-0bbf39336ea9","ios":"levelo://app?vid=0ab85e17-3302-44cf-99ab-0bbf39336ea9"},"vehicle_type_id":"4","last_reported":1752740131,"current_range_meters":12000,"station_id":"ce4bhih2rcd13ifvqfs0","pricing_plan_id":"cebpf4jnsgd1na2vs0mg"},{"bike_id":"a87d3f2c-3b26-4659-9f89-81107e844fd0","system_id":"levelo_inurba_marseille","lat":43.24672,"lon":5.38149,"is_reserved":false,"is_disabled":false,"rental_uris":{"android":"levelo://app?vid=a87d3f2c-3b26-4659-9f89-81107e844fd0","ios":"levelo://app?vid=a87d3f2c-3b26-4659-9f89-81107e844fd0"},"vehicle_type_id":"4","last_reported":1752740131,"current_range_meters":12000,"station_id":"ce4bhih2rcd13ifvqfr0","pricing_plan_id":"cebpf4jnsgd1na2vs0mg"},{"bike_id":"734032c8-fecd-4dec-8378-00c6c9efc560","system_id":"levelo_inurba_marseille","lat":43.29623,"lon":5.37149,"is_reserved":false,"is_disabled":true,"rental_uris":{"android":"levelo://app?vid=734032c8-fecd-4dec-8378-00c6c9efc560","ios":"levelo://app?vid=734032c8-fecd-4dec-8378-00c6c9efc560"},"vehicle_type_id":"4","last_reported":1752740131,"current_range_meters":12400,"station_id":"","pricing_plan_id":"cebpf4jnsgd1na2vs0mg"},{"bike_id":"2483ef29-9d33-46c0-ba69-5e08ed0a5279","system_id":"levelo_inurba_marseille","lat":43.29173,"lon":5.37153,"is_reserved":false,"is_disabled":false,"rental_uris":{"android":"levelo://app?vid=2483ef29-9d33-46c0-ba69-5e08ed0a5279","ios":"levelo://app?vid=2483ef29-9d33-46c0-ba69-5e08ed0a5279"},"vehicle_type_id":"4","last_reported":1752740131,"current_range_meters":12000,"station_id":"ce4bha92rcd13ifvqeh0","pricing_plan_id":"cebpf4jnsgd1na2vs0mg"},{"bike_id":"6a69d0cc-faf8-4dc3-8ded-5ef811a5de8d","system_id":"levelo_inurba_marseille","lat":43.3074,"lon":5.42434,"is_reserved":false,"is_disabled":false,"rental_uris":{"android":"levelo://app?vid=6a69d0cc-faf8-4dc3-8ded-5ef811a5de8d","ios":"levelo://app?vid=6a69d0cc-faf8-4dc3-8ded-5ef811a5de8d"},"vehicle_type_id":"4","last_reported":1752740131,"current_range_meters":12400,"station_id":"st_cvj6ca6bvosntc0bfgr0","pricing_plan_id":"cebpf4jnsgd1na2vs0mg"},{"bike_id":"39c6203f-25ee-487c-9399-b36ef495fc6b","system_id":"levelo_inurba_marseille","lat":43.24074,"lon":5.37698,"is_reserved":false,"is_disabled":false,"rental_uris":{"android":"levelo://app?vid=39c6203f-25ee-487c-9399-b36ef495fc6b","ios":"levelo://app?vid=39c6203f-25ee-487c-9399-b36ef495fc6b"},"vehicle_type_id":"4","last_reported":1752740131,"current_range_meters":12400,"station_id":"ce4bhnp2rcd13ifvqgvg","pricing_plan_id":"cebpf4jnsgd1na2vs0mg"},{"bike_id":"0398468c-6c0f-49fd-b525-08c45b6a4cd9","system_id":"levelo_inurba_marseille","lat":43.22507,"lon":5.34757,"is_reserved":false,"is_disabled":false,"rental_uris":{"android":"levelo://app?vid=0398468c-6c0f-49fd-b525-08c45b6a4cd9","ios":"levelo://app?vid=0398468c-6c0f-49fd-b525-08c45b6a4cd9"},"vehicle_type_id":"4","last_reported":1752740131,"current_range_meters":12800,"station_id":"st_cvj5dfep6f1abm77gieg","pricing_plan_id":"cebpf4jnsgd1na2vs0mg"},{"bike_id":"84c133eb-a2c7-4beb-83c4-2a7041dbf7bd","system_id":"levelo_inurba_marseille","lat":43.30797,"lon":5.3816,"is_reserved":false,"is_disabled":true,"rental_uris":{"android":"levelo://app?vid=84c133eb-a2c7-4beb-83c4-2a7041dbf7bd","ios":"levelo://app?vid=84c133eb-a2c7-4beb-83c4-2a7041dbf7bd"},"vehicle_type_id":"4","last_reported":1752740131,"current_range_meters":12800,"station_id":"","pricing_plan_id":"cebpf4jnsgd1na2vs0mg"},{"bike_id":"f6834fab-2789-457c-8fcd-b493aca00af1","system_id":"levelo_inurba_marseille","lat":43.28478,"lon":5.38557,"is_reserved":false,"is_disabled":false,"rental_uris":{"android":"levelo://app?vid=f6834fab-2789-457c-8fcd-b493aca00af1","ios":"levelo://app?vid=f6834fab-2789-457c-8fcd-b493aca00af1"},"vehicle_type_id":"4","last_reported":1752740131,"current_range_meters":12800,"station_id":"ce4bh8p2rcd13ifvqeb0","pricing_plan_id":"cebpf4jnsgd1na2vs0mg"},{"bike_id":"bf565178-0f29-45b9-8e0e-f680e75518f6","system_id":"levelo_inurba_marseille","lat":43.293587,"lon":5.371994,"is_reserved":false,"is_disabled":false,"rental_uris":{"android":"levelo://app?vid=bf565178-0f29-45b9-8e0e-f680e75518f6","ios":"levelo://app?vid=bf565178-0f29-45b9-8e0e-f680e75518f6"},"vehicle_type_id":"4","last_reported":1752740131,"current_range_meters":12800,"station_id":"ce4bgh92rcd13ifvqb40","pricing_plan_id":"cebpf4jnsgd1na2vs0mg"},{"bike_id":"98fa495f-329a-4f42-9747-8100300712b8","system_id":"levelo_inurba_marseille","lat":43.27203,"lon":5.39191,"is_reserved":false,"is_disabled":false,"rental_uris":{"android":"levelo://app?vid=98fa495f-329a-4f42-9747-8100300712b8","ios":"levelo://app?vid=98fa495f-329a-4f42-9747-8100300712b8"},"vehicle_type_id":"4","last_reported":1752740131,"current_range_meters":12800,"station_id":"ce4bhhp2rcd13ifvqfm0","pricing_plan_id":"cebpf4jnsgd1na2vs0mg"},{"bike_id":"f777d9e3-0ed3-4426-aeca-71121eae9498","system_id":"levelo_inurba_marseille","lat":43.27395,"lon":5.36243,"is_reserved":false,"is_disabled":false,"rental_uris":{"android":"levelo://app?vid=f777d9e3-0ed3-4426-aeca-71121eae9498","ios":"levelo://app?vid=f777d9e3-0ed3-4426-aeca-71121eae9498"},"vehicle_type_id":"4","last_reported":1752740131,"current_range_meters":12800,"station_id":"ce4bhbh2rcd13ifvqeo0","pricing_plan_id":"cebpf4jnsgd1na2vs0mg"},{"bike_id":"555bc53e-5286-4fb6-9154-af42b3fd9792","system_id":"levelo_inurba_marseille","lat":43.30073,"lon":5.37278,"is_reserved":false,"is_disabled":false,"rental_uris":{"android":"levelo://app?vid=555bc53e-5286-4fb6-9154-af42b3fd9792","ios":"levelo://app?vid=555bc53e-5286-4fb6-9154-af42b3fd9792"},"vehicle_type_id":"4","last_reported":1752740131,"current_range_meters":12800,"station_id":"","pricing_plan_id":"cebpf4jnsgd1na2vs0mg"},{"bike_id":"7fda4aee-b418-40c6-84b3-ceeff2cb7372","system_id":"levelo_inurba_marseille","lat":43.23153,"lon":5.43712,"is_reserved":false,"is_disabled":false,"rental_uris":{"android":"levelo://app?vid=7fda4aee-b418-40c6-84b3-ceeff2cb7372","ios":"levelo://app?vid=7fda4aee-b418-40c6-84b3-ceeff2cb7372"},"vehicle_type_id":"4","last_reported":1752740131,"current_range_meters":12400,"station_id":"ce4bhmp2rcd13ifvqgog","pricing_plan_id":"cebpf4jnsgd1na2vs0mg"},{"bike_id":"88a46347-f9ef-414e-860f-9c3d40a6a43f","system_id":"levelo_inurba_marseille","lat":43.29514,"lon":5.39395,"is_reserved":false,"is_disabled":false,"rental_uris":{"android":"levelo://app?vid=88a46347-f9ef-414e-860f-9c3d40a6a43f","ios":"levelo://app?vid=88a46347-f9ef-414e-860f-9c3d40a6a43f"},"vehicle_type_id":"4","last_reported":1752740131,"current_range_meters":12800,"station_id":"ce4bh292rcd13ifvqdf0","pricing_plan_id":"cebpf4jnsgd1na2vs0mg"},{"bike_id":"109cc041-27da-4495-8841-711245bcb857","system_id":"levelo_inurba_marseille","lat":43.31268,"lon":5.40163,"is_reserved":false,"is_disabled":false,"rental_uris":{"android":"levelo://app?vid=109cc041-27da-4495-8841-711245bcb857","ios":"levelo://app?vid=109cc041-27da-4495-8841-711245bcb857"},"vehicle_type_id":"4","last_reported":1752740131,"current_range_meters":12800,"station_id":"ce4bh092rcd13ifvqd30","pricing_plan_id":"cebpf4jnsgd1na2vs0mg"},{"bike_id":"1657c7b4-5589-4af5-909b-9d7b55ea830d","system_id":"levelo_inurba_marseille","lat":43.26556,"lon":5.37281,"is_reserved":false,"is_disabled":false,"rental_uris":{"android":"levelo://app?vid=1657c7b4-5589-4af5-909b-9d7b55ea830d","ios":"levelo://app?vid=1657c7b4-5589-4af5-909b-9d7b55ea830d"},"vehicle_type_id":"4","last_reported":1752740131,"current_range_meters":12800,"station_id":"ce4bhg12rcd13ifvqf70","pricing_plan_id":"cebpf4jnsgd1na2vs0mg"},{"bike_id":"53943011-71b1-4c7d-a13a-30b135dbccb8","system_id":"levelo_inurba_marseille","lat":43.28425,"lon":5.34989,"is_reserved":false,"is_disabled":false,"rental_uris":{"android":"levelo://app?vid=53943011-71b1-4c7d-a13a-30b135dbccb8","ios":"levelo://app?vid=53943011-71b1-4c7d-a13a-30b135dbccb8"},"vehicle_type_id":"4","last_reported":1752740131,"current_range_meters":13600,"station_id":"ce4bhbh2rcd13ifvqepg","pricing_plan_id":"cebpf4jnsgd1na2vs0mg"},{"bike_id":"243ff24d-c224-4f6c-8766-a9a443123038","system_id":"levelo_inurba_marseille","lat":43.23962,"lon":5.36631,"is_reserved":false,"is_disabled":false,"rental_uris":{"android":"levelo://app?vid=243ff24d-c224-4f6c-8766-a9a443123038","ios":"levelo://app?vid=243ff24d-c224-4f6c-8766-a9a443123038"},"vehicle_type_id":"4","last_reported":1752740131,"current_range_meters":13600,"station_id":"ce4bhi12rcd13ifvqfp0","pricing_plan_id":"cebpf4jnsgd1na2vs0mg"},{"bike_id":"98daf460-c45d-4be9-b03d-fde500644729","system_id":"levelo_inurba_marseille","lat":43.296223,"lon":5.377025,"is_reserved":false,"is_disabled":false,"rental_uris":{"android":"levelo://app?vid=98daf460-c45d-4be9-b03d-fde500644729","ios":"levelo://app?vid=98daf460-c45d-4be9-b03d-fde500644729"},"vehicle_type_id":"4","last_reported":1752740131,"current_range_meters":14000,"station_id":"","pricing_plan_id":"cebpf4jnsgd1na2vs0mg"},{"bike_id":"3444bdc6-514a-4ba6-9650-f9073305e33d","system_id":"levelo_inurba_marseille","lat":43.29682,"lon":5.3698,"is_reserved":false,"is_disabled":false,"rental_uris":{"android":"levelo://app?vid=3444bdc6-514a-4ba6-9650-f9073305e33d","ios":"levelo://app?vid=3444bdc6-514a-4ba6-9650-f9073305e33d"},"vehicle_type_id":"4","last_reported":1752740131,"current_range_meters":14000,"station_id":"","pricing_plan_id":"cebpf4jnsgd1na2vs0mg"},{"bike_id":"34e62ee5-3131-428c-842a-9ad03de94ba5","system_id":"levelo_inurba_marseille","lat":43.22505,"lon":5.34802,"is_reserved":false,"is_disabled":false,"rental_uris":{"android":"levelo://app?vid=34e62ee5-3131-428c-842a-9ad03de94ba5","ios":"levelo://app?vid=34e62ee5-3131-428c-842a-9ad03de94ba5"},"vehicle_type_id":"4","last_reported":1752740131,"current_range_meters":14000,"station_id":"st_cvj5dfep6f1abm77gieg","pricing_plan_id":"cebpf4jnsgd1na2vs0mg"},{"bike_id":"288c9cd6-5bc3-42f5-8830-0cb7eac59fcd","system_id":"levelo_inurba_marseille","lat":43.295817,"lon":5.374872,"is_reserved":false,"is_disabled":false,"rental_uris":{"android":"levelo://app?vid=288c9cd6-5bc3-42f5-8830-0cb7eac59fcd","ios":"levelo://app?vid=288c9cd6-5bc3-42f5-8830-0cb7eac59fcd"},"vehicle_type_id":"4","last_reported":1752740131,"current_range_meters":14000,"station_id":"ce4bgh92rcd13ifvqb50","pricing_plan_id":"cebpf4jnsgd1na2vs0mg"},{"bike_id":"30e0eb25-e8c5-452a-94eb-b7ada28a0f0e","system_id":"levelo_inurba_marseille","lat":43.31501,"lon":5.37301,"is_reserved":false,"is_disabled":false,"rental_uris":{"android":"levelo://app?vid=30e0eb25-e8c5-452a-94eb-b7ada28a0f0e","ios":"levelo://app?vid=30e0eb25-e8c5-452a-94eb-b7ada28a0f0e"},"vehicle_type_id":"4","last_reported":1752740131,"current_range_meters":14000,"station_id":"ce4bgt12rcd13ifvqcd0","pricing_plan_id":"cebpf4jnsgd1na2vs0mg"},{"bike_id":"8417ad62-2136-4647-b89c-f46e0aabae59","system_id":"levelo_inurba_marseille","lat":43.22931,"lon":5.353763,"is_reserved":false,"is_disabled":false,"rental_uris":{"android":"levelo://app?vid=8417ad62-2136-4647-b89c-f46e0aabae59","ios":"levelo://app?vid=8417ad62-2136-4647-b89c-f46e0aabae59"},"vehicle_type_id":"4","last_reported":1752740131,"current_range_meters":14000,"station_id":"cpo3532slgdg3j2ikp40","pricing_plan_id":"cebpf4jnsgd1na2vs0mg"},{"bike_id":"f6e67167-3686-4cae-82da-4610049996dc","system_id":"levelo_inurba_marseille","lat":43.26924,"lon":5.38543,"is_reserved":false,"is_disabled":false,"rental_uris":{"android":"levelo://app?vid=f6e67167-3686-4cae-82da-4610049996dc","ios":"levelo://app?vid=f6e67167-3686-4cae-82da-4610049996dc"},"vehicle_type_id":"4","last_reported":1752740131,"current_range_meters":14400,"station_id":"","pricing_plan_id":"cebpf4jnsgd1na2vs0mg"},{"bike_id":"4fb650f6-0159-4c85-ba95-ddee19ab911a","system_id":"levelo_inurba_marseille","lat":43.299224,"lon":5.374766,"is_reserved":false,"is_disabled":false,"rental_uris":{"android":"levelo://app?vid=4fb650f6-0159-4c85-ba95-ddee19ab911a","ios":"levelo://app?vid=4fb650f6-0159-4c85-ba95-ddee19ab911a"},"vehicle_type_id":"4","last_reported":1752740131,"current_range_meters":14400,"station_id":"ce4bgjh2rcd13ifvqbg0","pricing_plan_id":"cebpf4jnsgd1na2vs0mg"},{"bike_id":"4bbd03cb-aa8e-4af8-9eea-333a30532ebb","system_id":"levelo_inurba_marseille","lat":43.26586,"lon":5.39013,"is_reserved":false,"is_disabled":false,"rental_uris":{"android":"levelo://app?vid=4bbd03cb-aa8e-4af8-9eea-333a30532ebb","ios":"levelo://app?vid=4bbd03cb-aa8e-4af8-9eea-333a30532ebb"},"vehicle_type_id":"4","last_reported":1752740131,"current_range_meters":14400,"station_id":"ce4bhe12rcd13ifvqf30","pricing_plan_id":"cebpf4jnsgd1na2vs0mg"},{"bike_id":"4d76f8d6-5a9d-4052-abb4-ca36ec1f8b87","system_id":"levelo_inurba_marseille","lat":43.29373,"lon":5.37849,"is_reserved":false,"is_disabled":false,"rental_uris":{"android":"levelo://app?vid=4d76f8d6-5a9d-4052-abb4-ca36ec1f8b87","ios":"levelo://app?vid=4d76f8d6-5a9d-4052-abb4-ca36ec1f8b87"},"vehicle_type_id":"4","last_reported":1752740131,"current_range_meters":14400,"station_id":"ce4bgjh2rcd13ifvqbf0","pricing_plan_id":"cebpf4jnsgd1na2vs0mg"},{"bike_id":"2272a1cb-30d4-47dd-bed5-39b01483f853","system_id":"levelo_inurba_marseille","lat":43.22927,"lon":5.35374,"is_reserved":false,"is_disabled":false,"rental_uris":{"android":"levelo://app?vid=2272a1cb-30d4-47dd-bed5-39b01483f853","ios":"levelo://app?vid=2272a1cb-30d4-47dd-bed5-39b01483f853"},"vehicle_type_id":"4","last_reported":1752740131,"current_range_meters":14400,"station_id":"cpo3532slgdg3j2ikp40","pricing_plan_id":"cebpf4jnsgd1na2vs0mg"},{"bike_id":"07f5ae19-0925-43ef-aab4-48ec58bc62b9","system_id":"levelo_inurba_marseille","lat":43.31462,"lon":5.37431,"is_reserved":false,"is_disabled":false,"rental_uris":{"android":"levelo://app?vid=07f5ae19-0925-43ef-aab4-48ec58bc62b9","ios":"levelo://app?vid=07f5ae19-0925-43ef-aab4-48ec58bc62b9"},"vehicle_type_id":"4","last_reported":1752740131,"current_range_meters":14400,"station_id":"","pricing_plan_id":"cebpf4jnsgd1na2vs0mg"},{"bike_id":"9f03b8db-6540-4942-b115-c1c75d828dcb","system_id":"levelo_inurba_marseille","lat":43.25576,"lon":5.38232,"is_reserved":false,"is_disabled":false,"rental_uris":{"android":"levelo://app?vid=9f03b8db-6540-4942-b115-c1c75d828dcb","ios":"levelo://app?vid=9f03b8db-6540-4942-b115-c1c75d828dcb"},"vehicle_type_id":"4","last_reported":1752740131,"current_range_meters":14400,"station_id":"ce4bhih2rcd13ifvqfs0","pricing_plan_id":"cebpf4jnsgd1na2vs0mg"},{"bike_id":"a5f4c136-ea28-49ae-8b7c-e6449c8fbdee","system_id":"levelo_inurba_marseille","lat":43.3126,"lon":5.36869,"is_reserved":false,"is_disabled":false,"rental_uris":{"android":"levelo://app?vid=a5f4c136-ea28-49ae-8b7c-e6449c8fbdee","ios":"levelo://app?vid=a5f4c136-ea28-49ae-8b7c-e6449c8fbdee"},"vehicle_type_id":"4","last_reported":1752740131,"current_range_meters":15200,"station_id":"ce4bgl92rcd13ifvqbq0","pricing_plan_id":"cebpf4jnsgd1na2vs0mg"},{"bike_id":"daabc83d-b3b6-4259-a7f8-ac4e963def44","system_id":"levelo_inurba_marseille","lat":43.28401,"lon":5.37527,"is_reserved":false,"is_disabled":false,"rental_uris":{"android":"levelo://app?vid=daabc83d-b3b6-4259-a7f8-ac4e963def44","ios":"levelo://app?vid=daabc83d-b3b6-4259-a7f8-ac4e963def44"},"vehicle_type_id":"4","last_reported":1752740131,"current_range_meters":15200,"station_id":"ce4bh412rcd13ifvqds0","pricing_plan_id":"cebpf4jnsgd1na2vs0mg"},{"bike_id":"a141820f-bc03-45dc-a651-d083d3729cdf","system_id":"levelo_inurba_marseille","lat":43.30276,"lon":5.37701,"is_reserved":false,"is_disabled":false,"rental_uris":{"android":"levelo://app?vid=a141820f-bc03-45dc-a651-d083d3729cdf","ios":"levelo://app?vid=a141820f-bc03-45dc-a651-d083d3729cdf"},"vehicle_type_id":"4","last_reported":1752740131,"current_range_meters":15200,"station_id":"ce4bguh2rcd13ifvqcj0","pricing_plan_id":"cebpf4jnsgd1na2vs0mg"},{"bike_id":"20262d3f-3c44-42c0-8e64-8f7b5b2e6e62","system_id":"levelo_inurba_marseille","lat":43.29302,"lon":5.37457,"is_reserved":false,"is_disabled":false,"rental_uris":{"android":"levelo://app?vid=20262d3f-3c44-42c0-8e64-8f7b5b2e6e62","ios":"levelo://app?vid=20262d3f-3c44-42c0-8e64-8f7b5b2e6e62"},"vehicle_type_id":"4","last_reported":1752740131,"current_range_meters":15200,"station_id":"ce4bgi12rcd13ifvqb70","pricing_plan_id":"cebpf4jnsgd1na2vs0mg"},{"bike_id":"8acdf02c-787e-4a1e-956a-5c94a3dff06a","system_id":"levelo_inurba_marseille","lat":43.28496,"lon":5.406,"is_reserved":false,"is_disabled":false,"rental_uris":{"android":"levelo://app?vid=8acdf02c-787e-4a1e-956a-5c94a3dff06a","ios":"levelo://app?vid=8acdf02c-787e-4a1e-956a-5c94a3dff06a"},"vehicle_type_id":"4","last_reported":1752740131,"current_range_meters":15200,"station_id":"","pricing_plan_id":"cebpf4jnsgd1na2vs0mg"},{"bike_id":"04f43a27-010c-41b4-aad7-c24c3a36ef98","system_id":"levelo_inurba_marseille","lat":43.292304,"lon":5.360492,"is_reserved":false,"is_disabled":false,"rental_uris":{"android":"levelo://app?vid=04f43a27-010c-41b4-aad7-c24c3a36ef98","ios":"levelo://app?vid=04f43a27-010c-41b4-aad7-c24c3a36ef98"},"vehicle_type_id":"4","last_reported":1752740131,"current_range_meters":15200,"station_id":"","pricing_plan_id":"cebpf4jnsgd1na2vs0mg"},{"bike_id":"6cf3df5c-1e98-4c5d-8664-c17a821fcee4","system_id":"levelo_inurba_marseille","lat":43.29258,"lon":5.38251,"is_reserved":false,"is_disabled":false,"rental_uris":{"android":"levelo://app?vid=6cf3df5c-1e98-4c5d-8664-c17a821fcee4","ios":"levelo://app?vid=6cf3df5c-1e98-4c5d-8664-c17a821fcee4"},"vehicle_type_id":"4","last_reported":1752740131,"current_range_meters":15200,"station_id":"","pricing_plan_id":"cebpf4jnsgd1na2vs0mg"},{"bike_id":"bebfea8c-816d-4d78-8f5c-5d3075023194","system_id":"levelo_inurba_marseille","lat":43.31407,"lon":5.36747,"is_reserved":false,"is_disabled":false,"rental_uris":{"android":"levelo://app?vid=bebfea8c-816d-4d78-8f5c-5d3075023194","ios":"levelo://app?vid=bebfea8c-816d-4d78-8f5c-5d3075023194"},"vehicle_type_id":"4","last_reported":1752740131,"current_range_meters":15200,"station_id":"ce4bgr92rcd13ifvqc6g","pricing_plan_id":"cebpf4jnsgd1na2vs0mg"},{"bike_id":"b26b7091-cbe7-4fa2-bcf5-158dba735637","system_id":"levelo_inurba_marseille","lat":43.29798,"lon":5.38098,"is_reserved":false,"is_disabled":false,"rental_uris":{"android":"levelo://app?vid=b26b7091-cbe7-4fa2-bcf5-158dba735637","ios":"levelo://app?vid=b26b7091-cbe7-4fa2-bcf5-158dba735637"},"vehicle_type_id":"4","last_reported":1752740131,"current_range_meters":16000,"station_id":"ce4bgip2rcd13ifvqbb0","pricing_plan_id":"cebpf4jnsgd1na2vs0mg"},{"bike_id":"eb0e3055-c45b-416d-bc64-42f6047c6750","system_id":"levelo_inurba_marseille","lat":43.25884,"lon":5.40912,"is_reserved":false,"is_disabled":false,"rental_uris":{"android":"levelo://app?vid=eb0e3055-c45b-416d-bc64-42f6047c6750","ios":"levelo://app?vid=eb0e3055-c45b-416d-bc64-42f6047c6750"},"vehicle_type_id":"4","last_reported":1752740131,"current_range_meters":16000,"station_id":"ce4bhm92rcd13ifvqglg","pricing_plan_id":"cebpf4jnsgd1na2vs0mg"},{"bike_id":"1a40762c-292c-420e-83cd-892e0fb9d939","system_id":"levelo_inurba_marseille","lat":43.2931,"lon":5.37447,"is_reserved":false,"is_disabled":false,"rental_uris":{"android":"levelo://app?vid=1a40762c-292c-420e-83cd-892e0fb9d939","ios":"levelo://app?vid=1a40762c-292c-420e-83cd-892e0fb9d939"},"vehicle_type_id":"4","last_reported":1752740131,"current_range_meters":16000,"station_id":"ce4bgi12rcd13ifvqb70","pricing_plan_id":"cebpf4jnsgd1na2vs0mg"},{"bike_id":"b2f607e9-191c-4c09-b39c-6e02d0ef4b9a","system_id":"levelo_inurba_marseille","lat":43.30815,"lon":5.37676,"is_reserved":false,"is_disabled":false,"rental_uris":{"android":"levelo://app?vid=b2f607e9-191c-4c09-b39c-6e02d0ef4b9a","ios":"levelo://app?vid=b2f607e9-191c-4c09-b39c-6e02d0ef4b9a"},"vehicle_type_id":"4","last_reported":1752740131,"current_range_meters":16000,"station_id":"ce4bgv92rcd13ifvqcq0","pricing_plan_id":"cebpf4jnsgd1na2vs0mg"},{"bike_id":"855ff8f9-641c-41af-8e00-5d71e1a04e0f","system_id":"levelo_inurba_marseille","lat":43.22502,"lon":5.34777,"is_reserved":false,"is_disabled":false,"rental_uris":{"android":"levelo://app?vid=855ff8f9-641c-41af-8e00-5d71e1a04e0f","ios":"levelo://app?vid=855ff8f9-641c-41af-8e00-5d71e1a04e0f"},"vehicle_type_id":"4","last_reported":1752740131,"current_range_meters":16000,"station_id":"st_cvj5dfep6f1abm77gieg","pricing_plan_id":"cebpf4jnsgd1na2vs0mg"},{"bike_id":"0bc40bda-1ebd-42b1-8023-e51fb990abf4","system_id":"levelo_inurba_marseille","lat":43.29578,"lon":5.36746,"is_reserved":false,"is_disabled":false,"rental_uris":{"android":"levelo://app?vid=0bc40bda-1ebd-42b1-8023-e51fb990abf4","ios":"levelo://app?vid=0bc40bda-1ebd-42b1-8023-e51fb990abf4"},"vehicle_type_id":"4","last_reported":1752740131,"current_range_meters":16000,"station_id":"ce4bgph2rcd13ifvqc2g","pricing_plan_id":"cebpf4jnsgd1na2vs0mg"},{"bike_id":"e816c311-ba1b-4560-9e4d-e844541a892b","system_id":"levelo_inurba_marseille","lat":43.29934,"lon":5.3655,"is_reserved":false,"is_disabled":false,"rental_uris":{"android":"levelo://app?vid=e816c311-ba1b-4560-9e4d-e844541a892b","ios":"levelo://app?vid=e816c311-ba1b-4560-9e4d-e844541a892b"},"vehicle_type_id":"4","last_reported":1752740131,"current_range_meters":16000,"station_id":"ce4bgm92rcd13ifvqbr0","pricing_plan_id":"cebpf4jnsgd1na2vs0mg"},{"bike_id":"dab62de4-01c0-4f53-bfde-184f78541cf5","system_id":"levelo_inurba_marseille","lat":43.29846,"lon":5.3629,"is_reserved":false,"is_disabled":false,"rental_uris":{"android":"levelo://app?vid=dab62de4-01c0-4f53-bfde-184f78541cf5","ios":"levelo://app?vid=dab62de4-01c0-4f53-bfde-184f78541cf5"},"vehicle_type_id":"4","last_reported":1752740131,"current_range_meters":16000,"station_id":"ce4bgpp2rcd13ifvqc3g","pricing_plan_id":"cebpf4jnsgd1na2vs0mg"},{"bike_id":"8716a6dc-edc9-4ce8-b2db-da4e68c247be","system_id":"levelo_inurba_marseille","lat":43.295356,"lon":5.385448,"is_reserved":false,"is_disabled":true,"rental_uris":{"android":"levelo://app?vid=8716a6dc-edc9-4ce8-b2db-da4e68c247be","ios":"levelo://app?vid=8716a6dc-edc9-4ce8-b2db-da4e68c247be"},"vehicle_type_id":"4","last_reported":1752740131,"current_range_meters":16400,"station_id":"ce4bgih2rcd13ifvqba0","pricing_plan_id":"cebpf4jnsgd1na2vs0mg"},{"bike_id":"e3b6cf45-6ba9-40c1-8df4-a1127eda131a","system_id":"levelo_inurba_marseille","lat":43.30909,"lon":5.36848,"is_reserved":false,"is_disabled":false,"rental_uris":{"android":"levelo://app?vid=e3b6cf45-6ba9-40c1-8df4-a1127eda131a","ios":"levelo://app?vid=e3b6cf45-6ba9-40c1-8df4-a1127eda131a"},"vehicle_type_id":"4","last_reported":1752740131,"current_range_meters":16400,"station_id":"ce4bgn92rcd13ifvqbvg","pricing_plan_id":"cebpf4jnsgd1na2vs0mg"},{"bike_id":"7297a8c1-4a82-4f94-a715-1bbe796a9d81","system_id":"levelo_inurba_marseille","lat":43.29032,"lon":5.3997,"is_reserved":false,"is_disabled":false,"rental_uris":{"android":"levelo://app?vid=7297a8c1-4a82-4f94-a715-1bbe796a9d81","ios":"levelo://app?vid=7297a8c1-4a82-4f94-a715-1bbe796a9d81"},"vehicle_type_id":"4","last_reported":1752740131,"current_range_meters":16400,"station_id":"ce4bh392rcd13ifvqdm0","pricing_plan_id":"cebpf4jnsgd1na2vs0mg"},{"bike_id":"1a1de22c-864f-4087-990e-227151d55abc","system_id":"levelo_inurba_marseille","lat":43.2121,"lon":5.35081,"is_reserved":false,"is_disabled":false,"rental_uris":{"android":"levelo://app?vid=1a1de22c-864f-4087-990e-227151d55abc","ios":"levelo://app?vid=1a1de22c-864f-4087-990e-227151d55abc"},"vehicle_type_id":"4","last_reported":1752740131,"current_range_meters":16400,"station_id":"st_cvj6sg6p6f1abm77japg","pricing_plan_id":"cebpf4jnsgd1na2vs0mg"},{"bike_id":"6d70d6d4-7776-4d1e-a307-46e9e54de733","system_id":"levelo_inurba_marseille","lat":43.29562,"lon":5.39961,"is_reserved":false,"is_disabled":true,"rental_uris":{"android":"levelo://app?vid=6d70d6d4-7776-4d1e-a307-46e9e54de733","ios":"levelo://app?vid=6d70d6d4-7776-4d1e-a307-46e9e54de733"},"vehicle_type_id":"4","last_reported":1752740131,"current_range_meters":16400,"station_id":"ce4bh312rcd13ifvqdj0","pricing_plan_id":"cebpf4jnsgd1na2vs0mg"},{"bike_id":"5ba8f7c9-0ad6-47c8-bf86-2d463fffd637","system_id":"levelo_inurba_marseille","lat":43.30947,"lon":5.3904,"is_reserved":false,"is_disabled":false,"rental_uris":{"android":"levelo://app?vid=5ba8f7c9-0ad6-47c8-bf86-2d463fffd637","ios":"levelo://app?vid=5ba8f7c9-0ad6-47c8-bf86-2d463fffd637"},"vehicle_type_id":"4","last_reported":1752740131,"current_range_meters":16400,"station_id":"ce4bgup2rcd13ifvqco0","pricing_plan_id":"cebpf4jnsgd1na2vs0mg"},{"bike_id":"012332f9-a776-43c4-9db3-01b19351c5f0","system_id":"levelo_inurba_marseille","lat":43.2781,"lon":5.4071,"is_reserved":false,"is_disabled":false,"rental_uris":{"android":"levelo://app?vid=012332f9-a776-43c4-9db3-01b19351c5f0","ios":"levelo://app?vid=012332f9-a776-43c4-9db3-01b19351c5f0"},"vehicle_type_id":"4","last_reported":1752740131,"current_range_meters":16400,"station_id":"ce4bhnh2rcd13ifvqgtg","pricing_plan_id":"cebpf4jnsgd1na2vs0mg"},{"bike_id":"2ac93549-5c94-4228-8eea-782a21384d10","system_id":"levelo_inurba_marseille","lat":43.29634,"lon":5.37793,"is_reserved":false,"is_disabled":false,"rental_uris":{"android":"levelo://app?vid=2ac93549-5c94-4228-8eea-782a21384d10","ios":"levelo://app?vid=2ac93549-5c94-4228-8eea-782a21384d10"},"vehicle_type_id":"4","last_reported":1752740131,"current_range_meters":16400,"station_id":"","pricing_plan_id":"cebpf4jnsgd1na2vs0mg"},{"bike_id":"a06c7735-c62e-4b47-85a2-38e701fcbd91","system_id":"levelo_inurba_marseille","lat":43.2465,"lon":5.38893,"is_reserved":false,"is_disabled":false,"rental_uris":{"android":"levelo://app?vid=a06c7735-c62e-4b47-85a2-38e701fcbd91","ios":"levelo://app?vid=a06c7735-c62e-4b47-85a2-38e701fcbd91"},"vehicle_type_id":"4","last_reported":1752740131,"current_range_meters":16400,"station_id":"ce4bhg12rcd13ifvqf60","pricing_plan_id":"cebpf4jnsgd1na2vs0mg"},{"bike_id":"582d5e63-4946-44ff-8da5-cdf3e52be7b6","system_id":"levelo_inurba_marseille","lat":43.27013,"lon":5.40249,"is_reserved":false,"is_disabled":false,"rental_uris":{"android":"levelo://app?vid=582d5e63-4946-44ff-8da5-cdf3e52be7b6","ios":"levelo://app?vid=582d5e63-4946-44ff-8da5-cdf3e52be7b6"},"vehicle_type_id":"4","last_reported":1752740131,"current_range_meters":16400,"station_id":"","pricing_plan_id":"cebpf4jnsgd1na2vs0mg"},{"bike_id":"04461377-b87e-455b-a314-8128cbee6def","system_id":"levelo_inurba_marseille","lat":43.26567,"lon":5.39003,"is_reserved":false,"is_disabled":false,"rental_uris":{"android":"levelo://app?vid=04461377-b87e-455b-a314-8128cbee6def","ios":"levelo://app?vid=04461377-b87e-455b-a314-8128cbee6def"},"vehicle_type_id":"4","last_reported":1752740131,"current_range_meters":16800,"station_id":"ce4bhe12rcd13ifvqf30","pricing_plan_id":"cebpf4jnsgd1na2vs0mg"},{"bike_id":"6aed4a7f-9c3b-425a-bab4-2e7f9a3875d4","system_id":"levelo_inurba_marseille","lat":43.254892,"lon":5.376408,"is_reserved":false,"is_disabled":true,"rental_uris":{"android":"levelo://app?vid=6aed4a7f-9c3b-425a-bab4-2e7f9a3875d4","ios":"levelo://app?vid=6aed4a7f-9c3b-425a-bab4-2e7f9a3875d4"},"vehicle_type_id":"4","last_reported":1752740131,"current_range_meters":16800,"station_id":"","pricing_plan_id":"cebpf4jnsgd1na2vs0mg"},{"bike_id":"5da3416d-b229-4e6c-a1b0-92c739a5caac","system_id":"levelo_inurba_marseille","lat":43.28617,"lon":5.35106,"is_reserved":false,"is_disabled":false,"rental_uris":{"android":"levelo://app?vid=5da3416d-b229-4e6c-a1b0-92c739a5caac","ios":"levelo://app?vid=5da3416d-b229-4e6c-a1b0-92c739a5caac"},"vehicle_type_id":"4","last_reported":1752740131,"current_range_meters":16800,"station_id":"ce4bhch2rcd13ifvqeug","pricing_plan_id":"cebpf4jnsgd1na2vs0mg"},{"bike_id":"17d7c4eb-9263-4c4c-a50b-cf87650d3360","system_id":"levelo_inurba_marseille","lat":43.25095,"lon":5.3952,"is_reserved":false,"is_disabled":false,"rental_uris":{"android":"levelo://app?vid=17d7c4eb-9263-4c4c-a50b-cf87650d3360","ios":"levelo://app?vid=17d7c4eb-9263-4c4c-a50b-cf87650d3360"},"vehicle_type_id":"4","last_reported":1752740131,"current_range_meters":16800,"station_id":"ce4bhm12rcd13ifvqgkg","pricing_plan_id":"cebpf4jnsgd1na2vs0mg"},{"bike_id":"370b5495-4112-49cd-80ba-c31203562c50","system_id":"levelo_inurba_marseille","lat":43.30319,"lon":5.37964,"is_reserved":false,"is_disabled":false,"rental_uris":{"android":"levelo://app?vid=370b5495-4112-49cd-80ba-c31203562c50","ios":"levelo://app?vid=370b5495-4112-49cd-80ba-c31203562c50"},"vehicle_type_id":"4","last_reported":1752740131,"current_range_meters":16800,"station_id":"","pricing_plan_id":"cebpf4jnsgd1na2vs0mg"},{"bike_id":"a092d05c-8017-44f5-ba8a-35792463d6a3","system_id":"levelo_inurba_marseille","lat":43.225045,"lon":5.347781,"is_reserved":false,"is_disabled":false,"rental_uris":{"android":"levelo://app?vid=a092d05c-8017-44f5-ba8a-35792463d6a3","ios":"levelo://app?vid=a092d05c-8017-44f5-ba8a-35792463d6a3"},"vehicle_type_id":"4","last_reported":1752740131,"current_range_meters":16800,"station_id":"st_cvj5dfep6f1abm77gieg","pricing_plan_id":"cebpf4jnsgd1na2vs0mg"},{"bike_id":"eab9537b-893b-47b5-b14d-13822947026a","system_id":"levelo_inurba_marseille","lat":43.25928,"lon":5.40906,"is_reserved":false,"is_disabled":false,"rental_uris":{"android":"levelo://app?vid=eab9537b-893b-47b5-b14d-13822947026a","ios":"levelo://app?vid=eab9537b-893b-47b5-b14d-13822947026a"},"vehicle_type_id":"4","last_reported":1752740131,"current_range_meters":16800,"station_id":"ce4bhm92rcd13ifvqglg","pricing_plan_id":"cebpf4jnsgd1na2vs0mg"},{"bike_id":"da891840-0cec-4ccc-961c-48903736c6fa","system_id":"levelo_inurba_marseille","lat":43.31139,"lon":5.37692,"is_reserved":false,"is_disabled":false,"rental_uris":{"android":"levelo://app?vid=da891840-0cec-4ccc-961c-48903736c6fa","ios":"levelo://app?vid=da891840-0cec-4ccc-961c-48903736c6fa"},"vehicle_type_id":"4","last_reported":1752740131,"current_range_meters":16800,"station_id":"","pricing_plan_id":"cebpf4jnsgd1na2vs0mg"},{"bike_id":"e7f70464-3625-4510-be19-79d144c01267","system_id":"levelo_inurba_marseille","lat":43.29043,"lon":5.39956,"is_reserved":false,"is_disabled":false,"rental_uris":{"android":"levelo://app?vid=e7f70464-3625-4510-be19-79d144c01267","ios":"levelo://app?vid=e7f70464-3625-4510-be19-79d144c01267"},"vehicle_type_id":"4","last_reported":1752740131,"current_range_meters":16800,"station_id":"ce4bh392rcd13ifvqdm0","pricing_plan_id":"cebpf4jnsgd1na2vs0mg"},{"bike_id":"1af876d9-6e0a-45cc-bed9-deae0b87ca9c","system_id":"levelo_inurba_marseille","lat":43.211891,"lon":5.350686,"is_reserved":false,"is_disabled":false,"rental_uris":{"android":"levelo://app?vid=1af876d9-6e0a-45cc-bed9-deae0b87ca9c","ios":"levelo://app?vid=1af876d9-6e0a-45cc-bed9-deae0b87ca9c"},"vehicle_type_id":"4","last_reported":1752740131,"current_range_meters":16800,"station_id":"st_cvj6sg6p6f1abm77japg","pricing_plan_id":"cebpf4jnsgd1na2vs0mg"},{"bike_id":"e555b545-304c-4dce-8496-1643c0f2600e","system_id":"levelo_inurba_marseille","lat":43.337444,"lon":5.374475,"is_reserved":false,"is_disabled":false,"rental_uris":{"android":"levelo://app?vid=e555b545-304c-4dce-8496-1643c0f2600e","ios":"levelo://app?vid=e555b545-304c-4dce-8496-1643c0f2600e"},"vehicle_type_id":"4","last_reported":1752740131,"current_range_meters":16800,"station_id":"","pricing_plan_id":"cebpf4jnsgd1na2vs0mg"},{"bike_id":"409515f8-3415-426d-b0c7-61f840c7c187","system_id":"levelo_inurba_marseille","lat":43.22479,"lon":5.34805,"is_reserved":false,"is_disabled":false,"rental_uris":{"android":"levelo://app?vid=409515f8-3415-426d-b0c7-61f840c7c187","ios":"levelo://app?vid=409515f8-3415-426d-b0c7-61f840c7c187"},"vehicle_type_id":"4","last_reported":1752740131,"current_range_meters":16800,"station_id":"st_cvj5dfep6f1abm77gieg","pricing_plan_id":"cebpf4jnsgd1na2vs0mg"},{"bike_id":"531dca68-8617-41b0-a6cd-abffc94e1d45","system_id":"levelo_inurba_marseille","lat":43.31207,"lon":5.3731,"is_reserved":false,"is_disabled":false,"rental_uris":{"android":"levelo://app?vid=531dca68-8617-41b0-a6cd-abffc94e1d45","ios":"levelo://app?vid=531dca68-8617-41b0-a6cd-abffc94e1d45"},"vehicle_type_id":"4","last_reported":1752740131,"current_range_meters":16800,"station_id":"","pricing_plan_id":"cebpf4jnsgd1na2vs0mg"},{"bike_id":"e6c1bd98-fb38-4fb1-9bbd-b99023c945f2","system_id":"levelo_inurba_marseille","lat":43.32281,"lon":5.38269,"is_reserved":false,"is_disabled":false,"rental_uris":{"android":"levelo://app?vid=e6c1bd98-fb38-4fb1-9bbd-b99023c945f2","ios":"levelo://app?vid=e6c1bd98-fb38-4fb1-9bbd-b99023c945f2"},"vehicle_type_id":"4","last_reported":1752740131,"current_range_meters":16400,"station_id":"ce4bhr12rcd13ifvqhqg","pricing_plan_id":"cebpf4jnsgd1na2vs0mg"},{"bike_id":"81f88721-00d0-431c-83bf-446e11578408","system_id":"levelo_inurba_marseille","lat":43.22498,"lon":5.34777,"is_reserved":false,"is_disabled":false,"rental_uris":{"android":"levelo://app?vid=81f88721-00d0-431c-83bf-446e11578408","ios":"levelo://app?vid=81f88721-00d0-431c-83bf-446e11578408"},"vehicle_type_id":"4","last_reported":1752740131,"current_range_meters":16800,"station_id":"st_cvj5dfep6f1abm77gieg","pricing_plan_id":"cebpf4jnsgd1na2vs0mg"},{"bike_id":"aebeee84-419c-4ac0-8ad4-257b0df9d04f","system_id":"levelo_inurba_marseille","lat":43.33613,"lon":5.40987,"is_reserved":false,"is_disabled":false,"rental_uris":{"android":"levelo://app?vid=aebeee84-419c-4ac0-8ad4-257b0df9d04f","ios":"levelo://app?vid=aebeee84-419c-4ac0-8ad4-257b0df9d04f"},"vehicle_type_id":"4","last_reported":1752740131,"current_range_meters":17200,"station_id":"ce4bhqh2rcd13ifvqhmg","pricing_plan_id":"cebpf4jnsgd1na2vs0mg"},{"bike_id":"e6911f0f-d1bb-4246-b283-4e77f49e985e","system_id":"levelo_inurba_marseille","lat":43.26547,"lon":5.37302,"is_reserved":false,"is_disabled":false,"rental_uris":{"android":"levelo://app?vid=e6911f0f-d1bb-4246-b283-4e77f49e985e","ios":"levelo://app?vid=e6911f0f-d1bb-4246-b283-4e77f49e985e"},"vehicle_type_id":"4","last_reported":1752740131,"current_range_meters":17200,"station_id":"ce4bhg12rcd13ifvqf70","pricing_plan_id":"cebpf4jnsgd1na2vs0mg"},{"bike_id":"fcbded19-2096-4976-885f-2100c6e699f8","system_id":"levelo_inurba_marseille","lat":43.30646,"lon":5.40097,"is_reserved":false,"is_disabled":false,"rental_uris":{"android":"levelo://app?vid=fcbded19-2096-4976-885f-2100c6e699f8","ios":"levelo://app?vid=fcbded19-2096-4976-885f-2100c6e699f8"},"vehicle_type_id":"4","last_reported":1752740131,"current_range_meters":17200,"station_id":"","pricing_plan_id":"cebpf4jnsgd1na2vs0mg"},{"bike_id":"65feaf91-403f-4851-8f71-88f6861b4317","system_id":"levelo_inurba_marseille","lat":43.29573,"lon":5.37524,"is_reserved":false,"is_disabled":false,"rental_uris":{"android":"levelo://app?vid=65feaf91-403f-4851-8f71-88f6861b4317","ios":"levelo://app?vid=65feaf91-403f-4851-8f71-88f6861b4317"},"vehicle_type_id":"4","last_reported":1752740131,"current_range_meters":17200,"station_id":"ce4bgh92rcd13ifvqb50","pricing_plan_id":"cebpf4jnsgd1na2vs0mg"},{"bike_id":"3d81bf7d-01ed-4b33-9451-cbb539dac082","system_id":"levelo_inurba_marseille","lat":43.31473,"lon":5.3731,"is_reserved":false,"is_disabled":false,"rental_uris":{"android":"levelo://app?vid=3d81bf7d-01ed-4b33-9451-cbb539dac082","ios":"levelo://app?vid=3d81bf7d-01ed-4b33-9451-cbb539dac082"},"vehicle_type_id":"4","last_reported":1752740131,"current_range_meters":17600,"station_id":"ce4bgt12rcd13ifvqcd0","pricing_plan_id":"cebpf4jnsgd1na2vs0mg"},{"bike_id":"ee77f27c-f1c1-46ed-bbc3-8ed0a48c0994","system_id":"levelo_inurba_marseille","lat":43.30409,"lon":5.36741,"is_reserved":false,"is_disabled":false,"rental_uris":{"android":"levelo://app?vid=ee77f27c-f1c1-46ed-bbc3-8ed0a48c0994","ios":"levelo://app?vid=ee77f27c-f1c1-46ed-bbc3-8ed0a48c0994"},"vehicle_type_id":"4","last_reported":1752740131,"current_range_meters":17600,"station_id":"","pricing_plan_id":"cebpf4jnsgd1na2vs0mg"},{"bike_id":"3109f5e7-e634-4556-a088-ada0da4f3e42","system_id":"levelo_inurba_marseille","lat":43.29371,"lon":5.37852,"is_reserved":false,"is_disabled":false,"rental_uris":{"android":"levelo://app?vid=3109f5e7-e634-4556-a088-ada0da4f3e42","ios":"levelo://app?vid=3109f5e7-e634-4556-a088-ada0da4f3e42"},"vehicle_type_id":"4","last_reported":1752740131,"current_range_meters":17200,"station_id":"ce4bgjh2rcd13ifvqbf0","pricing_plan_id":"cebpf4jnsgd1na2vs0mg"},{"bike_id":"f91a0792-9d08-417c-ba4a-62910cc794d6","system_id":"levelo_inurba_marseille","lat":43.24074,"lon":5.3776,"is_reserved":false,"is_disabled":false,"rental_uris":{"android":"levelo://app?vid=f91a0792-9d08-417c-ba4a-62910cc794d6","ios":"levelo://app?vid=f91a0792-9d08-417c-ba4a-62910cc794d6"},"vehicle_type_id":"4","last_reported":1752740131,"current_range_meters":17600,"station_id":"ce4bhnp2rcd13ifvqgvg","pricing_plan_id":"cebpf4jnsgd1na2vs0mg"},{"bike_id":"2885d0c6-1589-4a2c-8815-61bfb2fa4477","system_id":"levelo_inurba_marseille","lat":43.28419,"lon":5.34977,"is_reserved":false,"is_disabled":false,"rental_uris":{"android":"levelo://app?vid=2885d0c6-1589-4a2c-8815-61bfb2fa4477","ios":"levelo://app?vid=2885d0c6-1589-4a2c-8815-61bfb2fa4477"},"vehicle_type_id":"4","last_reported":1752740131,"current_range_meters":17600,"station_id":"ce4bhbh2rcd13ifvqepg","pricing_plan_id":"cebpf4jnsgd1na2vs0mg"},{"bike_id":"656db50b-a5d5-422c-93da-4f47dda82cd9","system_id":"levelo_inurba_marseille","lat":43.337444,"lon":5.374475,"is_reserved":false,"is_disabled":false,"rental_uris":{"android":"levelo://app?vid=656db50b-a5d5-422c-93da-4f47dda82cd9","ios":"levelo://app?vid=656db50b-a5d5-422c-93da-4f47dda82cd9"},"vehicle_type_id":"4","last_reported":1752740131,"current_range_meters":17600,"station_id":"","pricing_plan_id":"cebpf4jnsgd1na2vs0mg"},{"bike_id":"99a6c5e7-c0c2-45f5-b145-03022f017138","system_id":"levelo_inurba_marseille","lat":43.29004,"lon":5.35612,"is_reserved":false,"is_disabled":false,"rental_uris":{"android":"levelo://app?vid=99a6c5e7-c0c2-45f5-b145-03022f017138","ios":"levelo://app?vid=99a6c5e7-c0c2-45f5-b145-03022f017138"},"vehicle_type_id":"4","last_reported":1752740131,"current_range_meters":17600,"station_id":"ce4bhb92rcd13ifvqen0","pricing_plan_id":"cebpf4jnsgd1na2vs0mg"},{"bike_id":"83190593-dbee-4571-b7e6-3b3baa1f4536","system_id":"levelo_inurba_marseille","lat":43.30562,"lon":5.38432,"is_reserved":false,"is_disabled":false,"rental_uris":{"android":"levelo://app?vid=83190593-dbee-4571-b7e6-3b3baa1f4536","ios":"levelo://app?vid=83190593-dbee-4571-b7e6-3b3baa1f4536"},"vehicle_type_id":"4","last_reported":1752740131,"current_range_meters":17600,"station_id":"ce4bgg92rcd13ifvqb30","pricing_plan_id":"cebpf4jnsgd1na2vs0mg"},{"bike_id":"e54582ed-ba92-4640-a97f-9e97144ce87f","system_id":"levelo_inurba_marseille","lat":43.32163,"lon":5.40875,"is_reserved":false,"is_disabled":false,"rental_uris":{"android":"levelo://app?vid=e54582ed-ba92-4640-a97f-9e97144ce87f","ios":"levelo://app?vid=e54582ed-ba92-4640-a97f-9e97144ce87f"},"vehicle_type_id":"4","last_reported":1752740131,"current_range_meters":17600,"station_id":"","pricing_plan_id":"cebpf4jnsgd1na2vs0mg"},{"bike_id":"27dd38c7-fe49-4d49-be31-36a4ba7521ce","system_id":"levelo_inurba_marseille","lat":43.24673,"lon":5.38156,"is_reserved":false,"is_disabled":true,"rental_uris":{"android":"levelo://app?vid=27dd38c7-fe49-4d49-be31-36a4ba7521ce","ios":"levelo://app?vid=27dd38c7-fe49-4d49-be31-36a4ba7521ce"},"vehicle_type_id":"4","last_reported":1752740131,"current_range_meters":17600,"station_id":"ce4bhih2rcd13ifvqfr0","pricing_plan_id":"cebpf4jnsgd1na2vs0mg"},{"bike_id":"e7a80f7f-2457-4010-8166-e7353573a4cf","system_id":"levelo_inurba_marseille","lat":43.30213,"lon":5.39464,"is_reserved":false,"is_disabled":true,"rental_uris":{"android":"levelo://app?vid=e7a80f7f-2457-4010-8166-e7353573a4cf","ios":"levelo://app?vid=e7a80f7f-2457-4010-8166-e7353573a4cf"},"vehicle_type_id":"4","last_reported":1752740131,"current_range_meters":18000,"station_id":"ce4bh0p2rcd13ifvqd70","pricing_plan_id":"cebpf4jnsgd1na2vs0mg"},{"bike_id":"bda2cb93-49bb-4f55-bfed-116eaeed03ef","system_id":"levelo_inurba_marseille","lat":43.30605,"lon":5.37223,"is_reserved":false,"is_disabled":false,"rental_uris":{"android":"levelo://app?vid=bda2cb93-49bb-4f55-bfed-116eaeed03ef","ios":"levelo://app?vid=bda2cb93-49bb-4f55-bfed-116eaeed03ef"},"vehicle_type_id":"4","last_reported":1752740131,"current_range_meters":18000,"station_id":"ce4bgqh2rcd13ifvqc4g","pricing_plan_id":"cebpf4jnsgd1na2vs0mg"},{"bike_id":"78df34f0-8890-4428-98cc-a3a73c717d40","system_id":"levelo_inurba_marseille","lat":43.30545,"lon":5.36556,"is_reserved":false,"is_disabled":false,"rental_uris":{"android":"levelo://app?vid=78df34f0-8890-4428-98cc-a3a73c717d40","ios":"levelo://app?vid=78df34f0-8890-4428-98cc-a3a73c717d40"},"vehicle_type_id":"4","last_reported":1752740131,"current_range_meters":18000,"station_id":"ce4bgs12rcd13ifvqcag","pricing_plan_id":"cebpf4jnsgd1na2vs0mg"},{"bike_id":"e03809d6-9f0b-400d-bbee-cbc713de1446","system_id":"levelo_inurba_marseille","lat":43.29873,"lon":5.39732,"is_reserved":false,"is_disabled":false,"rental_uris":{"android":"levelo://app?vid=e03809d6-9f0b-400d-bbee-cbc713de1446","ios":"levelo://app?vid=e03809d6-9f0b-400d-bbee-cbc713de1446"},"vehicle_type_id":"4","last_reported":1752740131,"current_range_meters":18000,"station_id":"","pricing_plan_id":"cebpf4jnsgd1na2vs0mg"},{"bike_id":"c091c135-36f0-4101-969b-7491f69113c2","system_id":"levelo_inurba_marseille","lat":43.27371,"lon":5.3626,"is_reserved":false,"is_disabled":false,"rental_uris":{"android":"levelo://app?vid=c091c135-36f0-4101-969b-7491f69113c2","ios":"levelo://app?vid=c091c135-36f0-4101-969b-7491f69113c2"},"vehicle_type_id":"4","last_reported":1752740131,"current_range_meters":18000,"station_id":"ce4bhbh2rcd13ifvqeo0","pricing_plan_id":"cebpf4jnsgd1na2vs0mg"},{"bike_id":"882748a5-a9cb-4dfc-b341-7bb04154b2ba","system_id":"levelo_inurba_marseille","lat":43.28422,"lon":5.34976,"is_reserved":false,"is_disabled":false,"rental_uris":{"android":"levelo://app?vid=882748a5-a9cb-4dfc-b341-7bb04154b2ba","ios":"levelo://app?vid=882748a5-a9cb-4dfc-b341-7bb04154b2ba"},"vehicle_type_id":"4","last_reported":1752740131,"current_range_meters":18000,"station_id":"ce4bhbh2rcd13ifvqepg","pricing_plan_id":"cebpf4jnsgd1na2vs0mg"},{"bike_id":"8c04ebf8-dced-4bbc-b343-861176867f41","system_id":"levelo_inurba_marseille","lat":43.28267,"lon":5.35067,"is_reserved":false,"is_disabled":false,"rental_uris":{"android":"levelo://app?vid=8c04ebf8-dced-4bbc-b343-861176867f41","ios":"levelo://app?vid=8c04ebf8-dced-4bbc-b343-861176867f41"},"vehicle_type_id":"4","last_reported":1752740131,"current_range_meters":18000,"station_id":"ce4bhbp2rcd13ifvqerg","pricing_plan_id":"cebpf4jnsgd1na2vs0mg"},{"bike_id":"a8ce6efe-50ae-4699-a953-570b09452efb","system_id":"levelo_inurba_marseille","lat":43.2499,"lon":5.38936,"is_reserved":false,"is_disabled":false,"rental_uris":{"android":"levelo://app?vid=a8ce6efe-50ae-4699-a953-570b09452efb","ios":"levelo://app?vid=a8ce6efe-50ae-4699-a953-570b09452efb"},"vehicle_type_id":"4","last_reported":1752740131,"current_range_meters":18000,"station_id":"ce4bhgp2rcd13ifvqfd0","pricing_plan_id":"cebpf4jnsgd1na2vs0mg"},{"bike_id":"2db880c5-3a84-4b03-a00d-e88ced7475cc","system_id":"levelo_inurba_marseille","lat":43.29025,"lon":5.3864,"is_reserved":false,"is_disabled":false,"rental_uris":{"android":"levelo://app?vid=2db880c5-3a84-4b03-a00d-e88ced7475cc","ios":"levelo://app?vid=2db880c5-3a84-4b03-a00d-e88ced7475cc"},"vehicle_type_id":"4","last_reported":1752740131,"current_range_meters":18000,"station_id":"ce4bh4p2rcd13ifvqe0g","pricing_plan_id":"cebpf4jnsgd1na2vs0mg"},{"bike_id":"6be86623-c65c-4a0d-b3a4-c58891bfa931","system_id":"levelo_inurba_marseille","lat":43.22494,"lon":5.34791,"is_reserved":false,"is_disabled":false,"rental_uris":{"android":"levelo://app?vid=6be86623-c65c-4a0d-b3a4-c58891bfa931","ios":"levelo://app?vid=6be86623-c65c-4a0d-b3a4-c58891bfa931"},"vehicle_type_id":"4","last_reported":1752740131,"current_range_meters":18800,"station_id":"st_cvj5dfep6f1abm77gieg","pricing_plan_id":"cebpf4jnsgd1na2vs0mg"},{"bike_id":"f7fe1154-c6c0-4d2b-a9f8-961e7b0c18c3","system_id":"levelo_inurba_marseille","lat":43.308194,"lon":5.36788,"is_reserved":false,"is_disabled":false,"rental_uris":{"android":"levelo://app?vid=f7fe1154-c6c0-4d2b-a9f8-961e7b0c18c3","ios":"levelo://app?vid=f7fe1154-c6c0-4d2b-a9f8-961e7b0c18c3"},"vehicle_type_id":"4","last_reported":1752740131,"current_range_meters":18800,"station_id":"ce4bgs12rcd13ifvqcag","pricing_plan_id":"cebpf4jnsgd1na2vs0mg"},{"bike_id":"bc8f9804-9d08-4e64-b974-df2af302cd2d","system_id":"levelo_inurba_marseille","lat":43.24145,"lon":5.39712,"is_reserved":false,"is_disabled":false,"rental_uris":{"android":"levelo://app?vid=bc8f9804-9d08-4e64-b974-df2af302cd2d","ios":"levelo://app?vid=bc8f9804-9d08-4e64-b974-df2af302cd2d"},"vehicle_type_id":"4","last_reported":1752740131,"current_range_meters":18800,"station_id":"ce4bhn12rcd13ifvqgpg","pricing_plan_id":"cebpf4jnsgd1na2vs0mg"},{"bike_id":"8989218a-6c0d-44de-b1c9-74480cddb14c","system_id":"levelo_inurba_marseille","lat":43.24374,"lon":5.37041,"is_reserved":false,"is_disabled":false,"rental_uris":{"android":"levelo://app?vid=8989218a-6c0d-44de-b1c9-74480cddb14c","ios":"levelo://app?vid=8989218a-6c0d-44de-b1c9-74480cddb14c"},"vehicle_type_id":"4","last_reported":1752740131,"current_range_meters":18800,"station_id":"ce4bhhh2rcd13ifvqfk0","pricing_plan_id":"cebpf4jnsgd1na2vs0mg"},{"bike_id":"e4d23322-5772-485a-910a-7f6d0cc996b2","system_id":"levelo_inurba_marseille","lat":43.31376,"lon":5.3672,"is_reserved":false,"is_disabled":false,"rental_uris":{"android":"levelo://app?vid=e4d23322-5772-485a-910a-7f6d0cc996b2","ios":"levelo://app?vid=e4d23322-5772-485a-910a-7f6d0cc996b2"},"vehicle_type_id":"4","last_reported":1752740131,"current_range_meters":18800,"station_id":"ce4bgr92rcd13ifvqc6g","pricing_plan_id":"cebpf4jnsgd1na2vs0mg"},{"bike_id":"3402f8a0-234c-4e85-8684-2ce56eddb29d","system_id":"levelo_inurba_marseille","lat":43.26213,"lon":5.378948,"is_reserved":false,"is_disabled":false,"rental_uris":{"android":"levelo://app?vid=3402f8a0-234c-4e85-8684-2ce56eddb29d","ios":"levelo://app?vid=3402f8a0-234c-4e85-8684-2ce56eddb29d"},"vehicle_type_id":"4","last_reported":1752740131,"current_range_meters":18800,"station_id":"ce4bhjp2rcd13ifvqg90","pricing_plan_id":"cebpf4jnsgd1na2vs0mg"},{"bike_id":"ed822664-f978-4865-b4d3-8b7323601ddf","system_id":"levelo_inurba_marseille","lat":43.298022,"lon":5.393572,"is_reserved":false,"is_disabled":true,"rental_uris":{"android":"levelo://app?vid=ed822664-f978-4865-b4d3-8b7323601ddf","ios":"levelo://app?vid=ed822664-f978-4865-b4d3-8b7323601ddf"},"vehicle_type_id":"4","last_reported":1752740131,"current_range_meters":18800,"station_id":"chh1huq6cuj3fo74tm60","pricing_plan_id":"cebpf4jnsgd1na2vs0mg"},{"bike_id":"dfb8fc70-c502-47af-b4b3-975def297ab2","system_id":"levelo_inurba_marseille","lat":43.24169,"lon":5.39718,"is_reserved":false,"is_disabled":false,"rental_uris":{"android":"levelo://app?vid=dfb8fc70-c502-47af-b4b3-975def297ab2","ios":"levelo://app?vid=dfb8fc70-c502-47af-b4b3-975def297ab2"},"vehicle_type_id":"4","last_reported":1752740131,"current_range_meters":18800,"station_id":"ce4bhn12rcd13ifvqgpg","pricing_plan_id":"cebpf4jnsgd1na2vs0mg"},{"bike_id":"c2dba01e-7253-4f47-be7e-556b63c0e205","system_id":"levelo_inurba_marseille","lat":43.302894,"lon":5.377112,"is_reserved":false,"is_disabled":false,"rental_uris":{"android":"levelo://app?vid=c2dba01e-7253-4f47-be7e-556b63c0e205","ios":"levelo://app?vid=c2dba01e-7253-4f47-be7e-556b63c0e205"},"vehicle_type_id":"4","last_reported":1752740131,"current_range_meters":18800,"station_id":"ce4bguh2rcd13ifvqcj0","pricing_plan_id":"cebpf4jnsgd1na2vs0mg"},{"bike_id":"050f5214-f2f0-4b36-98a9-d90482120fbd","system_id":"levelo_inurba_marseille","lat":43.34139,"lon":5.40902,"is_reserved":false,"is_disabled":false,"rental_uris":{"android":"levelo://app?vid=050f5214-f2f0-4b36-98a9-d90482120fbd","ios":"levelo://app?vid=050f5214-f2f0-4b36-98a9-d90482120fbd"},"vehicle_type_id":"4","last_reported":1752740131,"current_range_meters":18800,"station_id":"ce4bhqh2rcd13ifvqhlg","pricing_plan_id":"cebpf4jnsgd1na2vs0mg"},{"bike_id":"c6db0f6a-96fe-4e1d-8ded-c2ef38c9bab4","system_id":"levelo_inurba_marseille","lat":43.304183,"lon":5.412838,"is_reserved":false,"is_disabled":true,"rental_uris":{"android":"levelo://app?vid=c6db0f6a-96fe-4e1d-8ded-c2ef38c9bab4","ios":"levelo://app?vid=c6db0f6a-96fe-4e1d-8ded-c2ef38c9bab4"},"vehicle_type_id":"4","last_reported":1752740131,"current_range_meters":19200,"station_id":"ce4bhop2rcd13ifvqh8g","pricing_plan_id":"cebpf4jnsgd1na2vs0mg"},{"bike_id":"084eace8-045f-4012-9455-c501cad7ce10","system_id":"levelo_inurba_marseille","lat":43.22501,"lon":5.34783,"is_reserved":false,"is_disabled":false,"rental_uris":{"android":"levelo://app?vid=084eace8-045f-4012-9455-c501cad7ce10","ios":"levelo://app?vid=084eace8-045f-4012-9455-c501cad7ce10"},"vehicle_type_id":"4","last_reported":1752740131,"current_range_meters":19200,"station_id":"st_cvj5dfep6f1abm77gieg","pricing_plan_id":"cebpf4jnsgd1na2vs0mg"},{"bike_id":"5753c688-4eaf-48d5-88ee-9742d99d05df","system_id":"levelo_inurba_marseille","lat":43.30315,"lon":5.36889,"is_reserved":false,"is_disabled":false,"rental_uris":{"android":"levelo://app?vid=5753c688-4eaf-48d5-88ee-9742d99d05df","ios":"levelo://app?vid=5753c688-4eaf-48d5-88ee-9742d99d05df"},"vehicle_type_id":"4","last_reported":1752740131,"current_range_meters":19200,"station_id":"ce4bgqh2rcd13ifvqc5g","pricing_plan_id":"cebpf4jnsgd1na2vs0mg"},{"bike_id":"226cb888-ca3f-49d4-9ea2-7bdff121dd4f","system_id":"levelo_inurba_marseille","lat":43.26031,"lon":5.375462,"is_reserved":false,"is_disabled":false,"rental_uris":{"android":"levelo://app?vid=226cb888-ca3f-49d4-9ea2-7bdff121dd4f","ios":"levelo://app?vid=226cb888-ca3f-49d4-9ea2-7bdff121dd4f"},"vehicle_type_id":"4","last_reported":1752740131,"current_range_meters":19200,"station_id":"ce4bhgh2rcd13ifvqfa0","pricing_plan_id":"cebpf4jnsgd1na2vs0mg"},{"bike_id":"5b4e5f0f-cac3-450a-9463-e6a77e2c277e","system_id":"levelo_inurba_marseille","lat":43.246423,"lon":5.388921,"is_reserved":false,"is_disabled":true,"rental_uris":{"android":"levelo://app?vid=5b4e5f0f-cac3-450a-9463-e6a77e2c277e","ios":"levelo://app?vid=5b4e5f0f-cac3-450a-9463-e6a77e2c277e"},"vehicle_type_id":"4","last_reported":1752740131,"current_range_meters":19200,"station_id":"ce4bhg12rcd13ifvqf60","pricing_plan_id":"cebpf4jnsgd1na2vs0mg"},{"bike_id":"41eed013-9a5a-4ae6-99cc-0b879926f733","system_id":"levelo_inurba_marseille","lat":43.291082,"lon":5.380629,"is_reserved":false,"is_disabled":false,"rental_uris":{"android":"levelo://app?vid=41eed013-9a5a-4ae6-99cc-0b879926f733","ios":"levelo://app?vid=41eed013-9a5a-4ae6-99cc-0b879926f733"},"vehicle_type_id":"4","last_reported":1752740131,"current_range_meters":19200,"station_id":"ce4bh4p2rcd13ifvqe1g","pricing_plan_id":"cebpf4jnsgd1na2vs0mg"},{"bike_id":"f99ff1e4-4111-475a-aa3e-cb902d081040","system_id":"levelo_inurba_marseille","lat":43.23198,"lon":5.35549,"is_reserved":false,"is_disabled":false,"rental_uris":{"android":"levelo://app?vid=f99ff1e4-4111-475a-aa3e-cb902d081040","ios":"levelo://app?vid=f99ff1e4-4111-475a-aa3e-cb902d081040"},"vehicle_type_id":"4","last_reported":1752740131,"current_range_meters":19600,"station_id":"ce4bhu92rcd13ifvqi70","pricing_plan_id":"cebpf4jnsgd1na2vs0mg"},{"bike_id":"271d28a5-af65-407b-87e1-85d0db1d544d","system_id":"levelo_inurba_marseille","lat":43.3095,"lon":5.39039,"is_reserved":false,"is_disabled":false,"rental_uris":{"android":"levelo://app?vid=271d28a5-af65-407b-87e1-85d0db1d544d","ios":"levelo://app?vid=271d28a5-af65-407b-87e1-85d0db1d544d"},"vehicle_type_id":"4","last_reported":1752740131,"current_range_meters":19600,"station_id":"ce4bgup2rcd13ifvqco0","pricing_plan_id":"cebpf4jnsgd1na2vs0mg"},{"bike_id":"f520d64b-4a75-4d49-8ba2-1676070fcaac","system_id":"levelo_inurba_marseille","lat":43.30543,"lon":5.36532,"is_reserved":false,"is_disabled":false,"rental_uris":{"android":"levelo://app?vid=f520d64b-4a75-4d49-8ba2-1676070fcaac","ios":"levelo://app?vid=f520d64b-4a75-4d49-8ba2-1676070fcaac"},"vehicle_type_id":"4","last_reported":1752740131,"current_range_meters":19600,"station_id":"ce4bgs12rcd13ifvqcag","pricing_plan_id":"cebpf4jnsgd1na2vs0mg"},{"bike_id":"bd3be985-991d-42ee-9d15-815db6e058b3","system_id":"levelo_inurba_marseille","lat":43.30827,"lon":5.37916,"is_reserved":false,"is_disabled":false,"rental_uris":{"android":"levelo://app?vid=bd3be985-991d-42ee-9d15-815db6e058b3","ios":"levelo://app?vid=bd3be985-991d-42ee-9d15-815db6e058b3"},"vehicle_type_id":"4","last_reported":1752740131,"current_range_meters":19600,"station_id":"","pricing_plan_id":"cebpf4jnsgd1na2vs0mg"},{"bike_id":"6f1080d9-b64e-4584-bd71-4fc4c564cda9","system_id":"levelo_inurba_marseille","lat":43.29295,"lon":5.37459,"is_reserved":false,"is_disabled":false,"rental_uris":{"android":"levelo://app?vid=6f1080d9-b64e-4584-bd71-4fc4c564cda9","ios":"levelo://app?vid=6f1080d9-b64e-4584-bd71-4fc4c564cda9"},"vehicle_type_id":"4","last_reported":1752740131,"current_range_meters":19600,"station_id":"ce4bgi12rcd13ifvqb70","pricing_plan_id":"cebpf4jnsgd1na2vs0mg"},{"bike_id":"fa4a37f3-4464-4e13-8e28-4d5fa841977b","system_id":"levelo_inurba_marseille","lat":43.26035,"lon":5.37545,"is_reserved":false,"is_disabled":false,"rental_uris":{"android":"levelo://app?vid=fa4a37f3-4464-4e13-8e28-4d5fa841977b","ios":"levelo://app?vid=fa4a37f3-4464-4e13-8e28-4d5fa841977b"},"vehicle_type_id":"4","last_reported":1752740131,"current_range_meters":19600,"station_id":"","pricing_plan_id":"cebpf4jnsgd1na2vs0mg"},{"bike_id":"ea75efb2-ac36-4344-b925-58a5bd2f6327","system_id":"levelo_inurba_marseille","lat":43.271854,"lon":5.362776,"is_reserved":false,"is_disabled":false,"rental_uris":{"android":"levelo://app?vid=ea75efb2-ac36-4344-b925-58a5bd2f6327","ios":"levelo://app?vid=ea75efb2-ac36-4344-b925-58a5bd2f6327"},"vehicle_type_id":"4","last_reported":1752740131,"current_range_meters":19600,"station_id":"","pricing_plan_id":"cebpf4jnsgd1na2vs0mg"},{"bike_id":"f7871977-67b7-4eb2-8fee-277da5d52351","system_id":"levelo_inurba_marseille","lat":43.30284,"lon":5.377109,"is_reserved":false,"is_disabled":false,"rental_uris":{"android":"levelo://app?vid=f7871977-67b7-4eb2-8fee-277da5d52351","ios":"levelo://app?vid=f7871977-67b7-4eb2-8fee-277da5d52351"},"vehicle_type_id":"4","last_reported":1752740131,"current_range_meters":19600,"station_id":"ce4bguh2rcd13ifvqcj0","pricing_plan_id":"cebpf4jnsgd1na2vs0mg"},{"bike_id":"e27850cc-a795-4c43-bfd4-586148cd3686","system_id":"levelo_inurba_marseille","lat":43.26684,"lon":5.38277,"is_reserved":false,"is_disabled":false,"rental_uris":{"android":"levelo://app?vid=e27850cc-a795-4c43-bfd4-586148cd3686","ios":"levelo://app?vid=e27850cc-a795-4c43-bfd4-586148cd3686"},"vehicle_type_id":"4","last_reported":1752740131,"current_range_meters":19600,"station_id":"ce4bhg92rcd13ifvqf90","pricing_plan_id":"cebpf4jnsgd1na2vs0mg"},{"bike_id":"1fa6e47a-247c-43f3-a2d5-2457ee6c5d39","system_id":"levelo_inurba_marseille","lat":43.2119,"lon":5.35067,"is_reserved":false,"is_disabled":false,"rental_uris":{"android":"levelo://app?vid=1fa6e47a-247c-43f3-a2d5-2457ee6c5d39","ios":"levelo://app?vid=1fa6e47a-247c-43f3-a2d5-2457ee6c5d39"},"vehicle_type_id":"4","last_reported":1752740131,"current_range_meters":19600,"station_id":"st_cvj6sg6p6f1abm77japg","pricing_plan_id":"cebpf4jnsgd1na2vs0mg"},{"bike_id":"4c0580d4-f2e2-4c67-8250-a65c39c0f7d6","system_id":"levelo_inurba_marseille","lat":43.22493,"lon":5.3478,"is_reserved":false,"is_disabled":false,"rental_uris":{"android":"levelo://app?vid=4c0580d4-f2e2-4c67-8250-a65c39c0f7d6","ios":"levelo://app?vid=4c0580d4-f2e2-4c67-8250-a65c39c0f7d6"},"vehicle_type_id":"4","last_reported":1752740131,"current_range_meters":19600,"station_id":"st_cvj5dfep6f1abm77gieg","pricing_plan_id":"cebpf4jnsgd1na2vs0mg"},{"bike_id":"9e46aa88-7b19-47c3-b789-71b8902b53cb","system_id":"levelo_inurba_marseille","lat":43.28157,"lon":5.42622,"is_reserved":false,"is_disabled":false,"rental_uris":{"android":"levelo://app?vid=9e46aa88-7b19-47c3-b789-71b8902b53cb","ios":"levelo://app?vid=9e46aa88-7b19-47c3-b789-71b8902b53cb"},"vehicle_type_id":"4","last_reported":1752740131,"current_range_meters":19600,"station_id":"ce4bhnh2rcd13ifvqgug","pricing_plan_id":"cebpf4jnsgd1na2vs0mg"},{"bike_id":"0912b2cc-efad-4219-85cb-086baa31f561","system_id":"levelo_inurba_marseille","lat":43.28035,"lon":5.36921,"is_reserved":false,"is_disabled":false,"rental_uris":{"android":"levelo://app?vid=0912b2cc-efad-4219-85cb-086baa31f561","ios":"levelo://app?vid=0912b2cc-efad-4219-85cb-086baa31f561"},"vehicle_type_id":"4","last_reported":1752740131,"current_range_meters":20000,"station_id":"ce4bha12rcd13ifvqef0","pricing_plan_id":"cebpf4jnsgd1na2vs0mg"},{"bike_id":"9871f93a-4f9e-475b-bd81-ed55735f422f","system_id":"levelo_inurba_marseille","lat":43.27386,"lon":5.36251,"is_reserved":false,"is_disabled":true,"rental_uris":{"android":"levelo://app?vid=9871f93a-4f9e-475b-bd81-ed55735f422f","ios":"levelo://app?vid=9871f93a-4f9e-475b-bd81-ed55735f422f"},"vehicle_type_id":"4","last_reported":1752740131,"current_range_meters":20000,"station_id":"ce4bhbh2rcd13ifvqeo0","pricing_plan_id":"cebpf4jnsgd1na2vs0mg"},{"bike_id":"72790707-035c-4bca-b9bf-a8b4e9ad2919","system_id":"levelo_inurba_marseille","lat":43.23148,"lon":5.43726,"is_reserved":false,"is_disabled":false,"rental_uris":{"android":"levelo://app?vid=72790707-035c-4bca-b9bf-a8b4e9ad2919","ios":"levelo://app?vid=72790707-035c-4bca-b9bf-a8b4e9ad2919"},"vehicle_type_id":"4","last_reported":1752740131,"current_range_meters":20000,"station_id":"ce4bhmp2rcd13ifvqgog","pricing_plan_id":"cebpf4jnsgd1na2vs0mg"},{"bike_id":"ac0ed4be-466c-4caa-b855-3c6bbe5a11b5","system_id":"levelo_inurba_marseille","lat":43.267619,"lon":5.371874,"is_reserved":false,"is_disabled":false,"rental_uris":{"android":"levelo://app?vid=ac0ed4be-466c-4caa-b855-3c6bbe5a11b5","ios":"levelo://app?vid=ac0ed4be-466c-4caa-b855-3c6bbe5a11b5"},"vehicle_type_id":"4","last_reported":1752740131,"current_range_meters":20000,"station_id":"","pricing_plan_id":"cebpf4jnsgd1na2vs0mg"},{"bike_id":"e63db760-60f2-4063-aa2b-9e0100a40135","system_id":"levelo_inurba_marseille","lat":43.30732,"lon":5.42464,"is_reserved":false,"is_disabled":false,"rental_uris":{"android":"levelo://app?vid=e63db760-60f2-4063-aa2b-9e0100a40135","ios":"levelo://app?vid=e63db760-60f2-4063-aa2b-9e0100a40135"},"vehicle_type_id":"4","last_reported":1752740131,"current_range_meters":20000,"station_id":"st_cvj6ca6bvosntc0bfgr0","pricing_plan_id":"cebpf4jnsgd1na2vs0mg"},{"bike_id":"ce40837d-3edf-4cc2-a747-2f8d4ee2c7fb","system_id":"levelo_inurba_marseille","lat":43.22502,"lon":5.34766,"is_reserved":false,"is_disabled":false,"rental_uris":{"android":"levelo://app?vid=ce40837d-3edf-4cc2-a747-2f8d4ee2c7fb","ios":"levelo://app?vid=ce40837d-3edf-4cc2-a747-2f8d4ee2c7fb"},"vehicle_type_id":"4","last_reported":1752740131,"current_range_meters":20000,"station_id":"st_cvj5dfep6f1abm77gieg","pricing_plan_id":"cebpf4jnsgd1na2vs0mg"},{"bike_id":"ce7bd25b-5213-4881-a28b-f582e6a1d712","system_id":"levelo_inurba_marseille","lat":43.31373,"lon":5.36682,"is_reserved":false,"is_disabled":true,"rental_uris":{"android":"levelo://app?vid=ce7bd25b-5213-4881-a28b-f582e6a1d712","ios":"levelo://app?vid=ce7bd25b-5213-4881-a28b-f582e6a1d712"},"vehicle_type_id":"4","last_reported":1752740131,"current_range_meters":20000,"station_id":"ce4bgr92rcd13ifvqc6g","pricing_plan_id":"cebpf4jnsgd1na2vs0mg"},{"bike_id":"57673fd9-e9a8-4292-9f48-49558084ac5a","system_id":"levelo_inurba_marseille","lat":43.30537,"lon":5.36529,"is_reserved":false,"is_disabled":false,"rental_uris":{"android":"levelo://app?vid=57673fd9-e9a8-4292-9f48-49558084ac5a","ios":"levelo://app?vid=57673fd9-e9a8-4292-9f48-49558084ac5a"},"vehicle_type_id":"4","last_reported":1752740131,"current_range_meters":20000,"station_id":"ce4bgs12rcd13ifvqcag","pricing_plan_id":"cebpf4jnsgd1na2vs0mg"},{"bike_id":"03c4e37a-9d44-4a60-b09e-c2fe99e2bf34","system_id":"levelo_inurba_marseille","lat":43.22927,"lon":5.35376,"is_reserved":false,"is_disabled":false,"rental_uris":{"android":"levelo://app?vid=03c4e37a-9d44-4a60-b09e-c2fe99e2bf34","ios":"levelo://app?vid=03c4e37a-9d44-4a60-b09e-c2fe99e2bf34"},"vehicle_type_id":"4","last_reported":1752740131,"current_range_meters":20000,"station_id":"cpo3532slgdg3j2ikp40","pricing_plan_id":"cebpf4jnsgd1na2vs0mg"},{"bike_id":"d1db51d3-dc54-42ea-873d-a74c192b1070","system_id":"levelo_inurba_marseille","lat":43.24385,"lon":5.37056,"is_reserved":false,"is_disabled":false,"rental_uris":{"android":"levelo://app?vid=d1db51d3-dc54-42ea-873d-a74c192b1070","ios":"levelo://app?vid=d1db51d3-dc54-42ea-873d-a74c192b1070"},"vehicle_type_id":"4","last_reported":1752740131,"current_range_meters":20400,"station_id":"ce4bhhh2rcd13ifvqfk0","pricing_plan_id":"cebpf4jnsgd1na2vs0mg"},{"bike_id":"af445d04-545e-4008-bf6d-71b2068dfacf","system_id":"levelo_inurba_marseille","lat":43.29896,"lon":5.43654,"is_reserved":false,"is_disabled":false,"rental_uris":{"android":"levelo://app?vid=af445d04-545e-4008-bf6d-71b2068dfacf","ios":"levelo://app?vid=af445d04-545e-4008-bf6d-71b2068dfacf"},"vehicle_type_id":"4","last_reported":1752740131,"current_range_meters":20400,"station_id":"ce4bhpp2rcd13ifvqhfg","pricing_plan_id":"cebpf4jnsgd1na2vs0mg"},{"bike_id":"e46cf8b3-4b53-4dee-b218-8cd512f2f84c","system_id":"levelo_inurba_marseille","lat":43.283203,"lon":5.381151,"is_reserved":false,"is_disabled":false,"rental_uris":{"android":"levelo://app?vid=e46cf8b3-4b53-4dee-b218-8cd512f2f84c","ios":"levelo://app?vid=e46cf8b3-4b53-4dee-b218-8cd512f2f84c"},"vehicle_type_id":"4","last_reported":1752740131,"current_range_meters":20400,"station_id":"ce4bh412rcd13ifvqdr0","pricing_plan_id":"cebpf4jnsgd1na2vs0mg"},{"bike_id":"50fb0c55-1fa8-4e90-a553-7838794d6d2b","system_id":"levelo_inurba_marseille","lat":43.29899,"lon":5.43667,"is_reserved":false,"is_disabled":false,"rental_uris":{"android":"levelo://app?vid=50fb0c55-1fa8-4e90-a553-7838794d6d2b","ios":"levelo://app?vid=50fb0c55-1fa8-4e90-a553-7838794d6d2b"},"vehicle_type_id":"4","last_reported":1752740131,"current_range_meters":20000,"station_id":"ce4bhpp2rcd13ifvqhfg","pricing_plan_id":"cebpf4jnsgd1na2vs0mg"},{"bike_id":"c9d5a1d9-020f-4409-8f66-bb9c9a357f78","system_id":"levelo_inurba_marseille","lat":43.299405,"lon":5.365599,"is_reserved":false,"is_disabled":false,"rental_uris":{"android":"levelo://app?vid=c9d5a1d9-020f-4409-8f66-bb9c9a357f78","ios":"levelo://app?vid=c9d5a1d9-020f-4409-8f66-bb9c9a357f78"},"vehicle_type_id":"4","last_reported":1752740131,"current_range_meters":20400,"station_id":"ce4bgm92rcd13ifvqbr0","pricing_plan_id":"cebpf4jnsgd1na2vs0mg"},{"bike_id":"86d398e7-3ab0-449d-bca0-747a9f49b8f5","system_id":"levelo_inurba_marseille","lat":43.27495,"lon":5.42433,"is_reserved":false,"is_disabled":false,"rental_uris":{"android":"levelo://app?vid=86d398e7-3ab0-449d-bca0-747a9f49b8f5","ios":"levelo://app?vid=86d398e7-3ab0-449d-bca0-747a9f49b8f5"},"vehicle_type_id":"4","last_reported":1752740131,"current_range_meters":20400,"station_id":"ce4bhn92rcd13ifvqgrg","pricing_plan_id":"cebpf4jnsgd1na2vs0mg"},{"bike_id":"674cdaff-d950-4b24-8f4d-7828484dc7c7","system_id":"levelo_inurba_marseille","lat":43.255813,"lon":5.382197,"is_reserved":false,"is_disabled":false,"rental_uris":{"android":"levelo://app?vid=674cdaff-d950-4b24-8f4d-7828484dc7c7","ios":"levelo://app?vid=674cdaff-d950-4b24-8f4d-7828484dc7c7"},"vehicle_type_id":"4","last_reported":1752740131,"current_range_meters":20400,"station_id":"ce4bhih2rcd13ifvqfs0","pricing_plan_id":"cebpf4jnsgd1na2vs0mg"},{"bike_id":"1ea2a040-e84c-4a9f-8a96-cefaa8359ecd","system_id":"levelo_inurba_marseille","lat":43.28492,"lon":5.35878,"is_reserved":false,"is_disabled":true,"rental_uris":{"android":"levelo://app?vid=1ea2a040-e84c-4a9f-8a96-cefaa8359ecd","ios":"levelo://app?vid=1ea2a040-e84c-4a9f-8a96-cefaa8359ecd"},"vehicle_type_id":"4","last_reported":1752740131,"current_range_meters":20400,"station_id":"ce4bhah2rcd13ifvqei0","pricing_plan_id":"cebpf4jnsgd1na2vs0mg"},{"bike_id":"a67156ae-789e-45f5-ab3f-ed7d95b24540","system_id":"levelo_inurba_marseille","lat":43.21191,"lon":5.35069,"is_reserved":false,"is_disabled":false,"rental_uris":{"android":"levelo://app?vid=a67156ae-789e-45f5-ab3f-ed7d95b24540","ios":"levelo://app?vid=a67156ae-789e-45f5-ab3f-ed7d95b24540"},"vehicle_type_id":"4","last_reported":1752740131,"current_range_meters":20400,"station_id":"st_cvj6sg6p6f1abm77japg","pricing_plan_id":"cebpf4jnsgd1na2vs0mg"},{"bike_id":"e3fd731a-fecd-45ef-a255-73ddc5c3a625","system_id":"levelo_inurba_marseille","lat":43.30954,"lon":5.39033,"is_reserved":false,"is_disabled":false,"rental_uris":{"android":"levelo://app?vid=e3fd731a-fecd-45ef-a255-73ddc5c3a625","ios":"levelo://app?vid=e3fd731a-fecd-45ef-a255-73ddc5c3a625"},"vehicle_type_id":"4","last_reported":1752740131,"current_range_meters":20400,"station_id":"ce4bgup2rcd13ifvqco0","pricing_plan_id":"cebpf4jnsgd1na2vs0mg"},{"bike_id":"ab20bfe3-225d-44d2-be6f-29bbe737c98f","system_id":"levelo_inurba_marseille","lat":43.26062,"lon":5.39391,"is_reserved":false,"is_disabled":true,"rental_uris":{"android":"levelo://app?vid=ab20bfe3-225d-44d2-be6f-29bbe737c98f","ios":"levelo://app?vid=ab20bfe3-225d-44d2-be6f-29bbe737c98f"},"vehicle_type_id":"4","last_reported":1752740131,"current_range_meters":20400,"station_id":"ce4bhh92rcd13ifvqfj0","pricing_plan_id":"cebpf4jnsgd1na2vs0mg"},{"bike_id":"c83e5866-3057-41c7-b1dc-bfd42f8bcd2a","system_id":"levelo_inurba_marseille","lat":43.23134,"lon":5.43713,"is_reserved":false,"is_disabled":false,"rental_uris":{"android":"levelo://app?vid=c83e5866-3057-41c7-b1dc-bfd42f8bcd2a","ios":"levelo://app?vid=c83e5866-3057-41c7-b1dc-bfd42f8bcd2a"},"vehicle_type_id":"4","last_reported":1752740131,"current_range_meters":20800,"station_id":"ce4bhmp2rcd13ifvqgog","pricing_plan_id":"cebpf4jnsgd1na2vs0mg"},{"bike_id":"646f850c-2e83-4901-bbf8-3d795c0e3113","system_id":"levelo_inurba_marseille","lat":43.29026,"lon":5.39969,"is_reserved":false,"is_disabled":false,"rental_uris":{"android":"levelo://app?vid=646f850c-2e83-4901-bbf8-3d795c0e3113","ios":"levelo://app?vid=646f850c-2e83-4901-bbf8-3d795c0e3113"},"vehicle_type_id":"4","last_reported":1752740131,"current_range_meters":20800,"station_id":"ce4bh392rcd13ifvqdm0","pricing_plan_id":"cebpf4jnsgd1na2vs0mg"},{"bike_id":"9fef0b4a-768e-4186-bce2-f861f138806a","system_id":"levelo_inurba_marseille","lat":43.27945,"lon":5.41035,"is_reserved":false,"is_disabled":false,"rental_uris":{"android":"levelo://app?vid=9fef0b4a-768e-4186-bce2-f861f138806a","ios":"levelo://app?vid=9fef0b4a-768e-4186-bce2-f861f138806a"},"vehicle_type_id":"4","last_reported":1752740131,"current_range_meters":20800,"station_id":"ce4bhnp2rcd13ifvqh0g","pricing_plan_id":"cebpf4jnsgd1na2vs0mg"},{"bike_id":"4b8aac5a-b339-4881-8ed6-269715318799","system_id":"levelo_inurba_marseille","lat":43.26681,"lon":5.38266,"is_reserved":false,"is_disabled":false,"rental_uris":{"android":"levelo://app?vid=4b8aac5a-b339-4881-8ed6-269715318799","ios":"levelo://app?vid=4b8aac5a-b339-4881-8ed6-269715318799"},"vehicle_type_id":"4","last_reported":1752740131,"current_range_meters":20800,"station_id":"ce4bhg92rcd13ifvqf90","pricing_plan_id":"cebpf4jnsgd1na2vs0mg"},{"bike_id":"c120b10e-3c54-499a-96f4-fb08d196aabd","system_id":"levelo_inurba_marseille","lat":43.260266,"lon":5.375489,"is_reserved":false,"is_disabled":false,"rental_uris":{"android":"levelo://app?vid=c120b10e-3c54-499a-96f4-fb08d196aabd","ios":"levelo://app?vid=c120b10e-3c54-499a-96f4-fb08d196aabd"},"vehicle_type_id":"4","last_reported":1752740131,"current_range_meters":20800,"station_id":"ce4bh112rcd13ifvqda0","pricing_plan_id":"cebpf4jnsgd1na2vs0mg"},{"bike_id":"db42604b-c15c-49d3-b62c-7cc2ce8e29c6","system_id":"levelo_inurba_marseille","lat":43.21201,"lon":5.35069,"is_reserved":false,"is_disabled":false,"rental_uris":{"android":"levelo://app?vid=db42604b-c15c-49d3-b62c-7cc2ce8e29c6","ios":"levelo://app?vid=db42604b-c15c-49d3-b62c-7cc2ce8e29c6"},"vehicle_type_id":"4","last_reported":1752740131,"current_range_meters":20800,"station_id":"st_cvj6sg6p6f1abm77japg","pricing_plan_id":"cebpf4jnsgd1na2vs0mg"},{"bike_id":"4d758b88-e88e-4f43-bd71-574569719989","system_id":"levelo_inurba_marseille","lat":43.31217,"lon":5.36848,"is_reserved":false,"is_disabled":false,"rental_uris":{"android":"levelo://app?vid=4d758b88-e88e-4f43-bd71-574569719989","ios":"levelo://app?vid=4d758b88-e88e-4f43-bd71-574569719989"},"vehicle_type_id":"4","last_reported":1752740131,"current_range_meters":20800,"station_id":"ce4bgl92rcd13ifvqbq0","pricing_plan_id":"cebpf4jnsgd1na2vs0mg"},{"bike_id":"f6b4ddb5-562f-4340-8f5e-aca86cea9f34","system_id":"levelo_inurba_marseille","lat":43.30912,"lon":5.36845,"is_reserved":false,"is_disabled":false,"rental_uris":{"android":"levelo://app?vid=f6b4ddb5-562f-4340-8f5e-aca86cea9f34","ios":"levelo://app?vid=f6b4ddb5-562f-4340-8f5e-aca86cea9f34"},"vehicle_type_id":"4","last_reported":1752740131,"current_range_meters":20800,"station_id":"ce4bgn92rcd13ifvqbvg","pricing_plan_id":"cebpf4jnsgd1na2vs0mg"},{"bike_id":"5ac93e7c-286a-4c1e-b6c0-4e9963e5a9f8","system_id":"levelo_inurba_marseille","lat":43.21197,"lon":5.3508,"is_reserved":false,"is_disabled":false,"rental_uris":{"android":"levelo://app?vid=5ac93e7c-286a-4c1e-b6c0-4e9963e5a9f8","ios":"levelo://app?vid=5ac93e7c-286a-4c1e-b6c0-4e9963e5a9f8"},"vehicle_type_id":"4","last_reported":1752740131,"current_range_meters":20800,"station_id":"st_cvj6sg6p6f1abm77japg","pricing_plan_id":"cebpf4jnsgd1na2vs0mg"},{"bike_id":"440ae106-0952-478f-b910-2ffbf3fc87f3","system_id":"levelo_inurba_marseille","lat":43.30133,"lon":5.38786,"is_reserved":false,"is_disabled":false,"rental_uris":{"android":"levelo://app?vid=440ae106-0952-478f-b910-2ffbf3fc87f3","ios":"levelo://app?vid=440ae106-0952-478f-b910-2ffbf3fc87f3"},"vehicle_type_id":"4","last_reported":1752740131,"current_range_meters":20800,"station_id":"ce4bghh2rcd13ifvqb60","pricing_plan_id":"cebpf4jnsgd1na2vs0mg"},{"bike_id":"58cb234b-86ec-4b63-99db-717c732d6291","system_id":"levelo_inurba_marseille","lat":43.31235,"lon":5.36853,"is_reserved":false,"is_disabled":false,"rental_uris":{"android":"levelo://app?vid=58cb234b-86ec-4b63-99db-717c732d6291","ios":"levelo://app?vid=58cb234b-86ec-4b63-99db-717c732d6291"},"vehicle_type_id":"4","last_reported":1752740131,"current_range_meters":21600,"station_id":"ce4bgl92rcd13ifvqbq0","pricing_plan_id":"cebpf4jnsgd1na2vs0mg"},{"bike_id":"779b81eb-cc29-443d-84b4-249483187b6b","system_id":"levelo_inurba_marseille","lat":43.303756,"lon":5.424851,"is_reserved":false,"is_disabled":false,"rental_uris":{"android":"levelo://app?vid=779b81eb-cc29-443d-84b4-249483187b6b","ios":"levelo://app?vid=779b81eb-cc29-443d-84b4-249483187b6b"},"vehicle_type_id":"4","last_reported":1752740131,"current_range_meters":21600,"station_id":"ce4bhoh2rcd13ifvqh6g","pricing_plan_id":"cebpf4jnsgd1na2vs0mg"},{"bike_id":"8ce9b80c-19c6-4985-81c6-50f285c26740","system_id":"levelo_inurba_marseille","lat":43.23959,"lon":5.36626,"is_reserved":false,"is_disabled":false,"rental_uris":{"android":"levelo://app?vid=8ce9b80c-19c6-4985-81c6-50f285c26740","ios":"levelo://app?vid=8ce9b80c-19c6-4985-81c6-50f285c26740"},"vehicle_type_id":"4","last_reported":1752740131,"current_range_meters":21600,"station_id":"ce4bhi12rcd13ifvqfp0","pricing_plan_id":"cebpf4jnsgd1na2vs0mg"},{"bike_id":"6a89573a-ec5f-4d15-875a-9e23e767158d","system_id":"levelo_inurba_marseille","lat":43.30575,"lon":5.37196,"is_reserved":false,"is_disabled":false,"rental_uris":{"android":"levelo://app?vid=6a89573a-ec5f-4d15-875a-9e23e767158d","ios":"levelo://app?vid=6a89573a-ec5f-4d15-875a-9e23e767158d"},"vehicle_type_id":"4","last_reported":1752740131,"current_range_meters":21600,"station_id":"ce4bgqh2rcd13ifvqc4g","pricing_plan_id":"cebpf4jnsgd1na2vs0mg"},