{"last_updated":1744837752,"ttl":60,"version":"2.2","data":{"bikes":[{"bike_id":"a79cb711-e0f1-4b49-883e-c2aa9228d08e","system_id":"levelo_inurba_marseille","lat":43.25001,"lon":5.38923,"is_reserved":false,"is_disabled":false,"rental_uris":{"android":"levelo://app?vid=a79cb711-e0f1-4b49-883e-c2aa9228d08e","ios":"levelo://app?vid=a79cb711-e0f1-4b49-883e-c2aa9228d08e"},"vehicle_type_id":"4","last_reported":1744837753,"current_range_meters":3200,"station_id":"ce4bhgp2rcd13ifvqfd0","pricing_plan_id":"cebpf4jnsgd1na2vs0mg"},{"bike_id":"215dca13-9b27-4600-855c-872bd2bda1b6","system_id":"levelo_inurba_marseille","lat":43.30888,"lon":5.3963,"is_reserved":false,"is_disabled":true,"rental_uris":{"android":"levelo://app?vid=215dca13-9b27-4600-855c-872bd2bda1b6","ios":"levelo://app?vid=215dca13-9b27-4600-855c-872bd2bda1b6"},"vehicle_type_id":"4","last_reported":1744837753,"current_range_meters":3600,"station_id":"ce4bh012rcd13ifvqcv0","pricing_plan_id":"cebpf4jnsgd1na2vs0mg"},{"bike_id":"829f3683-c287-4d6f-92bc-edf58824bda1","system_id":"levelo_inurba_marseille","lat":43.28573,"lon":5.39496,"is_reserved":false,"is_disabled":false,"rental_uris":{"android":"levelo://app?vid=829f3683-c287-4d6f-92bc-edf58824bda1","ios":"levelo://app?vid=829f3683-c287-4d6f-92bc-edf58824bda1"},"vehicle_type_id":"4","last_reported":1744837753,"current_range_meters":3600,"station_id":"ce4bh292rcd13ifvqdg0","pricing_plan_id":"cebpf4jnsgd1na2vs0mg"},{"bike_id":"4e86856d-a625-4324-b5d8-86c2a54c24fe","system_id":"levelo_inurba_marseille","lat":43.30954,"lon":5.39025,"is_reserved":false,"is_disabled":false,"rental_uris":{"android":"levelo://app?vid=4e86856d-a625-4324-b5d8-86c2a54c24fe","ios":"levelo://app?vid=4e86856d-a625-4324-b5d8-86c2a54c24fe"},"vehicle_type_id":"4","last_reported":1744837753,"current_range_meters":3600,"station_id":"ce4bgl92rcd13ifvqbq0","pricing_plan_id":"cebpf4jnsgd1na2vs0mg"},{"bike_id":"eca7dcad-8489-4164-84a3-1781088dd692","system_id":"levelo_inurba_marseille","lat":43.31321,"lon":5.39698,"is_reserved":false,"is_disabled":true,"rental_uris":{"android":"levelo://app?vid=eca7dcad-8489-4164-84a3-1781088dd692","ios":"levelo://app?vid=eca7dcad-8489-4164-84a3-1781088dd692"},"vehicle_type_id":"4","last_reported":1744837753,"current_range_meters":4400,"station_id":"ce4bgvp2rcd13ifvqcu0","pricing_plan_id":"cebpf4jnsgd1na2vs0mg"},{"bike_id":"7da39aba-455e-4163-9c62-41262016c1a1","system_id":"levelo_inurba_marseille","lat":43.28345,"lon":5.38131,"is_reserved":false,"is_disabled":false,"rental_uris":{"android":"levelo://app?vid=7da39aba-455e-4163-9c62-41262016c1a1","ios":"levelo://app?vid=7da39aba-455e-4163-9c62-41262016c1a1"},"vehicle_type_id":"4","last_reported":1744837753,"current_range_meters":5600,"station_id":"ce4bh412rcd13ifvqdr0","pricing_plan_id":"cebpf4jnsgd1na2vs0mg"},{"bike_id":"96ab8bc0-503d-41eb-b7de-de596164d31c","system_id":"levelo_inurba_marseille","lat":43.292802,"lon":5.4011,"is_reserved":false,"is_disabled":false,"rental_uris":{"android":"levelo://app?vid=96ab8bc0-503d-41eb-b7de-de596164d31c","ios":"levelo://app?vid=96ab8bc0-503d-41eb-b7de-de596164d31c"},"vehicle_type_id":"4","last_reported":1744837753,"current_range_meters":5600,"station_id":"ce4bh312rcd13ifvqdk0","pricing_plan_id":"cebpf4jnsgd1na2vs0mg"},{"bike_id":"eba583de-8c72-403b-898d-6533ff696372","system_id":"levelo_inurba_marseille","lat":43.27074,"lon":5.42285,"is_reserved":false,"is_disabled":false,"rental_uris":{"android":"levelo://app?vid=eba583de-8c72-403b-898d-6533ff696372","ios":"levelo://app?vid=eba583de-8c72-403b-898d-6533ff696372"},"vehicle_type_id":"4","last_reported":1744837753,"current_range_meters":5600,"station_id":"ce4bhk92rcd13ifvqgb0","pricing_plan_id":"cebpf4jnsgd1na2vs0mg"},{"bike_id":"29d892ff-396f-4d0b-a265-444cbe69d0d6","system_id":"levelo_inurba_marseille","lat":43.29872,"lon":5.38915,"is_reserved":false,"is_disabled":false,"rental_uris":{"android":"levelo://app?vid=29d892ff-396f-4d0b-a265-444cbe69d0d6","ios":"levelo://app?vid=29d892ff-396f-4d0b-a265-444cbe69d0d6"},"vehicle_type_id":"4","last_reported":1744837753,"current_range_meters":6000,"station_id":"ce4bh392rcd13ifvqdl0","pricing_plan_id":"cebpf4jnsgd1na2vs0mg"},{"bike_id":"4a615ce1-0dcd-40cb-b480-d08400eaa1a3","system_id":"levelo_inurba_marseille","lat":43.24546,"lon":5.3952,"is_reserved":false,"is_disabled":false,"rental_uris":{"android":"levelo://app?vid=4a615ce1-0dcd-40cb-b480-d08400eaa1a3","ios":"levelo://app?vid=4a615ce1-0dcd-40cb-b480-d08400eaa1a3"},"vehicle_type_id":"4","last_reported":1744837753,"current_range_meters":4800,"station_id":"ce4bhlp2rcd13ifvqgjg","pricing_plan_id":"cebpf4jnsgd1na2vs0mg"},{"bike_id":"ea2b72b1-fb3d-493d-ab95-1557396ac249","system_id":"levelo_inurba_marseille","lat":43.28414,"lon":5.37529,"is_reserved":false,"is_disabled":true,"rental_uris":{"android":"levelo://app?vid=ea2b72b1-fb3d-493d-ab95-1557396ac249","ios":"levelo://app?vid=ea2b72b1-fb3d-493d-ab95-1557396ac249"},"vehicle_type_id":"4","last_reported":1744837753,"current_range_meters":6400,"station_id":"ce4bh412rcd13ifvqds0","pricing_plan_id":"cebpf4jnsgd1na2vs0mg"},{"bike_id":"4be423fc-b49d-4203-8abc-985b45dfd65e","system_id":"levelo_inurba_marseille","lat":43.32924,"lon":5.43365,"is_reserved":false,"is_disabled":false,"rental_uris":{"android":"levelo://app?vid=4be423fc-b49d-4203-8abc-985b45dfd65e","ios":"levelo://app?vid=4be423fc-b49d-4203-8abc-985b45dfd65e"},"vehicle_type_id":"4","last_reported":1744837753,"current_range_meters":6800,"station_id":"","pricing_plan_id":"cebpf4jnsgd1na2vs0mg"},{"bike_id":"6695fc0d-b7c2-4b76-9759-125a5558ce82","system_id":"levelo_inurba_marseille","lat":43.30534,"lon":5.40085,"is_reserved":false,"is_disabled":false,"rental_uris":{"android":"levelo://app?vid=6695fc0d-b7c2-4b76-9759-125a5558ce82","ios":"levelo://app?vid=6695fc0d-b7c2-4b76-9759-125a5558ce82"},"vehicle_type_id":"4","last_reported":1744837753,"current_range_meters":7200,"station_id":"","pricing_plan_id":"cebpf4jnsgd1na2vs0mg"},{"bike_id":"376f754b-7bba-4962-babe-b49b1468281c","system_id":"levelo_inurba_marseille","lat":43.30908,"lon":5.40173,"is_reserved":false,"is_disabled":true,"rental_uris":{"android":"levelo://app?vid=376f754b-7bba-4962-babe-b49b1468281c","ios":"levelo://app?vid=376f754b-7bba-4962-babe-b49b1468281c"},"vehicle_type_id":"4","last_reported":1744837753,"current_range_meters":7200,"station_id":"ce4bgvp2rcd13ifvqct0","pricing_plan_id":"cebpf4jnsgd1na2vs0mg"},{"bike_id":"2797dcdb-c4e1-48b2-82d6-5677d371fa39","system_id":"levelo_inurba_marseille","lat":43.24178,"lon":5.3642,"is_reserved":false,"is_disabled":false,"rental_uris":{"android":"levelo://app?vid=2797dcdb-c4e1-48b2-82d6-5677d371fa39","ios":"levelo://app?vid=2797dcdb-c4e1-48b2-82d6-5677d371fa39"},"vehicle_type_id":"4","last_reported":1744837753,"current_range_meters":8000,"station_id":"cpo36qri1sfpv3e86is0","pricing_plan_id":"cebpf4jnsgd1na2vs0mg"},{"bike_id":"27d65429-e235-4ad4-8e99-624219bf772a","system_id":"levelo_inurba_marseille","lat":43.30732,"lon":5.42437,"is_reserved":false,"is_disabled":false,"rental_uris":{"android":"levelo://app?vid=27d65429-e235-4ad4-8e99-624219bf772a","ios":"levelo://app?vid=27d65429-e235-4ad4-8e99-624219bf772a"},"vehicle_type_id":"4","last_reported":1744837753,"current_range_meters":8000,"station_id":"st_cvj6ca6bvosntc0bfgr0","pricing_plan_id":"cebpf4jnsgd1na2vs0mg"},{"bike_id":"bcd46e08-bf99-4f80-ad0d-b62257da6151","system_id":"levelo_inurba_marseille","lat":43.290524,"lon":5.399768,"is_reserved":false,"is_disabled":false,"rental_uris":{"android":"levelo://app?vid=bcd46e08-bf99-4f80-ad0d-b62257da6151","ios":"levelo://app?vid=bcd46e08-bf99-4f80-ad0d-b62257da6151"},"vehicle_type_id":"4","last_reported":1744837753,"current_range_meters":8400,"station_id":"ce4bh392rcd13ifvqdm0","pricing_plan_id":"cebpf4jnsgd1na2vs0mg"},{"bike_id":"b69156c9-6a49-4ab5-9612-623049b026dd","system_id":"levelo_inurba_marseille","lat":43.26553,"lon":5.37285,"is_reserved":false,"is_disabled":false,"rental_uris":{"android":"levelo://app?vid=b69156c9-6a49-4ab5-9612-623049b026dd","ios":"levelo://app?vid=b69156c9-6a49-4ab5-9612-623049b026dd"},"vehicle_type_id":"4","last_reported":1744837753,"current_range_meters":8400,"station_id":"ce4bhg12rcd13ifvqf70","pricing_plan_id":"cebpf4jnsgd1na2vs0mg"},{"bike_id":"47443ab8-6b57-4dfe-a926-b857d8c4a944","system_id":"levelo_inurba_marseille","lat":43.27209,"lon":5.39198,"is_reserved":false,"is_disabled":true,"rental_uris":{"android":"levelo://app?vid=47443ab8-6b57-4dfe-a926-b857d8c4a944","ios":"levelo://app?vid=47443ab8-6b57-4dfe-a926-b857d8c4a944"},"vehicle_type_id":"4","last_reported":1744837753,"current_range_meters":8400,"station_id":"ce4bhhp2rcd13ifvqfm0","pricing_plan_id":"cebpf4jnsgd1na2vs0mg"},{"bike_id":"1021195a-1d57-49a5-a021-5d5c77bd4874","system_id":"levelo_inurba_marseille","lat":43.29029,"lon":5.3864,"is_reserved":false,"is_disabled":false,"rental_uris":{"android":"levelo://app?vid=1021195a-1d57-49a5-a021-5d5c77bd4874","ios":"levelo://app?vid=1021195a-1d57-49a5-a021-5d5c77bd4874"},"vehicle_type_id":"4","last_reported":1744837753,"current_range_meters":8800,"station_id":"ce4bh4p2rcd13ifvqe0g","pricing_plan_id":"cebpf4jnsgd1na2vs0mg"},{"bike_id":"a452b574-03cf-484e-b043-1b63eadf7414","system_id":"levelo_inurba_marseille","lat":43.3022,"lon":5.39474,"is_reserved":false,"is_disabled":false,"rental_uris":{"android":"levelo://app?vid=a452b574-03cf-484e-b043-1b63eadf7414","ios":"levelo://app?vid=a452b574-03cf-484e-b043-1b63eadf7414"},"vehicle_type_id":"4","last_reported":1744837753,"current_range_meters":8800,"station_id":"ce4bh0p2rcd13ifvqd70","pricing_plan_id":"cebpf4jnsgd1na2vs0mg"},{"bike_id":"693abb56-2440-4e46-a9de-d094d1b968f7","system_id":"levelo_inurba_marseille","lat":43.28447,"lon":5.35888,"is_reserved":false,"is_disabled":false,"rental_uris":{"android":"levelo://app?vid=693abb56-2440-4e46-a9de-d094d1b968f7","ios":"levelo://app?vid=693abb56-2440-4e46-a9de-d094d1b968f7"},"vehicle_type_id":"4","last_reported":1744837753,"current_range_meters":8800,"station_id":"ce4bhah2rcd13ifvqei0","pricing_plan_id":"cebpf4jnsgd1na2vs0mg"},{"bike_id":"0a28e206-b3dd-43f2-8495-1759cdcbbe79","system_id":"levelo_inurba_marseille","lat":43.29885,"lon":5.38911,"is_reserved":false,"is_disabled":false,"rental_uris":{"android":"levelo://app?vid=0a28e206-b3dd-43f2-8495-1759cdcbbe79","ios":"levelo://app?vid=0a28e206-b3dd-43f2-8495-1759cdcbbe79"},"vehicle_type_id":"4","last_reported":1744837753,"current_range_meters":9200,"station_id":"ce4bh392rcd13ifvqdl0","pricing_plan_id":"cebpf4jnsgd1na2vs0mg"},{"bike_id":"257cd67d-848f-46ff-a9b4-b9d60cab96e4","system_id":"levelo_inurba_marseille","lat":43.29784,"lon":5.39345,"is_reserved":false,"is_disabled":false,"rental_uris":{"android":"levelo://app?vid=257cd67d-848f-46ff-a9b4-b9d60cab96e4","ios":"levelo://app?vid=257cd67d-848f-46ff-a9b4-b9d60cab96e4"},"vehicle_type_id":"4","last_reported":1744837753,"current_range_meters":9200,"station_id":"chh1huq6cuj3fo74tm60","pricing_plan_id":"cebpf4jnsgd1na2vs0mg"},{"bike_id":"13212ea6-c79f-428f-bf88-2ce269adcaff","system_id":"levelo_inurba_marseille","lat":43.24806,"lon":5.37458,"is_reserved":false,"is_disabled":false,"rental_uris":{"android":"levelo://app?vid=13212ea6-c79f-428f-bf88-2ce269adcaff","ios":"levelo://app?vid=13212ea6-c79f-428f-bf88-2ce269adcaff"},"vehicle_type_id":"4","last_reported":1744837753,"current_range_meters":9200,"station_id":"ce4bhgh2rcd13ifvqfb0","pricing_plan_id":"cebpf4jnsgd1na2vs0mg"},{"bike_id":"2c5537f8-0da6-4d33-8c3c-80c8d36d0e28","system_id":"levelo_inurba_marseille","lat":43.26523,"lon":5.39027,"is_reserved":false,"is_disabled":true,"rental_uris":{"android":"levelo://app?vid=2c5537f8-0da6-4d33-8c3c-80c8d36d0e28","ios":"levelo://app?vid=2c5537f8-0da6-4d33-8c3c-80c8d36d0e28"},"vehicle_type_id":"4","last_reported":1744837753,"current_range_meters":9200,"station_id":"ce4bhe12rcd13ifvqf30","pricing_plan_id":"cebpf4jnsgd1na2vs0mg"},{"bike_id":"eeec4aa3-87e9-4496-be2e-938ceb91cf85","system_id":"levelo_inurba_marseille","lat":43.29307,"lon":5.37217,"is_reserved":false,"is_disabled":true,"rental_uris":{"android":"levelo://app?vid=eeec4aa3-87e9-4496-be2e-938ceb91cf85","ios":"levelo://app?vid=eeec4aa3-87e9-4496-be2e-938ceb91cf85"},"vehicle_type_id":"4","last_reported":1744837753,"current_range_meters":9600,"station_id":"ce4bgh92rcd13ifvqb40","pricing_plan_id":"cebpf4jnsgd1na2vs0mg"},{"bike_id":"a08620f1-0c33-4263-9d1a-c18707889a38","system_id":"levelo_inurba_marseille","lat":43.27559,"lon":5.38427,"is_reserved":false,"is_disabled":false,"rental_uris":{"android":"levelo://app?vid=a08620f1-0c33-4263-9d1a-c18707889a38","ios":"levelo://app?vid=a08620f1-0c33-4263-9d1a-c18707889a38"},"vehicle_type_id":"4","last_reported":1744837753,"current_range_meters":9600,"station_id":"ce4bhh92rcd13ifvqfi0","pricing_plan_id":"cebpf4jnsgd1na2vs0mg"},{"bike_id":"72690497-135a-44f4-9e29-d0294fc92455","system_id":"levelo_inurba_marseille","lat":43.2953,"lon":5.39024,"is_reserved":false,"is_disabled":false,"rental_uris":{"android":"levelo://app?vid=72690497-135a-44f4-9e29-d0294fc92455","ios":"levelo://app?vid=72690497-135a-44f4-9e29-d0294fc92455"},"vehicle_type_id":"4","last_reported":1744837753,"current_range_meters":9600,"station_id":"ce4bh3p2rcd13ifvqdp0","pricing_plan_id":"cebpf4jnsgd1na2vs0mg"},{"bike_id":"367f01cf-3209-4951-b89b-8264c8668817","system_id":"levelo_inurba_marseille","lat":43.30646,"lon":5.4008,"is_reserved":false,"is_disabled":false,"rental_uris":{"android":"levelo://app?vid=367f01cf-3209-4951-b89b-8264c8668817","ios":"levelo://app?vid=367f01cf-3209-4951-b89b-8264c8668817"},"vehicle_type_id":"4","last_reported":1744837753,"current_range_meters":9600,"station_id":"ce4bh112rcd13ifvqda0","pricing_plan_id":"cebpf4jnsgd1na2vs0mg"},{"bike_id":"da61630c-eec5-4651-ac57-e218f2e64d2c","system_id":"levelo_inurba_marseille","lat":43.3088,"lon":5.37203,"is_reserved":false,"is_disabled":false,"rental_uris":{"android":"levelo://app?vid=da61630c-eec5-4651-ac57-e218f2e64d2c","ios":"levelo://app?vid=da61630c-eec5-4651-ac57-e218f2e64d2c"},"vehicle_type_id":"4","last_reported":1744837753,"current_range_meters":9600,"station_id":"ce4bguh2rcd13ifvqckg","pricing_plan_id":"cebpf4jnsgd1na2vs0mg"},{"bike_id":"e8412f40-a8dc-44ee-bbc2-e01b1cf2ab9a","system_id":"levelo_inurba_marseille","lat":43.2783,"lon":5.39208,"is_reserved":false,"is_disabled":false,"rental_uris":{"android":"levelo://app?vid=e8412f40-a8dc-44ee-bbc2-e01b1cf2ab9a","ios":"levelo://app?vid=e8412f40-a8dc-44ee-bbc2-e01b1cf2ab9a"},"vehicle_type_id":"4","last_reported":1744837753,"current_range_meters":10000,"station_id":"ce4bhjp2rcd13ifvqga0","pricing_plan_id":"cebpf4jnsgd1na2vs0mg"},{"bike_id":"847a57e8-0129-4285-b6be-15d7d295a3b2","system_id":"levelo_inurba_marseille","lat":43.2988,"lon":5.39732,"is_reserved":false,"is_disabled":false,"rental_uris":{"android":"levelo://app?vid=847a57e8-0129-4285-b6be-15d7d295a3b2","ios":"levelo://app?vid=847a57e8-0129-4285-b6be-15d7d295a3b2"},"vehicle_type_id":"4","last_reported":1744837753,"current_range_meters":10000,"station_id":"ce4bh0h2rcd13ifvqd50","pricing_plan_id":"cebpf4jnsgd1na2vs0mg"},{"bike_id":"561936ef-54e4-4d15-b2a7-dfd018b9e12e","system_id":"levelo_inurba_marseille","lat":43.29776,"lon":5.39337,"is_reserved":false,"is_disabled":false,"rental_uris":{"android":"levelo://app?vid=561936ef-54e4-4d15-b2a7-dfd018b9e12e","ios":"levelo://app?vid=561936ef-54e4-4d15-b2a7-dfd018b9e12e"},"vehicle_type_id":"4","last_reported":1744837753,"current_range_meters":10000,"station_id":"chh1huq6cuj3fo74tm60","pricing_plan_id":"cebpf4jnsgd1na2vs0mg"},{"bike_id":"62f115eb-2dfc-4467-b603-bcd9911b412d","system_id":"levelo_inurba_marseille","lat":43.30879,"lon":5.39657,"is_reserved":false,"is_disabled":false,"rental_uris":{"android":"levelo://app?vid=62f115eb-2dfc-4467-b603-bcd9911b412d","ios":"levelo://app?vid=62f115eb-2dfc-4467-b603-bcd9911b412d"},"vehicle_type_id":"4","last_reported":1744837753,"current_range_meters":10000,"station_id":"ce4bh012rcd13ifvqcv0","pricing_plan_id":"cebpf4jnsgd1na2vs0mg"},{"bike_id":"417e3a7a-0095-495e-9b83-1bc73bffd8f5","system_id":"levelo_inurba_marseille","lat":43.30888,"lon":5.39656,"is_reserved":false,"is_disabled":false,"rental_uris":{"android":"levelo://app?vid=417e3a7a-0095-495e-9b83-1bc73bffd8f5","ios":"levelo://app?vid=417e3a7a-0095-495e-9b83-1bc73bffd8f5"},"vehicle_type_id":"4","last_reported":1744837753,"current_range_meters":10800,"station_id":"ce4bh012rcd13ifvqcv0","pricing_plan_id":"cebpf4jnsgd1na2vs0mg"},{"bike_id":"aafece41-771c-4727-9330-23c42c863e6d","system_id":"levelo_inurba_marseille","lat":43.28629,"lon":5.35095,"is_reserved":false,"is_disabled":false,"rental_uris":{"android":"levelo://app?vid=aafece41-771c-4727-9330-23c42c863e6d","ios":"levelo://app?vid=aafece41-771c-4727-9330-23c42c863e6d"},"vehicle_type_id":"4","last_reported":1744837753,"current_range_meters":10800,"station_id":"ce4bhch2rcd13ifvqeug","pricing_plan_id":"cebpf4jnsgd1na2vs0mg"},{"bike_id":"2c032a6e-a514-4c75-ac58-67d0e95dcf42","system_id":"levelo_inurba_marseille","lat":43.28644,"lon":5.35128,"is_reserved":false,"is_disabled":false,"rental_uris":{"android":"levelo://app?vid=2c032a6e-a514-4c75-ac58-67d0e95dcf42","ios":"levelo://app?vid=2c032a6e-a514-4c75-ac58-67d0e95dcf42"},"vehicle_type_id":"4","last_reported":1744837753,"current_range_meters":10800,"station_id":"ce4bhch2rcd13ifvqeug","pricing_plan_id":"cebpf4jnsgd1na2vs0mg"},{"bike_id":"b1203870-4d45-4676-8ec7-5019ca28aac8","system_id":"levelo_inurba_marseille","lat":43.30094,"lon":5.39092,"is_reserved":false,"is_disabled":false,"rental_uris":{"android":"levelo://app?vid=b1203870-4d45-4676-8ec7-5019ca28aac8","ios":"levelo://app?vid=b1203870-4d45-4676-8ec7-5019ca28aac8"},"vehicle_type_id":"4","last_reported":1744837753,"current_range_meters":10800,"station_id":"ce4bh192rcd13ifvqdb0","pricing_plan_id":"cebpf4jnsgd1na2vs0mg"},{"bike_id":"736c7bdc-b98a-4581-a5dc-1bee5f63147b","system_id":"levelo_inurba_marseille","lat":43.30643,"lon":5.40098,"is_reserved":false,"is_disabled":false,"rental_uris":{"android":"levelo://app?vid=736c7bdc-b98a-4581-a5dc-1bee5f63147b","ios":"levelo://app?vid=736c7bdc-b98a-4581-a5dc-1bee5f63147b"},"vehicle_type_id":"4","last_reported":1744837753,"current_range_meters":10800,"station_id":"ce4bh112rcd13ifvqda0","pricing_plan_id":"cebpf4jnsgd1na2vs0mg"},{"bike_id":"dfc90e23-a51a-46c2-9aff-a5e54b4a553f","system_id":"levelo_inurba_marseille","lat":43.2621,"lon":5.4043,"is_reserved":false,"is_disabled":false,"rental_uris":{"android":"levelo://app?vid=dfc90e23-a51a-46c2-9aff-a5e54b4a553f","ios":"levelo://app?vid=dfc90e23-a51a-46c2-9aff-a5e54b4a553f"},"vehicle_type_id":"4","last_reported":1744837753,"current_range_meters":10800,"station_id":"ce4bhmh2rcd13ifvqgmg","pricing_plan_id":"cebpf4jnsgd1na2vs0mg"},{"bike_id":"56d75ea2-b8f3-4ca3-8522-3237f041fe6b","system_id":"levelo_inurba_marseille","lat":43.29278,"lon":5.40209,"is_reserved":false,"is_disabled":false,"rental_uris":{"android":"levelo://app?vid=56d75ea2-b8f3-4ca3-8522-3237f041fe6b","ios":"levelo://app?vid=56d75ea2-b8f3-4ca3-8522-3237f041fe6b"},"vehicle_type_id":"4","last_reported":1744837753,"current_range_meters":10800,"station_id":"","pricing_plan_id":"cebpf4jnsgd1na2vs0mg"},{"bike_id":"14541b4c-c4ff-4f48-b140-23313b771198","system_id":"levelo_inurba_marseille","lat":43.27834,"lon":5.39208,"is_reserved":false,"is_disabled":false,"rental_uris":{"android":"levelo://app?vid=14541b4c-c4ff-4f48-b140-23313b771198","ios":"levelo://app?vid=14541b4c-c4ff-4f48-b140-23313b771198"},"vehicle_type_id":"4","last_reported":1744837753,"current_range_meters":10800,"station_id":"ce4bhjp2rcd13ifvqga0","pricing_plan_id":"cebpf4jnsgd1na2vs0mg"},{"bike_id":"7b38cb55-9c5f-4bca-a540-bfab855e7385","system_id":"levelo_inurba_marseille","lat":43.23964,"lon":5.36632,"is_reserved":false,"is_disabled":false,"rental_uris":{"android":"levelo://app?vid=7b38cb55-9c5f-4bca-a540-bfab855e7385","ios":"levelo://app?vid=7b38cb55-9c5f-4bca-a540-bfab855e7385"},"vehicle_type_id":"4","last_reported":1744837753,"current_range_meters":10800,"station_id":"ce4bhi12rcd13ifvqfp0","pricing_plan_id":"cebpf4jnsgd1na2vs0mg"},{"bike_id":"af595e5c-0f79-4f37-bcd6-a0718b45cf89","system_id":"levelo_inurba_marseille","lat":43.298798,"lon":5.389063,"is_reserved":false,"is_disabled":false,"rental_uris":{"android":"levelo://app?vid=af595e5c-0f79-4f37-bcd6-a0718b45cf89","ios":"levelo://app?vid=af595e5c-0f79-4f37-bcd6-a0718b45cf89"},"vehicle_type_id":"4","last_reported":1744837753,"current_range_meters":10800,"station_id":"ce4bh292rcd13ifvqdf0","pricing_plan_id":"cebpf4jnsgd1na2vs0mg"},{"bike_id":"84b58d90-bb57-4bdb-8485-62b6e661a441","system_id":"levelo_inurba_marseille","lat":43.24168,"lon":5.39726,"is_reserved":false,"is_disabled":false,"rental_uris":{"android":"levelo://app?vid=84b58d90-bb57-4bdb-8485-62b6e661a441","ios":"levelo://app?vid=84b58d90-bb57-4bdb-8485-62b6e661a441"},"vehicle_type_id":"4","last_reported":1744837753,"current_range_meters":11200,"station_id":"ce4bhn12rcd13ifvqgpg","pricing_plan_id":"cebpf4jnsgd1na2vs0mg"},{"bike_id":"2b0da2c0-2280-4555-acf7-abf7ceceb42c","system_id":"levelo_inurba_marseille","lat":43.2845,"lon":5.39201,"is_reserved":false,"is_disabled":false,"rental_uris":{"android":"levelo://app?vid=2b0da2c0-2280-4555-acf7-abf7ceceb42c","ios":"levelo://app?vid=2b0da2c0-2280-4555-acf7-abf7ceceb42c"},"vehicle_type_id":"4","last_reported":1744837753,"current_range_meters":12800,"station_id":"ce4bhoh2rcd13ifvqh5g","pricing_plan_id":"cebpf4jnsgd1na2vs0mg"},{"bike_id":"69ef637e-55b2-48ad-84e0-d3e326d5ce8a","system_id":"levelo_inurba_marseille","lat":43.28705,"lon":5.37935,"is_reserved":false,"is_disabled":false,"rental_uris":{"android":"levelo://app?vid=69ef637e-55b2-48ad-84e0-d3e326d5ce8a","ios":"levelo://app?vid=69ef637e-55b2-48ad-84e0-d3e326d5ce8a"},"vehicle_type_id":"4","last_reported":1744837753,"current_range_meters":11200,"station_id":"ce4bh9p2rcd13ifvqec0","pricing_plan_id":"cebpf4jnsgd1na2vs0mg"},{"bike_id":"51a64e16-0b88-479c-8f70-cafff67635bb","system_id":"levelo_inurba_marseille","lat":43.28405,"lon":5.37533,"is_reserved":false,"is_disabled":false,"rental_uris":{"android":"levelo://app?vid=51a64e16-0b88-479c-8f70-cafff67635bb","ios":"levelo://app?vid=51a64e16-0b88-479c-8f70-cafff67635bb"},"vehicle_type_id":"4","last_reported":1744837753,"current_range_meters":11200,"station_id":"ce4bh412rcd13ifvqds0","pricing_plan_id":"cebpf4jnsgd1na2vs0mg"},{"bike_id":"0b4b899b-0ed9-42c9-bd31-f185ba9eaedd","system_id":"levelo_inurba_marseille","lat":43.27567,"lon":5.3843,"is_reserved":false,"is_disabled":false,"rental_uris":{"android":"levelo://app?vid=0b4b899b-0ed9-42c9-bd31-f185ba9eaedd","ios":"levelo://app?vid=0b4b899b-0ed9-42c9-bd31-f185ba9eaedd"},"vehicle_type_id":"4","last_reported":1744837753,"current_range_meters":11600,"station_id":"ce4bhh92rcd13ifvqfi0","pricing_plan_id":"cebpf4jnsgd1na2vs0mg"},{"bike_id":"834ec9e1-9d50-4bee-85ae-d1db335c55e5","system_id":"levelo_inurba_marseille","lat":43.31801,"lon":5.36706,"is_reserved":false,"is_disabled":false,"rental_uris":{"android":"levelo://app?vid=834ec9e1-9d50-4bee-85ae-d1db335c55e5","ios":"levelo://app?vid=834ec9e1-9d50-4bee-85ae-d1db335c55e5"},"vehicle_type_id":"4","last_reported":1744837753,"current_range_meters":11600,"station_id":"","pricing_plan_id":"cebpf4jnsgd1na2vs0mg"},{"bike_id":"66cb379c-7144-45d1-a5ea-c674e71d6af9","system_id":"levelo_inurba_marseille","lat":43.30211,"lon":5.39467,"is_reserved":false,"is_disabled":false,"rental_uris":{"android":"levelo://app?vid=66cb379c-7144-45d1-a5ea-c674e71d6af9","ios":"levelo://app?vid=66cb379c-7144-45d1-a5ea-c674e71d6af9"},"vehicle_type_id":"4","last_reported":1744837753,"current_range_meters":11600,"station_id":"ce4bh0p2rcd13ifvqd70","pricing_plan_id":"cebpf4jnsgd1na2vs0mg"},{"bike_id":"774fb58f-3b27-4b8c-a15c-400e7435c95e","system_id":"levelo_inurba_marseille","lat":43.29883,"lon":5.38901,"is_reserved":false,"is_disabled":false,"rental_uris":{"android":"levelo://app?vid=774fb58f-3b27-4b8c-a15c-400e7435c95e","ios":"levelo://app?vid=774fb58f-3b27-4b8c-a15c-400e7435c95e"},"vehicle_type_id":"4","last_reported":1744837753,"current_range_meters":12000,"station_id":"ce4bh392rcd13ifvqdl0","pricing_plan_id":"cebpf4jnsgd1na2vs0mg"},{"bike_id":"cff7e17d-4349-4ec1-aff9-05067a138474","system_id":"levelo_inurba_marseille","lat":43.2918,"lon":5.39322,"is_reserved":false,"is_disabled":false,"rental_uris":{"android":"levelo://app?vid=cff7e17d-4349-4ec1-aff9-05067a138474","ios":"levelo://app?vid=cff7e17d-4349-4ec1-aff9-05067a138474"},"vehicle_type_id":"4","last_reported":1744837753,"current_range_meters":12400,"station_id":"ce4bh192rcd13ifvqdd0","pricing_plan_id":"cebpf4jnsgd1na2vs0mg"},{"bike_id":"9032f14c-fd09-4b52-bf50-b879d730ed1b","system_id":"levelo_inurba_marseille","lat":43.25719,"lon":5.41131,"is_reserved":false,"is_disabled":false,"rental_uris":{"android":"levelo://app?vid=9032f14c-fd09-4b52-bf50-b879d730ed1b","ios":"levelo://app?vid=9032f14c-fd09-4b52-bf50-b879d730ed1b"},"vehicle_type_id":"4","last_reported":1744837753,"current_range_meters":12800,"station_id":"ce4bhkp2rcd13ifvqgd0","pricing_plan_id":"cebpf4jnsgd1na2vs0mg"},{"bike_id":"93be371e-f079-4065-9c94-f1bd2172cfd1","system_id":"levelo_inurba_marseille","lat":43.28619,"lon":5.37053,"is_reserved":false,"is_disabled":false,"rental_uris":{"android":"levelo://app?vid=93be371e-f079-4065-9c94-f1bd2172cfd1","ios":"levelo://app?vid=93be371e-f079-4065-9c94-f1bd2172cfd1"},"vehicle_type_id":"4","last_reported":1744837753,"current_range_meters":12800,"station_id":"ce4bht12rcd13ifvqi60","pricing_plan_id":"cebpf4jnsgd1na2vs0mg"},{"bike_id":"68ec9c60-1203-4695-94aa-40d8361b0d46","system_id":"levelo_inurba_marseille","lat":43.3086,"lon":5.39652,"is_reserved":false,"is_disabled":false,"rental_uris":{"android":"levelo://app?vid=68ec9c60-1203-4695-94aa-40d8361b0d46","ios":"levelo://app?vid=68ec9c60-1203-4695-94aa-40d8361b0d46"},"vehicle_type_id":"4","last_reported":1744837753,"current_range_meters":12800,"station_id":"ce4bh012rcd13ifvqcv0","pricing_plan_id":"cebpf4jnsgd1na2vs0mg"},{"bike_id":"a6c65abb-25e2-47db-941a-e19b7f6cb18f","system_id":"levelo_inurba_marseille","lat":43.31324,"lon":5.39687,"is_reserved":false,"is_disabled":false,"rental_uris":{"android":"levelo://app?vid=a6c65abb-25e2-47db-941a-e19b7f6cb18f","ios":"levelo://app?vid=a6c65abb-25e2-47db-941a-e19b7f6cb18f"},"vehicle_type_id":"4","last_reported":1744837753,"current_range_meters":12800,"station_id":"ce4bgvp2rcd13ifvqcu0","pricing_plan_id":"cebpf4jnsgd1na2vs0mg"},{"bike_id":"1bdba7a7-a82e-4252-906c-80db6beb180e","system_id":"levelo_inurba_marseille","lat":43.24886,"lon":5.39416,"is_reserved":false,"is_disabled":false,"rental_uris":{"android":"levelo://app?vid=1bdba7a7-a82e-4252-906c-80db6beb180e","ios":"levelo://app?vid=1bdba7a7-a82e-4252-906c-80db6beb180e"},"vehicle_type_id":"4","last_reported":1744837753,"current_range_meters":13600,"station_id":"","pricing_plan_id":"cebpf4jnsgd1na2vs0mg"},{"bike_id":"9002d50e-d6d6-46d0-9f04-b56806ecb3e7","system_id":"levelo_inurba_marseille","lat":43.28607,"lon":5.37058,"is_reserved":false,"is_disabled":false,"rental_uris":{"android":"levelo://app?vid=9002d50e-d6d6-46d0-9f04-b56806ecb3e7","ios":"levelo://app?vid=9002d50e-d6d6-46d0-9f04-b56806ecb3e7"},"vehicle_type_id":"4","last_reported":1744837753,"current_range_meters":13600,"station_id":"ce4bht12rcd13ifvqi60","pricing_plan_id":"cebpf4jnsgd1na2vs0mg"},{"bike_id":"2be2e8c5-ff49-4a5a-963a-4bbeabb11512","system_id":"levelo_inurba_marseille","lat":43.30737,"lon":5.4244,"is_reserved":false,"is_disabled":false,"rental_uris":{"android":"levelo://app?vid=2be2e8c5-ff49-4a5a-963a-4bbeabb11512","ios":"levelo://app?vid=2be2e8c5-ff49-4a5a-963a-4bbeabb11512"},"vehicle_type_id":"4","last_reported":1744837753,"current_range_meters":13600,"station_id":"st_cvj6ca6bvosntc0bfgr0","pricing_plan_id":"cebpf4jnsgd1na2vs0mg"},{"bike_id":"2e4df3f8-36a0-4aaa-a40e-25b01eb78413","system_id":"levelo_inurba_marseille","lat":43.311059,"lon":5.377667,"is_reserved":false,"is_disabled":false,"rental_uris":{"android":"levelo://app?vid=2e4df3f8-36a0-4aaa-a40e-25b01eb78413","ios":"levelo://app?vid=2e4df3f8-36a0-4aaa-a40e-25b01eb78413"},"vehicle_type_id":"4","last_reported":1744837753,"current_range_meters":13600,"station_id":"ce4bgt92rcd13ifvqcg0","pricing_plan_id":"cebpf4jnsgd1na2vs0mg"},{"bike_id":"4b9b1e69-af86-4122-8d46-0d52505b1cab","system_id":"levelo_inurba_marseille","lat":43.27509,"lon":5.42461,"is_reserved":false,"is_disabled":false,"rental_uris":{"android":"levelo://app?vid=4b9b1e69-af86-4122-8d46-0d52505b1cab","ios":"levelo://app?vid=4b9b1e69-af86-4122-8d46-0d52505b1cab"},"vehicle_type_id":"4","last_reported":1744837753,"current_range_meters":13600,"station_id":"ce4bhn92rcd13ifvqgrg","pricing_plan_id":"cebpf4jnsgd1na2vs0mg"},{"bike_id":"7744c10a-ecb8-40ae-804e-9883e673c9fe","system_id":"levelo_inurba_marseille","lat":43.31111,"lon":5.37766,"is_reserved":false,"is_disabled":false,"rental_uris":{"android":"levelo://app?vid=7744c10a-ecb8-40ae-804e-9883e673c9fe","ios":"levelo://app?vid=7744c10a-ecb8-40ae-804e-9883e673c9fe"},"vehicle_type_id":"4","last_reported":1744837753,"current_range_meters":13600,"station_id":"ce4bgt92rcd13ifvqcg0","pricing_plan_id":"cebpf4jnsgd1na2vs0mg"},{"bike_id":"482d7f53-ba94-4319-bdfb-94ad5dc0e6c3","system_id":"levelo_inurba_marseille","lat":43.29578,"lon":5.39982,"is_reserved":false,"is_disabled":false,"rental_uris":{"android":"levelo://app?vid=482d7f53-ba94-4319-bdfb-94ad5dc0e6c3","ios":"levelo://app?vid=482d7f53-ba94-4319-bdfb-94ad5dc0e6c3"},"vehicle_type_id":"4","last_reported":1744837753,"current_range_meters":13600,"station_id":"ce4bh312rcd13ifvqdj0","pricing_plan_id":"cebpf4jnsgd1na2vs0mg"},{"bike_id":"6bf5a380-400e-4cd6-bc1e-356afac9ee45","system_id":"levelo_inurba_marseille","lat":43.24129,"lon":5.36374,"is_reserved":false,"is_disabled":false,"rental_uris":{"android":"levelo://app?vid=6bf5a380-400e-4cd6-bc1e-356afac9ee45","ios":"levelo://app?vid=6bf5a380-400e-4cd6-bc1e-356afac9ee45"},"vehicle_type_id":"4","last_reported":1744837753,"current_range_meters":14000,"station_id":"cpo36qri1sfpv3e86is0","pricing_plan_id":"cebpf4jnsgd1na2vs0mg"},{"bike_id":"7bb92bd6-336f-4157-96a4-14f4e43e3ba6","system_id":"levelo_inurba_marseille","lat":43.31062,"lon":5.38345,"is_reserved":false,"is_disabled":false,"rental_uris":{"android":"levelo://app?vid=7bb92bd6-336f-4157-96a4-14f4e43e3ba6","ios":"levelo://app?vid=7bb92bd6-336f-4157-96a4-14f4e43e3ba6"},"vehicle_type_id":"4","last_reported":1744837753,"current_range_meters":14000,"station_id":"ce4bgv92rcd13ifvqcr0","pricing_plan_id":"cebpf4jnsgd1na2vs0mg"},{"bike_id":"88a0cb80-a51d-46bc-8228-c9a9fb028348","system_id":"levelo_inurba_marseille","lat":43.25642,"lon":5.42022,"is_reserved":false,"is_disabled":false,"rental_uris":{"android":"levelo://app?vid=88a0cb80-a51d-46bc-8228-c9a9fb028348","ios":"levelo://app?vid=88a0cb80-a51d-46bc-8228-c9a9fb028348"},"vehicle_type_id":"4","last_reported":1744837753,"current_range_meters":14000,"station_id":"","pricing_plan_id":"cebpf4jnsgd1na2vs0mg"},{"bike_id":"3c8c0931-ca0d-4b87-bffd-a214a15e0ccb","system_id":"levelo_inurba_marseille","lat":43.24661,"lon":5.38168,"is_reserved":false,"is_disabled":false,"rental_uris":{"android":"levelo://app?vid=3c8c0931-ca0d-4b87-bffd-a214a15e0ccb","ios":"levelo://app?vid=3c8c0931-ca0d-4b87-bffd-a214a15e0ccb"},"vehicle_type_id":"4","last_reported":1744837753,"current_range_meters":14000,"station_id":"ce4bhih2rcd13ifvqfr0","pricing_plan_id":"cebpf4jnsgd1na2vs0mg"},{"bike_id":"d9a74604-4e04-4138-8f3c-bfc766e9e048","system_id":"levelo_inurba_marseille","lat":43.25864,"lon":5.39906,"is_reserved":false,"is_disabled":false,"rental_uris":{"android":"levelo://app?vid=d9a74604-4e04-4138-8f3c-bfc766e9e048","ios":"levelo://app?vid=d9a74604-4e04-4138-8f3c-bfc766e9e048"},"vehicle_type_id":"4","last_reported":1744837753,"current_range_meters":14000,"station_id":"ce4bhl92rcd13ifvqghg","pricing_plan_id":"cebpf4jnsgd1na2vs0mg"},{"bike_id":"f62e35d5-c38c-4e77-8e15-a67529f3fb9f","system_id":"levelo_inurba_marseille","lat":43.31481,"lon":5.37305,"is_reserved":false,"is_disabled":false,"rental_uris":{"android":"levelo://app?vid=f62e35d5-c38c-4e77-8e15-a67529f3fb9f","ios":"levelo://app?vid=f62e35d5-c38c-4e77-8e15-a67529f3fb9f"},"vehicle_type_id":"4","last_reported":1744837753,"current_range_meters":14000,"station_id":"ce4bgt12rcd13ifvqcd0","pricing_plan_id":"cebpf4jnsgd1na2vs0mg"},{"bike_id":"6dd5e720-7be4-4987-a864-5cec97498832","system_id":"levelo_inurba_marseille","lat":43.29899,"lon":5.38884,"is_reserved":false,"is_disabled":false,"rental_uris":{"android":"levelo://app?vid=6dd5e720-7be4-4987-a864-5cec97498832","ios":"levelo://app?vid=6dd5e720-7be4-4987-a864-5cec97498832"},"vehicle_type_id":"4","last_reported":1744837753,"current_range_meters":14000,"station_id":"ce4bh392rcd13ifvqdl0","pricing_plan_id":"cebpf4jnsgd1na2vs0mg"},{"bike_id":"bc9b4d95-5a32-4e67-8662-d0d55606d996","system_id":"levelo_inurba_marseille","lat":43.3088,"lon":5.3964,"is_reserved":false,"is_disabled":false,"rental_uris":{"android":"levelo://app?vid=bc9b4d95-5a32-4e67-8662-d0d55606d996","ios":"levelo://app?vid=bc9b4d95-5a32-4e67-8662-d0d55606d996"},"vehicle_type_id":"4","last_reported":1744837753,"current_range_meters":14000,"station_id":"ce4bh012rcd13ifvqcv0","pricing_plan_id":"cebpf4jnsgd1na2vs0mg"},{"bike_id":"e5aa3190-a0e9-4afa-9ad0-bfe96f1379c8","system_id":"levelo_inurba_marseille","lat":43.290361,"lon":5.399641,"is_reserved":false,"is_disabled":false,"rental_uris":{"android":"levelo://app?vid=e5aa3190-a0e9-4afa-9ad0-bfe96f1379c8","ios":"levelo://app?vid=e5aa3190-a0e9-4afa-9ad0-bfe96f1379c8"},"vehicle_type_id":"4","last_reported":1744837753,"current_range_meters":14000,"station_id":"ce4bh392rcd13ifvqdm0","pricing_plan_id":"cebpf4jnsgd1na2vs0mg"},{"bike_id":"589b9cd2-ef76-4919-bd77-0d4ad38ccad7","system_id":"levelo_inurba_marseille","lat":43.28658,"lon":5.36352,"is_reserved":false,"is_disabled":false,"rental_uris":{"android":"levelo://app?vid=589b9cd2-ef76-4919-bd77-0d4ad38ccad7","ios":"levelo://app?vid=589b9cd2-ef76-4919-bd77-0d4ad38ccad7"},"vehicle_type_id":"4","last_reported":1744837753,"current_range_meters":14000,"station_id":"ce4bhah2rcd13ifvqej0","pricing_plan_id":"cebpf4jnsgd1na2vs0mg"},{"bike_id":"c5324c02-d55e-4a74-98a9-c504f2719cba","system_id":"levelo_inurba_marseille","lat":43.289264,"lon":5.383979,"is_reserved":false,"is_disabled":false,"rental_uris":{"android":"levelo://app?vid=c5324c02-d55e-4a74-98a9-c504f2719cba","ios":"levelo://app?vid=c5324c02-d55e-4a74-98a9-c504f2719cba"},"vehicle_type_id":"4","last_reported":1744837753,"current_range_meters":14400,"station_id":"ce4bh012rcd13ifvqcv0","pricing_plan_id":"cebpf4jnsgd1na2vs0mg"},{"bike_id":"0bdb9c44-4315-4d6b-9cba-3d8155b8f804","system_id":"levelo_inurba_marseille","lat":43.26807,"lon":5.40271,"is_reserved":false,"is_disabled":false,"rental_uris":{"android":"levelo://app?vid=0bdb9c44-4315-4d6b-9cba-3d8155b8f804","ios":"levelo://app?vid=0bdb9c44-4315-4d6b-9cba-3d8155b8f804"},"vehicle_type_id":"4","last_reported":1744837753,"current_range_meters":14400,"station_id":"ce501612rcd8frsf0b60","pricing_plan_id":"cebpf4jnsgd1na2vs0mg"},{"bike_id":"b37478c9-c9d1-4921-942f-50c7a856681e","system_id":"levelo_inurba_marseille","lat":43.27051,"lon":5.4027,"is_reserved":false,"is_disabled":true,"rental_uris":{"android":"levelo://app?vid=b37478c9-c9d1-4921-942f-50c7a856681e","ios":"levelo://app?vid=b37478c9-c9d1-4921-942f-50c7a856681e"},"vehicle_type_id":"4","last_reported":1744837753,"current_range_meters":14400,"station_id":"ce4bhk92rcd13ifvqgc0","pricing_plan_id":"cebpf4jnsgd1na2vs0mg"},{"bike_id":"55d42ba3-f833-4ccc-9026-2b02f8194d62","system_id":"levelo_inurba_marseille","lat":43.29417,"lon":5.38627,"is_reserved":false,"is_disabled":false,"rental_uris":{"android":"levelo://app?vid=55d42ba3-f833-4ccc-9026-2b02f8194d62","ios":"levelo://app?vid=55d42ba3-f833-4ccc-9026-2b02f8194d62"},"vehicle_type_id":"4","last_reported":1744837753,"current_range_meters":14400,"station_id":"ce4bh2h2rcd13ifvqdh0","pricing_plan_id":"cebpf4jnsgd1na2vs0mg"},{"bike_id":"e429eba0-6da3-4779-9439-9f5ad9bc0510","system_id":"levelo_inurba_marseille","lat":43.25466,"lon":5.37665,"is_reserved":false,"is_disabled":false,"rental_uris":{"android":"levelo://app?vid=e429eba0-6da3-4779-9439-9f5ad9bc0510","ios":"levelo://app?vid=e429eba0-6da3-4779-9439-9f5ad9bc0510"},"vehicle_type_id":"4","last_reported":1744837753,"current_range_meters":14800,"station_id":"ce4bhh12rcd13ifvqff0","pricing_plan_id":"cebpf4jnsgd1na2vs0mg"},{"bike_id":"4f3dfbf4-d1ae-44db-8110-b28c7d24107a","system_id":"levelo_inurba_marseille","lat":43.27062,"lon":5.40281,"is_reserved":false,"is_disabled":false,"rental_uris":{"android":"levelo://app?vid=4f3dfbf4-d1ae-44db-8110-b28c7d24107a","ios":"levelo://app?vid=4f3dfbf4-d1ae-44db-8110-b28c7d24107a"},"vehicle_type_id":"4","last_reported":1744837753,"current_range_meters":14800,"station_id":"ce4bhk92rcd13ifvqgc0","pricing_plan_id":"cebpf4jnsgd1na2vs0mg"},{"bike_id":"f8131fea-1519-4c57-8993-b5ccd0e83a94","system_id":"levelo_inurba_marseille","lat":43.26553,"lon":5.37288,"is_reserved":false,"is_disabled":false,"rental_uris":{"android":"levelo://app?vid=f8131fea-1519-4c57-8993-b5ccd0e83a94","ios":"levelo://app?vid=f8131fea-1519-4c57-8993-b5ccd0e83a94"},"vehicle_type_id":"4","last_reported":1744837753,"current_range_meters":14800,"station_id":"ce4bhg12rcd13ifvqf70","pricing_plan_id":"cebpf4jnsgd1na2vs0mg"},{"bike_id":"ef365bd2-a34b-4049-a6ca-88aa62e24e6c","system_id":"levelo_inurba_marseille","lat":43.28352,"lon":5.38103,"is_reserved":false,"is_disabled":false,"rental_uris":{"android":"levelo://app?vid=ef365bd2-a34b-4049-a6ca-88aa62e24e6c","ios":"levelo://app?vid=ef365bd2-a34b-4049-a6ca-88aa62e24e6c"},"vehicle_type_id":"4","last_reported":1744837753,"current_range_meters":14800,"station_id":"ce4bh412rcd13ifvqdr0","pricing_plan_id":"cebpf4jnsgd1na2vs0mg"},{"bike_id":"78639c4a-dfa5-4f82-b777-6fd3b58b5770","system_id":"levelo_inurba_marseille","lat":43.28101,"lon":5.37823,"is_reserved":false,"is_disabled":false,"rental_uris":{"android":"levelo://app?vid=78639c4a-dfa5-4f82-b777-6fd3b58b5770","ios":"levelo://app?vid=78639c4a-dfa5-4f82-b777-6fd3b58b5770"},"vehicle_type_id":"4","last_reported":1744837753,"current_range_meters":14800,"station_id":"ce4bha12rcd13ifvqee0","pricing_plan_id":"cebpf4jnsgd1na2vs0mg"},{"bike_id":"87cde924-2a81-438b-a29c-971b9fe65d0b","system_id":"levelo_inurba_marseille","lat":43.28104,"lon":5.37842,"is_reserved":false,"is_disabled":false,"rental_uris":{"android":"levelo://app?vid=87cde924-2a81-438b-a29c-971b9fe65d0b","ios":"levelo://app?vid=87cde924-2a81-438b-a29c-971b9fe65d0b"},"vehicle_type_id":"4","last_reported":1744837753,"current_range_meters":14800,"station_id":"ce4bha12rcd13ifvqee0","pricing_plan_id":"cebpf4jnsgd1na2vs0mg"},{"bike_id":"6032e738-f012-4275-92a6-1c203e24e4cd","system_id":"levelo_inurba_marseille","lat":43.29903,"lon":5.43659,"is_reserved":false,"is_disabled":false,"rental_uris":{"android":"levelo://app?vid=6032e738-f012-4275-92a6-1c203e24e4cd","ios":"levelo://app?vid=6032e738-f012-4275-92a6-1c203e24e4cd"},"vehicle_type_id":"4","last_reported":1744837753,"current_range_meters":14800,"station_id":"ce4bhpp2rcd13ifvqhfg","pricing_plan_id":"cebpf4jnsgd1na2vs0mg"},{"bike_id":"42e1ee67-7b7c-4701-84f5-a1d9e3b9830a","system_id":"levelo_inurba_marseille","lat":43.30461,"lon":5.37909,"is_reserved":false,"is_disabled":false,"rental_uris":{"android":"levelo://app?vid=42e1ee67-7b7c-4701-84f5-a1d9e3b9830a","ios":"levelo://app?vid=42e1ee67-7b7c-4701-84f5-a1d9e3b9830a"},"vehicle_type_id":"4","last_reported":1744837753,"current_range_meters":14800,"station_id":"ce4bgup2rcd13ifvqcn0","pricing_plan_id":"cebpf4jnsgd1na2vs0mg"},{"bike_id":"18b90a41-6be6-4c74-a522-ce5bf216390f","system_id":"levelo_inurba_marseille","lat":43.29435,"lon":5.39739,"is_reserved":false,"is_disabled":false,"rental_uris":{"android":"levelo://app?vid=18b90a41-6be6-4c74-a522-ce5bf216390f","ios":"levelo://app?vid=18b90a41-6be6-4c74-a522-ce5bf216390f"},"vehicle_type_id":"4","last_reported":1744837753,"current_range_meters":15200,"station_id":"ce4bh3h2rcd13ifvqdo0","pricing_plan_id":"cebpf4jnsgd1na2vs0mg"},{"bike_id":"69cfcd50-444a-4061-bc35-7d0c950adb68","system_id":"levelo_inurba_marseille","lat":43.28676,"lon":5.38668,"is_reserved":false,"is_disabled":false,"rental_uris":{"android":"levelo://app?vid=69cfcd50-444a-4061-bc35-7d0c950adb68","ios":"levelo://app?vid=69cfcd50-444a-4061-bc35-7d0c950adb68"},"vehicle_type_id":"4","last_reported":1744837753,"current_range_meters":15200,"station_id":"ce4bh492rcd13ifvqdug","pricing_plan_id":"cebpf4jnsgd1na2vs0mg"},{"bike_id":"35922287-966a-479b-b665-4c3339837e18","system_id":"levelo_inurba_marseille","lat":43.28354,"lon":5.38095,"is_reserved":false,"is_disabled":false,"rental_uris":{"android":"levelo://app?vid=35922287-966a-479b-b665-4c3339837e18","ios":"levelo://app?vid=35922287-966a-479b-b665-4c3339837e18"},"vehicle_type_id":"4","last_reported":1744837753,"current_range_meters":16000,"station_id":"ce4bh412rcd13ifvqdr0","pricing_plan_id":"cebpf4jnsgd1na2vs0mg"},{"bike_id":"35f3d1aa-7414-481f-a4b3-d31cb5ab7b8f","system_id":"levelo_inurba_marseille","lat":43.29026,"lon":5.38647,"is_reserved":false,"is_disabled":false,"rental_uris":{"android":"levelo://app?vid=35f3d1aa-7414-481f-a4b3-d31cb5ab7b8f","ios":"levelo://app?vid=35f3d1aa-7414-481f-a4b3-d31cb5ab7b8f"},"vehicle_type_id":"4","last_reported":1744837753,"current_range_meters":15200,"station_id":"ce4bh4p2rcd13ifvqe0g","pricing_plan_id":"cebpf4jnsgd1na2vs0mg"},{"bike_id":"57406be6-c0b4-4691-8abf-3f6842e4ec81","system_id":"levelo_inurba_marseille","lat":43.28438,"lon":5.39189,"is_reserved":false,"is_disabled":true,"rental_uris":{"android":"levelo://app?vid=57406be6-c0b4-4691-8abf-3f6842e4ec81","ios":"levelo://app?vid=57406be6-c0b4-4691-8abf-3f6842e4ec81"},"vehicle_type_id":"4","last_reported":1744837753,"current_range_meters":15200,"station_id":"ce4bhoh2rcd13ifvqh5g","pricing_plan_id":"cebpf4jnsgd1na2vs0mg"},{"bike_id":"66c7ae29-af72-4c4b-b815-486ce35888a4","system_id":"levelo_inurba_marseille","lat":43.29256,"lon":5.37631,"is_reserved":false,"is_disabled":false,"rental_uris":{"android":"levelo://app?vid=66c7ae29-af72-4c4b-b815-486ce35888a4","ios":"levelo://app?vid=66c7ae29-af72-4c4b-b815-486ce35888a4"},"vehicle_type_id":"4","last_reported":1744837753,"current_range_meters":14400,"station_id":"ce4bgi12rcd13ifvqb80","pricing_plan_id":"cebpf4jnsgd1na2vs0mg"},{"bike_id":"35100e48-d85e-4592-93bf-b13bb8464f4f","system_id":"levelo_inurba_marseille","lat":43.28006,"lon":5.41645,"is_reserved":false,"is_disabled":false,"rental_uris":{"android":"levelo://app?vid=35100e48-d85e-4592-93bf-b13bb8464f4f","ios":"levelo://app?vid=35100e48-d85e-4592-93bf-b13bb8464f4f"},"vehicle_type_id":"4","last_reported":1744837753,"current_range_meters":16000,"station_id":"ce4bho12rcd13ifvqh1g","pricing_plan_id":"cebpf4jnsgd1na2vs0mg"},{"bike_id":"394181cf-d138-4b85-a28e-7228cf97ac19","system_id":"levelo_inurba_marseille","lat":43.31994,"lon":5.3814,"is_reserved":false,"is_disabled":false,"rental_uris":{"android":"levelo://app?vid=394181cf-d138-4b85-a28e-7228cf97ac19","ios":"levelo://app?vid=394181cf-d138-4b85-a28e-7228cf97ac19"},"vehicle_type_id":"4","last_reported":1744837753,"current_range_meters":16000,"station_id":"ce4bhr12rcd13ifvqhpg","pricing_plan_id":"cebpf4jnsgd1na2vs0mg"},{"bike_id":"49761f0b-7958-4d49-ba8f-813ea9bc9736","system_id":"levelo_inurba_marseille","lat":43.28933,"lon":5.36643,"is_reserved":false,"is_disabled":false,"rental_uris":{"android":"levelo://app?vid=49761f0b-7958-4d49-ba8f-813ea9bc9736","ios":"levelo://app?vid=49761f0b-7958-4d49-ba8f-813ea9bc9736"},"vehicle_type_id":"4","last_reported":1744837753,"current_range_meters":16000,"station_id":"ce4bhap2rcd13ifvqek0","pricing_plan_id":"cebpf4jnsgd1na2vs0mg"},{"bike_id":"c5c76ae8-2915-4bf5-a264-5e3406fc9f78","system_id":"levelo_inurba_marseille","lat":43.29026,"lon":5.38646,"is_reserved":false,"is_disabled":false,"rental_uris":{"android":"levelo://app?vid=c5c76ae8-2915-4bf5-a264-5e3406fc9f78","ios":"levelo://app?vid=c5c76ae8-2915-4bf5-a264-5e3406fc9f78"},"vehicle_type_id":"4","last_reported":1744837753,"current_range_meters":16000,"station_id":"ce4bh4p2rcd13ifvqe0g","pricing_plan_id":"cebpf4jnsgd1na2vs0mg"},{"bike_id":"27ceca5f-cd6d-4256-96c8-0924d154f0b3","system_id":"levelo_inurba_marseille","lat":43.30318,"lon":5.39215,"is_reserved":false,"is_disabled":true,"rental_uris":{"android":"levelo://app?vid=27ceca5f-cd6d-4256-96c8-0924d154f0b3","ios":"levelo://app?vid=27ceca5f-cd6d-4256-96c8-0924d154f0b3"},"vehicle_type_id":"4","last_reported":1744837753,"current_range_meters":16000,"station_id":"ce4bgkh2rcd13ifvqbk0","pricing_plan_id":"cebpf4jnsgd1na2vs0mg"},{"bike_id":"8be75756-a53c-4ba1-b857-7453ea94c63f","system_id":"levelo_inurba_marseille","lat":43.29425,"lon":5.38624,"is_reserved":false,"is_disabled":false,"rental_uris":{"android":"levelo://app?vid=8be75756-a53c-4ba1-b857-7453ea94c63f","ios":"levelo://app?vid=8be75756-a53c-4ba1-b857-7453ea94c63f"},"vehicle_type_id":"4","last_reported":1744837753,"current_range_meters":16000,"station_id":"ce4bh2h2rcd13ifvqdh0","pricing_plan_id":"cebpf4jnsgd1na2vs0mg"},{"bike_id":"b1f42236-afb1-4d50-8c55-a5bd3257f481","system_id":"levelo_inurba_marseille","lat":43.29419,"lon":5.38627,"is_reserved":false,"is_disabled":false,"rental_uris":{"android":"levelo://app?vid=b1f42236-afb1-4d50-8c55-a5bd3257f481","ios":"levelo://app?vid=b1f42236-afb1-4d50-8c55-a5bd3257f481"},"vehicle_type_id":"4","last_reported":1744837753,"current_range_meters":16000,"station_id":"ce4bh2h2rcd13ifvqdh0","pricing_plan_id":"cebpf4jnsgd1na2vs0mg"},{"bike_id":"2909136c-832d-48b6-ae24-8dbd950af2de","system_id":"levelo_inurba_marseille","lat":43.28393,"lon":5.37551,"is_reserved":false,"is_disabled":false,"rental_uris":{"android":"levelo://app?vid=2909136c-832d-48b6-ae24-8dbd950af2de","ios":"levelo://app?vid=2909136c-832d-48b6-ae24-8dbd950af2de"},"vehicle_type_id":"4","last_reported":1744837753,"current_range_meters":16000,"station_id":"ce4bh412rcd13ifvqds0","pricing_plan_id":"cebpf4jnsgd1na2vs0mg"},{"bike_id":"7d4a7fce-596b-40a1-bf8e-35f954a39aba","system_id":"levelo_inurba_marseille","lat":43.24804,"lon":5.37451,"is_reserved":false,"is_disabled":false,"rental_uris":{"android":"levelo://app?vid=7d4a7fce-596b-40a1-bf8e-35f954a39aba","ios":"levelo://app?vid=7d4a7fce-596b-40a1-bf8e-35f954a39aba"},"vehicle_type_id":"4","last_reported":1744837753,"current_range_meters":16400,"station_id":"ce4bhgh2rcd13ifvqfb0","pricing_plan_id":"cebpf4jnsgd1na2vs0mg"},{"bike_id":"7202a930-c528-41c4-b09a-234eef0ae5be","system_id":"levelo_inurba_marseille","lat":43.32656,"lon":5.40994,"is_reserved":false,"is_disabled":false,"rental_uris":{"android":"levelo://app?vid=7202a930-c528-41c4-b09a-234eef0ae5be","ios":"levelo://app?vid=7202a930-c528-41c4-b09a-234eef0ae5be"},"vehicle_type_id":"4","last_reported":1744837753,"current_range_meters":16400,"station_id":"ce4bhpp2rcd13ifvqhgg","pricing_plan_id":"cebpf4jnsgd1na2vs0mg"},{"bike_id":"cd29f771-4ea3-4803-8cd8-dd60031c0d11","system_id":"levelo_inurba_marseille","lat":43.28672,"lon":5.38675,"is_reserved":false,"is_disabled":false,"rental_uris":{"android":"levelo://app?vid=cd29f771-4ea3-4803-8cd8-dd60031c0d11","ios":"levelo://app?vid=cd29f771-4ea3-4803-8cd8-dd60031c0d11"},"vehicle_type_id":"4","last_reported":1744837753,"current_range_meters":16400,"station_id":"ce4bh492rcd13ifvqdug","pricing_plan_id":"cebpf4jnsgd1na2vs0mg"},{"bike_id":"baf04868-3ad9-4949-b39a-063b0d0c8334","system_id":"levelo_inurba_marseille","lat":43.30927,"lon":5.40144,"is_reserved":false,"is_disabled":false,"rental_uris":{"android":"levelo://app?vid=baf04868-3ad9-4949-b39a-063b0d0c8334","ios":"levelo://app?vid=baf04868-3ad9-4949-b39a-063b0d0c8334"},"vehicle_type_id":"4","last_reported":1744837753,"current_range_meters":16400,"station_id":"ce4bgvp2rcd13ifvqct0","pricing_plan_id":"cebpf4jnsgd1na2vs0mg"},{"bike_id":"55bf7d64-8904-41cf-9841-741e41c57a71","system_id":"levelo_inurba_marseille","lat":43.28704,"lon":5.40011,"is_reserved":false,"is_disabled":false,"rental_uris":{"android":"levelo://app?vid=55bf7d64-8904-41cf-9841-741e41c57a71","ios":"levelo://app?vid=55bf7d64-8904-41cf-9841-741e41c57a71"},"vehicle_type_id":"4","last_reported":1744837753,"current_range_meters":16800,"station_id":"ce4bho92rcd13ifvqh3g","pricing_plan_id":"cebpf4jnsgd1na2vs0mg"},{"bike_id":"f0ad0340-2706-495b-9aa6-2660a8a4d5c0","system_id":"levelo_inurba_marseille","lat":43.29242,"lon":5.40915,"is_reserved":false,"is_disabled":false,"rental_uris":{"android":"levelo://app?vid=f0ad0340-2706-495b-9aa6-2660a8a4d5c0","ios":"levelo://app?vid=f0ad0340-2706-495b-9aa6-2660a8a4d5c0"},"vehicle_type_id":"4","last_reported":1744837753,"current_range_meters":16800,"station_id":"ce4bh192rcd13ifvqdc0","pricing_plan_id":"cebpf4jnsgd1na2vs0mg"},{"bike_id":"406411fe-277b-4d3b-a707-dc7399b76ee1","system_id":"levelo_inurba_marseille","lat":43.28073,"lon":5.39661,"is_reserved":false,"is_disabled":false,"rental_uris":{"android":"levelo://app?vid=406411fe-277b-4d3b-a707-dc7399b76ee1","ios":"levelo://app?vid=406411fe-277b-4d3b-a707-dc7399b76ee1"},"vehicle_type_id":"4","last_reported":1744837753,"current_range_meters":16800,"station_id":"ce4bho12rcd13ifvqh2g","pricing_plan_id":"cebpf4jnsgd1na2vs0mg"},{"bike_id":"0e7f3c1c-5749-4ea0-8c4b-38be5bb50b3a","system_id":"levelo_inurba_marseille","lat":43.306359,"lon":5.400959,"is_reserved":false,"is_disabled":false,"rental_uris":{"android":"levelo://app?vid=0e7f3c1c-5749-4ea0-8c4b-38be5bb50b3a","ios":"levelo://app?vid=0e7f3c1c-5749-4ea0-8c4b-38be5bb50b3a"},"vehicle_type_id":"4","last_reported":1744837753,"current_range_meters":17200,"station_id":"ce4bh112rcd13ifvqda0","pricing_plan_id":"cebpf4jnsgd1na2vs0mg"},{"bike_id":"da0699e6-fffb-42fd-bda2-fa249cfedfd8","system_id":"levelo_inurba_marseille","lat":43.3149,"lon":5.37303,"is_reserved":false,"is_disabled":false,"rental_uris":{"android":"levelo://app?vid=da0699e6-fffb-42fd-bda2-fa249cfedfd8","ios":"levelo://app?vid=da0699e6-fffb-42fd-bda2-fa249cfedfd8"},"vehicle_type_id":"4","last_reported":1744837753,"current_range_meters":17200,"station_id":"ce4bgt12rcd13ifvqcd0","pricing_plan_id":"cebpf4jnsgd1na2vs0mg"},{"bike_id":"826c48ed-ee3a-4478-921e-da6e448ea7b6","system_id":"levelo_inurba_marseille","lat":43.30319,"lon":5.40442,"is_reserved":false,"is_disabled":false,"rental_uris":{"android":"levelo://app?vid=826c48ed-ee3a-4478-921e-da6e448ea7b6","ios":"levelo://app?vid=826c48ed-ee3a-4478-921e-da6e448ea7b6"},"vehicle_type_id":"4","last_reported":1744837753,"current_range_meters":17200,"station_id":"ce4bh012rcd13ifvqd10","pricing_plan_id":"cebpf4jnsgd1na2vs0mg"},{"bike_id":"cca59662-9929-4c8f-8ded-c4ce479c294a","system_id":"levelo_inurba_marseille","lat":43.28461,"lon":5.38038,"is_reserved":false,"is_disabled":false,"rental_uris":{"android":"levelo://app?vid=cca59662-9929-4c8f-8ded-c4ce479c294a","ios":"levelo://app?vid=cca59662-9929-4c8f-8ded-c4ce479c294a"},"vehicle_type_id":"4","last_reported":1744837753,"current_range_meters":17200,"station_id":"","pricing_plan_id":"cebpf4jnsgd1na2vs0mg"},{"bike_id":"dc88ca14-385b-47d2-8f34-ba0ff66a2869","system_id":"levelo_inurba_marseille","lat":43.30921,"lon":5.37875,"is_reserved":false,"is_disabled":false,"rental_uris":{"android":"levelo://app?vid=dc88ca14-385b-47d2-8f34-ba0ff66a2869","ios":"levelo://app?vid=dc88ca14-385b-47d2-8f34-ba0ff66a2869"},"vehicle_type_id":"4","last_reported":1744837753,"current_range_meters":17200,"station_id":"","pricing_plan_id":"cebpf4jnsgd1na2vs0mg"},{"bike_id":"0291b7a7-5f86-48ec-8437-eba04e7bafe8","system_id":"levelo_inurba_marseille","lat":43.32363,"lon":5.36759,"is_reserved":false,"is_disabled":false,"rental_uris":{"android":"levelo://app?vid=0291b7a7-5f86-48ec-8437-eba04e7bafe8","ios":"levelo://app?vid=0291b7a7-5f86-48ec-8437-eba04e7bafe8"},"vehicle_type_id":"4","last_reported":1744837753,"current_range_meters":17600,"station_id":"ce4bhsh2rcd13ifvqi2g","pricing_plan_id":"cebpf4jnsgd1na2vs0mg"},{"bike_id":"220c8281-06de-4160-84fa-8646e3ba3ba5","system_id":"levelo_inurba_marseille","lat":43.28153,"lon":5.42645,"is_reserved":false,"is_disabled":false,"rental_uris":{"android":"levelo://app?vid=220c8281-06de-4160-84fa-8646e3ba3ba5","ios":"levelo://app?vid=220c8281-06de-4160-84fa-8646e3ba3ba5"},"vehicle_type_id":"4","last_reported":1744837753,"current_range_meters":17200,"station_id":"ce4bhnh2rcd13ifvqgug","pricing_plan_id":"cebpf4jnsgd1na2vs0mg"},{"bike_id":"1b92398b-3429-41a5-b86a-e43d708c889b","system_id":"levelo_inurba_marseille","lat":43.254939,"lon":5.376479,"is_reserved":false,"is_disabled":false,"rental_uris":{"android":"levelo://app?vid=1b92398b-3429-41a5-b86a-e43d708c889b","ios":"levelo://app?vid=1b92398b-3429-41a5-b86a-e43d708c889b"},"vehicle_type_id":"4","last_reported":1744837753,"current_range_meters":17600,"station_id":"ce4bhh12rcd13ifvqff0","pricing_plan_id":"cebpf4jnsgd1na2vs0mg"},{"bike_id":"f9294aff-5b6f-4d62-9db7-b7bdca4ffaf5","system_id":"levelo_inurba_marseille","lat":43.32548,"lon":5.41439,"is_reserved":false,"is_disabled":false,"rental_uris":{"android":"levelo://app?vid=f9294aff-5b6f-4d62-9db7-b7bdca4ffaf5","ios":"levelo://app?vid=f9294aff-5b6f-4d62-9db7-b7bdca4ffaf5"},"vehicle_type_id":"4","last_reported":1744837753,"current_range_meters":17600,"station_id":"ce4bhq12rcd13ifvqhhg","pricing_plan_id":"cebpf4jnsgd1na2vs0mg"},{"bike_id":"d67b9230-76ac-44c0-a11d-f5f9ea7f9459","system_id":"levelo_inurba_marseille","lat":43.266817,"lon":5.382573,"is_reserved":false,"is_disabled":false,"rental_uris":{"android":"levelo://app?vid=d67b9230-76ac-44c0-a11d-f5f9ea7f9459","ios":"levelo://app?vid=d67b9230-76ac-44c0-a11d-f5f9ea7f9459"},"vehicle_type_id":"4","last_reported":1744837753,"current_range_meters":18000,"station_id":"ce4bhg92rcd13ifvqf90","pricing_plan_id":"cebpf4jnsgd1na2vs0mg"},{"bike_id":"8bc01458-e04d-4e1e-9f4f-473a9ad28594","system_id":"levelo_inurba_marseille","lat":43.27904,"lon":5.39596,"is_reserved":false,"is_disabled":false,"rental_uris":{"android":"levelo://app?vid=8bc01458-e04d-4e1e-9f4f-473a9ad28594","ios":"levelo://app?vid=8bc01458-e04d-4e1e-9f4f-473a9ad28594"},"vehicle_type_id":"4","last_reported":1744837753,"current_range_meters":18000,"station_id":"ce4bhf92rcd13ifvqf40","pricing_plan_id":"cebpf4jnsgd1na2vs0mg"},{"bike_id":"173d39b4-7a97-4693-9385-db8bda0fe199","system_id":"levelo_inurba_marseille","lat":43.21749,"lon":5.34612,"is_reserved":false,"is_disabled":false,"rental_uris":{"android":"levelo://app?vid=173d39b4-7a97-4693-9385-db8bda0fe199","ios":"levelo://app?vid=173d39b4-7a97-4693-9385-db8bda0fe199"},"vehicle_type_id":"4","last_reported":1744837753,"current_range_meters":18000,"station_id":"st_cvj6r9ubvosntc0bgbag","pricing_plan_id":"cebpf4jnsgd1na2vs0mg"},{"bike_id":"5616d6da-47e8-4727-8482-c12583c7331e","system_id":"levelo_inurba_marseille","lat":43.27176,"lon":5.4099,"is_reserved":false,"is_disabled":false,"rental_uris":{"android":"levelo://app?vid=5616d6da-47e8-4727-8482-c12583c7331e","ios":"levelo://app?vid=5616d6da-47e8-4727-8482-c12583c7331e"},"vehicle_type_id":"4","last_reported":1744837753,"current_range_meters":18000,"station_id":"ce4bhl12rcd13ifvqgf0","pricing_plan_id":"cebpf4jnsgd1na2vs0mg"},{"bike_id":"91b60c90-5ea3-4f14-9aa4-c8fdfcb39189","system_id":"levelo_inurba_marseille","lat":43.33612,"lon":5.41036,"is_reserved":false,"is_disabled":false,"rental_uris":{"android":"levelo://app?vid=91b60c90-5ea3-4f14-9aa4-c8fdfcb39189","ios":"levelo://app?vid=91b60c90-5ea3-4f14-9aa4-c8fdfcb39189"},"vehicle_type_id":"4","last_reported":1744837753,"current_range_meters":18000,"station_id":"ce4bhqh2rcd13ifvqhmg","pricing_plan_id":"cebpf4jnsgd1na2vs0mg"},{"bike_id":"fd004068-7161-4dbb-a955-dc3b29ce8ef2","system_id":"levelo_inurba_marseille","lat":43.29956,"lon":5.39016,"is_reserved":false,"is_disabled":false,"rental_uris":{"android":"levelo://app?vid=fd004068-7161-4dbb-a955-dc3b29ce8ef2","ios":"levelo://app?vid=fd004068-7161-4dbb-a955-dc3b29ce8ef2"},"vehicle_type_id":"4","last_reported":1744837753,"current_range_meters":18000,"station_id":"ce4bh392rcd13ifvqdl0","pricing_plan_id":"cebpf4jnsgd1na2vs0mg"},{"bike_id":"85e8aa86-a8ab-4e3e-b05c-5ae434bba4a7","system_id":"levelo_inurba_marseille","lat":43.28671,"lon":5.38663,"is_reserved":false,"is_disabled":false,"rental_uris":{"android":"levelo://app?vid=85e8aa86-a8ab-4e3e-b05c-5ae434bba4a7","ios":"levelo://app?vid=85e8aa86-a8ab-4e3e-b05c-5ae434bba4a7"},"vehicle_type_id":"4","last_reported":1744837753,"current_range_meters":18000,"station_id":"ce4bh492rcd13ifvqdug","pricing_plan_id":"cebpf4jnsgd1na2vs0mg"},{"bike_id":"17c9dc6c-271d-433f-9b4c-f545e7e15d51","system_id":"levelo_inurba_marseille","lat":43.280892,"lon":5.396608,"is_reserved":false,"is_disabled":false,"rental_uris":{"android":"levelo://app?vid=17c9dc6c-271d-433f-9b4c-f545e7e15d51","ios":"levelo://app?vid=17c9dc6c-271d-433f-9b4c-f545e7e15d51"},"vehicle_type_id":"4","last_reported":1744837753,"current_range_meters":18000,"station_id":"ce4bho12rcd13ifvqh2g","pricing_plan_id":"cebpf4jnsgd1na2vs0mg"},{"bike_id":"a0ddb0a5-f7f0-4281-aa27-9e82747cc573","system_id":"levelo_inurba_marseille","lat":43.337619,"lon":5.374828,"is_reserved":false,"is_disabled":false,"rental_uris":{"android":"levelo://app?vid=a0ddb0a5-f7f0-4281-aa27-9e82747cc573","ios":"levelo://app?vid=a0ddb0a5-f7f0-4281-aa27-9e82747cc573"},"vehicle_type_id":"4","last_reported":1744837753,"current_range_meters":18000,"station_id":"","pricing_plan_id":"cebpf4jnsgd1na2vs0mg"},{"bike_id":"d750596a-6ac6-4755-84cc-45acd4464f3d","system_id":"levelo_inurba_marseille","lat":43.24409,"lon":5.37071,"is_reserved":false,"is_disabled":false,"rental_uris":{"android":"levelo://app?vid=d750596a-6ac6-4755-84cc-45acd4464f3d","ios":"levelo://app?vid=d750596a-6ac6-4755-84cc-45acd4464f3d"},"vehicle_type_id":"4","last_reported":1744837753,"current_range_meters":18800,"station_id":"ce4bhhh2rcd13ifvqfk0","pricing_plan_id":"cebpf4jnsgd1na2vs0mg"},{"bike_id":"116f4404-8a06-4191-a52b-63148c33046d","system_id":"levelo_inurba_marseille","lat":43.289295,"lon":5.383992,"is_reserved":false,"is_disabled":false,"rental_uris":{"android":"levelo://app?vid=116f4404-8a06-4191-a52b-63148c33046d","ios":"levelo://app?vid=116f4404-8a06-4191-a52b-63148c33046d"},"vehicle_type_id":"4","last_reported":1744837753,"current_range_meters":18800,"station_id":"ce4bh612rcd13ifvqe6g","pricing_plan_id":"cebpf4jnsgd1na2vs0mg"},{"bike_id":"bbb1c662-cc65-4c72-8489-de78d2f0f12f","system_id":"levelo_inurba_marseille","lat":43.23062,"lon":5.35498,"is_reserved":false,"is_disabled":false,"rental_uris":{"android":"levelo://app?vid=bbb1c662-cc65-4c72-8489-de78d2f0f12f","ios":"levelo://app?vid=bbb1c662-cc65-4c72-8489-de78d2f0f12f"},"vehicle_type_id":"4","last_reported":1744837753,"current_range_meters":18800,"station_id":"cpo3342slgdg3j2ifvpg","pricing_plan_id":"cebpf4jnsgd1na2vs0mg"},{"bike_id":"a9a13b2f-e2de-4f40-968c-4382de62974d","system_id":"levelo_inurba_marseille","lat":43.27958,"lon":5.41025,"is_reserved":false,"is_disabled":false,"rental_uris":{"android":"levelo://app?vid=a9a13b2f-e2de-4f40-968c-4382de62974d","ios":"levelo://app?vid=a9a13b2f-e2de-4f40-968c-4382de62974d"},"vehicle_type_id":"4","last_reported":1744837753,"current_range_meters":18800,"station_id":"ce4bhnp2rcd13ifvqh0g","pricing_plan_id":"cebpf4jnsgd1na2vs0mg"},{"bike_id":"b652bdb7-a4d5-4927-bd0c-73ce3a2e3721","system_id":"levelo_inurba_marseille","lat":43.26799,"lon":5.40285,"is_reserved":false,"is_disabled":false,"rental_uris":{"android":"levelo://app?vid=b652bdb7-a4d5-4927-bd0c-73ce3a2e3721","ios":"levelo://app?vid=b652bdb7-a4d5-4927-bd0c-73ce3a2e3721"},"vehicle_type_id":"4","last_reported":1744837753,"current_range_meters":18800,"station_id":"ce501612rcd8frsf0b60","pricing_plan_id":"cebpf4jnsgd1na2vs0mg"},{"bike_id":"0620d2fb-fed7-4ee2-913e-6d03123ff78c","system_id":"levelo_inurba_marseille","lat":43.2293,"lon":5.35388,"is_reserved":false,"is_disabled":false,"rental_uris":{"android":"levelo://app?vid=0620d2fb-fed7-4ee2-913e-6d03123ff78c","ios":"levelo://app?vid=0620d2fb-fed7-4ee2-913e-6d03123ff78c"},"vehicle_type_id":"4","last_reported":1744837753,"current_range_meters":19200,"station_id":"cpo3532slgdg3j2ikp40","pricing_plan_id":"cebpf4jnsgd1na2vs0mg"},{"bike_id":"2e1ccd08-cc25-4f87-90bc-f68a3f45cda7","system_id":"levelo_inurba_marseille","lat":43.29586,"lon":5.3812,"is_reserved":false,"is_disabled":false,"rental_uris":{"android":"levelo://app?vid=2e1ccd08-cc25-4f87-90bc-f68a3f45cda7","ios":"levelo://app?vid=2e1ccd08-cc25-4f87-90bc-f68a3f45cda7"},"vehicle_type_id":"4","last_reported":1744837753,"current_range_meters":19200,"station_id":"ce4bgl12rcd13ifvqbo0","pricing_plan_id":"cebpf4jnsgd1na2vs0mg"},{"bike_id":"c31f8854-b880-4984-807c-ccbbefc82b0c","system_id":"levelo_inurba_marseille","lat":43.29513,"lon":5.38545,"is_reserved":false,"is_disabled":false,"rental_uris":{"android":"levelo://app?vid=c31f8854-b880-4984-807c-ccbbefc82b0c","ios":"levelo://app?vid=c31f8854-b880-4984-807c-ccbbefc82b0c"},"vehicle_type_id":"4","last_reported":1744837753,"current_range_meters":19200,"station_id":"ce4bgih2rcd13ifvqba0","pricing_plan_id":"cebpf4jnsgd1na2vs0mg"},{"bike_id":"5e1950f1-3570-4e07-a7cc-3dbf8a21d845","system_id":"levelo_inurba_marseille","lat":43.28157,"lon":5.42637,"is_reserved":false,"is_disabled":false,"rental_uris":{"android":"levelo://app?vid=5e1950f1-3570-4e07-a7cc-3dbf8a21d845","ios":"levelo://app?vid=5e1950f1-3570-4e07-a7cc-3dbf8a21d845"},"vehicle_type_id":"4","last_reported":1744837753,"current_range_meters":19200,"station_id":"ce4bhnh2rcd13ifvqgug","pricing_plan_id":"cebpf4jnsgd1na2vs0mg"},{"bike_id":"e57b8bd1-418e-4b0f-91cb-a3fa9c183f8d","system_id":"levelo_inurba_marseille","lat":43.2693,"lon":5.38923,"is_reserved":false,"is_disabled":false,"rental_uris":{"android":"levelo://app?vid=e57b8bd1-418e-4b0f-91cb-a3fa9c183f8d","ios":"levelo://app?vid=e57b8bd1-418e-4b0f-91cb-a3fa9c183f8d"},"vehicle_type_id":"4","last_reported":1744837753,"current_range_meters":19200,"station_id":"ce4bhhh2rcd13ifvqfl0","pricing_plan_id":"cebpf4jnsgd1na2vs0mg"},{"bike_id":"4b766682-d2f8-40ff-99c8-adabc4d6c4a8","system_id":"levelo_inurba_marseille","lat":43.29781,"lon":5.39341,"is_reserved":false,"is_disabled":false,"rental_uris":{"android":"levelo://app?vid=4b766682-d2f8-40ff-99c8-adabc4d6c4a8","ios":"levelo://app?vid=4b766682-d2f8-40ff-99c8-adabc4d6c4a8"},"vehicle_type_id":"4","last_reported":1744837753,"current_range_meters":19200,"station_id":"chh1huq6cuj3fo74tm60","pricing_plan_id":"cebpf4jnsgd1na2vs0mg"},{"bike_id":"08f4dcee-7656-4957-9022-f13783bb2667","system_id":"levelo_inurba_marseille","lat":43.29689,"lon":5.37239,"is_reserved":false,"is_disabled":false,"rental_uris":{"android":"levelo://app?vid=08f4dcee-7656-4957-9022-f13783bb2667","ios":"levelo://app?vid=08f4dcee-7656-4957-9022-f13783bb2667"},"vehicle_type_id":"4","last_reported":1744837753,"current_range_meters":19600,"station_id":"ce4bgk12rcd13ifvqbj0","pricing_plan_id":"cebpf4jnsgd1na2vs0mg"},{"bike_id":"d39e5537-c00a-4bf8-9f22-53966b448679","system_id":"levelo_inurba_marseille","lat":43.29584,"lon":5.42316,"is_reserved":false,"is_disabled":false,"rental_uris":{"android":"levelo://app?vid=d39e5537-c00a-4bf8-9f22-53966b448679","ios":"levelo://app?vid=d39e5537-c00a-4bf8-9f22-53966b448679"},"vehicle_type_id":"4","last_reported":1744837753,"current_range_meters":19600,"station_id":"ce4bhph2rcd13ifvqhdg","pricing_plan_id":"cebpf4jnsgd1na2vs0mg"},{"bike_id":"c4a450be-396f-492a-9043-0903302593d4","system_id":"levelo_inurba_marseille","lat":43.29028,"lon":5.38642,"is_reserved":false,"is_disabled":false,"rental_uris":{"android":"levelo://app?vid=c4a450be-396f-492a-9043-0903302593d4","ios":"levelo://app?vid=c4a450be-396f-492a-9043-0903302593d4"},"vehicle_type_id":"4","last_reported":1744837753,"current_range_meters":19600,"station_id":"ce4bh4p2rcd13ifvqe0g","pricing_plan_id":"cebpf4jnsgd1na2vs0mg"},{"bike_id":"0f2f13a0-6a8d-44d3-bc7e-ecbee79e2e90","system_id":"levelo_inurba_marseille","lat":43.28667,"lon":5.36358,"is_reserved":false,"is_disabled":false,"rental_uris":{"android":"levelo://app?vid=0f2f13a0-6a8d-44d3-bc7e-ecbee79e2e90","ios":"levelo://app?vid=0f2f13a0-6a8d-44d3-bc7e-ecbee79e2e90"},"vehicle_type_id":"4","last_reported":1744837753,"current_range_meters":19600,"station_id":"ce4bhah2rcd13ifvqej0","pricing_plan_id":"cebpf4jnsgd1na2vs0mg"},{"bike_id":"d486101b-072f-470b-a885-f5f95c61cd86","system_id":"levelo_inurba_marseille","lat":43.31473,"lon":5.37289,"is_reserved":false,"is_disabled":false,"rental_uris":{"android":"levelo://app?vid=d486101b-072f-470b-a885-f5f95c61cd86","ios":"levelo://app?vid=d486101b-072f-470b-a885-f5f95c61cd86"},"vehicle_type_id":"4","last_reported":1744837753,"current_range_meters":19600,"station_id":"ce4bgt12rcd13ifvqcd0","pricing_plan_id":"cebpf4jnsgd1na2vs0mg"},{"bike_id":"b557e27d-0f32-4a0a-b488-e6933e60a2bf","system_id":"levelo_inurba_marseille","lat":43.29783,"lon":5.39341,"is_reserved":false,"is_disabled":false,"rental_uris":{"android":"levelo://app?vid=b557e27d-0f32-4a0a-b488-e6933e60a2bf","ios":"levelo://app?vid=b557e27d-0f32-4a0a-b488-e6933e60a2bf"},"vehicle_type_id":"4","last_reported":1744837753,"current_range_meters":19600,"station_id":"chh1huq6cuj3fo74tm60","pricing_plan_id":"cebpf4jnsgd1na2vs0mg"},{"bike_id":"d4a81af1-8a84-4539-aa58-616bfb5c9f39","system_id":"levelo_inurba_marseille","lat":43.24807,"lon":5.3745,"is_reserved":false,"is_disabled":false,"rental_uris":{"android":"levelo://app?vid=d4a81af1-8a84-4539-aa58-616bfb5c9f39","ios":"levelo://app?vid=d4a81af1-8a84-4539-aa58-616bfb5c9f39"},"vehicle_type_id":"4","last_reported":1744837753,"current_range_meters":20000,"station_id":"ce4bhgh2rcd13ifvqfb0","pricing_plan_id":"cebpf4jnsgd1na2vs0mg"},{"bike_id":"708a2c46-009d-44c0-8363-20ad3b399370","system_id":"levelo_inurba_marseille","lat":43.29424,"lon":5.38632,"is_reserved":false,"is_disabled":false,"rental_uris":{"android":"levelo://app?vid=708a2c46-009d-44c0-8363-20ad3b399370","ios":"levelo://app?vid=708a2c46-009d-44c0-8363-20ad3b399370"},"vehicle_type_id":"4","last_reported":1744837753,"current_range_meters":20000,"station_id":"ce4bh2h2rcd13ifvqdh0","pricing_plan_id":"cebpf4jnsgd1na2vs0mg"},{"bike_id":"5ab15372-fecb-4b36-a9ba-ab0c01ef81bc","system_id":"levelo_inurba_marseille","lat":43.306,"lon":5.393656,"is_reserved":false,"is_disabled":false,"rental_uris":{"android":"levelo://app?vid=5ab15372-fecb-4b36-a9ba-ab0c01ef81bc","ios":"levelo://app?vid=5ab15372-fecb-4b36-a9ba-ab0c01ef81bc"},"vehicle_type_id":"4","last_reported":1744837753,"current_range_meters":20000,"station_id":"ce4bgl12rcd13ifvqbo0","pricing_plan_id":"cebpf4jnsgd1na2vs0mg"},{"bike_id":"41fb0398-f2fe-4abb-ae37-a38f47615ea9","system_id":"levelo_inurba_marseille","lat":43.323583,"lon":5.367613,"is_reserved":false,"is_disabled":false,"rental_uris":{"android":"levelo://app?vid=41fb0398-f2fe-4abb-ae37-a38f47615ea9","ios":"levelo://app?vid=41fb0398-f2fe-4abb-ae37-a38f47615ea9"},"vehicle_type_id":"4","last_reported":1744837753,"current_range_meters":20000,"station_id":"ce4bhsh2rcd13ifvqi2g","pricing_plan_id":"cebpf4jnsgd1na2vs0mg"},{"bike_id":"2984cec8-23de-4a73-97a3-c0829eb8b5c7","system_id":"levelo_inurba_marseille","lat":43.2792,"lon":5.39598,"is_reserved":false,"is_disabled":false,"rental_uris":{"android":"levelo://app?vid=2984cec8-23de-4a73-97a3-c0829eb8b5c7","ios":"levelo://app?vid=2984cec8-23de-4a73-97a3-c0829eb8b5c7"},"vehicle_type_id":"4","last_reported":1744837753,"current_range_meters":20000,"station_id":"ce4bhf92rcd13ifvqf40","pricing_plan_id":"cebpf4jnsgd1na2vs0mg"},{"bike_id":"04fb422e-0aec-4205-8e11-f392462c55c3","system_id":"levelo_inurba_marseille","lat":43.26806,"lon":5.40283,"is_reserved":false,"is_disabled":false,"rental_uris":{"android":"levelo://app?vid=04fb422e-0aec-4205-8e11-f392462c55c3","ios":"levelo://app?vid=04fb422e-0aec-4205-8e11-f392462c55c3"},"vehicle_type_id":"4","last_reported":1744837753,"current_range_meters":20000,"station_id":"ce501612rcd8frsf0b60","pricing_plan_id":"cebpf4jnsgd1na2vs0mg"},{"bike_id":"0b7b9afc-b2db-43f5-aeb8-7a1248a5408e","system_id":"levelo_inurba_marseille","lat":43.31282,"lon":5.37756,"is_reserved":false,"is_disabled":false,"rental_uris":{"android":"levelo://app?vid=0b7b9afc-b2db-43f5-aeb8-7a1248a5408e","ios":"levelo://app?vid=0b7b9afc-b2db-43f5-aeb8-7a1248a5408e"},"vehicle_type_id":"4","last_reported":1744837753,"current_range_meters":20000,"station_id":"","pricing_plan_id":"cebpf4jnsgd1na2vs0mg"},{"bike_id":"e8527519-e535-4e43-b3f9-02e677af9c37","system_id":"levelo_inurba_marseille","lat":43.29971,"lon":5.37184,"is_reserved":false,"is_disabled":false,"rental_uris":{"android":"levelo://app?vid=e8527519-e535-4e43-b3f9-02e677af9c37","ios":"levelo://app?vid=e8527519-e535-4e43-b3f9-02e677af9c37"},"vehicle_type_id":"4","last_reported":1744837753,"current_range_meters":19600,"station_id":"ce4bgr92rcd13ifvqc7g","pricing_plan_id":"cebpf4jnsgd1na2vs0mg"},{"bike_id":"d539324f-6b6b-4525-b920-ac614066a0d9","system_id":"levelo_inurba_marseille","lat":43.30884,"lon":5.39631,"is_reserved":false,"is_disabled":false,"rental_uris":{"android":"levelo://app?vid=d539324f-6b6b-4525-b920-ac614066a0d9","ios":"levelo://app?vid=d539324f-6b6b-4525-b920-ac614066a0d9"},"vehicle_type_id":"4","last_reported":1744837753,"current_range_meters":20000,"station_id":"ce4bh012rcd13ifvqcv0","pricing_plan_id":"cebpf4jnsgd1na2vs0mg"},{"bike_id":"c785a930-e2fc-4a2c-95ab-2c04b1df45b5","system_id":"levelo_inurba_marseille","lat":43.29251,"lon":5.37627,"is_reserved":false,"is_disabled":false,"rental_uris":{"android":"levelo://app?vid=c785a930-e2fc-4a2c-95ab-2c04b1df45b5","ios":"levelo://app?vid=c785a930-e2fc-4a2c-95ab-2c04b1df45b5"},"vehicle_type_id":"4","last_reported":1744837753,"current_range_meters":20000,"station_id":"ce4bgi12rcd13ifvqb80","pricing_plan_id":"cebpf4jnsgd1na2vs0mg"},{"bike_id":"32268efd-ace7-4c32-bffd-905d48d049d1","system_id":"levelo_inurba_marseille","lat":43.29025,"lon":5.38632,"is_reserved":false,"is_disabled":false,"rental_uris":{"android":"levelo://app?vid=32268efd-ace7-4c32-bffd-905d48d049d1","ios":"levelo://app?vid=32268efd-ace7-4c32-bffd-905d48d049d1"},"vehicle_type_id":"4","last_reported":1744837753,"current_range_meters":20000,"station_id":"ce4bh4p2rcd13ifvqe0g","pricing_plan_id":"cebpf4jnsgd1na2vs0mg"},{"bike_id":"926d437c-ff30-43a8-befb-7e373c75d533","system_id":"levelo_inurba_marseille","lat":43.28457,"lon":5.3588,"is_reserved":false,"is_disabled":false,"rental_uris":{"android":"levelo://app?vid=926d437c-ff30-43a8-befb-7e373c75d533","ios":"levelo://app?vid=926d437c-ff30-43a8-befb-7e373c75d533"},"vehicle_type_id":"4","last_reported":1744837753,"current_range_meters":20400,"station_id":"ce4bhah2rcd13ifvqei0","pricing_plan_id":"cebpf4jnsgd1na2vs0mg"},{"bike_id":"74cde955-2aca-408e-b399-855c23c35e00","system_id":"levelo_inurba_marseille","lat":43.297924,"lon":5.393331,"is_reserved":false,"is_disabled":false,"rental_uris":{"android":"levelo://app?vid=74cde955-2aca-408e-b399-855c23c35e00","ios":"levelo://app?vid=74cde955-2aca-408e-b399-855c23c35e00"},"vehicle_type_id":"4","last_reported":1744837753,"current_range_meters":20400,"station_id":"chh1huq6cuj3fo74tm60","pricing_plan_id":"cebpf4jnsgd1na2vs0mg"},{"bike_id":"d46dd680-baec-476a-b824-f3ff0442d755","system_id":"levelo_inurba_marseille","lat":43.2871,"lon":5.40001,"is_reserved":false,"is_disabled":false,"rental_uris":{"android":"levelo://app?vid=d46dd680-baec-476a-b824-f3ff0442d755","ios":"levelo://app?vid=d46dd680-baec-476a-b824-f3ff0442d755"},"vehicle_type_id":"4","last_reported":1744837753,"current_range_meters":20000,"station_id":"ce4bho92rcd13ifvqh3g","pricing_plan_id":"cebpf4jnsgd1na2vs0mg"},{"bike_id":"8fd2cdd0-07d7-4c01-add2-10309aca4136","system_id":"levelo_inurba_marseille","lat":43.267169,"lon":5.394645,"is_reserved":false,"is_disabled":true,"rental_uris":{"android":"levelo://app?vid=8fd2cdd0-07d7-4c01-add2-10309aca4136","ios":"levelo://app?vid=8fd2cdd0-07d7-4c01-add2-10309aca4136"},"vehicle_type_id":"4","last_reported":1744837753,"current_range_meters":20400,"station_id":"","pricing_plan_id":"cebpf4jnsgd1na2vs0mg"},{"bike_id":"e87617ae-6b99-40b9-85b1-d3c6923a68ac","system_id":"levelo_inurba_marseille","lat":43.30327,"lon":5.40429,"is_reserved":false,"is_disabled":false,"rental_uris":{"android":"levelo://app?vid=e87617ae-6b99-40b9-85b1-d3c6923a68ac","ios":"levelo://app?vid=e87617ae-6b99-40b9-85b1-d3c6923a68ac"},"vehicle_type_id":"4","last_reported":1744837753,"current_range_meters":20400,"station_id":"ce4bh012rcd13ifvqd10","pricing_plan_id":"cebpf4jnsgd1na2vs0mg"},{"bike_id":"14faadf3-1568-4451-8027-4e66a466f012","system_id":"levelo_inurba_marseille","lat":43.30808,"lon":5.38167,"is_reserved":false,"is_disabled":false,"rental_uris":{"android":"levelo://app?vid=14faadf3-1568-4451-8027-4e66a466f012","ios":"levelo://app?vid=14faadf3-1568-4451-8027-4e66a466f012"},"vehicle_type_id":"4","last_reported":1744837753,"current_range_meters":20000,"station_id":"ce4bgt12rcd13ifvqce0","pricing_plan_id":"cebpf4jnsgd1na2vs0mg"},{"bike_id":"4fde3710-8a47-481a-b7b8-b011705668f2","system_id":"levelo_inurba_marseille","lat":43.28708,"lon":5.3794,"is_reserved":false,"is_disabled":false,"rental_uris":{"android":"levelo://app?vid=4fde3710-8a47-481a-b7b8-b011705668f2","ios":"levelo://app?vid=4fde3710-8a47-481a-b7b8-b011705668f2"},"vehicle_type_id":"4","last_reported":1744837753,"current_range_meters":20400,"station_id":"ce4bh9p2rcd13ifvqec0","pricing_plan_id":"cebpf4jnsgd1na2vs0mg"},{"bike_id":"31281794-86da-43f1-be4d-cec41a15e4cd","system_id":"levelo_inurba_marseille","lat":43.28106,"lon":5.37842,"is_reserved":false,"is_disabled":false,"rental_uris":{"android":"levelo://app?vid=31281794-86da-43f1-be4d-cec41a15e4cd","ios":"levelo://app?vid=31281794-86da-43f1-be4d-cec41a15e4cd"},"vehicle_type_id":"4","last_reported":1744837753,"current_range_meters":20400,"station_id":"ce4bha12rcd13ifvqee0","pricing_plan_id":"cebpf4jnsgd1na2vs0mg"},{"bike_id":"3eb8d19d-dc63-48a7-802c-6f59b7f4ce2f","system_id":"levelo_inurba_marseille","lat":43.262907,"lon":5.402987,"is_reserved":false,"is_disabled":false,"rental_uris":{"android":"levelo://app?vid=3eb8d19d-dc63-48a7-802c-6f59b7f4ce2f","ios":"levelo://app?vid=3eb8d19d-dc63-48a7-802c-6f59b7f4ce2f"},"vehicle_type_id":"4","last_reported":1744837753,"current_range_meters":20400,"station_id":"ce4bhmh2rcd13ifvqgmg","pricing_plan_id":"cebpf4jnsgd1na2vs0mg"},{"bike_id":"c469ad3f-77ba-4f88-848e-bf9de29c8a72","system_id":"levelo_inurba_marseille","lat":43.29348,"lon":5.38217,"is_reserved":false,"is_disabled":false,"rental_uris":{"android":"levelo://app?vid=c469ad3f-77ba-4f88-848e-bf9de29c8a72","ios":"levelo://app?vid=c469ad3f-77ba-4f88-848e-bf9de29c8a72"},"vehicle_type_id":"4","last_reported":1744837753,"current_range_meters":20800,"station_id":"","pricing_plan_id":"cebpf4jnsgd1na2vs0mg"},{"bike_id":"8934c9ff-b955-4903-b5d2-c595dc711b7c","system_id":"levelo_inurba_marseille","lat":43.29597,"lon":5.39972,"is_reserved":false,"is_disabled":true,"rental_uris":{"android":"levelo://app?vid=8934c9ff-b955-4903-b5d2-c595dc711b7c","ios":"levelo://app?vid=8934c9ff-b955-4903-b5d2-c595dc711b7c"},"vehicle_type_id":"4","last_reported":1744837753,"current_range_meters":20800,"station_id":"ce4bh312rcd13ifvqdj0","pricing_plan_id":"cebpf4jnsgd1na2vs0mg"},{"bike_id":"49656461-bedc-4f0f-a69f-7ac8c555c02a","system_id":"levelo_inurba_marseille","lat":43.24388,"lon":5.37056,"is_reserved":false,"is_disabled":false,"rental_uris":{"android":"levelo://app?vid=49656461-bedc-4f0f-a69f-7ac8c555c02a","ios":"levelo://app?vid=49656461-bedc-4f0f-a69f-7ac8c555c02a"},"vehicle_type_id":"4","last_reported":1744837753,"current_range_meters":20800,"station_id":"ce4bhhh2rcd13ifvqfk0","pricing_plan_id":"cebpf4jnsgd1na2vs0mg"},{"bike_id":"f39308de-d8e2-4d9f-80e0-fe31459ff715","system_id":"levelo_inurba_marseille","lat":43.31366,"lon":5.38484,"is_reserved":false,"is_disabled":false,"rental_uris":{"android":"levelo://app?vid=f39308de-d8e2-4d9f-80e0-fe31459ff715","ios":"levelo://app?vid=f39308de-d8e2-4d9f-80e0-fe31459ff715"},"vehicle_type_id":"4","last_reported":1744837753,"current_range_meters":20800,"station_id":"ce4bgt92rcd13ifvqcf0","pricing_plan_id":"cebpf4jnsgd1na2vs0mg"},{"bike_id":"c9e98b9b-ea4f-4fe5-94eb-4865af23ac1a","system_id":"levelo_inurba_marseille","lat":43.310735,"lon":5.383492,"is_reserved":false,"is_disabled":false,"rental_uris":{"android":"levelo://app?vid=c9e98b9b-ea4f-4fe5-94eb-4865af23ac1a","ios":"levelo://app?vid=c9e98b9b-ea4f-4fe5-94eb-4865af23ac1a"},"vehicle_type_id":"4","last_reported":1744837753,"current_range_meters":21600,"station_id":"ce4bgrh2rcd13ifvqc8g","pricing_plan_id":"cebpf4jnsgd1na2vs0mg"},{"bike_id":"9b32d9b0-b425-4d34-812f-0c610ee31565","system_id":"levelo_inurba_marseille","lat":43.30211,"lon":5.39461,"is_reserved":false,"is_disabled":true,"rental_uris":{"android":"levelo://app?vid=9b32d9b0-b425-4d34-812f-0c610ee31565","ios":"levelo://app?vid=9b32d9b0-b425-4d34-812f-0c610ee31565"},"vehicle_type_id":"4","last_reported":1744837753,"current_range_meters":21600,"station_id":"ce4bh0p2rcd13ifvqd70","pricing_plan_id":"cebpf4jnsgd1na2vs0mg"},{"bike_id":"1d00456f-29c8-4f2b-94ca-209c3cd1138b","system_id":"levelo_inurba_marseille","lat":43.29447,"lon":5.39745,"is_reserved":false,"is_disabled":false,"rental_uris":{"android":"levelo://app?vid=1d00456f-29c8-4f2b-94ca-209c3cd1138b","ios":"levelo://app?vid=1d00456f-29c8-4f2b-94ca-209c3cd1138b"},"vehicle_type_id":"4","last_reported":1744837753,"current_range_meters":21600,"station_id":"ce4bh3h2rcd13ifvqdo0","pricing_plan_id":"cebpf4jnsgd1na2vs0mg"},{"bike_id":"5524340c-939d-4083-8181-f37b457ca0c2","system_id":"levelo_inurba_marseille","lat":43.29263,"lon":5.37635,"is_reserved":false,"is_disabled":false,"rental_uris":{"android":"levelo://app?vid=5524340c-939d-4083-8181-f37b457ca0c2","ios":"levelo://app?vid=5524340c-939d-4083-8181-f37b457ca0c2"},"vehicle_type_id":"4","last_reported":1744837753,"current_range_meters":21600,"station_id":"ce4bgi12rcd13ifvqb80","pricing_plan_id":"cebpf4jnsgd1na2vs0mg"},{"bike_id":"db6b9484-6a38-46cb-8696-9f1e40533f9e","system_id":"levelo_inurba_marseille","lat":43.293162,"lon":5.370566,"is_reserved":false,"is_disabled":false,"rental_uris":{"android":"levelo://app?vid=db6b9484-6a38-46cb-8696-9f1e40533f9e","ios":"levelo://app?vid=db6b9484-6a38-46cb-8696-9f1e40533f9e"},"vehicle_type_id":"4","last_reported":1744837753,"current_range_meters":21600,"station_id":"cki0cbj6b192h4jlfktg","pricing_plan_id":"cebpf4jnsgd1na2vs0mg"},{"bike_id":"4a5a54e6-a114-4dd0-a638-4c5add72693b","system_id":"levelo_inurba_marseille","lat":43.261956,"lon":5.379318,"is_reserved":false,"is_disabled":false,"rental_uris":{"android":"levelo://app?vid=4a5a54e6-a114-4dd0-a638-4c5add72693b","ios":"levelo://app?vid=4a5a54e6-a114-4dd0-a638-4c5add72693b"},"vehicle_type_id":"4","last_reported":1744837753,"current_range_meters":22000,"station_id":"ce4bhjp2rcd13ifvqg90","pricing_plan_id":"cebpf4jnsgd1na2vs0mg"},{"bike_id":"4cf9816a-d3d2-47a3-b1bd-70998bd96aff","system_id":"levelo_inurba_marseille","lat":43.29432,"lon":5.3975,"is_reserved":false,"is_disabled":false,"rental_uris":{"android":"levelo://app?vid=4cf9816a-d3d2-47a3-b1bd-70998bd96aff","ios":"levelo://app?vid=4cf9816a-d3d2-47a3-b1bd-70998bd96aff"},"vehicle_type_id":"4","last_reported":1744837753,"current_range_meters":22000,"station_id":"ce4bh3h2rcd13ifvqdo0","pricing_plan_id":"cebpf4jnsgd1na2vs0mg"},{"bike_id":"908cca1b-ad0d-490c-bffb-9ba5c9b80ef6","system_id":"levelo_inurba_marseille","lat":43.2926,"lon":5.40906,"is_reserved":false,"is_disabled":false,"rental_uris":{"android":"levelo://app?vid=908cca1b-ad0d-490c-bffb-9ba5c9b80ef6","ios":"levelo://app?vid=908cca1b-ad0d-490c-bffb-9ba5c9b80ef6"},"vehicle_type_id":"4","last_reported":1744837753,"current_range_meters":21600,"station_id":"ce4bh192rcd13ifvqdc0","pricing_plan_id":"cebpf4jnsgd1na2vs0mg"},{"bike_id":"bf719354-3a0f-4a08-a3dc-ea01891f96a8","system_id":"levelo_inurba_marseille","lat":43.292685,"lon":5.38434,"is_reserved":false,"is_disabled":true,"rental_uris":{"android":"levelo://app?vid=bf719354-3a0f-4a08-a3dc-ea01891f96a8","ios":"levelo://app?vid=bf719354-3a0f-4a08-a3dc-ea01891f96a8"},"vehicle_type_id":"4","last_reported":1744837753,"current_range_meters":22000,"station_id":"ce4bh692rcd13ifvqea0","pricing_plan_id":"cebpf4jnsgd1na2vs0mg"},{"bike_id":"74d54dab-068d-4f09-8cde-7a6249447c5f","system_id":"levelo_inurba_marseille","lat":43.291225,"lon":5.385481,"is_reserved":false,"is_disabled":false,"rental_uris":{"android":"levelo://app?vid=74d54dab-068d-4f09-8cde-7a6249447c5f","ios":"levelo://app?vid=74d54dab-068d-4f09-8cde-7a6249447c5f"},"vehicle_type_id":"4","last_reported":1744837753,"current_range_meters":22000,"station_id":"ce4bhoh2rcd13ifvqh5g","pricing_plan_id":"cebpf4jnsgd1na2vs0mg"},{"bike_id":"4d400f6e-54e1-48cd-9e23-1861b6f8b3bc","system_id":"levelo_inurba_marseille","lat":43.29384,"lon":5.37511,"is_reserved":false,"is_disabled":false,"rental_uris":{"android":"levelo://app?vid=4d400f6e-54e1-48cd-9e23-1861b6f8b3bc","ios":"levelo://app?vid=4d400f6e-54e1-48cd-9e23-1861b6f8b3bc"},"vehicle_type_id":"4","last_reported":1744837753,"current_range_meters":22400,"station_id":"","pricing_plan_id":"cebpf4jnsgd1na2vs0mg"},{"bike_id":"7eb8853e-3665-40f5-8308-1299f0674652","system_id":"levelo_inurba_marseille","lat":43.30379,"lon":5.42474,"is_reserved":false,"is_disabled":false,"rental_uris":{"android":"levelo://app?vid=7eb8853e-3665-40f5-8308-1299f0674652","ios":"levelo://app?vid=7eb8853e-3665-40f5-8308-1299f0674652"},"vehicle_type_id":"4","last_reported":1744837753,"current_range_meters":22400,"station_id":"ce4bhoh2rcd13ifvqh6g","pricing_plan_id":"cebpf4jnsgd1na2vs0mg"},{"bike_id":"5e6be620-a3d0-49c3-9ff0-b85332cde817","system_id":"levelo_inurba_marseille","lat":43.23194,"lon":5.35557,"is_reserved":false,"is_disabled":false,"rental_uris":{"android":"levelo://app?vid=5e6be620-a3d0-49c3-9ff0-b85332cde817","ios":"levelo://app?vid=5e6be620-a3d0-49c3-9ff0-b85332cde817"},"vehicle_type_id":"4","last_reported":1744837753,"current_range_meters":22400,"station_id":"ce4bhu92rcd13ifvqi70","pricing_plan_id":"cebpf4jnsgd1na2vs0mg"},{"bike_id":"e7418951-ceeb-404d-a2d7-c47bf109d0ee","system_id":"levelo_inurba_marseille","lat":43.28467,"lon":5.35877,"is_reserved":false,"is_disabled":false,"rental_uris":{"android":"levelo://app?vid=e7418951-ceeb-404d-a2d7-c47bf109d0ee","ios":"levelo://app?vid=e7418951-ceeb-404d-a2d7-c47bf109d0ee"},"vehicle_type_id":"4","last_reported":1744837753,"current_range_meters":22400,"station_id":"ce4bhah2rcd13ifvqei0","pricing_plan_id":"cebpf4jnsgd1na2vs0mg"},{"bike_id":"f49b23d8-f4bc-47a8-96e7-11a27acaa310","system_id":"levelo_inurba_marseille","lat":43.28692,"lon":5.39983,"is_reserved":false,"is_disabled":false,"rental_uris":{"android":"levelo://app?vid=f49b23d8-f4bc-47a8-96e7-11a27acaa310","ios":"levelo://app?vid=f49b23d8-f4bc-47a8-96e7-11a27acaa310"},"vehicle_type_id":"4","last_reported":1744837753,"current_range_meters":22400,"station_id":"ce4bho92rcd13ifvqh3g","pricing_plan_id":"cebpf4jnsgd1na2vs0mg"},{"bike_id":"421b8527-ab9a-4d48-8e78-647564edc005","system_id":"levelo_inurba_marseille","lat":43.28338,"lon":5.38118,"is_reserved":false,"is_disabled":false,"rental_uris":{"android":"levelo://app?vid=421b8527-ab9a-4d48-8e78-647564edc005","ios":"levelo://app?vid=421b8527-ab9a-4d48-8e78-647564edc005"},"vehicle_type_id":"4","last_reported":1744837753,"current_range_meters":22400,"station_id":"ce4bh412rcd13ifvqdr0","pricing_plan_id":"cebpf4jnsgd1na2vs0mg"},{"bike_id":"f682fad4-58d9-4a44-80a1-b3510c534418","system_id":"levelo_inurba_marseille","lat":43.29274,"lon":5.36835,"is_reserved":false,"is_disabled":true,"rental_uris":{"android":"levelo://app?vid=f682fad4-58d9-4a44-80a1-b3510c534418","ios":"levelo://app?vid=f682fad4-58d9-4a44-80a1-b3510c534418"},"vehicle_type_id":"4","last_reported":1744837753,"current_range_meters":22800,"station_id":"ce4bhbp2rcd13ifvqesg","pricing_plan_id":"cebpf4jnsgd1na2vs0mg"},{"bike_id":"345f3b88-e34e-4d48-9f0c-6592661ae354","system_id":"levelo_inurba_marseille","lat":43.27953,"lon":5.41043,"is_reserved":false,"is_disabled":false,"rental_uris":{"android":"levelo://app?vid=345f3b88-e34e-4d48-9f0c-6592661ae354","ios":"levelo://app?vid=345f3b88-e34e-4d48-9f0c-6592661ae354"},"vehicle_type_id":"4","last_reported":1744837753,"current_range_meters":22800,"station_id":"ce4bhnp2rcd13ifvqh0g","pricing_plan_id":"cebpf4jnsgd1na2vs0mg"},{"bike_id":"01183d00-a199-4cbe-9c85-c7c14980a2a2","system_id":"levelo_inurba_marseille","lat":43.29045,"lon":5.35923,"is_reserved":false,"is_disabled":false,"rental_uris":{"android":"levelo://app?vid=01183d00-a199-4cbe-9c85-c7c14980a2a2","ios":"levelo://app?vid=01183d00-a199-4cbe-9c85-c7c14980a2a2"},"vehicle_type_id":"4","last_reported":1744837753,"current_range_meters":22800,"station_id":"ce4bha92rcd13ifvqeg0","pricing_plan_id":"cebpf4jnsgd1na2vs0mg"},{"bike_id":"789c3822-56ca-4769-bcd4-8845bdea2fda","system_id":"levelo_inurba_marseille","lat":43.24142,"lon":5.36406,"is_reserved":false,"is_disabled":false,"rental_uris":{"android":"levelo://app?vid=789c3822-56ca-4769-bcd4-8845bdea2fda","ios":"levelo://app?vid=789c3822-56ca-4769-bcd4-8845bdea2fda"},"vehicle_type_id":"4","last_reported":1744837753,"current_range_meters":22800,"station_id":"cpo36qri1sfpv3e86is0","pricing_plan_id":"cebpf4jnsgd1na2vs0mg"},{"bike_id":"2d9b72bb-af7d-431d-9cde-4a3fe902ebe7","system_id":"levelo_inurba_marseille","lat":43.31168,"lon":5.38711,"is_reserved":false,"is_disabled":false,"rental_uris":{"android":"levelo://app?vid=2d9b72bb-af7d-431d-9cde-4a3fe902ebe7","ios":"levelo://app?vid=2d9b72bb-af7d-431d-9cde-4a3fe902ebe7"},"vehicle_type_id":"4","last_reported":1744837753,"current_range_meters":22800,"station_id":"ce4bgv12rcd13ifvqcp0","pricing_plan_id":"cebpf4jnsgd1na2vs0mg"},{"bike_id":"7ed91d22-3d5b-4254-83bf-64eb2a7d5481","system_id":"levelo_inurba_marseille","lat":43.22501,"lon":5.34777,"is_reserved":false,"is_disabled":false,"rental_uris":{"android":"levelo://app?vid=7ed91d22-3d5b-4254-83bf-64eb2a7d5481","ios":"levelo://app?vid=7ed91d22-3d5b-4254-83bf-64eb2a7d5481"},"vehicle_type_id":"4","last_reported":1744837753,"current_range_meters":22800,"station_id":"","pricing_plan_id":"cebpf4jnsgd1na2vs0mg"},{"bike_id":"c72dc39e-8f1f-4b48-9b63-a919d99fd110","system_id":"levelo_inurba_marseille","lat":43.29205,"lon":5.393143,"is_reserved":false,"is_disabled":false,"rental_uris":{"android":"levelo://app?vid=c72dc39e-8f1f-4b48-9b63-a919d99fd110","ios":"levelo://app?vid=c72dc39e-8f1f-4b48-9b63-a919d99fd110"},"vehicle_type_id":"4","last_reported":1744837753,"current_range_meters":22800,"station_id":"ce4bh192rcd13ifvqdd0","pricing_plan_id":"cebpf4jnsgd1na2vs0mg"},{"bike_id":"02838b9d-c029-4273-b60f-9761c8c6a7a3","system_id":"levelo_inurba_marseille","lat":43.23963,"lon":5.3663,"is_reserved":false,"is_disabled":false,"rental_uris":{"android":"levelo://app?vid=02838b9d-c029-4273-b60f-9761c8c6a7a3","ios":"levelo://app?vid=02838b9d-c029-4273-b60f-9761c8c6a7a3"},"vehicle_type_id":"4","last_reported":1744837753,"current_range_meters":22400,"station_id":"ce4bhi12rcd13ifvqfp0","pricing_plan_id":"cebpf4jnsgd1na2vs0mg"},{"bike_id":"81f312e2-c4ee-4946-83ff-6e5617cc7a3d","system_id":"levelo_inurba_marseille","lat":43.30324,"lon":5.40442,"is_reserved":false,"is_disabled":false,"rental_uris":{"android":"levelo://app?vid=81f312e2-c4ee-4946-83ff-6e5617cc7a3d","ios":"levelo://app?vid=81f312e2-c4ee-4946-83ff-6e5617cc7a3d"},"vehicle_type_id":"4","last_reported":1744837753,"current_range_meters":22800,"station_id":"ce4bh012rcd13ifvqd10","pricing_plan_id":"cebpf4jnsgd1na2vs0mg"},{"bike_id":"33efbe4e-e642-4271-be29-4926b421ca5b","system_id":"levelo_inurba_marseille","lat":43.2415,"lon":5.36427,"is_reserved":false,"is_disabled":false,"rental_uris":{"android":"levelo://app?vid=33efbe4e-e642-4271-be29-4926b421ca5b","ios":"levelo://app?vid=33efbe4e-e642-4271-be29-4926b421ca5b"},"vehicle_type_id":"4","last_reported":1744837753,"current_range_meters":22800,"station_id":"cpo36qri1sfpv3e86is0","pricing_plan_id":"cebpf4jnsgd1na2vs0mg"},{"bike_id":"247358a4-faca-4161-8589-cfe4465331c7","system_id":"levelo_inurba_marseille","lat":43.29867,"lon":5.39736,"is_reserved":false,"is_disabled":false,"rental_uris":{"android":"levelo://app?vid=247358a4-faca-4161-8589-cfe4465331c7","ios":"levelo://app?vid=247358a4-faca-4161-8589-cfe4465331c7"},"vehicle_type_id":"4","last_reported":1744837753,"current_range_meters":22800,"station_id":"ce4bh0h2rcd13ifvqd50","pricing_plan_id":"cebpf4jnsgd1na2vs0mg"},{"bike_id":"bd3f7c87-2214-4add-a4a2-d3b9bb19b65d","system_id":"levelo_inurba_marseille","lat":43.31769,"lon":5.38814,"is_reserved":false,"is_disabled":false,"rental_uris":{"android":"levelo://app?vid=bd3f7c87-2214-4add-a4a2-d3b9bb19b65d","ios":"levelo://app?vid=bd3f7c87-2214-4add-a4a2-d3b9bb19b65d"},"vehicle_type_id":"4","last_reported":1744837753,"current_range_meters":22800,"station_id":"","pricing_plan_id":"cebpf4jnsgd1na2vs0mg"},{"bike_id":"21f826db-5070-49f5-892f-84f485b6e13f","system_id":"levelo_inurba_marseille","lat":43.30604,"lon":5.39337,"is_reserved":false,"is_disabled":false,"rental_uris":{"android":"levelo://app?vid=21f826db-5070-49f5-892f-84f485b6e13f","ios":"levelo://app?vid=21f826db-5070-49f5-892f-84f485b6e13f"},"vehicle_type_id":"4","last_reported":1744837753,"current_range_meters":22800,"station_id":"ce4bh0p2rcd13ifvqd80","pricing_plan_id":"cebpf4jnsgd1na2vs0mg"},{"bike_id":"3b15e86a-6b6f-4ec6-9418-eeb3ac36c10f","system_id":"levelo_inurba_marseille","lat":43.31718,"lon":5.38897,"is_reserved":false,"is_disabled":false,"rental_uris":{"android":"levelo://app?vid=3b15e86a-6b6f-4ec6-9418-eeb3ac36c10f","ios":"levelo://app?vid=3b15e86a-6b6f-4ec6-9418-eeb3ac36c10f"},"vehicle_type_id":"4","last_reported":1744837753,"current_range_meters":22800,"station_id":"","pricing_plan_id":"cebpf4jnsgd1na2vs0mg"},{"bike_id":"cc250298-de78-48ca-910c-a354646c94bb","system_id":"levelo_inurba_marseille","lat":43.32018,"lon":5.38163,"is_reserved":false,"is_disabled":false,"rental_uris":{"android":"levelo://app?vid=cc250298-de78-48ca-910c-a354646c94bb","ios":"levelo://app?vid=cc250298-de78-48ca-910c-a354646c94bb"},"vehicle_type_id":"4","last_reported":1744837753,"current_range_meters":22800,"station_id":"ce4bhr12rcd13ifvqhpg","pricing_plan_id":"cebpf4jnsgd1na2vs0mg"},{"bike_id":"e750c2b2-2a05-4caf-8c28-ba2e692924d6","system_id":"levelo_inurba_marseille","lat":43.30131,"lon":5.39861,"is_reserved":false,"is_disabled":false,"rental_uris":{"android":"levelo://app?vid=e750c2b2-2a05-4caf-8c28-ba2e692924d6","ios":"levelo://app?vid=e750c2b2-2a05-4caf-8c28-ba2e692924d6"},"vehicle_type_id":"4","last_reported":1744837753,"current_range_meters":22400,"station_id":"ce4bh0h2rcd13ifvqd40","pricing_plan_id":"cebpf4jnsgd1na2vs0mg"},{"bike_id":"68342d9f-f0b6-47e7-b690-b27078e67a77","system_id":"levelo_inurba_marseille","lat":43.24164,"lon":5.36398,"is_reserved":false,"is_disabled":false,"rental_uris":{"android":"levelo://app?vid=68342d9f-f0b6-47e7-b690-b27078e67a77","ios":"levelo://app?vid=68342d9f-f0b6-47e7-b690-b27078e67a77"},"vehicle_type_id":"4","last_reported":1744837753,"current_range_meters":23200,"station_id":"cpo36qri1sfpv3e86is0","pricing_plan_id":"cebpf4jnsgd1na2vs0mg"},{"bike_id":"2a3df68e-728a-4b9c-bbc2-4259a4448e26","system_id":"levelo_inurba_marseille","lat":43.27975,"lon":5.40045,"is_reserved":false,"is_disabled":false,"rental_uris":{"android":"levelo://app?vid=2a3df68e-728a-4b9c-bbc2-4259a4448e26","ios":"levelo://app?vid=2a3df68e-728a-4b9c-bbc2-4259a4448e26"},"vehicle_type_id":"4","last_reported":1744837753,"current_range_meters":23200,"station_id":"ce4bho92rcd13ifvqh4g","pricing_plan_id":"cebpf4jnsgd1na2vs0mg"},{"bike_id":"2e7f56a3-3875-4bbb-9fe5-0ee5b96f9b05","system_id":"levelo_inurba_marseille","lat":43.28454,"lon":5.35888,"is_reserved":false,"is_disabled":false,"rental_uris":{"android":"levelo://app?vid=2e7f56a3-3875-4bbb-9fe5-0ee5b96f9b05","ios":"levelo://app?vid=2e7f56a3-3875-4bbb-9fe5-0ee5b96f9b05"},"vehicle_type_id":"4","last_reported":1744837753,"current_range_meters":23200,"station_id":"ce4bhah2rcd13ifvqei0","pricing_plan_id":"cebpf4jnsgd1na2vs0mg"},{"bike_id":"325648d6-26aa-4b53-8462-def71a09965c","system_id":"levelo_inurba_marseille","lat":43.28722,"lon":5.36106,"is_reserved":false,"is_disabled":false,"rental_uris":{"android":"levelo://app?vid=325648d6-26aa-4b53-8462-def71a09965c","ios":"levelo://app?vid=325648d6-26aa-4b53-8462-def71a09965c"},"vehicle_type_id":"4","last_reported":1744837753,"current_range_meters":23200,"station_id":"cki0cbj6b192h4jlfktg","pricing_plan_id":"cebpf4jnsgd1na2vs0mg"},{"bike_id":"f1439bbf-3f90-4d8a-b558-ba1d984b3cc6","system_id":"levelo_inurba_marseille","lat":43.289238,"lon":5.384081,"is_reserved":false,"is_disabled":false,"rental_uris":{"android":"levelo://app?vid=f1439bbf-3f90-4d8a-b558-ba1d984b3cc6","ios":"levelo://app?vid=f1439bbf-3f90-4d8a-b558-ba1d984b3cc6"},"vehicle_type_id":"4","last_reported":1744837753,"current_range_meters":23200,"station_id":"ce4bh012rcd13ifvqcv0","pricing_plan_id":"cebpf4jnsgd1na2vs0mg"},{"bike_id":"ce91a124-09ea-4ce6-b45e-165b6a5bcd52","system_id":"levelo_inurba_marseille","lat":43.29047,"lon":5.38126,"is_reserved":false,"is_disabled":true,"rental_uris":{"android":"levelo://app?vid=ce91a124-09ea-4ce6-b45e-165b6a5bcd52","ios":"levelo://app?vid=ce91a124-09ea-4ce6-b45e-165b6a5bcd52"},"vehicle_type_id":"4","last_reported":1744837753,"current_range_meters":23200,"station_id":"ce4bh4p2rcd13ifvqe1g","pricing_plan_id":"cebpf4jnsgd1na2vs0mg"},{"bike_id":"b7e9a836-791c-423b-aee4-7ed7e149e21c","system_id":"levelo_inurba_marseille","lat":43.25086,"lon":5.39503,"is_reserved":false,"is_disabled":false,"rental_uris":{"android":"levelo://app?vid=b7e9a836-791c-423b-aee4-7ed7e149e21c","ios":"levelo://app?vid=b7e9a836-791c-423b-aee4-7ed7e149e21c"},"vehicle_type_id":"4","last_reported":1744837753,"current_range_meters":23200,"station_id":"ce4bhm12rcd13ifvqgkg","pricing_plan_id":"cebpf4jnsgd1na2vs0mg"},{"bike_id":"b7452acc-5b7d-4e7e-84c7-2cd9e458e63f","system_id":"levelo_inurba_marseille","lat":43.23194,"lon":5.35551,"is_reserved":false,"is_disabled":false,"rental_uris":{"android":"levelo://app?vid=b7452acc-5b7d-4e7e-84c7-2cd9e458e63f","ios":"levelo://app?vid=b7452acc-5b7d-4e7e-84c7-2cd9e458e63f"},"vehicle_type_id":"4","last_reported":1744837753,"current_range_meters":23200,"station_id":"ce4bhu92rcd13ifvqi70","pricing_plan_id":"cebpf4jnsgd1na2vs0mg"},{"bike_id":"88bfa4d6-b033-456c-a8d9-b51526e39406","system_id":"levelo_inurba_marseille","lat":43.29909,"lon":5.43675,"is_reserved":false,"is_disabled":false,"rental_uris":{"android":"levelo://app?vid=88bfa4d6-b033-456c-a8d9-b51526e39406","ios":"levelo://app?vid=88bfa4d6-b033-456c-a8d9-b51526e39406"},"vehicle_type_id":"4","last_reported":1744837753,"current_range_meters":24000,"station_id":"ce4bhpp2rcd13ifvqhfg","pricing_plan_id":"cebpf4jnsgd1na2vs0mg"},{"bike_id":"873bcab6-b973-48ed-b129-34762c209441","system_id":"levelo_inurba_marseille","lat":43.31502,"lon":5.37381,"is_reserved":false,"is_disabled":false,"rental_uris":{"android":"levelo://app?vid=873bcab6-b973-48ed-b129-34762c209441","ios":"levelo://app?vid=873bcab6-b973-48ed-b129-34762c209441"},"vehicle_type_id":"4","last_reported":1744837753,"current_range_meters":24000,"station_id":"ce4bgt12rcd13ifvqcd0","pricing_plan_id":"cebpf4jnsgd1na2vs0mg"},{"bike_id":"4aa56563-21db-471a-a412-b90fc67bef09","system_id":"levelo_inurba_marseille","lat":43.28711,"lon":5.37404,"is_reserved":false,"is_disabled":false,"rental_uris":{"android":"levelo://app?vid=4aa56563-21db-471a-a412-b90fc67bef09","ios":"levelo://app?vid=4aa56563-21db-471a-a412-b90fc67bef09"},"vehicle_type_id":"4","last_reported":1744837753,"current_range_meters":24000,"station_id":"ce4bh3p2rcd13ifvqdq0","pricing_plan_id":"cebpf4jnsgd1na2vs0mg"},{"bike_id":"8c0be09f-1a08-4f03-adf3-9ab53d05b7e1","system_id":"levelo_inurba_marseille","lat":43.30425,"lon":5.41301,"is_reserved":false,"is_disabled":true,"rental_uris":{"android":"levelo://app?vid=8c0be09f-1a08-4f03-adf3-9ab53d05b7e1","ios":"levelo://app?vid=8c0be09f-1a08-4f03-adf3-9ab53d05b7e1"},"vehicle_type_id":"4","last_reported":1744837753,"current_range_meters":24000,"station_id":"ce4bhop2rcd13ifvqh8g","pricing_plan_id":"cebpf4jnsgd1na2vs0mg"},{"bike_id":"7bce0807-93f9-4e13-8b17-c78186d378c3","system_id":"levelo_inurba_marseille","lat":43.26215,"lon":5.40467,"is_reserved":false,"is_disabled":false,"rental_uris":{"android":"levelo://app?vid=7bce0807-93f9-4e13-8b17-c78186d378c3","ios":"levelo://app?vid=7bce0807-93f9-4e13-8b17-c78186d378c3"},"vehicle_type_id":"4","last_reported":1744837753,"current_range_meters":24000,"station_id":"ce4bhmh2rcd13ifvqgmg","pricing_plan_id":"cebpf4jnsgd1na2vs0mg"},{"bike_id":"bfc0f2bb-f1f4-4fed-b9af-c547a21d1d5d","system_id":"levelo_inurba_marseille","lat":43.28635,"lon":5.3511,"is_reserved":false,"is_disabled":false,"rental_uris":{"android":"levelo://app?vid=bfc0f2bb-f1f4-4fed-b9af-c547a21d1d5d","ios":"levelo://app?vid=bfc0f2bb-f1f4-4fed-b9af-c547a21d1d5d"},"vehicle_type_id":"4","last_reported":1744837753,"current_range_meters":24000,"station_id":"ce4bhch2rcd13ifvqeug","pricing_plan_id":"cebpf4jnsgd1na2vs0mg"},{"bike_id":"99810f80-e291-4ad5-acbc-abb54800ca57","system_id":"levelo_inurba_marseille","lat":43.29879,"lon":5.38907,"is_reserved":false,"is_disabled":false,"rental_uris":{"android":"levelo://app?vid=99810f80-e291-4ad5-acbc-abb54800ca57","ios":"levelo://app?vid=99810f80-e291-4ad5-acbc-abb54800ca57"},"vehicle_type_id":"4","last_reported":1744837753,"current_range_meters":24000,"station_id":"ce4bh392rcd13ifvqdl0","pricing_plan_id":"cebpf4jnsgd1na2vs0mg"},{"bike_id":"6be88ffc-4df1-426d-ad1b-c61abd6f2537","system_id":"levelo_inurba_marseille","lat":43.3089,"lon":5.39646,"is_reserved":false,"is_disabled":false,"rental_uris":{"android":"levelo://app?vid=6be88ffc-4df1-426d-ad1b-c61abd6f2537","ios":"levelo://app?vid=6be88ffc-4df1-426d-ad1b-c61abd6f2537"},"vehicle_type_id":"4","last_reported":1744837753,"current_range_meters":24000,"station_id":"ce4bh012rcd13ifvqcv0","pricing_plan_id":"cebpf4jnsgd1na2vs0mg"},{"bike_id":"f47d0f94-8da3-44a8-aa47-8e9634ca35cd","system_id":"levelo_inurba_marseille","lat":43.29239,"lon":5.36092,"is_reserved":false,"is_disabled":false,"rental_uris":{"android":"levelo://app?vid=f47d0f94-8da3-44a8-aa47-8e9634ca35cd","ios":"levelo://app?vid=f47d0f94-8da3-44a8-aa47-8e9634ca35cd"},"vehicle_type_id":"4","last_reported":1744837753,"current_range_meters":24000,"station_id":"ce4bhbh2rcd13ifvqeqg","pricing_plan_id":"cebpf4jnsgd1na2vs0mg"},{"bike_id":"f9d3fbe6-73e5-424e-af02-f446d5b07152","system_id":"levelo_inurba_marseille","lat":43.21756,"lon":5.34597,"is_reserved":false,"is_disabled":false,"rental_uris":{"android":"levelo://app?vid=f9d3fbe6-73e5-424e-af02-f446d5b07152","ios":"levelo://app?vid=f9d3fbe6-73e5-424e-af02-f446d5b07152"},"vehicle_type_id":"4","last_reported":1744837753,"current_range_meters":24000,"station_id":"st_cvj6r9ubvosntc0bgbag","pricing_plan_id":"cebpf4jnsgd1na2vs0mg"},{"bike_id":"c305c827-8b59-4e6c-91de-4d8a3fcbcac2","system_id":"levelo_inurba_marseille","lat":43.24162,"lon":5.36404,"is_reserved":false,"is_disabled":false,"rental_uris":{"android":"levelo://app?vid=c305c827-8b59-4e6c-91de-4d8a3fcbcac2","ios":"levelo://app?vid=c305c827-8b59-4e6c-91de-4d8a3fcbcac2"},"vehicle_type_id":"4","last_reported":1744837753,"current_range_meters":24000,"station_id":"cpo36qri1sfpv3e86is0","pricing_plan_id":"cebpf4jnsgd1na2vs0mg"},{"bike_id":"96b0ee13-4242-40f6-ab89-563fac05b70c","system_id":"levelo_inurba_marseille","lat":43.30913,"lon":5.40144,"is_reserved":false,"is_disabled":false,"rental_uris":{"android":"levelo://app?vid=96b0ee13-4242-40f6-ab89-563fac05b70c","ios":"levelo://app?vid=96b0ee13-4242-40f6-ab89-563fac05b70c"},"vehicle_type_id":"4","last_reported":1744837753,"current_range_meters":24400,"station_id":"ce4bgvp2rcd13ifvqct0","pricing_plan_id":"cebpf4jnsgd1na2vs0mg"},