{"last_updated":1747134546,"ttl":60,"version":"2.2","data":{"bikes":[{"bike_id":"c0b9fd4f-e181-46ce-b0bf-f5119973334f","system_id":"levelo_inurba_marseille","lat":43.33771,"lon":5.37424,"is_reserved":false,"is_disabled":false,"rental_uris":{"android":"levelo://app?vid=c0b9fd4f-e181-46ce-b0bf-f5119973334f","ios":"levelo://app?vid=c0b9fd4f-e181-46ce-b0bf-f5119973334f"},"vehicle_type_id":"4","last_reported":1747134546,"current_range_meters":24000,"station_id":"","pricing_plan_id":"cebpf4jnsgd1na2vs0mg"},{"bike_id":"823bad38-6ddd-4ba7-9606-649d87492ae2","system_id":"levelo_inurba_marseille","lat":43.2834,"lon":5.38256,"is_reserved":false,"is_disabled":true,"rental_uris":{"android":"levelo://app?vid=823bad38-6ddd-4ba7-9606-649d87492ae2","ios":"levelo://app?vid=823bad38-6ddd-4ba7-9606-649d87492ae2"},"vehicle_type_id":"4","last_reported":1747134546,"current_range_meters":0,"station_id":"","pricing_plan_id":"cebpf4jnsgd1na2vs0mg"},{"bike_id":"25684216-a3fc-4916-8e05-9505382e4ab5","system_id":"levelo_inurba_marseille","lat":43.27359,"lon":5.39054,"is_reserved":false,"is_disabled":true,"rental_uris":{"android":"levelo://app?vid=25684216-a3fc-4916-8e05-9505382e4ab5","ios":"levelo://app?vid=25684216-a3fc-4916-8e05-9505382e4ab5"},"vehicle_type_id":"4","last_reported":1747134546,"current_range_meters":0,"station_id":"","pricing_plan_id":"cebpf4jnsgd1na2vs0mg"},{"bike_id":"d19ebaab-ef98-4efa-b952-7192b9b2f014","system_id":"levelo_inurba_marseille","lat":43.26146,"lon":5.39192,"is_reserved":false,"is_disabled":true,"rental_uris":{"android":"levelo://app?vid=d19ebaab-ef98-4efa-b952-7192b9b2f014","ios":"levelo://app?vid=d19ebaab-ef98-4efa-b952-7192b9b2f014"},"vehicle_type_id":"4","last_reported":1747134546,"current_range_meters":0,"station_id":"","pricing_plan_id":"cebpf4jnsgd1na2vs0mg"},{"bike_id":"792567c6-0442-4011-aff0-9c05e25deb48","system_id":"levelo_inurba_marseille","lat":43.28112,"lon":5.44173,"is_reserved":false,"is_disabled":true,"rental_uris":{"android":"levelo://app?vid=792567c6-0442-4011-aff0-9c05e25deb48","ios":"levelo://app?vid=792567c6-0442-4011-aff0-9c05e25deb48"},"vehicle_type_id":"4","last_reported":1747134546,"current_range_meters":0,"station_id":"","pricing_plan_id":"cebpf4jnsgd1na2vs0mg"},{"bike_id":"73ff8c44-0977-4b4d-b759-9ccb3cb56773","system_id":"levelo_inurba_marseille","lat":43.29265,"lon":5.38435,"is_reserved":false,"is_disabled":true,"rental_uris":{"android":"levelo://app?vid=73ff8c44-0977-4b4d-b759-9ccb3cb56773","ios":"levelo://app?vid=73ff8c44-0977-4b4d-b759-9ccb3cb56773"},"vehicle_type_id":"4","last_reported":1747134546,"current_range_meters":0,"station_id":"ce4bh692rcd13ifvqea0","pricing_plan_id":"cebpf4jnsgd1na2vs0mg"},{"bike_id":"3f6b197e-387c-4985-8eb3-7749205acc39","system_id":"levelo_inurba_marseille","lat":43.27373,"lon":5.36252,"is_reserved":false,"is_disabled":true,"rental_uris":{"android":"levelo://app?vid=3f6b197e-387c-4985-8eb3-7749205acc39","ios":"levelo://app?vid=3f6b197e-387c-4985-8eb3-7749205acc39"},"vehicle_type_id":"4","last_reported":1747134546,"current_range_meters":0,"station_id":"ce4bhbh2rcd13ifvqeo0","pricing_plan_id":"cebpf4jnsgd1na2vs0mg"},{"bike_id":"e1cb567f-3f65-4bbd-be58-de7578480099","system_id":"levelo_inurba_marseille","lat":43.23147,"lon":5.43715,"is_reserved":false,"is_disabled":true,"rental_uris":{"android":"levelo://app?vid=e1cb567f-3f65-4bbd-be58-de7578480099","ios":"levelo://app?vid=e1cb567f-3f65-4bbd-be58-de7578480099"},"vehicle_type_id":"4","last_reported":1747134546,"current_range_meters":0,"station_id":"ce4bhmp2rcd13ifvqgog","pricing_plan_id":"cebpf4jnsgd1na2vs0mg"},{"bike_id":"38862537-17ed-41e3-9832-3c2fa9e0b1aa","system_id":"levelo_inurba_marseille","lat":43.21749,"lon":5.34611,"is_reserved":false,"is_disabled":true,"rental_uris":{"android":"levelo://app?vid=38862537-17ed-41e3-9832-3c2fa9e0b1aa","ios":"levelo://app?vid=38862537-17ed-41e3-9832-3c2fa9e0b1aa"},"vehicle_type_id":"4","last_reported":1747134546,"current_range_meters":0,"station_id":"st_cvj6r9ubvosntc0bgbag","pricing_plan_id":"cebpf4jnsgd1na2vs0mg"},{"bike_id":"06788e0b-24bc-421e-a147-eafa79279645","system_id":"levelo_inurba_marseille","lat":43.21191,"lon":5.35072,"is_reserved":false,"is_disabled":true,"rental_uris":{"android":"levelo://app?vid=06788e0b-24bc-421e-a147-eafa79279645","ios":"levelo://app?vid=06788e0b-24bc-421e-a147-eafa79279645"},"vehicle_type_id":"4","last_reported":1747134546,"current_range_meters":0,"station_id":"st_cvj6sg6p6f1abm77japg","pricing_plan_id":"cebpf4jnsgd1na2vs0mg"},{"bike_id":"1dc68a73-2a88-4be7-b805-3386ec7652b3","system_id":"levelo_inurba_marseille","lat":43.30534,"lon":5.36554,"is_reserved":false,"is_disabled":true,"rental_uris":{"android":"levelo://app?vid=1dc68a73-2a88-4be7-b805-3386ec7652b3","ios":"levelo://app?vid=1dc68a73-2a88-4be7-b805-3386ec7652b3"},"vehicle_type_id":"4","last_reported":1747134546,"current_range_meters":400,"station_id":"ce4bgs12rcd13ifvqcag","pricing_plan_id":"cebpf4jnsgd1na2vs0mg"},{"bike_id":"9ede911c-f878-4f9b-8d75-b4cc562783bb","system_id":"levelo_inurba_marseille","lat":43.29014,"lon":5.38634,"is_reserved":false,"is_disabled":true,"rental_uris":{"android":"levelo://app?vid=9ede911c-f878-4f9b-8d75-b4cc562783bb","ios":"levelo://app?vid=9ede911c-f878-4f9b-8d75-b4cc562783bb"},"vehicle_type_id":"4","last_reported":1747134546,"current_range_meters":400,"station_id":"ce4bh4p2rcd13ifvqe0g","pricing_plan_id":"cebpf4jnsgd1na2vs0mg"},{"bike_id":"f1c5b098-7dac-4422-8f49-d052bd04f2b6","system_id":"levelo_inurba_marseille","lat":43.30113,"lon":5.39844,"is_reserved":false,"is_disabled":true,"rental_uris":{"android":"levelo://app?vid=f1c5b098-7dac-4422-8f49-d052bd04f2b6","ios":"levelo://app?vid=f1c5b098-7dac-4422-8f49-d052bd04f2b6"},"vehicle_type_id":"4","last_reported":1747134546,"current_range_meters":800,"station_id":"ce4bh0h2rcd13ifvqd40","pricing_plan_id":"cebpf4jnsgd1na2vs0mg"},{"bike_id":"0fedde00-40eb-40d2-8fc2-e61ecce46b7b","system_id":"levelo_inurba_marseille","lat":43.28292,"lon":5.43215,"is_reserved":false,"is_disabled":true,"rental_uris":{"android":"levelo://app?vid=0fedde00-40eb-40d2-8fc2-e61ecce46b7b","ios":"levelo://app?vid=0fedde00-40eb-40d2-8fc2-e61ecce46b7b"},"vehicle_type_id":"4","last_reported":1747134546,"current_range_meters":1200,"station_id":"","pricing_plan_id":"cebpf4jnsgd1na2vs0mg"},{"bike_id":"8903f9b7-0f47-4b6f-bbc9-9cbaae3b55b3","system_id":"levelo_inurba_marseille","lat":43.28488,"lon":5.38432,"is_reserved":false,"is_disabled":true,"rental_uris":{"android":"levelo://app?vid=8903f9b7-0f47-4b6f-bbc9-9cbaae3b55b3","ios":"levelo://app?vid=8903f9b7-0f47-4b6f-bbc9-9cbaae3b55b3"},"vehicle_type_id":"4","last_reported":1747134546,"current_range_meters":1200,"station_id":"ce4bh512rcd13ifvqe3g","pricing_plan_id":"cebpf4jnsgd1na2vs0mg"},{"bike_id":"0dac3530-7d7d-4585-9d3e-a4f5b492cbc3","system_id":"levelo_inurba_marseille","lat":43.27422,"lon":5.39408,"is_reserved":false,"is_disabled":true,"rental_uris":{"android":"levelo://app?vid=0dac3530-7d7d-4585-9d3e-a4f5b492cbc3","ios":"levelo://app?vid=0dac3530-7d7d-4585-9d3e-a4f5b492cbc3"},"vehicle_type_id":"4","last_reported":1747134546,"current_range_meters":1200,"station_id":"ce4bhdp2rcd13ifvqf20","pricing_plan_id":"cebpf4jnsgd1na2vs0mg"},{"bike_id":"fc2577e7-1497-425b-9d4f-ab8d7dc843c6","system_id":"levelo_inurba_marseille","lat":43.33771,"lon":5.37485,"is_reserved":false,"is_disabled":true,"rental_uris":{"android":"levelo://app?vid=fc2577e7-1497-425b-9d4f-ab8d7dc843c6","ios":"levelo://app?vid=fc2577e7-1497-425b-9d4f-ab8d7dc843c6"},"vehicle_type_id":"4","last_reported":1747134546,"current_range_meters":1600,"station_id":"","pricing_plan_id":"cebpf4jnsgd1na2vs0mg"},{"bike_id":"bbe81e9b-90e6-4104-af79-cc13f9d959d6","system_id":"levelo_inurba_marseille","lat":43.27952,"lon":5.41037,"is_reserved":false,"is_disabled":true,"rental_uris":{"android":"levelo://app?vid=bbe81e9b-90e6-4104-af79-cc13f9d959d6","ios":"levelo://app?vid=bbe81e9b-90e6-4104-af79-cc13f9d959d6"},"vehicle_type_id":"4","last_reported":1747134546,"current_range_meters":2000,"station_id":"ce4bhnp2rcd13ifvqh0g","pricing_plan_id":"cebpf4jnsgd1na2vs0mg"},{"bike_id":"8402ffbd-043c-4b2a-b082-2fa3f8788d94","system_id":"levelo_inurba_marseille","lat":43.287166,"lon":5.400034,"is_reserved":false,"is_disabled":true,"rental_uris":{"android":"levelo://app?vid=8402ffbd-043c-4b2a-b082-2fa3f8788d94","ios":"levelo://app?vid=8402ffbd-043c-4b2a-b082-2fa3f8788d94"},"vehicle_type_id":"4","last_reported":1747134546,"current_range_meters":2000,"station_id":"ce4bho92rcd13ifvqh3g","pricing_plan_id":"cebpf4jnsgd1na2vs0mg"},{"bike_id":"ecc94e4d-8ac2-4c49-a616-30422cdb56c3","system_id":"levelo_inurba_marseille","lat":43.265699,"lon":5.390031,"is_reserved":false,"is_disabled":false,"rental_uris":{"android":"levelo://app?vid=ecc94e4d-8ac2-4c49-a616-30422cdb56c3","ios":"levelo://app?vid=ecc94e4d-8ac2-4c49-a616-30422cdb56c3"},"vehicle_type_id":"4","last_reported":1747134546,"current_range_meters":2800,"station_id":"ce4bhe12rcd13ifvqf30","pricing_plan_id":"cebpf4jnsgd1na2vs0mg"},{"bike_id":"672e219c-1b2c-4ae6-9038-3fb4e8988d0a","system_id":"levelo_inurba_marseille","lat":43.25123,"lon":5.40315,"is_reserved":false,"is_disabled":false,"rental_uris":{"android":"levelo://app?vid=672e219c-1b2c-4ae6-9038-3fb4e8988d0a","ios":"levelo://app?vid=672e219c-1b2c-4ae6-9038-3fb4e8988d0a"},"vehicle_type_id":"4","last_reported":1747134546,"current_range_meters":2800,"station_id":"ce4bhlh2rcd13ifvqgig","pricing_plan_id":"cebpf4jnsgd1na2vs0mg"},{"bike_id":"ca63d4e5-c8cc-48af-a946-285aa427448b","system_id":"levelo_inurba_marseille","lat":43.28938,"lon":5.36635,"is_reserved":false,"is_disabled":true,"rental_uris":{"android":"levelo://app?vid=ca63d4e5-c8cc-48af-a946-285aa427448b","ios":"levelo://app?vid=ca63d4e5-c8cc-48af-a946-285aa427448b"},"vehicle_type_id":"4","last_reported":1747134546,"current_range_meters":3200,"station_id":"ce4bhap2rcd13ifvqek0","pricing_plan_id":"cebpf4jnsgd1na2vs0mg"},{"bike_id":"ea3240f4-ae21-453b-ae81-22fc693eb3ad","system_id":"levelo_inurba_marseille","lat":43.24551,"lon":5.39524,"is_reserved":false,"is_disabled":false,"rental_uris":{"android":"levelo://app?vid=ea3240f4-ae21-453b-ae81-22fc693eb3ad","ios":"levelo://app?vid=ea3240f4-ae21-453b-ae81-22fc693eb3ad"},"vehicle_type_id":"4","last_reported":1747134546,"current_range_meters":3200,"station_id":"ce4bhlp2rcd13ifvqgjg","pricing_plan_id":"cebpf4jnsgd1na2vs0mg"},{"bike_id":"66956f29-3618-414d-855d-beaf6f486cbb","system_id":"levelo_inurba_marseille","lat":43.29346,"lon":5.37862,"is_reserved":false,"is_disabled":false,"rental_uris":{"android":"levelo://app?vid=66956f29-3618-414d-855d-beaf6f486cbb","ios":"levelo://app?vid=66956f29-3618-414d-855d-beaf6f486cbb"},"vehicle_type_id":"4","last_reported":1747134546,"current_range_meters":3600,"station_id":"ce4bgjh2rcd13ifvqbf0","pricing_plan_id":"cebpf4jnsgd1na2vs0mg"},{"bike_id":"572ea4f2-eb9e-4bc2-97f5-ff0c5326213f","system_id":"levelo_inurba_marseille","lat":43.284668,"lon":5.358824,"is_reserved":false,"is_disabled":false,"rental_uris":{"android":"levelo://app?vid=572ea4f2-eb9e-4bc2-97f5-ff0c5326213f","ios":"levelo://app?vid=572ea4f2-eb9e-4bc2-97f5-ff0c5326213f"},"vehicle_type_id":"4","last_reported":1747134546,"current_range_meters":3600,"station_id":"ce4bhah2rcd13ifvqei0","pricing_plan_id":"cebpf4jnsgd1na2vs0mg"},{"bike_id":"fdd6f9c3-d19d-49fe-84b2-fd4e4f3b5eb7","system_id":"levelo_inurba_marseille","lat":43.29632,"lon":5.37735,"is_reserved":false,"is_disabled":false,"rental_uris":{"android":"levelo://app?vid=fdd6f9c3-d19d-49fe-84b2-fd4e4f3b5eb7","ios":"levelo://app?vid=fdd6f9c3-d19d-49fe-84b2-fd4e4f3b5eb7"},"vehicle_type_id":"4","last_reported":1747134546,"current_range_meters":4000,"station_id":"ce4bgi92rcd13ifvqb90","pricing_plan_id":"cebpf4jnsgd1na2vs0mg"},{"bike_id":"779f1dfd-bbe8-4764-bcea-ec838714988e","system_id":"levelo_inurba_marseille","lat":43.26939,"lon":5.40247,"is_reserved":false,"is_disabled":false,"rental_uris":{"android":"levelo://app?vid=779f1dfd-bbe8-4764-bcea-ec838714988e","ios":"levelo://app?vid=779f1dfd-bbe8-4764-bcea-ec838714988e"},"vehicle_type_id":"4","last_reported":1747134546,"current_range_meters":4000,"station_id":"cjm6bp8fraef2m0cb0m0","pricing_plan_id":"cebpf4jnsgd1na2vs0mg"},{"bike_id":"0b13ab95-da37-40a6-9135-e5450bfe8e3b","system_id":"levelo_inurba_marseille","lat":43.28416,"lon":5.34983,"is_reserved":false,"is_disabled":false,"rental_uris":{"android":"levelo://app?vid=0b13ab95-da37-40a6-9135-e5450bfe8e3b","ios":"levelo://app?vid=0b13ab95-da37-40a6-9135-e5450bfe8e3b"},"vehicle_type_id":"4","last_reported":1747134546,"current_range_meters":4400,"station_id":"ce4bhbh2rcd13ifvqepg","pricing_plan_id":"cebpf4jnsgd1na2vs0mg"},{"bike_id":"3ffbf2ed-b512-43e8-aba9-c6d77e05fcc6","system_id":"levelo_inurba_marseille","lat":43.26195,"lon":5.3792,"is_reserved":false,"is_disabled":false,"rental_uris":{"android":"levelo://app?vid=3ffbf2ed-b512-43e8-aba9-c6d77e05fcc6","ios":"levelo://app?vid=3ffbf2ed-b512-43e8-aba9-c6d77e05fcc6"},"vehicle_type_id":"4","last_reported":1747134546,"current_range_meters":4400,"station_id":"ce4bhjp2rcd13ifvqg90","pricing_plan_id":"cebpf4jnsgd1na2vs0mg"},{"bike_id":"2dd253e1-4e37-4af9-9e67-f64f7672a9c6","system_id":"levelo_inurba_marseille","lat":43.29965,"lon":5.38491,"is_reserved":false,"is_disabled":false,"rental_uris":{"android":"levelo://app?vid=2dd253e1-4e37-4af9-9e67-f64f7672a9c6","ios":"levelo://app?vid=2dd253e1-4e37-4af9-9e67-f64f7672a9c6"},"vehicle_type_id":"4","last_reported":1747134546,"current_range_meters":4800,"station_id":"ce4bgj92rcd13ifvqbd0","pricing_plan_id":"cebpf4jnsgd1na2vs0mg"},{"bike_id":"cfb829fd-7244-4a0b-b3f5-b8194c2f4eb5","system_id":"levelo_inurba_marseille","lat":43.29571,"lon":5.37514,"is_reserved":false,"is_disabled":false,"rental_uris":{"android":"levelo://app?vid=cfb829fd-7244-4a0b-b3f5-b8194c2f4eb5","ios":"levelo://app?vid=cfb829fd-7244-4a0b-b3f5-b8194c2f4eb5"},"vehicle_type_id":"4","last_reported":1747134546,"current_range_meters":5600,"station_id":"ce4bgh92rcd13ifvqb50","pricing_plan_id":"cebpf4jnsgd1na2vs0mg"},{"bike_id":"edb20238-31ac-435c-acdc-30d0cc2b0e49","system_id":"levelo_inurba_marseille","lat":43.28475,"lon":5.38415,"is_reserved":false,"is_disabled":false,"rental_uris":{"android":"levelo://app?vid=edb20238-31ac-435c-acdc-30d0cc2b0e49","ios":"levelo://app?vid=edb20238-31ac-435c-acdc-30d0cc2b0e49"},"vehicle_type_id":"4","last_reported":1747134546,"current_range_meters":6000,"station_id":"","pricing_plan_id":"cebpf4jnsgd1na2vs0mg"},{"bike_id":"b0ac8040-90e0-41ee-a2e3-e5462910fefc","system_id":"levelo_inurba_marseille","lat":43.275553,"lon":5.412896,"is_reserved":false,"is_disabled":false,"rental_uris":{"android":"levelo://app?vid=b0ac8040-90e0-41ee-a2e3-e5462910fefc","ios":"levelo://app?vid=b0ac8040-90e0-41ee-a2e3-e5462910fefc"},"vehicle_type_id":"4","last_reported":1747134546,"current_range_meters":6000,"station_id":"","pricing_plan_id":"cebpf4jnsgd1na2vs0mg"},{"bike_id":"46d28316-57a6-4268-b45a-2a597c11486a","system_id":"levelo_inurba_marseille","lat":43.31323,"lon":5.39689,"is_reserved":false,"is_disabled":false,"rental_uris":{"android":"levelo://app?vid=46d28316-57a6-4268-b45a-2a597c11486a","ios":"levelo://app?vid=46d28316-57a6-4268-b45a-2a597c11486a"},"vehicle_type_id":"4","last_reported":1747134546,"current_range_meters":6400,"station_id":"ce4bgvp2rcd13ifvqcu0","pricing_plan_id":"cebpf4jnsgd1na2vs0mg"},{"bike_id":"8ef788e0-a621-4478-949b-2a620c390a9b","system_id":"levelo_inurba_marseille","lat":43.28484,"lon":5.384285,"is_reserved":false,"is_disabled":false,"rental_uris":{"android":"levelo://app?vid=8ef788e0-a621-4478-949b-2a620c390a9b","ios":"levelo://app?vid=8ef788e0-a621-4478-949b-2a620c390a9b"},"vehicle_type_id":"4","last_reported":1747134546,"current_range_meters":6400,"station_id":"ce4bh512rcd13ifvqe3g","pricing_plan_id":"cebpf4jnsgd1na2vs0mg"},{"bike_id":"978dab67-af73-4c62-8022-ced875e4ffc1","system_id":"levelo_inurba_marseille","lat":43.28421,"lon":5.34987,"is_reserved":false,"is_disabled":false,"rental_uris":{"android":"levelo://app?vid=978dab67-af73-4c62-8022-ced875e4ffc1","ios":"levelo://app?vid=978dab67-af73-4c62-8022-ced875e4ffc1"},"vehicle_type_id":"4","last_reported":1747134546,"current_range_meters":6800,"station_id":"ce4bhbh2rcd13ifvqepg","pricing_plan_id":"cebpf4jnsgd1na2vs0mg"},{"bike_id":"3e9bc8f6-228d-45b7-baa2-81cdb2f3971d","system_id":"levelo_inurba_marseille","lat":43.27068,"lon":5.42268,"is_reserved":false,"is_disabled":false,"rental_uris":{"android":"levelo://app?vid=3e9bc8f6-228d-45b7-baa2-81cdb2f3971d","ios":"levelo://app?vid=3e9bc8f6-228d-45b7-baa2-81cdb2f3971d"},"vehicle_type_id":"4","last_reported":1747134546,"current_range_meters":6800,"station_id":"ce4bhk92rcd13ifvqgb0","pricing_plan_id":"cebpf4jnsgd1na2vs0mg"},{"bike_id":"9e5e8f85-524f-42b4-937f-a6842f5d4898","system_id":"levelo_inurba_marseille","lat":43.25114,"lon":5.40323,"is_reserved":false,"is_disabled":false,"rental_uris":{"android":"levelo://app?vid=9e5e8f85-524f-42b4-937f-a6842f5d4898","ios":"levelo://app?vid=9e5e8f85-524f-42b4-937f-a6842f5d4898"},"vehicle_type_id":"4","last_reported":1747134546,"current_range_meters":6800,"station_id":"ce4bhlh2rcd13ifvqgig","pricing_plan_id":"cebpf4jnsgd1na2vs0mg"},{"bike_id":"5c7248c1-5072-4e2c-9fa6-4c5f59a31ecb","system_id":"levelo_inurba_marseille","lat":43.23153,"lon":5.43702,"is_reserved":false,"is_disabled":false,"rental_uris":{"android":"levelo://app?vid=5c7248c1-5072-4e2c-9fa6-4c5f59a31ecb","ios":"levelo://app?vid=5c7248c1-5072-4e2c-9fa6-4c5f59a31ecb"},"vehicle_type_id":"4","last_reported":1747134546,"current_range_meters":6800,"station_id":"ce4bhmp2rcd13ifvqgog","pricing_plan_id":"cebpf4jnsgd1na2vs0mg"},{"bike_id":"6217c6a7-3504-4d3d-8128-c3bff46ea608","system_id":"levelo_inurba_marseille","lat":43.21199,"lon":5.35091,"is_reserved":false,"is_disabled":false,"rental_uris":{"android":"levelo://app?vid=6217c6a7-3504-4d3d-8128-c3bff46ea608","ios":"levelo://app?vid=6217c6a7-3504-4d3d-8128-c3bff46ea608"},"vehicle_type_id":"4","last_reported":1747134546,"current_range_meters":6800,"station_id":"st_cvj6sg6p6f1abm77japg","pricing_plan_id":"cebpf4jnsgd1na2vs0mg"},{"bike_id":"831aa21e-7eed-48a7-8fee-11df5950f587","system_id":"levelo_inurba_marseille","lat":43.28416,"lon":5.3499,"is_reserved":false,"is_disabled":false,"rental_uris":{"android":"levelo://app?vid=831aa21e-7eed-48a7-8fee-11df5950f587","ios":"levelo://app?vid=831aa21e-7eed-48a7-8fee-11df5950f587"},"vehicle_type_id":"4","last_reported":1747134546,"current_range_meters":7200,"station_id":"ce4bhbh2rcd13ifvqepg","pricing_plan_id":"cebpf4jnsgd1na2vs0mg"},{"bike_id":"cc87bfe3-f990-4195-949f-e7ffc1814bdf","system_id":"levelo_inurba_marseille","lat":43.28421,"lon":5.35001,"is_reserved":false,"is_disabled":false,"rental_uris":{"android":"levelo://app?vid=cc87bfe3-f990-4195-949f-e7ffc1814bdf","ios":"levelo://app?vid=cc87bfe3-f990-4195-949f-e7ffc1814bdf"},"vehicle_type_id":"4","last_reported":1747134546,"current_range_meters":7200,"station_id":"ce4bhbh2rcd13ifvqepg","pricing_plan_id":"cebpf4jnsgd1na2vs0mg"},{"bike_id":"a878afc8-1462-45e2-8529-cfc39008c05a","system_id":"levelo_inurba_marseille","lat":43.298795,"lon":5.389028,"is_reserved":false,"is_disabled":false,"rental_uris":{"android":"levelo://app?vid=a878afc8-1462-45e2-8529-cfc39008c05a","ios":"levelo://app?vid=a878afc8-1462-45e2-8529-cfc39008c05a"},"vehicle_type_id":"4","last_reported":1747134546,"current_range_meters":8000,"station_id":"ce4bh392rcd13ifvqdl0","pricing_plan_id":"cebpf4jnsgd1na2vs0mg"},{"bike_id":"67c6ef56-5387-4725-be4b-f5034fd718f8","system_id":"levelo_inurba_marseille","lat":43.28476,"lon":5.38408,"is_reserved":false,"is_disabled":false,"rental_uris":{"android":"levelo://app?vid=67c6ef56-5387-4725-be4b-f5034fd718f8","ios":"levelo://app?vid=67c6ef56-5387-4725-be4b-f5034fd718f8"},"vehicle_type_id":"4","last_reported":1747134546,"current_range_meters":8000,"station_id":"ce4bh512rcd13ifvqe3g","pricing_plan_id":"cebpf4jnsgd1na2vs0mg"},{"bike_id":"9b566a78-02aa-47bd-8b0d-2d91e5384467","system_id":"levelo_inurba_marseille","lat":43.34142,"lon":5.409,"is_reserved":false,"is_disabled":false,"rental_uris":{"android":"levelo://app?vid=9b566a78-02aa-47bd-8b0d-2d91e5384467","ios":"levelo://app?vid=9b566a78-02aa-47bd-8b0d-2d91e5384467"},"vehicle_type_id":"4","last_reported":1747134546,"current_range_meters":8000,"station_id":"ce4bhqh2rcd13ifvqhlg","pricing_plan_id":"cebpf4jnsgd1na2vs0mg"},{"bike_id":"2ee4d910-0ee1-4bc5-86c8-c77afad12b4f","system_id":"levelo_inurba_marseille","lat":43.321055,"lon":5.367589,"is_reserved":false,"is_disabled":false,"rental_uris":{"android":"levelo://app?vid=2ee4d910-0ee1-4bc5-86c8-c77afad12b4f","ios":"levelo://app?vid=2ee4d910-0ee1-4bc5-86c8-c77afad12b4f"},"vehicle_type_id":"4","last_reported":1747134546,"current_range_meters":8000,"station_id":"ce4bhrh2rcd13ifvqhug","pricing_plan_id":"cebpf4jnsgd1na2vs0mg"},{"bike_id":"b00f29d6-bfc3-4c48-9b03-ddcea86b447a","system_id":"levelo_inurba_marseille","lat":43.27562,"lon":5.38967,"is_reserved":false,"is_disabled":false,"rental_uris":{"android":"levelo://app?vid=b00f29d6-bfc3-4c48-9b03-ddcea86b447a","ios":"levelo://app?vid=b00f29d6-bfc3-4c48-9b03-ddcea86b447a"},"vehicle_type_id":"4","last_reported":1747134546,"current_range_meters":8400,"station_id":"","pricing_plan_id":"cebpf4jnsgd1na2vs0mg"},{"bike_id":"c2cdc810-a80b-4b1e-ab8d-2ea3b4f98e83","system_id":"levelo_inurba_marseille","lat":43.2984,"lon":5.36252,"is_reserved":false,"is_disabled":false,"rental_uris":{"android":"levelo://app?vid=c2cdc810-a80b-4b1e-ab8d-2ea3b4f98e83","ios":"levelo://app?vid=c2cdc810-a80b-4b1e-ab8d-2ea3b4f98e83"},"vehicle_type_id":"4","last_reported":1747134546,"current_range_meters":8400,"station_id":"ce4bgpp2rcd13ifvqc3g","pricing_plan_id":"cebpf4jnsgd1na2vs0mg"},{"bike_id":"88953681-cea0-49a0-ac68-b60487c510c6","system_id":"levelo_inurba_marseille","lat":43.27948,"lon":5.41044,"is_reserved":false,"is_disabled":false,"rental_uris":{"android":"levelo://app?vid=88953681-cea0-49a0-ac68-b60487c510c6","ios":"levelo://app?vid=88953681-cea0-49a0-ac68-b60487c510c6"},"vehicle_type_id":"4","last_reported":1747134546,"current_range_meters":8400,"station_id":"ce4bhnp2rcd13ifvqh0g","pricing_plan_id":"cebpf4jnsgd1na2vs0mg"},{"bike_id":"d08ea798-9620-49a5-918e-12d7db4c97d2","system_id":"levelo_inurba_marseille","lat":43.24071,"lon":5.37767,"is_reserved":false,"is_disabled":false,"rental_uris":{"android":"levelo://app?vid=d08ea798-9620-49a5-918e-12d7db4c97d2","ios":"levelo://app?vid=d08ea798-9620-49a5-918e-12d7db4c97d2"},"vehicle_type_id":"4","last_reported":1747134546,"current_range_meters":8800,"station_id":"ce4bhnp2rcd13ifvqgvg","pricing_plan_id":"cebpf4jnsgd1na2vs0mg"},{"bike_id":"d66bbfe3-bd5d-4166-8d69-7aa8120f4e59","system_id":"levelo_inurba_marseille","lat":43.21749,"lon":5.346,"is_reserved":false,"is_disabled":false,"rental_uris":{"android":"levelo://app?vid=d66bbfe3-bd5d-4166-8d69-7aa8120f4e59","ios":"levelo://app?vid=d66bbfe3-bd5d-4166-8d69-7aa8120f4e59"},"vehicle_type_id":"4","last_reported":1747134546,"current_range_meters":8800,"station_id":"st_cvj6r9ubvosntc0bgbag","pricing_plan_id":"cebpf4jnsgd1na2vs0mg"},{"bike_id":"70e51853-52fe-4290-9aa4-40d1d53276f1","system_id":"levelo_inurba_marseille","lat":43.21191,"lon":5.35068,"is_reserved":false,"is_disabled":false,"rental_uris":{"android":"levelo://app?vid=70e51853-52fe-4290-9aa4-40d1d53276f1","ios":"levelo://app?vid=70e51853-52fe-4290-9aa4-40d1d53276f1"},"vehicle_type_id":"4","last_reported":1747134546,"current_range_meters":8800,"station_id":"st_cvj6sg6p6f1abm77japg","pricing_plan_id":"cebpf4jnsgd1na2vs0mg"},{"bike_id":"812d1ad0-dd06-43b9-acf1-c9dd227b95b7","system_id":"levelo_inurba_marseille","lat":43.31173,"lon":5.38713,"is_reserved":false,"is_disabled":false,"rental_uris":{"android":"levelo://app?vid=812d1ad0-dd06-43b9-acf1-c9dd227b95b7","ios":"levelo://app?vid=812d1ad0-dd06-43b9-acf1-c9dd227b95b7"},"vehicle_type_id":"4","last_reported":1747134546,"current_range_meters":9200,"station_id":"ce4bgv12rcd13ifvqcp0","pricing_plan_id":"cebpf4jnsgd1na2vs0mg"},{"bike_id":"6ae065d7-95f0-4423-a4ef-f3c866c806cc","system_id":"levelo_inurba_marseille","lat":43.23194,"lon":5.35551,"is_reserved":false,"is_disabled":false,"rental_uris":{"android":"levelo://app?vid=6ae065d7-95f0-4423-a4ef-f3c866c806cc","ios":"levelo://app?vid=6ae065d7-95f0-4423-a4ef-f3c866c806cc"},"vehicle_type_id":"4","last_reported":1747134546,"current_range_meters":9200,"station_id":"ce4bhu92rcd13ifvqi70","pricing_plan_id":"cebpf4jnsgd1na2vs0mg"},{"bike_id":"81954dc1-b10d-439c-93c4-6711dac73a8c","system_id":"levelo_inurba_marseille","lat":43.3099,"lon":5.37266,"is_reserved":false,"is_disabled":false,"rental_uris":{"android":"levelo://app?vid=81954dc1-b10d-439c-93c4-6711dac73a8c","ios":"levelo://app?vid=81954dc1-b10d-439c-93c4-6711dac73a8c"},"vehicle_type_id":"4","last_reported":1747134546,"current_range_meters":9600,"station_id":"","pricing_plan_id":"cebpf4jnsgd1na2vs0mg"},{"bike_id":"437340f0-2949-4ad8-9840-79165e0e6638","system_id":"levelo_inurba_marseille","lat":43.31331,"lon":5.39693,"is_reserved":false,"is_disabled":false,"rental_uris":{"android":"levelo://app?vid=437340f0-2949-4ad8-9840-79165e0e6638","ios":"levelo://app?vid=437340f0-2949-4ad8-9840-79165e0e6638"},"vehicle_type_id":"4","last_reported":1747134546,"current_range_meters":9600,"station_id":"ce4bgvp2rcd13ifvqcu0","pricing_plan_id":"cebpf4jnsgd1na2vs0mg"},{"bike_id":"9570768c-09b6-40ed-bf10-26ab79859770","system_id":"levelo_inurba_marseille","lat":43.301322,"lon":5.398534,"is_reserved":false,"is_disabled":false,"rental_uris":{"android":"levelo://app?vid=9570768c-09b6-40ed-bf10-26ab79859770","ios":"levelo://app?vid=9570768c-09b6-40ed-bf10-26ab79859770"},"vehicle_type_id":"4","last_reported":1747134546,"current_range_meters":9600,"station_id":"ce4bh0h2rcd13ifvqd40","pricing_plan_id":"cebpf4jnsgd1na2vs0mg"},{"bike_id":"21bbeee7-ff78-473f-998a-2be06fa953cb","system_id":"levelo_inurba_marseille","lat":43.27906,"lon":5.39578,"is_reserved":false,"is_disabled":false,"rental_uris":{"android":"levelo://app?vid=21bbeee7-ff78-473f-998a-2be06fa953cb","ios":"levelo://app?vid=21bbeee7-ff78-473f-998a-2be06fa953cb"},"vehicle_type_id":"4","last_reported":1747134546,"current_range_meters":9600,"station_id":"ce4bhf92rcd13ifvqf40","pricing_plan_id":"cebpf4jnsgd1na2vs0mg"},{"bike_id":"df1d25d7-fd45-4169-a57c-5e141495ca45","system_id":"levelo_inurba_marseille","lat":43.26046,"lon":5.39405,"is_reserved":false,"is_disabled":false,"rental_uris":{"android":"levelo://app?vid=df1d25d7-fd45-4169-a57c-5e141495ca45","ios":"levelo://app?vid=df1d25d7-fd45-4169-a57c-5e141495ca45"},"vehicle_type_id":"4","last_reported":1747134546,"current_range_meters":9600,"station_id":"ce4bhh92rcd13ifvqfj0","pricing_plan_id":"cebpf4jnsgd1na2vs0mg"},{"bike_id":"adb8cae7-32cd-4df8-b294-f024fd454076","system_id":"levelo_inurba_marseille","lat":43.27949,"lon":5.41036,"is_reserved":false,"is_disabled":false,"rental_uris":{"android":"levelo://app?vid=adb8cae7-32cd-4df8-b294-f024fd454076","ios":"levelo://app?vid=adb8cae7-32cd-4df8-b294-f024fd454076"},"vehicle_type_id":"4","last_reported":1747134546,"current_range_meters":9600,"station_id":"ce4bhnp2rcd13ifvqh0g","pricing_plan_id":"cebpf4jnsgd1na2vs0mg"},{"bike_id":"9df488ec-a829-4c25-a919-b07a0b9f14c5","system_id":"levelo_inurba_marseille","lat":43.29849,"lon":5.36282,"is_reserved":false,"is_disabled":false,"rental_uris":{"android":"levelo://app?vid=9df488ec-a829-4c25-a919-b07a0b9f14c5","ios":"levelo://app?vid=9df488ec-a829-4c25-a919-b07a0b9f14c5"},"vehicle_type_id":"4","last_reported":1747134546,"current_range_meters":10000,"station_id":"ce4bgpp2rcd13ifvqc3g","pricing_plan_id":"cebpf4jnsgd1na2vs0mg"},{"bike_id":"68299740-1da1-4d46-9616-732ab08f033d","system_id":"levelo_inurba_marseille","lat":43.30889,"lon":5.39643,"is_reserved":false,"is_disabled":false,"rental_uris":{"android":"levelo://app?vid=68299740-1da1-4d46-9616-732ab08f033d","ios":"levelo://app?vid=68299740-1da1-4d46-9616-732ab08f033d"},"vehicle_type_id":"4","last_reported":1747134546,"current_range_meters":10000,"station_id":"ce4bh012rcd13ifvqcv0","pricing_plan_id":"cebpf4jnsgd1na2vs0mg"},{"bike_id":"5468a264-3f0e-4922-9881-9234c0b7b11e","system_id":"levelo_inurba_marseille","lat":43.29437,"lon":5.39751,"is_reserved":false,"is_disabled":false,"rental_uris":{"android":"levelo://app?vid=5468a264-3f0e-4922-9881-9234c0b7b11e","ios":"levelo://app?vid=5468a264-3f0e-4922-9881-9234c0b7b11e"},"vehicle_type_id":"4","last_reported":1747134546,"current_range_meters":10000,"station_id":"ce4bh3h2rcd13ifvqdo0","pricing_plan_id":"cebpf4jnsgd1na2vs0mg"},{"bike_id":"e84c688a-ffef-4e36-a7b2-d296ffd6333d","system_id":"levelo_inurba_marseille","lat":43.29562,"lon":5.42292,"is_reserved":false,"is_disabled":false,"rental_uris":{"android":"levelo://app?vid=e84c688a-ffef-4e36-a7b2-d296ffd6333d","ios":"levelo://app?vid=e84c688a-ffef-4e36-a7b2-d296ffd6333d"},"vehicle_type_id":"4","last_reported":1747134546,"current_range_meters":10000,"station_id":"ce4bhph2rcd13ifvqhdg","pricing_plan_id":"cebpf4jnsgd1na2vs0mg"},{"bike_id":"0e89a721-196d-4572-b905-e39e1dafff7a","system_id":"levelo_inurba_marseille","lat":43.32117,"lon":5.36767,"is_reserved":false,"is_disabled":false,"rental_uris":{"android":"levelo://app?vid=0e89a721-196d-4572-b905-e39e1dafff7a","ios":"levelo://app?vid=0e89a721-196d-4572-b905-e39e1dafff7a"},"vehicle_type_id":"4","last_reported":1747134546,"current_range_meters":10000,"station_id":"ce4bhrh2rcd13ifvqhug","pricing_plan_id":"cebpf4jnsgd1na2vs0mg"},{"bike_id":"2d975c99-ecbc-4c41-9c77-d04cfd560f47","system_id":"levelo_inurba_marseille","lat":43.30141,"lon":5.38069,"is_reserved":false,"is_disabled":false,"rental_uris":{"android":"levelo://app?vid=2d975c99-ecbc-4c41-9c77-d04cfd560f47","ios":"levelo://app?vid=2d975c99-ecbc-4c41-9c77-d04cfd560f47"},"vehicle_type_id":"4","last_reported":1747134546,"current_range_meters":10800,"station_id":"ce4bgjp2rcd13ifvqbh0","pricing_plan_id":"cebpf4jnsgd1na2vs0mg"},{"bike_id":"58aebd77-3da8-42ef-a828-2f06efab18b2","system_id":"levelo_inurba_marseille","lat":43.30418,"lon":5.41277,"is_reserved":false,"is_disabled":false,"rental_uris":{"android":"levelo://app?vid=58aebd77-3da8-42ef-a828-2f06efab18b2","ios":"levelo://app?vid=58aebd77-3da8-42ef-a828-2f06efab18b2"},"vehicle_type_id":"4","last_reported":1747134546,"current_range_meters":10800,"station_id":"ce4bhop2rcd13ifvqh8g","pricing_plan_id":"cebpf4jnsgd1na2vs0mg"},{"bike_id":"82e4009e-7b3e-45e4-b4bd-3bad4e0a8645","system_id":"levelo_inurba_marseille","lat":43.28349,"lon":5.38094,"is_reserved":false,"is_disabled":false,"rental_uris":{"android":"levelo://app?vid=82e4009e-7b3e-45e4-b4bd-3bad4e0a8645","ios":"levelo://app?vid=82e4009e-7b3e-45e4-b4bd-3bad4e0a8645"},"vehicle_type_id":"4","last_reported":1747134546,"current_range_meters":11200,"station_id":"ce4bh412rcd13ifvqdr0","pricing_plan_id":"cebpf4jnsgd1na2vs0mg"},{"bike_id":"bdd1d376-e606-4eef-b5f9-dbc44549df16","system_id":"levelo_inurba_marseille","lat":43.30421,"lon":5.41288,"is_reserved":false,"is_disabled":false,"rental_uris":{"android":"levelo://app?vid=bdd1d376-e606-4eef-b5f9-dbc44549df16","ios":"levelo://app?vid=bdd1d376-e606-4eef-b5f9-dbc44549df16"},"vehicle_type_id":"4","last_reported":1747134546,"current_range_meters":11600,"station_id":"ce4bhop2rcd13ifvqh8g","pricing_plan_id":"cebpf4jnsgd1na2vs0mg"},{"bike_id":"1f26a18e-f1cc-4799-bae4-e34f4836e30d","system_id":"levelo_inurba_marseille","lat":43.30145,"lon":5.38072,"is_reserved":false,"is_disabled":false,"rental_uris":{"android":"levelo://app?vid=1f26a18e-f1cc-4799-bae4-e34f4836e30d","ios":"levelo://app?vid=1f26a18e-f1cc-4799-bae4-e34f4836e30d"},"vehicle_type_id":"4","last_reported":1747134546,"current_range_meters":12000,"station_id":"ce4bgjp2rcd13ifvqbh0","pricing_plan_id":"cebpf4jnsgd1na2vs0mg"},{"bike_id":"4cb5a236-0a8c-4ea4-8529-3a3039994c1b","system_id":"levelo_inurba_marseille","lat":43.305957,"lon":5.372357,"is_reserved":false,"is_disabled":false,"rental_uris":{"android":"levelo://app?vid=4cb5a236-0a8c-4ea4-8529-3a3039994c1b","ios":"levelo://app?vid=4cb5a236-0a8c-4ea4-8529-3a3039994c1b"},"vehicle_type_id":"4","last_reported":1747134546,"current_range_meters":12000,"station_id":"ce4bgqh2rcd13ifvqc4g","pricing_plan_id":"cebpf4jnsgd1na2vs0mg"},{"bike_id":"60495f57-6607-44c4-92eb-f27a0659ac5e","system_id":"levelo_inurba_marseille","lat":43.28268,"lon":5.35065,"is_reserved":false,"is_disabled":false,"rental_uris":{"android":"levelo://app?vid=60495f57-6607-44c4-92eb-f27a0659ac5e","ios":"levelo://app?vid=60495f57-6607-44c4-92eb-f27a0659ac5e"},"vehicle_type_id":"4","last_reported":1747134546,"current_range_meters":12000,"station_id":"ce4bhbp2rcd13ifvqerg","pricing_plan_id":"cebpf4jnsgd1na2vs0mg"},{"bike_id":"54f6de65-0f06-4ab4-9686-d05c168e9ddc","system_id":"levelo_inurba_marseille","lat":43.2937,"lon":5.37837,"is_reserved":false,"is_disabled":false,"rental_uris":{"android":"levelo://app?vid=54f6de65-0f06-4ab4-9686-d05c168e9ddc","ios":"levelo://app?vid=54f6de65-0f06-4ab4-9686-d05c168e9ddc"},"vehicle_type_id":"4","last_reported":1747134546,"current_range_meters":12800,"station_id":"ce4bgjh2rcd13ifvqbf0","pricing_plan_id":"cebpf4jnsgd1na2vs0mg"},{"bike_id":"436dd8f4-c3ca-4739-a2ca-d7944c45aa0f","system_id":"levelo_inurba_marseille","lat":43.337444,"lon":5.374475,"is_reserved":false,"is_disabled":false,"rental_uris":{"android":"levelo://app?vid=436dd8f4-c3ca-4739-a2ca-d7944c45aa0f","ios":"levelo://app?vid=436dd8f4-c3ca-4739-a2ca-d7944c45aa0f"},"vehicle_type_id":"4","last_reported":1747134546,"current_range_meters":12800,"station_id":"ce4bgt12rcd13ifvqcd0","pricing_plan_id":"cebpf4jnsgd1na2vs0mg"},{"bike_id":"3d5b4ae5-8b47-4dfc-b232-c40152a063ef","system_id":"levelo_inurba_marseille","lat":43.29436,"lon":5.39755,"is_reserved":false,"is_disabled":false,"rental_uris":{"android":"levelo://app?vid=3d5b4ae5-8b47-4dfc-b232-c40152a063ef","ios":"levelo://app?vid=3d5b4ae5-8b47-4dfc-b232-c40152a063ef"},"vehicle_type_id":"4","last_reported":1747134546,"current_range_meters":12800,"station_id":"ce4bh3h2rcd13ifvqdo0","pricing_plan_id":"cebpf4jnsgd1na2vs0mg"},{"bike_id":"acf2ee7d-06e5-4d1f-aaa6-45c5457e2818","system_id":"levelo_inurba_marseille","lat":43.23151,"lon":5.43712,"is_reserved":false,"is_disabled":false,"rental_uris":{"android":"levelo://app?vid=acf2ee7d-06e5-4d1f-aaa6-45c5457e2818","ios":"levelo://app?vid=acf2ee7d-06e5-4d1f-aaa6-45c5457e2818"},"vehicle_type_id":"4","last_reported":1747134546,"current_range_meters":12800,"station_id":"ce4bhmp2rcd13ifvqgog","pricing_plan_id":"cebpf4jnsgd1na2vs0mg"},{"bike_id":"47c72b12-a6dd-43c9-bf71-b934ea88af14","system_id":"levelo_inurba_marseille","lat":43.30801,"lon":5.38153,"is_reserved":false,"is_disabled":false,"rental_uris":{"android":"levelo://app?vid=47c72b12-a6dd-43c9-bf71-b934ea88af14","ios":"levelo://app?vid=47c72b12-a6dd-43c9-bf71-b934ea88af14"},"vehicle_type_id":"4","last_reported":1747134546,"current_range_meters":14000,"station_id":"ce4bgt12rcd13ifvqce0","pricing_plan_id":"cebpf4jnsgd1na2vs0mg"},{"bike_id":"4f97ac1b-6b56-419b-a68a-93b33a10825e","system_id":"levelo_inurba_marseille","lat":43.31176,"lon":5.38709,"is_reserved":false,"is_disabled":false,"rental_uris":{"android":"levelo://app?vid=4f97ac1b-6b56-419b-a68a-93b33a10825e","ios":"levelo://app?vid=4f97ac1b-6b56-419b-a68a-93b33a10825e"},"vehicle_type_id":"4","last_reported":1747134546,"current_range_meters":14000,"station_id":"ce4bgv12rcd13ifvqcp0","pricing_plan_id":"cebpf4jnsgd1na2vs0mg"},{"bike_id":"308bf6a8-fb51-404c-ae03-7e63c65964f1","system_id":"levelo_inurba_marseille","lat":43.283513,"lon":5.381054,"is_reserved":false,"is_disabled":false,"rental_uris":{"android":"levelo://app?vid=308bf6a8-fb51-404c-ae03-7e63c65964f1","ios":"levelo://app?vid=308bf6a8-fb51-404c-ae03-7e63c65964f1"},"vehicle_type_id":"4","last_reported":1747134546,"current_range_meters":14000,"station_id":"ce4bh412rcd13ifvqdr0","pricing_plan_id":"cebpf4jnsgd1na2vs0mg"},{"bike_id":"adc2aae1-118b-4e98-b179-385f6ec92999","system_id":"levelo_inurba_marseille","lat":43.254436,"lon":5.378471,"is_reserved":false,"is_disabled":false,"rental_uris":{"android":"levelo://app?vid=adc2aae1-118b-4e98-b179-385f6ec92999","ios":"levelo://app?vid=adc2aae1-118b-4e98-b179-385f6ec92999"},"vehicle_type_id":"4","last_reported":1747134546,"current_range_meters":14000,"station_id":"ce4bhgp2rcd13ifvqfd0","pricing_plan_id":"cebpf4jnsgd1na2vs0mg"},{"bike_id":"10327911-5dca-4eed-bc09-827d95243918","system_id":"levelo_inurba_marseille","lat":43.28262,"lon":5.35059,"is_reserved":false,"is_disabled":false,"rental_uris":{"android":"levelo://app?vid=10327911-5dca-4eed-bc09-827d95243918","ios":"levelo://app?vid=10327911-5dca-4eed-bc09-827d95243918"},"vehicle_type_id":"4","last_reported":1747134546,"current_range_meters":14400,"station_id":"ce4bhbp2rcd13ifvqerg","pricing_plan_id":"cebpf4jnsgd1na2vs0mg"},{"bike_id":"ee9449db-e2f9-42a4-a977-7f9148378ab5","system_id":"levelo_inurba_marseille","lat":43.28441,"lon":5.39149,"is_reserved":false,"is_disabled":false,"rental_uris":{"android":"levelo://app?vid=ee9449db-e2f9-42a4-a977-7f9148378ab5","ios":"levelo://app?vid=ee9449db-e2f9-42a4-a977-7f9148378ab5"},"vehicle_type_id":"4","last_reported":1747134546,"current_range_meters":14400,"station_id":"ce4bhoh2rcd13ifvqh5g","pricing_plan_id":"cebpf4jnsgd1na2vs0mg"},{"bike_id":"1d65d494-9957-476b-88c6-d5ae0baaee20","system_id":"levelo_inurba_marseille","lat":43.27612,"lon":5.36118,"is_reserved":false,"is_disabled":false,"rental_uris":{"android":"levelo://app?vid=1d65d494-9957-476b-88c6-d5ae0baaee20","ios":"levelo://app?vid=1d65d494-9957-476b-88c6-d5ae0baaee20"},"vehicle_type_id":"4","last_reported":1747134546,"current_range_meters":14800,"station_id":"ce4bgj92rcd13ifvqbe0","pricing_plan_id":"cebpf4jnsgd1na2vs0mg"},{"bike_id":"0bac8b07-fd5a-45a1-b013-9d493ffa6e53","system_id":"levelo_inurba_marseille","lat":43.29783,"lon":5.37095,"is_reserved":false,"is_disabled":false,"rental_uris":{"android":"levelo://app?vid=0bac8b07-fd5a-45a1-b013-9d493ffa6e53","ios":"levelo://app?vid=0bac8b07-fd5a-45a1-b013-9d493ffa6e53"},"vehicle_type_id":"4","last_reported":1747134546,"current_range_meters":14800,"station_id":"ce4bgop2rcd13ifvqc1g","pricing_plan_id":"cebpf4jnsgd1na2vs0mg"},{"bike_id":"af7378f2-5574-4580-8919-9220d94ad1cc","system_id":"levelo_inurba_marseille","lat":43.23202,"lon":5.3554,"is_reserved":false,"is_disabled":false,"rental_uris":{"android":"levelo://app?vid=af7378f2-5574-4580-8919-9220d94ad1cc","ios":"levelo://app?vid=af7378f2-5574-4580-8919-9220d94ad1cc"},"vehicle_type_id":"4","last_reported":1747134546,"current_range_meters":14800,"station_id":"ce4bhu92rcd13ifvqi70","pricing_plan_id":"cebpf4jnsgd1na2vs0mg"},{"bike_id":"65aa5445-2f85-4435-ab3d-6f6613a78f78","system_id":"levelo_inurba_marseille","lat":43.25498,"lon":5.38201,"is_reserved":false,"is_disabled":false,"rental_uris":{"android":"levelo://app?vid=65aa5445-2f85-4435-ab3d-6f6613a78f78","ios":"levelo://app?vid=65aa5445-2f85-4435-ab3d-6f6613a78f78"},"vehicle_type_id":"4","last_reported":1747134546,"current_range_meters":15200,"station_id":"ce4bhih2rcd13ifvqfs0","pricing_plan_id":"cebpf4jnsgd1na2vs0mg"},{"bike_id":"6849816a-14a2-4736-aae2-e7373738bc80","system_id":"levelo_inurba_marseille","lat":43.2592,"lon":5.40877,"is_reserved":false,"is_disabled":false,"rental_uris":{"android":"levelo://app?vid=6849816a-14a2-4736-aae2-e7373738bc80","ios":"levelo://app?vid=6849816a-14a2-4736-aae2-e7373738bc80"},"vehicle_type_id":"4","last_reported":1747134546,"current_range_meters":15200,"station_id":"ce4bhm92rcd13ifvqglg","pricing_plan_id":"cebpf4jnsgd1na2vs0mg"},{"bike_id":"ba514e44-6b68-46f5-98bc-d99c9a5ef0e7","system_id":"levelo_inurba_marseille","lat":43.24177,"lon":5.39734,"is_reserved":false,"is_disabled":false,"rental_uris":{"android":"levelo://app?vid=ba514e44-6b68-46f5-98bc-d99c9a5ef0e7","ios":"levelo://app?vid=ba514e44-6b68-46f5-98bc-d99c9a5ef0e7"},"vehicle_type_id":"4","last_reported":1747134546,"current_range_meters":15200,"station_id":"ce4bhn12rcd13ifvqgpg","pricing_plan_id":"cebpf4jnsgd1na2vs0mg"},{"bike_id":"9d352004-7b2c-43e3-9328-20e4f737c9c4","system_id":"levelo_inurba_marseille","lat":43.262294,"lon":5.404539,"is_reserved":false,"is_disabled":false,"rental_uris":{"android":"levelo://app?vid=9d352004-7b2c-43e3-9328-20e4f737c9c4","ios":"levelo://app?vid=9d352004-7b2c-43e3-9328-20e4f737c9c4"},"vehicle_type_id":"4","last_reported":1747134546,"current_range_meters":16000,"station_id":"","pricing_plan_id":"cebpf4jnsgd1na2vs0mg"},{"bike_id":"801bb3f4-626f-44f8-bdeb-1952dd336568","system_id":"levelo_inurba_marseille","lat":43.276167,"lon":5.361052,"is_reserved":false,"is_disabled":false,"rental_uris":{"android":"levelo://app?vid=801bb3f4-626f-44f8-bdeb-1952dd336568","ios":"levelo://app?vid=801bb3f4-626f-44f8-bdeb-1952dd336568"},"vehicle_type_id":"4","last_reported":1747134546,"current_range_meters":16000,"station_id":"ce4bgj92rcd13ifvqbe0","pricing_plan_id":"cebpf4jnsgd1na2vs0mg"},{"bike_id":"6adbd810-657c-4fa7-a34d-75cf3f4443e4","system_id":"levelo_inurba_marseille","lat":43.26054,"lon":5.39397,"is_reserved":false,"is_disabled":false,"rental_uris":{"android":"levelo://app?vid=6adbd810-657c-4fa7-a34d-75cf3f4443e4","ios":"levelo://app?vid=6adbd810-657c-4fa7-a34d-75cf3f4443e4"},"vehicle_type_id":"4","last_reported":1747134546,"current_range_meters":16000,"station_id":"ce4bhh92rcd13ifvqfj0","pricing_plan_id":"cebpf4jnsgd1na2vs0mg"},{"bike_id":"da5361c8-b754-4750-b115-92bd1616f02e","system_id":"levelo_inurba_marseille","lat":43.23152,"lon":5.43705,"is_reserved":false,"is_disabled":false,"rental_uris":{"android":"levelo://app?vid=da5361c8-b754-4750-b115-92bd1616f02e","ios":"levelo://app?vid=da5361c8-b754-4750-b115-92bd1616f02e"},"vehicle_type_id":"4","last_reported":1747134546,"current_range_meters":16000,"station_id":"ce4bhmp2rcd13ifvqgog","pricing_plan_id":"cebpf4jnsgd1na2vs0mg"},{"bike_id":"05bb340c-c24e-4941-a1ce-576ca83625ed","system_id":"levelo_inurba_marseille","lat":43.27808,"lon":5.40719,"is_reserved":false,"is_disabled":false,"rental_uris":{"android":"levelo://app?vid=05bb340c-c24e-4941-a1ce-576ca83625ed","ios":"levelo://app?vid=05bb340c-c24e-4941-a1ce-576ca83625ed"},"vehicle_type_id":"4","last_reported":1747134546,"current_range_meters":16000,"station_id":"ce4bhnh2rcd13ifvqgtg","pricing_plan_id":"cebpf4jnsgd1na2vs0mg"},{"bike_id":"19338b3d-99ec-4a60-a7d4-797e4c5f79d7","system_id":"levelo_inurba_marseille","lat":43.26193,"lon":5.37442,"is_reserved":false,"is_disabled":false,"rental_uris":{"android":"levelo://app?vid=19338b3d-99ec-4a60-a7d4-797e4c5f79d7","ios":"levelo://app?vid=19338b3d-99ec-4a60-a7d4-797e4c5f79d7"},"vehicle_type_id":"4","last_reported":1747134546,"current_range_meters":16400,"station_id":"ce4bhgp2rcd13ifvqfc0","pricing_plan_id":"cebpf4jnsgd1na2vs0mg"},{"bike_id":"73c4d68c-0536-409c-acba-94a1392a1c77","system_id":"levelo_inurba_marseille","lat":43.241698,"lon":5.397108,"is_reserved":false,"is_disabled":false,"rental_uris":{"android":"levelo://app?vid=73c4d68c-0536-409c-acba-94a1392a1c77","ios":"levelo://app?vid=73c4d68c-0536-409c-acba-94a1392a1c77"},"vehicle_type_id":"4","last_reported":1747134546,"current_range_meters":16400,"station_id":"ce4bhn12rcd13ifvqgpg","pricing_plan_id":"cebpf4jnsgd1na2vs0mg"},{"bike_id":"d47e0ef5-128e-4c82-8e08-c07c79e20732","system_id":"levelo_inurba_marseille","lat":43.32466,"lon":5.36582,"is_reserved":false,"is_disabled":false,"rental_uris":{"android":"levelo://app?vid=d47e0ef5-128e-4c82-8e08-c07c79e20732","ios":"levelo://app?vid=d47e0ef5-128e-4c82-8e08-c07c79e20732"},"vehicle_type_id":"4","last_reported":1747134546,"current_range_meters":16400,"station_id":"ce4bhs12rcd13ifvqhvg","pricing_plan_id":"cebpf4jnsgd1na2vs0mg"},{"bike_id":"ee95d7b1-23aa-4ba2-8604-c3c7e16b2172","system_id":"levelo_inurba_marseille","lat":43.28912,"lon":5.36648,"is_reserved":false,"is_disabled":false,"rental_uris":{"android":"levelo://app?vid=ee95d7b1-23aa-4ba2-8604-c3c7e16b2172","ios":"levelo://app?vid=ee95d7b1-23aa-4ba2-8604-c3c7e16b2172"},"vehicle_type_id":"4","last_reported":1747134546,"current_range_meters":16800,"station_id":"ce4bhap2rcd13ifvqek0","pricing_plan_id":"cebpf4jnsgd1na2vs0mg"},{"bike_id":"79e0aeb8-3869-47f5-9097-c3b3e3d1c0f1","system_id":"levelo_inurba_marseille","lat":43.28264,"lon":5.35064,"is_reserved":false,"is_disabled":false,"rental_uris":{"android":"levelo://app?vid=79e0aeb8-3869-47f5-9097-c3b3e3d1c0f1","ios":"levelo://app?vid=79e0aeb8-3869-47f5-9097-c3b3e3d1c0f1"},"vehicle_type_id":"4","last_reported":1747134546,"current_range_meters":16800,"station_id":"ce4bhbp2rcd13ifvqerg","pricing_plan_id":"cebpf4jnsgd1na2vs0mg"},{"bike_id":"e9dc658a-eaa4-4f98-8111-9734ea55ddea","system_id":"levelo_inurba_marseille","lat":43.27066,"lon":5.42278,"is_reserved":false,"is_disabled":false,"rental_uris":{"android":"levelo://app?vid=e9dc658a-eaa4-4f98-8111-9734ea55ddea","ios":"levelo://app?vid=e9dc658a-eaa4-4f98-8111-9734ea55ddea"},"vehicle_type_id":"4","last_reported":1747134546,"current_range_meters":16800,"station_id":"ce4bhk92rcd13ifvqgb0","pricing_plan_id":"cebpf4jnsgd1na2vs0mg"},{"bike_id":"29dc9894-93e9-41ab-9bf6-951ec8ab8a7d","system_id":"levelo_inurba_marseille","lat":43.29006,"lon":5.35613,"is_reserved":false,"is_disabled":false,"rental_uris":{"android":"levelo://app?vid=29dc9894-93e9-41ab-9bf6-951ec8ab8a7d","ios":"levelo://app?vid=29dc9894-93e9-41ab-9bf6-951ec8ab8a7d"},"vehicle_type_id":"4","last_reported":1747134546,"current_range_meters":17200,"station_id":"ce4bhb92rcd13ifvqen0","pricing_plan_id":"cebpf4jnsgd1na2vs0mg"},{"bike_id":"7b49cde5-cc6f-4c45-9652-3a627569dfff","system_id":"levelo_inurba_marseille","lat":43.282729,"lon":5.350525,"is_reserved":false,"is_disabled":false,"rental_uris":{"android":"levelo://app?vid=7b49cde5-cc6f-4c45-9652-3a627569dfff","ios":"levelo://app?vid=7b49cde5-cc6f-4c45-9652-3a627569dfff"},"vehicle_type_id":"4","last_reported":1747134546,"current_range_meters":17600,"station_id":"","pricing_plan_id":"cebpf4jnsgd1na2vs0mg"},{"bike_id":"a526779f-38d1-4304-8920-a2ea437ec315","system_id":"levelo_inurba_marseille","lat":43.28418,"lon":5.34984,"is_reserved":false,"is_disabled":false,"rental_uris":{"android":"levelo://app?vid=a526779f-38d1-4304-8920-a2ea437ec315","ios":"levelo://app?vid=a526779f-38d1-4304-8920-a2ea437ec315"},"vehicle_type_id":"4","last_reported":1747134546,"current_range_meters":17600,"station_id":"ce4bhbh2rcd13ifvqepg","pricing_plan_id":"cebpf4jnsgd1na2vs0mg"},{"bike_id":"937c51ae-1350-430e-bd9b-52a8a9abc39b","system_id":"levelo_inurba_marseille","lat":43.282623,"lon":5.350575,"is_reserved":false,"is_disabled":false,"rental_uris":{"android":"levelo://app?vid=937c51ae-1350-430e-bd9b-52a8a9abc39b","ios":"levelo://app?vid=937c51ae-1350-430e-bd9b-52a8a9abc39b"},"vehicle_type_id":"4","last_reported":1747134546,"current_range_meters":17600,"station_id":"ce4bhbp2rcd13ifvqerg","pricing_plan_id":"cebpf4jnsgd1na2vs0mg"},{"bike_id":"9d76660f-c284-49a2-8765-48337aa51471","system_id":"levelo_inurba_marseille","lat":43.32125,"lon":5.36739,"is_reserved":false,"is_disabled":false,"rental_uris":{"android":"levelo://app?vid=9d76660f-c284-49a2-8765-48337aa51471","ios":"levelo://app?vid=9d76660f-c284-49a2-8765-48337aa51471"},"vehicle_type_id":"4","last_reported":1747134546,"current_range_meters":17600,"station_id":"ce4bhrh2rcd13ifvqhug","pricing_plan_id":"cebpf4jnsgd1na2vs0mg"},{"bike_id":"0c893fb7-8626-4706-85bf-f404b871dea5","system_id":"levelo_inurba_marseille","lat":43.281228,"lon":5.446017,"is_reserved":false,"is_disabled":false,"rental_uris":{"android":"levelo://app?vid=0c893fb7-8626-4706-85bf-f404b871dea5","ios":"levelo://app?vid=0c893fb7-8626-4706-85bf-f404b871dea5"},"vehicle_type_id":"4","last_reported":1747134546,"current_range_meters":18000,"station_id":"","pricing_plan_id":"cebpf4jnsgd1na2vs0mg"},{"bike_id":"0e98889c-e9b4-454b-8aa8-9d80967e050f","system_id":"levelo_inurba_marseille","lat":43.23967,"lon":5.36634,"is_reserved":false,"is_disabled":false,"rental_uris":{"android":"levelo://app?vid=0e98889c-e9b4-454b-8aa8-9d80967e050f","ios":"levelo://app?vid=0e98889c-e9b4-454b-8aa8-9d80967e050f"},"vehicle_type_id":"4","last_reported":1747134546,"current_range_meters":18000,"station_id":"ce4bhi12rcd13ifvqfp0","pricing_plan_id":"cebpf4jnsgd1na2vs0mg"},{"bike_id":"1e297e0e-a907-489c-9a22-1dfb89bfb64f","system_id":"levelo_inurba_marseille","lat":43.292346,"lon":5.364208,"is_reserved":false,"is_disabled":false,"rental_uris":{"android":"levelo://app?vid=1e297e0e-a907-489c-9a22-1dfb89bfb64f","ios":"levelo://app?vid=1e297e0e-a907-489c-9a22-1dfb89bfb64f"},"vehicle_type_id":"4","last_reported":1747134546,"current_range_meters":18800,"station_id":"","pricing_plan_id":"cebpf4jnsgd1na2vs0mg"},{"bike_id":"02b2747b-0a6d-4767-8348-6009ecd48403","system_id":"levelo_inurba_marseille","lat":43.26765,"lon":5.37894,"is_reserved":false,"is_disabled":false,"rental_uris":{"android":"levelo://app?vid=02b2747b-0a6d-4767-8348-6009ecd48403","ios":"levelo://app?vid=02b2747b-0a6d-4767-8348-6009ecd48403"},"vehicle_type_id":"4","last_reported":1747134546,"current_range_meters":18800,"station_id":"","pricing_plan_id":"cebpf4jnsgd1na2vs0mg"},{"bike_id":"eeb882a8-fe36-4d5c-a964-fc0d0f965523","system_id":"levelo_inurba_marseille","lat":43.306803,"lon":5.366863,"is_reserved":false,"is_disabled":false,"rental_uris":{"android":"levelo://app?vid=eeb882a8-fe36-4d5c-a964-fc0d0f965523","ios":"levelo://app?vid=eeb882a8-fe36-4d5c-a964-fc0d0f965523"},"vehicle_type_id":"4","last_reported":1747134546,"current_range_meters":18800,"station_id":"","pricing_plan_id":"cebpf4jnsgd1na2vs0mg"},{"bike_id":"581a76c6-406f-436c-80cf-424046378536","system_id":"levelo_inurba_marseille","lat":43.2312,"lon":5.43738,"is_reserved":false,"is_disabled":false,"rental_uris":{"android":"levelo://app?vid=581a76c6-406f-436c-80cf-424046378536","ios":"levelo://app?vid=581a76c6-406f-436c-80cf-424046378536"},"vehicle_type_id":"4","last_reported":1747134546,"current_range_meters":18800,"station_id":"","pricing_plan_id":"cebpf4jnsgd1na2vs0mg"},{"bike_id":"2304055e-4abb-4581-9f64-67efbea26b49","system_id":"levelo_inurba_marseille","lat":43.30241,"lon":5.40052,"is_reserved":false,"is_disabled":false,"rental_uris":{"android":"levelo://app?vid=2304055e-4abb-4581-9f64-67efbea26b49","ios":"levelo://app?vid=2304055e-4abb-4581-9f64-67efbea26b49"},"vehicle_type_id":"4","last_reported":1747134546,"current_range_meters":18800,"station_id":"ce4bgvh2rcd13ifvqcs0","pricing_plan_id":"cebpf4jnsgd1na2vs0mg"},{"bike_id":"28b24117-d27b-405e-9e98-84abd7399cc0","system_id":"levelo_inurba_marseille","lat":43.30591,"lon":5.39361,"is_reserved":false,"is_disabled":false,"rental_uris":{"android":"levelo://app?vid=28b24117-d27b-405e-9e98-84abd7399cc0","ios":"levelo://app?vid=28b24117-d27b-405e-9e98-84abd7399cc0"},"vehicle_type_id":"4","last_reported":1747134546,"current_range_meters":18800,"station_id":"ce4bh0p2rcd13ifvqd80","pricing_plan_id":"cebpf4jnsgd1na2vs0mg"},{"bike_id":"ebabda50-6ba2-4a20-9cf3-fa6897633b84","system_id":"levelo_inurba_marseille","lat":43.26566,"lon":5.39013,"is_reserved":false,"is_disabled":false,"rental_uris":{"android":"levelo://app?vid=ebabda50-6ba2-4a20-9cf3-fa6897633b84","ios":"levelo://app?vid=ebabda50-6ba2-4a20-9cf3-fa6897633b84"},"vehicle_type_id":"4","last_reported":1747134546,"current_range_meters":18800,"station_id":"ce4bhe12rcd13ifvqf30","pricing_plan_id":"cebpf4jnsgd1na2vs0mg"},{"bike_id":"606cf80e-9181-4e0d-8a52-7343c415edac","system_id":"levelo_inurba_marseille","lat":43.25101,"lon":5.40326,"is_reserved":false,"is_disabled":false,"rental_uris":{"android":"levelo://app?vid=606cf80e-9181-4e0d-8a52-7343c415edac","ios":"levelo://app?vid=606cf80e-9181-4e0d-8a52-7343c415edac"},"vehicle_type_id":"4","last_reported":1747134546,"current_range_meters":18800,"station_id":"ce4bhlh2rcd13ifvqgig","pricing_plan_id":"cebpf4jnsgd1na2vs0mg"},{"bike_id":"bd88d41b-f29d-44c2-8d5d-19a0735af1da","system_id":"levelo_inurba_marseille","lat":43.25927,"lon":5.40955,"is_reserved":false,"is_disabled":false,"rental_uris":{"android":"levelo://app?vid=bd88d41b-f29d-44c2-8d5d-19a0735af1da","ios":"levelo://app?vid=bd88d41b-f29d-44c2-8d5d-19a0735af1da"},"vehicle_type_id":"4","last_reported":1747134546,"current_range_meters":18800,"station_id":"ce4bhm92rcd13ifvqglg","pricing_plan_id":"cebpf4jnsgd1na2vs0mg"},{"bike_id":"7b81b89e-d5e8-451b-b30a-91751793eec4","system_id":"levelo_inurba_marseille","lat":43.26225,"lon":5.40457,"is_reserved":false,"is_disabled":false,"rental_uris":{"android":"levelo://app?vid=7b81b89e-d5e8-451b-b30a-91751793eec4","ios":"levelo://app?vid=7b81b89e-d5e8-451b-b30a-91751793eec4"},"vehicle_type_id":"4","last_reported":1747134546,"current_range_meters":18800,"station_id":"ce4bhmh2rcd13ifvqgmg","pricing_plan_id":"cebpf4jnsgd1na2vs0mg"},{"bike_id":"291b9489-b6e8-4a0d-a157-011bfdc46211","system_id":"levelo_inurba_marseille","lat":43.26225,"lon":5.40451,"is_reserved":false,"is_disabled":false,"rental_uris":{"android":"levelo://app?vid=291b9489-b6e8-4a0d-a157-011bfdc46211","ios":"levelo://app?vid=291b9489-b6e8-4a0d-a157-011bfdc46211"},"vehicle_type_id":"4","last_reported":1747134546,"current_range_meters":18800,"station_id":"ce4bhmh2rcd13ifvqgmg","pricing_plan_id":"cebpf4jnsgd1na2vs0mg"},{"bike_id":"91eed1ca-70b2-4dd2-951f-d96870fdcaa5","system_id":"levelo_inurba_marseille","lat":43.31883,"lon":5.40737,"is_reserved":false,"is_disabled":false,"rental_uris":{"android":"levelo://app?vid=91eed1ca-70b2-4dd2-951f-d96870fdcaa5","ios":"levelo://app?vid=91eed1ca-70b2-4dd2-951f-d96870fdcaa5"},"vehicle_type_id":"4","last_reported":1747134546,"current_range_meters":18800,"station_id":"ce4bhq12rcd13ifvqhig","pricing_plan_id":"cebpf4jnsgd1na2vs0mg"},{"bike_id":"9e7ebd91-af82-4549-976b-c088b359c00b","system_id":"levelo_inurba_marseille","lat":43.32111,"lon":5.36762,"is_reserved":false,"is_disabled":false,"rental_uris":{"android":"levelo://app?vid=9e7ebd91-af82-4549-976b-c088b359c00b","ios":"levelo://app?vid=9e7ebd91-af82-4549-976b-c088b359c00b"},"vehicle_type_id":"4","last_reported":1747134546,"current_range_meters":18800,"station_id":"ce4bhrh2rcd13ifvqhug","pricing_plan_id":"cebpf4jnsgd1na2vs0mg"},{"bike_id":"8a5672f1-5de3-4097-b6c8-db9c204f4e93","system_id":"levelo_inurba_marseille","lat":43.22935,"lon":5.35377,"is_reserved":false,"is_disabled":false,"rental_uris":{"android":"levelo://app?vid=8a5672f1-5de3-4097-b6c8-db9c204f4e93","ios":"levelo://app?vid=8a5672f1-5de3-4097-b6c8-db9c204f4e93"},"vehicle_type_id":"4","last_reported":1747134546,"current_range_meters":18800,"station_id":"cpo3532slgdg3j2ikp40","pricing_plan_id":"cebpf4jnsgd1na2vs0mg"},{"bike_id":"87a18c2e-fad2-46c2-b3c8-ef4c97a8f24e","system_id":"levelo_inurba_marseille","lat":43.29268,"lon":5.37604,"is_reserved":false,"is_disabled":false,"rental_uris":{"android":"levelo://app?vid=87a18c2e-fad2-46c2-b3c8-ef4c97a8f24e","ios":"levelo://app?vid=87a18c2e-fad2-46c2-b3c8-ef4c97a8f24e"},"vehicle_type_id":"4","last_reported":1747134546,"current_range_meters":19200,"station_id":"ce4bgi12rcd13ifvqb80","pricing_plan_id":"cebpf4jnsgd1na2vs0mg"},{"bike_id":"03bf11f0-de68-48aa-a10b-c5d572d4166d","system_id":"levelo_inurba_marseille","lat":43.28991,"lon":5.35606,"is_reserved":false,"is_disabled":false,"rental_uris":{"android":"levelo://app?vid=03bf11f0-de68-48aa-a10b-c5d572d4166d","ios":"levelo://app?vid=03bf11f0-de68-48aa-a10b-c5d572d4166d"},"vehicle_type_id":"4","last_reported":1747134546,"current_range_meters":19200,"station_id":"ce4bhb92rcd13ifvqen0","pricing_plan_id":"cebpf4jnsgd1na2vs0mg"},{"bike_id":"8c781932-15bc-4a05-aed4-ff5b30874685","system_id":"levelo_inurba_marseille","lat":43.27668,"lon":5.38881,"is_reserved":false,"is_disabled":false,"rental_uris":{"android":"levelo://app?vid=8c781932-15bc-4a05-aed4-ff5b30874685","ios":"levelo://app?vid=8c781932-15bc-4a05-aed4-ff5b30874685"},"vehicle_type_id":"4","last_reported":1747134546,"current_range_meters":19200,"station_id":"ce4bhi12rcd13ifvqfo0","pricing_plan_id":"cebpf4jnsgd1na2vs0mg"},{"bike_id":"e64ccb21-b07c-4dc1-a129-1e19c593a376","system_id":"levelo_inurba_marseille","lat":43.23129,"lon":5.4369,"is_reserved":false,"is_disabled":false,"rental_uris":{"android":"levelo://app?vid=e64ccb21-b07c-4dc1-a129-1e19c593a376","ios":"levelo://app?vid=e64ccb21-b07c-4dc1-a129-1e19c593a376"},"vehicle_type_id":"4","last_reported":1747134546,"current_range_meters":19200,"station_id":"ce4bhmp2rcd13ifvqgog","pricing_plan_id":"cebpf4jnsgd1na2vs0mg"},{"bike_id":"c4f86981-df25-43de-ae86-531fe96a2086","system_id":"levelo_inurba_marseille","lat":43.28716,"lon":5.39989,"is_reserved":false,"is_disabled":false,"rental_uris":{"android":"levelo://app?vid=c4f86981-df25-43de-ae86-531fe96a2086","ios":"levelo://app?vid=c4f86981-df25-43de-ae86-531fe96a2086"},"vehicle_type_id":"4","last_reported":1747134546,"current_range_meters":19200,"station_id":"ce4bho92rcd13ifvqh3g","pricing_plan_id":"cebpf4jnsgd1na2vs0mg"},{"bike_id":"116fcc67-1873-4896-bd6f-d2374e2ad85a","system_id":"levelo_inurba_marseille","lat":43.28258,"lon":5.35052,"is_reserved":false,"is_disabled":false,"rental_uris":{"android":"levelo://app?vid=116fcc67-1873-4896-bd6f-d2374e2ad85a","ios":"levelo://app?vid=116fcc67-1873-4896-bd6f-d2374e2ad85a"},"vehicle_type_id":"4","last_reported":1747134546,"current_range_meters":19600,"station_id":"ce4bgj92rcd13ifvqbe0","pricing_plan_id":"cebpf4jnsgd1na2vs0mg"},{"bike_id":"a5e11739-9f4e-4a5c-a67a-316bdd3705d0","system_id":"levelo_inurba_marseille","lat":43.26763,"lon":5.40276,"is_reserved":false,"is_disabled":false,"rental_uris":{"android":"levelo://app?vid=a5e11739-9f4e-4a5c-a67a-316bdd3705d0","ios":"levelo://app?vid=a5e11739-9f4e-4a5c-a67a-316bdd3705d0"},"vehicle_type_id":"4","last_reported":1747134546,"current_range_meters":19600,"station_id":"ce501612rcd8frsf0b60","pricing_plan_id":"cebpf4jnsgd1na2vs0mg"},{"bike_id":"6e3094ae-584b-4b23-8747-809792d486b5","system_id":"levelo_inurba_marseille","lat":43.21186,"lon":5.35088,"is_reserved":false,"is_disabled":false,"rental_uris":{"android":"levelo://app?vid=6e3094ae-584b-4b23-8747-809792d486b5","ios":"levelo://app?vid=6e3094ae-584b-4b23-8747-809792d486b5"},"vehicle_type_id":"4","last_reported":1747134546,"current_range_meters":19600,"station_id":"st_cvj6sg6p6f1abm77japg","pricing_plan_id":"cebpf4jnsgd1na2vs0mg"},{"bike_id":"eda254a7-4d7d-475a-ab7c-ede8d720c5cc","system_id":"levelo_inurba_marseille","lat":43.30796,"lon":5.38152,"is_reserved":false,"is_disabled":false,"rental_uris":{"android":"levelo://app?vid=eda254a7-4d7d-475a-ab7c-ede8d720c5cc","ios":"levelo://app?vid=eda254a7-4d7d-475a-ab7c-ede8d720c5cc"},"vehicle_type_id":"4","last_reported":1747134546,"current_range_meters":20000,"station_id":"ce4bgt12rcd13ifvqce0","pricing_plan_id":"cebpf4jnsgd1na2vs0mg"},{"bike_id":"42b542d2-1c8a-4cb4-80ac-8f3f9298393e","system_id":"levelo_inurba_marseille","lat":43.3133,"lon":5.39697,"is_reserved":false,"is_disabled":false,"rental_uris":{"android":"levelo://app?vid=42b542d2-1c8a-4cb4-80ac-8f3f9298393e","ios":"levelo://app?vid=42b542d2-1c8a-4cb4-80ac-8f3f9298393e"},"vehicle_type_id":"4","last_reported":1747134546,"current_range_meters":20000,"station_id":"ce4bgvp2rcd13ifvqcu0","pricing_plan_id":"cebpf4jnsgd1na2vs0mg"},{"bike_id":"a9f02b19-c176-448d-bbd7-70872e29aab1","system_id":"levelo_inurba_marseille","lat":43.23128,"lon":5.43717,"is_reserved":false,"is_disabled":false,"rental_uris":{"android":"levelo://app?vid=a9f02b19-c176-448d-bbd7-70872e29aab1","ios":"levelo://app?vid=a9f02b19-c176-448d-bbd7-70872e29aab1"},"vehicle_type_id":"4","last_reported":1747134546,"current_range_meters":20000,"station_id":"ce4bhmp2rcd13ifvqgog","pricing_plan_id":"cebpf4jnsgd1na2vs0mg"},{"bike_id":"9aef3c1f-4843-41c9-94b4-7278bbc4c004","system_id":"levelo_inurba_marseille","lat":43.23191,"lon":5.35558,"is_reserved":false,"is_disabled":false,"rental_uris":{"android":"levelo://app?vid=9aef3c1f-4843-41c9-94b4-7278bbc4c004","ios":"levelo://app?vid=9aef3c1f-4843-41c9-94b4-7278bbc4c004"},"vehicle_type_id":"4","last_reported":1747134546,"current_range_meters":20000,"station_id":"ce4bhu92rcd13ifvqi70","pricing_plan_id":"cebpf4jnsgd1na2vs0mg"},{"bike_id":"995b6502-9a4f-4150-822f-178690fca4ba","system_id":"levelo_inurba_marseille","lat":43.21194,"lon":5.35077,"is_reserved":false,"is_disabled":false,"rental_uris":{"android":"levelo://app?vid=995b6502-9a4f-4150-822f-178690fca4ba","ios":"levelo://app?vid=995b6502-9a4f-4150-822f-178690fca4ba"},"vehicle_type_id":"4","last_reported":1747134546,"current_range_meters":20000,"station_id":"st_cvj6sg6p6f1abm77japg","pricing_plan_id":"cebpf4jnsgd1na2vs0mg"},{"bike_id":"9adf8d3d-b9b5-4348-80b8-ea15a06effdb","system_id":"levelo_inurba_marseille","lat":43.29269,"lon":5.37646,"is_reserved":false,"is_disabled":false,"rental_uris":{"android":"levelo://app?vid=9adf8d3d-b9b5-4348-80b8-ea15a06effdb","ios":"levelo://app?vid=9adf8d3d-b9b5-4348-80b8-ea15a06effdb"},"vehicle_type_id":"4","last_reported":1747134546,"current_range_meters":20400,"station_id":"ce4bgi12rcd13ifvqb80","pricing_plan_id":"cebpf4jnsgd1na2vs0mg"},{"bike_id":"cd482c7d-b90a-473d-b37d-c18732d8e08e","system_id":"levelo_inurba_marseille","lat":43.29802,"lon":5.38109,"is_reserved":false,"is_disabled":false,"rental_uris":{"android":"levelo://app?vid=cd482c7d-b90a-473d-b37d-c18732d8e08e","ios":"levelo://app?vid=cd482c7d-b90a-473d-b37d-c18732d8e08e"},"vehicle_type_id":"4","last_reported":1747134546,"current_range_meters":20400,"station_id":"ce4bgip2rcd13ifvqbb0","pricing_plan_id":"cebpf4jnsgd1na2vs0mg"},{"bike_id":"6a1d380a-e604-441a-96a0-d5967d699176","system_id":"levelo_inurba_marseille","lat":43.3136,"lon":5.38472,"is_reserved":false,"is_disabled":false,"rental_uris":{"android":"levelo://app?vid=6a1d380a-e604-441a-96a0-d5967d699176","ios":"levelo://app?vid=6a1d380a-e604-441a-96a0-d5967d699176"},"vehicle_type_id":"4","last_reported":1747134546,"current_range_meters":20400,"station_id":"ce4bgt92rcd13ifvqcf0","pricing_plan_id":"cebpf4jnsgd1na2vs0mg"},{"bike_id":"23c86921-fd01-4213-9907-3d46d9d9b6bb","system_id":"levelo_inurba_marseille","lat":43.27376,"lon":5.36253,"is_reserved":false,"is_disabled":false,"rental_uris":{"android":"levelo://app?vid=23c86921-fd01-4213-9907-3d46d9d9b6bb","ios":"levelo://app?vid=23c86921-fd01-4213-9907-3d46d9d9b6bb"},"vehicle_type_id":"4","last_reported":1747134546,"current_range_meters":20400,"station_id":"ce4bhbh2rcd13ifvqeo0","pricing_plan_id":"cebpf4jnsgd1na2vs0mg"},{"bike_id":"0893570f-2666-4ce4-b369-81ad674ee829","system_id":"levelo_inurba_marseille","lat":43.27369,"lon":5.36262,"is_reserved":false,"is_disabled":false,"rental_uris":{"android":"levelo://app?vid=0893570f-2666-4ce4-b369-81ad674ee829","ios":"levelo://app?vid=0893570f-2666-4ce4-b369-81ad674ee829"},"vehicle_type_id":"4","last_reported":1747134546,"current_range_meters":20400,"station_id":"ce4bhbh2rcd13ifvqeo0","pricing_plan_id":"cebpf4jnsgd1na2vs0mg"},{"bike_id":"9b0bf1ea-2041-49b6-8f9b-6df92b256571","system_id":"levelo_inurba_marseille","lat":43.289433,"lon":5.363907,"is_reserved":false,"is_disabled":false,"rental_uris":{"android":"levelo://app?vid=9b0bf1ea-2041-49b6-8f9b-6df92b256571","ios":"levelo://app?vid=9b0bf1ea-2041-49b6-8f9b-6df92b256571"},"vehicle_type_id":"4","last_reported":1747134546,"current_range_meters":20400,"station_id":"ce4bhc92rcd13ifvqetg","pricing_plan_id":"cebpf4jnsgd1na2vs0mg"},{"bike_id":"c8a6209f-479b-43dd-925f-f29c8f7d3f97","system_id":"levelo_inurba_marseille","lat":43.262041,"lon":5.374408,"is_reserved":false,"is_disabled":false,"rental_uris":{"android":"levelo://app?vid=c8a6209f-479b-43dd-925f-f29c8f7d3f97","ios":"levelo://app?vid=c8a6209f-479b-43dd-925f-f29c8f7d3f97"},"vehicle_type_id":"4","last_reported":1747134546,"current_range_meters":20400,"station_id":"ce4bhgp2rcd13ifvqfc0","pricing_plan_id":"cebpf4jnsgd1na2vs0mg"},{"bike_id":"1cfb6329-fef7-4465-b88c-4e73e76dd309","system_id":"levelo_inurba_marseille","lat":43.24081,"lon":5.37757,"is_reserved":false,"is_disabled":false,"rental_uris":{"android":"levelo://app?vid=1cfb6329-fef7-4465-b88c-4e73e76dd309","ios":"levelo://app?vid=1cfb6329-fef7-4465-b88c-4e73e76dd309"},"vehicle_type_id":"4","last_reported":1747134546,"current_range_meters":20400,"station_id":"ce4bhnp2rcd13ifvqgvg","pricing_plan_id":"cebpf4jnsgd1na2vs0mg"},{"bike_id":"d3ee0d64-5680-4380-93bd-954f0eacacee","system_id":"levelo_inurba_marseille","lat":43.29559,"lon":5.42275,"is_reserved":false,"is_disabled":false,"rental_uris":{"android":"levelo://app?vid=d3ee0d64-5680-4380-93bd-954f0eacacee","ios":"levelo://app?vid=d3ee0d64-5680-4380-93bd-954f0eacacee"},"vehicle_type_id":"4","last_reported":1747134546,"current_range_meters":20400,"station_id":"ce4bhph2rcd13ifvqhdg","pricing_plan_id":"cebpf4jnsgd1na2vs0mg"},{"bike_id":"87292699-755c-455d-a269-ad0042d94c7b","system_id":"levelo_inurba_marseille","lat":43.21179,"lon":5.35068,"is_reserved":false,"is_disabled":false,"rental_uris":{"android":"levelo://app?vid=87292699-755c-455d-a269-ad0042d94c7b","ios":"levelo://app?vid=87292699-755c-455d-a269-ad0042d94c7b"},"vehicle_type_id":"4","last_reported":1747134546,"current_range_meters":20400,"station_id":"st_cvj6sg6p6f1abm77japg","pricing_plan_id":"cebpf4jnsgd1na2vs0mg"},{"bike_id":"a56ef645-3dc7-4efd-b147-335b16e5d532","system_id":"levelo_inurba_marseille","lat":43.29001,"lon":5.3561,"is_reserved":false,"is_disabled":false,"rental_uris":{"android":"levelo://app?vid=a56ef645-3dc7-4efd-b147-335b16e5d532","ios":"levelo://app?vid=a56ef645-3dc7-4efd-b147-335b16e5d532"},"vehicle_type_id":"4","last_reported":1747134546,"current_range_meters":20800,"station_id":"ce4bhb92rcd13ifvqen0","pricing_plan_id":"cebpf4jnsgd1na2vs0mg"},{"bike_id":"d8b881b1-86a8-4ee1-b812-d03ccfa72d0f","system_id":"levelo_inurba_marseille","lat":43.26563,"lon":5.39012,"is_reserved":false,"is_disabled":false,"rental_uris":{"android":"levelo://app?vid=d8b881b1-86a8-4ee1-b812-d03ccfa72d0f","ios":"levelo://app?vid=d8b881b1-86a8-4ee1-b812-d03ccfa72d0f"},"vehicle_type_id":"4","last_reported":1747134546,"current_range_meters":20800,"station_id":"ce4bhe12rcd13ifvqf30","pricing_plan_id":"cebpf4jnsgd1na2vs0mg"},{"bike_id":"05669342-cb45-4c08-a397-74c64938fdba","system_id":"levelo_inurba_marseille","lat":43.2592,"lon":5.40871,"is_reserved":false,"is_disabled":false,"rental_uris":{"android":"levelo://app?vid=05669342-cb45-4c08-a397-74c64938fdba","ios":"levelo://app?vid=05669342-cb45-4c08-a397-74c64938fdba"},"vehicle_type_id":"4","last_reported":1747134546,"current_range_meters":20800,"station_id":"ce4bhm92rcd13ifvqglg","pricing_plan_id":"cebpf4jnsgd1na2vs0mg"},{"bike_id":"c5a6038e-e242-4c42-a6da-186787771b16","system_id":"levelo_inurba_marseille","lat":43.2177,"lon":5.34613,"is_reserved":false,"is_disabled":false,"rental_uris":{"android":"levelo://app?vid=c5a6038e-e242-4c42-a6da-186787771b16","ios":"levelo://app?vid=c5a6038e-e242-4c42-a6da-186787771b16"},"vehicle_type_id":"4","last_reported":1747134546,"current_range_meters":20800,"station_id":"st_cvj6r9ubvosntc0bgbag","pricing_plan_id":"cebpf4jnsgd1na2vs0mg"},{"bike_id":"08a93b84-f9e2-4480-b23a-2ee7a592645e","system_id":"levelo_inurba_marseille","lat":43.21751,"lon":5.34599,"is_reserved":false,"is_disabled":false,"rental_uris":{"android":"levelo://app?vid=08a93b84-f9e2-4480-b23a-2ee7a592645e","ios":"levelo://app?vid=08a93b84-f9e2-4480-b23a-2ee7a592645e"},"vehicle_type_id":"4","last_reported":1747134546,"current_range_meters":20800,"station_id":"st_cvj6r9ubvosntc0bgbag","pricing_plan_id":"cebpf4jnsgd1na2vs0mg"},{"bike_id":"32088bf1-357c-4937-b2f5-957d7ed4e076","system_id":"levelo_inurba_marseille","lat":43.23965,"lon":5.36626,"is_reserved":false,"is_disabled":false,"rental_uris":{"android":"levelo://app?vid=32088bf1-357c-4937-b2f5-957d7ed4e076","ios":"levelo://app?vid=32088bf1-357c-4937-b2f5-957d7ed4e076"},"vehicle_type_id":"4","last_reported":1747134546,"current_range_meters":21600,"station_id":"ce4bhi12rcd13ifvqfp0","pricing_plan_id":"cebpf4jnsgd1na2vs0mg"},{"bike_id":"10dba6b6-e5a3-4255-9e21-9554d3c3f8f4","system_id":"levelo_inurba_marseille","lat":43.30417,"lon":5.41276,"is_reserved":false,"is_disabled":false,"rental_uris":{"android":"levelo://app?vid=10dba6b6-e5a3-4255-9e21-9554d3c3f8f4","ios":"levelo://app?vid=10dba6b6-e5a3-4255-9e21-9554d3c3f8f4"},"vehicle_type_id":"4","last_reported":1747134546,"current_range_meters":21600,"station_id":"ce4bhop2rcd13ifvqh8g","pricing_plan_id":"cebpf4jnsgd1na2vs0mg"},{"bike_id":"3b27af8e-3de7-4902-811f-02064f444eb6","system_id":"levelo_inurba_marseille","lat":43.2826,"lon":5.35072,"is_reserved":false,"is_disabled":false,"rental_uris":{"android":"levelo://app?vid=3b27af8e-3de7-4902-811f-02064f444eb6","ios":"levelo://app?vid=3b27af8e-3de7-4902-811f-02064f444eb6"},"vehicle_type_id":"4","last_reported":1747134546,"current_range_meters":22000,"station_id":"ce4bgj92rcd13ifvqbe0","pricing_plan_id":"cebpf4jnsgd1na2vs0mg"},{"bike_id":"bfb0ba93-f4cc-4494-b5cc-6824644415cf","system_id":"levelo_inurba_marseille","lat":43.30918,"lon":5.36855,"is_reserved":false,"is_disabled":false,"rental_uris":{"android":"levelo://app?vid=bfb0ba93-f4cc-4494-b5cc-6824644415cf","ios":"levelo://app?vid=bfb0ba93-f4cc-4494-b5cc-6824644415cf"},"vehicle_type_id":"4","last_reported":1747134546,"current_range_meters":22000,"station_id":"ce4bgn92rcd13ifvqbvg","pricing_plan_id":"cebpf4jnsgd1na2vs0mg"},{"bike_id":"501da7c3-3347-4cea-95fa-4021f67d2797","system_id":"levelo_inurba_marseille","lat":43.29279,"lon":5.40115,"is_reserved":false,"is_disabled":false,"rental_uris":{"android":"levelo://app?vid=501da7c3-3347-4cea-95fa-4021f67d2797","ios":"levelo://app?vid=501da7c3-3347-4cea-95fa-4021f67d2797"},"vehicle_type_id":"4","last_reported":1747134546,"current_range_meters":22000,"station_id":"ce4bh312rcd13ifvqdk0","pricing_plan_id":"cebpf4jnsgd1na2vs0mg"},{"bike_id":"0ac333d8-a6e4-4162-860c-cc271b7b98f3","system_id":"levelo_inurba_marseille","lat":43.27829,"lon":5.40707,"is_reserved":false,"is_disabled":false,"rental_uris":{"android":"levelo://app?vid=0ac333d8-a6e4-4162-860c-cc271b7b98f3","ios":"levelo://app?vid=0ac333d8-a6e4-4162-860c-cc271b7b98f3"},"vehicle_type_id":"4","last_reported":1747134546,"current_range_meters":22000,"station_id":"ce4bhnh2rcd13ifvqgtg","pricing_plan_id":"cebpf4jnsgd1na2vs0mg"},{"bike_id":"4879d1fa-022d-4549-8fdc-833bf8bf53ad","system_id":"levelo_inurba_marseille","lat":43.315063,"lon":5.372977,"is_reserved":false,"is_disabled":false,"rental_uris":{"android":"levelo://app?vid=4879d1fa-022d-4549-8fdc-833bf8bf53ad","ios":"levelo://app?vid=4879d1fa-022d-4549-8fdc-833bf8bf53ad"},"vehicle_type_id":"4","last_reported":1747134546,"current_range_meters":22400,"station_id":"ce4bgt12rcd13ifvqcd0","pricing_plan_id":"cebpf4jnsgd1na2vs0mg"},{"bike_id":"678a6c81-c80f-470f-8d21-efad86f8afb0","system_id":"levelo_inurba_marseille","lat":43.28355,"lon":5.38098,"is_reserved":false,"is_disabled":false,"rental_uris":{"android":"levelo://app?vid=678a6c81-c80f-470f-8d21-efad86f8afb0","ios":"levelo://app?vid=678a6c81-c80f-470f-8d21-efad86f8afb0"},"vehicle_type_id":"4","last_reported":1747134546,"current_range_meters":22400,"station_id":"ce4bh412rcd13ifvqdr0","pricing_plan_id":"cebpf4jnsgd1na2vs0mg"},{"bike_id":"e8b1ea58-f77d-4842-acea-0132fe0ae404","system_id":"levelo_inurba_marseille","lat":43.28703,"lon":5.399806,"is_reserved":false,"is_disabled":false,"rental_uris":{"android":"levelo://app?vid=e8b1ea58-f77d-4842-acea-0132fe0ae404","ios":"levelo://app?vid=e8b1ea58-f77d-4842-acea-0132fe0ae404"},"vehicle_type_id":"4","last_reported":1747134546,"current_range_meters":22400,"station_id":"ce4bho92rcd13ifvqh3g","pricing_plan_id":"cebpf4jnsgd1na2vs0mg"},{"bike_id":"ac0112c9-313e-422c-910b-a3523b05b0c9","system_id":"levelo_inurba_marseille","lat":43.23054,"lon":5.35481,"is_reserved":false,"is_disabled":false,"rental_uris":{"android":"levelo://app?vid=ac0112c9-313e-422c-910b-a3523b05b0c9","ios":"levelo://app?vid=ac0112c9-313e-422c-910b-a3523b05b0c9"},"vehicle_type_id":"4","last_reported":1747134546,"current_range_meters":22400,"station_id":"cpo3342slgdg3j2ifvpg","pricing_plan_id":"cebpf4jnsgd1na2vs0mg"},{"bike_id":"5647a91f-31a6-41fb-82bb-83893a94fc73","system_id":"levelo_inurba_marseille","lat":43.21192,"lon":5.35074,"is_reserved":false,"is_disabled":false,"rental_uris":{"android":"levelo://app?vid=5647a91f-31a6-41fb-82bb-83893a94fc73","ios":"levelo://app?vid=5647a91f-31a6-41fb-82bb-83893a94fc73"},"vehicle_type_id":"4","last_reported":1747134546,"current_range_meters":22400,"station_id":"st_cvj6sg6p6f1abm77japg","pricing_plan_id":"cebpf4jnsgd1na2vs0mg"},{"bike_id":"ff8b4b47-e95f-4c1b-8c83-963fba5a9175","system_id":"levelo_inurba_marseille","lat":43.30545,"lon":5.38424,"is_reserved":false,"is_disabled":false,"rental_uris":{"android":"levelo://app?vid=ff8b4b47-e95f-4c1b-8c83-963fba5a9175","ios":"levelo://app?vid=ff8b4b47-e95f-4c1b-8c83-963fba5a9175"},"vehicle_type_id":"4","last_reported":1747134546,"current_range_meters":22800,"station_id":"ce4bgg92rcd13ifvqb30","pricing_plan_id":"cebpf4jnsgd1na2vs0mg"},{"bike_id":"1dbd6262-49b1-45dd-82e9-04c967c0b0d5","system_id":"levelo_inurba_marseille","lat":43.30145,"lon":5.37421,"is_reserved":false,"is_disabled":false,"rental_uris":{"android":"levelo://app?vid=1dbd6262-49b1-45dd-82e9-04c967c0b0d5","ios":"levelo://app?vid=1dbd6262-49b1-45dd-82e9-04c967c0b0d5"},"vehicle_type_id":"4","last_reported":1747134546,"current_range_meters":22800,"station_id":"ce4bgs92rcd13ifvqcc0","pricing_plan_id":"cebpf4jnsgd1na2vs0mg"},{"bike_id":"5efbd9a6-1eca-419d-8e88-e9a30f561a98","system_id":"levelo_inurba_marseille","lat":43.28419,"lon":5.34989,"is_reserved":false,"is_disabled":false,"rental_uris":{"android":"levelo://app?vid=5efbd9a6-1eca-419d-8e88-e9a30f561a98","ios":"levelo://app?vid=5efbd9a6-1eca-419d-8e88-e9a30f561a98"},"vehicle_type_id":"4","last_reported":1747134546,"current_range_meters":22800,"station_id":"ce4bhbh2rcd13ifvqepg","pricing_plan_id":"cebpf4jnsgd1na2vs0mg"},{"bike_id":"bcb840a7-c5ed-4834-9422-6b9f0dc3cc29","system_id":"levelo_inurba_marseille","lat":43.27921,"lon":5.39576,"is_reserved":false,"is_disabled":false,"rental_uris":{"android":"levelo://app?vid=bcb840a7-c5ed-4834-9422-6b9f0dc3cc29","ios":"levelo://app?vid=bcb840a7-c5ed-4834-9422-6b9f0dc3cc29"},"vehicle_type_id":"4","last_reported":1747134546,"current_range_meters":22800,"station_id":"ce4bhf92rcd13ifvqf40","pricing_plan_id":"cebpf4jnsgd1na2vs0mg"},{"bike_id":"40a1c000-90a0-4865-a7e7-3a2a723ed018","system_id":"levelo_inurba_marseille","lat":43.25925,"lon":5.40872,"is_reserved":false,"is_disabled":false,"rental_uris":{"android":"levelo://app?vid=40a1c000-90a0-4865-a7e7-3a2a723ed018","ios":"levelo://app?vid=40a1c000-90a0-4865-a7e7-3a2a723ed018"},"vehicle_type_id":"4","last_reported":1747134546,"current_range_meters":22800,"station_id":"ce4bhm92rcd13ifvqglg","pricing_plan_id":"cebpf4jnsgd1na2vs0mg"},{"bike_id":"9cae52d0-0480-493e-a389-4dcd91729f26","system_id":"levelo_inurba_marseille","lat":43.27498,"lon":5.4245,"is_reserved":false,"is_disabled":false,"rental_uris":{"android":"levelo://app?vid=9cae52d0-0480-493e-a389-4dcd91729f26","ios":"levelo://app?vid=9cae52d0-0480-493e-a389-4dcd91729f26"},"vehicle_type_id":"4","last_reported":1747134546,"current_range_meters":22800,"station_id":"ce4bhn92rcd13ifvqgrg","pricing_plan_id":"cebpf4jnsgd1na2vs0mg"},{"bike_id":"5f62a403-6eef-426f-af7a-97035eacb549","system_id":"levelo_inurba_marseille","lat":43.30535,"lon":5.36532,"is_reserved":false,"is_disabled":false,"rental_uris":{"android":"levelo://app?vid=5f62a403-6eef-426f-af7a-97035eacb549","ios":"levelo://app?vid=5f62a403-6eef-426f-af7a-97035eacb549"},"vehicle_type_id":"4","last_reported":1747134546,"current_range_meters":23200,"station_id":"ce4bgs12rcd13ifvqcag","pricing_plan_id":"cebpf4jnsgd1na2vs0mg"},{"bike_id":"84bf6f04-43bc-4a07-89fb-802b21a2dcf7","system_id":"levelo_inurba_marseille","lat":43.28852,"lon":5.39301,"is_reserved":false,"is_disabled":false,"rental_uris":{"android":"levelo://app?vid=84bf6f04-43bc-4a07-89fb-802b21a2dcf7","ios":"levelo://app?vid=84bf6f04-43bc-4a07-89fb-802b21a2dcf7"},"vehicle_type_id":"4","last_reported":1747134546,"current_range_meters":23200,"station_id":"ce4bh2p2rcd13ifvqdi0","pricing_plan_id":"cebpf4jnsgd1na2vs0mg"},{"bike_id":"7cb7e122-1806-4c96-a98e-f5bb7331a49e","system_id":"levelo_inurba_marseille","lat":43.34147,"lon":5.40901,"is_reserved":false,"is_disabled":false,"rental_uris":{"android":"levelo://app?vid=7cb7e122-1806-4c96-a98e-f5bb7331a49e","ios":"levelo://app?vid=7cb7e122-1806-4c96-a98e-f5bb7331a49e"},"vehicle_type_id":"4","last_reported":1747134546,"current_range_meters":23200,"station_id":"ce4bhqh2rcd13ifvqhlg","pricing_plan_id":"cebpf4jnsgd1na2vs0mg"},{"bike_id":"1311b7be-7448-4e46-8540-0cecbf3a9518","system_id":"levelo_inurba_marseille","lat":43.321116,"lon":5.367815,"is_reserved":false,"is_disabled":false,"rental_uris":{"android":"levelo://app?vid=1311b7be-7448-4e46-8540-0cecbf3a9518","ios":"levelo://app?vid=1311b7be-7448-4e46-8540-0cecbf3a9518"},"vehicle_type_id":"4","last_reported":1747134546,"current_range_meters":23200,"station_id":"ce4bhrh2rcd13ifvqhug","pricing_plan_id":"cebpf4jnsgd1na2vs0mg"},{"bike_id":"1c7f6792-cc6c-4358-878d-ab0737dd6dd9","system_id":"levelo_inurba_marseille","lat":43.29272,"lon":5.37619,"is_reserved":false,"is_disabled":false,"rental_uris":{"android":"levelo://app?vid=1c7f6792-cc6c-4358-878d-ab0737dd6dd9","ios":"levelo://app?vid=1c7f6792-cc6c-4358-878d-ab0737dd6dd9"},"vehicle_type_id":"4","last_reported":1747134546,"current_range_meters":24000,"station_id":"ce4bgi12rcd13ifvqb80","pricing_plan_id":"cebpf4jnsgd1na2vs0mg"},{"bike_id":"df18d418-d82f-411b-abcd-65fcd2c989ab","system_id":"levelo_inurba_marseille","lat":43.29963,"lon":5.38495,"is_reserved":false,"is_disabled":false,"rental_uris":{"android":"levelo://app?vid=df18d418-d82f-411b-abcd-65fcd2c989ab","ios":"levelo://app?vid=df18d418-d82f-411b-abcd-65fcd2c989ab"},"vehicle_type_id":"4","last_reported":1747134546,"current_range_meters":24000,"station_id":"ce4bgj92rcd13ifvqbd0","pricing_plan_id":"cebpf4jnsgd1na2vs0mg"},{"bike_id":"400ff0d5-da45-4c6b-8802-074b9d2621ff","system_id":"levelo_inurba_marseille","lat":43.30784,"lon":5.37651,"is_reserved":false,"is_disabled":false,"rental_uris":{"android":"levelo://app?vid=400ff0d5-da45-4c6b-8802-074b9d2621ff","ios":"levelo://app?vid=400ff0d5-da45-4c6b-8802-074b9d2621ff"},"vehicle_type_id":"4","last_reported":1747134546,"current_range_meters":24000,"station_id":"ce4bgv92rcd13ifvqcq0","pricing_plan_id":"cebpf4jnsgd1na2vs0mg"},{"bike_id":"e8cc8bd9-2629-4b19-b61e-5d8ba3341cdf","system_id":"levelo_inurba_marseille","lat":43.28288,"lon":5.3507,"is_reserved":false,"is_disabled":false,"rental_uris":{"android":"levelo://app?vid=e8cc8bd9-2629-4b19-b61e-5d8ba3341cdf","ios":"levelo://app?vid=e8cc8bd9-2629-4b19-b61e-5d8ba3341cdf"},"vehicle_type_id":"4","last_reported":1747134546,"current_range_meters":24000,"station_id":"ce4bhbp2rcd13ifvqerg","pricing_plan_id":"cebpf4jnsgd1na2vs0mg"},{"bike_id":"e9c4473d-4bf1-48d7-be7b-f01cb07478b3","system_id":"levelo_inurba_marseille","lat":43.25942,"lon":5.40892,"is_reserved":false,"is_disabled":false,"rental_uris":{"android":"levelo://app?vid=e9c4473d-4bf1-48d7-be7b-f01cb07478b3","ios":"levelo://app?vid=e9c4473d-4bf1-48d7-be7b-f01cb07478b3"},"vehicle_type_id":"4","last_reported":1747134546,"current_range_meters":24000,"station_id":"ce4bhm92rcd13ifvqglg","pricing_plan_id":"cebpf4jnsgd1na2vs0mg"},{"bike_id":"45f4457a-2c5a-44e5-aa87-39106030b236","system_id":"levelo_inurba_marseille","lat":43.25931,"lon":5.4091,"is_reserved":false,"is_disabled":false,"rental_uris":{"android":"levelo://app?vid=45f4457a-2c5a-44e5-aa87-39106030b236","ios":"levelo://app?vid=45f4457a-2c5a-44e5-aa87-39106030b236"},"vehicle_type_id":"4","last_reported":1747134546,"current_range_meters":24000,"station_id":"ce4bhm92rcd13ifvqglg","pricing_plan_id":"cebpf4jnsgd1na2vs0mg"},{"bike_id":"b044b041-fe46-44c4-9924-c2321867ee36","system_id":"levelo_inurba_marseille","lat":43.2314,"lon":5.43717,"is_reserved":false,"is_disabled":false,"rental_uris":{"android":"levelo://app?vid=b044b041-fe46-44c4-9924-c2321867ee36","ios":"levelo://app?vid=b044b041-fe46-44c4-9924-c2321867ee36"},"vehicle_type_id":"4","last_reported":1747134546,"current_range_meters":24000,"station_id":"ce4bhmp2rcd13ifvqgog","pricing_plan_id":"cebpf4jnsgd1na2vs0mg"},{"bike_id":"9670f60b-d981-469e-87fd-010a1d3c3a6e","system_id":"levelo_inurba_marseille","lat":43.32106,"lon":5.36789,"is_reserved":false,"is_disabled":false,"rental_uris":{"android":"levelo://app?vid=9670f60b-d981-469e-87fd-010a1d3c3a6e","ios":"levelo://app?vid=9670f60b-d981-469e-87fd-010a1d3c3a6e"},"vehicle_type_id":"4","last_reported":1747134546,"current_range_meters":24000,"station_id":"ce4bhrh2rcd13ifvqhug","pricing_plan_id":"cebpf4jnsgd1na2vs0mg"},{"bike_id":"b0a88558-462a-45f7-9fd1-dd814a9d32f3","system_id":"levelo_inurba_marseille","lat":43.21193,"lon":5.35064,"is_reserved":false,"is_disabled":false,"rental_uris":{"android":"levelo://app?vid=b0a88558-462a-45f7-9fd1-dd814a9d32f3","ios":"levelo://app?vid=b0a88558-462a-45f7-9fd1-dd814a9d32f3"},"vehicle_type_id":"4","last_reported":1747134546,"current_range_meters":24000,"station_id":"st_cvj6sg6p6f1abm77japg","pricing_plan_id":"cebpf4jnsgd1na2vs0mg"},{"bike_id":"c0ab3ee3-c124-4656-a0c7-379b3c9221fa","system_id":"levelo_inurba_marseille","lat":43.28354,"lon":5.38108,"is_reserved":false,"is_disabled":false,"rental_uris":{"android":"levelo://app?vid=c0ab3ee3-c124-4656-a0c7-379b3c9221fa","ios":"levelo://app?vid=c0ab3ee3-c124-4656-a0c7-379b3c9221fa"},"vehicle_type_id":"4","last_reported":1747134546,"current_range_meters":24400,"station_id":"ce4bh412rcd13ifvqdr0","pricing_plan_id":"cebpf4jnsgd1na2vs0mg"},{"bike_id":"946d6e78-143f-4c74-b30f-9fb2e983c8c5","system_id":"levelo_inurba_marseille","lat":43.28273,"lon":5.3507,"is_reserved":false,"is_disabled":false,"rental_uris":{"android":"levelo://app?vid=946d6e78-143f-4c74-b30f-9fb2e983c8c5","ios":"levelo://app?vid=946d6e78-143f-4c74-b30f-9fb2e983c8c5"},"vehicle_type_id":"4","last_reported":1747134546,"current_range_meters":24400,"station_id":"ce4bhbp2rcd13ifvqerg","pricing_plan_id":"cebpf4jnsgd1na2vs0mg"},{"bike_id":"bb0f4c78-b438-44d2-a0e5-e8aa1e48cf9e","system_id":"levelo_inurba_marseille","lat":43.25903,"lon":5.40866,"is_reserved":false,"is_disabled":false,"rental_uris":{"android":"levelo://app?vid=bb0f4c78-b438-44d2-a0e5-e8aa1e48cf9e","ios":"levelo://app?vid=bb0f4c78-b438-44d2-a0e5-e8aa1e48cf9e"},"vehicle_type_id":"4","last_reported":1747134546,"current_range_meters":24400,"station_id":"ce4bhm92rcd13ifvqglg","pricing_plan_id":"cebpf4jnsgd1na2vs0mg"},{"bike_id":"d01baeba-a625-4efe-badf-4ed12cbc25f8","system_id":"levelo_inurba_marseille","lat":43.24073,"lon":5.37757,"is_reserved":false,"is_disabled":false,"rental_uris":{"android":"levelo://app?vid=d01baeba-a625-4efe-badf-4ed12cbc25f8","ios":"levelo://app?vid=d01baeba-a625-4efe-badf-4ed12cbc25f8"},"vehicle_type_id":"4","last_reported":1747134546,"current_range_meters":24400,"station_id":"ce4bhnp2rcd13ifvqgvg","pricing_plan_id":"cebpf4jnsgd1na2vs0mg"},{"bike_id":"e20c0ab0-90ea-460e-bcc0-e5fa98547380","system_id":"levelo_inurba_marseille","lat":43.31704,"lon":5.43688,"is_reserved":false,"is_disabled":false,"rental_uris":{"android":"levelo://app?vid=e20c0ab0-90ea-460e-bcc0-e5fa98547380","ios":"levelo://app?vid=e20c0ab0-90ea-460e-bcc0-e5fa98547380"},"vehicle_type_id":"4","last_reported":1747134546,"current_range_meters":24400,"station_id":"ce4bhp92rcd13ifvqhcg","pricing_plan_id":"cebpf4jnsgd1na2vs0mg"},{"bike_id":"18556955-6e5e-44de-8de6-34b971734618","system_id":"levelo_inurba_marseille","lat":43.32115,"lon":5.36767,"is_reserved":false,"is_disabled":false,"rental_uris":{"android":"levelo://app?vid=18556955-6e5e-44de-8de6-34b971734618","ios":"levelo://app?vid=18556955-6e5e-44de-8de6-34b971734618"},"vehicle_type_id":"4","last_reported":1747134546,"current_range_meters":24400,"station_id":"ce4bhrh2rcd13ifvqhug","pricing_plan_id":"cebpf4jnsgd1na2vs0mg"},{"bike_id":"34a7b3da-2580-4774-a7e0-fd217b8c7c20","system_id":"levelo_inurba_marseille","lat":43.30436,"lon":5.38884,"is_reserved":false,"is_disabled":false,"rental_uris":{"android":"levelo://app?vid=34a7b3da-2580-4774-a7e0-fd217b8c7c20","ios":"levelo://app?vid=34a7b3da-2580-4774-a7e0-fd217b8c7c20"},"vehicle_type_id":"4","last_reported":1747134546,"current_range_meters":24800,"station_id":"ce4bgk12rcd13ifvqbi0","pricing_plan_id":"cebpf4jnsgd1na2vs0mg"},{"bike_id":"86432921-db0b-4b68-b2ff-d5291f38fc16","system_id":"levelo_inurba_marseille","lat":43.291,"lon":5.38114,"is_reserved":false,"is_disabled":false,"rental_uris":{"android":"levelo://app?vid=86432921-db0b-4b68-b2ff-d5291f38fc16","ios":"levelo://app?vid=86432921-db0b-4b68-b2ff-d5291f38fc16"},"vehicle_type_id":"4","last_reported":1747134546,"current_range_meters":24800,"station_id":"ce4bh512rcd13ifvqe2g","pricing_plan_id":"cebpf4jnsgd1na2vs0mg"},{"bike_id":"54b66dcb-e382-40e7-bc46-84c4749476b4","system_id":"levelo_inurba_marseille","lat":43.280938,"lon":5.378403,"is_reserved":false,"is_disabled":false,"rental_uris":{"android":"levelo://app?vid=54b66dcb-e382-40e7-bc46-84c4749476b4","ios":"levelo://app?vid=54b66dcb-e382-40e7-bc46-84c4749476b4"},"vehicle_type_id":"4","last_reported":1747134546,"current_range_meters":24800,"station_id":"ce4bha12rcd13ifvqee0","pricing_plan_id":"cebpf4jnsgd1na2vs0mg"},{"bike_id":"cb8d8c8a-d6bd-48fb-a463-d4878b5a6559","system_id":"levelo_inurba_marseille","lat":43.28416,"lon":5.34987,"is_reserved":false,"is_disabled":false,"rental_uris":{"android":"levelo://app?vid=cb8d8c8a-d6bd-48fb-a463-d4878b5a6559","ios":"levelo://app?vid=cb8d8c8a-d6bd-48fb-a463-d4878b5a6559"},"vehicle_type_id":"4","last_reported":1747134546,"current_range_meters":24800,"station_id":"ce4bhbh2rcd13ifvqepg","pricing_plan_id":"cebpf4jnsgd1na2vs0mg"},{"bike_id":"8367f86c-0ad5-49c6-bbcb-49ff12d8955d","system_id":"levelo_inurba_marseille","lat":43.268067,"lon":5.402379,"is_reserved":false,"is_disabled":false,"rental_uris":{"android":"levelo://app?vid=8367f86c-0ad5-49c6-bbcb-49ff12d8955d","ios":"levelo://app?vid=8367f86c-0ad5-49c6-bbcb-49ff12d8955d"},"vehicle_type_id":"4","last_reported":1747134546,"current_range_meters":24800,"station_id":"ce501612rcd8frsf0b60","pricing_plan_id":"cebpf4jnsgd1na2vs0mg"},{"bike_id":"64824209-6cba-4c12-875a-1502c403c27a","system_id":"levelo_inurba_marseille","lat":43.21188,"lon":5.35073,"is_reserved":false,"is_disabled":false,"rental_uris":{"android":"levelo://app?vid=64824209-6cba-4c12-875a-1502c403c27a","ios":"levelo://app?vid=64824209-6cba-4c12-875a-1502c403c27a"},"vehicle_type_id":"4","last_reported":1747134546,"current_range_meters":24800,"station_id":"st_cvj6sg6p6f1abm77japg","pricing_plan_id":"cebpf4jnsgd1na2vs0mg"},{"bike_id":"86180e9f-b787-47d7-9006-7eb68c32f72f","system_id":"levelo_inurba_marseille","lat":43.29009,"lon":5.35602,"is_reserved":false,"is_disabled":false,"rental_uris":{"android":"levelo://app?vid=86180e9f-b787-47d7-9006-7eb68c32f72f","ios":"levelo://app?vid=86180e9f-b787-47d7-9006-7eb68c32f72f"},"vehicle_type_id":"4","last_reported":1747134546,"current_range_meters":25200,"station_id":"ce4bhb92rcd13ifvqen0","pricing_plan_id":"cebpf4jnsgd1na2vs0mg"},{"bike_id":"81e87afe-3f97-4744-93ea-a3d464f2b22e","system_id":"levelo_inurba_marseille","lat":43.26223,"lon":5.40468,"is_reserved":false,"is_disabled":false,"rental_uris":{"android":"levelo://app?vid=81e87afe-3f97-4744-93ea-a3d464f2b22e","ios":"levelo://app?vid=81e87afe-3f97-4744-93ea-a3d464f2b22e"},"vehicle_type_id":"4","last_reported":1747134546,"current_range_meters":25200,"station_id":"ce4bhmh2rcd13ifvqgmg","pricing_plan_id":"cebpf4jnsgd1na2vs0mg"},{"bike_id":"6ef3af40-1e58-4536-9ca7-f8f876e874f7","system_id":"levelo_inurba_marseille","lat":43.27945,"lon":5.41036,"is_reserved":false,"is_disabled":false,"rental_uris":{"android":"levelo://app?vid=6ef3af40-1e58-4536-9ca7-f8f876e874f7","ios":"levelo://app?vid=6ef3af40-1e58-4536-9ca7-f8f876e874f7"},"vehicle_type_id":"4","last_reported":1747134546,"current_range_meters":25200,"station_id":"ce4bhnp2rcd13ifvqh0g","pricing_plan_id":"cebpf4jnsgd1na2vs0mg"},{"bike_id":"ed298237-c3c5-4dac-88d4-874c5606cb0e","system_id":"levelo_inurba_marseille","lat":43.33023,"lon":5.39043,"is_reserved":false,"is_disabled":false,"rental_uris":{"android":"levelo://app?vid=ed298237-c3c5-4dac-88d4-874c5606cb0e","ios":"levelo://app?vid=ed298237-c3c5-4dac-88d4-874c5606cb0e"},"vehicle_type_id":"4","last_reported":1747134546,"current_range_meters":25200,"station_id":"ce4bhr92rcd13ifvqhrg","pricing_plan_id":"cebpf4jnsgd1na2vs0mg"},{"bike_id":"5600de7b-30a9-45c0-8ae7-438dbd3299c8","system_id":"levelo_inurba_marseille","lat":43.288025,"lon":5.395376,"is_reserved":false,"is_disabled":false,"rental_uris":{"android":"levelo://app?vid=5600de7b-30a9-45c0-8ae7-438dbd3299c8","ios":"levelo://app?vid=5600de7b-30a9-45c0-8ae7-438dbd3299c8"},"vehicle_type_id":"4","last_reported":1747134546,"current_range_meters":25600,"station_id":"","pricing_plan_id":"cebpf4jnsgd1na2vs0mg"},{"bike_id":"f179c1a5-1860-4bc6-bfd5-c9e16ef460c8","system_id":"levelo_inurba_marseille","lat":43.29786,"lon":5.3713,"is_reserved":false,"is_disabled":false,"rental_uris":{"android":"levelo://app?vid=f179c1a5-1860-4bc6-bfd5-c9e16ef460c8","ios":"levelo://app?vid=f179c1a5-1860-4bc6-bfd5-c9e16ef460c8"},"vehicle_type_id":"4","last_reported":1747134546,"current_range_meters":25600,"station_id":"ce4bgop2rcd13ifvqc1g","pricing_plan_id":"cebpf4jnsgd1na2vs0mg"},{"bike_id":"ceabdb2d-8c61-4510-aa0d-77bc0edd607e","system_id":"levelo_inurba_marseille","lat":43.28346,"lon":5.38101,"is_reserved":false,"is_disabled":false,"rental_uris":{"android":"levelo://app?vid=ceabdb2d-8c61-4510-aa0d-77bc0edd607e","ios":"levelo://app?vid=ceabdb2d-8c61-4510-aa0d-77bc0edd607e"},"vehicle_type_id":"4","last_reported":1747134546,"current_range_meters":25600,"station_id":"ce4bh412rcd13ifvqdr0","pricing_plan_id":"cebpf4jnsgd1na2vs0mg"},{"bike_id":"98c5af63-f544-4114-988c-5d89a5f7c046","system_id":"levelo_inurba_marseille","lat":43.28108,"lon":5.378415,"is_reserved":false,"is_disabled":false,"rental_uris":{"android":"levelo://app?vid=98c5af63-f544-4114-988c-5d89a5f7c046","ios":"levelo://app?vid=98c5af63-f544-4114-988c-5d89a5f7c046"},"vehicle_type_id":"4","last_reported":1747134546,"current_range_meters":25600,"station_id":"ce4bha12rcd13ifvqee0","pricing_plan_id":"cebpf4jnsgd1na2vs0mg"},{"bike_id":"55ed8d2a-e7f4-45cf-a46c-09722ea50b44","system_id":"levelo_inurba_marseille","lat":43.2842,"lon":5.34979,"is_reserved":false,"is_disabled":false,"rental_uris":{"android":"levelo://app?vid=55ed8d2a-e7f4-45cf-a46c-09722ea50b44","ios":"levelo://app?vid=55ed8d2a-e7f4-45cf-a46c-09722ea50b44"},"vehicle_type_id":"4","last_reported":1747134546,"current_range_meters":25600,"station_id":"ce4bhbh2rcd13ifvqepg","pricing_plan_id":"cebpf4jnsgd1na2vs0mg"},{"bike_id":"843545a0-615b-4e55-871b-02ac30ca746d","system_id":"levelo_inurba_marseille","lat":43.25824,"lon":5.39428,"is_reserved":false,"is_disabled":false,"rental_uris":{"android":"levelo://app?vid=843545a0-615b-4e55-871b-02ac30ca746d","ios":"levelo://app?vid=843545a0-615b-4e55-871b-02ac30ca746d"},"vehicle_type_id":"4","last_reported":1747134546,"current_range_meters":25600,"station_id":"ce4bhip2rcd13ifvqft0","pricing_plan_id":"cebpf4jnsgd1na2vs0mg"},{"bike_id":"4b440e6e-4dc6-4085-8b1f-bb3d460c75eb","system_id":"levelo_inurba_marseille","lat":43.29681,"lon":5.37823,"is_reserved":false,"is_disabled":false,"rental_uris":{"android":"levelo://app?vid=4b440e6e-4dc6-4085-8b1f-bb3d460c75eb","ios":"levelo://app?vid=4b440e6e-4dc6-4085-8b1f-bb3d460c75eb"},"vehicle_type_id":"4","last_reported":1747134546,"current_range_meters":26000,"station_id":"","pricing_plan_id":"cebpf4jnsgd1na2vs0mg"},{"bike_id":"7faa35ef-6ab8-4d26-915d-6e0fff891add","system_id":"levelo_inurba_marseille","lat":43.290009,"lon":5.35613,"is_reserved":false,"is_disabled":false,"rental_uris":{"android":"levelo://app?vid=7faa35ef-6ab8-4d26-915d-6e0fff891add","ios":"levelo://app?vid=7faa35ef-6ab8-4d26-915d-6e0fff891add"},"vehicle_type_id":"4","last_reported":1747134546,"current_range_meters":26000,"station_id":"ce4bhb92rcd13ifvqen0","pricing_plan_id":"cebpf4jnsgd1na2vs0mg"},{"bike_id":"16b2c92c-3e72-4e79-95b4-f14a45728c7b","system_id":"levelo_inurba_marseille","lat":43.26784,"lon":5.39414,"is_reserved":false,"is_disabled":false,"rental_uris":{"android":"levelo://app?vid=16b2c92c-3e72-4e79-95b4-f14a45728c7b","ios":"levelo://app?vid=16b2c92c-3e72-4e79-95b4-f14a45728c7b"},"vehicle_type_id":"4","last_reported":1747134546,"current_range_meters":26000,"station_id":"ce4bhh12rcd13ifvqfg0","pricing_plan_id":"cebpf4jnsgd1na2vs0mg"},{"bike_id":"054c56c1-58f6-49c9-a344-ee4b6d14321c","system_id":"levelo_inurba_marseille","lat":43.27674,"lon":5.38874,"is_reserved":false,"is_disabled":false,"rental_uris":{"android":"levelo://app?vid=054c56c1-58f6-49c9-a344-ee4b6d14321c","ios":"levelo://app?vid=054c56c1-58f6-49c9-a344-ee4b6d14321c"},"vehicle_type_id":"4","last_reported":1747134546,"current_range_meters":26000,"station_id":"ce4bhi12rcd13ifvqfo0","pricing_plan_id":"cebpf4jnsgd1na2vs0mg"},{"bike_id":"29476b30-3c1f-4b99-afbc-204d65cc6c6e","system_id":"levelo_inurba_marseille","lat":43.27619,"lon":5.36118,"is_reserved":false,"is_disabled":false,"rental_uris":{"android":"levelo://app?vid=29476b30-3c1f-4b99-afbc-204d65cc6c6e","ios":"levelo://app?vid=29476b30-3c1f-4b99-afbc-204d65cc6c6e"},"vehicle_type_id":"4","last_reported":1747134546,"current_range_meters":26800,"station_id":"ce4bgj92rcd13ifvqbe0","pricing_plan_id":"cebpf4jnsgd1na2vs0mg"},{"bike_id":"3ed7b136-7e44-4e26-9e34-6d57d42640a6","system_id":"levelo_inurba_marseille","lat":43.32363,"lon":5.3676,"is_reserved":false,"is_disabled":false,"rental_uris":{"android":"levelo://app?vid=3ed7b136-7e44-4e26-9e34-6d57d42640a6","ios":"levelo://app?vid=3ed7b136-7e44-4e26-9e34-6d57d42640a6"},"vehicle_type_id":"4","last_reported":1747134546,"current_range_meters":26800,"station_id":"ce4bhsh2rcd13ifvqi2g","pricing_plan_id":"cebpf4jnsgd1na2vs0mg"},{"bike_id":"1328aae0-6149-4ee8-8fbb-33f1b947a423","system_id":"levelo_inurba_marseille","lat":43.30635,"lon":5.40096,"is_reserved":false,"is_disabled":false,"rental_uris":{"android":"levelo://app?vid=1328aae0-6149-4ee8-8fbb-33f1b947a423","ios":"levelo://app?vid=1328aae0-6149-4ee8-8fbb-33f1b947a423"},"vehicle_type_id":"4","last_reported":1747134546,"current_range_meters":27200,"station_id":"ce4bh112rcd13ifvqda0","pricing_plan_id":"cebpf4jnsgd1na2vs0mg"},{"bike_id":"6e6b015c-1eef-4bfa-9709-fe98e5a40321","system_id":"levelo_inurba_marseille","lat":43.24173,"lon":5.3973,"is_reserved":false,"is_disabled":false,"rental_uris":{"android":"levelo://app?vid=6e6b015c-1eef-4bfa-9709-fe98e5a40321","ios":"levelo://app?vid=6e6b015c-1eef-4bfa-9709-fe98e5a40321"},"vehicle_type_id":"4","last_reported":1747134546,"current_range_meters":27200,"station_id":"ce4bhn12rcd13ifvqgpg","pricing_plan_id":"cebpf4jnsgd1na2vs0mg"},{"bike_id":"687f6a20-1fab-4108-9b12-0b5b57803e13","system_id":"levelo_inurba_marseille","lat":43.29856,"lon":5.3628,"is_reserved":false,"is_disabled":false,"rental_uris":{"android":"levelo://app?vid=687f6a20-1fab-4108-9b12-0b5b57803e13","ios":"levelo://app?vid=687f6a20-1fab-4108-9b12-0b5b57803e13"},"vehicle_type_id":"4","last_reported":1747134546,"current_range_meters":27600,"station_id":"ce4bgpp2rcd13ifvqc3g","pricing_plan_id":"cebpf4jnsgd1na2vs0mg"},{"bike_id":"dc051239-9350-492a-955d-912ba499f17d","system_id":"levelo_inurba_marseille","lat":43.31169,"lon":5.38711,"is_reserved":false,"is_disabled":false,"rental_uris":{"android":"levelo://app?vid=dc051239-9350-492a-955d-912ba499f17d","ios":"levelo://app?vid=dc051239-9350-492a-955d-912ba499f17d"},"vehicle_type_id":"4","last_reported":1747134546,"current_range_meters":27600,"station_id":"ce4bgv12rcd13ifvqcp0","pricing_plan_id":"cebpf4jnsgd1na2vs0mg"},{"bike_id":"809cc19a-7680-4baf-b993-2cb483c34b18","system_id":"levelo_inurba_marseille","lat":43.30581,"lon":5.39379,"is_reserved":false,"is_disabled":false,"rental_uris":{"android":"levelo://app?vid=809cc19a-7680-4baf-b993-2cb483c34b18","ios":"levelo://app?vid=809cc19a-7680-4baf-b993-2cb483c34b18"},"vehicle_type_id":"4","last_reported":1747134546,"current_range_meters":27600,"station_id":"ce4bh0p2rcd13ifvqd80","pricing_plan_id":"cebpf4jnsgd1na2vs0mg"},{"bike_id":"0bbacd7e-8893-49c9-aebc-938a3abdb2c7","system_id":"levelo_inurba_marseille","lat":43.2835,"lon":5.38099,"is_reserved":false,"is_disabled":false,"rental_uris":{"android":"levelo://app?vid=0bbacd7e-8893-49c9-aebc-938a3abdb2c7","ios":"levelo://app?vid=0bbacd7e-8893-49c9-aebc-938a3abdb2c7"},"vehicle_type_id":"4","last_reported":1747134546,"current_range_meters":27600,"station_id":"ce4bh412rcd13ifvqdr0","pricing_plan_id":"cebpf4jnsgd1na2vs0mg"},{"bike_id":"81be0e7c-9d83-42a6-aea6-9fe2aae0a111","system_id":"levelo_inurba_marseille","lat":43.28422,"lon":5.34983,"is_reserved":false,"is_disabled":false,"rental_uris":{"android":"levelo://app?vid=81be0e7c-9d83-42a6-aea6-9fe2aae0a111","ios":"levelo://app?vid=81be0e7c-9d83-42a6-aea6-9fe2aae0a111"},"vehicle_type_id":"4","last_reported":1747134546,"current_range_meters":27600,"station_id":"ce4bhbh2rcd13ifvqepg","pricing_plan_id":"cebpf4jnsgd1na2vs0mg"},{"bike_id":"f24b03ce-6187-4346-b063-26600f0699b7","system_id":"levelo_inurba_marseille","lat":43.27059,"lon":5.40258,"is_reserved":false,"is_disabled":false,"rental_uris":{"android":"levelo://app?vid=f24b03ce-6187-4346-b063-26600f0699b7","ios":"levelo://app?vid=f24b03ce-6187-4346-b063-26600f0699b7"},"vehicle_type_id":"4","last_reported":1747134546,"current_range_meters":27600,"station_id":"ce4bhk92rcd13ifvqgc0","pricing_plan_id":"cebpf4jnsgd1na2vs0mg"},{"bike_id":"3648d500-b24b-455e-83ac-6ee31517ced8","system_id":"levelo_inurba_marseille","lat":43.25944,"lon":5.40897,"is_reserved":false,"is_disabled":false,"rental_uris":{"android":"levelo://app?vid=3648d500-b24b-455e-83ac-6ee31517ced8","ios":"levelo://app?vid=3648d500-b24b-455e-83ac-6ee31517ced8"},"vehicle_type_id":"4","last_reported":1747134546,"current_range_meters":27600,"station_id":"ce4bhm92rcd13ifvqglg","pricing_plan_id":"cebpf4jnsgd1na2vs0mg"},{"bike_id":"ab1b441b-a382-4f6e-a277-95b820eeb5a5","system_id":"levelo_inurba_marseille","lat":43.32475,"lon":5.36553,"is_reserved":false,"is_disabled":false,"rental_uris":{"android":"levelo://app?vid=ab1b441b-a382-4f6e-a277-95b820eeb5a5","ios":"levelo://app?vid=ab1b441b-a382-4f6e-a277-95b820eeb5a5"},"vehicle_type_id":"4","last_reported":1747134546,"current_range_meters":27600,"station_id":"ce4bhs12rcd13ifvqhvg","pricing_plan_id":"cebpf4jnsgd1na2vs0mg"},{"bike_id":"dcbe19a8-287e-4c52-a392-8432af45bcd3","system_id":"levelo_inurba_marseille","lat":43.32347,"lon":5.36743,"is_reserved":false,"is_disabled":false,"rental_uris":{"android":"levelo://app?vid=dcbe19a8-287e-4c52-a392-8432af45bcd3","ios":"levelo://app?vid=dcbe19a8-287e-4c52-a392-8432af45bcd3"},"vehicle_type_id":"4","last_reported":1747134546,"current_range_meters":27600,"station_id":"ce4bhsh2rcd13ifvqi2g","pricing_plan_id":"cebpf4jnsgd1na2vs0mg"},{"bike_id":"7cb272c0-54b3-4b4f-b695-69fd48307e60","system_id":"levelo_inurba_marseille","lat":43.32344,"lon":5.3672,"is_reserved":false,"is_disabled":false,"rental_uris":{"android":"levelo://app?vid=7cb272c0-54b3-4b4f-b695-69fd48307e60","ios":"levelo://app?vid=7cb272c0-54b3-4b4f-b695-69fd48307e60"},"vehicle_type_id":"4","last_reported":1747134546,"current_range_meters":27600,"station_id":"ce4bhsh2rcd13ifvqi2g","pricing_plan_id":"cebpf4jnsgd1na2vs0mg"},{"bike_id":"c351ad74-cfad-4524-b23a-5f995cfa52ab","system_id":"levelo_inurba_marseille","lat":43.22505,"lon":5.34777,"is_reserved":false,"is_disabled":false,"rental_uris":{"android":"levelo://app?vid=c351ad74-cfad-4524-b23a-5f995cfa52ab","ios":"levelo://app?vid=c351ad74-cfad-4524-b23a-5f995cfa52ab"},"vehicle_type_id":"4","last_reported":1747134546,"current_range_meters":27600,"station_id":"st_cvj5dfep6f1abm77gieg","pricing_plan_id":"cebpf4jnsgd1na2vs0mg"},