{"last_updated":1745017749,"ttl":60,"version":"2.2","data":{"bikes":[{"bike_id":"b3b82863-a2fc-41d2-bccd-5becece4b492","system_id":"levelo_inurba_marseille","lat":43.315246,"lon":5.373001,"is_reserved":false,"is_disabled":false,"rental_uris":{"android":"levelo://app?vid=b3b82863-a2fc-41d2-bccd-5becece4b492","ios":"levelo://app?vid=b3b82863-a2fc-41d2-bccd-5becece4b492"},"vehicle_type_id":"4","last_reported":1745017749,"current_range_meters":2800,"station_id":"ce4bgt12rcd13ifvqcd0","pricing_plan_id":"cebpf4jnsgd1na2vs0mg"},{"bike_id":"4606fad8-9a19-4936-a1fb-80547e64d6c9","system_id":"levelo_inurba_marseille","lat":43.33598,"lon":5.41029,"is_reserved":false,"is_disabled":false,"rental_uris":{"android":"levelo://app?vid=4606fad8-9a19-4936-a1fb-80547e64d6c9","ios":"levelo://app?vid=4606fad8-9a19-4936-a1fb-80547e64d6c9"},"vehicle_type_id":"4","last_reported":1745017749,"current_range_meters":2800,"station_id":"ce4bhqh2rcd13ifvqhmg","pricing_plan_id":"cebpf4jnsgd1na2vs0mg"},{"bike_id":"a95010ce-72cb-4551-a41b-aa09e39641d8","system_id":"levelo_inurba_marseille","lat":43.27815,"lon":5.40695,"is_reserved":false,"is_disabled":false,"rental_uris":{"android":"levelo://app?vid=a95010ce-72cb-4551-a41b-aa09e39641d8","ios":"levelo://app?vid=a95010ce-72cb-4551-a41b-aa09e39641d8"},"vehicle_type_id":"4","last_reported":1745017749,"current_range_meters":2800,"station_id":"ce4bhnh2rcd13ifvqgtg","pricing_plan_id":"cebpf4jnsgd1na2vs0mg"},{"bike_id":"0cd7448c-170a-48be-bc79-f10bcaf69806","system_id":"levelo_inurba_marseille","lat":43.2305,"lon":5.35487,"is_reserved":false,"is_disabled":true,"rental_uris":{"android":"levelo://app?vid=0cd7448c-170a-48be-bc79-f10bcaf69806","ios":"levelo://app?vid=0cd7448c-170a-48be-bc79-f10bcaf69806"},"vehicle_type_id":"4","last_reported":1745017749,"current_range_meters":3200,"station_id":"cpo3342slgdg3j2ifvpg","pricing_plan_id":"cebpf4jnsgd1na2vs0mg"},{"bike_id":"5a332681-e479-4aef-8c79-e5ffefc9a099","system_id":"levelo_inurba_marseille","lat":43.30379,"lon":5.42493,"is_reserved":false,"is_disabled":true,"rental_uris":{"android":"levelo://app?vid=5a332681-e479-4aef-8c79-e5ffefc9a099","ios":"levelo://app?vid=5a332681-e479-4aef-8c79-e5ffefc9a099"},"vehicle_type_id":"4","last_reported":1745017749,"current_range_meters":3200,"station_id":"ce4bhoh2rcd13ifvqh6g","pricing_plan_id":"cebpf4jnsgd1na2vs0mg"},{"bike_id":"b5f0ce00-c8e0-40eb-a371-56de35a8d989","system_id":"levelo_inurba_marseille","lat":43.31702,"lon":5.40466,"is_reserved":false,"is_disabled":false,"rental_uris":{"android":"levelo://app?vid=b5f0ce00-c8e0-40eb-a371-56de35a8d989","ios":"levelo://app?vid=b5f0ce00-c8e0-40eb-a371-56de35a8d989"},"vehicle_type_id":"4","last_reported":1745017749,"current_range_meters":3200,"station_id":"ce4bh012rcd13ifvqd00","pricing_plan_id":"cebpf4jnsgd1na2vs0mg"},{"bike_id":"0bf759ac-1ef0-4cd1-9bd0-3a765382832f","system_id":"levelo_inurba_marseille","lat":43.23154,"lon":5.43718,"is_reserved":false,"is_disabled":false,"rental_uris":{"android":"levelo://app?vid=0bf759ac-1ef0-4cd1-9bd0-3a765382832f","ios":"levelo://app?vid=0bf759ac-1ef0-4cd1-9bd0-3a765382832f"},"vehicle_type_id":"4","last_reported":1745017749,"current_range_meters":3600,"station_id":"ce4bhmp2rcd13ifvqgog","pricing_plan_id":"cebpf4jnsgd1na2vs0mg"},{"bike_id":"f1cbbe04-06ab-4dfa-920a-76ee86f33839","system_id":"levelo_inurba_marseille","lat":43.26808,"lon":5.40269,"is_reserved":false,"is_disabled":false,"rental_uris":{"android":"levelo://app?vid=f1cbbe04-06ab-4dfa-920a-76ee86f33839","ios":"levelo://app?vid=f1cbbe04-06ab-4dfa-920a-76ee86f33839"},"vehicle_type_id":"4","last_reported":1745017749,"current_range_meters":3600,"station_id":"ce501612rcd8frsf0b60","pricing_plan_id":"cebpf4jnsgd1na2vs0mg"},{"bike_id":"eabf696b-f9f3-4720-8a30-d72f02495516","system_id":"levelo_inurba_marseille","lat":43.27382,"lon":5.36254,"is_reserved":false,"is_disabled":false,"rental_uris":{"android":"levelo://app?vid=eabf696b-f9f3-4720-8a30-d72f02495516","ios":"levelo://app?vid=eabf696b-f9f3-4720-8a30-d72f02495516"},"vehicle_type_id":"4","last_reported":1745017749,"current_range_meters":3600,"station_id":"ce4bhbh2rcd13ifvqeo0","pricing_plan_id":"cebpf4jnsgd1na2vs0mg"},{"bike_id":"2a297b53-e6c9-4a44-8832-a1535085da75","system_id":"levelo_inurba_marseille","lat":43.319967,"lon":5.381451,"is_reserved":false,"is_disabled":true,"rental_uris":{"android":"levelo://app?vid=2a297b53-e6c9-4a44-8832-a1535085da75","ios":"levelo://app?vid=2a297b53-e6c9-4a44-8832-a1535085da75"},"vehicle_type_id":"4","last_reported":1745017749,"current_range_meters":4000,"station_id":"ce4bhr12rcd13ifvqhpg","pricing_plan_id":"cebpf4jnsgd1na2vs0mg"},{"bike_id":"2df22311-bac1-4b8f-abff-11893969de63","system_id":"levelo_inurba_marseille","lat":43.31081,"lon":5.37811,"is_reserved":false,"is_disabled":true,"rental_uris":{"android":"levelo://app?vid=2df22311-bac1-4b8f-abff-11893969de63","ios":"levelo://app?vid=2df22311-bac1-4b8f-abff-11893969de63"},"vehicle_type_id":"4","last_reported":1745017749,"current_range_meters":4000,"station_id":"","pricing_plan_id":"cebpf4jnsgd1na2vs0mg"},{"bike_id":"683727aa-af5c-4a30-b620-923da0da034b","system_id":"levelo_inurba_marseille","lat":43.268461,"lon":5.40456,"is_reserved":false,"is_disabled":false,"rental_uris":{"android":"levelo://app?vid=683727aa-af5c-4a30-b620-923da0da034b","ios":"levelo://app?vid=683727aa-af5c-4a30-b620-923da0da034b"},"vehicle_type_id":"4","last_reported":1745017749,"current_range_meters":4000,"station_id":"cjm6bp8fraef2m0cb0m0","pricing_plan_id":"cebpf4jnsgd1na2vs0mg"},{"bike_id":"9d675eae-8136-4420-99f0-30478d137cb8","system_id":"levelo_inurba_marseille","lat":43.27205,"lon":5.39189,"is_reserved":false,"is_disabled":false,"rental_uris":{"android":"levelo://app?vid=9d675eae-8136-4420-99f0-30478d137cb8","ios":"levelo://app?vid=9d675eae-8136-4420-99f0-30478d137cb8"},"vehicle_type_id":"4","last_reported":1745017749,"current_range_meters":4400,"station_id":"ce4bhhp2rcd13ifvqfm0","pricing_plan_id":"cebpf4jnsgd1na2vs0mg"},{"bike_id":"b710fbb1-b765-492e-8cff-58a86822a607","system_id":"levelo_inurba_marseille","lat":43.23189,"lon":5.35571,"is_reserved":false,"is_disabled":true,"rental_uris":{"android":"levelo://app?vid=b710fbb1-b765-492e-8cff-58a86822a607","ios":"levelo://app?vid=b710fbb1-b765-492e-8cff-58a86822a607"},"vehicle_type_id":"4","last_reported":1745017749,"current_range_meters":4400,"station_id":"ce4bhu92rcd13ifvqi70","pricing_plan_id":"cebpf4jnsgd1na2vs0mg"},{"bike_id":"cd82bfe1-a0ed-4cd0-b6ff-6d2046533e87","system_id":"levelo_inurba_marseille","lat":43.29588,"lon":5.40725,"is_reserved":false,"is_disabled":false,"rental_uris":{"android":"levelo://app?vid=cd82bfe1-a0ed-4cd0-b6ff-6d2046533e87","ios":"levelo://app?vid=cd82bfe1-a0ed-4cd0-b6ff-6d2046533e87"},"vehicle_type_id":"4","last_reported":1745017749,"current_range_meters":4400,"station_id":"","pricing_plan_id":"cebpf4jnsgd1na2vs0mg"},{"bike_id":"83c03145-72a8-411a-8d95-e95f770fe07c","system_id":"levelo_inurba_marseille","lat":43.33028,"lon":5.39061,"is_reserved":false,"is_disabled":true,"rental_uris":{"android":"levelo://app?vid=83c03145-72a8-411a-8d95-e95f770fe07c","ios":"levelo://app?vid=83c03145-72a8-411a-8d95-e95f770fe07c"},"vehicle_type_id":"4","last_reported":1745017749,"current_range_meters":4800,"station_id":"ce4bhr92rcd13ifvqhrg","pricing_plan_id":"cebpf4jnsgd1na2vs0mg"},{"bike_id":"7b2b2cef-c022-4d24-b49c-8c1952b4364c","system_id":"levelo_inurba_marseille","lat":43.23215,"lon":5.35555,"is_reserved":false,"is_disabled":false,"rental_uris":{"android":"levelo://app?vid=7b2b2cef-c022-4d24-b49c-8c1952b4364c","ios":"levelo://app?vid=7b2b2cef-c022-4d24-b49c-8c1952b4364c"},"vehicle_type_id":"4","last_reported":1745017749,"current_range_meters":4800,"station_id":"ce4bhu92rcd13ifvqi70","pricing_plan_id":"cebpf4jnsgd1na2vs0mg"},{"bike_id":"5741aebf-1467-4f18-b08a-e660f9dd364f","system_id":"levelo_inurba_marseille","lat":43.30135,"lon":5.39879,"is_reserved":false,"is_disabled":false,"rental_uris":{"android":"levelo://app?vid=5741aebf-1467-4f18-b08a-e660f9dd364f","ios":"levelo://app?vid=5741aebf-1467-4f18-b08a-e660f9dd364f"},"vehicle_type_id":"4","last_reported":1745017749,"current_range_meters":5600,"station_id":"ce4bh0h2rcd13ifvqd40","pricing_plan_id":"cebpf4jnsgd1na2vs0mg"},{"bike_id":"0a7e67ab-dba8-4d0e-96b5-be2b71371003","system_id":"levelo_inurba_marseille","lat":43.290269,"lon":5.386537,"is_reserved":false,"is_disabled":false,"rental_uris":{"android":"levelo://app?vid=0a7e67ab-dba8-4d0e-96b5-be2b71371003","ios":"levelo://app?vid=0a7e67ab-dba8-4d0e-96b5-be2b71371003"},"vehicle_type_id":"4","last_reported":1745017749,"current_range_meters":5600,"station_id":"ce4bh4p2rcd13ifvqe0g","pricing_plan_id":"cebpf4jnsgd1na2vs0mg"},{"bike_id":"5e965669-8d73-4643-8a87-9818a81ab71a","system_id":"levelo_inurba_marseille","lat":43.29554,"lon":5.42292,"is_reserved":false,"is_disabled":false,"rental_uris":{"android":"levelo://app?vid=5e965669-8d73-4643-8a87-9818a81ab71a","ios":"levelo://app?vid=5e965669-8d73-4643-8a87-9818a81ab71a"},"vehicle_type_id":"4","last_reported":1745017749,"current_range_meters":6000,"station_id":"ce4bhph2rcd13ifvqhdg","pricing_plan_id":"cebpf4jnsgd1na2vs0mg"},{"bike_id":"0d20a18b-d53d-42e2-967a-ac08792c9f4f","system_id":"levelo_inurba_marseille","lat":43.31069,"lon":5.38377,"is_reserved":false,"is_disabled":false,"rental_uris":{"android":"levelo://app?vid=0d20a18b-d53d-42e2-967a-ac08792c9f4f","ios":"levelo://app?vid=0d20a18b-d53d-42e2-967a-ac08792c9f4f"},"vehicle_type_id":"4","last_reported":1745017749,"current_range_meters":6000,"station_id":"ce4bgv92rcd13ifvqcr0","pricing_plan_id":"cebpf4jnsgd1na2vs0mg"},{"bike_id":"d54a58d8-c635-457d-a929-31a4c932e514","system_id":"levelo_inurba_marseille","lat":43.31317,"lon":5.39696,"is_reserved":false,"is_disabled":false,"rental_uris":{"android":"levelo://app?vid=d54a58d8-c635-457d-a929-31a4c932e514","ios":"levelo://app?vid=d54a58d8-c635-457d-a929-31a4c932e514"},"vehicle_type_id":"4","last_reported":1745017749,"current_range_meters":6400,"station_id":"ce4bgvp2rcd13ifvqcu0","pricing_plan_id":"cebpf4jnsgd1na2vs0mg"},{"bike_id":"9261d6d0-f018-4de8-abfe-64c6727086ce","system_id":"levelo_inurba_marseille","lat":43.25126,"lon":5.40324,"is_reserved":false,"is_disabled":false,"rental_uris":{"android":"levelo://app?vid=9261d6d0-f018-4de8-abfe-64c6727086ce","ios":"levelo://app?vid=9261d6d0-f018-4de8-abfe-64c6727086ce"},"vehicle_type_id":"4","last_reported":1745017749,"current_range_meters":6400,"station_id":"ce4bhlh2rcd13ifvqgig","pricing_plan_id":"cebpf4jnsgd1na2vs0mg"},{"bike_id":"a9eb962f-7d8b-4c1e-8c65-8047073e3592","system_id":"levelo_inurba_marseille","lat":43.2417,"lon":5.36398,"is_reserved":false,"is_disabled":false,"rental_uris":{"android":"levelo://app?vid=a9eb962f-7d8b-4c1e-8c65-8047073e3592","ios":"levelo://app?vid=a9eb962f-7d8b-4c1e-8c65-8047073e3592"},"vehicle_type_id":"4","last_reported":1745017749,"current_range_meters":6400,"station_id":"cpo36qri1sfpv3e86is0","pricing_plan_id":"cebpf4jnsgd1na2vs0mg"},{"bike_id":"bad7521a-992e-4dc8-ae8f-eb8ba9d1633a","system_id":"levelo_inurba_marseille","lat":43.27944,"lon":5.41035,"is_reserved":false,"is_disabled":false,"rental_uris":{"android":"levelo://app?vid=bad7521a-992e-4dc8-ae8f-eb8ba9d1633a","ios":"levelo://app?vid=bad7521a-992e-4dc8-ae8f-eb8ba9d1633a"},"vehicle_type_id":"4","last_reported":1745017749,"current_range_meters":6800,"station_id":"ce4bhnp2rcd13ifvqh0g","pricing_plan_id":"cebpf4jnsgd1na2vs0mg"},{"bike_id":"65ec13a0-b6c9-4a64-a021-8c2cd6f8a26c","system_id":"levelo_inurba_marseille","lat":43.28362,"lon":5.38618,"is_reserved":false,"is_disabled":false,"rental_uris":{"android":"levelo://app?vid=65ec13a0-b6c9-4a64-a021-8c2cd6f8a26c","ios":"levelo://app?vid=65ec13a0-b6c9-4a64-a021-8c2cd6f8a26c"},"vehicle_type_id":"4","last_reported":1745017749,"current_range_meters":6800,"station_id":"ce4bh492rcd13ifvqdvg","pricing_plan_id":"cebpf4jnsgd1na2vs0mg"},{"bike_id":"84e49312-ac99-4ef9-99d2-031114a019a8","system_id":"levelo_inurba_marseille","lat":43.32119,"lon":5.36765,"is_reserved":false,"is_disabled":true,"rental_uris":{"android":"levelo://app?vid=84e49312-ac99-4ef9-99d2-031114a019a8","ios":"levelo://app?vid=84e49312-ac99-4ef9-99d2-031114a019a8"},"vehicle_type_id":"4","last_reported":1745017749,"current_range_meters":6800,"station_id":"ce4bhrh2rcd13ifvqhug","pricing_plan_id":"cebpf4jnsgd1na2vs0mg"},{"bike_id":"c53345b3-0d4a-4f7d-b745-19f596d6baf6","system_id":"levelo_inurba_marseille","lat":43.284943,"lon":5.384267,"is_reserved":false,"is_disabled":false,"rental_uris":{"android":"levelo://app?vid=c53345b3-0d4a-4f7d-b745-19f596d6baf6","ios":"levelo://app?vid=c53345b3-0d4a-4f7d-b745-19f596d6baf6"},"vehicle_type_id":"4","last_reported":1745017749,"current_range_meters":6800,"station_id":"ce4bh512rcd13ifvqe3g","pricing_plan_id":"cebpf4jnsgd1na2vs0mg"},{"bike_id":"434bff1a-200c-40d9-aeec-aea1a5371c9c","system_id":"levelo_inurba_marseille","lat":43.30328,"lon":5.40434,"is_reserved":false,"is_disabled":false,"rental_uris":{"android":"levelo://app?vid=434bff1a-200c-40d9-aeec-aea1a5371c9c","ios":"levelo://app?vid=434bff1a-200c-40d9-aeec-aea1a5371c9c"},"vehicle_type_id":"4","last_reported":1745017749,"current_range_meters":6800,"station_id":"ce4bh012rcd13ifvqd10","pricing_plan_id":"cebpf4jnsgd1na2vs0mg"},{"bike_id":"98817dcc-3704-406e-8688-23a5bb4a0d1e","system_id":"levelo_inurba_marseille","lat":43.30146,"lon":5.39867,"is_reserved":false,"is_disabled":false,"rental_uris":{"android":"levelo://app?vid=98817dcc-3704-406e-8688-23a5bb4a0d1e","ios":"levelo://app?vid=98817dcc-3704-406e-8688-23a5bb4a0d1e"},"vehicle_type_id":"4","last_reported":1745017749,"current_range_meters":6800,"station_id":"ce4bh0h2rcd13ifvqd40","pricing_plan_id":"cebpf4jnsgd1na2vs0mg"},{"bike_id":"12e61b61-a165-4320-af5e-d9d6c29090fc","system_id":"levelo_inurba_marseille","lat":43.22922,"lon":5.3539,"is_reserved":false,"is_disabled":false,"rental_uris":{"android":"levelo://app?vid=12e61b61-a165-4320-af5e-d9d6c29090fc","ios":"levelo://app?vid=12e61b61-a165-4320-af5e-d9d6c29090fc"},"vehicle_type_id":"4","last_reported":1745017749,"current_range_meters":6800,"station_id":"cpo3532slgdg3j2ikp40","pricing_plan_id":"cebpf4jnsgd1na2vs0mg"},{"bike_id":"5583a1cb-ef8e-4930-b38d-8d47fac1b289","system_id":"levelo_inurba_marseille","lat":43.27842,"lon":5.40717,"is_reserved":false,"is_disabled":true,"rental_uris":{"android":"levelo://app?vid=5583a1cb-ef8e-4930-b38d-8d47fac1b289","ios":"levelo://app?vid=5583a1cb-ef8e-4930-b38d-8d47fac1b289"},"vehicle_type_id":"4","last_reported":1745017749,"current_range_meters":6800,"station_id":"ce4bhnh2rcd13ifvqgtg","pricing_plan_id":"cebpf4jnsgd1na2vs0mg"},{"bike_id":"c415b972-8ead-4e78-8d80-7a091746c0aa","system_id":"levelo_inurba_marseille","lat":43.24379,"lon":5.37075,"is_reserved":false,"is_disabled":false,"rental_uris":{"android":"levelo://app?vid=c415b972-8ead-4e78-8d80-7a091746c0aa","ios":"levelo://app?vid=c415b972-8ead-4e78-8d80-7a091746c0aa"},"vehicle_type_id":"4","last_reported":1745017749,"current_range_meters":7200,"station_id":"ce4bhhh2rcd13ifvqfk0","pricing_plan_id":"cebpf4jnsgd1na2vs0mg"},{"bike_id":"16efec6e-dc5b-45d2-95c2-e06e9ad30174","system_id":"levelo_inurba_marseille","lat":43.30881,"lon":5.39634,"is_reserved":false,"is_disabled":false,"rental_uris":{"android":"levelo://app?vid=16efec6e-dc5b-45d2-95c2-e06e9ad30174","ios":"levelo://app?vid=16efec6e-dc5b-45d2-95c2-e06e9ad30174"},"vehicle_type_id":"4","last_reported":1745017749,"current_range_meters":7200,"station_id":"ce4bh012rcd13ifvqcv0","pricing_plan_id":"cebpf4jnsgd1na2vs0mg"},{"bike_id":"bc361a36-5c6c-4af8-a9e6-22fee141b78a","system_id":"levelo_inurba_marseille","lat":43.33589,"lon":5.40995,"is_reserved":false,"is_disabled":true,"rental_uris":{"android":"levelo://app?vid=bc361a36-5c6c-4af8-a9e6-22fee141b78a","ios":"levelo://app?vid=bc361a36-5c6c-4af8-a9e6-22fee141b78a"},"vehicle_type_id":"4","last_reported":1745017749,"current_range_meters":7200,"station_id":"ce4bhqh2rcd13ifvqhmg","pricing_plan_id":"cebpf4jnsgd1na2vs0mg"},{"bike_id":"3d7efd7a-d79f-481b-9c2b-91fc9fdaafe7","system_id":"levelo_inurba_marseille","lat":43.2835,"lon":5.4129,"is_reserved":false,"is_disabled":false,"rental_uris":{"android":"levelo://app?vid=3d7efd7a-d79f-481b-9c2b-91fc9fdaafe7","ios":"levelo://app?vid=3d7efd7a-d79f-481b-9c2b-91fc9fdaafe7"},"vehicle_type_id":"4","last_reported":1745017749,"current_range_meters":7200,"station_id":"","pricing_plan_id":"cebpf4jnsgd1na2vs0mg"},{"bike_id":"a9a7f8d0-1b7c-4b56-b75b-1784b6d46bc1","system_id":"levelo_inurba_marseille","lat":43.25731,"lon":5.4112,"is_reserved":false,"is_disabled":false,"rental_uris":{"android":"levelo://app?vid=a9a7f8d0-1b7c-4b56-b75b-1784b6d46bc1","ios":"levelo://app?vid=a9a7f8d0-1b7c-4b56-b75b-1784b6d46bc1"},"vehicle_type_id":"4","last_reported":1745017749,"current_range_meters":7200,"station_id":"ce4bhkp2rcd13ifvqgd0","pricing_plan_id":"cebpf4jnsgd1na2vs0mg"},{"bike_id":"04f47843-d2df-4627-a4f9-3c9d6b1ff962","system_id":"levelo_inurba_marseille","lat":43.29831,"lon":5.40389,"is_reserved":false,"is_disabled":false,"rental_uris":{"android":"levelo://app?vid=04f47843-d2df-4627-a4f9-3c9d6b1ff962","ios":"levelo://app?vid=04f47843-d2df-4627-a4f9-3c9d6b1ff962"},"vehicle_type_id":"4","last_reported":1745017749,"current_range_meters":7200,"station_id":"ce4bh112rcd13ifvqd90","pricing_plan_id":"cebpf4jnsgd1na2vs0mg"},{"bike_id":"f75da73b-a295-408b-a18b-c0cc30ccc141","system_id":"levelo_inurba_marseille","lat":43.248035,"lon":5.374475,"is_reserved":false,"is_disabled":false,"rental_uris":{"android":"levelo://app?vid=f75da73b-a295-408b-a18b-c0cc30ccc141","ios":"levelo://app?vid=f75da73b-a295-408b-a18b-c0cc30ccc141"},"vehicle_type_id":"4","last_reported":1745017749,"current_range_meters":7200,"station_id":"ce4bhgh2rcd13ifvqfb0","pricing_plan_id":"cebpf4jnsgd1na2vs0mg"},{"bike_id":"a9f5f0bc-8026-49a5-a645-ac7b387ec5d4","system_id":"levelo_inurba_marseille","lat":43.24671,"lon":5.38154,"is_reserved":false,"is_disabled":false,"rental_uris":{"android":"levelo://app?vid=a9f5f0bc-8026-49a5-a645-ac7b387ec5d4","ios":"levelo://app?vid=a9f5f0bc-8026-49a5-a645-ac7b387ec5d4"},"vehicle_type_id":"4","last_reported":1745017749,"current_range_meters":7200,"station_id":"ce4bhih2rcd13ifvqfr0","pricing_plan_id":"cebpf4jnsgd1na2vs0mg"},{"bike_id":"6987c513-b50c-45b1-80e3-356055d982d5","system_id":"levelo_inurba_marseille","lat":43.29953,"lon":5.37719,"is_reserved":false,"is_disabled":true,"rental_uris":{"android":"levelo://app?vid=6987c513-b50c-45b1-80e3-356055d982d5","ios":"levelo://app?vid=6987c513-b50c-45b1-80e3-356055d982d5"},"vehicle_type_id":"4","last_reported":1745017749,"current_range_meters":8000,"station_id":"","pricing_plan_id":"cebpf4jnsgd1na2vs0mg"},{"bike_id":"06a3d917-bf24-4f80-8e41-5e4f9d74f51b","system_id":"levelo_inurba_marseille","lat":43.29527,"lon":5.38551,"is_reserved":false,"is_disabled":false,"rental_uris":{"android":"levelo://app?vid=06a3d917-bf24-4f80-8e41-5e4f9d74f51b","ios":"levelo://app?vid=06a3d917-bf24-4f80-8e41-5e4f9d74f51b"},"vehicle_type_id":"4","last_reported":1745017749,"current_range_meters":8000,"station_id":"ce4bgih2rcd13ifvqba0","pricing_plan_id":"cebpf4jnsgd1na2vs0mg"},{"bike_id":"7364fd10-5c32-4ec1-97dc-9a40265b3325","system_id":"levelo_inurba_marseille","lat":43.28432,"lon":5.3752,"is_reserved":false,"is_disabled":false,"rental_uris":{"android":"levelo://app?vid=7364fd10-5c32-4ec1-97dc-9a40265b3325","ios":"levelo://app?vid=7364fd10-5c32-4ec1-97dc-9a40265b3325"},"vehicle_type_id":"4","last_reported":1745017749,"current_range_meters":8000,"station_id":"ce4bh412rcd13ifvqds0","pricing_plan_id":"cebpf4jnsgd1na2vs0mg"},{"bike_id":"36028acb-1986-4460-84fe-b2aca491647c","system_id":"levelo_inurba_marseille","lat":43.26778,"lon":5.39414,"is_reserved":false,"is_disabled":true,"rental_uris":{"android":"levelo://app?vid=36028acb-1986-4460-84fe-b2aca491647c","ios":"levelo://app?vid=36028acb-1986-4460-84fe-b2aca491647c"},"vehicle_type_id":"4","last_reported":1745017749,"current_range_meters":8000,"station_id":"ce4bhh12rcd13ifvqfg0","pricing_plan_id":"cebpf4jnsgd1na2vs0mg"},{"bike_id":"cf4db056-d3f7-4001-aa54-c43d57090a49","system_id":"levelo_inurba_marseille","lat":43.23186,"lon":5.3556,"is_reserved":false,"is_disabled":false,"rental_uris":{"android":"levelo://app?vid=cf4db056-d3f7-4001-aa54-c43d57090a49","ios":"levelo://app?vid=cf4db056-d3f7-4001-aa54-c43d57090a49"},"vehicle_type_id":"4","last_reported":1745017749,"current_range_meters":8000,"station_id":"ce4bhu92rcd13ifvqi70","pricing_plan_id":"cebpf4jnsgd1na2vs0mg"},{"bike_id":"22209dda-afa5-4a31-9c25-a5d94a331926","system_id":"levelo_inurba_marseille","lat":43.24087,"lon":5.37743,"is_reserved":false,"is_disabled":true,"rental_uris":{"android":"levelo://app?vid=22209dda-afa5-4a31-9c25-a5d94a331926","ios":"levelo://app?vid=22209dda-afa5-4a31-9c25-a5d94a331926"},"vehicle_type_id":"4","last_reported":1745017749,"current_range_meters":8000,"station_id":"ce4bhnp2rcd13ifvqgvg","pricing_plan_id":"cebpf4jnsgd1na2vs0mg"},{"bike_id":"fcb16b8d-7b53-48c4-9b9d-daed86c760ad","system_id":"levelo_inurba_marseille","lat":43.28841,"lon":5.35843,"is_reserved":false,"is_disabled":false,"rental_uris":{"android":"levelo://app?vid=fcb16b8d-7b53-48c4-9b9d-daed86c760ad","ios":"levelo://app?vid=fcb16b8d-7b53-48c4-9b9d-daed86c760ad"},"vehicle_type_id":"4","last_reported":1745017749,"current_range_meters":8000,"station_id":"ce4bhb12rcd13ifvqem0","pricing_plan_id":"cebpf4jnsgd1na2vs0mg"},{"bike_id":"70b6b133-6705-4dfd-b4a7-6e88067904e8","system_id":"levelo_inurba_marseille","lat":43.241728,"lon":5.364114,"is_reserved":false,"is_disabled":false,"rental_uris":{"android":"levelo://app?vid=70b6b133-6705-4dfd-b4a7-6e88067904e8","ios":"levelo://app?vid=70b6b133-6705-4dfd-b4a7-6e88067904e8"},"vehicle_type_id":"4","last_reported":1745017749,"current_range_meters":8000,"station_id":"cpo36qri1sfpv3e86is0","pricing_plan_id":"cebpf4jnsgd1na2vs0mg"},{"bike_id":"86cde55a-9b4f-4282-a3e4-29ea23a18e8d","system_id":"levelo_inurba_marseille","lat":43.31366,"lon":5.38505,"is_reserved":false,"is_disabled":false,"rental_uris":{"android":"levelo://app?vid=86cde55a-9b4f-4282-a3e4-29ea23a18e8d","ios":"levelo://app?vid=86cde55a-9b4f-4282-a3e4-29ea23a18e8d"},"vehicle_type_id":"4","last_reported":1745017749,"current_range_meters":8000,"station_id":"ce4bgt92rcd13ifvqcf0","pricing_plan_id":"cebpf4jnsgd1na2vs0mg"},{"bike_id":"c09d605c-d5d3-42f8-9be2-d2e1dcde23bd","system_id":"levelo_inurba_marseille","lat":43.24649,"lon":5.38894,"is_reserved":false,"is_disabled":false,"rental_uris":{"android":"levelo://app?vid=c09d605c-d5d3-42f8-9be2-d2e1dcde23bd","ios":"levelo://app?vid=c09d605c-d5d3-42f8-9be2-d2e1dcde23bd"},"vehicle_type_id":"4","last_reported":1745017749,"current_range_meters":8000,"station_id":"ce4bhg12rcd13ifvqf60","pricing_plan_id":"cebpf4jnsgd1na2vs0mg"},{"bike_id":"3287305e-dc20-444a-9949-00d7352f401a","system_id":"levelo_inurba_marseille","lat":43.24172,"lon":5.36394,"is_reserved":false,"is_disabled":false,"rental_uris":{"android":"levelo://app?vid=3287305e-dc20-444a-9949-00d7352f401a","ios":"levelo://app?vid=3287305e-dc20-444a-9949-00d7352f401a"},"vehicle_type_id":"4","last_reported":1745017749,"current_range_meters":8000,"station_id":"cpo36qri1sfpv3e86is0","pricing_plan_id":"cebpf4jnsgd1na2vs0mg"},{"bike_id":"5be54c3f-e319-4352-a1cf-9999eb08b834","system_id":"levelo_inurba_marseille","lat":43.29266,"lon":5.40901,"is_reserved":false,"is_disabled":false,"rental_uris":{"android":"levelo://app?vid=5be54c3f-e319-4352-a1cf-9999eb08b834","ios":"levelo://app?vid=5be54c3f-e319-4352-a1cf-9999eb08b834"},"vehicle_type_id":"4","last_reported":1745017749,"current_range_meters":8000,"station_id":"ce4bh192rcd13ifvqdc0","pricing_plan_id":"cebpf4jnsgd1na2vs0mg"},{"bike_id":"e8ea4f71-f9bc-4069-9d4b-c148fc560222","system_id":"levelo_inurba_marseille","lat":43.30432,"lon":5.38916,"is_reserved":false,"is_disabled":false,"rental_uris":{"android":"levelo://app?vid=e8ea4f71-f9bc-4069-9d4b-c148fc560222","ios":"levelo://app?vid=e8ea4f71-f9bc-4069-9d4b-c148fc560222"},"vehicle_type_id":"4","last_reported":1745017749,"current_range_meters":8000,"station_id":"ce4bgk12rcd13ifvqbi0","pricing_plan_id":"cebpf4jnsgd1na2vs0mg"},{"bike_id":"3e194da8-ca3a-4918-a395-5f192f58b451","system_id":"levelo_inurba_marseille","lat":43.30932,"lon":5.40143,"is_reserved":false,"is_disabled":false,"rental_uris":{"android":"levelo://app?vid=3e194da8-ca3a-4918-a395-5f192f58b451","ios":"levelo://app?vid=3e194da8-ca3a-4918-a395-5f192f58b451"},"vehicle_type_id":"4","last_reported":1745017749,"current_range_meters":8000,"station_id":"ce4bgvp2rcd13ifvqct0","pricing_plan_id":"cebpf4jnsgd1na2vs0mg"},{"bike_id":"d4d9b665-d4f4-49cf-9dcd-00e920a45b50","system_id":"levelo_inurba_marseille","lat":43.25829,"lon":5.39431,"is_reserved":false,"is_disabled":false,"rental_uris":{"android":"levelo://app?vid=d4d9b665-d4f4-49cf-9dcd-00e920a45b50","ios":"levelo://app?vid=d4d9b665-d4f4-49cf-9dcd-00e920a45b50"},"vehicle_type_id":"4","last_reported":1745017749,"current_range_meters":8000,"station_id":"ce4bhip2rcd13ifvqft0","pricing_plan_id":"cebpf4jnsgd1na2vs0mg"},{"bike_id":"ea5d5be5-5fd1-445d-93f1-fc1e6216769b","system_id":"levelo_inurba_marseille","lat":43.28704,"lon":5.39984,"is_reserved":false,"is_disabled":false,"rental_uris":{"android":"levelo://app?vid=ea5d5be5-5fd1-445d-93f1-fc1e6216769b","ios":"levelo://app?vid=ea5d5be5-5fd1-445d-93f1-fc1e6216769b"},"vehicle_type_id":"4","last_reported":1745017749,"current_range_meters":8000,"station_id":"ce4bho92rcd13ifvqh3g","pricing_plan_id":"cebpf4jnsgd1na2vs0mg"},{"bike_id":"271c8c79-7ca6-4367-80fb-8a0efc84181c","system_id":"levelo_inurba_marseille","lat":43.23205,"lon":5.35575,"is_reserved":false,"is_disabled":false,"rental_uris":{"android":"levelo://app?vid=271c8c79-7ca6-4367-80fb-8a0efc84181c","ios":"levelo://app?vid=271c8c79-7ca6-4367-80fb-8a0efc84181c"},"vehicle_type_id":"4","last_reported":1745017749,"current_range_meters":8000,"station_id":"ce4bhu92rcd13ifvqi70","pricing_plan_id":"cebpf4jnsgd1na2vs0mg"},{"bike_id":"1e0ef1a2-e14b-491d-913c-b72ffff772f5","system_id":"levelo_inurba_marseille","lat":43.27981,"lon":5.41657,"is_reserved":false,"is_disabled":false,"rental_uris":{"android":"levelo://app?vid=1e0ef1a2-e14b-491d-913c-b72ffff772f5","ios":"levelo://app?vid=1e0ef1a2-e14b-491d-913c-b72ffff772f5"},"vehicle_type_id":"4","last_reported":1745017749,"current_range_meters":8400,"station_id":"ce4bho12rcd13ifvqh1g","pricing_plan_id":"cebpf4jnsgd1na2vs0mg"},{"bike_id":"d0693017-3219-4f2c-9252-be27486404d3","system_id":"levelo_inurba_marseille","lat":43.2467,"lon":5.38155,"is_reserved":false,"is_disabled":false,"rental_uris":{"android":"levelo://app?vid=d0693017-3219-4f2c-9252-be27486404d3","ios":"levelo://app?vid=d0693017-3219-4f2c-9252-be27486404d3"},"vehicle_type_id":"4","last_reported":1745017749,"current_range_meters":8400,"station_id":"ce4bhih2rcd13ifvqfr0","pricing_plan_id":"cebpf4jnsgd1na2vs0mg"},{"bike_id":"9b29d7c1-fe06-4fe4-910e-79bca8b0b91f","system_id":"levelo_inurba_marseille","lat":43.29039,"lon":5.38649,"is_reserved":false,"is_disabled":false,"rental_uris":{"android":"levelo://app?vid=9b29d7c1-fe06-4fe4-910e-79bca8b0b91f","ios":"levelo://app?vid=9b29d7c1-fe06-4fe4-910e-79bca8b0b91f"},"vehicle_type_id":"4","last_reported":1745017749,"current_range_meters":8400,"station_id":"ce4bh4p2rcd13ifvqe0g","pricing_plan_id":"cebpf4jnsgd1na2vs0mg"},{"bike_id":"32ae70bf-b15f-4f5b-8e11-29448bd84c38","system_id":"levelo_inurba_marseille","lat":43.31069,"lon":5.38351,"is_reserved":false,"is_disabled":false,"rental_uris":{"android":"levelo://app?vid=32ae70bf-b15f-4f5b-8e11-29448bd84c38","ios":"levelo://app?vid=32ae70bf-b15f-4f5b-8e11-29448bd84c38"},"vehicle_type_id":"4","last_reported":1745017749,"current_range_meters":8400,"station_id":"ce4bgv92rcd13ifvqcr0","pricing_plan_id":"cebpf4jnsgd1na2vs0mg"},{"bike_id":"506dec7b-eb9c-453c-9aee-cd3a51e99e34","system_id":"levelo_inurba_marseille","lat":43.29437,"lon":5.38634,"is_reserved":false,"is_disabled":true,"rental_uris":{"android":"levelo://app?vid=506dec7b-eb9c-453c-9aee-cd3a51e99e34","ios":"levelo://app?vid=506dec7b-eb9c-453c-9aee-cd3a51e99e34"},"vehicle_type_id":"4","last_reported":1745017749,"current_range_meters":8400,"station_id":"ce4bh2h2rcd13ifvqdh0","pricing_plan_id":"cebpf4jnsgd1na2vs0mg"},{"bike_id":"76e113ef-930d-4a34-b54e-5c1c2d268b04","system_id":"levelo_inurba_marseille","lat":43.27991,"lon":5.41651,"is_reserved":false,"is_disabled":false,"rental_uris":{"android":"levelo://app?vid=76e113ef-930d-4a34-b54e-5c1c2d268b04","ios":"levelo://app?vid=76e113ef-930d-4a34-b54e-5c1c2d268b04"},"vehicle_type_id":"4","last_reported":1745017749,"current_range_meters":8400,"station_id":"ce4bho12rcd13ifvqh1g","pricing_plan_id":"cebpf4jnsgd1na2vs0mg"},{"bike_id":"678d1aa7-dc7f-4ee1-a950-5a4f554ad695","system_id":"levelo_inurba_marseille","lat":43.29778,"lon":5.39351,"is_reserved":false,"is_disabled":true,"rental_uris":{"android":"levelo://app?vid=678d1aa7-dc7f-4ee1-a950-5a4f554ad695","ios":"levelo://app?vid=678d1aa7-dc7f-4ee1-a950-5a4f554ad695"},"vehicle_type_id":"4","last_reported":1745017749,"current_range_meters":8400,"station_id":"chh1huq6cuj3fo74tm60","pricing_plan_id":"cebpf4jnsgd1na2vs0mg"},{"bike_id":"1a30bac1-2285-47b0-b2ca-45da3efbcc17","system_id":"levelo_inurba_marseille","lat":43.28452,"lon":5.35894,"is_reserved":false,"is_disabled":true,"rental_uris":{"android":"levelo://app?vid=1a30bac1-2285-47b0-b2ca-45da3efbcc17","ios":"levelo://app?vid=1a30bac1-2285-47b0-b2ca-45da3efbcc17"},"vehicle_type_id":"4","last_reported":1745017749,"current_range_meters":8400,"station_id":"ce4bhah2rcd13ifvqei0","pricing_plan_id":"cebpf4jnsgd1na2vs0mg"},{"bike_id":"f2d09a49-02ca-41b9-870e-fdff640473d6","system_id":"levelo_inurba_marseille","lat":43.24169,"lon":5.364,"is_reserved":false,"is_disabled":false,"rental_uris":{"android":"levelo://app?vid=f2d09a49-02ca-41b9-870e-fdff640473d6","ios":"levelo://app?vid=f2d09a49-02ca-41b9-870e-fdff640473d6"},"vehicle_type_id":"4","last_reported":1745017749,"current_range_meters":8800,"station_id":"cpo36qri1sfpv3e86is0","pricing_plan_id":"cebpf4jnsgd1na2vs0mg"},{"bike_id":"9988dcfd-9842-423b-82ea-4e787002a30a","system_id":"levelo_inurba_marseille","lat":43.29609,"lon":5.38103,"is_reserved":false,"is_disabled":false,"rental_uris":{"android":"levelo://app?vid=9988dcfd-9842-423b-82ea-4e787002a30a","ios":"levelo://app?vid=9988dcfd-9842-423b-82ea-4e787002a30a"},"vehicle_type_id":"4","last_reported":1745017749,"current_range_meters":8800,"station_id":"ce4bgl12rcd13ifvqbo0","pricing_plan_id":"cebpf4jnsgd1na2vs0mg"},{"bike_id":"db00a83a-e000-4eba-9ae1-9d9b2ea88cec","system_id":"levelo_inurba_marseille","lat":43.27948,"lon":5.41043,"is_reserved":false,"is_disabled":false,"rental_uris":{"android":"levelo://app?vid=db00a83a-e000-4eba-9ae1-9d9b2ea88cec","ios":"levelo://app?vid=db00a83a-e000-4eba-9ae1-9d9b2ea88cec"},"vehicle_type_id":"4","last_reported":1745017749,"current_range_meters":8800,"station_id":"ce4bhnp2rcd13ifvqh0g","pricing_plan_id":"cebpf4jnsgd1na2vs0mg"},{"bike_id":"de46e13f-3bb4-4a40-be1f-927084c17eac","system_id":"levelo_inurba_marseille","lat":43.30166,"lon":5.39836,"is_reserved":false,"is_disabled":false,"rental_uris":{"android":"levelo://app?vid=de46e13f-3bb4-4a40-be1f-927084c17eac","ios":"levelo://app?vid=de46e13f-3bb4-4a40-be1f-927084c17eac"},"vehicle_type_id":"4","last_reported":1745017749,"current_range_meters":8800,"station_id":"ce4bh0h2rcd13ifvqd40","pricing_plan_id":"cebpf4jnsgd1na2vs0mg"},{"bike_id":"a40c081d-71e2-4f77-9f97-777fdfc5a633","system_id":"levelo_inurba_marseille","lat":43.3107,"lon":5.3835,"is_reserved":false,"is_disabled":false,"rental_uris":{"android":"levelo://app?vid=a40c081d-71e2-4f77-9f97-777fdfc5a633","ios":"levelo://app?vid=a40c081d-71e2-4f77-9f97-777fdfc5a633"},"vehicle_type_id":"4","last_reported":1745017749,"current_range_meters":8800,"station_id":"ce4bgv92rcd13ifvqcr0","pricing_plan_id":"cebpf4jnsgd1na2vs0mg"},{"bike_id":"0f0c2c9d-c11a-480f-8137-c5315e4ded3a","system_id":"levelo_inurba_marseille","lat":43.23195,"lon":5.35563,"is_reserved":false,"is_disabled":false,"rental_uris":{"android":"levelo://app?vid=0f0c2c9d-c11a-480f-8137-c5315e4ded3a","ios":"levelo://app?vid=0f0c2c9d-c11a-480f-8137-c5315e4ded3a"},"vehicle_type_id":"4","last_reported":1745017749,"current_range_meters":8800,"station_id":"ce4bhu92rcd13ifvqi70","pricing_plan_id":"cebpf4jnsgd1na2vs0mg"},{"bike_id":"cd5e7898-b402-4c17-b1a3-73193052bce6","system_id":"levelo_inurba_marseille","lat":43.303273,"lon":5.404101,"is_reserved":false,"is_disabled":false,"rental_uris":{"android":"levelo://app?vid=cd5e7898-b402-4c17-b1a3-73193052bce6","ios":"levelo://app?vid=cd5e7898-b402-4c17-b1a3-73193052bce6"},"vehicle_type_id":"4","last_reported":1745017749,"current_range_meters":8800,"station_id":"","pricing_plan_id":"cebpf4jnsgd1na2vs0mg"},{"bike_id":"e01403ae-8c8a-4317-828d-39241f5a962c","system_id":"levelo_inurba_marseille","lat":43.30428,"lon":5.38899,"is_reserved":false,"is_disabled":false,"rental_uris":{"android":"levelo://app?vid=e01403ae-8c8a-4317-828d-39241f5a962c","ios":"levelo://app?vid=e01403ae-8c8a-4317-828d-39241f5a962c"},"vehicle_type_id":"4","last_reported":1745017749,"current_range_meters":8800,"station_id":"ce4bgk12rcd13ifvqbi0","pricing_plan_id":"cebpf4jnsgd1na2vs0mg"},{"bike_id":"782da538-2223-4ccd-8232-244cda12462d","system_id":"levelo_inurba_marseille","lat":43.231835,"lon":5.399865,"is_reserved":false,"is_disabled":false,"rental_uris":{"android":"levelo://app?vid=782da538-2223-4ccd-8232-244cda12462d","ios":"levelo://app?vid=782da538-2223-4ccd-8232-244cda12462d"},"vehicle_type_id":"4","last_reported":1745017749,"current_range_meters":8800,"station_id":"ce4bhn12rcd13ifvqgqg","pricing_plan_id":"cebpf4jnsgd1na2vs0mg"},{"bike_id":"50dc23ed-5e19-46ee-92cf-f2ca4c445852","system_id":"levelo_inurba_marseille","lat":43.33734,"lon":5.39202,"is_reserved":false,"is_disabled":false,"rental_uris":{"android":"levelo://app?vid=50dc23ed-5e19-46ee-92cf-f2ca4c445852","ios":"levelo://app?vid=50dc23ed-5e19-46ee-92cf-f2ca4c445852"},"vehicle_type_id":"4","last_reported":1745017749,"current_range_meters":8800,"station_id":"ce4bhr92rcd13ifvqhsg","pricing_plan_id":"cebpf4jnsgd1na2vs0mg"},{"bike_id":"38d71541-39fa-44bc-b9fa-dad7cbdc7434","system_id":"levelo_inurba_marseille","lat":43.287498,"lon":5.386544,"is_reserved":false,"is_disabled":false,"rental_uris":{"android":"levelo://app?vid=38d71541-39fa-44bc-b9fa-dad7cbdc7434","ios":"levelo://app?vid=38d71541-39fa-44bc-b9fa-dad7cbdc7434"},"vehicle_type_id":"4","last_reported":1745017749,"current_range_meters":8800,"station_id":"","pricing_plan_id":"cebpf4jnsgd1na2vs0mg"},{"bike_id":"73bd7d0a-d97d-4ded-8e80-95f8c66e5f90","system_id":"levelo_inurba_marseille","lat":43.27937,"lon":5.41022,"is_reserved":false,"is_disabled":false,"rental_uris":{"android":"levelo://app?vid=73bd7d0a-d97d-4ded-8e80-95f8c66e5f90","ios":"levelo://app?vid=73bd7d0a-d97d-4ded-8e80-95f8c66e5f90"},"vehicle_type_id":"4","last_reported":1745017749,"current_range_meters":9200,"station_id":"ce4bhnp2rcd13ifvqh0g","pricing_plan_id":"cebpf4jnsgd1na2vs0mg"},{"bike_id":"b7454e84-51ab-4431-b47c-6fedbabf1f65","system_id":"levelo_inurba_marseille","lat":43.31756,"lon":5.39018,"is_reserved":false,"is_disabled":false,"rental_uris":{"android":"levelo://app?vid=b7454e84-51ab-4431-b47c-6fedbabf1f65","ios":"levelo://app?vid=b7454e84-51ab-4431-b47c-6fedbabf1f65"},"vehicle_type_id":"4","last_reported":1745017749,"current_range_meters":8800,"station_id":"ce4bhqp2rcd13ifvqhng","pricing_plan_id":"cebpf4jnsgd1na2vs0mg"},{"bike_id":"2b8ada08-dfd2-45ad-9cae-89e7f26b72dc","system_id":"levelo_inurba_marseille","lat":43.30928,"lon":5.40141,"is_reserved":false,"is_disabled":false,"rental_uris":{"android":"levelo://app?vid=2b8ada08-dfd2-45ad-9cae-89e7f26b72dc","ios":"levelo://app?vid=2b8ada08-dfd2-45ad-9cae-89e7f26b72dc"},"vehicle_type_id":"4","last_reported":1745017749,"current_range_meters":9200,"station_id":"ce4bgvp2rcd13ifvqct0","pricing_plan_id":"cebpf4jnsgd1na2vs0mg"},{"bike_id":"1210dc72-37b8-49f7-b249-6faa54daba28","system_id":"levelo_inurba_marseille","lat":43.32369,"lon":5.36772,"is_reserved":false,"is_disabled":false,"rental_uris":{"android":"levelo://app?vid=1210dc72-37b8-49f7-b249-6faa54daba28","ios":"levelo://app?vid=1210dc72-37b8-49f7-b249-6faa54daba28"},"vehicle_type_id":"4","last_reported":1745017749,"current_range_meters":9200,"station_id":"ce4bhsh2rcd13ifvqi2g","pricing_plan_id":"cebpf4jnsgd1na2vs0mg"},{"bike_id":"ab0a8077-4242-4166-b0f9-a816f1854fd0","system_id":"levelo_inurba_marseille","lat":43.28661,"lon":5.36354,"is_reserved":false,"is_disabled":false,"rental_uris":{"android":"levelo://app?vid=ab0a8077-4242-4166-b0f9-a816f1854fd0","ios":"levelo://app?vid=ab0a8077-4242-4166-b0f9-a816f1854fd0"},"vehicle_type_id":"4","last_reported":1745017749,"current_range_meters":9200,"station_id":"ce4bhah2rcd13ifvqej0","pricing_plan_id":"cebpf4jnsgd1na2vs0mg"},{"bike_id":"38b7860a-c4da-4d64-be80-dc9013abfcb4","system_id":"levelo_inurba_marseille","lat":43.31331,"lon":5.3968,"is_reserved":false,"is_disabled":false,"rental_uris":{"android":"levelo://app?vid=38b7860a-c4da-4d64-be80-dc9013abfcb4","ios":"levelo://app?vid=38b7860a-c4da-4d64-be80-dc9013abfcb4"},"vehicle_type_id":"4","last_reported":1745017749,"current_range_meters":9200,"station_id":"ce4bgvp2rcd13ifvqcu0","pricing_plan_id":"cebpf4jnsgd1na2vs0mg"},{"bike_id":"7f174117-e5d9-4e09-9d71-4a11ef6882f7","system_id":"levelo_inurba_marseille","lat":43.24648,"lon":5.38147,"is_reserved":false,"is_disabled":false,"rental_uris":{"android":"levelo://app?vid=7f174117-e5d9-4e09-9d71-4a11ef6882f7","ios":"levelo://app?vid=7f174117-e5d9-4e09-9d71-4a11ef6882f7"},"vehicle_type_id":"4","last_reported":1745017749,"current_range_meters":9200,"station_id":"ce4bhih2rcd13ifvqfr0","pricing_plan_id":"cebpf4jnsgd1na2vs0mg"},{"bike_id":"4affa1cf-896e-4b35-92a9-9624470d1083","system_id":"levelo_inurba_marseille","lat":43.29241,"lon":5.40091,"is_reserved":false,"is_disabled":false,"rental_uris":{"android":"levelo://app?vid=4affa1cf-896e-4b35-92a9-9624470d1083","ios":"levelo://app?vid=4affa1cf-896e-4b35-92a9-9624470d1083"},"vehicle_type_id":"4","last_reported":1745017749,"current_range_meters":9200,"station_id":"ce4bh312rcd13ifvqdk0","pricing_plan_id":"cebpf4jnsgd1na2vs0mg"},{"bike_id":"fa22a6d4-65a6-4211-b00c-976bd3411aaf","system_id":"levelo_inurba_marseille","lat":43.28674,"lon":5.36354,"is_reserved":false,"is_disabled":false,"rental_uris":{"android":"levelo://app?vid=fa22a6d4-65a6-4211-b00c-976bd3411aaf","ios":"levelo://app?vid=fa22a6d4-65a6-4211-b00c-976bd3411aaf"},"vehicle_type_id":"4","last_reported":1745017749,"current_range_meters":9600,"station_id":"ce4bhah2rcd13ifvqej0","pricing_plan_id":"cebpf4jnsgd1na2vs0mg"},{"bike_id":"ebe3958a-edb4-4e7d-9e08-725e7a6ea43e","system_id":"levelo_inurba_marseille","lat":43.28461,"lon":5.3588,"is_reserved":false,"is_disabled":false,"rental_uris":{"android":"levelo://app?vid=ebe3958a-edb4-4e7d-9e08-725e7a6ea43e","ios":"levelo://app?vid=ebe3958a-edb4-4e7d-9e08-725e7a6ea43e"},"vehicle_type_id":"4","last_reported":1745017749,"current_range_meters":9600,"station_id":"ce4bhah2rcd13ifvqei0","pricing_plan_id":"cebpf4jnsgd1na2vs0mg"},{"bike_id":"ee45d3b2-e8a1-4166-92e0-42002aca85ac","system_id":"levelo_inurba_marseille","lat":43.31341,"lon":5.39687,"is_reserved":false,"is_disabled":false,"rental_uris":{"android":"levelo://app?vid=ee45d3b2-e8a1-4166-92e0-42002aca85ac","ios":"levelo://app?vid=ee45d3b2-e8a1-4166-92e0-42002aca85ac"},"vehicle_type_id":"4","last_reported":1745017749,"current_range_meters":9600,"station_id":"ce4bgvp2rcd13ifvqcu0","pricing_plan_id":"cebpf4jnsgd1na2vs0mg"},{"bike_id":"b548ebe5-1c23-4158-a043-5345beee3847","system_id":"levelo_inurba_marseille","lat":43.29415,"lon":5.38598,"is_reserved":false,"is_disabled":false,"rental_uris":{"android":"levelo://app?vid=b548ebe5-1c23-4158-a043-5345beee3847","ios":"levelo://app?vid=b548ebe5-1c23-4158-a043-5345beee3847"},"vehicle_type_id":"4","last_reported":1745017749,"current_range_meters":9600,"station_id":"ce4bh2h2rcd13ifvqdh0","pricing_plan_id":"cebpf4jnsgd1na2vs0mg"},{"bike_id":"c2f2baf5-f776-4f05-8512-1bd1e12b33e4","system_id":"levelo_inurba_marseille","lat":43.30146,"lon":5.39864,"is_reserved":false,"is_disabled":false,"rental_uris":{"android":"levelo://app?vid=c2f2baf5-f776-4f05-8512-1bd1e12b33e4","ios":"levelo://app?vid=c2f2baf5-f776-4f05-8512-1bd1e12b33e4"},"vehicle_type_id":"4","last_reported":1745017749,"current_range_meters":9600,"station_id":"ce4bh0h2rcd13ifvqd40","pricing_plan_id":"cebpf4jnsgd1na2vs0mg"},{"bike_id":"91b0f96d-1a6e-4e28-98b9-2c86f2485aee","system_id":"levelo_inurba_marseille","lat":43.32416,"lon":5.39048,"is_reserved":false,"is_disabled":true,"rental_uris":{"android":"levelo://app?vid=91b0f96d-1a6e-4e28-98b9-2c86f2485aee","ios":"levelo://app?vid=91b0f96d-1a6e-4e28-98b9-2c86f2485aee"},"vehicle_type_id":"4","last_reported":1745017749,"current_range_meters":9600,"station_id":"","pricing_plan_id":"cebpf4jnsgd1na2vs0mg"},{"bike_id":"cfc5d5e0-d02a-44ad-ae77-156d5dfe1652","system_id":"levelo_inurba_marseille","lat":43.2784,"lon":5.39204,"is_reserved":false,"is_disabled":false,"rental_uris":{"android":"levelo://app?vid=cfc5d5e0-d02a-44ad-ae77-156d5dfe1652","ios":"levelo://app?vid=cfc5d5e0-d02a-44ad-ae77-156d5dfe1652"},"vehicle_type_id":"4","last_reported":1745017749,"current_range_meters":9600,"station_id":"ce4bhjp2rcd13ifvqga0","pricing_plan_id":"cebpf4jnsgd1na2vs0mg"},{"bike_id":"db683e79-1939-434e-b081-b9990fd856fe","system_id":"levelo_inurba_marseille","lat":43.22913,"lon":5.35394,"is_reserved":false,"is_disabled":false,"rental_uris":{"android":"levelo://app?vid=db683e79-1939-434e-b081-b9990fd856fe","ios":"levelo://app?vid=db683e79-1939-434e-b081-b9990fd856fe"},"vehicle_type_id":"4","last_reported":1745017749,"current_range_meters":9600,"station_id":"cpo3532slgdg3j2ikp40","pricing_plan_id":"cebpf4jnsgd1na2vs0mg"},{"bike_id":"9b4d5e07-bf1a-4418-b544-e78b0d83a1c0","system_id":"levelo_inurba_marseille","lat":43.26221,"lon":5.40467,"is_reserved":false,"is_disabled":false,"rental_uris":{"android":"levelo://app?vid=9b4d5e07-bf1a-4418-b544-e78b0d83a1c0","ios":"levelo://app?vid=9b4d5e07-bf1a-4418-b544-e78b0d83a1c0"},"vehicle_type_id":"4","last_reported":1745017749,"current_range_meters":9600,"station_id":"ce4bhmh2rcd13ifvqgmg","pricing_plan_id":"cebpf4jnsgd1na2vs0mg"},{"bike_id":"5ab4a80e-364b-48b0-a070-906bb9e16755","system_id":"levelo_inurba_marseille","lat":43.31997,"lon":5.38144,"is_reserved":false,"is_disabled":false,"rental_uris":{"android":"levelo://app?vid=5ab4a80e-364b-48b0-a070-906bb9e16755","ios":"levelo://app?vid=5ab4a80e-364b-48b0-a070-906bb9e16755"},"vehicle_type_id":"4","last_reported":1745017749,"current_range_meters":10000,"station_id":"ce4bhr12rcd13ifvqhpg","pricing_plan_id":"cebpf4jnsgd1na2vs0mg"},{"bike_id":"4bcaca61-be58-49cf-89c9-274b98e3c699","system_id":"levelo_inurba_marseille","lat":43.32031,"lon":5.38124,"is_reserved":false,"is_disabled":true,"rental_uris":{"android":"levelo://app?vid=4bcaca61-be58-49cf-89c9-274b98e3c699","ios":"levelo://app?vid=4bcaca61-be58-49cf-89c9-274b98e3c699"},"vehicle_type_id":"4","last_reported":1745017749,"current_range_meters":10000,"station_id":"","pricing_plan_id":"cebpf4jnsgd1na2vs0mg"},{"bike_id":"b8a785f7-fe23-4c1f-8a9b-62bbbd08b152","system_id":"levelo_inurba_marseille","lat":43.30941,"lon":5.40164,"is_reserved":false,"is_disabled":false,"rental_uris":{"android":"levelo://app?vid=b8a785f7-fe23-4c1f-8a9b-62bbbd08b152","ios":"levelo://app?vid=b8a785f7-fe23-4c1f-8a9b-62bbbd08b152"},"vehicle_type_id":"4","last_reported":1745017749,"current_range_meters":10000,"station_id":"ce4bgvp2rcd13ifvqct0","pricing_plan_id":"cebpf4jnsgd1na2vs0mg"},{"bike_id":"3fb00f12-f422-4c57-93cf-c85631c66627","system_id":"levelo_inurba_marseille","lat":43.28934,"lon":5.39541,"is_reserved":false,"is_disabled":false,"rental_uris":{"android":"levelo://app?vid=3fb00f12-f422-4c57-93cf-c85631c66627","ios":"levelo://app?vid=3fb00f12-f422-4c57-93cf-c85631c66627"},"vehicle_type_id":"4","last_reported":1745017749,"current_range_meters":10000,"station_id":"","pricing_plan_id":"cebpf4jnsgd1na2vs0mg"},{"bike_id":"b15e27ad-de07-4803-9d00-be655444ee0a","system_id":"levelo_inurba_marseille","lat":43.29515,"lon":5.38506,"is_reserved":false,"is_disabled":false,"rental_uris":{"android":"levelo://app?vid=b15e27ad-de07-4803-9d00-be655444ee0a","ios":"levelo://app?vid=b15e27ad-de07-4803-9d00-be655444ee0a"},"vehicle_type_id":"4","last_reported":1745017749,"current_range_meters":10000,"station_id":"ce4bgih2rcd13ifvqba0","pricing_plan_id":"cebpf4jnsgd1na2vs0mg"},{"bike_id":"5cc4ab36-5db0-4c0d-b4ca-910b35d078e0","system_id":"levelo_inurba_marseille","lat":43.28698,"lon":5.37411,"is_reserved":false,"is_disabled":false,"rental_uris":{"android":"levelo://app?vid=5cc4ab36-5db0-4c0d-b4ca-910b35d078e0","ios":"levelo://app?vid=5cc4ab36-5db0-4c0d-b4ca-910b35d078e0"},"vehicle_type_id":"4","last_reported":1745017749,"current_range_meters":10000,"station_id":"ce4bh3p2rcd13ifvqdq0","pricing_plan_id":"cebpf4jnsgd1na2vs0mg"},{"bike_id":"f7712f1b-5021-4835-a1d3-2c2279365bb2","system_id":"levelo_inurba_marseille","lat":43.30704,"lon":5.37383,"is_reserved":false,"is_disabled":false,"rental_uris":{"android":"levelo://app?vid=f7712f1b-5021-4835-a1d3-2c2279365bb2","ios":"levelo://app?vid=f7712f1b-5021-4835-a1d3-2c2279365bb2"},"vehicle_type_id":"4","last_reported":1745017749,"current_range_meters":10000,"station_id":"","pricing_plan_id":"cebpf4jnsgd1na2vs0mg"},{"bike_id":"b8e7cfe3-9b4f-494c-acb8-c2d43559a0c5","system_id":"levelo_inurba_marseille","lat":43.29036,"lon":5.39975,"is_reserved":false,"is_disabled":false,"rental_uris":{"android":"levelo://app?vid=b8e7cfe3-9b4f-494c-acb8-c2d43559a0c5","ios":"levelo://app?vid=b8e7cfe3-9b4f-494c-acb8-c2d43559a0c5"},"vehicle_type_id":"4","last_reported":1745017749,"current_range_meters":10000,"station_id":"ce4bh392rcd13ifvqdm0","pricing_plan_id":"cebpf4jnsgd1na2vs0mg"},{"bike_id":"934a8fc0-98f8-4aaf-a145-d485dee937c7","system_id":"levelo_inurba_marseille","lat":43.3236,"lon":5.36762,"is_reserved":false,"is_disabled":false,"rental_uris":{"android":"levelo://app?vid=934a8fc0-98f8-4aaf-a145-d485dee937c7","ios":"levelo://app?vid=934a8fc0-98f8-4aaf-a145-d485dee937c7"},"vehicle_type_id":"4","last_reported":1745017749,"current_range_meters":10000,"station_id":"ce4bhsh2rcd13ifvqi2g","pricing_plan_id":"cebpf4jnsgd1na2vs0mg"},{"bike_id":"58bb2149-9d82-4392-b8d2-5359a25b9ceb","system_id":"levelo_inurba_marseille","lat":43.23967,"lon":5.36634,"is_reserved":false,"is_disabled":false,"rental_uris":{"android":"levelo://app?vid=58bb2149-9d82-4392-b8d2-5359a25b9ceb","ios":"levelo://app?vid=58bb2149-9d82-4392-b8d2-5359a25b9ceb"},"vehicle_type_id":"4","last_reported":1745017749,"current_range_meters":10000,"station_id":"ce4bhi12rcd13ifvqfp0","pricing_plan_id":"cebpf4jnsgd1na2vs0mg"},{"bike_id":"90e903d2-34b6-47e1-930e-acbe25fa18ab","system_id":"levelo_inurba_marseille","lat":43.30441,"lon":5.38896,"is_reserved":false,"is_disabled":false,"rental_uris":{"android":"levelo://app?vid=90e903d2-34b6-47e1-930e-acbe25fa18ab","ios":"levelo://app?vid=90e903d2-34b6-47e1-930e-acbe25fa18ab"},"vehicle_type_id":"4","last_reported":1745017749,"current_range_meters":10800,"station_id":"ce4bgk12rcd13ifvqbi0","pricing_plan_id":"cebpf4jnsgd1na2vs0mg"},{"bike_id":"ab6c3752-2f5d-4f8e-bcb2-21fd83d3918e","system_id":"levelo_inurba_marseille","lat":43.28741,"lon":5.38945,"is_reserved":false,"is_disabled":false,"rental_uris":{"android":"levelo://app?vid=ab6c3752-2f5d-4f8e-bcb2-21fd83d3918e","ios":"levelo://app?vid=ab6c3752-2f5d-4f8e-bcb2-21fd83d3918e"},"vehicle_type_id":"4","last_reported":1745017749,"current_range_meters":10800,"station_id":"","pricing_plan_id":"cebpf4jnsgd1na2vs0mg"},{"bike_id":"7c9d0069-215b-40b5-8aaf-d3d3120b20d7","system_id":"levelo_inurba_marseille","lat":43.25111,"lon":5.40324,"is_reserved":false,"is_disabled":false,"rental_uris":{"android":"levelo://app?vid=7c9d0069-215b-40b5-8aaf-d3d3120b20d7","ios":"levelo://app?vid=7c9d0069-215b-40b5-8aaf-d3d3120b20d7"},"vehicle_type_id":"4","last_reported":1745017749,"current_range_meters":10800,"station_id":"ce4bhlh2rcd13ifvqgig","pricing_plan_id":"cebpf4jnsgd1na2vs0mg"},{"bike_id":"7301dcac-47b5-420b-abff-495115cda201","system_id":"levelo_inurba_marseille","lat":43.30952,"lon":5.39026,"is_reserved":false,"is_disabled":false,"rental_uris":{"android":"levelo://app?vid=7301dcac-47b5-420b-abff-495115cda201","ios":"levelo://app?vid=7301dcac-47b5-420b-abff-495115cda201"},"vehicle_type_id":"4","last_reported":1745017749,"current_range_meters":10800,"station_id":"ce4bgup2rcd13ifvqco0","pricing_plan_id":"cebpf4jnsgd1na2vs0mg"},{"bike_id":"bbdae97f-3063-403b-93bc-27b471984002","system_id":"levelo_inurba_marseille","lat":43.27577,"lon":5.38429,"is_reserved":false,"is_disabled":false,"rental_uris":{"android":"levelo://app?vid=bbdae97f-3063-403b-93bc-27b471984002","ios":"levelo://app?vid=bbdae97f-3063-403b-93bc-27b471984002"},"vehicle_type_id":"4","last_reported":1745017749,"current_range_meters":10800,"station_id":"ce4bhh92rcd13ifvqfi0","pricing_plan_id":"cebpf4jnsgd1na2vs0mg"},{"bike_id":"aa3e78a4-6d31-41b6-8224-e85124b1f14d","system_id":"levelo_inurba_marseille","lat":43.3134,"lon":5.39688,"is_reserved":false,"is_disabled":false,"rental_uris":{"android":"levelo://app?vid=aa3e78a4-6d31-41b6-8224-e85124b1f14d","ios":"levelo://app?vid=aa3e78a4-6d31-41b6-8224-e85124b1f14d"},"vehicle_type_id":"4","last_reported":1745017749,"current_range_meters":10800,"station_id":"ce4bgvp2rcd13ifvqcu0","pricing_plan_id":"cebpf4jnsgd1na2vs0mg"},{"bike_id":"84cf32ce-de0f-4700-89f3-151cf63311a2","system_id":"levelo_inurba_marseille","lat":43.30131,"lon":5.39844,"is_reserved":false,"is_disabled":false,"rental_uris":{"android":"levelo://app?vid=84cf32ce-de0f-4700-89f3-151cf63311a2","ios":"levelo://app?vid=84cf32ce-de0f-4700-89f3-151cf63311a2"},"vehicle_type_id":"4","last_reported":1745017749,"current_range_meters":10800,"station_id":"ce4bh0h2rcd13ifvqd40","pricing_plan_id":"cebpf4jnsgd1na2vs0mg"},{"bike_id":"179a2527-c8fd-44bd-81bc-1520f07a9b3f","system_id":"levelo_inurba_marseille","lat":43.27951,"lon":5.41036,"is_reserved":false,"is_disabled":false,"rental_uris":{"android":"levelo://app?vid=179a2527-c8fd-44bd-81bc-1520f07a9b3f","ios":"levelo://app?vid=179a2527-c8fd-44bd-81bc-1520f07a9b3f"},"vehicle_type_id":"4","last_reported":1745017749,"current_range_meters":10800,"station_id":"ce4bhnp2rcd13ifvqh0g","pricing_plan_id":"cebpf4jnsgd1na2vs0mg"},{"bike_id":"da54d534-cdfc-4dbf-9f0d-6cfc2a37323d","system_id":"levelo_inurba_marseille","lat":43.23333,"lon":5.36142,"is_reserved":false,"is_disabled":false,"rental_uris":{"android":"levelo://app?vid=da54d534-cdfc-4dbf-9f0d-6cfc2a37323d","ios":"levelo://app?vid=da54d534-cdfc-4dbf-9f0d-6cfc2a37323d"},"vehicle_type_id":"4","last_reported":1745017749,"current_range_meters":10800,"station_id":"","pricing_plan_id":"cebpf4jnsgd1na2vs0mg"},{"bike_id":"d98c8943-ac7a-4da7-8de5-14165c794b38","system_id":"levelo_inurba_marseille","lat":43.30964,"lon":5.3903,"is_reserved":false,"is_disabled":false,"rental_uris":{"android":"levelo://app?vid=d98c8943-ac7a-4da7-8de5-14165c794b38","ios":"levelo://app?vid=d98c8943-ac7a-4da7-8de5-14165c794b38"},"vehicle_type_id":"4","last_reported":1745017749,"current_range_meters":11200,"station_id":"ce4bgup2rcd13ifvqco0","pricing_plan_id":"cebpf4jnsgd1na2vs0mg"},{"bike_id":"5a1a0cfb-961a-4fdf-8367-a88331f7ed61","system_id":"levelo_inurba_marseille","lat":43.29282,"lon":5.40116,"is_reserved":false,"is_disabled":false,"rental_uris":{"android":"levelo://app?vid=5a1a0cfb-961a-4fdf-8367-a88331f7ed61","ios":"levelo://app?vid=5a1a0cfb-961a-4fdf-8367-a88331f7ed61"},"vehicle_type_id":"4","last_reported":1745017749,"current_range_meters":11200,"station_id":"ce4bh312rcd13ifvqdk0","pricing_plan_id":"cebpf4jnsgd1na2vs0mg"},{"bike_id":"ae9e2363-f8d9-454b-9775-d8931f5e5150","system_id":"levelo_inurba_marseille","lat":43.29026,"lon":5.38648,"is_reserved":false,"is_disabled":false,"rental_uris":{"android":"levelo://app?vid=ae9e2363-f8d9-454b-9775-d8931f5e5150","ios":"levelo://app?vid=ae9e2363-f8d9-454b-9775-d8931f5e5150"},"vehicle_type_id":"4","last_reported":1745017749,"current_range_meters":11200,"station_id":"ce4bh4p2rcd13ifvqe0g","pricing_plan_id":"cebpf4jnsgd1na2vs0mg"},{"bike_id":"69085267-76d4-493a-a756-a7cd25a24e74","system_id":"levelo_inurba_marseille","lat":43.29532,"lon":5.38544,"is_reserved":false,"is_disabled":false,"rental_uris":{"android":"levelo://app?vid=69085267-76d4-493a-a756-a7cd25a24e74","ios":"levelo://app?vid=69085267-76d4-493a-a756-a7cd25a24e74"},"vehicle_type_id":"4","last_reported":1745017749,"current_range_meters":11200,"station_id":"ce4bgih2rcd13ifvqba0","pricing_plan_id":"cebpf4jnsgd1na2vs0mg"},{"bike_id":"2f0b555a-8b00-4b9a-bde9-3456a41b38a3","system_id":"levelo_inurba_marseille","lat":43.286837,"lon":5.386683,"is_reserved":false,"is_disabled":false,"rental_uris":{"android":"levelo://app?vid=2f0b555a-8b00-4b9a-bde9-3456a41b38a3","ios":"levelo://app?vid=2f0b555a-8b00-4b9a-bde9-3456a41b38a3"},"vehicle_type_id":"4","last_reported":1745017749,"current_range_meters":11200,"station_id":"ce4bh492rcd13ifvqdug","pricing_plan_id":"cebpf4jnsgd1na2vs0mg"},{"bike_id":"b0c93887-c8b0-40a5-82a2-85f46145127c","system_id":"levelo_inurba_marseille","lat":43.28838,"lon":5.39336,"is_reserved":false,"is_disabled":false,"rental_uris":{"android":"levelo://app?vid=b0c93887-c8b0-40a5-82a2-85f46145127c","ios":"levelo://app?vid=b0c93887-c8b0-40a5-82a2-85f46145127c"},"vehicle_type_id":"4","last_reported":1745017749,"current_range_meters":11200,"station_id":"ce4bh2p2rcd13ifvqdi0","pricing_plan_id":"cebpf4jnsgd1na2vs0mg"},{"bike_id":"272a699a-1338-4817-b43f-f3a545f75518","system_id":"levelo_inurba_marseille","lat":43.24057,"lon":5.37776,"is_reserved":false,"is_disabled":false,"rental_uris":{"android":"levelo://app?vid=272a699a-1338-4817-b43f-f3a545f75518","ios":"levelo://app?vid=272a699a-1338-4817-b43f-f3a545f75518"},"vehicle_type_id":"4","last_reported":1745017749,"current_range_meters":11200,"station_id":"ce4bhnp2rcd13ifvqgvg","pricing_plan_id":"cebpf4jnsgd1na2vs0mg"},{"bike_id":"a0ddb0a5-f7f0-4281-aa27-9e82747cc573","system_id":"levelo_inurba_marseille","lat":43.33754,"lon":5.37491,"is_reserved":false,"is_disabled":false,"rental_uris":{"android":"levelo://app?vid=a0ddb0a5-f7f0-4281-aa27-9e82747cc573","ios":"levelo://app?vid=a0ddb0a5-f7f0-4281-aa27-9e82747cc573"},"vehicle_type_id":"4","last_reported":1745017749,"current_range_meters":11200,"station_id":"","pricing_plan_id":"cebpf4jnsgd1na2vs0mg"},{"bike_id":"c09b1ff6-1e1f-4cd6-9ee9-4e1b23955bbc","system_id":"levelo_inurba_marseille","lat":43.231965,"lon":5.355517,"is_reserved":false,"is_disabled":true,"rental_uris":{"android":"levelo://app?vid=c09b1ff6-1e1f-4cd6-9ee9-4e1b23955bbc","ios":"levelo://app?vid=c09b1ff6-1e1f-4cd6-9ee9-4e1b23955bbc"},"vehicle_type_id":"4","last_reported":1745017749,"current_range_meters":11600,"station_id":"ce4bhu92rcd13ifvqi70","pricing_plan_id":"cebpf4jnsgd1na2vs0mg"},{"bike_id":"c4bcafd0-082d-45fa-803c-dff2730193fb","system_id":"levelo_inurba_marseille","lat":43.30776,"lon":5.37651,"is_reserved":false,"is_disabled":false,"rental_uris":{"android":"levelo://app?vid=c4bcafd0-082d-45fa-803c-dff2730193fb","ios":"levelo://app?vid=c4bcafd0-082d-45fa-803c-dff2730193fb"},"vehicle_type_id":"4","last_reported":1745017749,"current_range_meters":11600,"station_id":"ce4bgv92rcd13ifvqcq0","pricing_plan_id":"cebpf4jnsgd1na2vs0mg"},{"bike_id":"33efbe4e-e642-4271-be29-4926b421ca5b","system_id":"levelo_inurba_marseille","lat":43.24173,"lon":5.36387,"is_reserved":false,"is_disabled":false,"rental_uris":{"android":"levelo://app?vid=33efbe4e-e642-4271-be29-4926b421ca5b","ios":"levelo://app?vid=33efbe4e-e642-4271-be29-4926b421ca5b"},"vehicle_type_id":"4","last_reported":1745017749,"current_range_meters":11600,"station_id":"cpo36qri1sfpv3e86is0","pricing_plan_id":"cebpf4jnsgd1na2vs0mg"},{"bike_id":"65a8c467-2326-4d6c-a345-fed0be6feffe","system_id":"levelo_inurba_marseille","lat":43.249943,"lon":5.389376,"is_reserved":false,"is_disabled":false,"rental_uris":{"android":"levelo://app?vid=65a8c467-2326-4d6c-a345-fed0be6feffe","ios":"levelo://app?vid=65a8c467-2326-4d6c-a345-fed0be6feffe"},"vehicle_type_id":"4","last_reported":1745017749,"current_range_meters":11600,"station_id":"ce4bhgp2rcd13ifvqfd0","pricing_plan_id":"cebpf4jnsgd1na2vs0mg"},{"bike_id":"a28a3f8c-38fc-4308-b382-75c9a725c27e","system_id":"levelo_inurba_marseille","lat":43.2942,"lon":5.38618,"is_reserved":false,"is_disabled":false,"rental_uris":{"android":"levelo://app?vid=a28a3f8c-38fc-4308-b382-75c9a725c27e","ios":"levelo://app?vid=a28a3f8c-38fc-4308-b382-75c9a725c27e"},"vehicle_type_id":"4","last_reported":1745017749,"current_range_meters":11600,"station_id":"ce4bh2h2rcd13ifvqdh0","pricing_plan_id":"cebpf4jnsgd1na2vs0mg"},{"bike_id":"849dd848-4d9a-4fe9-913e-15460c69c2ef","system_id":"levelo_inurba_marseille","lat":43.294143,"lon":5.386233,"is_reserved":false,"is_disabled":false,"rental_uris":{"android":"levelo://app?vid=849dd848-4d9a-4fe9-913e-15460c69c2ef","ios":"levelo://app?vid=849dd848-4d9a-4fe9-913e-15460c69c2ef"},"vehicle_type_id":"4","last_reported":1745017749,"current_range_meters":11600,"station_id":"ce4bgvp2rcd13ifvqct0","pricing_plan_id":"cebpf4jnsgd1na2vs0mg"},{"bike_id":"badd0c1d-5484-4915-a749-85b498add492","system_id":"levelo_inurba_marseille","lat":43.30133,"lon":5.39858,"is_reserved":false,"is_disabled":false,"rental_uris":{"android":"levelo://app?vid=badd0c1d-5484-4915-a749-85b498add492","ios":"levelo://app?vid=badd0c1d-5484-4915-a749-85b498add492"},"vehicle_type_id":"4","last_reported":1745017749,"current_range_meters":12000,"station_id":"ce4bh0h2rcd13ifvqd40","pricing_plan_id":"cebpf4jnsgd1na2vs0mg"},{"bike_id":"f416c85b-02da-4464-8d07-0bb230112521","system_id":"levelo_inurba_marseille","lat":43.28719,"lon":5.36084,"is_reserved":false,"is_disabled":false,"rental_uris":{"android":"levelo://app?vid=f416c85b-02da-4464-8d07-0bb230112521","ios":"levelo://app?vid=f416c85b-02da-4464-8d07-0bb230112521"},"vehicle_type_id":"4","last_reported":1745017749,"current_range_meters":12000,"station_id":"cki0cbj6b192h4jlfktg","pricing_plan_id":"cebpf4jnsgd1na2vs0mg"},{"bike_id":"8c670b51-be7c-49cb-b062-65b1e107396e","system_id":"levelo_inurba_marseille","lat":43.2848,"lon":5.38416,"is_reserved":false,"is_disabled":false,"rental_uris":{"android":"levelo://app?vid=8c670b51-be7c-49cb-b062-65b1e107396e","ios":"levelo://app?vid=8c670b51-be7c-49cb-b062-65b1e107396e"},"vehicle_type_id":"4","last_reported":1745017749,"current_range_meters":12000,"station_id":"ce4bh512rcd13ifvqe3g","pricing_plan_id":"cebpf4jnsgd1na2vs0mg"},{"bike_id":"e18ee3c3-1639-4152-b0fe-39f72e453b50","system_id":"levelo_inurba_marseille","lat":43.31346,"lon":5.39697,"is_reserved":false,"is_disabled":false,"rental_uris":{"android":"levelo://app?vid=e18ee3c3-1639-4152-b0fe-39f72e453b50","ios":"levelo://app?vid=e18ee3c3-1639-4152-b0fe-39f72e453b50"},"vehicle_type_id":"4","last_reported":1745017749,"current_range_meters":12000,"station_id":"ce4bgvp2rcd13ifvqcu0","pricing_plan_id":"cebpf4jnsgd1na2vs0mg"},{"bike_id":"98b5a501-5ba1-458b-b7ba-3acf11a9913a","system_id":"levelo_inurba_marseille","lat":43.29258,"lon":5.40894,"is_reserved":false,"is_disabled":false,"rental_uris":{"android":"levelo://app?vid=98b5a501-5ba1-458b-b7ba-3acf11a9913a","ios":"levelo://app?vid=98b5a501-5ba1-458b-b7ba-3acf11a9913a"},"vehicle_type_id":"4","last_reported":1745017749,"current_range_meters":12000,"station_id":"ce4bh192rcd13ifvqdc0","pricing_plan_id":"cebpf4jnsgd1na2vs0mg"},{"bike_id":"f20e959b-c44b-408a-9ce0-528c58cee28f","system_id":"levelo_inurba_marseille","lat":43.30957,"lon":5.39047,"is_reserved":false,"is_disabled":false,"rental_uris":{"android":"levelo://app?vid=f20e959b-c44b-408a-9ce0-528c58cee28f","ios":"levelo://app?vid=f20e959b-c44b-408a-9ce0-528c58cee28f"},"vehicle_type_id":"4","last_reported":1745017749,"current_range_meters":12000,"station_id":"ce4bgup2rcd13ifvqco0","pricing_plan_id":"cebpf4jnsgd1na2vs0mg"},{"bike_id":"6f523da1-5f60-475c-93df-7a5b709bcac9","system_id":"levelo_inurba_marseille","lat":43.23204,"lon":5.35548,"is_reserved":false,"is_disabled":false,"rental_uris":{"android":"levelo://app?vid=6f523da1-5f60-475c-93df-7a5b709bcac9","ios":"levelo://app?vid=6f523da1-5f60-475c-93df-7a5b709bcac9"},"vehicle_type_id":"4","last_reported":1745017749,"current_range_meters":12000,"station_id":"ce4bhu92rcd13ifvqi70","pricing_plan_id":"cebpf4jnsgd1na2vs0mg"},{"bike_id":"ef6e9c6f-8f69-4fcf-9727-b556a001e5bc","system_id":"levelo_inurba_marseille","lat":43.29568,"lon":5.42283,"is_reserved":false,"is_disabled":false,"rental_uris":{"android":"levelo://app?vid=ef6e9c6f-8f69-4fcf-9727-b556a001e5bc","ios":"levelo://app?vid=ef6e9c6f-8f69-4fcf-9727-b556a001e5bc"},"vehicle_type_id":"4","last_reported":1745017749,"current_range_meters":12000,"station_id":"ce4bhph2rcd13ifvqhdg","pricing_plan_id":"cebpf4jnsgd1na2vs0mg"},{"bike_id":"2a261f88-3764-4cba-8208-7dface0e9631","system_id":"levelo_inurba_marseille","lat":43.28935,"lon":5.3663,"is_reserved":false,"is_disabled":false,"rental_uris":{"android":"levelo://app?vid=2a261f88-3764-4cba-8208-7dface0e9631","ios":"levelo://app?vid=2a261f88-3764-4cba-8208-7dface0e9631"},"vehicle_type_id":"4","last_reported":1745017749,"current_range_meters":12000,"station_id":"ce4bhap2rcd13ifvqek0","pricing_plan_id":"cebpf4jnsgd1na2vs0mg"},{"bike_id":"6cd98a68-dfc0-4aef-a25d-03e1f7826476","system_id":"levelo_inurba_marseille","lat":43.236811,"lon":5.377676,"is_reserved":false,"is_disabled":false,"rental_uris":{"android":"levelo://app?vid=6cd98a68-dfc0-4aef-a25d-03e1f7826476","ios":"levelo://app?vid=6cd98a68-dfc0-4aef-a25d-03e1f7826476"},"vehicle_type_id":"4","last_reported":1745017749,"current_range_meters":12400,"station_id":"","pricing_plan_id":"cebpf4jnsgd1na2vs0mg"},{"bike_id":"68342d9f-f0b6-47e7-b690-b27078e67a77","system_id":"levelo_inurba_marseille","lat":43.241656,"lon":5.364018,"is_reserved":false,"is_disabled":false,"rental_uris":{"android":"levelo://app?vid=68342d9f-f0b6-47e7-b690-b27078e67a77","ios":"levelo://app?vid=68342d9f-f0b6-47e7-b690-b27078e67a77"},"vehicle_type_id":"4","last_reported":1745017749,"current_range_meters":12400,"station_id":"cpo36qri1sfpv3e86is0","pricing_plan_id":"cebpf4jnsgd1na2vs0mg"},{"bike_id":"34e9dccb-d114-43d7-ab3e-a86d98ec1d22","system_id":"levelo_inurba_marseille","lat":43.28351,"lon":5.38108,"is_reserved":false,"is_disabled":false,"rental_uris":{"android":"levelo://app?vid=34e9dccb-d114-43d7-ab3e-a86d98ec1d22","ios":"levelo://app?vid=34e9dccb-d114-43d7-ab3e-a86d98ec1d22"},"vehicle_type_id":"4","last_reported":1745017749,"current_range_meters":12400,"station_id":"ce4bh412rcd13ifvqdr0","pricing_plan_id":"cebpf4jnsgd1na2vs0mg"},{"bike_id":"fa0d6a60-4a49-44b2-a9e9-4a894251bc74","system_id":"levelo_inurba_marseille","lat":43.30416,"lon":5.39746,"is_reserved":false,"is_disabled":false,"rental_uris":{"android":"levelo://app?vid=fa0d6a60-4a49-44b2-a9e9-4a894251bc74","ios":"levelo://app?vid=fa0d6a60-4a49-44b2-a9e9-4a894251bc74"},"vehicle_type_id":"4","last_reported":1745017749,"current_range_meters":12400,"station_id":"ce4bh092rcd13ifvqd20","pricing_plan_id":"cebpf4jnsgd1na2vs0mg"},{"bike_id":"b64580f3-77aa-4f84-ae0b-a42e093c1fc3","system_id":"levelo_inurba_marseille","lat":43.28939,"lon":5.36641,"is_reserved":false,"is_disabled":false,"rental_uris":{"android":"levelo://app?vid=b64580f3-77aa-4f84-ae0b-a42e093c1fc3","ios":"levelo://app?vid=b64580f3-77aa-4f84-ae0b-a42e093c1fc3"},"vehicle_type_id":"4","last_reported":1745017749,"current_range_meters":12400,"station_id":"ce4bhap2rcd13ifvqek0","pricing_plan_id":"cebpf4jnsgd1na2vs0mg"},{"bike_id":"7eb8853e-3665-40f5-8308-1299f0674652","system_id":"levelo_inurba_marseille","lat":43.303755,"lon":5.424862,"is_reserved":false,"is_disabled":false,"rental_uris":{"android":"levelo://app?vid=7eb8853e-3665-40f5-8308-1299f0674652","ios":"levelo://app?vid=7eb8853e-3665-40f5-8308-1299f0674652"},"vehicle_type_id":"4","last_reported":1745017749,"current_range_meters":12400,"station_id":"ce4bhoh2rcd13ifvqh6g","pricing_plan_id":"cebpf4jnsgd1na2vs0mg"},{"bike_id":"18f35c7e-e2f0-4fb5-af01-54d1c0b2323b","system_id":"levelo_inurba_marseille","lat":43.295266,"lon":5.3854,"is_reserved":false,"is_disabled":false,"rental_uris":{"android":"levelo://app?vid=18f35c7e-e2f0-4fb5-af01-54d1c0b2323b","ios":"levelo://app?vid=18f35c7e-e2f0-4fb5-af01-54d1c0b2323b"},"vehicle_type_id":"4","last_reported":1745017749,"current_range_meters":12400,"station_id":"ce4bgih2rcd13ifvqba0","pricing_plan_id":"cebpf4jnsgd1na2vs0mg"},{"bike_id":"e6dd6ae1-3bcb-4010-8c4f-946f95c5cd66","system_id":"levelo_inurba_marseille","lat":43.28904,"lon":5.35825,"is_reserved":false,"is_disabled":true,"rental_uris":{"android":"levelo://app?vid=e6dd6ae1-3bcb-4010-8c4f-946f95c5cd66","ios":"levelo://app?vid=e6dd6ae1-3bcb-4010-8c4f-946f95c5cd66"},"vehicle_type_id":"4","last_reported":1745017749,"current_range_meters":12800,"station_id":"","pricing_plan_id":"cebpf4jnsgd1na2vs0mg"},{"bike_id":"1eaca8f5-0017-418a-9bfc-52185bf67513","system_id":"levelo_inurba_marseille","lat":43.33731,"lon":5.39179,"is_reserved":false,"is_disabled":false,"rental_uris":{"android":"levelo://app?vid=1eaca8f5-0017-418a-9bfc-52185bf67513","ios":"levelo://app?vid=1eaca8f5-0017-418a-9bfc-52185bf67513"},"vehicle_type_id":"4","last_reported":1745017749,"current_range_meters":12800,"station_id":"ce4bhr92rcd13ifvqhsg","pricing_plan_id":"cebpf4jnsgd1na2vs0mg"},{"bike_id":"709594ef-4d5a-43e4-8bb0-c482c9fa12f8","system_id":"levelo_inurba_marseille","lat":43.30882,"lon":5.39618,"is_reserved":false,"is_disabled":true,"rental_uris":{"android":"levelo://app?vid=709594ef-4d5a-43e4-8bb0-c482c9fa12f8","ios":"levelo://app?vid=709594ef-4d5a-43e4-8bb0-c482c9fa12f8"},"vehicle_type_id":"4","last_reported":1745017749,"current_range_meters":12800,"station_id":"ce4bh012rcd13ifvqcv0","pricing_plan_id":"cebpf4jnsgd1na2vs0mg"},{"bike_id":"ef871c8e-2013-4622-a683-0ab17a74d870","system_id":"levelo_inurba_marseille","lat":43.23202,"lon":5.35557,"is_reserved":false,"is_disabled":true,"rental_uris":{"android":"levelo://app?vid=ef871c8e-2013-4622-a683-0ab17a74d870","ios":"levelo://app?vid=ef871c8e-2013-4622-a683-0ab17a74d870"},"vehicle_type_id":"4","last_reported":1745017749,"current_range_meters":12800,"station_id":"ce4bhu92rcd13ifvqi70","pricing_plan_id":"cebpf4jnsgd1na2vs0mg"},{"bike_id":"ed96664b-be68-4d8e-885b-88ee1ce7b22c","system_id":"levelo_inurba_marseille","lat":43.28854,"lon":5.35845,"is_reserved":false,"is_disabled":false,"rental_uris":{"android":"levelo://app?vid=ed96664b-be68-4d8e-885b-88ee1ce7b22c","ios":"levelo://app?vid=ed96664b-be68-4d8e-885b-88ee1ce7b22c"},"vehicle_type_id":"4","last_reported":1745017749,"current_range_meters":12800,"station_id":"ce4bhb12rcd13ifvqem0","pricing_plan_id":"cebpf4jnsgd1na2vs0mg"},{"bike_id":"a182179b-5ced-48e0-990f-8b22a6960899","system_id":"levelo_inurba_marseille","lat":43.302586,"lon":5.400832,"is_reserved":false,"is_disabled":false,"rental_uris":{"android":"levelo://app?vid=a182179b-5ced-48e0-990f-8b22a6960899","ios":"levelo://app?vid=a182179b-5ced-48e0-990f-8b22a6960899"},"vehicle_type_id":"4","last_reported":1745017749,"current_range_meters":12800,"station_id":"ce4bgvh2rcd13ifvqcs0","pricing_plan_id":"cebpf4jnsgd1na2vs0mg"},{"bike_id":"110c4abb-ffb8-4fd0-ba35-0e68e73379e5","system_id":"levelo_inurba_marseille","lat":43.22935,"lon":5.35391,"is_reserved":false,"is_disabled":false,"rental_uris":{"android":"levelo://app?vid=110c4abb-ffb8-4fd0-ba35-0e68e73379e5","ios":"levelo://app?vid=110c4abb-ffb8-4fd0-ba35-0e68e73379e5"},"vehicle_type_id":"4","last_reported":1745017749,"current_range_meters":12800,"station_id":"cpo3532slgdg3j2ikp40","pricing_plan_id":"cebpf4jnsgd1na2vs0mg"},{"bike_id":"1bb7039b-1ff3-40d5-9434-19afb5933c6f","system_id":"levelo_inurba_marseille","lat":43.29546,"lon":5.38547,"is_reserved":false,"is_disabled":false,"rental_uris":{"android":"levelo://app?vid=1bb7039b-1ff3-40d5-9434-19afb5933c6f","ios":"levelo://app?vid=1bb7039b-1ff3-40d5-9434-19afb5933c6f"},"vehicle_type_id":"4","last_reported":1745017749,"current_range_meters":13600,"station_id":"ce4bgih2rcd13ifvqba0","pricing_plan_id":"cebpf4jnsgd1na2vs0mg"},{"bike_id":"81e9a06e-6198-4ce4-a844-e34ba37775f5","system_id":"levelo_inurba_marseille","lat":43.28736,"lon":5.39977,"is_reserved":false,"is_disabled":false,"rental_uris":{"android":"levelo://app?vid=81e9a06e-6198-4ce4-a844-e34ba37775f5","ios":"levelo://app?vid=81e9a06e-6198-4ce4-a844-e34ba37775f5"},"vehicle_type_id":"4","last_reported":1745017749,"current_range_meters":13600,"station_id":"ce4bho92rcd13ifvqh3g","pricing_plan_id":"cebpf4jnsgd1na2vs0mg"},{"bike_id":"1e43d6fd-6e5a-43f5-bddf-e5b948394d03","system_id":"levelo_inurba_marseille","lat":43.24662,"lon":5.38163,"is_reserved":false,"is_disabled":false,"rental_uris":{"android":"levelo://app?vid=1e43d6fd-6e5a-43f5-bddf-e5b948394d03","ios":"levelo://app?vid=1e43d6fd-6e5a-43f5-bddf-e5b948394d03"},"vehicle_type_id":"4","last_reported":1745017749,"current_range_meters":13600,"station_id":"ce4bhih2rcd13ifvqfr0","pricing_plan_id":"cebpf4jnsgd1na2vs0mg"},{"bike_id":"bf3782b4-2e92-4921-b879-6932b0a135f2","system_id":"levelo_inurba_marseille","lat":43.29293,"lon":5.40167,"is_reserved":false,"is_disabled":false,"rental_uris":{"android":"levelo://app?vid=bf3782b4-2e92-4921-b879-6932b0a135f2","ios":"levelo://app?vid=bf3782b4-2e92-4921-b879-6932b0a135f2"},"vehicle_type_id":"4","last_reported":1745017749,"current_range_meters":13600,"station_id":"ce4bh312rcd13ifvqdk0","pricing_plan_id":"cebpf4jnsgd1na2vs0mg"},{"bike_id":"d07e915f-d9d9-4df4-8d24-9be2f7ee6850","system_id":"levelo_inurba_marseille","lat":43.27678,"lon":5.38863,"is_reserved":false,"is_disabled":false,"rental_uris":{"android":"levelo://app?vid=d07e915f-d9d9-4df4-8d24-9be2f7ee6850","ios":"levelo://app?vid=d07e915f-d9d9-4df4-8d24-9be2f7ee6850"},"vehicle_type_id":"4","last_reported":1745017749,"current_range_meters":13600,"station_id":"ce4bhi12rcd13ifvqfo0","pricing_plan_id":"cebpf4jnsgd1na2vs0mg"},{"bike_id":"7160ae32-8fc4-482b-a644-55cae0c1f5b1","system_id":"levelo_inurba_marseille","lat":43.31017,"lon":5.41708,"is_reserved":false,"is_disabled":false,"rental_uris":{"android":"levelo://app?vid=7160ae32-8fc4-482b-a644-55cae0c1f5b1","ios":"levelo://app?vid=7160ae32-8fc4-482b-a644-55cae0c1f5b1"},"vehicle_type_id":"4","last_reported":1745017749,"current_range_meters":13600,"station_id":"","pricing_plan_id":"cebpf4jnsgd1na2vs0mg"},{"bike_id":"5c4ead29-1e5e-49af-829a-7868c3cf014f","system_id":"levelo_inurba_marseille","lat":43.25103,"lon":5.40334,"is_reserved":false,"is_disabled":false,"rental_uris":{"android":"levelo://app?vid=5c4ead29-1e5e-49af-829a-7868c3cf014f","ios":"levelo://app?vid=5c4ead29-1e5e-49af-829a-7868c3cf014f"},"vehicle_type_id":"4","last_reported":1745017749,"current_range_meters":13600,"station_id":"ce4bhlh2rcd13ifvqgig","pricing_plan_id":"cebpf4jnsgd1na2vs0mg"},{"bike_id":"5d4c9cc0-56a3-468c-9bfd-437b9498da8b","system_id":"levelo_inurba_marseille","lat":43.28346,"lon":5.381159,"is_reserved":false,"is_disabled":false,"rental_uris":{"android":"levelo://app?vid=5d4c9cc0-56a3-468c-9bfd-437b9498da8b","ios":"levelo://app?vid=5d4c9cc0-56a3-468c-9bfd-437b9498da8b"},"vehicle_type_id":"4","last_reported":1745017749,"current_range_meters":13600,"station_id":"ce4bh412rcd13ifvqdr0","pricing_plan_id":"cebpf4jnsgd1na2vs0mg"},{"bike_id":"186380b9-3dab-457b-b648-71d123fa0368","system_id":"levelo_inurba_marseille","lat":43.25099,"lon":5.40296,"is_reserved":false,"is_disabled":true,"rental_uris":{"android":"levelo://app?vid=186380b9-3dab-457b-b648-71d123fa0368","ios":"levelo://app?vid=186380b9-3dab-457b-b648-71d123fa0368"},"vehicle_type_id":"4","last_reported":1745017749,"current_range_meters":13600,"station_id":"ce4bhlh2rcd13ifvqgig","pricing_plan_id":"cebpf4jnsgd1na2vs0mg"},{"bike_id":"657f0301-49ca-40e5-b5d1-08a1faca3fc1","system_id":"levelo_inurba_marseille","lat":43.2956,"lon":5.42265,"is_reserved":false,"is_disabled":false,"rental_uris":{"android":"levelo://app?vid=657f0301-49ca-40e5-b5d1-08a1faca3fc1","ios":"levelo://app?vid=657f0301-49ca-40e5-b5d1-08a1faca3fc1"},"vehicle_type_id":"4","last_reported":1745017749,"current_range_meters":13600,"station_id":"ce4bhph2rcd13ifvqhdg","pricing_plan_id":"cebpf4jnsgd1na2vs0mg"},{"bike_id":"6e82670d-a4ba-4bce-a91a-28c6c7ac4444","system_id":"levelo_inurba_marseille","lat":43.28429,"lon":5.3499,"is_reserved":false,"is_disabled":false,"rental_uris":{"android":"levelo://app?vid=6e82670d-a4ba-4bce-a91a-28c6c7ac4444","ios":"levelo://app?vid=6e82670d-a4ba-4bce-a91a-28c6c7ac4444"},"vehicle_type_id":"4","last_reported":1745017749,"current_range_meters":13600,"station_id":"ce4bhbh2rcd13ifvqepg","pricing_plan_id":"cebpf4jnsgd1na2vs0mg"},{"bike_id":"0c5a7b6a-8f8a-490e-8b9e-89ffdb4e89d7","system_id":"levelo_inurba_marseille","lat":43.306671,"lon":5.373101,"is_reserved":false,"is_disabled":false,"rental_uris":{"android":"levelo://app?vid=0c5a7b6a-8f8a-490e-8b9e-89ffdb4e89d7","ios":"levelo://app?vid=0c5a7b6a-8f8a-490e-8b9e-89ffdb4e89d7"},"vehicle_type_id":"4","last_reported":1745017749,"current_range_meters":13600,"station_id":"ce4bguh2rcd13ifvqckg","pricing_plan_id":"cebpf4jnsgd1na2vs0mg"},{"bike_id":"81d07084-66a1-44dc-ae08-3b708e7b5eb3","system_id":"levelo_inurba_marseille","lat":43.25021,"lon":5.38911,"is_reserved":false,"is_disabled":false,"rental_uris":{"android":"levelo://app?vid=81d07084-66a1-44dc-ae08-3b708e7b5eb3","ios":"levelo://app?vid=81d07084-66a1-44dc-ae08-3b708e7b5eb3"},"vehicle_type_id":"4","last_reported":1745017749,"current_range_meters":14000,"station_id":"ce4bhgp2rcd13ifvqfd0","pricing_plan_id":"cebpf4jnsgd1na2vs0mg"},{"bike_id":"c912c8ba-36d3-48ca-b3ef-9dc937c8459b","system_id":"levelo_inurba_marseille","lat":43.28453,"lon":5.35893,"is_reserved":false,"is_disabled":false,"rental_uris":{"android":"levelo://app?vid=c912c8ba-36d3-48ca-b3ef-9dc937c8459b","ios":"levelo://app?vid=c912c8ba-36d3-48ca-b3ef-9dc937c8459b"},"vehicle_type_id":"4","last_reported":1745017749,"current_range_meters":13600,"station_id":"ce4bhah2rcd13ifvqei0","pricing_plan_id":"cebpf4jnsgd1na2vs0mg"},{"bike_id":"789c3822-56ca-4769-bcd4-8845bdea2fda","system_id":"levelo_inurba_marseille","lat":43.24162,"lon":5.36399,"is_reserved":false,"is_disabled":false,"rental_uris":{"android":"levelo://app?vid=789c3822-56ca-4769-bcd4-8845bdea2fda","ios":"levelo://app?vid=789c3822-56ca-4769-bcd4-8845bdea2fda"},"vehicle_type_id":"4","last_reported":1745017749,"current_range_meters":14400,"station_id":"cpo36qri1sfpv3e86is0","pricing_plan_id":"cebpf4jnsgd1na2vs0mg"},{"bike_id":"b6821e5f-2b42-4cde-8784-0fb0fe3fb2be","system_id":"levelo_inurba_marseille","lat":43.24649,"lon":5.38171,"is_reserved":false,"is_disabled":false,"rental_uris":{"android":"levelo://app?vid=b6821e5f-2b42-4cde-8784-0fb0fe3fb2be","ios":"levelo://app?vid=b6821e5f-2b42-4cde-8784-0fb0fe3fb2be"},"vehicle_type_id":"4","last_reported":1745017749,"current_range_meters":14400,"station_id":"ce4bhih2rcd13ifvqfr0","pricing_plan_id":"cebpf4jnsgd1na2vs0mg"},{"bike_id":"b7cfcbff-b811-4e97-a92e-f6c2ee394bd7","system_id":"levelo_inurba_marseille","lat":43.30884,"lon":5.39626,"is_reserved":false,"is_disabled":false,"rental_uris":{"android":"levelo://app?vid=b7cfcbff-b811-4e97-a92e-f6c2ee394bd7","ios":"levelo://app?vid=b7cfcbff-b811-4e97-a92e-f6c2ee394bd7"},"vehicle_type_id":"4","last_reported":1745017749,"current_range_meters":14400,"station_id":"ce4bh012rcd13ifvqcv0","pricing_plan_id":"cebpf4jnsgd1na2vs0mg"},{"bike_id":"3d53fb8f-d27f-486b-a5bb-b5433b10d416","system_id":"levelo_inurba_marseille","lat":43.3091,"lon":5.36843,"is_reserved":false,"is_disabled":false,"rental_uris":{"android":"levelo://app?vid=3d53fb8f-d27f-486b-a5bb-b5433b10d416","ios":"levelo://app?vid=3d53fb8f-d27f-486b-a5bb-b5433b10d416"},"vehicle_type_id":"4","last_reported":1745017749,"current_range_meters":14400,"station_id":"ce4bgn92rcd13ifvqbvg","pricing_plan_id":"cebpf4jnsgd1na2vs0mg"},{"bike_id":"532db8a2-9c3b-4279-8acd-df6783b82887","system_id":"levelo_inurba_marseille","lat":43.31239,"lon":5.40182,"is_reserved":false,"is_disabled":false,"rental_uris":{"android":"levelo://app?vid=532db8a2-9c3b-4279-8acd-df6783b82887","ios":"levelo://app?vid=532db8a2-9c3b-4279-8acd-df6783b82887"},"vehicle_type_id":"4","last_reported":1745017749,"current_range_meters":14400,"station_id":"ce4bh092rcd13ifvqd30","pricing_plan_id":"cebpf4jnsgd1na2vs0mg"},{"bike_id":"6d5d253b-ca89-4ff7-8f38-ab2e14a41120","system_id":"levelo_inurba_marseille","lat":43.27676,"lon":5.38886,"is_reserved":false,"is_disabled":false,"rental_uris":{"android":"levelo://app?vid=6d5d253b-ca89-4ff7-8f38-ab2e14a41120","ios":"levelo://app?vid=6d5d253b-ca89-4ff7-8f38-ab2e14a41120"},"vehicle_type_id":"4","last_reported":1745017749,"current_range_meters":14400,"station_id":"ce4bhi12rcd13ifvqfo0","pricing_plan_id":"cebpf4jnsgd1na2vs0mg"},{"bike_id":"97e50bb0-9a70-481b-b370-e509345e710a","system_id":"levelo_inurba_marseille","lat":43.28042,"lon":5.36943,"is_reserved":false,"is_disabled":true,"rental_uris":{"android":"levelo://app?vid=97e50bb0-9a70-481b-b370-e509345e710a","ios":"levelo://app?vid=97e50bb0-9a70-481b-b370-e509345e710a"},"vehicle_type_id":"4","last_reported":1745017749,"current_range_meters":14800,"station_id":"ce4bha12rcd13ifvqef0","pricing_plan_id":"cebpf4jnsgd1na2vs0mg"},{"bike_id":"baebd87a-d533-41df-8d1c-1a8e62d3b4e8","system_id":"levelo_inurba_marseille","lat":43.29804,"lon":5.36516,"is_reserved":false,"is_disabled":false,"rental_uris":{"android":"levelo://app?vid=baebd87a-d533-41df-8d1c-1a8e62d3b4e8","ios":"levelo://app?vid=baebd87a-d533-41df-8d1c-1a8e62d3b4e8"},"vehicle_type_id":"4","last_reported":1745017749,"current_range_meters":14800,"station_id":"","pricing_plan_id":"cebpf4jnsgd1na2vs0mg"},{"bike_id":"9f0c4047-3c9c-4aae-a878-fd6243e07f6e","system_id":"levelo_inurba_marseille","lat":43.34307,"lon":5.40729,"is_reserved":false,"is_disabled":false,"rental_uris":{"android":"levelo://app?vid=9f0c4047-3c9c-4aae-a878-fd6243e07f6e","ios":"levelo://app?vid=9f0c4047-3c9c-4aae-a878-fd6243e07f6e"},"vehicle_type_id":"4","last_reported":1745017749,"current_range_meters":14800,"station_id":"","pricing_plan_id":"cebpf4jnsgd1na2vs0mg"},{"bike_id":"7f44b622-fe66-4447-98b6-d7912a7c91a6","system_id":"levelo_inurba_marseille","lat":43.252338,"lon":5.394617,"is_reserved":false,"is_disabled":false,"rental_uris":{"android":"levelo://app?vid=7f44b622-fe66-4447-98b6-d7912a7c91a6","ios":"levelo://app?vid=7f44b622-fe66-4447-98b6-d7912a7c91a6"},"vehicle_type_id":"4","last_reported":1745017749,"current_range_meters":14800,"station_id":"ce4bhm12rcd13ifvqgkg","pricing_plan_id":"cebpf4jnsgd1na2vs0mg"},{"bike_id":"22da8fdd-fd30-4bb5-acce-05b700f27e3a","system_id":"levelo_inurba_marseille","lat":43.28851,"lon":5.39317,"is_reserved":false,"is_disabled":false,"rental_uris":{"android":"levelo://app?vid=22da8fdd-fd30-4bb5-acce-05b700f27e3a","ios":"levelo://app?vid=22da8fdd-fd30-4bb5-acce-05b700f27e3a"},"vehicle_type_id":"4","last_reported":1745017749,"current_range_meters":14800,"station_id":"ce4bh2p2rcd13ifvqdi0","pricing_plan_id":"cebpf4jnsgd1na2vs0mg"},{"bike_id":"af53ad07-40b6-45e7-95ba-4319de2fdc4c","system_id":"levelo_inurba_marseille","lat":43.30953,"lon":5.39037,"is_reserved":false,"is_disabled":false,"rental_uris":{"android":"levelo://app?vid=af53ad07-40b6-45e7-95ba-4319de2fdc4c","ios":"levelo://app?vid=af53ad07-40b6-45e7-95ba-4319de2fdc4c"},"vehicle_type_id":"4","last_reported":1745017749,"current_range_meters":14800,"station_id":"ce4bgup2rcd13ifvqco0","pricing_plan_id":"cebpf4jnsgd1na2vs0mg"},{"bike_id":"cb45350e-0e1f-42b0-85cb-ffd652a74a75","system_id":"levelo_inurba_marseille","lat":43.23192,"lon":5.35551,"is_reserved":false,"is_disabled":false,"rental_uris":{"android":"levelo://app?vid=cb45350e-0e1f-42b0-85cb-ffd652a74a75","ios":"levelo://app?vid=cb45350e-0e1f-42b0-85cb-ffd652a74a75"},"vehicle_type_id":"4","last_reported":1745017749,"current_range_meters":15200,"station_id":"ce4bhu92rcd13ifvqi70","pricing_plan_id":"cebpf4jnsgd1na2vs0mg"},{"bike_id":"ea72204d-ba74-4aa2-9cc0-e3cc5410621e","system_id":"levelo_inurba_marseille","lat":43.27667,"lon":5.38898,"is_reserved":false,"is_disabled":false,"rental_uris":{"android":"levelo://app?vid=ea72204d-ba74-4aa2-9cc0-e3cc5410621e","ios":"levelo://app?vid=ea72204d-ba74-4aa2-9cc0-e3cc5410621e"},"vehicle_type_id":"4","last_reported":1745017749,"current_range_meters":15200,"station_id":"ce4bhi12rcd13ifvqfo0","pricing_plan_id":"cebpf4jnsgd1na2vs0mg"},{"bike_id":"b6c3499a-415c-4534-9db3-37550ecba7e2","system_id":"levelo_inurba_marseille","lat":43.241689,"lon":5.364018,"is_reserved":false,"is_disabled":false,"rental_uris":{"android":"levelo://app?vid=b6c3499a-415c-4534-9db3-37550ecba7e2","ios":"levelo://app?vid=b6c3499a-415c-4534-9db3-37550ecba7e2"},"vehicle_type_id":"4","last_reported":1745017749,"current_range_meters":15200,"station_id":"cpo36qri1sfpv3e86is0","pricing_plan_id":"cebpf4jnsgd1na2vs0mg"},{"bike_id":"372c5d58-0de3-4fac-bc02-7152f85cfe93","system_id":"levelo_inurba_marseille","lat":43.2469,"lon":5.38151,"is_reserved":false,"is_disabled":false,"rental_uris":{"android":"levelo://app?vid=372c5d58-0de3-4fac-bc02-7152f85cfe93","ios":"levelo://app?vid=372c5d58-0de3-4fac-bc02-7152f85cfe93"},"vehicle_type_id":"4","last_reported":1745017749,"current_range_meters":15200,"station_id":"ce4bhih2rcd13ifvqfr0","pricing_plan_id":"cebpf4jnsgd1na2vs0mg"},{"bike_id":"c99eee79-ef05-4f36-b87c-c8a0c5e304bb","system_id":"levelo_inurba_marseille","lat":43.28347,"lon":5.38108,"is_reserved":false,"is_disabled":false,"rental_uris":{"android":"levelo://app?vid=c99eee79-ef05-4f36-b87c-c8a0c5e304bb","ios":"levelo://app?vid=c99eee79-ef05-4f36-b87c-c8a0c5e304bb"},"vehicle_type_id":"4","last_reported":1745017749,"current_range_meters":15200,"station_id":"ce4bh412rcd13ifvqdr0","pricing_plan_id":"cebpf4jnsgd1na2vs0mg"},{"bike_id":"0530cf0f-8719-4c7a-91f9-0361653a21c2","system_id":"levelo_inurba_marseille","lat":43.3012,"lon":5.39853,"is_reserved":false,"is_disabled":false,"rental_uris":{"android":"levelo://app?vid=0530cf0f-8719-4c7a-91f9-0361653a21c2","ios":"levelo://app?vid=0530cf0f-8719-4c7a-91f9-0361653a21c2"},"vehicle_type_id":"4","last_reported":1745017749,"current_range_meters":15200,"station_id":"ce4bh0h2rcd13ifvqd40","pricing_plan_id":"cebpf4jnsgd1na2vs0mg"},{"bike_id":"745eb328-cde3-4e08-9f6c-067dede7c586","system_id":"levelo_inurba_marseille","lat":43.29164,"lon":5.37976,"is_reserved":false,"is_disabled":false,"rental_uris":{"android":"levelo://app?vid=745eb328-cde3-4e08-9f6c-067dede7c586","ios":"levelo://app?vid=745eb328-cde3-4e08-9f6c-067dede7c586"},"vehicle_type_id":"4","last_reported":1745017749,"current_range_meters":15200,"station_id":"","pricing_plan_id":"cebpf4jnsgd1na2vs0mg"},{"bike_id":"d6e87287-49cf-4105-b43e-99a024a82cc9","system_id":"levelo_inurba_marseille","lat":43.31068,"lon":5.38358,"is_reserved":false,"is_disabled":false,"rental_uris":{"android":"levelo://app?vid=d6e87287-49cf-4105-b43e-99a024a82cc9","ios":"levelo://app?vid=d6e87287-49cf-4105-b43e-99a024a82cc9"},"vehicle_type_id":"4","last_reported":1745017749,"current_range_meters":15200,"station_id":"ce4bgv92rcd13ifvqcr0","pricing_plan_id":"cebpf4jnsgd1na2vs0mg"},{"bike_id":"2ca1a0d2-de2f-4ac9-80f2-106cbc875413","system_id":"levelo_inurba_marseille","lat":43.32373,"lon":5.3887,"is_reserved":false,"is_disabled":false,"rental_uris":{"android":"levelo://app?vid=2ca1a0d2-de2f-4ac9-80f2-106cbc875413","ios":"levelo://app?vid=2ca1a0d2-de2f-4ac9-80f2-106cbc875413"},"vehicle_type_id":"4","last_reported":1745017749,"current_range_meters":15200,"station_id":"ce4bhqp2rcd13ifvqhog","pricing_plan_id":"cebpf4jnsgd1na2vs0mg"},{"bike_id":"86306ee0-b66c-4eeb-a487-2a1b8b6c565e","system_id":"levelo_inurba_marseille","lat":43.25085,"lon":5.39525,"is_reserved":false,"is_disabled":false,"rental_uris":{"android":"levelo://app?vid=86306ee0-b66c-4eeb-a487-2a1b8b6c565e","ios":"levelo://app?vid=86306ee0-b66c-4eeb-a487-2a1b8b6c565e"},"vehicle_type_id":"4","last_reported":1745017749,"current_range_meters":15200,"station_id":"ce4bhm12rcd13ifvqgkg","pricing_plan_id":"cebpf4jnsgd1na2vs0mg"},{"bike_id":"ce3fee90-b321-4105-971f-27349ec005fb","system_id":"levelo_inurba_marseille","lat":43.22944,"lon":5.35374,"is_reserved":false,"is_disabled":false,"rental_uris":{"android":"levelo://app?vid=ce3fee90-b321-4105-971f-27349ec005fb","ios":"levelo://app?vid=ce3fee90-b321-4105-971f-27349ec005fb"},"vehicle_type_id":"4","last_reported":1745017749,"current_range_meters":16000,"station_id":"cpo3532slgdg3j2ikp40","pricing_plan_id":"cebpf4jnsgd1na2vs0mg"},{"bike_id":"ffc4bad2-d179-44f7-9487-49b26f41f620","system_id":"levelo_inurba_marseille","lat":43.28668,"lon":5.38658,"is_reserved":false,"is_disabled":false,"rental_uris":{"android":"levelo://app?vid=ffc4bad2-d179-44f7-9487-49b26f41f620","ios":"levelo://app?vid=ffc4bad2-d179-44f7-9487-49b26f41f620"},"vehicle_type_id":"4","last_reported":1745017749,"current_range_meters":16000,"station_id":"ce4bh492rcd13ifvqdug","pricing_plan_id":"cebpf4jnsgd1na2vs0mg"},{"bike_id":"f7ba07db-dc83-43e7-8591-7d99da95259a","system_id":"levelo_inurba_marseille","lat":43.30128,"lon":5.39865,"is_reserved":false,"is_disabled":false,"rental_uris":{"android":"levelo://app?vid=f7ba07db-dc83-43e7-8591-7d99da95259a","ios":"levelo://app?vid=f7ba07db-dc83-43e7-8591-7d99da95259a"},"vehicle_type_id":"4","last_reported":1745017749,"current_range_meters":16000,"station_id":"ce4bh0h2rcd13ifvqd40","pricing_plan_id":"cebpf4jnsgd1na2vs0mg"},{"bike_id":"7a794c2b-98cd-4228-bc0a-542fb12b1915","system_id":"levelo_inurba_marseille","lat":43.295284,"lon":5.385514,"is_reserved":false,"is_disabled":false,"rental_uris":{"android":"levelo://app?vid=7a794c2b-98cd-4228-bc0a-542fb12b1915","ios":"levelo://app?vid=7a794c2b-98cd-4228-bc0a-542fb12b1915"},"vehicle_type_id":"4","last_reported":1745017749,"current_range_meters":16000,"station_id":"ce4bgih2rcd13ifvqba0","pricing_plan_id":"cebpf4jnsgd1na2vs0mg"},{"bike_id":"48c38bae-454f-405f-948e-f78fb891e7d5","system_id":"levelo_inurba_marseille","lat":43.28702,"lon":5.39988,"is_reserved":false,"is_disabled":false,"rental_uris":{"android":"levelo://app?vid=48c38bae-454f-405f-948e-f78fb891e7d5","ios":"levelo://app?vid=48c38bae-454f-405f-948e-f78fb891e7d5"},"vehicle_type_id":"4","last_reported":1745017749,"current_range_meters":16400,"station_id":"ce4bho92rcd13ifvqh3g","pricing_plan_id":"cebpf4jnsgd1na2vs0mg"},{"bike_id":"85546e7e-dbf5-43cc-9a2e-33fdd2921c37","system_id":"levelo_inurba_marseille","lat":43.2804,"lon":5.36943,"is_reserved":false,"is_disabled":false,"rental_uris":{"android":"levelo://app?vid=85546e7e-dbf5-43cc-9a2e-33fdd2921c37","ios":"levelo://app?vid=85546e7e-dbf5-43cc-9a2e-33fdd2921c37"},"vehicle_type_id":"4","last_reported":1745017749,"current_range_meters":16400,"station_id":"ce4bha12rcd13ifvqef0","pricing_plan_id":"cebpf4jnsgd1na2vs0mg"},{"bike_id":"343406d9-08d9-46fe-b35a-6f875b542c07","system_id":"levelo_inurba_marseille","lat":43.23049,"lon":5.35492,"is_reserved":false,"is_disabled":true,"rental_uris":{"android":"levelo://app?vid=343406d9-08d9-46fe-b35a-6f875b542c07","ios":"levelo://app?vid=343406d9-08d9-46fe-b35a-6f875b542c07"},"vehicle_type_id":"4","last_reported":1745017749,"current_range_meters":16400,"station_id":"cpo3342slgdg3j2ifvpg","pricing_plan_id":"cebpf4jnsgd1na2vs0mg"},{"bike_id":"ead782bd-4950-401e-9029-ad0c3389df6d","system_id":"levelo_inurba_marseille","lat":43.30935,"lon":5.40146,"is_reserved":false,"is_disabled":false,"rental_uris":{"android":"levelo://app?vid=ead782bd-4950-401e-9029-ad0c3389df6d","ios":"levelo://app?vid=ead782bd-4950-401e-9029-ad0c3389df6d"},"vehicle_type_id":"4","last_reported":1745017749,"current_range_meters":16400,"station_id":"ce4bgvp2rcd13ifvqct0","pricing_plan_id":"cebpf4jnsgd1na2vs0mg"},{"bike_id":"296350a4-7455-4598-aa77-077e58fc0eab","system_id":"levelo_inurba_marseille","lat":43.31327,"lon":5.39689,"is_reserved":false,"is_disabled":true,"rental_uris":{"android":"levelo://app?vid=296350a4-7455-4598-aa77-077e58fc0eab","ios":"levelo://app?vid=296350a4-7455-4598-aa77-077e58fc0eab"},"vehicle_type_id":"4","last_reported":1745017749,"current_range_meters":16400,"station_id":"ce4bgvp2rcd13ifvqcu0","pricing_plan_id":"cebpf4jnsgd1na2vs0mg"},{"bike_id":"5c87a66e-a468-4c06-bf6a-016059f2b476","system_id":"levelo_inurba_marseille","lat":43.2293,"lon":5.35386,"is_reserved":false,"is_disabled":false,"rental_uris":{"android":"levelo://app?vid=5c87a66e-a468-4c06-bf6a-016059f2b476","ios":"levelo://app?vid=5c87a66e-a468-4c06-bf6a-016059f2b476"},"vehicle_type_id":"4","last_reported":1745017749,"current_range_meters":16400,"station_id":"cpo3532slgdg3j2ikp40","pricing_plan_id":"cebpf4jnsgd1na2vs0mg"},{"bike_id":"62248938-eb62-4006-88eb-949efe5951f5","system_id":"levelo_inurba_marseille","lat":43.28706,"lon":5.37385,"is_reserved":false,"is_disabled":false,"rental_uris":{"android":"levelo://app?vid=62248938-eb62-4006-88eb-949efe5951f5","ios":"levelo://app?vid=62248938-eb62-4006-88eb-949efe5951f5"},"vehicle_type_id":"4","last_reported":1745017749,"current_range_meters":16400,"station_id":"ce4bh3p2rcd13ifvqdq0","pricing_plan_id":"cebpf4jnsgd1na2vs0mg"},{"bike_id":"0886c839-6192-440b-95c0-a0278bc273d2","system_id":"levelo_inurba_marseille","lat":43.30818,"lon":5.43521,"is_reserved":false,"is_disabled":false,"rental_uris":{"android":"levelo://app?vid=0886c839-6192-440b-95c0-a0278bc273d2","ios":"levelo://app?vid=0886c839-6192-440b-95c0-a0278bc273d2"},"vehicle_type_id":"4","last_reported":1745017749,"current_range_meters":16800,"station_id":"ce4bhph2rcd13ifvqheg","pricing_plan_id":"cebpf4jnsgd1na2vs0mg"},{"bike_id":"4e6892ef-dbe3-43e4-bc69-b2da5d802c90","system_id":"levelo_inurba_marseille","lat":43.27383,"lon":5.3625,"is_reserved":false,"is_disabled":true,"rental_uris":{"android":"levelo://app?vid=4e6892ef-dbe3-43e4-bc69-b2da5d802c90","ios":"levelo://app?vid=4e6892ef-dbe3-43e4-bc69-b2da5d802c90"},"vehicle_type_id":"4","last_reported":1745017749,"current_range_meters":16800,"station_id":"ce4bhbh2rcd13ifvqeo0","pricing_plan_id":"cebpf4jnsgd1na2vs0mg"},{"bike_id":"5e0f7ee2-57de-4bd9-af1d-fc33f8e20b85","system_id":"levelo_inurba_marseille","lat":43.30786,"lon":5.37653,"is_reserved":false,"is_disabled":false,"rental_uris":{"android":"levelo://app?vid=5e0f7ee2-57de-4bd9-af1d-fc33f8e20b85","ios":"levelo://app?vid=5e0f7ee2-57de-4bd9-af1d-fc33f8e20b85"},"vehicle_type_id":"4","last_reported":1745017749,"current_range_meters":16800,"station_id":"ce4bgv92rcd13ifvqcq0","pricing_plan_id":"cebpf4jnsgd1na2vs0mg"},{"bike_id":"24213b37-b766-4d9c-a174-f6bf34920497","system_id":"levelo_inurba_marseille","lat":43.28469,"lon":5.384178,"is_reserved":false,"is_disabled":false,"rental_uris":{"android":"levelo://app?vid=24213b37-b766-4d9c-a174-f6bf34920497","ios":"levelo://app?vid=24213b37-b766-4d9c-a174-f6bf34920497"},"vehicle_type_id":"4","last_reported":1745017749,"current_range_meters":16800,"station_id":"ce4bh512rcd13ifvqe3g","pricing_plan_id":"cebpf4jnsgd1na2vs0mg"},{"bike_id":"c0880bb8-23bb-4be6-a64d-333bd751e77f","system_id":"levelo_inurba_marseille","lat":43.30326,"lon":5.40435,"is_reserved":false,"is_disabled":false,"rental_uris":{"android":"levelo://app?vid=c0880bb8-23bb-4be6-a64d-333bd751e77f","ios":"levelo://app?vid=c0880bb8-23bb-4be6-a64d-333bd751e77f"},"vehicle_type_id":"4","last_reported":1745017749,"current_range_meters":16800,"station_id":"ce4bh012rcd13ifvqd10","pricing_plan_id":"cebpf4jnsgd1na2vs0mg"},{"bike_id":"55945bbd-67dc-4bbc-add1-1da45fefc6e8","system_id":"levelo_inurba_marseille","lat":43.2894,"lon":5.36641,"is_reserved":false,"is_disabled":false,"rental_uris":{"android":"levelo://app?vid=55945bbd-67dc-4bbc-add1-1da45fefc6e8","ios":"levelo://app?vid=55945bbd-67dc-4bbc-add1-1da45fefc6e8"},"vehicle_type_id":"4","last_reported":1745017749,"current_range_meters":16800,"station_id":"ce4bhap2rcd13ifvqek0","pricing_plan_id":"cebpf4jnsgd1na2vs0mg"},{"bike_id":"a2e9115c-32d7-46ff-b281-864ecf24b1c0","system_id":"levelo_inurba_marseille","lat":43.29533,"lon":5.38538,"is_reserved":false,"is_disabled":false,"rental_uris":{"android":"levelo://app?vid=a2e9115c-32d7-46ff-b281-864ecf24b1c0","ios":"levelo://app?vid=a2e9115c-32d7-46ff-b281-864ecf24b1c0"},"vehicle_type_id":"4","last_reported":1745017749,"current_range_meters":16800,"station_id":"ce4bgih2rcd13ifvqba0","pricing_plan_id":"cebpf4jnsgd1na2vs0mg"},{"bike_id":"e9d2245c-ff5f-4485-98cc-077689d90927","system_id":"levelo_inurba_marseille","lat":43.29044,"lon":5.38661,"is_reserved":false,"is_disabled":false,"rental_uris":{"android":"levelo://app?vid=e9d2245c-ff5f-4485-98cc-077689d90927","ios":"levelo://app?vid=e9d2245c-ff5f-4485-98cc-077689d90927"},"vehicle_type_id":"4","last_reported":1745017749,"current_range_meters":16800,"station_id":"ce4bh4p2rcd13ifvqe0g","pricing_plan_id":"cebpf4jnsgd1na2vs0mg"},{"bike_id":"066ae9f5-4939-4fe5-b4a8-c85c525f95a7","system_id":"levelo_inurba_marseille","lat":43.29982,"lon":5.38497,"is_reserved":false,"is_disabled":true,"rental_uris":{"android":"levelo://app?vid=066ae9f5-4939-4fe5-b4a8-c85c525f95a7","ios":"levelo://app?vid=066ae9f5-4939-4fe5-b4a8-c85c525f95a7"},"vehicle_type_id":"4","last_reported":1745017749,"current_range_meters":17200,"station_id":"ce4bgj92rcd13ifvqbd0","pricing_plan_id":"cebpf4jnsgd1na2vs0mg"},{"bike_id":"9f45b2bf-53d1-4e39-9a64-fb391bdbd395","system_id":"levelo_inurba_marseille","lat":43.33731,"lon":5.39183,"is_reserved":false,"is_disabled":false,"rental_uris":{"android":"levelo://app?vid=9f45b2bf-53d1-4e39-9a64-fb391bdbd395","ios":"levelo://app?vid=9f45b2bf-53d1-4e39-9a64-fb391bdbd395"},"vehicle_type_id":"4","last_reported":1745017749,"current_range_meters":17200,"station_id":"ce4bhr92rcd13ifvqhsg","pricing_plan_id":"cebpf4jnsgd1na2vs0mg"},{"bike_id":"76a0ee94-e7f4-42b0-9256-e048163dbaca","system_id":"levelo_inurba_marseille","lat":43.30294,"lon":5.39204,"is_reserved":false,"is_disabled":false,"rental_uris":{"android":"levelo://app?vid=76a0ee94-e7f4-42b0-9256-e048163dbaca","ios":"levelo://app?vid=76a0ee94-e7f4-42b0-9256-e048163dbaca"},"vehicle_type_id":"4","last_reported":1745017749,"current_range_meters":17200,"station_id":"ce4bgkh2rcd13ifvqbk0","pricing_plan_id":"cebpf4jnsgd1na2vs0mg"},{"bike_id":"33df228e-50c2-470b-8562-6229dfa5f64a","system_id":"levelo_inurba_marseille","lat":43.27984,"lon":5.41663,"is_reserved":false,"is_disabled":false,"rental_uris":{"android":"levelo://app?vid=33df228e-50c2-470b-8562-6229dfa5f64a","ios":"levelo://app?vid=33df228e-50c2-470b-8562-6229dfa5f64a"},"vehicle_type_id":"4","last_reported":1745017749,"current_range_meters":17200,"station_id":"ce4bho12rcd13ifvqh1g","pricing_plan_id":"cebpf4jnsgd1na2vs0mg"},{"bike_id":"8d346768-e3f9-432e-bded-ba39aa4fa61d","system_id":"levelo_inurba_marseille","lat":43.26228,"lon":5.40445,"is_reserved":false,"is_disabled":false,"rental_uris":{"android":"levelo://app?vid=8d346768-e3f9-432e-bded-ba39aa4fa61d","ios":"levelo://app?vid=8d346768-e3f9-432e-bded-ba39aa4fa61d"},"vehicle_type_id":"4","last_reported":1745017749,"current_range_meters":17200,"station_id":"ce4bhmh2rcd13ifvqgmg","pricing_plan_id":"cebpf4jnsgd1na2vs0mg"},{"bike_id":"6c54f881-d5b7-4654-b8ee-786390696be1","system_id":"levelo_inurba_marseille","lat":43.29207,"lon":5.39324,"is_reserved":false,"is_disabled":false,"rental_uris":{"android":"levelo://app?vid=6c54f881-d5b7-4654-b8ee-786390696be1","ios":"levelo://app?vid=6c54f881-d5b7-4654-b8ee-786390696be1"},"vehicle_type_id":"4","last_reported":1745017749,"current_range_meters":16800,"station_id":"ce4bh192rcd13ifvqdd0","pricing_plan_id":"cebpf4jnsgd1na2vs0mg"},{"bike_id":"56fd115f-db77-4348-9b3f-252dc02ef00c","system_id":"levelo_inurba_marseille","lat":43.28272,"lon":5.35057,"is_reserved":false,"is_disabled":false,"rental_uris":{"android":"levelo://app?vid=56fd115f-db77-4348-9b3f-252dc02ef00c","ios":"levelo://app?vid=56fd115f-db77-4348-9b3f-252dc02ef00c"},"vehicle_type_id":"4","last_reported":1745017749,"current_range_meters":17200,"station_id":"ce4bhbp2rcd13ifvqerg","pricing_plan_id":"cebpf4jnsgd1na2vs0mg"},{"bike_id":"d05b7cc4-f88b-4d02-ae6c-c344f22c0e5c","system_id":"levelo_inurba_marseille","lat":43.29786,"lon":5.36535,"is_reserved":false,"is_disabled":false,"rental_uris":{"android":"levelo://app?vid=d05b7cc4-f88b-4d02-ae6c-c344f22c0e5c","ios":"levelo://app?vid=d05b7cc4-f88b-4d02-ae6c-c344f22c0e5c"},"vehicle_type_id":"4","last_reported":1745017749,"current_range_meters":17600,"station_id":"","pricing_plan_id":"cebpf4jnsgd1na2vs0mg"},{"bike_id":"8a967336-045f-4c1f-84bc-75b15c61e5a3","system_id":"levelo_inurba_marseille","lat":43.24077,"lon":5.37757,"is_reserved":false,"is_disabled":false,"rental_uris":{"android":"levelo://app?vid=8a967336-045f-4c1f-84bc-75b15c61e5a3","ios":"levelo://app?vid=8a967336-045f-4c1f-84bc-75b15c61e5a3"},"vehicle_type_id":"4","last_reported":1745017749,"current_range_meters":17600,"station_id":"ce4bhnp2rcd13ifvqgvg","pricing_plan_id":"cebpf4jnsgd1na2vs0mg"},{"bike_id":"8b386a13-d7ce-4797-850b-d66b405de4c3","system_id":"levelo_inurba_marseille","lat":43.29506,"lon":5.37449,"is_reserved":false,"is_disabled":false,"rental_uris":{"android":"levelo://app?vid=8b386a13-d7ce-4797-850b-d66b405de4c3","ios":"levelo://app?vid=8b386a13-d7ce-4797-850b-d66b405de4c3"},"vehicle_type_id":"4","last_reported":1745017749,"current_range_meters":17600,"station_id":"","pricing_plan_id":"cebpf4jnsgd1na2vs0mg"},{"bike_id":"007a8943-514a-4d00-af12-186d61494f50","system_id":"levelo_inurba_marseille","lat":43.30132,"lon":5.39861,"is_reserved":false,"is_disabled":false,"rental_uris":{"android":"levelo://app?vid=007a8943-514a-4d00-af12-186d61494f50","ios":"levelo://app?vid=007a8943-514a-4d00-af12-186d61494f50"},"vehicle_type_id":"4","last_reported":1745017749,"current_range_meters":17600,"station_id":"ce4bh0h2rcd13ifvqd40","pricing_plan_id":"cebpf4jnsgd1na2vs0mg"},{"bike_id":"1fad1949-da2d-4b93-9386-de1f3dc78d1f","system_id":"levelo_inurba_marseille","lat":43.30592,"lon":5.39334,"is_reserved":false,"is_disabled":true,"rental_uris":{"android":"levelo://app?vid=1fad1949-da2d-4b93-9386-de1f3dc78d1f","ios":"levelo://app?vid=1fad1949-da2d-4b93-9386-de1f3dc78d1f"},"vehicle_type_id":"4","last_reported":1745017749,"current_range_meters":17600,"station_id":"ce4bh0p2rcd13ifvqd80","pricing_plan_id":"cebpf4jnsgd1na2vs0mg"},{"bike_id":"b075c115-a3f9-4f40-83ed-cbc1e8e5f84e","system_id":"levelo_inurba_marseille","lat":43.30584,"lon":5.36673,"is_reserved":false,"is_disabled":true,"rental_uris":{"android":"levelo://app?vid=b075c115-a3f9-4f40-83ed-cbc1e8e5f84e","ios":"levelo://app?vid=b075c115-a3f9-4f40-83ed-cbc1e8e5f84e"},"vehicle_type_id":"4","last_reported":1745017749,"current_range_meters":17600,"station_id":"","pricing_plan_id":"cebpf4jnsgd1na2vs0mg"},{"bike_id":"9231fac7-2cfc-44fa-9d20-a77c2ea047eb","system_id":"levelo_inurba_marseille","lat":43.28942,"lon":5.36641,"is_reserved":false,"is_disabled":false,"rental_uris":{"android":"levelo://app?vid=9231fac7-2cfc-44fa-9d20-a77c2ea047eb","ios":"levelo://app?vid=9231fac7-2cfc-44fa-9d20-a77c2ea047eb"},"vehicle_type_id":"4","last_reported":1745017749,"current_range_meters":18000,"station_id":"ce4bhap2rcd13ifvqek0","pricing_plan_id":"cebpf4jnsgd1na2vs0mg"},{"bike_id":"15572984-94dd-404c-b34b-0eba775da91a","system_id":"levelo_inurba_marseille","lat":43.25047,"lon":5.38901,"is_reserved":false,"is_disabled":false,"rental_uris":{"android":"levelo://app?vid=15572984-94dd-404c-b34b-0eba775da91a","ios":"levelo://app?vid=15572984-94dd-404c-b34b-0eba775da91a"},"vehicle_type_id":"4","last_reported":1745017749,"current_range_meters":18000,"station_id":"ce4bhgp2rcd13ifvqfd0","pricing_plan_id":"cebpf4jnsgd1na2vs0mg"},{"bike_id":"91066f0f-54a6-4ac2-930f-479cb9e52f6f","system_id":"levelo_inurba_marseille","lat":43.24678,"lon":5.38129,"is_reserved":false,"is_disabled":false,"rental_uris":{"android":"levelo://app?vid=91066f0f-54a6-4ac2-930f-479cb9e52f6f","ios":"levelo://app?vid=91066f0f-54a6-4ac2-930f-479cb9e52f6f"},