{"last_updated":1747386657,"ttl":60,"version":"2.2","data":{"bikes":[{"bike_id":"c0b9fd4f-e181-46ce-b0bf-f5119973334f","system_id":"levelo_inurba_marseille","lat":43.33771,"lon":5.37424,"is_reserved":false,"is_disabled":false,"rental_uris":{"android":"levelo://app?vid=c0b9fd4f-e181-46ce-b0bf-f5119973334f","ios":"levelo://app?vid=c0b9fd4f-e181-46ce-b0bf-f5119973334f"},"vehicle_type_id":"4","last_reported":1747386657,"current_range_meters":10800,"station_id":"","pricing_plan_id":"cebpf4jnsgd1na2vs0mg"},{"bike_id":"fc2577e7-1497-425b-9d4f-ab8d7dc843c6","system_id":"levelo_inurba_marseille","lat":43.33771,"lon":5.37485,"is_reserved":false,"is_disabled":true,"rental_uris":{"android":"levelo://app?vid=fc2577e7-1497-425b-9d4f-ab8d7dc843c6","ios":"levelo://app?vid=fc2577e7-1497-425b-9d4f-ab8d7dc843c6"},"vehicle_type_id":"4","last_reported":1747386657,"current_range_meters":0,"station_id":"","pricing_plan_id":"cebpf4jnsgd1na2vs0mg"},{"bike_id":"ce4325af-2448-4172-bdec-81d552ee0b62","system_id":"levelo_inurba_marseille","lat":43.26163,"lon":5.42051,"is_reserved":false,"is_disabled":true,"rental_uris":{"android":"levelo://app?vid=ce4325af-2448-4172-bdec-81d552ee0b62","ios":"levelo://app?vid=ce4325af-2448-4172-bdec-81d552ee0b62"},"vehicle_type_id":"4","last_reported":1747386657,"current_range_meters":0,"station_id":"","pricing_plan_id":"cebpf4jnsgd1na2vs0mg"},{"bike_id":"2b8fbf5f-4106-421b-bd48-29543ccb14db","system_id":"levelo_inurba_marseille","lat":43.23708,"lon":5.36312,"is_reserved":false,"is_disabled":true,"rental_uris":{"android":"levelo://app?vid=2b8fbf5f-4106-421b-bd48-29543ccb14db","ios":"levelo://app?vid=2b8fbf5f-4106-421b-bd48-29543ccb14db"},"vehicle_type_id":"4","last_reported":1747386657,"current_range_meters":0,"station_id":"","pricing_plan_id":"cebpf4jnsgd1na2vs0mg"},{"bike_id":"5de4311e-acc0-4747-9be3-06bcfa4d137e","system_id":"levelo_inurba_marseille","lat":43.31994,"lon":5.38723,"is_reserved":false,"is_disabled":true,"rental_uris":{"android":"levelo://app?vid=5de4311e-acc0-4747-9be3-06bcfa4d137e","ios":"levelo://app?vid=5de4311e-acc0-4747-9be3-06bcfa4d137e"},"vehicle_type_id":"4","last_reported":1747386657,"current_range_meters":0,"station_id":"","pricing_plan_id":"cebpf4jnsgd1na2vs0mg"},{"bike_id":"792567c6-0442-4011-aff0-9c05e25deb48","system_id":"levelo_inurba_marseille","lat":43.337444,"lon":5.374475,"is_reserved":false,"is_disabled":true,"rental_uris":{"android":"levelo://app?vid=792567c6-0442-4011-aff0-9c05e25deb48","ios":"levelo://app?vid=792567c6-0442-4011-aff0-9c05e25deb48"},"vehicle_type_id":"4","last_reported":1747386657,"current_range_meters":0,"station_id":"","pricing_plan_id":"cebpf4jnsgd1na2vs0mg"},{"bike_id":"2a5dafaf-54ec-4df0-8510-39053ad2d582","system_id":"levelo_inurba_marseille","lat":43.33199,"lon":5.39152,"is_reserved":false,"is_disabled":true,"rental_uris":{"android":"levelo://app?vid=2a5dafaf-54ec-4df0-8510-39053ad2d582","ios":"levelo://app?vid=2a5dafaf-54ec-4df0-8510-39053ad2d582"},"vehicle_type_id":"4","last_reported":1747386657,"current_range_meters":0,"station_id":"","pricing_plan_id":"cebpf4jnsgd1na2vs0mg"},{"bike_id":"0fd4bff8-7683-40d4-b0ae-c129cdc72cba","system_id":"levelo_inurba_marseille","lat":43.30737,"lon":5.40453,"is_reserved":false,"is_disabled":true,"rental_uris":{"android":"levelo://app?vid=0fd4bff8-7683-40d4-b0ae-c129cdc72cba","ios":"levelo://app?vid=0fd4bff8-7683-40d4-b0ae-c129cdc72cba"},"vehicle_type_id":"4","last_reported":1747386657,"current_range_meters":0,"station_id":"","pricing_plan_id":"cebpf4jnsgd1na2vs0mg"},{"bike_id":"cf9763ee-3bd9-4ffc-9d79-c802937cd55c","system_id":"levelo_inurba_marseille","lat":43.30533,"lon":5.36563,"is_reserved":false,"is_disabled":true,"rental_uris":{"android":"levelo://app?vid=cf9763ee-3bd9-4ffc-9d79-c802937cd55c","ios":"levelo://app?vid=cf9763ee-3bd9-4ffc-9d79-c802937cd55c"},"vehicle_type_id":"4","last_reported":1747386657,"current_range_meters":0,"station_id":"ce4bgs12rcd13ifvqcag","pricing_plan_id":"cebpf4jnsgd1na2vs0mg"},{"bike_id":"c0b247be-e966-4609-aa1f-993a743f89e3","system_id":"levelo_inurba_marseille","lat":43.30145,"lon":5.37416,"is_reserved":false,"is_disabled":true,"rental_uris":{"android":"levelo://app?vid=c0b247be-e966-4609-aa1f-993a743f89e3","ios":"levelo://app?vid=c0b247be-e966-4609-aa1f-993a743f89e3"},"vehicle_type_id":"4","last_reported":1747386657,"current_range_meters":0,"station_id":"ce4bgs92rcd13ifvqcc0","pricing_plan_id":"cebpf4jnsgd1na2vs0mg"},{"bike_id":"d07757ea-b235-4a46-8f94-2295a329b1fc","system_id":"levelo_inurba_marseille","lat":43.280334,"lon":5.369366,"is_reserved":false,"is_disabled":true,"rental_uris":{"android":"levelo://app?vid=d07757ea-b235-4a46-8f94-2295a329b1fc","ios":"levelo://app?vid=d07757ea-b235-4a46-8f94-2295a329b1fc"},"vehicle_type_id":"4","last_reported":1747386657,"current_range_meters":0,"station_id":"ce4bha12rcd13ifvqef0","pricing_plan_id":"cebpf4jnsgd1na2vs0mg"},{"bike_id":"845db46f-0de8-42d3-af6a-4ad282877a52","system_id":"levelo_inurba_marseille","lat":43.2396,"lon":5.36636,"is_reserved":false,"is_disabled":true,"rental_uris":{"android":"levelo://app?vid=845db46f-0de8-42d3-af6a-4ad282877a52","ios":"levelo://app?vid=845db46f-0de8-42d3-af6a-4ad282877a52"},"vehicle_type_id":"4","last_reported":1747386657,"current_range_meters":0,"station_id":"ce4bhi12rcd13ifvqfp0","pricing_plan_id":"cebpf4jnsgd1na2vs0mg"},{"bike_id":"defeb2d6-a3ba-4112-9b87-70dc47f355ca","system_id":"levelo_inurba_marseille","lat":43.30931,"lon":5.40136,"is_reserved":false,"is_disabled":true,"rental_uris":{"android":"levelo://app?vid=defeb2d6-a3ba-4112-9b87-70dc47f355ca","ios":"levelo://app?vid=defeb2d6-a3ba-4112-9b87-70dc47f355ca"},"vehicle_type_id":"4","last_reported":1747386657,"current_range_meters":400,"station_id":"ce4bgvp2rcd13ifvqct0","pricing_plan_id":"cebpf4jnsgd1na2vs0mg"},{"bike_id":"0b329d0f-303d-422d-b317-f0a9f989a83b","system_id":"levelo_inurba_marseille","lat":43.33628,"lon":5.41021,"is_reserved":false,"is_disabled":true,"rental_uris":{"android":"levelo://app?vid=0b329d0f-303d-422d-b317-f0a9f989a83b","ios":"levelo://app?vid=0b329d0f-303d-422d-b317-f0a9f989a83b"},"vehicle_type_id":"4","last_reported":1747386657,"current_range_meters":400,"station_id":"ce4bhqh2rcd13ifvqhmg","pricing_plan_id":"cebpf4jnsgd1na2vs0mg"},{"bike_id":"5ea8acd0-9747-4063-b2d7-ac143ecf4a74","system_id":"levelo_inurba_marseille","lat":43.323644,"lon":5.388734,"is_reserved":false,"is_disabled":true,"rental_uris":{"android":"levelo://app?vid=5ea8acd0-9747-4063-b2d7-ac143ecf4a74","ios":"levelo://app?vid=5ea8acd0-9747-4063-b2d7-ac143ecf4a74"},"vehicle_type_id":"4","last_reported":1747386657,"current_range_meters":400,"station_id":"ce4bhqp2rcd13ifvqhog","pricing_plan_id":"cebpf4jnsgd1na2vs0mg"},{"bike_id":"a73d127f-5b1e-4c85-b09d-7b4a39558bb7","system_id":"levelo_inurba_marseille","lat":43.29865,"lon":5.38367,"is_reserved":false,"is_disabled":true,"rental_uris":{"android":"levelo://app?vid=a73d127f-5b1e-4c85-b09d-7b4a39558bb7","ios":"levelo://app?vid=a73d127f-5b1e-4c85-b09d-7b4a39558bb7"},"vehicle_type_id":"4","last_reported":1747386657,"current_range_meters":800,"station_id":"","pricing_plan_id":"cebpf4jnsgd1na2vs0mg"},{"bike_id":"7e0d087f-9141-4a00-9548-6a179f85a2a6","system_id":"levelo_inurba_marseille","lat":43.292931,"lon":5.374676,"is_reserved":false,"is_disabled":true,"rental_uris":{"android":"levelo://app?vid=7e0d087f-9141-4a00-9548-6a179f85a2a6","ios":"levelo://app?vid=7e0d087f-9141-4a00-9548-6a179f85a2a6"},"vehicle_type_id":"4","last_reported":1747386657,"current_range_meters":800,"station_id":"ce4bgi12rcd13ifvqb70","pricing_plan_id":"cebpf4jnsgd1na2vs0mg"},{"bike_id":"44e7ba76-e0ae-4868-8586-82cec9a8df29","system_id":"levelo_inurba_marseille","lat":43.29721,"lon":5.36622,"is_reserved":false,"is_disabled":true,"rental_uris":{"android":"levelo://app?vid=44e7ba76-e0ae-4868-8586-82cec9a8df29","ios":"levelo://app?vid=44e7ba76-e0ae-4868-8586-82cec9a8df29"},"vehicle_type_id":"4","last_reported":1747386657,"current_range_meters":800,"station_id":"ce4bgn12rcd13ifvqbt0","pricing_plan_id":"cebpf4jnsgd1na2vs0mg"},{"bike_id":"eabe5f35-c0bd-449a-9077-f31cb9f4b215","system_id":"levelo_inurba_marseille","lat":43.30936,"lon":5.40154,"is_reserved":false,"is_disabled":true,"rental_uris":{"android":"levelo://app?vid=eabe5f35-c0bd-449a-9077-f31cb9f4b215","ios":"levelo://app?vid=eabe5f35-c0bd-449a-9077-f31cb9f4b215"},"vehicle_type_id":"4","last_reported":1747386657,"current_range_meters":800,"station_id":"ce4bgvp2rcd13ifvqct0","pricing_plan_id":"cebpf4jnsgd1na2vs0mg"},{"bike_id":"1dc04bb6-c23e-4d20-b6fc-152bd86dde0d","system_id":"levelo_inurba_marseille","lat":43.32657,"lon":5.40995,"is_reserved":false,"is_disabled":true,"rental_uris":{"android":"levelo://app?vid=1dc04bb6-c23e-4d20-b6fc-152bd86dde0d","ios":"levelo://app?vid=1dc04bb6-c23e-4d20-b6fc-152bd86dde0d"},"vehicle_type_id":"4","last_reported":1747386657,"current_range_meters":800,"station_id":"ce4bhpp2rcd13ifvqhgg","pricing_plan_id":"cebpf4jnsgd1na2vs0mg"},{"bike_id":"643d806f-04b0-4404-b7e0-20b22a2c5299","system_id":"levelo_inurba_marseille","lat":43.33589,"lon":5.41015,"is_reserved":false,"is_disabled":true,"rental_uris":{"android":"levelo://app?vid=643d806f-04b0-4404-b7e0-20b22a2c5299","ios":"levelo://app?vid=643d806f-04b0-4404-b7e0-20b22a2c5299"},"vehicle_type_id":"4","last_reported":1747386657,"current_range_meters":800,"station_id":"ce4bhqh2rcd13ifvqhmg","pricing_plan_id":"cebpf4jnsgd1na2vs0mg"},{"bike_id":"f9e7d873-88bb-4f94-a0d6-3fcae7d05021","system_id":"levelo_inurba_marseille","lat":43.30788,"lon":5.36976,"is_reserved":false,"is_disabled":true,"rental_uris":{"android":"levelo://app?vid=f9e7d873-88bb-4f94-a0d6-3fcae7d05021","ios":"levelo://app?vid=f9e7d873-88bb-4f94-a0d6-3fcae7d05021"},"vehicle_type_id":"4","last_reported":1747386657,"current_range_meters":1200,"station_id":"","pricing_plan_id":"cebpf4jnsgd1na2vs0mg"},{"bike_id":"fe099644-59e4-438f-a009-e4740039a77d","system_id":"levelo_inurba_marseille","lat":43.30817,"lon":5.3819,"is_reserved":false,"is_disabled":true,"rental_uris":{"android":"levelo://app?vid=fe099644-59e4-438f-a009-e4740039a77d","ios":"levelo://app?vid=fe099644-59e4-438f-a009-e4740039a77d"},"vehicle_type_id":"4","last_reported":1747386657,"current_range_meters":1200,"station_id":"ce4bgt12rcd13ifvqce0","pricing_plan_id":"cebpf4jnsgd1na2vs0mg"},{"bike_id":"d28c66e0-dd36-4d7c-b3e9-e86912a7c09b","system_id":"levelo_inurba_marseille","lat":43.27895,"lon":5.3802,"is_reserved":false,"is_disabled":true,"rental_uris":{"android":"levelo://app?vid=d28c66e0-dd36-4d7c-b3e9-e86912a7c09b","ios":"levelo://app?vid=d28c66e0-dd36-4d7c-b3e9-e86912a7c09b"},"vehicle_type_id":"4","last_reported":1747386657,"current_range_meters":1200,"station_id":"ce4bhf92rcd13ifvqf50","pricing_plan_id":"cebpf4jnsgd1na2vs0mg"},{"bike_id":"aa8baf82-bc49-498b-842b-69b5285a08ca","system_id":"levelo_inurba_marseille","lat":43.27062,"lon":5.42272,"is_reserved":false,"is_disabled":true,"rental_uris":{"android":"levelo://app?vid=aa8baf82-bc49-498b-842b-69b5285a08ca","ios":"levelo://app?vid=aa8baf82-bc49-498b-842b-69b5285a08ca"},"vehicle_type_id":"4","last_reported":1747386657,"current_range_meters":1200,"station_id":"ce4bhk92rcd13ifvqgb0","pricing_plan_id":"cebpf4jnsgd1na2vs0mg"},{"bike_id":"6a39a2a9-7221-42a8-8f8f-94a38a8c9b73","system_id":"levelo_inurba_marseille","lat":43.32564,"lon":5.41424,"is_reserved":false,"is_disabled":true,"rental_uris":{"android":"levelo://app?vid=6a39a2a9-7221-42a8-8f8f-94a38a8c9b73","ios":"levelo://app?vid=6a39a2a9-7221-42a8-8f8f-94a38a8c9b73"},"vehicle_type_id":"4","last_reported":1747386657,"current_range_meters":1200,"station_id":"ce4bhq12rcd13ifvqhhg","pricing_plan_id":"cebpf4jnsgd1na2vs0mg"},{"bike_id":"6c82510f-111a-443c-a956-fd29d46eac5d","system_id":"levelo_inurba_marseille","lat":43.30146,"lon":5.38777,"is_reserved":false,"is_disabled":true,"rental_uris":{"android":"levelo://app?vid=6c82510f-111a-443c-a956-fd29d46eac5d","ios":"levelo://app?vid=6c82510f-111a-443c-a956-fd29d46eac5d"},"vehicle_type_id":"4","last_reported":1747386657,"current_range_meters":1600,"station_id":"ce4bghh2rcd13ifvqb60","pricing_plan_id":"cebpf4jnsgd1na2vs0mg"},{"bike_id":"682424c1-f0ac-4dab-a241-1ff222f1505b","system_id":"levelo_inurba_marseille","lat":43.305418,"lon":5.36718,"is_reserved":false,"is_disabled":true,"rental_uris":{"android":"levelo://app?vid=682424c1-f0ac-4dab-a241-1ff222f1505b","ios":"levelo://app?vid=682424c1-f0ac-4dab-a241-1ff222f1505b"},"vehicle_type_id":"4","last_reported":1747386657,"current_range_meters":2000,"station_id":"ce4bgrp2rcd13ifvqc9g","pricing_plan_id":"cebpf4jnsgd1na2vs0mg"},{"bike_id":"9554dd4f-22cf-4494-b36f-a3d4d1791132","system_id":"levelo_inurba_marseille","lat":43.26564,"lon":5.39016,"is_reserved":false,"is_disabled":true,"rental_uris":{"android":"levelo://app?vid=9554dd4f-22cf-4494-b36f-a3d4d1791132","ios":"levelo://app?vid=9554dd4f-22cf-4494-b36f-a3d4d1791132"},"vehicle_type_id":"4","last_reported":1747386657,"current_range_meters":2000,"station_id":"ce4bhe12rcd13ifvqf30","pricing_plan_id":"cebpf4jnsgd1na2vs0mg"},{"bike_id":"3d642123-9154-4545-8a88-4f0253651982","system_id":"levelo_inurba_marseille","lat":43.30304,"lon":5.39211,"is_reserved":false,"is_disabled":false,"rental_uris":{"android":"levelo://app?vid=3d642123-9154-4545-8a88-4f0253651982","ios":"levelo://app?vid=3d642123-9154-4545-8a88-4f0253651982"},"vehicle_type_id":"4","last_reported":1747386657,"current_range_meters":2800,"station_id":"ce4bgkh2rcd13ifvqbk0","pricing_plan_id":"cebpf4jnsgd1na2vs0mg"},{"bike_id":"3845086d-902b-4ce6-aaac-da6033e4eaec","system_id":"levelo_inurba_marseille","lat":43.30534,"lon":5.36706,"is_reserved":false,"is_disabled":false,"rental_uris":{"android":"levelo://app?vid=3845086d-902b-4ce6-aaac-da6033e4eaec","ios":"levelo://app?vid=3845086d-902b-4ce6-aaac-da6033e4eaec"},"vehicle_type_id":"4","last_reported":1747386657,"current_range_meters":2800,"station_id":"ce4bgrp2rcd13ifvqc9g","pricing_plan_id":"cebpf4jnsgd1na2vs0mg"},{"bike_id":"eb15e616-8264-420e-b67b-22dc4a501f6c","system_id":"levelo_inurba_marseille","lat":43.29418,"lon":5.38599,"is_reserved":false,"is_disabled":false,"rental_uris":{"android":"levelo://app?vid=eb15e616-8264-420e-b67b-22dc4a501f6c","ios":"levelo://app?vid=eb15e616-8264-420e-b67b-22dc4a501f6c"},"vehicle_type_id":"4","last_reported":1747386657,"current_range_meters":2800,"station_id":"ce4bh2h2rcd13ifvqdh0","pricing_plan_id":"cebpf4jnsgd1na2vs0mg"},{"bike_id":"27243ec2-04f9-4fcc-aa72-79cdcf968642","system_id":"levelo_inurba_marseille","lat":43.32487,"lon":5.36544,"is_reserved":false,"is_disabled":false,"rental_uris":{"android":"levelo://app?vid=27243ec2-04f9-4fcc-aa72-79cdcf968642","ios":"levelo://app?vid=27243ec2-04f9-4fcc-aa72-79cdcf968642"},"vehicle_type_id":"4","last_reported":1747386657,"current_range_meters":2800,"station_id":"ce4bhs12rcd13ifvqhvg","pricing_plan_id":"cebpf4jnsgd1na2vs0mg"},{"bike_id":"04b20528-a4c8-4f9d-8015-dac2644c1d1a","system_id":"levelo_inurba_marseille","lat":43.30536,"lon":5.36535,"is_reserved":false,"is_disabled":false,"rental_uris":{"android":"levelo://app?vid=04b20528-a4c8-4f9d-8015-dac2644c1d1a","ios":"levelo://app?vid=04b20528-a4c8-4f9d-8015-dac2644c1d1a"},"vehicle_type_id":"4","last_reported":1747386657,"current_range_meters":3200,"station_id":"ce4bgs12rcd13ifvqcag","pricing_plan_id":"cebpf4jnsgd1na2vs0mg"},{"bike_id":"85b9f8a7-d51f-4d6e-9cb2-ac77673bb195","system_id":"levelo_inurba_marseille","lat":43.24802,"lon":5.37451,"is_reserved":false,"is_disabled":false,"rental_uris":{"android":"levelo://app?vid=85b9f8a7-d51f-4d6e-9cb2-ac77673bb195","ios":"levelo://app?vid=85b9f8a7-d51f-4d6e-9cb2-ac77673bb195"},"vehicle_type_id":"4","last_reported":1747386657,"current_range_meters":3600,"station_id":"ce4bhgh2rcd13ifvqfb0","pricing_plan_id":"cebpf4jnsgd1na2vs0mg"},{"bike_id":"c52484e6-1630-45aa-a1c4-77197d870f5f","system_id":"levelo_inurba_marseille","lat":43.25934,"lon":5.409047,"is_reserved":false,"is_disabled":false,"rental_uris":{"android":"levelo://app?vid=c52484e6-1630-45aa-a1c4-77197d870f5f","ios":"levelo://app?vid=c52484e6-1630-45aa-a1c4-77197d870f5f"},"vehicle_type_id":"4","last_reported":1747386657,"current_range_meters":3600,"station_id":"ce4bhm92rcd13ifvqglg","pricing_plan_id":"cebpf4jnsgd1na2vs0mg"},{"bike_id":"ae9c61a3-1cfa-4301-a87d-e1a343e034e8","system_id":"levelo_inurba_marseille","lat":43.2871,"lon":5.37871,"is_reserved":false,"is_disabled":false,"rental_uris":{"android":"levelo://app?vid=ae9c61a3-1cfa-4301-a87d-e1a343e034e8","ios":"levelo://app?vid=ae9c61a3-1cfa-4301-a87d-e1a343e034e8"},"vehicle_type_id":"4","last_reported":1747386657,"current_range_meters":4800,"station_id":"","pricing_plan_id":"cebpf4jnsgd1na2vs0mg"},{"bike_id":"18e2ab6e-8fae-4f1f-b9c7-a4adc527cf67","system_id":"levelo_inurba_marseille","lat":43.33031,"lon":5.38001,"is_reserved":false,"is_disabled":false,"rental_uris":{"android":"levelo://app?vid=18e2ab6e-8fae-4f1f-b9c7-a4adc527cf67","ios":"levelo://app?vid=18e2ab6e-8fae-4f1f-b9c7-a4adc527cf67"},"vehicle_type_id":"4","last_reported":1747386657,"current_range_meters":4800,"station_id":"","pricing_plan_id":"cebpf4jnsgd1na2vs0mg"},{"bike_id":"ad622190-7249-4fb8-bfc2-e07ca2cbb04e","system_id":"levelo_inurba_marseille","lat":43.30566,"lon":5.3668,"is_reserved":false,"is_disabled":false,"rental_uris":{"android":"levelo://app?vid=ad622190-7249-4fb8-bfc2-e07ca2cbb04e","ios":"levelo://app?vid=ad622190-7249-4fb8-bfc2-e07ca2cbb04e"},"vehicle_type_id":"4","last_reported":1747386657,"current_range_meters":4800,"station_id":"","pricing_plan_id":"cebpf4jnsgd1na2vs0mg"},{"bike_id":"12e27d25-8ded-4ae6-9e42-7e7f07df90e7","system_id":"levelo_inurba_marseille","lat":43.301856,"lon":5.36627,"is_reserved":false,"is_disabled":false,"rental_uris":{"android":"levelo://app?vid=12e27d25-8ded-4ae6-9e42-7e7f07df90e7","ios":"levelo://app?vid=12e27d25-8ded-4ae6-9e42-7e7f07df90e7"},"vehicle_type_id":"4","last_reported":1747386657,"current_range_meters":4800,"station_id":"ce4bgrh2rcd13ifvqc8g","pricing_plan_id":"cebpf4jnsgd1na2vs0mg"},{"bike_id":"f752227c-3df6-44d5-abd3-4a633d5341e0","system_id":"levelo_inurba_marseille","lat":43.22928,"lon":5.35376,"is_reserved":false,"is_disabled":false,"rental_uris":{"android":"levelo://app?vid=f752227c-3df6-44d5-abd3-4a633d5341e0","ios":"levelo://app?vid=f752227c-3df6-44d5-abd3-4a633d5341e0"},"vehicle_type_id":"4","last_reported":1747386657,"current_range_meters":4800,"station_id":"cpo3532slgdg3j2ikp40","pricing_plan_id":"cebpf4jnsgd1na2vs0mg"},{"bike_id":"ea752e19-10dc-4414-a3cf-8aef16f04bdd","system_id":"levelo_inurba_marseille","lat":43.3031,"lon":5.369,"is_reserved":false,"is_disabled":false,"rental_uris":{"android":"levelo://app?vid=ea752e19-10dc-4414-a3cf-8aef16f04bdd","ios":"levelo://app?vid=ea752e19-10dc-4414-a3cf-8aef16f04bdd"},"vehicle_type_id":"4","last_reported":1747386657,"current_range_meters":5600,"station_id":"ce4bgqh2rcd13ifvqc5g","pricing_plan_id":"cebpf4jnsgd1na2vs0mg"},{"bike_id":"d93b7d07-7b5e-4910-abb0-7b871955d33d","system_id":"levelo_inurba_marseille","lat":43.31327,"lon":5.39693,"is_reserved":false,"is_disabled":false,"rental_uris":{"android":"levelo://app?vid=d93b7d07-7b5e-4910-abb0-7b871955d33d","ios":"levelo://app?vid=d93b7d07-7b5e-4910-abb0-7b871955d33d"},"vehicle_type_id":"4","last_reported":1747386657,"current_range_meters":5600,"station_id":"ce4bgvp2rcd13ifvqcu0","pricing_plan_id":"cebpf4jnsgd1na2vs0mg"},{"bike_id":"58a773b6-d300-4890-a9d2-bea6a1be8ea1","system_id":"levelo_inurba_marseille","lat":43.25909,"lon":5.40894,"is_reserved":false,"is_disabled":false,"rental_uris":{"android":"levelo://app?vid=58a773b6-d300-4890-a9d2-bea6a1be8ea1","ios":"levelo://app?vid=58a773b6-d300-4890-a9d2-bea6a1be8ea1"},"vehicle_type_id":"4","last_reported":1747386657,"current_range_meters":5600,"station_id":"ce4bhm92rcd13ifvqglg","pricing_plan_id":"cebpf4jnsgd1na2vs0mg"},{"bike_id":"a08bb8bc-2e96-48aa-90e5-632b6080533c","system_id":"levelo_inurba_marseille","lat":43.29571,"lon":5.37521,"is_reserved":false,"is_disabled":false,"rental_uris":{"android":"levelo://app?vid=a08bb8bc-2e96-48aa-90e5-632b6080533c","ios":"levelo://app?vid=a08bb8bc-2e96-48aa-90e5-632b6080533c"},"vehicle_type_id":"4","last_reported":1747386657,"current_range_meters":6400,"station_id":"ce4bgh92rcd13ifvqb50","pricing_plan_id":"cebpf4jnsgd1na2vs0mg"},{"bike_id":"8cf6c58a-6c3a-4bfb-9b7e-c9f5c0cda5ea","system_id":"levelo_inurba_marseille","lat":43.23152,"lon":5.43716,"is_reserved":false,"is_disabled":false,"rental_uris":{"android":"levelo://app?vid=8cf6c58a-6c3a-4bfb-9b7e-c9f5c0cda5ea","ios":"levelo://app?vid=8cf6c58a-6c3a-4bfb-9b7e-c9f5c0cda5ea"},"vehicle_type_id":"4","last_reported":1747386657,"current_range_meters":6400,"station_id":"ce4bhmp2rcd13ifvqgog","pricing_plan_id":"cebpf4jnsgd1na2vs0mg"},{"bike_id":"bf20427e-2a27-4f3b-9bef-da3b05602a04","system_id":"levelo_inurba_marseille","lat":43.26781,"lon":5.39418,"is_reserved":false,"is_disabled":false,"rental_uris":{"android":"levelo://app?vid=bf20427e-2a27-4f3b-9bef-da3b05602a04","ios":"levelo://app?vid=bf20427e-2a27-4f3b-9bef-da3b05602a04"},"vehicle_type_id":"4","last_reported":1747386657,"current_range_meters":6800,"station_id":"ce4bhh12rcd13ifvqfg0","pricing_plan_id":"cebpf4jnsgd1na2vs0mg"},{"bike_id":"561549a2-798d-4052-830a-279630f71645","system_id":"levelo_inurba_marseille","lat":43.28436,"lon":5.35541,"is_reserved":false,"is_disabled":false,"rental_uris":{"android":"levelo://app?vid=561549a2-798d-4052-830a-279630f71645","ios":"levelo://app?vid=561549a2-798d-4052-830a-279630f71645"},"vehicle_type_id":"4","last_reported":1747386657,"current_range_meters":7200,"station_id":"","pricing_plan_id":"cebpf4jnsgd1na2vs0mg"},{"bike_id":"8853279b-291a-4960-beab-d27541a7a9e5","system_id":"levelo_inurba_marseille","lat":43.301323,"lon":5.38005,"is_reserved":false,"is_disabled":false,"rental_uris":{"android":"levelo://app?vid=8853279b-291a-4960-beab-d27541a7a9e5","ios":"levelo://app?vid=8853279b-291a-4960-beab-d27541a7a9e5"},"vehicle_type_id":"4","last_reported":1747386657,"current_range_meters":7200,"station_id":"ce4bgjp2rcd13ifvqbh0","pricing_plan_id":"cebpf4jnsgd1na2vs0mg"},{"bike_id":"6f08251b-0b38-461f-b469-2bcbcf5fd96e","system_id":"levelo_inurba_marseille","lat":43.29933,"lon":5.36552,"is_reserved":false,"is_disabled":false,"rental_uris":{"android":"levelo://app?vid=6f08251b-0b38-461f-b469-2bcbcf5fd96e","ios":"levelo://app?vid=6f08251b-0b38-461f-b469-2bcbcf5fd96e"},"vehicle_type_id":"4","last_reported":1747386657,"current_range_meters":7200,"station_id":"ce4bgm92rcd13ifvqbr0","pricing_plan_id":"cebpf4jnsgd1na2vs0mg"},{"bike_id":"15b596fe-37b5-49a1-9527-50ec65ef72dd","system_id":"levelo_inurba_marseille","lat":43.29004,"lon":5.35609,"is_reserved":false,"is_disabled":false,"rental_uris":{"android":"levelo://app?vid=15b596fe-37b5-49a1-9527-50ec65ef72dd","ios":"levelo://app?vid=15b596fe-37b5-49a1-9527-50ec65ef72dd"},"vehicle_type_id":"4","last_reported":1747386657,"current_range_meters":7200,"station_id":"ce4bhb92rcd13ifvqen0","pricing_plan_id":"cebpf4jnsgd1na2vs0mg"},{"bike_id":"5e44318e-c81b-40fa-a1e0-a3496e01cf39","system_id":"levelo_inurba_marseille","lat":43.2315,"lon":5.43718,"is_reserved":false,"is_disabled":false,"rental_uris":{"android":"levelo://app?vid=5e44318e-c81b-40fa-a1e0-a3496e01cf39","ios":"levelo://app?vid=5e44318e-c81b-40fa-a1e0-a3496e01cf39"},"vehicle_type_id":"4","last_reported":1747386657,"current_range_meters":7200,"station_id":"ce4bhmp2rcd13ifvqgog","pricing_plan_id":"cebpf4jnsgd1na2vs0mg"},{"bike_id":"1e68c884-7599-4b1d-9ee3-43521a53a137","system_id":"levelo_inurba_marseille","lat":43.274907,"lon":5.4246,"is_reserved":false,"is_disabled":false,"rental_uris":{"android":"levelo://app?vid=1e68c884-7599-4b1d-9ee3-43521a53a137","ios":"levelo://app?vid=1e68c884-7599-4b1d-9ee3-43521a53a137"},"vehicle_type_id":"4","last_reported":1747386657,"current_range_meters":7200,"station_id":"ce4bhn92rcd13ifvqgrg","pricing_plan_id":"cebpf4jnsgd1na2vs0mg"},{"bike_id":"614a6166-1760-4980-853c-86035facd777","system_id":"levelo_inurba_marseille","lat":43.33164,"lon":5.38012,"is_reserved":false,"is_disabled":false,"rental_uris":{"android":"levelo://app?vid=614a6166-1760-4980-853c-86035facd777","ios":"levelo://app?vid=614a6166-1760-4980-853c-86035facd777"},"vehicle_type_id":"4","last_reported":1747386657,"current_range_meters":8000,"station_id":"","pricing_plan_id":"cebpf4jnsgd1na2vs0mg"},{"bike_id":"4c8352a4-7efe-4f73-82c3-980f3b57763f","system_id":"levelo_inurba_marseille","lat":43.30149,"lon":5.38095,"is_reserved":false,"is_disabled":false,"rental_uris":{"android":"levelo://app?vid=4c8352a4-7efe-4f73-82c3-980f3b57763f","ios":"levelo://app?vid=4c8352a4-7efe-4f73-82c3-980f3b57763f"},"vehicle_type_id":"4","last_reported":1747386657,"current_range_meters":8000,"station_id":"ce4bgjp2rcd13ifvqbh0","pricing_plan_id":"cebpf4jnsgd1na2vs0mg"},{"bike_id":"a28ee44f-7b38-4cd2-b34a-6a0828d2d11f","system_id":"levelo_inurba_marseille","lat":43.29619,"lon":5.37153,"is_reserved":false,"is_disabled":false,"rental_uris":{"android":"levelo://app?vid=a28ee44f-7b38-4cd2-b34a-6a0828d2d11f","ios":"levelo://app?vid=a28ee44f-7b38-4cd2-b34a-6a0828d2d11f"},"vehicle_type_id":"4","last_reported":1747386657,"current_range_meters":8000,"station_id":"ce4bgnh2rcd13ifvqc0g","pricing_plan_id":"cebpf4jnsgd1na2vs0mg"},{"bike_id":"fb053559-0d1d-42db-b431-354e42f5495e","system_id":"levelo_inurba_marseille","lat":43.28695,"lon":5.37397,"is_reserved":false,"is_disabled":false,"rental_uris":{"android":"levelo://app?vid=fb053559-0d1d-42db-b431-354e42f5495e","ios":"levelo://app?vid=fb053559-0d1d-42db-b431-354e42f5495e"},"vehicle_type_id":"4","last_reported":1747386657,"current_range_meters":8000,"station_id":"ce4bh3p2rcd13ifvqdq0","pricing_plan_id":"cebpf4jnsgd1na2vs0mg"},{"bike_id":"63747ede-8046-4d56-8964-0f406ae3f1a8","system_id":"levelo_inurba_marseille","lat":43.29096,"lon":5.38123,"is_reserved":false,"is_disabled":false,"rental_uris":{"android":"levelo://app?vid=63747ede-8046-4d56-8964-0f406ae3f1a8","ios":"levelo://app?vid=63747ede-8046-4d56-8964-0f406ae3f1a8"},"vehicle_type_id":"4","last_reported":1747386657,"current_range_meters":8000,"station_id":"ce4bh512rcd13ifvqe2g","pricing_plan_id":"cebpf4jnsgd1na2vs0mg"},{"bike_id":"a5e0b9af-078c-4a09-87c4-d1eebd7d062a","system_id":"levelo_inurba_marseille","lat":43.26495,"lon":5.39542,"is_reserved":false,"is_disabled":false,"rental_uris":{"android":"levelo://app?vid=a5e0b9af-078c-4a09-87c4-d1eebd7d062a","ios":"levelo://app?vid=a5e0b9af-078c-4a09-87c4-d1eebd7d062a"},"vehicle_type_id":"4","last_reported":1747386657,"current_range_meters":8000,"station_id":"ce4bhi12rcd13ifvqfq0","pricing_plan_id":"cebpf4jnsgd1na2vs0mg"},{"bike_id":"6415ea1d-1db4-4159-986c-40e3cc70c16e","system_id":"levelo_inurba_marseille","lat":43.33597,"lon":5.41011,"is_reserved":false,"is_disabled":false,"rental_uris":{"android":"levelo://app?vid=6415ea1d-1db4-4159-986c-40e3cc70c16e","ios":"levelo://app?vid=6415ea1d-1db4-4159-986c-40e3cc70c16e"},"vehicle_type_id":"4","last_reported":1747386657,"current_range_meters":8000,"station_id":"ce4bhqh2rcd13ifvqhmg","pricing_plan_id":"cebpf4jnsgd1na2vs0mg"},{"bike_id":"f3df5321-3765-4743-9245-69cea3d0230a","system_id":"levelo_inurba_marseille","lat":43.32384,"lon":5.38881,"is_reserved":false,"is_disabled":false,"rental_uris":{"android":"levelo://app?vid=f3df5321-3765-4743-9245-69cea3d0230a","ios":"levelo://app?vid=f3df5321-3765-4743-9245-69cea3d0230a"},"vehicle_type_id":"4","last_reported":1747386657,"current_range_meters":8000,"station_id":"ce4bhqp2rcd13ifvqhog","pricing_plan_id":"cebpf4jnsgd1na2vs0mg"},{"bike_id":"7f4fc273-1360-4a47-aa6f-29da663bd116","system_id":"levelo_inurba_marseille","lat":43.24899,"lon":5.394264,"is_reserved":false,"is_disabled":false,"rental_uris":{"android":"levelo://app?vid=7f4fc273-1360-4a47-aa6f-29da663bd116","ios":"levelo://app?vid=7f4fc273-1360-4a47-aa6f-29da663bd116"},"vehicle_type_id":"4","last_reported":1747386657,"current_range_meters":8400,"station_id":"","pricing_plan_id":"cebpf4jnsgd1na2vs0mg"},{"bike_id":"4e716133-12bd-48ef-8462-cdade112f10c","system_id":"levelo_inurba_marseille","lat":43.2713,"lon":5.40047,"is_reserved":false,"is_disabled":false,"rental_uris":{"android":"levelo://app?vid=4e716133-12bd-48ef-8462-cdade112f10c","ios":"levelo://app?vid=4e716133-12bd-48ef-8462-cdade112f10c"},"vehicle_type_id":"4","last_reported":1747386657,"current_range_meters":8400,"station_id":"","pricing_plan_id":"cebpf4jnsgd1na2vs0mg"},{"bike_id":"0077f398-56b6-43bb-8eeb-9798d08de05c","system_id":"levelo_inurba_marseille","lat":43.309442,"lon":5.372686,"is_reserved":false,"is_disabled":false,"rental_uris":{"android":"levelo://app?vid=0077f398-56b6-43bb-8eeb-9798d08de05c","ios":"levelo://app?vid=0077f398-56b6-43bb-8eeb-9798d08de05c"},"vehicle_type_id":"4","last_reported":1747386657,"current_range_meters":8400,"station_id":"","pricing_plan_id":"cebpf4jnsgd1na2vs0mg"},{"bike_id":"66f7c9e7-57f3-4b5a-934e-baf9a34e5e1f","system_id":"levelo_inurba_marseille","lat":43.29842,"lon":5.36268,"is_reserved":false,"is_disabled":false,"rental_uris":{"android":"levelo://app?vid=66f7c9e7-57f3-4b5a-934e-baf9a34e5e1f","ios":"levelo://app?vid=66f7c9e7-57f3-4b5a-934e-baf9a34e5e1f"},"vehicle_type_id":"4","last_reported":1747386657,"current_range_meters":8400,"station_id":"ce4bgpp2rcd13ifvqc3g","pricing_plan_id":"cebpf4jnsgd1na2vs0mg"},{"bike_id":"c27fb682-4960-4672-b3ba-7f3c3f771b64","system_id":"levelo_inurba_marseille","lat":43.30948,"lon":5.3904,"is_reserved":false,"is_disabled":false,"rental_uris":{"android":"levelo://app?vid=c27fb682-4960-4672-b3ba-7f3c3f771b64","ios":"levelo://app?vid=c27fb682-4960-4672-b3ba-7f3c3f771b64"},"vehicle_type_id":"4","last_reported":1747386657,"current_range_meters":8400,"station_id":"ce4bgup2rcd13ifvqco0","pricing_plan_id":"cebpf4jnsgd1na2vs0mg"},{"bike_id":"47a47b3a-c95c-4f60-a6ee-e0271829d5f4","system_id":"levelo_inurba_marseille","lat":43.29523,"lon":5.39029,"is_reserved":false,"is_disabled":false,"rental_uris":{"android":"levelo://app?vid=47a47b3a-c95c-4f60-a6ee-e0271829d5f4","ios":"levelo://app?vid=47a47b3a-c95c-4f60-a6ee-e0271829d5f4"},"vehicle_type_id":"4","last_reported":1747386657,"current_range_meters":8400,"station_id":"ce4bh3p2rcd13ifvqdp0","pricing_plan_id":"cebpf4jnsgd1na2vs0mg"},{"bike_id":"37cf4842-1a7d-4de8-9732-5d0ee46fb65e","system_id":"levelo_inurba_marseille","lat":43.28488,"lon":5.38416,"is_reserved":false,"is_disabled":false,"rental_uris":{"android":"levelo://app?vid=37cf4842-1a7d-4de8-9732-5d0ee46fb65e","ios":"levelo://app?vid=37cf4842-1a7d-4de8-9732-5d0ee46fb65e"},"vehicle_type_id":"4","last_reported":1747386657,"current_range_meters":8400,"station_id":"ce4bh512rcd13ifvqe3g","pricing_plan_id":"cebpf4jnsgd1na2vs0mg"},{"bike_id":"67a59dc1-46f7-4a43-857a-5767f28c4331","system_id":"levelo_inurba_marseille","lat":43.26557,"lon":5.37281,"is_reserved":false,"is_disabled":false,"rental_uris":{"android":"levelo://app?vid=67a59dc1-46f7-4a43-857a-5767f28c4331","ios":"levelo://app?vid=67a59dc1-46f7-4a43-857a-5767f28c4331"},"vehicle_type_id":"4","last_reported":1747386657,"current_range_meters":8400,"station_id":"ce4bhg12rcd13ifvqf70","pricing_plan_id":"cebpf4jnsgd1na2vs0mg"},{"bike_id":"57e994b2-8252-4cc6-a548-eba1f5a30d7c","system_id":"levelo_inurba_marseille","lat":43.25905,"lon":5.40896,"is_reserved":false,"is_disabled":false,"rental_uris":{"android":"levelo://app?vid=57e994b2-8252-4cc6-a548-eba1f5a30d7c","ios":"levelo://app?vid=57e994b2-8252-4cc6-a548-eba1f5a30d7c"},"vehicle_type_id":"4","last_reported":1747386657,"current_range_meters":8400,"station_id":"ce4bhm92rcd13ifvqglg","pricing_plan_id":"cebpf4jnsgd1na2vs0mg"},{"bike_id":"f768f02c-a770-46ed-b9fb-ed1e435a3c0f","system_id":"levelo_inurba_marseille","lat":43.32926,"lon":5.38996,"is_reserved":false,"is_disabled":false,"rental_uris":{"android":"levelo://app?vid=f768f02c-a770-46ed-b9fb-ed1e435a3c0f","ios":"levelo://app?vid=f768f02c-a770-46ed-b9fb-ed1e435a3c0f"},"vehicle_type_id":"4","last_reported":1747386657,"current_range_meters":8800,"station_id":"","pricing_plan_id":"cebpf4jnsgd1na2vs0mg"},{"bike_id":"0abf489f-05ac-491a-a75b-d5fae8739766","system_id":"levelo_inurba_marseille","lat":43.28935,"lon":5.38394,"is_reserved":false,"is_disabled":false,"rental_uris":{"android":"levelo://app?vid=0abf489f-05ac-491a-a75b-d5fae8739766","ios":"levelo://app?vid=0abf489f-05ac-491a-a75b-d5fae8739766"},"vehicle_type_id":"4","last_reported":1747386657,"current_range_meters":8800,"station_id":"ce4bh612rcd13ifvqe6g","pricing_plan_id":"cebpf4jnsgd1na2vs0mg"},{"bike_id":"632ffc35-3a5e-4dda-861e-517e896a461f","system_id":"levelo_inurba_marseille","lat":43.23963,"lon":5.36628,"is_reserved":false,"is_disabled":false,"rental_uris":{"android":"levelo://app?vid=632ffc35-3a5e-4dda-861e-517e896a461f","ios":"levelo://app?vid=632ffc35-3a5e-4dda-861e-517e896a461f"},"vehicle_type_id":"4","last_reported":1747386657,"current_range_meters":8800,"station_id":"ce4bhi12rcd13ifvqfp0","pricing_plan_id":"cebpf4jnsgd1na2vs0mg"},{"bike_id":"f8708533-c882-424d-919c-8da02599e742","system_id":"levelo_inurba_marseille","lat":43.32367,"lon":5.3889,"is_reserved":false,"is_disabled":false,"rental_uris":{"android":"levelo://app?vid=f8708533-c882-424d-919c-8da02599e742","ios":"levelo://app?vid=f8708533-c882-424d-919c-8da02599e742"},"vehicle_type_id":"4","last_reported":1747386657,"current_range_meters":8800,"station_id":"ce4bhqp2rcd13ifvqhog","pricing_plan_id":"cebpf4jnsgd1na2vs0mg"},{"bike_id":"31bedb95-5fc4-4b24-91b1-10c9cd7506c0","system_id":"levelo_inurba_marseille","lat":43.2583,"lon":5.3944,"is_reserved":false,"is_disabled":false,"rental_uris":{"android":"levelo://app?vid=31bedb95-5fc4-4b24-91b1-10c9cd7506c0","ios":"levelo://app?vid=31bedb95-5fc4-4b24-91b1-10c9cd7506c0"},"vehicle_type_id":"4","last_reported":1747386657,"current_range_meters":9200,"station_id":"ce4bhip2rcd13ifvqft0","pricing_plan_id":"cebpf4jnsgd1na2vs0mg"},{"bike_id":"253ad97e-efa9-4530-b082-6a7bf31d9808","system_id":"levelo_inurba_marseille","lat":43.274938,"lon":5.424583,"is_reserved":false,"is_disabled":false,"rental_uris":{"android":"levelo://app?vid=253ad97e-efa9-4530-b082-6a7bf31d9808","ios":"levelo://app?vid=253ad97e-efa9-4530-b082-6a7bf31d9808"},"vehicle_type_id":"4","last_reported":1747386657,"current_range_meters":9200,"station_id":"ce4bhn92rcd13ifvqgrg","pricing_plan_id":"cebpf4jnsgd1na2vs0mg"},{"bike_id":"01638126-3c79-4aa8-b344-42085231ebd4","system_id":"levelo_inurba_marseille","lat":43.3416,"lon":5.40906,"is_reserved":false,"is_disabled":false,"rental_uris":{"android":"levelo://app?vid=01638126-3c79-4aa8-b344-42085231ebd4","ios":"levelo://app?vid=01638126-3c79-4aa8-b344-42085231ebd4"},"vehicle_type_id":"4","last_reported":1747386657,"current_range_meters":9200,"station_id":"ce4bhqh2rcd13ifvqhlg","pricing_plan_id":"cebpf4jnsgd1na2vs0mg"},{"bike_id":"f8e4732a-2ecf-431c-8f66-abc7aabb8aa1","system_id":"levelo_inurba_marseille","lat":43.329479,"lon":5.390004,"is_reserved":false,"is_disabled":false,"rental_uris":{"android":"levelo://app?vid=f8e4732a-2ecf-431c-8f66-abc7aabb8aa1","ios":"levelo://app?vid=f8e4732a-2ecf-431c-8f66-abc7aabb8aa1"},"vehicle_type_id":"4","last_reported":1747386657,"current_range_meters":9600,"station_id":"","pricing_plan_id":"cebpf4jnsgd1na2vs0mg"},{"bike_id":"ec47d9b7-d844-4036-92e7-590b0007c2d0","system_id":"levelo_inurba_marseille","lat":43.30796,"lon":5.38158,"is_reserved":false,"is_disabled":false,"rental_uris":{"android":"levelo://app?vid=ec47d9b7-d844-4036-92e7-590b0007c2d0","ios":"levelo://app?vid=ec47d9b7-d844-4036-92e7-590b0007c2d0"},"vehicle_type_id":"4","last_reported":1747386657,"current_range_meters":9600,"station_id":"ce4bgt12rcd13ifvqce0","pricing_plan_id":"cebpf4jnsgd1na2vs0mg"},{"bike_id":"dd54c784-42ac-480f-a649-28ebcb3953c8","system_id":"levelo_inurba_marseille","lat":43.317575,"lon":5.390168,"is_reserved":false,"is_disabled":false,"rental_uris":{"android":"levelo://app?vid=dd54c784-42ac-480f-a649-28ebcb3953c8","ios":"levelo://app?vid=dd54c784-42ac-480f-a649-28ebcb3953c8"},"vehicle_type_id":"4","last_reported":1747386657,"current_range_meters":9600,"station_id":"ce4bhqp2rcd13ifvqhng","pricing_plan_id":"cebpf4jnsgd1na2vs0mg"},{"bike_id":"e64e4484-2db6-41f4-beb8-e0c0ae1263cd","system_id":"levelo_inurba_marseille","lat":43.285174,"lon":5.430344,"is_reserved":false,"is_disabled":false,"rental_uris":{"android":"levelo://app?vid=e64e4484-2db6-41f4-beb8-e0c0ae1263cd","ios":"levelo://app?vid=e64e4484-2db6-41f4-beb8-e0c0ae1263cd"},"vehicle_type_id":"4","last_reported":1747386657,"current_range_meters":10000,"station_id":"","pricing_plan_id":"cebpf4jnsgd1na2vs0mg"},{"bike_id":"20ce05a8-aff2-4d2a-af87-be516040e39d","system_id":"levelo_inurba_marseille","lat":43.29365,"lon":5.37845,"is_reserved":false,"is_disabled":false,"rental_uris":{"android":"levelo://app?vid=20ce05a8-aff2-4d2a-af87-be516040e39d","ios":"levelo://app?vid=20ce05a8-aff2-4d2a-af87-be516040e39d"},"vehicle_type_id":"4","last_reported":1747386657,"current_range_meters":10000,"station_id":"ce4bgjh2rcd13ifvqbf0","pricing_plan_id":"cebpf4jnsgd1na2vs0mg"},{"bike_id":"687cf68a-49aa-4258-b09f-3cafca60faa7","system_id":"levelo_inurba_marseille","lat":43.33598,"lon":5.40986,"is_reserved":false,"is_disabled":false,"rental_uris":{"android":"levelo://app?vid=687cf68a-49aa-4258-b09f-3cafca60faa7","ios":"levelo://app?vid=687cf68a-49aa-4258-b09f-3cafca60faa7"},"vehicle_type_id":"4","last_reported":1747386657,"current_range_meters":10000,"station_id":"ce4bhqh2rcd13ifvqhmg","pricing_plan_id":"cebpf4jnsgd1na2vs0mg"},{"bike_id":"8836e79e-e321-4a2e-9c90-bb6413adbda4","system_id":"levelo_inurba_marseille","lat":43.29602,"lon":5.37702,"is_reserved":false,"is_disabled":false,"rental_uris":{"android":"levelo://app?vid=8836e79e-e321-4a2e-9c90-bb6413adbda4","ios":"levelo://app?vid=8836e79e-e321-4a2e-9c90-bb6413adbda4"},"vehicle_type_id":"4","last_reported":1747386657,"current_range_meters":10800,"station_id":"ce4bgi92rcd13ifvqb90","pricing_plan_id":"cebpf4jnsgd1na2vs0mg"},{"bike_id":"93ab074b-3a3b-48cd-b240-db693e376c93","system_id":"levelo_inurba_marseille","lat":43.29983,"lon":5.37178,"is_reserved":false,"is_disabled":false,"rental_uris":{"android":"levelo://app?vid=93ab074b-3a3b-48cd-b240-db693e376c93","ios":"levelo://app?vid=93ab074b-3a3b-48cd-b240-db693e376c93"},"vehicle_type_id":"4","last_reported":1747386657,"current_range_meters":10800,"station_id":"ce4bgr92rcd13ifvqc7g","pricing_plan_id":"cebpf4jnsgd1na2vs0mg"},{"bike_id":"62b982c7-0779-4d9d-b25e-70b6ecdaf1bc","system_id":"levelo_inurba_marseille","lat":43.24999,"lon":5.38931,"is_reserved":false,"is_disabled":false,"rental_uris":{"android":"levelo://app?vid=62b982c7-0779-4d9d-b25e-70b6ecdaf1bc","ios":"levelo://app?vid=62b982c7-0779-4d9d-b25e-70b6ecdaf1bc"},"vehicle_type_id":"4","last_reported":1747386657,"current_range_meters":10800,"station_id":"ce4bhgp2rcd13ifvqfd0","pricing_plan_id":"cebpf4jnsgd1na2vs0mg"},{"bike_id":"2c6ec7e7-ded9-4916-9df6-3deb51ccaee8","system_id":"levelo_inurba_marseille","lat":43.23967,"lon":5.36631,"is_reserved":false,"is_disabled":false,"rental_uris":{"android":"levelo://app?vid=2c6ec7e7-ded9-4916-9df6-3deb51ccaee8","ios":"levelo://app?vid=2c6ec7e7-ded9-4916-9df6-3deb51ccaee8"},"vehicle_type_id":"4","last_reported":1747386657,"current_range_meters":10800,"station_id":"ce4bhi12rcd13ifvqfp0","pricing_plan_id":"cebpf4jnsgd1na2vs0mg"},{"bike_id":"5879f203-1394-47e0-9f75-7c405ac331f5","system_id":"levelo_inurba_marseille","lat":43.323653,"lon":5.38888,"is_reserved":false,"is_disabled":false,"rental_uris":{"android":"levelo://app?vid=5879f203-1394-47e0-9f75-7c405ac331f5","ios":"levelo://app?vid=5879f203-1394-47e0-9f75-7c405ac331f5"},"vehicle_type_id":"4","last_reported":1747386657,"current_range_meters":10800,"station_id":"ce4bhqp2rcd13ifvqhog","pricing_plan_id":"cebpf4jnsgd1na2vs0mg"},{"bike_id":"1ce2666e-7c14-44ae-9824-85781a87578f","system_id":"levelo_inurba_marseille","lat":43.29295,"lon":5.37452,"is_reserved":false,"is_disabled":false,"rental_uris":{"android":"levelo://app?vid=1ce2666e-7c14-44ae-9824-85781a87578f","ios":"levelo://app?vid=1ce2666e-7c14-44ae-9824-85781a87578f"},"vehicle_type_id":"4","last_reported":1747386657,"current_range_meters":11200,"station_id":"ce4bgi12rcd13ifvqb70","pricing_plan_id":"cebpf4jnsgd1na2vs0mg"},{"bike_id":"01617a6a-14a3-41fd-a952-050c14151980","system_id":"levelo_inurba_marseille","lat":43.31716,"lon":5.37762,"is_reserved":false,"is_disabled":false,"rental_uris":{"android":"levelo://app?vid=01617a6a-14a3-41fd-a952-050c14151980","ios":"levelo://app?vid=01617a6a-14a3-41fd-a952-050c14151980"},"vehicle_type_id":"4","last_reported":1747386657,"current_range_meters":11200,"station_id":"ce4bgth2rcd13ifvqch0","pricing_plan_id":"cebpf4jnsgd1na2vs0mg"},{"bike_id":"a488853e-8708-42f9-a9f1-40f4dc62e03d","system_id":"levelo_inurba_marseille","lat":43.30552,"lon":5.3727,"is_reserved":false,"is_disabled":false,"rental_uris":{"android":"levelo://app?vid=a488853e-8708-42f9-a9f1-40f4dc62e03d","ios":"levelo://app?vid=a488853e-8708-42f9-a9f1-40f4dc62e03d"},"vehicle_type_id":"4","last_reported":1747386657,"current_range_meters":11600,"station_id":"","pricing_plan_id":"cebpf4jnsgd1na2vs0mg"},{"bike_id":"66d6e6bc-5a70-4c2d-9403-91f1b316f3ae","system_id":"levelo_inurba_marseille","lat":43.28697,"lon":5.37394,"is_reserved":false,"is_disabled":false,"rental_uris":{"android":"levelo://app?vid=66d6e6bc-5a70-4c2d-9403-91f1b316f3ae","ios":"levelo://app?vid=66d6e6bc-5a70-4c2d-9403-91f1b316f3ae"},"vehicle_type_id":"4","last_reported":1747386657,"current_range_meters":11600,"station_id":"ce4bh3p2rcd13ifvqdq0","pricing_plan_id":"cebpf4jnsgd1na2vs0mg"},{"bike_id":"44b36cb6-568d-4966-9f4d-abce6bff1867","system_id":"levelo_inurba_marseille","lat":43.32542,"lon":5.41429,"is_reserved":false,"is_disabled":false,"rental_uris":{"android":"levelo://app?vid=44b36cb6-568d-4966-9f4d-abce6bff1867","ios":"levelo://app?vid=44b36cb6-568d-4966-9f4d-abce6bff1867"},"vehicle_type_id":"4","last_reported":1747386657,"current_range_meters":11600,"station_id":"ce4bhq12rcd13ifvqhhg","pricing_plan_id":"cebpf4jnsgd1na2vs0mg"},{"bike_id":"39c7c348-baf3-417a-8df3-30f456f5c866","system_id":"levelo_inurba_marseille","lat":43.32109,"lon":5.36784,"is_reserved":false,"is_disabled":false,"rental_uris":{"android":"levelo://app?vid=39c7c348-baf3-417a-8df3-30f456f5c866","ios":"levelo://app?vid=39c7c348-baf3-417a-8df3-30f456f5c866"},"vehicle_type_id":"4","last_reported":1747386657,"current_range_meters":11600,"station_id":"ce4bhrh2rcd13ifvqhug","pricing_plan_id":"cebpf4jnsgd1na2vs0mg"},{"bike_id":"97c3d70e-d883-4f8a-9ff9-e450206dd13b","system_id":"levelo_inurba_marseille","lat":43.26787,"lon":5.39413,"is_reserved":false,"is_disabled":false,"rental_uris":{"android":"levelo://app?vid=97c3d70e-d883-4f8a-9ff9-e450206dd13b","ios":"levelo://app?vid=97c3d70e-d883-4f8a-9ff9-e450206dd13b"},"vehicle_type_id":"4","last_reported":1747386657,"current_range_meters":12000,"station_id":"ce4bhh12rcd13ifvqfg0","pricing_plan_id":"cebpf4jnsgd1na2vs0mg"},{"bike_id":"0ee25117-a796-4890-8efa-dbe0c6a9f2ca","system_id":"levelo_inurba_marseille","lat":43.28463,"lon":5.38418,"is_reserved":false,"is_disabled":false,"rental_uris":{"android":"levelo://app?vid=0ee25117-a796-4890-8efa-dbe0c6a9f2ca","ios":"levelo://app?vid=0ee25117-a796-4890-8efa-dbe0c6a9f2ca"},"vehicle_type_id":"4","last_reported":1747386657,"current_range_meters":12400,"station_id":"ce4bh512rcd13ifvqe3g","pricing_plan_id":"cebpf4jnsgd1na2vs0mg"},{"bike_id":"11deabd2-b906-40b7-a13a-e70023106965","system_id":"levelo_inurba_marseille","lat":43.28978,"lon":5.37847,"is_reserved":false,"is_disabled":false,"rental_uris":{"android":"levelo://app?vid=11deabd2-b906-40b7-a13a-e70023106965","ios":"levelo://app?vid=11deabd2-b906-40b7-a13a-e70023106965"},"vehicle_type_id":"4","last_reported":1747386657,"current_range_meters":12400,"station_id":"ce4bh9p2rcd13ifvqed0","pricing_plan_id":"cebpf4jnsgd1na2vs0mg"},{"bike_id":"6d886103-344e-431a-ac80-7f62879d2f7c","system_id":"levelo_inurba_marseille","lat":43.22936,"lon":5.35389,"is_reserved":false,"is_disabled":false,"rental_uris":{"android":"levelo://app?vid=6d886103-344e-431a-ac80-7f62879d2f7c","ios":"levelo://app?vid=6d886103-344e-431a-ac80-7f62879d2f7c"},"vehicle_type_id":"4","last_reported":1747386657,"current_range_meters":12400,"station_id":"cpo3532slgdg3j2ikp40","pricing_plan_id":"cebpf4jnsgd1na2vs0mg"},{"bike_id":"765e0cfb-c888-4327-a53d-5a7e4b9b7d45","system_id":"levelo_inurba_marseille","lat":43.31351,"lon":5.36703,"is_reserved":false,"is_disabled":false,"rental_uris":{"android":"levelo://app?vid=765e0cfb-c888-4327-a53d-5a7e4b9b7d45","ios":"levelo://app?vid=765e0cfb-c888-4327-a53d-5a7e4b9b7d45"},"vehicle_type_id":"4","last_reported":1747386657,"current_range_meters":12800,"station_id":"ce4bgr92rcd13ifvqc6g","pricing_plan_id":"cebpf4jnsgd1na2vs0mg"},{"bike_id":"a282b232-46b2-4c36-97b4-45bf47cf6cbe","system_id":"levelo_inurba_marseille","lat":43.32023,"lon":5.41575,"is_reserved":false,"is_disabled":false,"rental_uris":{"android":"levelo://app?vid=a282b232-46b2-4c36-97b4-45bf47cf6cbe","ios":"levelo://app?vid=a282b232-46b2-4c36-97b4-45bf47cf6cbe"},"vehicle_type_id":"4","last_reported":1747386657,"current_range_meters":12800,"station_id":"ce4bhq92rcd13ifvqhkg","pricing_plan_id":"cebpf4jnsgd1na2vs0mg"},{"bike_id":"8c3c45c9-d1ca-4a7e-b858-e4cf9b6f095f","system_id":"levelo_inurba_marseille","lat":43.28235,"lon":5.40269,"is_reserved":false,"is_disabled":false,"rental_uris":{"android":"levelo://app?vid=8c3c45c9-d1ca-4a7e-b858-e4cf9b6f095f","ios":"levelo://app?vid=8c3c45c9-d1ca-4a7e-b858-e4cf9b6f095f"},"vehicle_type_id":"4","last_reported":1747386657,"current_range_meters":14000,"station_id":"","pricing_plan_id":"cebpf4jnsgd1na2vs0mg"},{"bike_id":"0c24d09f-ee1b-4d83-af33-562b6b2ca194","system_id":"levelo_inurba_marseille","lat":43.32365,"lon":5.38881,"is_reserved":false,"is_disabled":false,"rental_uris":{"android":"levelo://app?vid=0c24d09f-ee1b-4d83-af33-562b6b2ca194","ios":"levelo://app?vid=0c24d09f-ee1b-4d83-af33-562b6b2ca194"},"vehicle_type_id":"4","last_reported":1747386657,"current_range_meters":14000,"station_id":"ce4bhqp2rcd13ifvqhog","pricing_plan_id":"cebpf4jnsgd1na2vs0mg"},{"bike_id":"7d644e8a-3214-4204-973d-0890777dd25b","system_id":"levelo_inurba_marseille","lat":43.259,"lon":5.40905,"is_reserved":false,"is_disabled":false,"rental_uris":{"android":"levelo://app?vid=7d644e8a-3214-4204-973d-0890777dd25b","ios":"levelo://app?vid=7d644e8a-3214-4204-973d-0890777dd25b"},"vehicle_type_id":"4","last_reported":1747386657,"current_range_meters":14400,"station_id":"ce4bhm92rcd13ifvqglg","pricing_plan_id":"cebpf4jnsgd1na2vs0mg"},{"bike_id":"6ba72a80-bf5b-419d-941d-6bba42564cc2","system_id":"levelo_inurba_marseille","lat":43.297051,"lon":5.366264,"is_reserved":false,"is_disabled":false,"rental_uris":{"android":"levelo://app?vid=6ba72a80-bf5b-419d-941d-6bba42564cc2","ios":"levelo://app?vid=6ba72a80-bf5b-419d-941d-6bba42564cc2"},"vehicle_type_id":"4","last_reported":1747386657,"current_range_meters":14800,"station_id":"ce4bgn12rcd13ifvqbt0","pricing_plan_id":"cebpf4jnsgd1na2vs0mg"},{"bike_id":"c1060434-f3a3-4c53-bfc8-b22ee9c56a76","system_id":"levelo_inurba_marseille","lat":43.29012,"lon":5.35618,"is_reserved":false,"is_disabled":false,"rental_uris":{"android":"levelo://app?vid=c1060434-f3a3-4c53-bfc8-b22ee9c56a76","ios":"levelo://app?vid=c1060434-f3a3-4c53-bfc8-b22ee9c56a76"},"vehicle_type_id":"4","last_reported":1747386657,"current_range_meters":14800,"station_id":"ce4bhb92rcd13ifvqen0","pricing_plan_id":"cebpf4jnsgd1na2vs0mg"},{"bike_id":"29542e64-d92f-4831-8961-ae7f1c7739a9","system_id":"levelo_inurba_marseille","lat":43.27058,"lon":5.40255,"is_reserved":false,"is_disabled":false,"rental_uris":{"android":"levelo://app?vid=29542e64-d92f-4831-8961-ae7f1c7739a9","ios":"levelo://app?vid=29542e64-d92f-4831-8961-ae7f1c7739a9"},"vehicle_type_id":"4","last_reported":1747386657,"current_range_meters":14800,"station_id":"ce4bhk92rcd13ifvqgc0","pricing_plan_id":"cebpf4jnsgd1na2vs0mg"},{"bike_id":"3873b14f-cf85-40c2-a5ee-b159102313b1","system_id":"levelo_inurba_marseille","lat":43.274969,"lon":5.424477,"is_reserved":false,"is_disabled":false,"rental_uris":{"android":"levelo://app?vid=3873b14f-cf85-40c2-a5ee-b159102313b1","ios":"levelo://app?vid=3873b14f-cf85-40c2-a5ee-b159102313b1"},"vehicle_type_id":"4","last_reported":1747386657,"current_range_meters":14800,"station_id":"ce4bhn92rcd13ifvqgrg","pricing_plan_id":"cebpf4jnsgd1na2vs0mg"},{"bike_id":"88378c0e-4dd9-4f14-b2c9-5746129a3668","system_id":"levelo_inurba_marseille","lat":43.32484,"lon":5.36583,"is_reserved":false,"is_disabled":false,"rental_uris":{"android":"levelo://app?vid=88378c0e-4dd9-4f14-b2c9-5746129a3668","ios":"levelo://app?vid=88378c0e-4dd9-4f14-b2c9-5746129a3668"},"vehicle_type_id":"4","last_reported":1747386657,"current_range_meters":14800,"station_id":"ce4bhs12rcd13ifvqhvg","pricing_plan_id":"cebpf4jnsgd1na2vs0mg"},{"bike_id":"4c50a1f4-9b8f-4402-81a6-4b92fac2f424","system_id":"levelo_inurba_marseille","lat":43.32366,"lon":5.36757,"is_reserved":false,"is_disabled":false,"rental_uris":{"android":"levelo://app?vid=4c50a1f4-9b8f-4402-81a6-4b92fac2f424","ios":"levelo://app?vid=4c50a1f4-9b8f-4402-81a6-4b92fac2f424"},"vehicle_type_id":"4","last_reported":1747386657,"current_range_meters":14800,"station_id":"ce4bhsh2rcd13ifvqi2g","pricing_plan_id":"cebpf4jnsgd1na2vs0mg"},{"bike_id":"225d88a7-bbb1-45c7-845f-1fd1816815a2","system_id":"levelo_inurba_marseille","lat":43.34696,"lon":5.34517,"is_reserved":false,"is_disabled":false,"rental_uris":{"android":"levelo://app?vid=225d88a7-bbb1-45c7-845f-1fd1816815a2","ios":"levelo://app?vid=225d88a7-bbb1-45c7-845f-1fd1816815a2"},"vehicle_type_id":"4","last_reported":1747386657,"current_range_meters":15200,"station_id":"","pricing_plan_id":"cebpf4jnsgd1na2vs0mg"},{"bike_id":"22b6f9c7-a4c1-4fa3-bd96-b29e8a20ef5e","system_id":"levelo_inurba_marseille","lat":43.28364,"lon":5.38639,"is_reserved":false,"is_disabled":false,"rental_uris":{"android":"levelo://app?vid=22b6f9c7-a4c1-4fa3-bd96-b29e8a20ef5e","ios":"levelo://app?vid=22b6f9c7-a4c1-4fa3-bd96-b29e8a20ef5e"},"vehicle_type_id":"4","last_reported":1747386657,"current_range_meters":15200,"station_id":"ce4bh492rcd13ifvqdvg","pricing_plan_id":"cebpf4jnsgd1na2vs0mg"},{"bike_id":"c9c9af83-b1ee-4a35-a8d7-591581122cdd","system_id":"levelo_inurba_marseille","lat":43.28107,"lon":5.37841,"is_reserved":false,"is_disabled":false,"rental_uris":{"android":"levelo://app?vid=c9c9af83-b1ee-4a35-a8d7-591581122cdd","ios":"levelo://app?vid=c9c9af83-b1ee-4a35-a8d7-591581122cdd"},"vehicle_type_id":"4","last_reported":1747386657,"current_range_meters":15200,"station_id":"ce4bha12rcd13ifvqee0","pricing_plan_id":"cebpf4jnsgd1na2vs0mg"},{"bike_id":"2afe07c9-417f-4b2a-b4cf-115a063ee7e8","system_id":"levelo_inurba_marseille","lat":43.25921,"lon":5.40895,"is_reserved":false,"is_disabled":false,"rental_uris":{"android":"levelo://app?vid=2afe07c9-417f-4b2a-b4cf-115a063ee7e8","ios":"levelo://app?vid=2afe07c9-417f-4b2a-b4cf-115a063ee7e8"},"vehicle_type_id":"4","last_reported":1747386657,"current_range_meters":15200,"station_id":"ce4bhm92rcd13ifvqglg","pricing_plan_id":"cebpf4jnsgd1na2vs0mg"},{"bike_id":"6d812bb8-7c84-4b9d-aa7e-2e32f2e0ab84","system_id":"levelo_inurba_marseille","lat":43.23954,"lon":5.37597,"is_reserved":false,"is_disabled":false,"rental_uris":{"android":"levelo://app?vid=6d812bb8-7c84-4b9d-aa7e-2e32f2e0ab84","ios":"levelo://app?vid=6d812bb8-7c84-4b9d-aa7e-2e32f2e0ab84"},"vehicle_type_id":"4","last_reported":1747386657,"current_range_meters":16000,"station_id":"","pricing_plan_id":"cebpf4jnsgd1na2vs0mg"},{"bike_id":"fb691759-c1d0-4bca-b625-bfe47a6ceed7","system_id":"levelo_inurba_marseille","lat":43.29288,"lon":5.38211,"is_reserved":false,"is_disabled":false,"rental_uris":{"android":"levelo://app?vid=fb691759-c1d0-4bca-b625-bfe47a6ceed7","ios":"levelo://app?vid=fb691759-c1d0-4bca-b625-bfe47a6ceed7"},"vehicle_type_id":"4","last_reported":1747386657,"current_range_meters":16000,"station_id":"","pricing_plan_id":"cebpf4jnsgd1na2vs0mg"},{"bike_id":"906c1dd6-dcce-4701-9b6a-ab6a467ccdad","system_id":"levelo_inurba_marseille","lat":43.30953,"lon":5.39037,"is_reserved":false,"is_disabled":false,"rental_uris":{"android":"levelo://app?vid=906c1dd6-dcce-4701-9b6a-ab6a467ccdad","ios":"levelo://app?vid=906c1dd6-dcce-4701-9b6a-ab6a467ccdad"},"vehicle_type_id":"4","last_reported":1747386657,"current_range_meters":16000,"station_id":"ce4bgup2rcd13ifvqco0","pricing_plan_id":"cebpf4jnsgd1na2vs0mg"},{"bike_id":"4c69767d-2649-49f1-8c0e-3b06591f2e05","system_id":"levelo_inurba_marseille","lat":43.26797,"lon":5.39427,"is_reserved":false,"is_disabled":false,"rental_uris":{"android":"levelo://app?vid=4c69767d-2649-49f1-8c0e-3b06591f2e05","ios":"levelo://app?vid=4c69767d-2649-49f1-8c0e-3b06591f2e05"},"vehicle_type_id":"4","last_reported":1747386657,"current_range_meters":16000,"station_id":"ce4bhh12rcd13ifvqfg0","pricing_plan_id":"cebpf4jnsgd1na2vs0mg"},{"bike_id":"8dc9cc90-8c14-4d08-9bb3-ce4198def33f","system_id":"levelo_inurba_marseille","lat":43.27495,"lon":5.42449,"is_reserved":false,"is_disabled":false,"rental_uris":{"android":"levelo://app?vid=8dc9cc90-8c14-4d08-9bb3-ce4198def33f","ios":"levelo://app?vid=8dc9cc90-8c14-4d08-9bb3-ce4198def33f"},"vehicle_type_id":"4","last_reported":1747386657,"current_range_meters":16000,"station_id":"ce4bhn92rcd13ifvqgrg","pricing_plan_id":"cebpf4jnsgd1na2vs0mg"},{"bike_id":"aa53c5b9-c9b8-4906-989e-6e49a1f5abe6","system_id":"levelo_inurba_marseille","lat":43.22943,"lon":5.35391,"is_reserved":false,"is_disabled":false,"rental_uris":{"android":"levelo://app?vid=aa53c5b9-c9b8-4906-989e-6e49a1f5abe6","ios":"levelo://app?vid=aa53c5b9-c9b8-4906-989e-6e49a1f5abe6"},"vehicle_type_id":"4","last_reported":1747386657,"current_range_meters":16000,"station_id":"cpo3532slgdg3j2ikp40","pricing_plan_id":"cebpf4jnsgd1na2vs0mg"},{"bike_id":"f3e0c628-780f-4f3c-a76a-dd2700b8cd34","system_id":"levelo_inurba_marseille","lat":43.30278,"lon":5.37681,"is_reserved":false,"is_disabled":false,"rental_uris":{"android":"levelo://app?vid=f3e0c628-780f-4f3c-a76a-dd2700b8cd34","ios":"levelo://app?vid=f3e0c628-780f-4f3c-a76a-dd2700b8cd34"},"vehicle_type_id":"4","last_reported":1747386657,"current_range_meters":16400,"station_id":"ce4bguh2rcd13ifvqcj0","pricing_plan_id":"cebpf4jnsgd1na2vs0mg"},{"bike_id":"da66c5e5-6e35-4104-b407-ba7ff49a5057","system_id":"levelo_inurba_marseille","lat":43.23202,"lon":5.39985,"is_reserved":false,"is_disabled":false,"rental_uris":{"android":"levelo://app?vid=da66c5e5-6e35-4104-b407-ba7ff49a5057","ios":"levelo://app?vid=da66c5e5-6e35-4104-b407-ba7ff49a5057"},"vehicle_type_id":"4","last_reported":1747386657,"current_range_meters":16400,"station_id":"ce4bhn12rcd13ifvqgqg","pricing_plan_id":"cebpf4jnsgd1na2vs0mg"},{"bike_id":"68ce408e-653e-45d0-b550-6a6cfa3278cb","system_id":"levelo_inurba_marseille","lat":43.30421,"lon":5.41282,"is_reserved":false,"is_disabled":false,"rental_uris":{"android":"levelo://app?vid=68ce408e-653e-45d0-b550-6a6cfa3278cb","ios":"levelo://app?vid=68ce408e-653e-45d0-b550-6a6cfa3278cb"},"vehicle_type_id":"4","last_reported":1747386657,"current_range_meters":16400,"station_id":"ce4bhop2rcd13ifvqh8g","pricing_plan_id":"cebpf4jnsgd1na2vs0mg"},{"bike_id":"d9cf0daf-2b8c-44c0-ad88-67a126aa883b","system_id":"levelo_inurba_marseille","lat":43.25916,"lon":5.40891,"is_reserved":false,"is_disabled":false,"rental_uris":{"android":"levelo://app?vid=d9cf0daf-2b8c-44c0-ad88-67a126aa883b","ios":"levelo://app?vid=d9cf0daf-2b8c-44c0-ad88-67a126aa883b"},"vehicle_type_id":"4","last_reported":1747386657,"current_range_meters":16800,"station_id":"ce4bhm92rcd13ifvqglg","pricing_plan_id":"cebpf4jnsgd1na2vs0mg"},{"bike_id":"16748ab3-36ff-4772-bfcc-45d7b9aee659","system_id":"levelo_inurba_marseille","lat":43.27496,"lon":5.42461,"is_reserved":false,"is_disabled":false,"rental_uris":{"android":"levelo://app?vid=16748ab3-36ff-4772-bfcc-45d7b9aee659","ios":"levelo://app?vid=16748ab3-36ff-4772-bfcc-45d7b9aee659"},"vehicle_type_id":"4","last_reported":1747386657,"current_range_meters":16800,"station_id":"ce4bhn92rcd13ifvqgrg","pricing_plan_id":"cebpf4jnsgd1na2vs0mg"},{"bike_id":"6ee860e6-5e4e-4f65-9301-9807d55e4a11","system_id":"levelo_inurba_marseille","lat":43.274974,"lon":5.424575,"is_reserved":false,"is_disabled":false,"rental_uris":{"android":"levelo://app?vid=6ee860e6-5e4e-4f65-9301-9807d55e4a11","ios":"levelo://app?vid=6ee860e6-5e4e-4f65-9301-9807d55e4a11"},"vehicle_type_id":"4","last_reported":1747386657,"current_range_meters":16800,"station_id":"ce4bhn92rcd13ifvqgrg","pricing_plan_id":"cebpf4jnsgd1na2vs0mg"},{"bike_id":"cdadbabf-6311-4fa0-801d-b45b26cf49a5","system_id":"levelo_inurba_marseille","lat":43.30459,"lon":5.37894,"is_reserved":false,"is_disabled":false,"rental_uris":{"android":"levelo://app?vid=cdadbabf-6311-4fa0-801d-b45b26cf49a5","ios":"levelo://app?vid=cdadbabf-6311-4fa0-801d-b45b26cf49a5"},"vehicle_type_id":"4","last_reported":1747386657,"current_range_meters":17200,"station_id":"ce4bgup2rcd13ifvqcn0","pricing_plan_id":"cebpf4jnsgd1na2vs0mg"},{"bike_id":"98106b70-6f8a-476d-962a-f2bed2e52f0a","system_id":"levelo_inurba_marseille","lat":43.32108,"lon":5.36804,"is_reserved":false,"is_disabled":false,"rental_uris":{"android":"levelo://app?vid=98106b70-6f8a-476d-962a-f2bed2e52f0a","ios":"levelo://app?vid=98106b70-6f8a-476d-962a-f2bed2e52f0a"},"vehicle_type_id":"4","last_reported":1747386657,"current_range_meters":17200,"station_id":"ce4bhrh2rcd13ifvqhug","pricing_plan_id":"cebpf4jnsgd1na2vs0mg"},{"bike_id":"c8a38f2f-aa6b-4b35-a189-77439d458a3a","system_id":"levelo_inurba_marseille","lat":43.28501,"lon":5.38936,"is_reserved":false,"is_disabled":false,"rental_uris":{"android":"levelo://app?vid=c8a38f2f-aa6b-4b35-a189-77439d458a3a","ios":"levelo://app?vid=c8a38f2f-aa6b-4b35-a189-77439d458a3a"},"vehicle_type_id":"4","last_reported":1747386657,"current_range_meters":17600,"station_id":"","pricing_plan_id":"cebpf4jnsgd1na2vs0mg"},{"bike_id":"786fa5e7-e1b5-4809-bf1e-c8607de40f42","system_id":"levelo_inurba_marseille","lat":43.301543,"lon":5.380878,"is_reserved":false,"is_disabled":false,"rental_uris":{"android":"levelo://app?vid=786fa5e7-e1b5-4809-bf1e-c8607de40f42","ios":"levelo://app?vid=786fa5e7-e1b5-4809-bf1e-c8607de40f42"},"vehicle_type_id":"4","last_reported":1747386657,"current_range_meters":17600,"station_id":"ce4bgjp2rcd13ifvqbh0","pricing_plan_id":"cebpf4jnsgd1na2vs0mg"},{"bike_id":"b6e7fc41-7403-4768-af48-c2d62f1f044f","system_id":"levelo_inurba_marseille","lat":43.30427,"lon":5.38881,"is_reserved":false,"is_disabled":false,"rental_uris":{"android":"levelo://app?vid=b6e7fc41-7403-4768-af48-c2d62f1f044f","ios":"levelo://app?vid=b6e7fc41-7403-4768-af48-c2d62f1f044f"},"vehicle_type_id":"4","last_reported":1747386657,"current_range_meters":17600,"station_id":"ce4bgk12rcd13ifvqbi0","pricing_plan_id":"cebpf4jnsgd1na2vs0mg"},{"bike_id":"378a7921-5898-46a8-8657-6e9394ac1efb","system_id":"levelo_inurba_marseille","lat":43.30939,"lon":5.39035,"is_reserved":false,"is_disabled":false,"rental_uris":{"android":"levelo://app?vid=378a7921-5898-46a8-8657-6e9394ac1efb","ios":"levelo://app?vid=378a7921-5898-46a8-8657-6e9394ac1efb"},"vehicle_type_id":"4","last_reported":1747386657,"current_range_meters":17600,"station_id":"ce4bgup2rcd13ifvqco0","pricing_plan_id":"cebpf4jnsgd1na2vs0mg"},{"bike_id":"d1a82e80-5e0c-4cd4-9dc4-90bf658da68f","system_id":"levelo_inurba_marseille","lat":43.239645,"lon":5.36632,"is_reserved":false,"is_disabled":false,"rental_uris":{"android":"levelo://app?vid=d1a82e80-5e0c-4cd4-9dc4-90bf658da68f","ios":"levelo://app?vid=d1a82e80-5e0c-4cd4-9dc4-90bf658da68f"},"vehicle_type_id":"4","last_reported":1747386657,"current_range_meters":17600,"station_id":"ce4bhi12rcd13ifvqfp0","pricing_plan_id":"cebpf4jnsgd1na2vs0mg"},{"bike_id":"fb9b67ac-af75-4842-94de-9555f8e5a4f9","system_id":"levelo_inurba_marseille","lat":43.23155,"lon":5.43706,"is_reserved":false,"is_disabled":false,"rental_uris":{"android":"levelo://app?vid=fb9b67ac-af75-4842-94de-9555f8e5a4f9","ios":"levelo://app?vid=fb9b67ac-af75-4842-94de-9555f8e5a4f9"},"vehicle_type_id":"4","last_reported":1747386657,"current_range_meters":17600,"station_id":"ce4bhmp2rcd13ifvqgog","pricing_plan_id":"cebpf4jnsgd1na2vs0mg"},{"bike_id":"eb315ca9-8b37-4a65-969b-3363bd5f25ab","system_id":"levelo_inurba_marseille","lat":43.275,"lon":5.42462,"is_reserved":false,"is_disabled":false,"rental_uris":{"android":"levelo://app?vid=eb315ca9-8b37-4a65-969b-3363bd5f25ab","ios":"levelo://app?vid=eb315ca9-8b37-4a65-969b-3363bd5f25ab"},"vehicle_type_id":"4","last_reported":1747386657,"current_range_meters":17600,"station_id":"ce4bhn92rcd13ifvqgrg","pricing_plan_id":"cebpf4jnsgd1na2vs0mg"},{"bike_id":"b3bd186a-ae2a-4408-aab9-c24e5fe41ca9","system_id":"levelo_inurba_marseille","lat":43.27496,"lon":5.424532,"is_reserved":false,"is_disabled":false,"rental_uris":{"android":"levelo://app?vid=b3bd186a-ae2a-4408-aab9-c24e5fe41ca9","ios":"levelo://app?vid=b3bd186a-ae2a-4408-aab9-c24e5fe41ca9"},"vehicle_type_id":"4","last_reported":1747386657,"current_range_meters":17600,"station_id":"ce4bhn92rcd13ifvqgrg","pricing_plan_id":"cebpf4jnsgd1na2vs0mg"},{"bike_id":"0b024457-9163-476e-8e28-42011b1ade8c","system_id":"levelo_inurba_marseille","lat":43.32663,"lon":5.40991,"is_reserved":false,"is_disabled":false,"rental_uris":{"android":"levelo://app?vid=0b024457-9163-476e-8e28-42011b1ade8c","ios":"levelo://app?vid=0b024457-9163-476e-8e28-42011b1ade8c"},"vehicle_type_id":"4","last_reported":1747386657,"current_range_meters":17600,"station_id":"ce4bhpp2rcd13ifvqhgg","pricing_plan_id":"cebpf4jnsgd1na2vs0mg"},{"bike_id":"7c1c69d0-b1c8-4eac-80af-e96ffa470093","system_id":"levelo_inurba_marseille","lat":43.31996,"lon":5.38168,"is_reserved":false,"is_disabled":false,"rental_uris":{"android":"levelo://app?vid=7c1c69d0-b1c8-4eac-80af-e96ffa470093","ios":"levelo://app?vid=7c1c69d0-b1c8-4eac-80af-e96ffa470093"},"vehicle_type_id":"4","last_reported":1747386657,"current_range_meters":17600,"station_id":"ce4bhr12rcd13ifvqhpg","pricing_plan_id":"cebpf4jnsgd1na2vs0mg"},{"bike_id":"9d63fbda-e552-401a-93a7-668926a3bce8","system_id":"levelo_inurba_marseille","lat":43.31536,"lon":5.38042,"is_reserved":false,"is_disabled":false,"rental_uris":{"android":"levelo://app?vid=9d63fbda-e552-401a-93a7-668926a3bce8","ios":"levelo://app?vid=9d63fbda-e552-401a-93a7-668926a3bce8"},"vehicle_type_id":"4","last_reported":1747386657,"current_range_meters":17600,"station_id":"ce4bhsp2rcd13ifvqi50","pricing_plan_id":"cebpf4jnsgd1na2vs0mg"},{"bike_id":"007f087c-c3f7-4b0d-bcc0-1d9d45e1ec16","system_id":"levelo_inurba_marseille","lat":43.23604,"lon":5.40276,"is_reserved":false,"is_disabled":false,"rental_uris":{"android":"levelo://app?vid=007f087c-c3f7-4b0d-bcc0-1d9d45e1ec16","ios":"levelo://app?vid=007f087c-c3f7-4b0d-bcc0-1d9d45e1ec16"},"vehicle_type_id":"4","last_reported":1747386657,"current_range_meters":18000,"station_id":"","pricing_plan_id":"cebpf4jnsgd1na2vs0mg"},{"bike_id":"bd73e106-8904-4073-a041-8d9e4933c9df","system_id":"levelo_inurba_marseille","lat":43.24562,"lon":5.38993,"is_reserved":false,"is_disabled":false,"rental_uris":{"android":"levelo://app?vid=bd73e106-8904-4073-a041-8d9e4933c9df","ios":"levelo://app?vid=bd73e106-8904-4073-a041-8d9e4933c9df"},"vehicle_type_id":"4","last_reported":1747386657,"current_range_meters":18000,"station_id":"","pricing_plan_id":"cebpf4jnsgd1na2vs0mg"},{"bike_id":"58714f91-3082-4ce2-b619-a96c222cab2a","system_id":"levelo_inurba_marseille","lat":43.29008,"lon":5.35621,"is_reserved":false,"is_disabled":false,"rental_uris":{"android":"levelo://app?vid=58714f91-3082-4ce2-b619-a96c222cab2a","ios":"levelo://app?vid=58714f91-3082-4ce2-b619-a96c222cab2a"},"vehicle_type_id":"4","last_reported":1747386657,"current_range_meters":18000,"station_id":"ce4bhb92rcd13ifvqen0","pricing_plan_id":"cebpf4jnsgd1na2vs0mg"},{"bike_id":"61f7c650-f1c2-4a45-9d42-3ba6320a1a99","system_id":"levelo_inurba_marseille","lat":43.279175,"lon":5.395755,"is_reserved":false,"is_disabled":false,"rental_uris":{"android":"levelo://app?vid=61f7c650-f1c2-4a45-9d42-3ba6320a1a99","ios":"levelo://app?vid=61f7c650-f1c2-4a45-9d42-3ba6320a1a99"},"vehicle_type_id":"4","last_reported":1747386657,"current_range_meters":18000,"station_id":"ce4bhf92rcd13ifvqf40","pricing_plan_id":"cebpf4jnsgd1na2vs0mg"},{"bike_id":"81ce395a-ca1c-43fa-b284-1ab7159452ff","system_id":"levelo_inurba_marseille","lat":43.25923,"lon":5.40879,"is_reserved":false,"is_disabled":false,"rental_uris":{"android":"levelo://app?vid=81ce395a-ca1c-43fa-b284-1ab7159452ff","ios":"levelo://app?vid=81ce395a-ca1c-43fa-b284-1ab7159452ff"},"vehicle_type_id":"4","last_reported":1747386657,"current_range_meters":18000,"station_id":"ce4bhm92rcd13ifvqglg","pricing_plan_id":"cebpf4jnsgd1na2vs0mg"},{"bike_id":"0b4dab94-79cc-49be-8085-fb2124a86407","system_id":"levelo_inurba_marseille","lat":43.32111,"lon":5.36767,"is_reserved":false,"is_disabled":false,"rental_uris":{"android":"levelo://app?vid=0b4dab94-79cc-49be-8085-fb2124a86407","ios":"levelo://app?vid=0b4dab94-79cc-49be-8085-fb2124a86407"},"vehicle_type_id":"4","last_reported":1747386657,"current_range_meters":18000,"station_id":"ce4bhrh2rcd13ifvqhug","pricing_plan_id":"cebpf4jnsgd1na2vs0mg"},{"bike_id":"9b7ad114-f9b9-470b-8df9-e92decdb49ff","system_id":"levelo_inurba_marseille","lat":43.24167,"lon":5.36389,"is_reserved":false,"is_disabled":false,"rental_uris":{"android":"levelo://app?vid=9b7ad114-f9b9-470b-8df9-e92decdb49ff","ios":"levelo://app?vid=9b7ad114-f9b9-470b-8df9-e92decdb49ff"},"vehicle_type_id":"4","last_reported":1747386657,"current_range_meters":18000,"station_id":"cpo36qri1sfpv3e86is0","pricing_plan_id":"cebpf4jnsgd1na2vs0mg"},{"bike_id":"22e14dce-44fe-4f30-91e8-87139397b6e5","system_id":"levelo_inurba_marseille","lat":43.31298,"lon":5.36745,"is_reserved":false,"is_disabled":false,"rental_uris":{"android":"levelo://app?vid=22e14dce-44fe-4f30-91e8-87139397b6e5","ios":"levelo://app?vid=22e14dce-44fe-4f30-91e8-87139397b6e5"},"vehicle_type_id":"4","last_reported":1747386657,"current_range_meters":18800,"station_id":"","pricing_plan_id":"cebpf4jnsgd1na2vs0mg"},{"bike_id":"d4a68f67-accc-4132-becd-c45a42937a18","system_id":"levelo_inurba_marseille","lat":43.29259,"lon":5.37619,"is_reserved":false,"is_disabled":false,"rental_uris":{"android":"levelo://app?vid=d4a68f67-accc-4132-becd-c45a42937a18","ios":"levelo://app?vid=d4a68f67-accc-4132-becd-c45a42937a18"},"vehicle_type_id":"4","last_reported":1747386657,"current_range_meters":18800,"station_id":"ce4bgi12rcd13ifvqb80","pricing_plan_id":"cebpf4jnsgd1na2vs0mg"},{"bike_id":"f74246fc-673b-41e5-93fa-9cb8bcf8b7d0","system_id":"levelo_inurba_marseille","lat":43.29964,"lon":5.38491,"is_reserved":false,"is_disabled":false,"rental_uris":{"android":"levelo://app?vid=f74246fc-673b-41e5-93fa-9cb8bcf8b7d0","ios":"levelo://app?vid=f74246fc-673b-41e5-93fa-9cb8bcf8b7d0"},"vehicle_type_id":"4","last_reported":1747386657,"current_range_meters":18800,"station_id":"ce4bgj92rcd13ifvqbd0","pricing_plan_id":"cebpf4jnsgd1na2vs0mg"},{"bike_id":"c30371cf-1d8b-4f75-a394-e35d2ab17ace","system_id":"levelo_inurba_marseille","lat":43.30198,"lon":5.36609,"is_reserved":false,"is_disabled":false,"rental_uris":{"android":"levelo://app?vid=c30371cf-1d8b-4f75-a394-e35d2ab17ace","ios":"levelo://app?vid=c30371cf-1d8b-4f75-a394-e35d2ab17ace"},"vehicle_type_id":"4","last_reported":1747386657,"current_range_meters":18800,"station_id":"ce4bgrh2rcd13ifvqc8g","pricing_plan_id":"cebpf4jnsgd1na2vs0mg"},{"bike_id":"2c42c95b-81c8-4472-b133-956248a6315a","system_id":"levelo_inurba_marseille","lat":43.30174,"lon":5.3662,"is_reserved":false,"is_disabled":false,"rental_uris":{"android":"levelo://app?vid=2c42c95b-81c8-4472-b133-956248a6315a","ios":"levelo://app?vid=2c42c95b-81c8-4472-b133-956248a6315a"},"vehicle_type_id":"4","last_reported":1747386657,"current_range_meters":18800,"station_id":"ce4bgrh2rcd13ifvqc8g","pricing_plan_id":"cebpf4jnsgd1na2vs0mg"},{"bike_id":"1ad87563-23ba-4a0f-af69-e52af4ecac43","system_id":"levelo_inurba_marseille","lat":43.30873,"lon":5.37203,"is_reserved":false,"is_disabled":false,"rental_uris":{"android":"levelo://app?vid=1ad87563-23ba-4a0f-af69-e52af4ecac43","ios":"levelo://app?vid=1ad87563-23ba-4a0f-af69-e52af4ecac43"},"vehicle_type_id":"4","last_reported":1747386657,"current_range_meters":18800,"station_id":"ce4bguh2rcd13ifvqckg","pricing_plan_id":"cebpf4jnsgd1na2vs0mg"},{"bike_id":"d77e3d28-20ab-4945-bbeb-50b176d7e13e","system_id":"levelo_inurba_marseille","lat":43.30947,"lon":5.39048,"is_reserved":false,"is_disabled":false,"rental_uris":{"android":"levelo://app?vid=d77e3d28-20ab-4945-bbeb-50b176d7e13e","ios":"levelo://app?vid=d77e3d28-20ab-4945-bbeb-50b176d7e13e"},"vehicle_type_id":"4","last_reported":1747386657,"current_range_meters":18800,"station_id":"ce4bgup2rcd13ifvqco0","pricing_plan_id":"cebpf4jnsgd1na2vs0mg"},{"bike_id":"ae1efad9-e0d1-40a3-8f37-9be23e1cbe66","system_id":"levelo_inurba_marseille","lat":43.29623,"lon":5.37714,"is_reserved":false,"is_disabled":false,"rental_uris":{"android":"levelo://app?vid=ae1efad9-e0d1-40a3-8f37-9be23e1cbe66","ios":"levelo://app?vid=ae1efad9-e0d1-40a3-8f37-9be23e1cbe66"},"vehicle_type_id":"4","last_reported":1747386657,"current_range_meters":19200,"station_id":"ce4bgi92rcd13ifvqb90","pricing_plan_id":"cebpf4jnsgd1na2vs0mg"},{"bike_id":"0a555982-422d-4cad-bf03-d9fc99bb97a7","system_id":"levelo_inurba_marseille","lat":43.31344,"lon":5.36715,"is_reserved":false,"is_disabled":false,"rental_uris":{"android":"levelo://app?vid=0a555982-422d-4cad-bf03-d9fc99bb97a7","ios":"levelo://app?vid=0a555982-422d-4cad-bf03-d9fc99bb97a7"},"vehicle_type_id":"4","last_reported":1747386657,"current_range_meters":19200,"station_id":"ce4bgr92rcd13ifvqc6g","pricing_plan_id":"cebpf4jnsgd1na2vs0mg"},{"bike_id":"46576045-65e8-4382-872d-0c67c8b2931a","system_id":"levelo_inurba_marseille","lat":43.24165,"lon":5.36393,"is_reserved":false,"is_disabled":false,"rental_uris":{"android":"levelo://app?vid=46576045-65e8-4382-872d-0c67c8b2931a","ios":"levelo://app?vid=46576045-65e8-4382-872d-0c67c8b2931a"},"vehicle_type_id":"4","last_reported":1747386657,"current_range_meters":19200,"station_id":"cpo36qri1sfpv3e86is0","pricing_plan_id":"cebpf4jnsgd1na2vs0mg"},{"bike_id":"70c9d44c-183d-4c33-b9d8-f20934bb9aaa","system_id":"levelo_inurba_marseille","lat":43.3014,"lon":5.38073,"is_reserved":false,"is_disabled":false,"rental_uris":{"android":"levelo://app?vid=70c9d44c-183d-4c33-b9d8-f20934bb9aaa","ios":"levelo://app?vid=70c9d44c-183d-4c33-b9d8-f20934bb9aaa"},"vehicle_type_id":"4","last_reported":1747386657,"current_range_meters":19600,"station_id":"ce4bgjp2rcd13ifvqbh0","pricing_plan_id":"cebpf4jnsgd1na2vs0mg"},{"bike_id":"e782fc22-d184-462d-b318-a1459f1a259b","system_id":"levelo_inurba_marseille","lat":43.30905,"lon":5.37187,"is_reserved":false,"is_disabled":false,"rental_uris":{"android":"levelo://app?vid=e782fc22-d184-462d-b318-a1459f1a259b","ios":"levelo://app?vid=e782fc22-d184-462d-b318-a1459f1a259b"},"vehicle_type_id":"4","last_reported":1747386657,"current_range_meters":19600,"station_id":"ce4bguh2rcd13ifvqckg","pricing_plan_id":"cebpf4jnsgd1na2vs0mg"},{"bike_id":"4319c6d0-7847-4c62-a656-35217293860d","system_id":"levelo_inurba_marseille","lat":43.27963,"lon":5.38723,"is_reserved":false,"is_disabled":false,"rental_uris":{"android":"levelo://app?vid=4319c6d0-7847-4c62-a656-35217293860d","ios":"levelo://app?vid=4319c6d0-7847-4c62-a656-35217293860d"},"vehicle_type_id":"4","last_reported":1747386657,"current_range_meters":19600,"station_id":"ce4bhg12rcd13ifvqf80","pricing_plan_id":"cebpf4jnsgd1na2vs0mg"},{"bike_id":"f88e40df-3372-4956-8b7f-2165fb44445a","system_id":"levelo_inurba_marseille","lat":43.26205,"lon":5.37449,"is_reserved":false,"is_disabled":false,"rental_uris":{"android":"levelo://app?vid=f88e40df-3372-4956-8b7f-2165fb44445a","ios":"levelo://app?vid=f88e40df-3372-4956-8b7f-2165fb44445a"},"vehicle_type_id":"4","last_reported":1747386657,"current_range_meters":19600,"station_id":"ce4bhgp2rcd13ifvqfc0","pricing_plan_id":"cebpf4jnsgd1na2vs0mg"},{"bike_id":"6ed60ee3-3c04-461f-a107-6024d9077455","system_id":"levelo_inurba_marseille","lat":43.27679,"lon":5.38886,"is_reserved":false,"is_disabled":false,"rental_uris":{"android":"levelo://app?vid=6ed60ee3-3c04-461f-a107-6024d9077455","ios":"levelo://app?vid=6ed60ee3-3c04-461f-a107-6024d9077455"},"vehicle_type_id":"4","last_reported":1747386657,"current_range_meters":19600,"station_id":"ce4bhi12rcd13ifvqfo0","pricing_plan_id":"cebpf4jnsgd1na2vs0mg"},{"bike_id":"73e15916-0d60-49d0-94d4-5f57e7433976","system_id":"levelo_inurba_marseille","lat":43.24182,"lon":5.39725,"is_reserved":false,"is_disabled":false,"rental_uris":{"android":"levelo://app?vid=73e15916-0d60-49d0-94d4-5f57e7433976","ios":"levelo://app?vid=73e15916-0d60-49d0-94d4-5f57e7433976"},"vehicle_type_id":"4","last_reported":1747386657,"current_range_meters":19600,"station_id":"ce4bhn12rcd13ifvqgpg","pricing_plan_id":"cebpf4jnsgd1na2vs0mg"},{"bike_id":"06e8af1d-69ce-405b-8a05-74223376b4d0","system_id":"levelo_inurba_marseille","lat":43.302846,"lon":5.377211,"is_reserved":false,"is_disabled":false,"rental_uris":{"android":"levelo://app?vid=06e8af1d-69ce-405b-8a05-74223376b4d0","ios":"levelo://app?vid=06e8af1d-69ce-405b-8a05-74223376b4d0"},"vehicle_type_id":"4","last_reported":1747386657,"current_range_meters":20000,"station_id":"ce4bguh2rcd13ifvqcj0","pricing_plan_id":"cebpf4jnsgd1na2vs0mg"},{"bike_id":"9d31e0cd-bcae-4bfe-a634-7c1fa1820081","system_id":"levelo_inurba_marseille","lat":43.30943,"lon":5.39044,"is_reserved":false,"is_disabled":false,"rental_uris":{"android":"levelo://app?vid=9d31e0cd-bcae-4bfe-a634-7c1fa1820081","ios":"levelo://app?vid=9d31e0cd-bcae-4bfe-a634-7c1fa1820081"},"vehicle_type_id":"4","last_reported":1747386657,"current_range_meters":20000,"station_id":"ce4bgup2rcd13ifvqco0","pricing_plan_id":"cebpf4jnsgd1na2vs0mg"},{"bike_id":"66ccfa18-429b-44cd-90d8-f22c903e3e64","system_id":"levelo_inurba_marseille","lat":43.30958,"lon":5.39026,"is_reserved":false,"is_disabled":false,"rental_uris":{"android":"levelo://app?vid=66ccfa18-429b-44cd-90d8-f22c903e3e64","ios":"levelo://app?vid=66ccfa18-429b-44cd-90d8-f22c903e3e64"},"vehicle_type_id":"4","last_reported":1747386657,"current_range_meters":20000,"station_id":"ce4bgup2rcd13ifvqco0","pricing_plan_id":"cebpf4jnsgd1na2vs0mg"},{"bike_id":"b9ae2f91-81dd-45a6-9a26-d76e1430a421","system_id":"levelo_inurba_marseille","lat":43.33611,"lon":5.41026,"is_reserved":false,"is_disabled":false,"rental_uris":{"android":"levelo://app?vid=b9ae2f91-81dd-45a6-9a26-d76e1430a421","ios":"levelo://app?vid=b9ae2f91-81dd-45a6-9a26-d76e1430a421"},"vehicle_type_id":"4","last_reported":1747386657,"current_range_meters":20000,"station_id":"ce4bhqh2rcd13ifvqhmg","pricing_plan_id":"cebpf4jnsgd1na2vs0mg"},{"bike_id":"bf2d43d5-d1b0-4787-8d18-25df80908b08","system_id":"levelo_inurba_marseille","lat":43.32467,"lon":5.3658,"is_reserved":false,"is_disabled":false,"rental_uris":{"android":"levelo://app?vid=bf2d43d5-d1b0-4787-8d18-25df80908b08","ios":"levelo://app?vid=bf2d43d5-d1b0-4787-8d18-25df80908b08"},"vehicle_type_id":"4","last_reported":1747386657,"current_range_meters":20000,"station_id":"ce4bhs12rcd13ifvqhvg","pricing_plan_id":"cebpf4jnsgd1na2vs0mg"},{"bike_id":"512db903-9559-40c7-8902-6a98e3c8c53c","system_id":"levelo_inurba_marseille","lat":43.32932,"lon":5.38985,"is_reserved":false,"is_disabled":false,"rental_uris":{"android":"levelo://app?vid=512db903-9559-40c7-8902-6a98e3c8c53c","ios":"levelo://app?vid=512db903-9559-40c7-8902-6a98e3c8c53c"},"vehicle_type_id":"4","last_reported":1747386657,"current_range_meters":20400,"station_id":"","pricing_plan_id":"cebpf4jnsgd1na2vs0mg"},{"bike_id":"54b903e2-e61a-429b-8f2e-7271daf73606","system_id":"levelo_inurba_marseille","lat":43.258207,"lon":5.39439,"is_reserved":false,"is_disabled":false,"rental_uris":{"android":"levelo://app?vid=54b903e2-e61a-429b-8f2e-7271daf73606","ios":"levelo://app?vid=54b903e2-e61a-429b-8f2e-7271daf73606"},"vehicle_type_id":"4","last_reported":1747386657,"current_range_meters":20400,"station_id":"ce4bhip2rcd13ifvqft0","pricing_plan_id":"cebpf4jnsgd1na2vs0mg"},{"bike_id":"15554ec7-d093-4ecd-9b6c-97605c7c0c39","system_id":"levelo_inurba_marseille","lat":43.25825,"lon":5.39441,"is_reserved":false,"is_disabled":false,"rental_uris":{"android":"levelo://app?vid=15554ec7-d093-4ecd-9b6c-97605c7c0c39","ios":"levelo://app?vid=15554ec7-d093-4ecd-9b6c-97605c7c0c39"},"vehicle_type_id":"4","last_reported":1747386657,"current_range_meters":20400,"station_id":"ce4bhip2rcd13ifvqft0","pricing_plan_id":"cebpf4jnsgd1na2vs0mg"},{"bike_id":"462b5739-db0c-4f45-ab29-842115c77cfe","system_id":"levelo_inurba_marseille","lat":43.28604,"lon":5.37062,"is_reserved":false,"is_disabled":false,"rental_uris":{"android":"levelo://app?vid=462b5739-db0c-4f45-ab29-842115c77cfe","ios":"levelo://app?vid=462b5739-db0c-4f45-ab29-842115c77cfe"},"vehicle_type_id":"4","last_reported":1747386657,"current_range_meters":20400,"station_id":"ce4bht12rcd13ifvqi60","pricing_plan_id":"cebpf4jnsgd1na2vs0mg"},{"bike_id":"fc5f0b44-b26b-44c5-b6bd-3c0f328f6279","system_id":"levelo_inurba_marseille","lat":43.30319,"lon":5.36902,"is_reserved":false,"is_disabled":false,"rental_uris":{"android":"levelo://app?vid=fc5f0b44-b26b-44c5-b6bd-3c0f328f6279","ios":"levelo://app?vid=fc5f0b44-b26b-44c5-b6bd-3c0f328f6279"},"vehicle_type_id":"4","last_reported":1747386657,"current_range_meters":20800,"station_id":"ce4bgqh2rcd13ifvqc5g","pricing_plan_id":"cebpf4jnsgd1na2vs0mg"},{"bike_id":"df2c8137-0808-4df6-be39-0935b52b408c","system_id":"levelo_inurba_marseille","lat":43.30951,"lon":5.39055,"is_reserved":false,"is_disabled":false,"rental_uris":{"android":"levelo://app?vid=df2c8137-0808-4df6-be39-0935b52b408c","ios":"levelo://app?vid=df2c8137-0808-4df6-be39-0935b52b408c"},"vehicle_type_id":"4","last_reported":1747386657,"current_range_meters":20800,"station_id":"ce4bgup2rcd13ifvqco0","pricing_plan_id":"cebpf4jnsgd1na2vs0mg"},{"bike_id":"9ae372fd-b3d2-4b15-8291-6bde2ccdc485","system_id":"levelo_inurba_marseille","lat":43.26678,"lon":5.38266,"is_reserved":false,"is_disabled":false,"rental_uris":{"android":"levelo://app?vid=9ae372fd-b3d2-4b15-8291-6bde2ccdc485","ios":"levelo://app?vid=9ae372fd-b3d2-4b15-8291-6bde2ccdc485"},"vehicle_type_id":"4","last_reported":1747386657,"current_range_meters":20800,"station_id":"ce4bhg92rcd13ifvqf90","pricing_plan_id":"cebpf4jnsgd1na2vs0mg"},{"bike_id":"47f510f6-43fb-4aaf-bd26-2671c7b8b85b","system_id":"levelo_inurba_marseille","lat":43.30549,"lon":5.38438,"is_reserved":false,"is_disabled":false,"rental_uris":{"android":"levelo://app?vid=47f510f6-43fb-4aaf-bd26-2671c7b8b85b","ios":"levelo://app?vid=47f510f6-43fb-4aaf-bd26-2671c7b8b85b"},"vehicle_type_id":"4","last_reported":1747386657,"current_range_meters":21600,"station_id":"ce4bgg92rcd13ifvqb30","pricing_plan_id":"cebpf4jnsgd1na2vs0mg"},{"bike_id":"9e365cf9-6c48-46b2-bfbd-21a2c3a66171","system_id":"levelo_inurba_marseille","lat":43.29701,"lon":5.36607,"is_reserved":false,"is_disabled":false,"rental_uris":{"android":"levelo://app?vid=9e365cf9-6c48-46b2-bfbd-21a2c3a66171","ios":"levelo://app?vid=9e365cf9-6c48-46b2-bfbd-21a2c3a66171"},"vehicle_type_id":"4","last_reported":1747386657,"current_range_meters":21600,"station_id":"ce4bgn12rcd13ifvqbt0","pricing_plan_id":"cebpf4jnsgd1na2vs0mg"},{"bike_id":"9f0db276-f5a1-4558-957a-ef728ad9b907","system_id":"levelo_inurba_marseille","lat":43.28854,"lon":5.35874,"is_reserved":false,"is_disabled":false,"rental_uris":{"android":"levelo://app?vid=9f0db276-f5a1-4558-957a-ef728ad9b907","ios":"levelo://app?vid=9f0db276-f5a1-4558-957a-ef728ad9b907"},"vehicle_type_id":"4","last_reported":1747386657,"current_range_meters":21600,"station_id":"ce4bhb12rcd13ifvqem0","pricing_plan_id":"cebpf4jnsgd1na2vs0mg"},{"bike_id":"df19a046-bc8f-4751-980f-3fc4c19f613a","system_id":"levelo_inurba_marseille","lat":43.27489,"lon":5.42452,"is_reserved":false,"is_disabled":false,"rental_uris":{"android":"levelo://app?vid=df19a046-bc8f-4751-980f-3fc4c19f613a","ios":"levelo://app?vid=df19a046-bc8f-4751-980f-3fc4c19f613a"},"vehicle_type_id":"4","last_reported":1747386657,"current_range_meters":21600,"station_id":"ce4bhn92rcd13ifvqgrg","pricing_plan_id":"cebpf4jnsgd1na2vs0mg"},{"bike_id":"8df72f8e-db82-441e-82b5-ea32dfbd3056","system_id":"levelo_inurba_marseille","lat":43.29102,"lon":5.3812,"is_reserved":false,"is_disabled":false,"rental_uris":{"android":"levelo://app?vid=8df72f8e-db82-441e-82b5-ea32dfbd3056","ios":"levelo://app?vid=8df72f8e-db82-441e-82b5-ea32dfbd3056"},"vehicle_type_id":"4","last_reported":1747386657,"current_range_meters":22000,"station_id":"ce4bh512rcd13ifvqe2g","pricing_plan_id":"cebpf4jnsgd1na2vs0mg"},{"bike_id":"1254320f-aa27-4719-9fbd-a7467f06cadb","system_id":"levelo_inurba_marseille","lat":43.28461,"lon":5.35889,"is_reserved":false,"is_disabled":false,"rental_uris":{"android":"levelo://app?vid=1254320f-aa27-4719-9fbd-a7467f06cadb","ios":"levelo://app?vid=1254320f-aa27-4719-9fbd-a7467f06cadb"},"vehicle_type_id":"4","last_reported":1747386657,"current_range_meters":22000,"station_id":"ce4bhah2rcd13ifvqei0","pricing_plan_id":"cebpf4jnsgd1na2vs0mg"},{"bike_id":"b49c46e4-b02a-4fb6-a939-e8eee6f4a650","system_id":"levelo_inurba_marseille","lat":43.24199,"lon":5.39711,"is_reserved":false,"is_disabled":false,"rental_uris":{"android":"levelo://app?vid=b49c46e4-b02a-4fb6-a939-e8eee6f4a650","ios":"levelo://app?vid=b49c46e4-b02a-4fb6-a939-e8eee6f4a650"},"vehicle_type_id":"4","last_reported":1747386657,"current_range_meters":22000,"station_id":"ce4bhn12rcd13ifvqgpg","pricing_plan_id":"cebpf4jnsgd1na2vs0mg"},{"bike_id":"ba49636d-5d10-4efe-8e3a-e657d9279858","system_id":"levelo_inurba_marseille","lat":43.2749,"lon":5.42455,"is_reserved":false,"is_disabled":false,"rental_uris":{"android":"levelo://app?vid=ba49636d-5d10-4efe-8e3a-e657d9279858","ios":"levelo://app?vid=ba49636d-5d10-4efe-8e3a-e657d9279858"},"vehicle_type_id":"4","last_reported":1747386657,"current_range_meters":22000,"station_id":"ce4bhn92rcd13ifvqgrg","pricing_plan_id":"cebpf4jnsgd1na2vs0mg"},{"bike_id":"f22f0044-5500-4b5d-a379-9fdd5840e60c","system_id":"levelo_inurba_marseille","lat":43.31341,"lon":5.36696,"is_reserved":false,"is_disabled":false,"rental_uris":{"android":"levelo://app?vid=f22f0044-5500-4b5d-a379-9fdd5840e60c","ios":"levelo://app?vid=f22f0044-5500-4b5d-a379-9fdd5840e60c"},"vehicle_type_id":"4","last_reported":1747386657,"current_range_meters":22400,"station_id":"ce4bgr92rcd13ifvqc6g","pricing_plan_id":"cebpf4jnsgd1na2vs0mg"},{"bike_id":"b33f60af-7af5-443b-a5b9-7ce916d54521","system_id":"levelo_inurba_marseille","lat":43.304552,"lon":5.379114,"is_reserved":false,"is_disabled":false,"rental_uris":{"android":"levelo://app?vid=b33f60af-7af5-443b-a5b9-7ce916d54521","ios":"levelo://app?vid=b33f60af-7af5-443b-a5b9-7ce916d54521"},"vehicle_type_id":"4","last_reported":1747386657,"current_range_meters":22400,"station_id":"ce4bgup2rcd13ifvqcn0","pricing_plan_id":"cebpf4jnsgd1na2vs0mg"},{"bike_id":"0e1f57fc-e13e-4a97-b1dc-d9f2fda84191","system_id":"levelo_inurba_marseille","lat":43.29416,"lon":5.38624,"is_reserved":false,"is_disabled":false,"rental_uris":{"android":"levelo://app?vid=0e1f57fc-e13e-4a97-b1dc-d9f2fda84191","ios":"levelo://app?vid=0e1f57fc-e13e-4a97-b1dc-d9f2fda84191"},"vehicle_type_id":"4","last_reported":1747386657,"current_range_meters":22400,"station_id":"ce4bh2h2rcd13ifvqdh0","pricing_plan_id":"cebpf4jnsgd1na2vs0mg"},{"bike_id":"3e277f7c-a3e9-4a5a-bc73-5d77a3f423e0","system_id":"levelo_inurba_marseille","lat":43.2924,"lon":5.40075,"is_reserved":false,"is_disabled":false,"rental_uris":{"android":"levelo://app?vid=3e277f7c-a3e9-4a5a-bc73-5d77a3f423e0","ios":"levelo://app?vid=3e277f7c-a3e9-4a5a-bc73-5d77a3f423e0"},"vehicle_type_id":"4","last_reported":1747386657,"current_range_meters":22400,"station_id":"ce4bh312rcd13ifvqdk0","pricing_plan_id":"cebpf4jnsgd1na2vs0mg"},{"bike_id":"6f0e701e-1493-4927-935a-d96883e07112","system_id":"levelo_inurba_marseille","lat":43.26686,"lon":5.38265,"is_reserved":false,"is_disabled":false,"rental_uris":{"android":"levelo://app?vid=6f0e701e-1493-4927-935a-d96883e07112","ios":"levelo://app?vid=6f0e701e-1493-4927-935a-d96883e07112"},"vehicle_type_id":"4","last_reported":1747386657,"current_range_meters":22400,"station_id":"ce4bhg92rcd13ifvqf90","pricing_plan_id":"cebpf4jnsgd1na2vs0mg"},{"bike_id":"c5c57cf2-2dd2-49a7-9f6a-f3616a3907d1","system_id":"levelo_inurba_marseille","lat":43.26688,"lon":5.38264,"is_reserved":false,"is_disabled":false,"rental_uris":{"android":"levelo://app?vid=c5c57cf2-2dd2-49a7-9f6a-f3616a3907d1","ios":"levelo://app?vid=c5c57cf2-2dd2-49a7-9f6a-f3616a3907d1"},"vehicle_type_id":"4","last_reported":1747386657,"current_range_meters":22400,"station_id":"ce4bhg92rcd13ifvqf90","pricing_plan_id":"cebpf4jnsgd1na2vs0mg"},{"bike_id":"cf0b09e2-cc86-40a3-b114-b1ac67bce2a5","system_id":"levelo_inurba_marseille","lat":43.266807,"lon":5.38269,"is_reserved":false,"is_disabled":false,"rental_uris":{"android":"levelo://app?vid=cf0b09e2-cc86-40a3-b114-b1ac67bce2a5","ios":"levelo://app?vid=cf0b09e2-cc86-40a3-b114-b1ac67bce2a5"},"vehicle_type_id":"4","last_reported":1747386657,"current_range_meters":22400,"station_id":"ce4bhg92rcd13ifvqf90","pricing_plan_id":"cebpf4jnsgd1na2vs0mg"},{"bike_id":"8422b699-a5df-402b-94e4-213d845264b9","system_id":"levelo_inurba_marseille","lat":43.27308,"lon":5.39125,"is_reserved":false,"is_disabled":false,"rental_uris":{"android":"levelo://app?vid=8422b699-a5df-402b-94e4-213d845264b9","ios":"levelo://app?vid=8422b699-a5df-402b-94e4-213d845264b9"},"vehicle_type_id":"4","last_reported":1747386657,"current_range_meters":22400,"station_id":"ce4bhgp2rcd13ifvqfe0","pricing_plan_id":"cebpf4jnsgd1na2vs0mg"},{"bike_id":"c699fff9-3410-4ace-8ebf-6cbcecd9f059","system_id":"levelo_inurba_marseille","lat":43.32041,"lon":5.41551,"is_reserved":false,"is_disabled":false,"rental_uris":{"android":"levelo://app?vid=c699fff9-3410-4ace-8ebf-6cbcecd9f059","ios":"levelo://app?vid=c699fff9-3410-4ace-8ebf-6cbcecd9f059"},"vehicle_type_id":"4","last_reported":1747386657,"current_range_meters":22400,"station_id":"ce4bhq92rcd13ifvqhkg","pricing_plan_id":"cebpf4jnsgd1na2vs0mg"},{"bike_id":"d0df3ea8-9b9f-4acd-bb18-9b119a2300c4","system_id":"levelo_inurba_marseille","lat":43.30945,"lon":5.39042,"is_reserved":false,"is_disabled":false,"rental_uris":{"android":"levelo://app?vid=d0df3ea8-9b9f-4acd-bb18-9b119a2300c4","ios":"levelo://app?vid=d0df3ea8-9b9f-4acd-bb18-9b119a2300c4"},"vehicle_type_id":"4","last_reported":1747386657,"current_range_meters":22800,"station_id":"ce4bgup2rcd13ifvqco0","pricing_plan_id":"cebpf4jnsgd1na2vs0mg"},{"bike_id":"5cf41c2f-070d-43fd-9e8e-171f5ec36ff0","system_id":"levelo_inurba_marseille","lat":43.30953,"lon":5.39023,"is_reserved":false,"is_disabled":false,"rental_uris":{"android":"levelo://app?vid=5cf41c2f-070d-43fd-9e8e-171f5ec36ff0","ios":"levelo://app?vid=5cf41c2f-070d-43fd-9e8e-171f5ec36ff0"},"vehicle_type_id":"4","last_reported":1747386657,"current_range_meters":22800,"station_id":"ce4bgup2rcd13ifvqco0","pricing_plan_id":"cebpf4jnsgd1na2vs0mg"},{"bike_id":"cf0c3a1d-d4e4-4fd3-92ce-02ccc44f9a0d","system_id":"levelo_inurba_marseille","lat":43.28275,"lon":5.35071,"is_reserved":false,"is_disabled":false,"rental_uris":{"android":"levelo://app?vid=cf0c3a1d-d4e4-4fd3-92ce-02ccc44f9a0d","ios":"levelo://app?vid=cf0c3a1d-d4e4-4fd3-92ce-02ccc44f9a0d"},"vehicle_type_id":"4","last_reported":1747386657,"current_range_meters":22800,"station_id":"ce4bhbp2rcd13ifvqerg","pricing_plan_id":"cebpf4jnsgd1na2vs0mg"},{"bike_id":"a80f09c8-a631-4020-8edc-a13f393c5a2c","system_id":"levelo_inurba_marseille","lat":43.31995,"lon":5.38167,"is_reserved":false,"is_disabled":false,"rental_uris":{"android":"levelo://app?vid=a80f09c8-a631-4020-8edc-a13f393c5a2c","ios":"levelo://app?vid=a80f09c8-a631-4020-8edc-a13f393c5a2c"},"vehicle_type_id":"4","last_reported":1747386657,"current_range_meters":22800,"station_id":"ce4bhr12rcd13ifvqhpg","pricing_plan_id":"cebpf4jnsgd1na2vs0mg"},{"bike_id":"06ea551b-9281-436a-9f58-f6eeb389521e","system_id":"levelo_inurba_marseille","lat":43.297891,"lon":5.381078,"is_reserved":false,"is_disabled":false,"rental_uris":{"android":"levelo://app?vid=06ea551b-9281-436a-9f58-f6eeb389521e","ios":"levelo://app?vid=06ea551b-9281-436a-9f58-f6eeb389521e"},"vehicle_type_id":"4","last_reported":1747386657,"current_range_meters":23200,"station_id":"ce4bgip2rcd13ifvqbb0","pricing_plan_id":"cebpf4jnsgd1na2vs0mg"},{"bike_id":"f7502325-f85e-4edb-95dc-2392cc75c4d3","system_id":"levelo_inurba_marseille","lat":43.30455,"lon":5.37951,"is_reserved":false,"is_disabled":false,"rental_uris":{"android":"levelo://app?vid=f7502325-f85e-4edb-95dc-2392cc75c4d3","ios":"levelo://app?vid=f7502325-f85e-4edb-95dc-2392cc75c4d3"},"vehicle_type_id":"4","last_reported":1747386657,"current_range_meters":23200,"station_id":"ce4bgup2rcd13ifvqcn0","pricing_plan_id":"cebpf4jnsgd1na2vs0mg"},{"bike_id":"0a522e91-7255-4eba-a268-a86a378c415b","system_id":"levelo_inurba_marseille","lat":43.277992,"lon":5.388371,"is_reserved":false,"is_disabled":false,"rental_uris":{"android":"levelo://app?vid=0a522e91-7255-4eba-a268-a86a378c415b","ios":"levelo://app?vid=0a522e91-7255-4eba-a268-a86a378c415b"},"vehicle_type_id":"4","last_reported":1747386657,"current_range_meters":23200,"station_id":"ce4bh412rcd13ifvqdr0","pricing_plan_id":"cebpf4jnsgd1na2vs0mg"},{"bike_id":"393d49ee-005c-4f12-b61d-a8a859560c9f","system_id":"levelo_inurba_marseille","lat":43.30518,"lon":5.38414,"is_reserved":false,"is_disabled":false,"rental_uris":{"android":"levelo://app?vid=393d49ee-005c-4f12-b61d-a8a859560c9f","ios":"levelo://app?vid=393d49ee-005c-4f12-b61d-a8a859560c9f"},"vehicle_type_id":"4","last_reported":1747386657,"current_range_meters":24000,"station_id":"ce4bgg92rcd13ifvqb30","pricing_plan_id":"cebpf4jnsgd1na2vs0mg"},{"bike_id":"ef254844-4405-4948-93c8-7058694c77df","system_id":"levelo_inurba_marseille","lat":43.29916,"lon":5.37477,"is_reserved":false,"is_disabled":false,"rental_uris":{"android":"levelo://app?vid=ef254844-4405-4948-93c8-7058694c77df","ios":"levelo://app?vid=ef254844-4405-4948-93c8-7058694c77df"},"vehicle_type_id":"4","last_reported":1747386657,"current_range_meters":24000,"station_id":"ce4bgjh2rcd13ifvqbg0","pricing_plan_id":"cebpf4jnsgd1na2vs0mg"},{"bike_id":"c1b09ae9-c77e-49b6-99b5-efd38c983a7e","system_id":"levelo_inurba_marseille","lat":43.28977,"lon":5.37838,"is_reserved":false,"is_disabled":false,"rental_uris":{"android":"levelo://app?vid=c1b09ae9-c77e-49b6-99b5-efd38c983a7e","ios":"levelo://app?vid=c1b09ae9-c77e-49b6-99b5-efd38c983a7e"},"vehicle_type_id":"4","last_reported":1747386657,"current_range_meters":24000,"station_id":"ce4bh9p2rcd13ifvqed0","pricing_plan_id":"cebpf4jnsgd1na2vs0mg"},{"bike_id":"5b171c29-5f30-436c-ae8e-15fb469ffee8","system_id":"levelo_inurba_marseille","lat":43.26575,"lon":5.390135,"is_reserved":false,"is_disabled":false,"rental_uris":{"android":"levelo://app?vid=5b171c29-5f30-436c-ae8e-15fb469ffee8","ios":"levelo://app?vid=5b171c29-5f30-436c-ae8e-15fb469ffee8"},"vehicle_type_id":"4","last_reported":1747386657,"current_range_meters":24000,"station_id":"ce4bhe12rcd13ifvqf30","pricing_plan_id":"cebpf4jnsgd1na2vs0mg"},{"bike_id":"103460c1-aadb-4db5-b9d2-7029281e2264","system_id":"levelo_inurba_marseille","lat":43.2575,"lon":5.41025,"is_reserved":false,"is_disabled":false,"rental_uris":{"android":"levelo://app?vid=103460c1-aadb-4db5-b9d2-7029281e2264","ios":"levelo://app?vid=103460c1-aadb-4db5-b9d2-7029281e2264"},"vehicle_type_id":"4","last_reported":1747386657,"current_range_meters":24000,"station_id":"ce4bhkp2rcd13ifvqgd0","pricing_plan_id":"cebpf4jnsgd1na2vs0mg"},{"bike_id":"54fb5dd7-8f21-4363-ada4-243d7bc95b3b","system_id":"levelo_inurba_marseille","lat":43.32653,"lon":5.40989,"is_reserved":false,"is_disabled":false,"rental_uris":{"android":"levelo://app?vid=54fb5dd7-8f21-4363-ada4-243d7bc95b3b","ios":"levelo://app?vid=54fb5dd7-8f21-4363-ada4-243d7bc95b3b"},"vehicle_type_id":"4","last_reported":1747386657,"current_range_meters":24000,"station_id":"ce4bhpp2rcd13ifvqhgg","pricing_plan_id":"cebpf4jnsgd1na2vs0mg"},{"bike_id":"11ba9a9a-9d48-417d-bcb9-ffebe98e16c2","system_id":"levelo_inurba_marseille","lat":43.30904,"lon":5.36858,"is_reserved":false,"is_disabled":false,"rental_uris":{"android":"levelo://app?vid=11ba9a9a-9d48-417d-bcb9-ffebe98e16c2","ios":"levelo://app?vid=11ba9a9a-9d48-417d-bcb9-ffebe98e16c2"},"vehicle_type_id":"4","last_reported":1747386657,"current_range_meters":24400,"station_id":"ce4bgn92rcd13ifvqbvg","pricing_plan_id":"cebpf4jnsgd1na2vs0mg"},{"bike_id":"157b08e3-6a8c-44cb-ac16-b6dd3be076a6","system_id":"levelo_inurba_marseille","lat":43.309043,"lon":5.368513,"is_reserved":false,"is_disabled":false,"rental_uris":{"android":"levelo://app?vid=157b08e3-6a8c-44cb-ac16-b6dd3be076a6","ios":"levelo://app?vid=157b08e3-6a8c-44cb-ac16-b6dd3be076a6"},"vehicle_type_id":"4","last_reported":1747386657,"current_range_meters":24400,"station_id":"ce4bgn92rcd13ifvqbvg","pricing_plan_id":"cebpf4jnsgd1na2vs0mg"},{"bike_id":"9ff461bd-1acb-4537-ac9d-8a14f67a913d","system_id":"levelo_inurba_marseille","lat":43.29414,"lon":5.38622,"is_reserved":false,"is_disabled":false,"rental_uris":{"android":"levelo://app?vid=9ff461bd-1acb-4537-ac9d-8a14f67a913d","ios":"levelo://app?vid=9ff461bd-1acb-4537-ac9d-8a14f67a913d"},"vehicle_type_id":"4","last_reported":1747386657,"current_range_meters":24400,"station_id":"ce4bh2h2rcd13ifvqdh0","pricing_plan_id":"cebpf4jnsgd1na2vs0mg"},{"bike_id":"3f9bf3b0-1480-4d29-ae75-14dbfae0efbf","system_id":"levelo_inurba_marseille","lat":43.29266,"lon":5.3844,"is_reserved":false,"is_disabled":false,"rental_uris":{"android":"levelo://app?vid=3f9bf3b0-1480-4d29-ae75-14dbfae0efbf","ios":"levelo://app?vid=3f9bf3b0-1480-4d29-ae75-14dbfae0efbf"},"vehicle_type_id":"4","last_reported":1747386657,"current_range_meters":24400,"station_id":"ce4bh692rcd13ifvqea0","pricing_plan_id":"cebpf4jnsgd1na2vs0mg"},{"bike_id":"0a01eb36-34ee-416f-b68d-e95eb40a9b3c","system_id":"levelo_inurba_marseille","lat":43.33588,"lon":5.4102,"is_reserved":false,"is_disabled":false,"rental_uris":{"android":"levelo://app?vid=0a01eb36-34ee-416f-b68d-e95eb40a9b3c","ios":"levelo://app?vid=0a01eb36-34ee-416f-b68d-e95eb40a9b3c"},"vehicle_type_id":"4","last_reported":1747386657,"current_range_meters":24400,"station_id":"ce4bhqh2rcd13ifvqhmg","pricing_plan_id":"cebpf4jnsgd1na2vs0mg"},{"bike_id":"ac5cf0e7-0047-4184-a947-61c1221a383b","system_id":"levelo_inurba_marseille","lat":43.32484,"lon":5.36602,"is_reserved":false,"is_disabled":false,"rental_uris":{"android":"levelo://app?vid=ac5cf0e7-0047-4184-a947-61c1221a383b","ios":"levelo://app?vid=ac5cf0e7-0047-4184-a947-61c1221a383b"},"vehicle_type_id":"4","last_reported":1747386657,"current_range_meters":24400,"station_id":"ce4bhs12rcd13ifvqhvg","pricing_plan_id":"cebpf4jnsgd1na2vs0mg"},{"bike_id":"19456222-7d38-48cf-a950-06daadd07927","system_id":"levelo_inurba_marseille","lat":43.25021,"lon":5.37542,"is_reserved":false,"is_disabled":false,"rental_uris":{"android":"levelo://app?vid=19456222-7d38-48cf-a950-06daadd07927","ios":"levelo://app?vid=19456222-7d38-48cf-a950-06daadd07927"},"vehicle_type_id":"4","last_reported":1747386657,"current_range_meters":24800,"station_id":"","pricing_plan_id":"cebpf4jnsgd1na2vs0mg"},{"bike_id":"5fa79be1-239d-43a5-b78c-2951bffcd296","system_id":"levelo_inurba_marseille","lat":43.29301,"lon":5.37467,"is_reserved":false,"is_disabled":false,"rental_uris":{"android":"levelo://app?vid=5fa79be1-239d-43a5-b78c-2951bffcd296","ios":"levelo://app?vid=5fa79be1-239d-43a5-b78c-2951bffcd296"},"vehicle_type_id":"4","last_reported":1747386657,"current_range_meters":24800,"station_id":"ce4bgi12rcd13ifvqb70","pricing_plan_id":"cebpf4jnsgd1na2vs0mg"},{"bike_id":"ddfee8f5-eab7-4a84-bb96-1c5a2306f1c8","system_id":"levelo_inurba_marseille","lat":43.29867,"lon":5.36271,"is_reserved":false,"is_disabled":false,"rental_uris":{"android":"levelo://app?vid=ddfee8f5-eab7-4a84-bb96-1c5a2306f1c8","ios":"levelo://app?vid=ddfee8f5-eab7-4a84-bb96-1c5a2306f1c8"},"vehicle_type_id":"4","last_reported":1747386657,"current_range_meters":24800,"station_id":"ce4bgpp2rcd13ifvqc3g","pricing_plan_id":"cebpf4jnsgd1na2vs0mg"},{"bike_id":"a950d5b8-a39e-48d9-be51-12a5ebe694b4","system_id":"levelo_inurba_marseille","lat":43.29997,"lon":5.37194,"is_reserved":false,"is_disabled":false,"rental_uris":{"android":"levelo://app?vid=a950d5b8-a39e-48d9-be51-12a5ebe694b4","ios":"levelo://app?vid=a950d5b8-a39e-48d9-be51-12a5ebe694b4"},"vehicle_type_id":"4","last_reported":1747386657,"current_range_meters":24800,"station_id":"ce4bgr92rcd13ifvqc7g","pricing_plan_id":"cebpf4jnsgd1na2vs0mg"},{"bike_id":"06a9579f-bc4f-4f31-818c-09f04e310e5c","system_id":"levelo_inurba_marseille","lat":43.30177,"lon":5.36605,"is_reserved":false,"is_disabled":false,"rental_uris":{"android":"levelo://app?vid=06a9579f-bc4f-4f31-818c-09f04e310e5c","ios":"levelo://app?vid=06a9579f-bc4f-4f31-818c-09f04e310e5c"},"vehicle_type_id":"4","last_reported":1747386657,"current_range_meters":24800,"station_id":"ce4bgrh2rcd13ifvqc8g","pricing_plan_id":"cebpf4jnsgd1na2vs0mg"},{"bike_id":"66ce6d8d-7140-4ee6-a35d-7f3b3d410f0c","system_id":"levelo_inurba_marseille","lat":43.24654,"lon":5.38894,"is_reserved":false,"is_disabled":false,"rental_uris":{"android":"levelo://app?vid=66ce6d8d-7140-4ee6-a35d-7f3b3d410f0c","ios":"levelo://app?vid=66ce6d8d-7140-4ee6-a35d-7f3b3d410f0c"},"vehicle_type_id":"4","last_reported":1747386657,"current_range_meters":24800,"station_id":"ce4bhg12rcd13ifvqf60","pricing_plan_id":"cebpf4jnsgd1na2vs0mg"},{"bike_id":"e085bf03-aea9-44de-9657-48852bdf2902","system_id":"levelo_inurba_marseille","lat":43.259275,"lon":5.40904,"is_reserved":false,"is_disabled":false,"rental_uris":{"android":"levelo://app?vid=e085bf03-aea9-44de-9657-48852bdf2902","ios":"levelo://app?vid=e085bf03-aea9-44de-9657-48852bdf2902"},"vehicle_type_id":"4","last_reported":1747386657,"current_range_meters":24800,"station_id":"ce4bhm92rcd13ifvqglg","pricing_plan_id":"cebpf4jnsgd1na2vs0mg"},{"bike_id":"6029dd3b-1d4f-4632-8240-838f66df5258","system_id":"levelo_inurba_marseille","lat":43.24169,"lon":5.39731,"is_reserved":false,"is_disabled":false,"rental_uris":{"android":"levelo://app?vid=6029dd3b-1d4f-4632-8240-838f66df5258","ios":"levelo://app?vid=6029dd3b-1d4f-4632-8240-838f66df5258"},"vehicle_type_id":"4","last_reported":1747386657,"current_range_meters":24800,"station_id":"ce4bhn12rcd13ifvqgpg","pricing_plan_id":"cebpf4jnsgd1na2vs0mg"},{"bike_id":"7e24e6cc-5c05-413c-a034-5a9e9cc7b40b","system_id":"levelo_inurba_marseille","lat":43.341372,"lon":5.409065,"is_reserved":false,"is_disabled":false,"rental_uris":{"android":"levelo://app?vid=7e24e6cc-5c05-413c-a034-5a9e9cc7b40b","ios":"levelo://app?vid=7e24e6cc-5c05-413c-a034-5a9e9cc7b40b"},"vehicle_type_id":"4","last_reported":1747386657,"current_range_meters":24800,"station_id":"ce4bhqh2rcd13ifvqhlg","pricing_plan_id":"cebpf4jnsgd1na2vs0mg"},{"bike_id":"2afaca15-0485-427d-8585-df19badd207b","system_id":"levelo_inurba_marseille","lat":43.22503,"lon":5.34785,"is_reserved":false,"is_disabled":false,"rental_uris":{"android":"levelo://app?vid=2afaca15-0485-427d-8585-df19badd207b","ios":"levelo://app?vid=2afaca15-0485-427d-8585-df19badd207b"},"vehicle_type_id":"4","last_reported":1747386657,"current_range_meters":24800,"station_id":"st_cvj5dfep6f1abm77gieg","pricing_plan_id":"cebpf4jnsgd1na2vs0mg"},{"bike_id":"a7bb0154-1b15-4b8f-90c4-7337903706db","system_id":"levelo_inurba_marseille","lat":43.29553,"lon":5.37508,"is_reserved":false,"is_disabled":false,"rental_uris":{"android":"levelo://app?vid=a7bb0154-1b15-4b8f-90c4-7337903706db","ios":"levelo://app?vid=a7bb0154-1b15-4b8f-90c4-7337903706db"},"vehicle_type_id":"4","last_reported":1747386657,"current_range_meters":25200,"station_id":"ce4bgh92rcd13ifvqb50","pricing_plan_id":"cebpf4jnsgd1na2vs0mg"},