{"last_updated":1746983261,"ttl":60,"version":"2.2","data":{"bikes":[{"bike_id":"f9985b95-98b1-43e2-8382-aba7713e9116","system_id":"levelo_inurba_marseille","lat":43.28613,"lon":5.35103,"is_reserved":false,"is_disabled":false,"rental_uris":{"android":"levelo://app?vid=f9985b95-98b1-43e2-8382-aba7713e9116","ios":"levelo://app?vid=f9985b95-98b1-43e2-8382-aba7713e9116"},"vehicle_type_id":"4","last_reported":1746983261,"current_range_meters":2800,"station_id":"ce4bhch2rcd13ifvqeug","pricing_plan_id":"cebpf4jnsgd1na2vs0mg"},{"bike_id":"a2c63fe2-1a4c-4119-974b-15d485603b06","system_id":"levelo_inurba_marseille","lat":43.280683,"lon":5.368591,"is_reserved":false,"is_disabled":false,"rental_uris":{"android":"levelo://app?vid=a2c63fe2-1a4c-4119-974b-15d485603b06","ios":"levelo://app?vid=a2c63fe2-1a4c-4119-974b-15d485603b06"},"vehicle_type_id":"4","last_reported":1746983261,"current_range_meters":2800,"station_id":"","pricing_plan_id":"cebpf4jnsgd1na2vs0mg"},{"bike_id":"4abecfdf-019b-4468-8b66-b8b50eaa80ac","system_id":"levelo_inurba_marseille","lat":43.31029,"lon":5.37145,"is_reserved":false,"is_disabled":false,"rental_uris":{"android":"levelo://app?vid=4abecfdf-019b-4468-8b66-b8b50eaa80ac","ios":"levelo://app?vid=4abecfdf-019b-4468-8b66-b8b50eaa80ac"},"vehicle_type_id":"4","last_reported":1746983261,"current_range_meters":2800,"station_id":"","pricing_plan_id":"cebpf4jnsgd1na2vs0mg"},{"bike_id":"eff3db3b-e3ea-4cb2-ba0e-63d9c3e35c14","system_id":"levelo_inurba_marseille","lat":43.289406,"lon":5.363904,"is_reserved":false,"is_disabled":false,"rental_uris":{"android":"levelo://app?vid=eff3db3b-e3ea-4cb2-ba0e-63d9c3e35c14","ios":"levelo://app?vid=eff3db3b-e3ea-4cb2-ba0e-63d9c3e35c14"},"vehicle_type_id":"4","last_reported":1746983261,"current_range_meters":2800,"station_id":"ce4bhc92rcd13ifvqetg","pricing_plan_id":"cebpf4jnsgd1na2vs0mg"},{"bike_id":"20d62d3a-f9ce-444c-ad20-a24efcb0537e","system_id":"levelo_inurba_marseille","lat":43.31988,"lon":5.38124,"is_reserved":false,"is_disabled":true,"rental_uris":{"android":"levelo://app?vid=20d62d3a-f9ce-444c-ad20-a24efcb0537e","ios":"levelo://app?vid=20d62d3a-f9ce-444c-ad20-a24efcb0537e"},"vehicle_type_id":"4","last_reported":1746983261,"current_range_meters":2800,"station_id":"ce4bhr12rcd13ifvqhpg","pricing_plan_id":"cebpf4jnsgd1na2vs0mg"},{"bike_id":"2be60fdb-a32e-421c-a5be-ada77260ab7d","system_id":"levelo_inurba_marseille","lat":43.28085,"lon":5.39662,"is_reserved":false,"is_disabled":false,"rental_uris":{"android":"levelo://app?vid=2be60fdb-a32e-421c-a5be-ada77260ab7d","ios":"levelo://app?vid=2be60fdb-a32e-421c-a5be-ada77260ab7d"},"vehicle_type_id":"4","last_reported":1746983261,"current_range_meters":3200,"station_id":"ce4bho12rcd13ifvqh2g","pricing_plan_id":"cebpf4jnsgd1na2vs0mg"},{"bike_id":"df39ca98-9252-4ddd-866a-23d9f482c501","system_id":"levelo_inurba_marseille","lat":43.286623,"lon":5.36343,"is_reserved":false,"is_disabled":true,"rental_uris":{"android":"levelo://app?vid=df39ca98-9252-4ddd-866a-23d9f482c501","ios":"levelo://app?vid=df39ca98-9252-4ddd-866a-23d9f482c501"},"vehicle_type_id":"4","last_reported":1746983261,"current_range_meters":3200,"station_id":"ce4bhah2rcd13ifvqej0","pricing_plan_id":"cebpf4jnsgd1na2vs0mg"},{"bike_id":"e5951450-7633-4a9c-aa10-8a39a44a33d1","system_id":"levelo_inurba_marseille","lat":43.29711,"lon":5.3661,"is_reserved":false,"is_disabled":false,"rental_uris":{"android":"levelo://app?vid=e5951450-7633-4a9c-aa10-8a39a44a33d1","ios":"levelo://app?vid=e5951450-7633-4a9c-aa10-8a39a44a33d1"},"vehicle_type_id":"4","last_reported":1746983261,"current_range_meters":3200,"station_id":"ce4bgn12rcd13ifvqbt0","pricing_plan_id":"cebpf4jnsgd1na2vs0mg"},{"bike_id":"2e8454fe-3ac0-4061-9df1-f995baf8b293","system_id":"levelo_inurba_marseille","lat":43.26951,"lon":5.38618,"is_reserved":false,"is_disabled":false,"rental_uris":{"android":"levelo://app?vid=2e8454fe-3ac0-4061-9df1-f995baf8b293","ios":"levelo://app?vid=2e8454fe-3ac0-4061-9df1-f995baf8b293"},"vehicle_type_id":"4","last_reported":1746983261,"current_range_meters":3200,"station_id":"ce4bhh92rcd13ifvqfh0","pricing_plan_id":"cebpf4jnsgd1na2vs0mg"},{"bike_id":"edd2343b-9f79-421d-8b36-6c1c228254bd","system_id":"levelo_inurba_marseille","lat":43.32479,"lon":5.422905,"is_reserved":false,"is_disabled":false,"rental_uris":{"android":"levelo://app?vid=edd2343b-9f79-421d-8b36-6c1c228254bd","ios":"levelo://app?vid=edd2343b-9f79-421d-8b36-6c1c228254bd"},"vehicle_type_id":"4","last_reported":1746983261,"current_range_meters":3600,"station_id":"","pricing_plan_id":"cebpf4jnsgd1na2vs0mg"},{"bike_id":"9a4b6498-bf63-4fe2-8f52-0077eab412fd","system_id":"levelo_inurba_marseille","lat":43.29197,"lon":5.35806,"is_reserved":false,"is_disabled":false,"rental_uris":{"android":"levelo://app?vid=9a4b6498-bf63-4fe2-8f52-0077eab412fd","ios":"levelo://app?vid=9a4b6498-bf63-4fe2-8f52-0077eab412fd"},"vehicle_type_id":"4","last_reported":1746983261,"current_range_meters":4000,"station_id":"ce4bhb12rcd13ifvqel0","pricing_plan_id":"cebpf4jnsgd1na2vs0mg"},{"bike_id":"cb8e1690-f2c5-498e-a711-9b8ce3f0da3e","system_id":"levelo_inurba_marseille","lat":43.23152,"lon":5.43712,"is_reserved":false,"is_disabled":false,"rental_uris":{"android":"levelo://app?vid=cb8e1690-f2c5-498e-a711-9b8ce3f0da3e","ios":"levelo://app?vid=cb8e1690-f2c5-498e-a711-9b8ce3f0da3e"},"vehicle_type_id":"4","last_reported":1746983261,"current_range_meters":4400,"station_id":"ce4bhmp2rcd13ifvqgog","pricing_plan_id":"cebpf4jnsgd1na2vs0mg"},{"bike_id":"c13f6770-edfc-46b5-bb2d-9740a2cce6d4","system_id":"levelo_inurba_marseille","lat":43.254979,"lon":5.376579,"is_reserved":false,"is_disabled":true,"rental_uris":{"android":"levelo://app?vid=c13f6770-edfc-46b5-bb2d-9740a2cce6d4","ios":"levelo://app?vid=c13f6770-edfc-46b5-bb2d-9740a2cce6d4"},"vehicle_type_id":"4","last_reported":1746983261,"current_range_meters":4400,"station_id":"ce4bhh12rcd13ifvqff0","pricing_plan_id":"cebpf4jnsgd1na2vs0mg"},{"bike_id":"4f39ef46-c182-492f-a9f2-8b71081efeff","system_id":"levelo_inurba_marseille","lat":43.25716,"lon":5.41117,"is_reserved":false,"is_disabled":false,"rental_uris":{"android":"levelo://app?vid=4f39ef46-c182-492f-a9f2-8b71081efeff","ios":"levelo://app?vid=4f39ef46-c182-492f-a9f2-8b71081efeff"},"vehicle_type_id":"4","last_reported":1746983261,"current_range_meters":4800,"station_id":"ce4bhkp2rcd13ifvqgd0","pricing_plan_id":"cebpf4jnsgd1na2vs0mg"},{"bike_id":"157eda05-6cca-4766-8aa0-a6963b3e561c","system_id":"levelo_inurba_marseille","lat":43.26225,"lon":5.40454,"is_reserved":false,"is_disabled":false,"rental_uris":{"android":"levelo://app?vid=157eda05-6cca-4766-8aa0-a6963b3e561c","ios":"levelo://app?vid=157eda05-6cca-4766-8aa0-a6963b3e561c"},"vehicle_type_id":"4","last_reported":1746983261,"current_range_meters":5600,"station_id":"ce4bhmh2rcd13ifvqgmg","pricing_plan_id":"cebpf4jnsgd1na2vs0mg"},{"bike_id":"07ae0069-6a74-41a0-8049-0c2fa639ff68","system_id":"levelo_inurba_marseille","lat":43.26203,"lon":5.37446,"is_reserved":false,"is_disabled":false,"rental_uris":{"android":"levelo://app?vid=07ae0069-6a74-41a0-8049-0c2fa639ff68","ios":"levelo://app?vid=07ae0069-6a74-41a0-8049-0c2fa639ff68"},"vehicle_type_id":"4","last_reported":1746983261,"current_range_meters":5600,"station_id":"ce4bhgp2rcd13ifvqfc0","pricing_plan_id":"cebpf4jnsgd1na2vs0mg"},{"bike_id":"f93ea03a-509d-463b-b395-89ca0a6b56e9","system_id":"levelo_inurba_marseille","lat":43.29259,"lon":5.38426,"is_reserved":false,"is_disabled":false,"rental_uris":{"android":"levelo://app?vid=f93ea03a-509d-463b-b395-89ca0a6b56e9","ios":"levelo://app?vid=f93ea03a-509d-463b-b395-89ca0a6b56e9"},"vehicle_type_id":"4","last_reported":1746983261,"current_range_meters":5600,"station_id":"ce4bh692rcd13ifvqea0","pricing_plan_id":"cebpf4jnsgd1na2vs0mg"},{"bike_id":"b07c3576-77ee-49cd-bd12-6cba331ee523","system_id":"levelo_inurba_marseille","lat":43.29012,"lon":5.35618,"is_reserved":false,"is_disabled":true,"rental_uris":{"android":"levelo://app?vid=b07c3576-77ee-49cd-bd12-6cba331ee523","ios":"levelo://app?vid=b07c3576-77ee-49cd-bd12-6cba331ee523"},"vehicle_type_id":"4","last_reported":1746983261,"current_range_meters":6000,"station_id":"ce4bhb92rcd13ifvqen0","pricing_plan_id":"cebpf4jnsgd1na2vs0mg"},{"bike_id":"959b7d58-889e-458e-baa5-f63635f464de","system_id":"levelo_inurba_marseille","lat":43.28992,"lon":5.35618,"is_reserved":false,"is_disabled":false,"rental_uris":{"android":"levelo://app?vid=959b7d58-889e-458e-baa5-f63635f464de","ios":"levelo://app?vid=959b7d58-889e-458e-baa5-f63635f464de"},"vehicle_type_id":"4","last_reported":1746983261,"current_range_meters":6000,"station_id":"ce4bhb92rcd13ifvqen0","pricing_plan_id":"cebpf4jnsgd1na2vs0mg"},{"bike_id":"7931e412-1043-4098-81a0-95559c934eec","system_id":"levelo_inurba_marseille","lat":43.30536,"lon":5.36715,"is_reserved":false,"is_disabled":false,"rental_uris":{"android":"levelo://app?vid=7931e412-1043-4098-81a0-95559c934eec","ios":"levelo://app?vid=7931e412-1043-4098-81a0-95559c934eec"},"vehicle_type_id":"4","last_reported":1746983261,"current_range_meters":6000,"station_id":"ce4bgrp2rcd13ifvqc9g","pricing_plan_id":"cebpf4jnsgd1na2vs0mg"},{"bike_id":"19b25a0e-718e-484c-b273-f0dcb738896c","system_id":"levelo_inurba_marseille","lat":43.28997,"lon":5.3562,"is_reserved":false,"is_disabled":true,"rental_uris":{"android":"levelo://app?vid=19b25a0e-718e-484c-b273-f0dcb738896c","ios":"levelo://app?vid=19b25a0e-718e-484c-b273-f0dcb738896c"},"vehicle_type_id":"4","last_reported":1746983261,"current_range_meters":6000,"station_id":"ce4bhb92rcd13ifvqen0","pricing_plan_id":"cebpf4jnsgd1na2vs0mg"},{"bike_id":"b4626043-4e62-4e08-8f06-77505dbb1458","system_id":"levelo_inurba_marseille","lat":43.23173,"lon":5.43717,"is_reserved":false,"is_disabled":false,"rental_uris":{"android":"levelo://app?vid=b4626043-4e62-4e08-8f06-77505dbb1458","ios":"levelo://app?vid=b4626043-4e62-4e08-8f06-77505dbb1458"},"vehicle_type_id":"4","last_reported":1746983261,"current_range_meters":6400,"station_id":"ce4bhmp2rcd13ifvqgog","pricing_plan_id":"cebpf4jnsgd1na2vs0mg"},{"bike_id":"814c300d-d261-4866-b022-44e7c5159380","system_id":"levelo_inurba_marseille","lat":43.24164,"lon":5.36393,"is_reserved":false,"is_disabled":true,"rental_uris":{"android":"levelo://app?vid=814c300d-d261-4866-b022-44e7c5159380","ios":"levelo://app?vid=814c300d-d261-4866-b022-44e7c5159380"},"vehicle_type_id":"4","last_reported":1746983261,"current_range_meters":6400,"station_id":"cpo36qri1sfpv3e86is0","pricing_plan_id":"cebpf4jnsgd1na2vs0mg"},{"bike_id":"20f7ec10-53e8-4cd2-9b2b-efb5eaecc6b7","system_id":"levelo_inurba_marseille","lat":43.3116,"lon":5.38722,"is_reserved":false,"is_disabled":false,"rental_uris":{"android":"levelo://app?vid=20f7ec10-53e8-4cd2-9b2b-efb5eaecc6b7","ios":"levelo://app?vid=20f7ec10-53e8-4cd2-9b2b-efb5eaecc6b7"},"vehicle_type_id":"4","last_reported":1746983261,"current_range_meters":6400,"station_id":"ce4bgv12rcd13ifvqcp0","pricing_plan_id":"cebpf4jnsgd1na2vs0mg"},{"bike_id":"aef513b6-9202-4217-afcc-fcc8ec204d71","system_id":"levelo_inurba_marseille","lat":43.282703,"lon":5.350694,"is_reserved":false,"is_disabled":false,"rental_uris":{"android":"levelo://app?vid=aef513b6-9202-4217-afcc-fcc8ec204d71","ios":"levelo://app?vid=aef513b6-9202-4217-afcc-fcc8ec204d71"},"vehicle_type_id":"4","last_reported":1746983261,"current_range_meters":6400,"station_id":"ce4bhbp2rcd13ifvqerg","pricing_plan_id":"cebpf4jnsgd1na2vs0mg"},{"bike_id":"16fa58c7-0780-42d8-811f-f0f048468453","system_id":"levelo_inurba_marseille","lat":43.28858,"lon":5.35854,"is_reserved":false,"is_disabled":false,"rental_uris":{"android":"levelo://app?vid=16fa58c7-0780-42d8-811f-f0f048468453","ios":"levelo://app?vid=16fa58c7-0780-42d8-811f-f0f048468453"},"vehicle_type_id":"4","last_reported":1746983261,"current_range_meters":6800,"station_id":"ce4bhb12rcd13ifvqem0","pricing_plan_id":"cebpf4jnsgd1na2vs0mg"},{"bike_id":"4d95bb63-99b0-42b3-854e-f3a2f3893882","system_id":"levelo_inurba_marseille","lat":43.31418,"lon":5.37613,"is_reserved":false,"is_disabled":false,"rental_uris":{"android":"levelo://app?vid=4d95bb63-99b0-42b3-854e-f3a2f3893882","ios":"levelo://app?vid=4d95bb63-99b0-42b3-854e-f3a2f3893882"},"vehicle_type_id":"4","last_reported":1746983261,"current_range_meters":7200,"station_id":"","pricing_plan_id":"cebpf4jnsgd1na2vs0mg"},{"bike_id":"8ee4a64b-ff7f-42e1-8358-2458b55cb272","system_id":"levelo_inurba_marseille","lat":43.28941,"lon":5.36641,"is_reserved":false,"is_disabled":false,"rental_uris":{"android":"levelo://app?vid=8ee4a64b-ff7f-42e1-8358-2458b55cb272","ios":"levelo://app?vid=8ee4a64b-ff7f-42e1-8358-2458b55cb272"},"vehicle_type_id":"4","last_reported":1746983261,"current_range_meters":7200,"station_id":"ce4bhap2rcd13ifvqek0","pricing_plan_id":"cebpf4jnsgd1na2vs0mg"},{"bike_id":"2785cfe4-849f-413c-8a07-55dcfd134a8f","system_id":"levelo_inurba_marseille","lat":43.28726,"lon":5.36074,"is_reserved":false,"is_disabled":false,"rental_uris":{"android":"levelo://app?vid=2785cfe4-849f-413c-8a07-55dcfd134a8f","ios":"levelo://app?vid=2785cfe4-849f-413c-8a07-55dcfd134a8f"},"vehicle_type_id":"4","last_reported":1746983261,"current_range_meters":7200,"station_id":"cki0cbj6b192h4jlfktg","pricing_plan_id":"cebpf4jnsgd1na2vs0mg"},{"bike_id":"d2032ed6-5759-4405-882d-16b5408c8bf2","system_id":"levelo_inurba_marseille","lat":43.324858,"lon":5.365643,"is_reserved":false,"is_disabled":false,"rental_uris":{"android":"levelo://app?vid=d2032ed6-5759-4405-882d-16b5408c8bf2","ios":"levelo://app?vid=d2032ed6-5759-4405-882d-16b5408c8bf2"},"vehicle_type_id":"4","last_reported":1746983261,"current_range_meters":7200,"station_id":"ce4bhs12rcd13ifvqhvg","pricing_plan_id":"cebpf4jnsgd1na2vs0mg"},{"bike_id":"47974352-6740-4c3c-aa46-abada0124354","system_id":"levelo_inurba_marseille","lat":43.320588,"lon":5.41509,"is_reserved":false,"is_disabled":false,"rental_uris":{"android":"levelo://app?vid=47974352-6740-4c3c-aa46-abada0124354","ios":"levelo://app?vid=47974352-6740-4c3c-aa46-abada0124354"},"vehicle_type_id":"4","last_reported":1746983261,"current_range_meters":6800,"station_id":"ce4bhqh2rcd13ifvqhmg","pricing_plan_id":"cebpf4jnsgd1na2vs0mg"},{"bike_id":"7fc8b844-3ebc-406b-97bd-7632b2b80dba","system_id":"levelo_inurba_marseille","lat":43.28426,"lon":5.35003,"is_reserved":false,"is_disabled":false,"rental_uris":{"android":"levelo://app?vid=7fc8b844-3ebc-406b-97bd-7632b2b80dba","ios":"levelo://app?vid=7fc8b844-3ebc-406b-97bd-7632b2b80dba"},"vehicle_type_id":"4","last_reported":1746983261,"current_range_meters":7200,"station_id":"ce4bhbh2rcd13ifvqepg","pricing_plan_id":"cebpf4jnsgd1na2vs0mg"},{"bike_id":"b3454c54-eabe-4e38-8911-b34d637bccec","system_id":"levelo_inurba_marseille","lat":43.22515,"lon":5.34781,"is_reserved":false,"is_disabled":false,"rental_uris":{"android":"levelo://app?vid=b3454c54-eabe-4e38-8911-b34d637bccec","ios":"levelo://app?vid=b3454c54-eabe-4e38-8911-b34d637bccec"},"vehicle_type_id":"4","last_reported":1746983261,"current_range_meters":8000,"station_id":"st_cvj5dfep6f1abm77gieg","pricing_plan_id":"cebpf4jnsgd1na2vs0mg"},{"bike_id":"864b00ee-77cf-4a20-a25b-7a6c38f28405","system_id":"levelo_inurba_marseille","lat":43.308065,"lon":5.37933,"is_reserved":false,"is_disabled":false,"rental_uris":{"android":"levelo://app?vid=864b00ee-77cf-4a20-a25b-7a6c38f28405","ios":"levelo://app?vid=864b00ee-77cf-4a20-a25b-7a6c38f28405"},"vehicle_type_id":"4","last_reported":1746983261,"current_range_meters":8000,"station_id":"","pricing_plan_id":"cebpf4jnsgd1na2vs0mg"},{"bike_id":"76df2b0c-bc7a-4eea-9c07-d79bc1bcda90","system_id":"levelo_inurba_marseille","lat":43.303,"lon":5.39209,"is_reserved":false,"is_disabled":false,"rental_uris":{"android":"levelo://app?vid=76df2b0c-bc7a-4eea-9c07-d79bc1bcda90","ios":"levelo://app?vid=76df2b0c-bc7a-4eea-9c07-d79bc1bcda90"},"vehicle_type_id":"4","last_reported":1746983261,"current_range_meters":8000,"station_id":"ce4bgkh2rcd13ifvqbk0","pricing_plan_id":"cebpf4jnsgd1na2vs0mg"},{"bike_id":"90699213-8274-436f-bb67-aab198828d40","system_id":"levelo_inurba_marseille","lat":43.32341,"lon":5.40617,"is_reserved":false,"is_disabled":false,"rental_uris":{"android":"levelo://app?vid=90699213-8274-436f-bb67-aab198828d40","ios":"levelo://app?vid=90699213-8274-436f-bb67-aab198828d40"},"vehicle_type_id":"4","last_reported":1746983261,"current_range_meters":8000,"station_id":"ce4bhq92rcd13ifvqhjg","pricing_plan_id":"cebpf4jnsgd1na2vs0mg"},{"bike_id":"48b73517-8a40-4b3f-aad3-968dd3319f04","system_id":"levelo_inurba_marseille","lat":43.31718,"lon":5.43719,"is_reserved":false,"is_disabled":false,"rental_uris":{"android":"levelo://app?vid=48b73517-8a40-4b3f-aad3-968dd3319f04","ios":"levelo://app?vid=48b73517-8a40-4b3f-aad3-968dd3319f04"},"vehicle_type_id":"4","last_reported":1746983261,"current_range_meters":8400,"station_id":"ce4bhp92rcd13ifvqhcg","pricing_plan_id":"cebpf4jnsgd1na2vs0mg"},{"bike_id":"f1f47090-376e-489a-b9ad-7bf5f4813c6a","system_id":"levelo_inurba_marseille","lat":43.2973,"lon":5.37726,"is_reserved":false,"is_disabled":true,"rental_uris":{"android":"levelo://app?vid=f1f47090-376e-489a-b9ad-7bf5f4813c6a","ios":"levelo://app?vid=f1f47090-376e-489a-b9ad-7bf5f4813c6a"},"vehicle_type_id":"4","last_reported":1746983261,"current_range_meters":8400,"station_id":"ce4bgkh2rcd13ifvqbl0","pricing_plan_id":"cebpf4jnsgd1na2vs0mg"},{"bike_id":"5dcab71c-cf6b-4265-8b95-caf742f42438","system_id":"levelo_inurba_marseille","lat":43.29259,"lon":5.38434,"is_reserved":false,"is_disabled":false,"rental_uris":{"android":"levelo://app?vid=5dcab71c-cf6b-4265-8b95-caf742f42438","ios":"levelo://app?vid=5dcab71c-cf6b-4265-8b95-caf742f42438"},"vehicle_type_id":"4","last_reported":1746983261,"current_range_meters":8400,"station_id":"ce4bh692rcd13ifvqea0","pricing_plan_id":"cebpf4jnsgd1na2vs0mg"},{"bike_id":"9aeffb12-123b-4c06-9eef-a994f114051e","system_id":"levelo_inurba_marseille","lat":43.24161,"lon":5.36434,"is_reserved":false,"is_disabled":false,"rental_uris":{"android":"levelo://app?vid=9aeffb12-123b-4c06-9eef-a994f114051e","ios":"levelo://app?vid=9aeffb12-123b-4c06-9eef-a994f114051e"},"vehicle_type_id":"4","last_reported":1746983261,"current_range_meters":8400,"station_id":"cpo36qri1sfpv3e86is0","pricing_plan_id":"cebpf4jnsgd1na2vs0mg"},{"bike_id":"04a7d0b6-391c-42de-9b11-a22e43abac99","system_id":"levelo_inurba_marseille","lat":43.2926,"lon":5.40904,"is_reserved":false,"is_disabled":false,"rental_uris":{"android":"levelo://app?vid=04a7d0b6-391c-42de-9b11-a22e43abac99","ios":"levelo://app?vid=04a7d0b6-391c-42de-9b11-a22e43abac99"},"vehicle_type_id":"4","last_reported":1746983261,"current_range_meters":8800,"station_id":"ce4bh192rcd13ifvqdc0","pricing_plan_id":"cebpf4jnsgd1na2vs0mg"},{"bike_id":"af9bc5ba-59fa-44a6-9edb-f7b8ec93c5bc","system_id":"levelo_inurba_marseille","lat":43.27372,"lon":5.36259,"is_reserved":false,"is_disabled":false,"rental_uris":{"android":"levelo://app?vid=af9bc5ba-59fa-44a6-9edb-f7b8ec93c5bc","ios":"levelo://app?vid=af9bc5ba-59fa-44a6-9edb-f7b8ec93c5bc"},"vehicle_type_id":"4","last_reported":1746983261,"current_range_meters":8800,"station_id":"ce4bhbh2rcd13ifvqeo0","pricing_plan_id":"cebpf4jnsgd1na2vs0mg"},{"bike_id":"ff978b6d-847c-46d2-985a-9a3c4356f277","system_id":"levelo_inurba_marseille","lat":43.28614,"lon":5.351,"is_reserved":false,"is_disabled":false,"rental_uris":{"android":"levelo://app?vid=ff978b6d-847c-46d2-985a-9a3c4356f277","ios":"levelo://app?vid=ff978b6d-847c-46d2-985a-9a3c4356f277"},"vehicle_type_id":"4","last_reported":1746983261,"current_range_meters":8800,"station_id":"ce4bhch2rcd13ifvqeug","pricing_plan_id":"cebpf4jnsgd1na2vs0mg"},{"bike_id":"888cb659-7e1a-471e-871b-a069f2adc74d","system_id":"levelo_inurba_marseille","lat":43.2315,"lon":5.43727,"is_reserved":false,"is_disabled":false,"rental_uris":{"android":"levelo://app?vid=888cb659-7e1a-471e-871b-a069f2adc74d","ios":"levelo://app?vid=888cb659-7e1a-471e-871b-a069f2adc74d"},"vehicle_type_id":"4","last_reported":1746983261,"current_range_meters":8800,"station_id":"ce4bhmp2rcd13ifvqgog","pricing_plan_id":"cebpf4jnsgd1na2vs0mg"},{"bike_id":"4be526c1-c099-4e56-8476-6a072fafda70","system_id":"levelo_inurba_marseille","lat":43.25112,"lon":5.40321,"is_reserved":false,"is_disabled":false,"rental_uris":{"android":"levelo://app?vid=4be526c1-c099-4e56-8476-6a072fafda70","ios":"levelo://app?vid=4be526c1-c099-4e56-8476-6a072fafda70"},"vehicle_type_id":"4","last_reported":1746983261,"current_range_meters":8800,"station_id":"ce4bhlh2rcd13ifvqgig","pricing_plan_id":"cebpf4jnsgd1na2vs0mg"},{"bike_id":"fc2577e7-1497-425b-9d4f-ab8d7dc843c6","system_id":"levelo_inurba_marseille","lat":43.33771,"lon":5.37485,"is_reserved":false,"is_disabled":false,"rental_uris":{"android":"levelo://app?vid=fc2577e7-1497-425b-9d4f-ab8d7dc843c6","ios":"levelo://app?vid=fc2577e7-1497-425b-9d4f-ab8d7dc843c6"},"vehicle_type_id":"4","last_reported":1746983261,"current_range_meters":9200,"station_id":"","pricing_plan_id":"cebpf4jnsgd1na2vs0mg"},{"bike_id":"cf06a58c-6b90-4ee6-b7ff-5b33ec523703","system_id":"levelo_inurba_marseille","lat":43.285988,"lon":5.413167,"is_reserved":false,"is_disabled":false,"rental_uris":{"android":"levelo://app?vid=cf06a58c-6b90-4ee6-b7ff-5b33ec523703","ios":"levelo://app?vid=cf06a58c-6b90-4ee6-b7ff-5b33ec523703"},"vehicle_type_id":"4","last_reported":1746983261,"current_range_meters":9200,"station_id":"","pricing_plan_id":"cebpf4jnsgd1na2vs0mg"},{"bike_id":"de407930-1ec3-425d-b82c-31e3ea2c62a0","system_id":"levelo_inurba_marseille","lat":43.25058,"lon":5.37548,"is_reserved":false,"is_disabled":false,"rental_uris":{"android":"levelo://app?vid=de407930-1ec3-425d-b82c-31e3ea2c62a0","ios":"levelo://app?vid=de407930-1ec3-425d-b82c-31e3ea2c62a0"},"vehicle_type_id":"4","last_reported":1746983261,"current_range_meters":9200,"station_id":"","pricing_plan_id":"cebpf4jnsgd1na2vs0mg"},{"bike_id":"3aa75863-fce6-4b94-9f5b-9c0ad58d1acf","system_id":"levelo_inurba_marseille","lat":43.24177,"lon":5.36398,"is_reserved":false,"is_disabled":false,"rental_uris":{"android":"levelo://app?vid=3aa75863-fce6-4b94-9f5b-9c0ad58d1acf","ios":"levelo://app?vid=3aa75863-fce6-4b94-9f5b-9c0ad58d1acf"},"vehicle_type_id":"4","last_reported":1746983261,"current_range_meters":9200,"station_id":"cpo36qri1sfpv3e86is0","pricing_plan_id":"cebpf4jnsgd1na2vs0mg"},{"bike_id":"96f6bcb7-afb1-4e8e-9003-a9d4940ec016","system_id":"levelo_inurba_marseille","lat":43.26037,"lon":5.37545,"is_reserved":false,"is_disabled":false,"rental_uris":{"android":"levelo://app?vid=96f6bcb7-afb1-4e8e-9003-a9d4940ec016","ios":"levelo://app?vid=96f6bcb7-afb1-4e8e-9003-a9d4940ec016"},"vehicle_type_id":"4","last_reported":1746983261,"current_range_meters":9200,"station_id":"ce4bhgh2rcd13ifvqfa0","pricing_plan_id":"cebpf4jnsgd1na2vs0mg"},{"bike_id":"910f58e1-bc11-4d4a-be16-a826726f8216","system_id":"levelo_inurba_marseille","lat":43.290368,"lon":5.359232,"is_reserved":false,"is_disabled":true,"rental_uris":{"android":"levelo://app?vid=910f58e1-bc11-4d4a-be16-a826726f8216","ios":"levelo://app?vid=910f58e1-bc11-4d4a-be16-a826726f8216"},"vehicle_type_id":"4","last_reported":1746983261,"current_range_meters":9200,"station_id":"ce4bha92rcd13ifvqeg0","pricing_plan_id":"cebpf4jnsgd1na2vs0mg"},{"bike_id":"025b9c64-7517-4e85-a202-4142a3462809","system_id":"levelo_inurba_marseille","lat":43.29705,"lon":5.37694,"is_reserved":false,"is_disabled":false,"rental_uris":{"android":"levelo://app?vid=025b9c64-7517-4e85-a202-4142a3462809","ios":"levelo://app?vid=025b9c64-7517-4e85-a202-4142a3462809"},"vehicle_type_id":"4","last_reported":1746983261,"current_range_meters":9200,"station_id":"ce4bgkh2rcd13ifvqbl0","pricing_plan_id":"cebpf4jnsgd1na2vs0mg"},{"bike_id":"a6883009-e1fe-492d-b565-98f40270a551","system_id":"levelo_inurba_marseille","lat":43.29264,"lon":5.40901,"is_reserved":false,"is_disabled":false,"rental_uris":{"android":"levelo://app?vid=a6883009-e1fe-492d-b565-98f40270a551","ios":"levelo://app?vid=a6883009-e1fe-492d-b565-98f40270a551"},"vehicle_type_id":"4","last_reported":1746983261,"current_range_meters":9200,"station_id":"ce4bh192rcd13ifvqdc0","pricing_plan_id":"cebpf4jnsgd1na2vs0mg"},{"bike_id":"d423bd75-8124-4300-931a-3a51f703d4a6","system_id":"levelo_inurba_marseille","lat":43.26056,"lon":5.39395,"is_reserved":false,"is_disabled":false,"rental_uris":{"android":"levelo://app?vid=d423bd75-8124-4300-931a-3a51f703d4a6","ios":"levelo://app?vid=d423bd75-8124-4300-931a-3a51f703d4a6"},"vehicle_type_id":"4","last_reported":1746983261,"current_range_meters":9600,"station_id":"ce4bhh92rcd13ifvqfj0","pricing_plan_id":"cebpf4jnsgd1na2vs0mg"},{"bike_id":"2550d505-9820-491d-b28b-7fac967f5f9d","system_id":"levelo_inurba_marseille","lat":43.26029,"lon":5.37546,"is_reserved":false,"is_disabled":false,"rental_uris":{"android":"levelo://app?vid=2550d505-9820-491d-b28b-7fac967f5f9d","ios":"levelo://app?vid=2550d505-9820-491d-b28b-7fac967f5f9d"},"vehicle_type_id":"4","last_reported":1746983261,"current_range_meters":9200,"station_id":"ce4bhgh2rcd13ifvqfa0","pricing_plan_id":"cebpf4jnsgd1na2vs0mg"},{"bike_id":"3ef6b121-e173-438d-b596-6b45c2cc64d9","system_id":"levelo_inurba_marseille","lat":43.27378,"lon":5.36253,"is_reserved":false,"is_disabled":false,"rental_uris":{"android":"levelo://app?vid=3ef6b121-e173-438d-b596-6b45c2cc64d9","ios":"levelo://app?vid=3ef6b121-e173-438d-b596-6b45c2cc64d9"},"vehicle_type_id":"4","last_reported":1746983261,"current_range_meters":10000,"station_id":"ce4bhbh2rcd13ifvqeo0","pricing_plan_id":"cebpf4jnsgd1na2vs0mg"},{"bike_id":"6d705489-d3d5-4e12-a28e-5d7bb8b109f3","system_id":"levelo_inurba_marseille","lat":43.268426,"lon":5.427644,"is_reserved":false,"is_disabled":false,"rental_uris":{"android":"levelo://app?vid=6d705489-d3d5-4e12-a28e-5d7bb8b109f3","ios":"levelo://app?vid=6d705489-d3d5-4e12-a28e-5d7bb8b109f3"},"vehicle_type_id":"4","last_reported":1746983261,"current_range_meters":10000,"station_id":"","pricing_plan_id":"cebpf4jnsgd1na2vs0mg"},{"bike_id":"771cabe0-f6cb-4aac-863c-554f84f4ca63","system_id":"levelo_inurba_marseille","lat":43.28271,"lon":5.3508,"is_reserved":false,"is_disabled":false,"rental_uris":{"android":"levelo://app?vid=771cabe0-f6cb-4aac-863c-554f84f4ca63","ios":"levelo://app?vid=771cabe0-f6cb-4aac-863c-554f84f4ca63"},"vehicle_type_id":"4","last_reported":1746983261,"current_range_meters":10000,"station_id":"ce4bhbp2rcd13ifvqerg","pricing_plan_id":"cebpf4jnsgd1na2vs0mg"},{"bike_id":"d897ae5a-305a-4dfe-9639-e8ab90ae791e","system_id":"levelo_inurba_marseille","lat":43.23173,"lon":5.43718,"is_reserved":false,"is_disabled":false,"rental_uris":{"android":"levelo://app?vid=d897ae5a-305a-4dfe-9639-e8ab90ae791e","ios":"levelo://app?vid=d897ae5a-305a-4dfe-9639-e8ab90ae791e"},"vehicle_type_id":"4","last_reported":1746983261,"current_range_meters":10000,"station_id":"ce4bhmp2rcd13ifvqgog","pricing_plan_id":"cebpf4jnsgd1na2vs0mg"},{"bike_id":"e297c7fb-c4a5-44f5-9fd2-afdbfd4bbfa6","system_id":"levelo_inurba_marseille","lat":43.295776,"lon":5.37521,"is_reserved":false,"is_disabled":false,"rental_uris":{"android":"levelo://app?vid=e297c7fb-c4a5-44f5-9fd2-afdbfd4bbfa6","ios":"levelo://app?vid=e297c7fb-c4a5-44f5-9fd2-afdbfd4bbfa6"},"vehicle_type_id":"4","last_reported":1746983261,"current_range_meters":10000,"station_id":"ce4bgh92rcd13ifvqb50","pricing_plan_id":"cebpf4jnsgd1na2vs0mg"},{"bike_id":"7f2a1bfa-85f3-4ac6-bdf4-ab6c756ebe72","system_id":"levelo_inurba_marseille","lat":43.3236,"lon":5.38892,"is_reserved":false,"is_disabled":false,"rental_uris":{"android":"levelo://app?vid=7f2a1bfa-85f3-4ac6-bdf4-ab6c756ebe72","ios":"levelo://app?vid=7f2a1bfa-85f3-4ac6-bdf4-ab6c756ebe72"},"vehicle_type_id":"4","last_reported":1746983261,"current_range_meters":10000,"station_id":"ce4bhqp2rcd13ifvqhog","pricing_plan_id":"cebpf4jnsgd1na2vs0mg"},{"bike_id":"5d616a98-f6a1-4789-a02d-abb0d20dd49c","system_id":"levelo_inurba_marseille","lat":43.23188,"lon":5.39981,"is_reserved":false,"is_disabled":true,"rental_uris":{"android":"levelo://app?vid=5d616a98-f6a1-4789-a02d-abb0d20dd49c","ios":"levelo://app?vid=5d616a98-f6a1-4789-a02d-abb0d20dd49c"},"vehicle_type_id":"4","last_reported":1746983261,"current_range_meters":10000,"station_id":"ce4bhn12rcd13ifvqgqg","pricing_plan_id":"cebpf4jnsgd1na2vs0mg"},{"bike_id":"38fd2285-da0e-4f6a-be1d-f6c2112df572","system_id":"levelo_inurba_marseille","lat":43.28667,"lon":5.3635,"is_reserved":false,"is_disabled":true,"rental_uris":{"android":"levelo://app?vid=38fd2285-da0e-4f6a-be1d-f6c2112df572","ios":"levelo://app?vid=38fd2285-da0e-4f6a-be1d-f6c2112df572"},"vehicle_type_id":"4","last_reported":1746983261,"current_range_meters":10000,"station_id":"ce4bhah2rcd13ifvqej0","pricing_plan_id":"cebpf4jnsgd1na2vs0mg"},{"bike_id":"5074160f-fd3c-4ff5-8b26-8f97977d264e","system_id":"levelo_inurba_marseille","lat":43.29777,"lon":5.38087,"is_reserved":false,"is_disabled":true,"rental_uris":{"android":"levelo://app?vid=5074160f-fd3c-4ff5-8b26-8f97977d264e","ios":"levelo://app?vid=5074160f-fd3c-4ff5-8b26-8f97977d264e"},"vehicle_type_id":"4","last_reported":1746983261,"current_range_meters":10000,"station_id":"ce4bgip2rcd13ifvqbb0","pricing_plan_id":"cebpf4jnsgd1na2vs0mg"},{"bike_id":"6663a384-abed-48bd-861f-d563c5fcecd4","system_id":"levelo_inurba_marseille","lat":43.284254,"lon":5.349799,"is_reserved":false,"is_disabled":true,"rental_uris":{"android":"levelo://app?vid=6663a384-abed-48bd-861f-d563c5fcecd4","ios":"levelo://app?vid=6663a384-abed-48bd-861f-d563c5fcecd4"},"vehicle_type_id":"4","last_reported":1746983261,"current_range_meters":10800,"station_id":"ce4bhbh2rcd13ifvqepg","pricing_plan_id":"cebpf4jnsgd1na2vs0mg"},{"bike_id":"e31583cd-7862-4b7c-8334-e17258a5c79e","system_id":"levelo_inurba_marseille","lat":43.27568,"lon":5.38443,"is_reserved":false,"is_disabled":false,"rental_uris":{"android":"levelo://app?vid=e31583cd-7862-4b7c-8334-e17258a5c79e","ios":"levelo://app?vid=e31583cd-7862-4b7c-8334-e17258a5c79e"},"vehicle_type_id":"4","last_reported":1746983261,"current_range_meters":10800,"station_id":"ce4bhh92rcd13ifvqfi0","pricing_plan_id":"cebpf4jnsgd1na2vs0mg"},{"bike_id":"13fe7a8a-f0a9-4ccb-bd17-886ee87592b9","system_id":"levelo_inurba_marseille","lat":43.29262,"lon":5.40906,"is_reserved":false,"is_disabled":false,"rental_uris":{"android":"levelo://app?vid=13fe7a8a-f0a9-4ccb-bd17-886ee87592b9","ios":"levelo://app?vid=13fe7a8a-f0a9-4ccb-bd17-886ee87592b9"},"vehicle_type_id":"4","last_reported":1746983261,"current_range_meters":10800,"station_id":"ce4bh192rcd13ifvqdc0","pricing_plan_id":"cebpf4jnsgd1na2vs0mg"},{"bike_id":"33bfe4d6-8980-48e3-9567-35cb8d051ea9","system_id":"levelo_inurba_marseille","lat":43.2737,"lon":5.36255,"is_reserved":false,"is_disabled":false,"rental_uris":{"android":"levelo://app?vid=33bfe4d6-8980-48e3-9567-35cb8d051ea9","ios":"levelo://app?vid=33bfe4d6-8980-48e3-9567-35cb8d051ea9"},"vehicle_type_id":"4","last_reported":1746983261,"current_range_meters":10800,"station_id":"ce4bhbh2rcd13ifvqeo0","pricing_plan_id":"cebpf4jnsgd1na2vs0mg"},{"bike_id":"d83b7170-8eed-47c1-b0ec-1140d3a45dea","system_id":"levelo_inurba_marseille","lat":43.308178,"lon":5.43537,"is_reserved":false,"is_disabled":false,"rental_uris":{"android":"levelo://app?vid=d83b7170-8eed-47c1-b0ec-1140d3a45dea","ios":"levelo://app?vid=d83b7170-8eed-47c1-b0ec-1140d3a45dea"},"vehicle_type_id":"4","last_reported":1746983261,"current_range_meters":11200,"station_id":"ce4bhph2rcd13ifvqheg","pricing_plan_id":"cebpf4jnsgd1na2vs0mg"},{"bike_id":"e2434f42-8ebb-4eed-a218-d21bf35b3735","system_id":"levelo_inurba_marseille","lat":43.29813,"lon":5.3813,"is_reserved":false,"is_disabled":true,"rental_uris":{"android":"levelo://app?vid=e2434f42-8ebb-4eed-a218-d21bf35b3735","ios":"levelo://app?vid=e2434f42-8ebb-4eed-a218-d21bf35b3735"},"vehicle_type_id":"4","last_reported":1746983261,"current_range_meters":11200,"station_id":"ce4bgip2rcd13ifvqbb0","pricing_plan_id":"cebpf4jnsgd1na2vs0mg"},{"bike_id":"efc0a0d5-a353-4db4-9aad-8fb20bd2a998","system_id":"levelo_inurba_marseille","lat":43.25734,"lon":5.41089,"is_reserved":false,"is_disabled":false,"rental_uris":{"android":"levelo://app?vid=efc0a0d5-a353-4db4-9aad-8fb20bd2a998","ios":"levelo://app?vid=efc0a0d5-a353-4db4-9aad-8fb20bd2a998"},"vehicle_type_id":"4","last_reported":1746983261,"current_range_meters":11200,"station_id":"ce4bhkp2rcd13ifvqgd0","pricing_plan_id":"cebpf4jnsgd1na2vs0mg"},{"bike_id":"a1121b36-b5cd-4dda-96ef-13a3dfaa55e1","system_id":"levelo_inurba_marseille","lat":43.301401,"lon":5.387791,"is_reserved":false,"is_disabled":false,"rental_uris":{"android":"levelo://app?vid=a1121b36-b5cd-4dda-96ef-13a3dfaa55e1","ios":"levelo://app?vid=a1121b36-b5cd-4dda-96ef-13a3dfaa55e1"},"vehicle_type_id":"4","last_reported":1746983261,"current_range_meters":11200,"station_id":"","pricing_plan_id":"cebpf4jnsgd1na2vs0mg"},{"bike_id":"07aec7e9-04d3-4d3c-b170-1a80513abaf3","system_id":"levelo_inurba_marseille","lat":43.26801,"lon":5.40269,"is_reserved":false,"is_disabled":false,"rental_uris":{"android":"levelo://app?vid=07aec7e9-04d3-4d3c-b170-1a80513abaf3","ios":"levelo://app?vid=07aec7e9-04d3-4d3c-b170-1a80513abaf3"},"vehicle_type_id":"4","last_reported":1746983261,"current_range_meters":11200,"station_id":"ce501612rcd8frsf0b60","pricing_plan_id":"cebpf4jnsgd1na2vs0mg"},{"bike_id":"7e8399ba-c37f-46b6-b545-7cf6078c88fa","system_id":"levelo_inurba_marseille","lat":43.29006,"lon":5.35621,"is_reserved":false,"is_disabled":false,"rental_uris":{"android":"levelo://app?vid=7e8399ba-c37f-46b6-b545-7cf6078c88fa","ios":"levelo://app?vid=7e8399ba-c37f-46b6-b545-7cf6078c88fa"},"vehicle_type_id":"4","last_reported":1746983261,"current_range_meters":11200,"station_id":"ce4bhb92rcd13ifvqen0","pricing_plan_id":"cebpf4jnsgd1na2vs0mg"},{"bike_id":"be24470c-4c70-4eec-a304-f22042e99d05","system_id":"levelo_inurba_marseille","lat":43.24682,"lon":5.38154,"is_reserved":false,"is_disabled":false,"rental_uris":{"android":"levelo://app?vid=be24470c-4c70-4eec-a304-f22042e99d05","ios":"levelo://app?vid=be24470c-4c70-4eec-a304-f22042e99d05"},"vehicle_type_id":"4","last_reported":1746983261,"current_range_meters":11200,"station_id":"ce4bhih2rcd13ifvqfr0","pricing_plan_id":"cebpf4jnsgd1na2vs0mg"},{"bike_id":"c33c979d-9903-40dc-a17f-25ccdad88704","system_id":"levelo_inurba_marseille","lat":43.295086,"lon":5.393951,"is_reserved":false,"is_disabled":true,"rental_uris":{"android":"levelo://app?vid=c33c979d-9903-40dc-a17f-25ccdad88704","ios":"levelo://app?vid=c33c979d-9903-40dc-a17f-25ccdad88704"},"vehicle_type_id":"4","last_reported":1746983261,"current_range_meters":11600,"station_id":"ce4bh292rcd13ifvqdf0","pricing_plan_id":"cebpf4jnsgd1na2vs0mg"},{"bike_id":"9d18cb04-7c68-485a-a146-0c4af325f4be","system_id":"levelo_inurba_marseille","lat":43.291932,"lon":5.357963,"is_reserved":false,"is_disabled":false,"rental_uris":{"android":"levelo://app?vid=9d18cb04-7c68-485a-a146-0c4af325f4be","ios":"levelo://app?vid=9d18cb04-7c68-485a-a146-0c4af325f4be"},"vehicle_type_id":"4","last_reported":1746983261,"current_range_meters":11200,"station_id":"ce4bhb12rcd13ifvqel0","pricing_plan_id":"cebpf4jnsgd1na2vs0mg"},{"bike_id":"082c1f9f-4719-4cfe-b34a-37cfa3666b2e","system_id":"levelo_inurba_marseille","lat":43.28715,"lon":5.39993,"is_reserved":false,"is_disabled":true,"rental_uris":{"android":"levelo://app?vid=082c1f9f-4719-4cfe-b34a-37cfa3666b2e","ios":"levelo://app?vid=082c1f9f-4719-4cfe-b34a-37cfa3666b2e"},"vehicle_type_id":"4","last_reported":1746983261,"current_range_meters":11200,"station_id":"ce4bho92rcd13ifvqh3g","pricing_plan_id":"cebpf4jnsgd1na2vs0mg"},{"bike_id":"95c07f58-992e-486e-9e01-f8c38af93653","system_id":"levelo_inurba_marseille","lat":43.30568,"lon":5.36718,"is_reserved":false,"is_disabled":true,"rental_uris":{"android":"levelo://app?vid=95c07f58-992e-486e-9e01-f8c38af93653","ios":"levelo://app?vid=95c07f58-992e-486e-9e01-f8c38af93653"},"vehicle_type_id":"4","last_reported":1746983261,"current_range_meters":11200,"station_id":"ce4bgrp2rcd13ifvqc9g","pricing_plan_id":"cebpf4jnsgd1na2vs0mg"},{"bike_id":"ff09a00c-a6dc-4be7-861b-bbf45b7ce57d","system_id":"levelo_inurba_marseille","lat":43.27203,"lon":5.3919,"is_reserved":false,"is_disabled":false,"rental_uris":{"android":"levelo://app?vid=ff09a00c-a6dc-4be7-861b-bbf45b7ce57d","ios":"levelo://app?vid=ff09a00c-a6dc-4be7-861b-bbf45b7ce57d"},"vehicle_type_id":"4","last_reported":1746983261,"current_range_meters":11600,"station_id":"ce4bhhp2rcd13ifvqfm0","pricing_plan_id":"cebpf4jnsgd1na2vs0mg"},{"bike_id":"dd26a564-288a-4583-9e9c-1719d4c40ab1","system_id":"levelo_inurba_marseille","lat":43.31719,"lon":5.42401,"is_reserved":false,"is_disabled":false,"rental_uris":{"android":"levelo://app?vid=dd26a564-288a-4583-9e9c-1719d4c40ab1","ios":"levelo://app?vid=dd26a564-288a-4583-9e9c-1719d4c40ab1"},"vehicle_type_id":"4","last_reported":1746983261,"current_range_meters":11600,"station_id":"ce4bhp92rcd13ifvqhbg","pricing_plan_id":"cebpf4jnsgd1na2vs0mg"},{"bike_id":"3ee007b4-701a-43a3-a268-87c67c8eea49","system_id":"levelo_inurba_marseille","lat":43.26228,"lon":5.40447,"is_reserved":false,"is_disabled":false,"rental_uris":{"android":"levelo://app?vid=3ee007b4-701a-43a3-a268-87c67c8eea49","ios":"levelo://app?vid=3ee007b4-701a-43a3-a268-87c67c8eea49"},"vehicle_type_id":"4","last_reported":1746983261,"current_range_meters":11600,"station_id":"ce4bhmh2rcd13ifvqgmg","pricing_plan_id":"cebpf4jnsgd1na2vs0mg"},{"bike_id":"afdbe8f8-4eff-4898-ac20-d74de2dfcd94","system_id":"levelo_inurba_marseille","lat":43.3153,"lon":5.38038,"is_reserved":false,"is_disabled":false,"rental_uris":{"android":"levelo://app?vid=afdbe8f8-4eff-4898-ac20-d74de2dfcd94","ios":"levelo://app?vid=afdbe8f8-4eff-4898-ac20-d74de2dfcd94"},"vehicle_type_id":"4","last_reported":1746983261,"current_range_meters":11600,"station_id":"ce4bhsp2rcd13ifvqi50","pricing_plan_id":"cebpf4jnsgd1na2vs0mg"},{"bike_id":"bf3fba7d-e546-4dd7-86d3-6dab828c14aa","system_id":"levelo_inurba_marseille","lat":43.23065,"lon":5.35497,"is_reserved":false,"is_disabled":false,"rental_uris":{"android":"levelo://app?vid=bf3fba7d-e546-4dd7-86d3-6dab828c14aa","ios":"levelo://app?vid=bf3fba7d-e546-4dd7-86d3-6dab828c14aa"},"vehicle_type_id":"4","last_reported":1746983261,"current_range_meters":11600,"station_id":"cpo3342slgdg3j2ifvpg","pricing_plan_id":"cebpf4jnsgd1na2vs0mg"},{"bike_id":"4908143a-0eae-4a31-8b5e-dad949751f39","system_id":"levelo_inurba_marseille","lat":43.30536,"lon":5.3672,"is_reserved":false,"is_disabled":false,"rental_uris":{"android":"levelo://app?vid=4908143a-0eae-4a31-8b5e-dad949751f39","ios":"levelo://app?vid=4908143a-0eae-4a31-8b5e-dad949751f39"},"vehicle_type_id":"4","last_reported":1746983261,"current_range_meters":11600,"station_id":"ce4bgrp2rcd13ifvqc9g","pricing_plan_id":"cebpf4jnsgd1na2vs0mg"},{"bike_id":"fee71b33-e57f-4b89-806f-f8bd02e69007","system_id":"levelo_inurba_marseille","lat":43.306551,"lon":5.401143,"is_reserved":false,"is_disabled":false,"rental_uris":{"android":"levelo://app?vid=fee71b33-e57f-4b89-806f-f8bd02e69007","ios":"levelo://app?vid=fee71b33-e57f-4b89-806f-f8bd02e69007"},"vehicle_type_id":"4","last_reported":1746983261,"current_range_meters":12000,"station_id":"ce4bh112rcd13ifvqda0","pricing_plan_id":"cebpf4jnsgd1na2vs0mg"},{"bike_id":"a02ff3d0-dabc-4f80-a7ca-75d2665902bc","system_id":"levelo_inurba_marseille","lat":43.28408,"lon":5.37508,"is_reserved":false,"is_disabled":false,"rental_uris":{"android":"levelo://app?vid=a02ff3d0-dabc-4f80-a7ca-75d2665902bc","ios":"levelo://app?vid=a02ff3d0-dabc-4f80-a7ca-75d2665902bc"},"vehicle_type_id":"4","last_reported":1746983261,"current_range_meters":12000,"station_id":"ce4bh412rcd13ifvqds0","pricing_plan_id":"cebpf4jnsgd1na2vs0mg"},{"bike_id":"f1b0e6cc-fec7-45c6-a000-1e25825ef1c0","system_id":"levelo_inurba_marseille","lat":43.28851,"lon":5.39296,"is_reserved":false,"is_disabled":false,"rental_uris":{"android":"levelo://app?vid=f1b0e6cc-fec7-45c6-a000-1e25825ef1c0","ios":"levelo://app?vid=f1b0e6cc-fec7-45c6-a000-1e25825ef1c0"},"vehicle_type_id":"4","last_reported":1746983261,"current_range_meters":12000,"station_id":"ce4bh2p2rcd13ifvqdi0","pricing_plan_id":"cebpf4jnsgd1na2vs0mg"},{"bike_id":"11a221c3-c385-4640-a1f1-c744d7f86904","system_id":"levelo_inurba_marseille","lat":43.290385,"lon":5.35925,"is_reserved":false,"is_disabled":false,"rental_uris":{"android":"levelo://app?vid=11a221c3-c385-4640-a1f1-c744d7f86904","ios":"levelo://app?vid=11a221c3-c385-4640-a1f1-c744d7f86904"},"vehicle_type_id":"4","last_reported":1746983261,"current_range_meters":11600,"station_id":"ce4bha92rcd13ifvqeg0","pricing_plan_id":"cebpf4jnsgd1na2vs0mg"},{"bike_id":"0e71bd13-085a-48d1-a691-59a2792789eb","system_id":"levelo_inurba_marseille","lat":43.26491,"lon":5.39545,"is_reserved":false,"is_disabled":false,"rental_uris":{"android":"levelo://app?vid=0e71bd13-085a-48d1-a691-59a2792789eb","ios":"levelo://app?vid=0e71bd13-085a-48d1-a691-59a2792789eb"},"vehicle_type_id":"4","last_reported":1746983261,"current_range_meters":12000,"station_id":"ce4bhi12rcd13ifvqfq0","pricing_plan_id":"cebpf4jnsgd1na2vs0mg"},{"bike_id":"093772c5-fb44-482c-a0c3-8501aa31b989","system_id":"levelo_inurba_marseille","lat":43.29921,"lon":5.43653,"is_reserved":false,"is_disabled":false,"rental_uris":{"android":"levelo://app?vid=093772c5-fb44-482c-a0c3-8501aa31b989","ios":"levelo://app?vid=093772c5-fb44-482c-a0c3-8501aa31b989"},"vehicle_type_id":"4","last_reported":1746983261,"current_range_meters":12000,"station_id":"ce4bhpp2rcd13ifvqhfg","pricing_plan_id":"cebpf4jnsgd1na2vs0mg"},{"bike_id":"1a860b74-3804-4273-9c8e-671c584d338f","system_id":"levelo_inurba_marseille","lat":43.25112,"lon":5.40321,"is_reserved":false,"is_disabled":false,"rental_uris":{"android":"levelo://app?vid=1a860b74-3804-4273-9c8e-671c584d338f","ios":"levelo://app?vid=1a860b74-3804-4273-9c8e-671c584d338f"},"vehicle_type_id":"4","last_reported":1746983261,"current_range_meters":12000,"station_id":"ce4bhlh2rcd13ifvqgig","pricing_plan_id":"cebpf4jnsgd1na2vs0mg"},{"bike_id":"d5c6300e-fa00-4342-bace-988f2413dbdf","system_id":"levelo_inurba_marseille","lat":43.272633,"lon":5.391935,"is_reserved":false,"is_disabled":false,"rental_uris":{"android":"levelo://app?vid=d5c6300e-fa00-4342-bace-988f2413dbdf","ios":"levelo://app?vid=d5c6300e-fa00-4342-bace-988f2413dbdf"},"vehicle_type_id":"4","last_reported":1746983261,"current_range_meters":12400,"station_id":"ce4bhf92rcd13ifvqf40","pricing_plan_id":"cebpf4jnsgd1na2vs0mg"},{"bike_id":"b8bf2a08-843e-45f8-a5ba-247ce347a37f","system_id":"levelo_inurba_marseille","lat":43.26061,"lon":5.39394,"is_reserved":false,"is_disabled":false,"rental_uris":{"android":"levelo://app?vid=b8bf2a08-843e-45f8-a5ba-247ce347a37f","ios":"levelo://app?vid=b8bf2a08-843e-45f8-a5ba-247ce347a37f"},"vehicle_type_id":"4","last_reported":1746983261,"current_range_meters":12400,"station_id":"ce4bhh92rcd13ifvqfj0","pricing_plan_id":"cebpf4jnsgd1na2vs0mg"},{"bike_id":"de608a0b-278b-468e-957e-8246fb76906b","system_id":"levelo_inurba_marseille","lat":43.27963,"lon":5.38709,"is_reserved":false,"is_disabled":true,"rental_uris":{"android":"levelo://app?vid=de608a0b-278b-468e-957e-8246fb76906b","ios":"levelo://app?vid=de608a0b-278b-468e-957e-8246fb76906b"},"vehicle_type_id":"4","last_reported":1746983261,"current_range_meters":12400,"station_id":"ce4bhg12rcd13ifvqf80","pricing_plan_id":"cebpf4jnsgd1na2vs0mg"},{"bike_id":"34b319f9-45c3-4654-8c36-58d5a5003c1d","system_id":"levelo_inurba_marseille","lat":43.288498,"lon":5.393066,"is_reserved":false,"is_disabled":false,"rental_uris":{"android":"levelo://app?vid=34b319f9-45c3-4654-8c36-58d5a5003c1d","ios":"levelo://app?vid=34b319f9-45c3-4654-8c36-58d5a5003c1d"},"vehicle_type_id":"4","last_reported":1746983261,"current_range_meters":12800,"station_id":"ce4bh2p2rcd13ifvqdi0","pricing_plan_id":"cebpf4jnsgd1na2vs0mg"},{"bike_id":"9f300de8-98ad-4ab2-be5f-d6beb96ba912","system_id":"levelo_inurba_marseille","lat":43.29274,"lon":5.38429,"is_reserved":false,"is_disabled":false,"rental_uris":{"android":"levelo://app?vid=9f300de8-98ad-4ab2-be5f-d6beb96ba912","ios":"levelo://app?vid=9f300de8-98ad-4ab2-be5f-d6beb96ba912"},"vehicle_type_id":"4","last_reported":1746983261,"current_range_meters":13600,"station_id":"ce4bh692rcd13ifvqea0","pricing_plan_id":"cebpf4jnsgd1na2vs0mg"},{"bike_id":"8d581785-7dbe-4a1b-8be4-cb6d76b609cf","system_id":"levelo_inurba_marseille","lat":43.29193,"lon":5.35801,"is_reserved":false,"is_disabled":false,"rental_uris":{"android":"levelo://app?vid=8d581785-7dbe-4a1b-8be4-cb6d76b609cf","ios":"levelo://app?vid=8d581785-7dbe-4a1b-8be4-cb6d76b609cf"},"vehicle_type_id":"4","last_reported":1746983261,"current_range_meters":13600,"station_id":"ce4bhb12rcd13ifvqel0","pricing_plan_id":"cebpf4jnsgd1na2vs0mg"},{"bike_id":"386c16e7-688b-421f-8611-43aa9e0277ef","system_id":"levelo_inurba_marseille","lat":43.27565,"lon":5.38418,"is_reserved":false,"is_disabled":false,"rental_uris":{"android":"levelo://app?vid=386c16e7-688b-421f-8611-43aa9e0277ef","ios":"levelo://app?vid=386c16e7-688b-421f-8611-43aa9e0277ef"},"vehicle_type_id":"4","last_reported":1746983261,"current_range_meters":13600,"station_id":"ce4bhh92rcd13ifvqfi0","pricing_plan_id":"cebpf4jnsgd1na2vs0mg"},{"bike_id":"bab20466-91a2-48da-af64-7d429397e36e","system_id":"levelo_inurba_marseille","lat":43.21782,"lon":5.34612,"is_reserved":false,"is_disabled":false,"rental_uris":{"android":"levelo://app?vid=bab20466-91a2-48da-af64-7d429397e36e","ios":"levelo://app?vid=bab20466-91a2-48da-af64-7d429397e36e"},"vehicle_type_id":"4","last_reported":1746983261,"current_range_meters":14000,"station_id":"st_cvj6r9ubvosntc0bgbag","pricing_plan_id":"cebpf4jnsgd1na2vs0mg"},{"bike_id":"575a6c3a-6b6b-49af-847e-0c7f2a1bd7fe","system_id":"levelo_inurba_marseille","lat":43.28269,"lon":5.35086,"is_reserved":false,"is_disabled":false,"rental_uris":{"android":"levelo://app?vid=575a6c3a-6b6b-49af-847e-0c7f2a1bd7fe","ios":"levelo://app?vid=575a6c3a-6b6b-49af-847e-0c7f2a1bd7fe"},"vehicle_type_id":"4","last_reported":1746983261,"current_range_meters":14000,"station_id":"ce4bhbp2rcd13ifvqerg","pricing_plan_id":"cebpf4jnsgd1na2vs0mg"},{"bike_id":"cc62d2da-5a20-4806-9c3f-389790a326f5","system_id":"levelo_inurba_marseille","lat":43.244308,"lon":5.370827,"is_reserved":false,"is_disabled":true,"rental_uris":{"android":"levelo://app?vid=cc62d2da-5a20-4806-9c3f-389790a326f5","ios":"levelo://app?vid=cc62d2da-5a20-4806-9c3f-389790a326f5"},"vehicle_type_id":"4","last_reported":1746983261,"current_range_meters":14000,"station_id":"ce4bhhh2rcd13ifvqfk0","pricing_plan_id":"cebpf4jnsgd1na2vs0mg"},{"bike_id":"55ec749e-b683-4a12-ac92-fea06874587f","system_id":"levelo_inurba_marseille","lat":43.29199,"lon":5.35816,"is_reserved":false,"is_disabled":false,"rental_uris":{"android":"levelo://app?vid=55ec749e-b683-4a12-ac92-fea06874587f","ios":"levelo://app?vid=55ec749e-b683-4a12-ac92-fea06874587f"},"vehicle_type_id":"4","last_reported":1746983261,"current_range_meters":14000,"station_id":"ce4bhb12rcd13ifvqel0","pricing_plan_id":"cebpf4jnsgd1na2vs0mg"},{"bike_id":"35632ec4-41a9-489c-bc44-41521d2106f7","system_id":"levelo_inurba_marseille","lat":43.32305,"lon":5.38273,"is_reserved":false,"is_disabled":false,"rental_uris":{"android":"levelo://app?vid=35632ec4-41a9-489c-bc44-41521d2106f7","ios":"levelo://app?vid=35632ec4-41a9-489c-bc44-41521d2106f7"},"vehicle_type_id":"4","last_reported":1746983261,"current_range_meters":14000,"station_id":"ce4bhr12rcd13ifvqhqg","pricing_plan_id":"cebpf4jnsgd1na2vs0mg"},{"bike_id":"f52c819d-ca4b-4640-b458-b877db1bf990","system_id":"levelo_inurba_marseille","lat":43.29861,"lon":5.40983,"is_reserved":false,"is_disabled":false,"rental_uris":{"android":"levelo://app?vid=f52c819d-ca4b-4640-b458-b877db1bf990","ios":"levelo://app?vid=f52c819d-ca4b-4640-b458-b877db1bf990"},"vehicle_type_id":"4","last_reported":1746983261,"current_range_meters":14400,"station_id":"","pricing_plan_id":"cebpf4jnsgd1na2vs0mg"},{"bike_id":"3b2a7643-f9bb-42e2-b101-de3b8b7c8af5","system_id":"levelo_inurba_marseille","lat":43.28942,"lon":5.36638,"is_reserved":false,"is_disabled":false,"rental_uris":{"android":"levelo://app?vid=3b2a7643-f9bb-42e2-b101-de3b8b7c8af5","ios":"levelo://app?vid=3b2a7643-f9bb-42e2-b101-de3b8b7c8af5"},"vehicle_type_id":"4","last_reported":1746983261,"current_range_meters":14400,"station_id":"ce4bhap2rcd13ifvqek0","pricing_plan_id":"cebpf4jnsgd1na2vs0mg"},{"bike_id":"34c9cb98-5c3c-43a9-8437-45d3fc207e5d","system_id":"levelo_inurba_marseille","lat":43.28416,"lon":5.349938,"is_reserved":false,"is_disabled":false,"rental_uris":{"android":"levelo://app?vid=34c9cb98-5c3c-43a9-8437-45d3fc207e5d","ios":"levelo://app?vid=34c9cb98-5c3c-43a9-8437-45d3fc207e5d"},"vehicle_type_id":"4","last_reported":1746983261,"current_range_meters":14400,"station_id":"ce4bhbh2rcd13ifvqepg","pricing_plan_id":"cebpf4jnsgd1na2vs0mg"},{"bike_id":"fe8a300c-df4c-42e1-b092-cce77e5975ce","system_id":"levelo_inurba_marseille","lat":43.2573,"lon":5.41094,"is_reserved":false,"is_disabled":false,"rental_uris":{"android":"levelo://app?vid=fe8a300c-df4c-42e1-b092-cce77e5975ce","ios":"levelo://app?vid=fe8a300c-df4c-42e1-b092-cce77e5975ce"},"vehicle_type_id":"4","last_reported":1746983261,"current_range_meters":14400,"station_id":"ce4bhkp2rcd13ifvqgd0","pricing_plan_id":"cebpf4jnsgd1na2vs0mg"},{"bike_id":"bfad8cac-14f4-4f2c-b1a5-9242c761215c","system_id":"levelo_inurba_marseille","lat":43.29537,"lon":5.37492,"is_reserved":false,"is_disabled":false,"rental_uris":{"android":"levelo://app?vid=bfad8cac-14f4-4f2c-b1a5-9242c761215c","ios":"levelo://app?vid=bfad8cac-14f4-4f2c-b1a5-9242c761215c"},"vehicle_type_id":"4","last_reported":1746983261,"current_range_meters":14400,"station_id":"ce4bgkp2rcd13ifvqbmg","pricing_plan_id":"cebpf4jnsgd1na2vs0mg"},{"bike_id":"dc95e02c-1ba3-4459-8d55-a3771755dc22","system_id":"levelo_inurba_marseille","lat":43.29007,"lon":5.35605,"is_reserved":false,"is_disabled":false,"rental_uris":{"android":"levelo://app?vid=dc95e02c-1ba3-4459-8d55-a3771755dc22","ios":"levelo://app?vid=dc95e02c-1ba3-4459-8d55-a3771755dc22"},"vehicle_type_id":"4","last_reported":1746983261,"current_range_meters":14400,"station_id":"ce4bhb92rcd13ifvqen0","pricing_plan_id":"cebpf4jnsgd1na2vs0mg"},{"bike_id":"bb80b19a-04ef-4dcb-aae4-1bb2f1aee8a6","system_id":"levelo_inurba_marseille","lat":43.27916,"lon":5.39582,"is_reserved":false,"is_disabled":false,"rental_uris":{"android":"levelo://app?vid=bb80b19a-04ef-4dcb-aae4-1bb2f1aee8a6","ios":"levelo://app?vid=bb80b19a-04ef-4dcb-aae4-1bb2f1aee8a6"},"vehicle_type_id":"4","last_reported":1746983261,"current_range_meters":14800,"station_id":"ce4bhf92rcd13ifvqf40","pricing_plan_id":"cebpf4jnsgd1na2vs0mg"},{"bike_id":"e64b6efa-8ad8-4af7-8d4d-f16b57fe35e2","system_id":"levelo_inurba_marseille","lat":43.28615,"lon":5.37065,"is_reserved":false,"is_disabled":true,"rental_uris":{"android":"levelo://app?vid=e64b6efa-8ad8-4af7-8d4d-f16b57fe35e2","ios":"levelo://app?vid=e64b6efa-8ad8-4af7-8d4d-f16b57fe35e2"},"vehicle_type_id":"4","last_reported":1746983261,"current_range_meters":14800,"station_id":"ce4bht12rcd13ifvqi60","pricing_plan_id":"cebpf4jnsgd1na2vs0mg"},{"bike_id":"0a96b047-410f-4812-8d2d-8b206a02a2ac","system_id":"levelo_inurba_marseille","lat":43.23186,"lon":5.35561,"is_reserved":false,"is_disabled":false,"rental_uris":{"android":"levelo://app?vid=0a96b047-410f-4812-8d2d-8b206a02a2ac","ios":"levelo://app?vid=0a96b047-410f-4812-8d2d-8b206a02a2ac"},"vehicle_type_id":"4","last_reported":1746983261,"current_range_meters":14800,"station_id":"ce4bhu92rcd13ifvqi70","pricing_plan_id":"cebpf4jnsgd1na2vs0mg"},{"bike_id":"d769f653-2284-4ccd-8df9-03b5aebbcb34","system_id":"levelo_inurba_marseille","lat":43.26998,"lon":5.43161,"is_reserved":false,"is_disabled":false,"rental_uris":{"android":"levelo://app?vid=d769f653-2284-4ccd-8df9-03b5aebbcb34","ios":"levelo://app?vid=d769f653-2284-4ccd-8df9-03b5aebbcb34"},"vehicle_type_id":"4","last_reported":1746983261,"current_range_meters":14800,"station_id":"","pricing_plan_id":"cebpf4jnsgd1na2vs0mg"},{"bike_id":"27518118-0154-4fb5-981d-758529fb2699","system_id":"levelo_inurba_marseille","lat":43.28261,"lon":5.35093,"is_reserved":false,"is_disabled":false,"rental_uris":{"android":"levelo://app?vid=27518118-0154-4fb5-981d-758529fb2699","ios":"levelo://app?vid=27518118-0154-4fb5-981d-758529fb2699"},"vehicle_type_id":"4","last_reported":1746983261,"current_range_meters":14800,"station_id":"ce4bhbp2rcd13ifvqerg","pricing_plan_id":"cebpf4jnsgd1na2vs0mg"},{"bike_id":"0ada0bcf-2b26-4704-a0b3-b3b7f3fe2f69","system_id":"levelo_inurba_marseille","lat":43.30309,"lon":5.36888,"is_reserved":false,"is_disabled":false,"rental_uris":{"android":"levelo://app?vid=0ada0bcf-2b26-4704-a0b3-b3b7f3fe2f69","ios":"levelo://app?vid=0ada0bcf-2b26-4704-a0b3-b3b7f3fe2f69"},"vehicle_type_id":"4","last_reported":1746983261,"current_range_meters":14800,"station_id":"ce4bgqh2rcd13ifvqc5g","pricing_plan_id":"cebpf4jnsgd1na2vs0mg"},{"bike_id":"a7d74b37-1d07-48eb-a2a9-fbe8f61e5ded","system_id":"levelo_inurba_marseille","lat":43.30308,"lon":5.36888,"is_reserved":false,"is_disabled":false,"rental_uris":{"android":"levelo://app?vid=a7d74b37-1d07-48eb-a2a9-fbe8f61e5ded","ios":"levelo://app?vid=a7d74b37-1d07-48eb-a2a9-fbe8f61e5ded"},"vehicle_type_id":"4","last_reported":1746983261,"current_range_meters":15200,"station_id":"ce4bgqh2rcd13ifvqc5g","pricing_plan_id":"cebpf4jnsgd1na2vs0mg"},{"bike_id":"06b57a0b-53c4-45ee-aac3-7083ee6a7a1f","system_id":"levelo_inurba_marseille","lat":43.30305,"lon":5.36869,"is_reserved":false,"is_disabled":false,"rental_uris":{"android":"levelo://app?vid=06b57a0b-53c4-45ee-aac3-7083ee6a7a1f","ios":"levelo://app?vid=06b57a0b-53c4-45ee-aac3-7083ee6a7a1f"},"vehicle_type_id":"4","last_reported":1746983261,"current_range_meters":15200,"station_id":"ce4bgqh2rcd13ifvqc5g","pricing_plan_id":"cebpf4jnsgd1na2vs0mg"},{"bike_id":"ddede444-03a8-4331-b20d-55cae16ff0b4","system_id":"levelo_inurba_marseille","lat":43.24164,"lon":5.36399,"is_reserved":false,"is_disabled":false,"rental_uris":{"android":"levelo://app?vid=ddede444-03a8-4331-b20d-55cae16ff0b4","ios":"levelo://app?vid=ddede444-03a8-4331-b20d-55cae16ff0b4"},"vehicle_type_id":"4","last_reported":1746983261,"current_range_meters":16000,"station_id":"cpo36qri1sfpv3e86is0","pricing_plan_id":"cebpf4jnsgd1na2vs0mg"},{"bike_id":"65b82f45-8480-4629-a947-24b4c1774f8a","system_id":"levelo_inurba_marseille","lat":43.30313,"lon":5.36877,"is_reserved":false,"is_disabled":false,"rental_uris":{"android":"levelo://app?vid=65b82f45-8480-4629-a947-24b4c1774f8a","ios":"levelo://app?vid=65b82f45-8480-4629-a947-24b4c1774f8a"},"vehicle_type_id":"4","last_reported":1746983261,"current_range_meters":16000,"station_id":"ce4bgqh2rcd13ifvqc5g","pricing_plan_id":"cebpf4jnsgd1na2vs0mg"},{"bike_id":"d181a3b0-62a7-40ef-b00b-7183eb435c68","system_id":"levelo_inurba_marseille","lat":43.30212,"lon":5.39464,"is_reserved":false,"is_disabled":false,"rental_uris":{"android":"levelo://app?vid=d181a3b0-62a7-40ef-b00b-7183eb435c68","ios":"levelo://app?vid=d181a3b0-62a7-40ef-b00b-7183eb435c68"},"vehicle_type_id":"4","last_reported":1746983261,"current_range_meters":16000,"station_id":"ce4bh0p2rcd13ifvqd70","pricing_plan_id":"cebpf4jnsgd1na2vs0mg"},{"bike_id":"c37ca2b1-69dc-46e9-94be-7c01aebc93d5","system_id":"levelo_inurba_marseille","lat":43.30263,"lon":5.3668,"is_reserved":false,"is_disabled":false,"rental_uris":{"android":"levelo://app?vid=c37ca2b1-69dc-46e9-94be-7c01aebc93d5","ios":"levelo://app?vid=c37ca2b1-69dc-46e9-94be-7c01aebc93d5"},"vehicle_type_id":"4","last_reported":1746983261,"current_range_meters":16400,"station_id":"","pricing_plan_id":"cebpf4jnsgd1na2vs0mg"},{"bike_id":"765f70f6-e5b6-4b61-bf2e-a75d5d0d10d2","system_id":"levelo_inurba_marseille","lat":43.26069,"lon":5.39402,"is_reserved":false,"is_disabled":false,"rental_uris":{"android":"levelo://app?vid=765f70f6-e5b6-4b61-bf2e-a75d5d0d10d2","ios":"levelo://app?vid=765f70f6-e5b6-4b61-bf2e-a75d5d0d10d2"},"vehicle_type_id":"4","last_reported":1746983261,"current_range_meters":16000,"station_id":"ce4bhh92rcd13ifvqfj0","pricing_plan_id":"cebpf4jnsgd1na2vs0mg"},{"bike_id":"1351f5f5-3aa1-46d6-bd98-c705be4b46d3","system_id":"levelo_inurba_marseille","lat":43.29203,"lon":5.36117,"is_reserved":false,"is_disabled":false,"rental_uris":{"android":"levelo://app?vid=1351f5f5-3aa1-46d6-bd98-c705be4b46d3","ios":"levelo://app?vid=1351f5f5-3aa1-46d6-bd98-c705be4b46d3"},"vehicle_type_id":"4","last_reported":1746983261,"current_range_meters":16400,"station_id":"ce4bhbh2rcd13ifvqeqg","pricing_plan_id":"cebpf4jnsgd1na2vs0mg"},{"bike_id":"c6e58aa3-d73b-4343-a6f3-d814914ad535","system_id":"levelo_inurba_marseille","lat":43.29018,"lon":5.35599,"is_reserved":false,"is_disabled":true,"rental_uris":{"android":"levelo://app?vid=c6e58aa3-d73b-4343-a6f3-d814914ad535","ios":"levelo://app?vid=c6e58aa3-d73b-4343-a6f3-d814914ad535"},"vehicle_type_id":"4","last_reported":1746983261,"current_range_meters":16400,"station_id":"ce4bhb92rcd13ifvqen0","pricing_plan_id":"cebpf4jnsgd1na2vs0mg"},{"bike_id":"a3cfbeb5-0ed1-4c8e-8d1d-c9603b834a27","system_id":"levelo_inurba_marseille","lat":43.32261,"lon":5.40661,"is_reserved":false,"is_disabled":false,"rental_uris":{"android":"levelo://app?vid=a3cfbeb5-0ed1-4c8e-8d1d-c9603b834a27","ios":"levelo://app?vid=a3cfbeb5-0ed1-4c8e-8d1d-c9603b834a27"},"vehicle_type_id":"4","last_reported":1746983261,"current_range_meters":16400,"station_id":"","pricing_plan_id":"cebpf4jnsgd1na2vs0mg"},{"bike_id":"83a5dddc-f08f-476e-a316-d0e0dfb65037","system_id":"levelo_inurba_marseille","lat":43.31719,"lon":5.42423,"is_reserved":false,"is_disabled":false,"rental_uris":{"android":"levelo://app?vid=83a5dddc-f08f-476e-a316-d0e0dfb65037","ios":"levelo://app?vid=83a5dddc-f08f-476e-a316-d0e0dfb65037"},"vehicle_type_id":"4","last_reported":1746983261,"current_range_meters":16800,"station_id":"ce4bhp92rcd13ifvqhbg","pricing_plan_id":"cebpf4jnsgd1na2vs0mg"},{"bike_id":"05002948-5731-4191-9f1f-53a3f090f75e","system_id":"levelo_inurba_marseille","lat":43.28698,"lon":5.39977,"is_reserved":false,"is_disabled":false,"rental_uris":{"android":"levelo://app?vid=05002948-5731-4191-9f1f-53a3f090f75e","ios":"levelo://app?vid=05002948-5731-4191-9f1f-53a3f090f75e"},"vehicle_type_id":"4","last_reported":1746983261,"current_range_meters":16800,"station_id":"ce4bho92rcd13ifvqh3g","pricing_plan_id":"cebpf4jnsgd1na2vs0mg"},{"bike_id":"58717dcb-f223-40dc-b242-264e8ef866f2","system_id":"levelo_inurba_marseille","lat":43.292533,"lon":5.409132,"is_reserved":false,"is_disabled":false,"rental_uris":{"android":"levelo://app?vid=58717dcb-f223-40dc-b242-264e8ef866f2","ios":"levelo://app?vid=58717dcb-f223-40dc-b242-264e8ef866f2"},"vehicle_type_id":"4","last_reported":1746983261,"current_range_meters":16800,"station_id":"ce4bh192rcd13ifvqdc0","pricing_plan_id":"cebpf4jnsgd1na2vs0mg"},{"bike_id":"51bc31be-aca9-4ffe-afa8-2abfd963fc7b","system_id":"levelo_inurba_marseille","lat":43.299693,"lon":5.385053,"is_reserved":false,"is_disabled":false,"rental_uris":{"android":"levelo://app?vid=51bc31be-aca9-4ffe-afa8-2abfd963fc7b","ios":"levelo://app?vid=51bc31be-aca9-4ffe-afa8-2abfd963fc7b"},"vehicle_type_id":"4","last_reported":1746983261,"current_range_meters":16800,"station_id":"ce4bgj92rcd13ifvqbd0","pricing_plan_id":"cebpf4jnsgd1na2vs0mg"},{"bike_id":"a87fc351-df89-43ef-828e-16c06507e09d","system_id":"levelo_inurba_marseille","lat":43.231944,"lon":5.35577,"is_reserved":false,"is_disabled":false,"rental_uris":{"android":"levelo://app?vid=a87fc351-df89-43ef-828e-16c06507e09d","ios":"levelo://app?vid=a87fc351-df89-43ef-828e-16c06507e09d"},"vehicle_type_id":"4","last_reported":1746983261,"current_range_meters":16800,"station_id":"ce4bhu92rcd13ifvqi70","pricing_plan_id":"cebpf4jnsgd1na2vs0mg"},{"bike_id":"77b898d6-83c3-4819-8f10-342d8faa3aa9","system_id":"levelo_inurba_marseille","lat":43.27066,"lon":5.42281,"is_reserved":false,"is_disabled":true,"rental_uris":{"android":"levelo://app?vid=77b898d6-83c3-4819-8f10-342d8faa3aa9","ios":"levelo://app?vid=77b898d6-83c3-4819-8f10-342d8faa3aa9"},"vehicle_type_id":"4","last_reported":1746983261,"current_range_meters":16800,"station_id":"ce4bhk92rcd13ifvqgb0","pricing_plan_id":"cebpf4jnsgd1na2vs0mg"},{"bike_id":"4762718c-a376-420c-be5d-ae5208641990","system_id":"levelo_inurba_marseille","lat":43.284654,"lon":5.35892,"is_reserved":false,"is_disabled":true,"rental_uris":{"android":"levelo://app?vid=4762718c-a376-420c-be5d-ae5208641990","ios":"levelo://app?vid=4762718c-a376-420c-be5d-ae5208641990"},"vehicle_type_id":"4","last_reported":1746983261,"current_range_meters":16800,"station_id":"ce4bhah2rcd13ifvqei0","pricing_plan_id":"cebpf4jnsgd1na2vs0mg"},{"bike_id":"2a85c0cc-1db4-4efb-82b3-981b72ed7e33","system_id":"levelo_inurba_marseille","lat":43.29004,"lon":5.35608,"is_reserved":false,"is_disabled":false,"rental_uris":{"android":"levelo://app?vid=2a85c0cc-1db4-4efb-82b3-981b72ed7e33","ios":"levelo://app?vid=2a85c0cc-1db4-4efb-82b3-981b72ed7e33"},"vehicle_type_id":"4","last_reported":1746983261,"current_range_meters":16800,"station_id":"ce4bhb92rcd13ifvqen0","pricing_plan_id":"cebpf4jnsgd1na2vs0mg"},{"bike_id":"d8f85698-9cc7-4fac-ba09-0118aa7df1b5","system_id":"levelo_inurba_marseille","lat":43.31345,"lon":5.38512,"is_reserved":false,"is_disabled":true,"rental_uris":{"android":"levelo://app?vid=d8f85698-9cc7-4fac-ba09-0118aa7df1b5","ios":"levelo://app?vid=d8f85698-9cc7-4fac-ba09-0118aa7df1b5"},"vehicle_type_id":"4","last_reported":1746983261,"current_range_meters":17200,"station_id":"ce4bgt92rcd13ifvqcf0","pricing_plan_id":"cebpf4jnsgd1na2vs0mg"},{"bike_id":"44231145-d05e-433b-b3e2-ac3bdf32156d","system_id":"levelo_inurba_marseille","lat":43.217481,"lon":5.346004,"is_reserved":false,"is_disabled":false,"rental_uris":{"android":"levelo://app?vid=44231145-d05e-433b-b3e2-ac3bdf32156d","ios":"levelo://app?vid=44231145-d05e-433b-b3e2-ac3bdf32156d"},"vehicle_type_id":"4","last_reported":1746983261,"current_range_meters":17200,"station_id":"st_cvj6r9ubvosntc0bgbag","pricing_plan_id":"cebpf4jnsgd1na2vs0mg"},{"bike_id":"0a4dc782-e1df-48ff-81bf-b707284fe935","system_id":"levelo_inurba_marseille","lat":43.284214,"lon":5.349794,"is_reserved":false,"is_disabled":true,"rental_uris":{"android":"levelo://app?vid=0a4dc782-e1df-48ff-81bf-b707284fe935","ios":"levelo://app?vid=0a4dc782-e1df-48ff-81bf-b707284fe935"},"vehicle_type_id":"4","last_reported":1746983261,"current_range_meters":17200,"station_id":"ce4bhbh2rcd13ifvqepg","pricing_plan_id":"cebpf4jnsgd1na2vs0mg"},{"bike_id":"5431cac8-f571-4e67-a874-9bf0a57f5aee","system_id":"levelo_inurba_marseille","lat":43.29623,"lon":5.37118,"is_reserved":false,"is_disabled":false,"rental_uris":{"android":"levelo://app?vid=5431cac8-f571-4e67-a874-9bf0a57f5aee","ios":"levelo://app?vid=5431cac8-f571-4e67-a874-9bf0a57f5aee"},"vehicle_type_id":"4","last_reported":1746983261,"current_range_meters":17600,"station_id":"ce4bgnh2rcd13ifvqc0g","pricing_plan_id":"cebpf4jnsgd1na2vs0mg"},{"bike_id":"69a8b69f-3d81-4513-8667-eadd8b308402","system_id":"levelo_inurba_marseille","lat":43.29373,"lon":5.40154,"is_reserved":false,"is_disabled":false,"rental_uris":{"android":"levelo://app?vid=69a8b69f-3d81-4513-8667-eadd8b308402","ios":"levelo://app?vid=69a8b69f-3d81-4513-8667-eadd8b308402"},"vehicle_type_id":"4","last_reported":1746983261,"current_range_meters":17600,"station_id":"","pricing_plan_id":"cebpf4jnsgd1na2vs0mg"},{"bike_id":"f5dfde6e-7893-45da-8b47-d8431964e5d8","system_id":"levelo_inurba_marseille","lat":43.25114,"lon":5.40321,"is_reserved":false,"is_disabled":false,"rental_uris":{"android":"levelo://app?vid=f5dfde6e-7893-45da-8b47-d8431964e5d8","ios":"levelo://app?vid=f5dfde6e-7893-45da-8b47-d8431964e5d8"},"vehicle_type_id":"4","last_reported":1746983261,"current_range_meters":17600,"station_id":"ce4bhlh2rcd13ifvqgig","pricing_plan_id":"cebpf4jnsgd1na2vs0mg"},{"bike_id":"b6f0504a-f7d7-4a97-b810-e7c9e7b1c671","system_id":"levelo_inurba_marseille","lat":43.27909,"lon":5.41267,"is_reserved":false,"is_disabled":false,"rental_uris":{"android":"levelo://app?vid=b6f0504a-f7d7-4a97-b810-e7c9e7b1c671","ios":"levelo://app?vid=b6f0504a-f7d7-4a97-b810-e7c9e7b1c671"},"vehicle_type_id":"4","last_reported":1746983261,"current_range_meters":18000,"station_id":"","pricing_plan_id":"cebpf4jnsgd1na2vs0mg"},{"bike_id":"b9ef3a08-4fcb-46fb-abc5-ae1771a6a686","system_id":"levelo_inurba_marseille","lat":43.29336,"lon":5.42824,"is_reserved":false,"is_disabled":false,"rental_uris":{"android":"levelo://app?vid=b9ef3a08-4fcb-46fb-abc5-ae1771a6a686","ios":"levelo://app?vid=b9ef3a08-4fcb-46fb-abc5-ae1771a6a686"},"vehicle_type_id":"4","last_reported":1746983261,"current_range_meters":18000,"station_id":"","pricing_plan_id":"cebpf4jnsgd1na2vs0mg"},{"bike_id":"8e9e723f-2d83-4210-81bd-7a1702e0b840","system_id":"levelo_inurba_marseille","lat":43.28696,"lon":5.39961,"is_reserved":false,"is_disabled":false,"rental_uris":{"android":"levelo://app?vid=8e9e723f-2d83-4210-81bd-7a1702e0b840","ios":"levelo://app?vid=8e9e723f-2d83-4210-81bd-7a1702e0b840"},"vehicle_type_id":"4","last_reported":1746983261,"current_range_meters":18000,"station_id":"ce4bho92rcd13ifvqh3g","pricing_plan_id":"cebpf4jnsgd1na2vs0mg"},{"bike_id":"b63e6078-9c65-41bd-aa73-a2ddabd6b5de","system_id":"levelo_inurba_marseille","lat":43.2959,"lon":5.3673,"is_reserved":false,"is_disabled":true,"rental_uris":{"android":"levelo://app?vid=b63e6078-9c65-41bd-aa73-a2ddabd6b5de","ios":"levelo://app?vid=b63e6078-9c65-41bd-aa73-a2ddabd6b5de"},"vehicle_type_id":"4","last_reported":1746983261,"current_range_meters":18000,"station_id":"ce4bgph2rcd13ifvqc2g","pricing_plan_id":"cebpf4jnsgd1na2vs0mg"},{"bike_id":"7037f6b9-6e4e-4b36-91c5-48d813b3d156","system_id":"levelo_inurba_marseille","lat":43.2841,"lon":5.35021,"is_reserved":false,"is_disabled":false,"rental_uris":{"android":"levelo://app?vid=7037f6b9-6e4e-4b36-91c5-48d813b3d156","ios":"levelo://app?vid=7037f6b9-6e4e-4b36-91c5-48d813b3d156"},"vehicle_type_id":"4","last_reported":1746983261,"current_range_meters":18000,"station_id":"ce4bhbh2rcd13ifvqepg","pricing_plan_id":"cebpf4jnsgd1na2vs0mg"},{"bike_id":"2a2e92a8-9be2-42a0-8f8b-e8c99ed20b3a","system_id":"levelo_inurba_marseille","lat":43.23141,"lon":5.39923,"is_reserved":false,"is_disabled":false,"rental_uris":{"android":"levelo://app?vid=2a2e92a8-9be2-42a0-8f8b-e8c99ed20b3a","ios":"levelo://app?vid=2a2e92a8-9be2-42a0-8f8b-e8c99ed20b3a"},"vehicle_type_id":"4","last_reported":1746983261,"current_range_meters":18800,"station_id":"","pricing_plan_id":"cebpf4jnsgd1na2vs0mg"},{"bike_id":"923bc3c8-9653-42f6-ab2d-a12cb585d499","system_id":"levelo_inurba_marseille","lat":43.29452,"lon":5.38697,"is_reserved":false,"is_disabled":false,"rental_uris":{"android":"levelo://app?vid=923bc3c8-9653-42f6-ab2d-a12cb585d499","ios":"levelo://app?vid=923bc3c8-9653-42f6-ab2d-a12cb585d499"},"vehicle_type_id":"4","last_reported":1746983261,"current_range_meters":18800,"station_id":"","pricing_plan_id":"cebpf4jnsgd1na2vs0mg"},{"bike_id":"2898cba3-3e36-412a-b5ef-2d5ec58ac3f9","system_id":"levelo_inurba_marseille","lat":43.295287,"lon":5.375061,"is_reserved":false,"is_disabled":false,"rental_uris":{"android":"levelo://app?vid=2898cba3-3e36-412a-b5ef-2d5ec58ac3f9","ios":"levelo://app?vid=2898cba3-3e36-412a-b5ef-2d5ec58ac3f9"},"vehicle_type_id":"4","last_reported":1746983261,"current_range_meters":18800,"station_id":"ce4bgkp2rcd13ifvqbmg","pricing_plan_id":"cebpf4jnsgd1na2vs0mg"},{"bike_id":"ff589e47-f1b9-4b43-b328-884725ce1cdf","system_id":"levelo_inurba_marseille","lat":43.305944,"lon":5.372371,"is_reserved":false,"is_disabled":false,"rental_uris":{"android":"levelo://app?vid=ff589e47-f1b9-4b43-b328-884725ce1cdf","ios":"levelo://app?vid=ff589e47-f1b9-4b43-b328-884725ce1cdf"},"vehicle_type_id":"4","last_reported":1746983261,"current_range_meters":19200,"station_id":"ce4bgqh2rcd13ifvqc4g","pricing_plan_id":"cebpf4jnsgd1na2vs0mg"},{"bike_id":"aca142bd-2716-4ee3-8c04-bd27c952c647","system_id":"levelo_inurba_marseille","lat":43.264456,"lon":5.37499,"is_reserved":false,"is_disabled":false,"rental_uris":{"android":"levelo://app?vid=aca142bd-2716-4ee3-8c04-bd27c952c647","ios":"levelo://app?vid=aca142bd-2716-4ee3-8c04-bd27c952c647"},"vehicle_type_id":"4","last_reported":1746983261,"current_range_meters":19200,"station_id":"","pricing_plan_id":"cebpf4jnsgd1na2vs0mg"},{"bike_id":"2c32c255-fa5c-47ba-94b8-0e3deaf7089b","system_id":"levelo_inurba_marseille","lat":43.29273,"lon":5.40126,"is_reserved":false,"is_disabled":false,"rental_uris":{"android":"levelo://app?vid=2c32c255-fa5c-47ba-94b8-0e3deaf7089b","ios":"levelo://app?vid=2c32c255-fa5c-47ba-94b8-0e3deaf7089b"},"vehicle_type_id":"4","last_reported":1746983261,"current_range_meters":19200,"station_id":"ce4bh312rcd13ifvqdk0","pricing_plan_id":"cebpf4jnsgd1na2vs0mg"},{"bike_id":"12ce33db-0695-498b-9f78-c600a9908b36","system_id":"levelo_inurba_marseille","lat":43.2864,"lon":5.35082,"is_reserved":false,"is_disabled":true,"rental_uris":{"android":"levelo://app?vid=12ce33db-0695-498b-9f78-c600a9908b36","ios":"levelo://app?vid=12ce33db-0695-498b-9f78-c600a9908b36"},"vehicle_type_id":"4","last_reported":1746983261,"current_range_meters":19200,"station_id":"ce4bhch2rcd13ifvqeug","pricing_plan_id":"cebpf4jnsgd1na2vs0mg"},{"bike_id":"da464db1-4481-414e-8f25-447989e11c9a","system_id":"levelo_inurba_marseille","lat":43.28439,"lon":5.39189,"is_reserved":false,"is_disabled":false,"rental_uris":{"android":"levelo://app?vid=da464db1-4481-414e-8f25-447989e11c9a","ios":"levelo://app?vid=da464db1-4481-414e-8f25-447989e11c9a"},"vehicle_type_id":"4","last_reported":1746983261,"current_range_meters":19200,"station_id":"ce4bhoh2rcd13ifvqh5g","pricing_plan_id":"cebpf4jnsgd1na2vs0mg"},{"bike_id":"7e22b9b5-0d3e-4d09-8db6-d8feaa5f2a75","system_id":"levelo_inurba_marseille","lat":43.28479,"lon":5.38556,"is_reserved":false,"is_disabled":false,"rental_uris":{"android":"levelo://app?vid=7e22b9b5-0d3e-4d09-8db6-d8feaa5f2a75","ios":"levelo://app?vid=7e22b9b5-0d3e-4d09-8db6-d8feaa5f2a75"},"vehicle_type_id":"4","last_reported":1746983261,"current_range_meters":19200,"station_id":"ce4bh8p2rcd13ifvqeb0","pricing_plan_id":"cebpf4jnsgd1na2vs0mg"},{"bike_id":"901d25d5-e0a4-4b9d-9519-beabbed3efe8","system_id":"levelo_inurba_marseille","lat":43.21206,"lon":5.35081,"is_reserved":false,"is_disabled":false,"rental_uris":{"android":"levelo://app?vid=901d25d5-e0a4-4b9d-9519-beabbed3efe8","ios":"levelo://app?vid=901d25d5-e0a4-4b9d-9519-beabbed3efe8"},"vehicle_type_id":"4","last_reported":1746983261,"current_range_meters":19200,"station_id":"st_cvj6sg6p6f1abm77japg","pricing_plan_id":"cebpf4jnsgd1na2vs0mg"},{"bike_id":"1aab4aa2-19b2-47ee-8a2e-43fbbfc39058","system_id":"levelo_inurba_marseille","lat":43.302513,"lon":5.390613,"is_reserved":false,"is_disabled":true,"rental_uris":{"android":"levelo://app?vid=1aab4aa2-19b2-47ee-8a2e-43fbbfc39058","ios":"levelo://app?vid=1aab4aa2-19b2-47ee-8a2e-43fbbfc39058"},"vehicle_type_id":"4","last_reported":1746983261,"current_range_meters":19200,"station_id":"ce4bgkh2rcd13ifvqbk0","pricing_plan_id":"cebpf4jnsgd1na2vs0mg"},{"bike_id":"632a7e63-9364-4e28-b0f0-ca22ea7a58f1","system_id":"levelo_inurba_marseille","lat":43.28656,"lon":5.363514,"is_reserved":false,"is_disabled":false,"rental_uris":{"android":"levelo://app?vid=632a7e63-9364-4e28-b0f0-ca22ea7a58f1","ios":"levelo://app?vid=632a7e63-9364-4e28-b0f0-ca22ea7a58f1"},"vehicle_type_id":"4","last_reported":1746983261,"current_range_meters":19200,"station_id":"ce4bhah2rcd13ifvqej0","pricing_plan_id":"cebpf4jnsgd1na2vs0mg"},{"bike_id":"b07bfc09-4ee4-480d-951d-bf310d1d8d6c","system_id":"levelo_inurba_marseille","lat":43.3214,"lon":5.38478,"is_reserved":false,"is_disabled":false,"rental_uris":{"android":"levelo://app?vid=b07bfc09-4ee4-480d-951d-bf310d1d8d6c","ios":"levelo://app?vid=b07bfc09-4ee4-480d-951d-bf310d1d8d6c"},"vehicle_type_id":"4","last_reported":1746983261,"current_range_meters":19600,"station_id":"","pricing_plan_id":"cebpf4jnsgd1na2vs0mg"},{"bike_id":"2e0f483d-dd7f-4cf6-9759-44805db1a3bc","system_id":"levelo_inurba_marseille","lat":43.31753,"lon":5.39015,"is_reserved":false,"is_disabled":false,"rental_uris":{"android":"levelo://app?vid=2e0f483d-dd7f-4cf6-9759-44805db1a3bc","ios":"levelo://app?vid=2e0f483d-dd7f-4cf6-9759-44805db1a3bc"},"vehicle_type_id":"4","last_reported":1746983261,"current_range_meters":19200,"station_id":"ce4bhqp2rcd13ifvqhng","pricing_plan_id":"cebpf4jnsgd1na2vs0mg"},{"bike_id":"b95767c2-360f-4a23-bda6-60511c538a45","system_id":"levelo_inurba_marseille","lat":43.29526,"lon":5.38527,"is_reserved":false,"is_disabled":false,"rental_uris":{"android":"levelo://app?vid=b95767c2-360f-4a23-bda6-60511c538a45","ios":"levelo://app?vid=b95767c2-360f-4a23-bda6-60511c538a45"},"vehicle_type_id":"4","last_reported":1746983261,"current_range_meters":19600,"station_id":"ce4bgih2rcd13ifvqba0","pricing_plan_id":"cebpf4jnsgd1na2vs0mg"},{"bike_id":"2584f4a8-a2f0-4ad9-b5f9-8544087f8a0d","system_id":"levelo_inurba_marseille","lat":43.31118,"lon":5.37757,"is_reserved":false,"is_disabled":false,"rental_uris":{"android":"levelo://app?vid=2584f4a8-a2f0-4ad9-b5f9-8544087f8a0d","ios":"levelo://app?vid=2584f4a8-a2f0-4ad9-b5f9-8544087f8a0d"},"vehicle_type_id":"4","last_reported":1746983261,"current_range_meters":19600,"station_id":"ce4bgt92rcd13ifvqcg0","pricing_plan_id":"cebpf4jnsgd1na2vs0mg"},{"bike_id":"2b9456f6-7bc3-4c7e-902f-7ad9a918c289","system_id":"levelo_inurba_marseille","lat":43.29523,"lon":5.37505,"is_reserved":false,"is_disabled":false,"rental_uris":{"android":"levelo://app?vid=2b9456f6-7bc3-4c7e-902f-7ad9a918c289","ios":"levelo://app?vid=2b9456f6-7bc3-4c7e-902f-7ad9a918c289"},"vehicle_type_id":"4","last_reported":1746983261,"current_range_meters":20000,"station_id":"ce4bgkp2rcd13ifvqbmg","pricing_plan_id":"cebpf4jnsgd1na2vs0mg"},{"bike_id":"78085a80-1588-41d6-8f12-f8f54da66912","system_id":"levelo_inurba_marseille","lat":43.28421,"lon":5.34987,"is_reserved":false,"is_disabled":false,"rental_uris":{"android":"levelo://app?vid=78085a80-1588-41d6-8f12-f8f54da66912","ios":"levelo://app?vid=78085a80-1588-41d6-8f12-f8f54da66912"},"vehicle_type_id":"4","last_reported":1746983261,"current_range_meters":20000,"station_id":"ce4bhbh2rcd13ifvqepg","pricing_plan_id":"cebpf4jnsgd1na2vs0mg"},{"bike_id":"a0a7b749-df06-403a-9039-7dfe8d8079c9","system_id":"levelo_inurba_marseille","lat":43.23964,"lon":5.36644,"is_reserved":false,"is_disabled":true,"rental_uris":{"android":"levelo://app?vid=a0a7b749-df06-403a-9039-7dfe8d8079c9","ios":"levelo://app?vid=a0a7b749-df06-403a-9039-7dfe8d8079c9"},"vehicle_type_id":"4","last_reported":1746983261,"current_range_meters":20000,"station_id":"ce4bhi12rcd13ifvqfp0","pricing_plan_id":"cebpf4jnsgd1na2vs0mg"},{"bike_id":"9b4d06b0-e154-4508-8fc9-3ed71bdb7ed5","system_id":"levelo_inurba_marseille","lat":43.26677,"lon":5.38267,"is_reserved":false,"is_disabled":false,"rental_uris":{"android":"levelo://app?vid=9b4d06b0-e154-4508-8fc9-3ed71bdb7ed5","ios":"levelo://app?vid=9b4d06b0-e154-4508-8fc9-3ed71bdb7ed5"},"vehicle_type_id":"4","last_reported":1746983261,"current_range_meters":20400,"station_id":"ce4bhg92rcd13ifvqf90","pricing_plan_id":"cebpf4jnsgd1na2vs0mg"},{"bike_id":"c3eacc77-c314-4f0e-adda-7fafe9b9b541","system_id":"levelo_inurba_marseille","lat":43.31266,"lon":5.40163,"is_reserved":false,"is_disabled":false,"rental_uris":{"android":"levelo://app?vid=c3eacc77-c314-4f0e-adda-7fafe9b9b541","ios":"levelo://app?vid=c3eacc77-c314-4f0e-adda-7fafe9b9b541"},"vehicle_type_id":"4","last_reported":1746983261,"current_range_meters":20000,"station_id":"ce4bh092rcd13ifvqd30","pricing_plan_id":"cebpf4jnsgd1na2vs0mg"},{"bike_id":"b336a229-0bf1-452c-97d8-afd000b0f02e","system_id":"levelo_inurba_marseille","lat":43.32503,"lon":5.36568,"is_reserved":false,"is_disabled":false,"rental_uris":{"android":"levelo://app?vid=b336a229-0bf1-452c-97d8-afd000b0f02e","ios":"levelo://app?vid=b336a229-0bf1-452c-97d8-afd000b0f02e"},"vehicle_type_id":"4","last_reported":1746983261,"current_range_meters":20400,"station_id":"ce4bhs12rcd13ifvqhvg","pricing_plan_id":"cebpf4jnsgd1na2vs0mg"},{"bike_id":"4353d328-aaa7-468e-aa3d-812cd1f3453b","system_id":"levelo_inurba_marseille","lat":43.28709,"lon":5.39988,"is_reserved":false,"is_disabled":false,"rental_uris":{"android":"levelo://app?vid=4353d328-aaa7-468e-aa3d-812cd1f3453b","ios":"levelo://app?vid=4353d328-aaa7-468e-aa3d-812cd1f3453b"},"vehicle_type_id":"4","last_reported":1746983261,"current_range_meters":20800,"station_id":"ce4bho92rcd13ifvqh3g","pricing_plan_id":"cebpf4jnsgd1na2vs0mg"},{"bike_id":"57f4fcee-2e71-4ebb-bb11-681aa00269d7","system_id":"levelo_inurba_marseille","lat":43.29208,"lon":5.36171,"is_reserved":false,"is_disabled":false,"rental_uris":{"android":"levelo://app?vid=57f4fcee-2e71-4ebb-bb11-681aa00269d7","ios":"levelo://app?vid=57f4fcee-2e71-4ebb-bb11-681aa00269d7"},"vehicle_type_id":"4","last_reported":1746983261,"current_range_meters":20800,"station_id":"ce4bhbh2rcd13ifvqeqg","pricing_plan_id":"cebpf4jnsgd1na2vs0mg"},{"bike_id":"36fd7042-62d9-493c-8a59-a394652c22d0","system_id":"levelo_inurba_marseille","lat":43.25113,"lon":5.40316,"is_reserved":false,"is_disabled":false,"rental_uris":{"android":"levelo://app?vid=36fd7042-62d9-493c-8a59-a394652c22d0","ios":"levelo://app?vid=36fd7042-62d9-493c-8a59-a394652c22d0"},"vehicle_type_id":"4","last_reported":1746983261,"current_range_meters":20800,"station_id":"ce4bhlh2rcd13ifvqgig","pricing_plan_id":"cebpf4jnsgd1na2vs0mg"},{"bike_id":"8acb5c33-715c-472b-b181-6250c36ed015","system_id":"levelo_inurba_marseille","lat":43.301472,"lon":5.380864,"is_reserved":false,"is_disabled":true,"rental_uris":{"android":"levelo://app?vid=8acb5c33-715c-472b-b181-6250c36ed015","ios":"levelo://app?vid=8acb5c33-715c-472b-b181-6250c36ed015"},"vehicle_type_id":"4","last_reported":1746983261,"current_range_meters":21600,"station_id":"","pricing_plan_id":"cebpf4jnsgd1na2vs0mg"},{"bike_id":"13ce935d-8255-4553-9d30-d54de89b9ace","system_id":"levelo_inurba_marseille","lat":43.319,"lon":5.40733,"is_reserved":false,"is_disabled":false,"rental_uris":{"android":"levelo://app?vid=13ce935d-8255-4553-9d30-d54de89b9ace","ios":"levelo://app?vid=13ce935d-8255-4553-9d30-d54de89b9ace"},"vehicle_type_id":"4","last_reported":1746983261,"current_range_meters":21600,"station_id":"ce4bhq12rcd13ifvqhig","pricing_plan_id":"cebpf4jnsgd1na2vs0mg"},{"bike_id":"ef2e7771-6578-41eb-b80a-363358760f61","system_id":"levelo_inurba_marseille","lat":43.27383,"lon":5.36207,"is_reserved":false,"is_disabled":false,"rental_uris":{"android":"levelo://app?vid=ef2e7771-6578-41eb-b80a-363358760f61","ios":"levelo://app?vid=ef2e7771-6578-41eb-b80a-363358760f61"},"vehicle_type_id":"4","last_reported":1746983261,"current_range_meters":18000,"station_id":"ce4bhbh2rcd13ifvqeo0","pricing_plan_id":"cebpf4jnsgd1na2vs0mg"},{"bike_id":"5cba5c7e-37f0-4d8c-935b-181f9c486821","system_id":"levelo_inurba_marseille","lat":43.26197,"lon":5.37934,"is_reserved":false,"is_disabled":false,"rental_uris":{"android":"levelo://app?vid=5cba5c7e-37f0-4d8c-935b-181f9c486821","ios":"levelo://app?vid=5cba5c7e-37f0-4d8c-935b-181f9c486821"},"vehicle_type_id":"4","last_reported":1746983261,"current_range_meters":21600,"station_id":"ce4bhjp2rcd13ifvqg90","pricing_plan_id":"cebpf4jnsgd1na2vs0mg"},{"bike_id":"d0d77266-b030-48e7-bb4a-e4747b4776ec","system_id":"levelo_inurba_marseille","lat":43.30135,"lon":5.39894,"is_reserved":false,"is_disabled":true,"rental_uris":{"android":"levelo://app?vid=d0d77266-b030-48e7-bb4a-e4747b4776ec","ios":"levelo://app?vid=d0d77266-b030-48e7-bb4a-e4747b4776ec"},"vehicle_type_id":"4","last_reported":1746983261,"current_range_meters":21600,"station_id":"ce4bh0h2rcd13ifvqd40","pricing_plan_id":"cebpf4jnsgd1na2vs0mg"},{"bike_id":"274428a0-f624-470d-97ad-4d677cbd848f","system_id":"levelo_inurba_marseille","lat":43.2707,"lon":5.42279,"is_reserved":false,"is_disabled":false,"rental_uris":{"android":"levelo://app?vid=274428a0-f624-470d-97ad-4d677cbd848f","ios":"levelo://app?vid=274428a0-f624-470d-97ad-4d677cbd848f"},"vehicle_type_id":"4","last_reported":1746983261,"current_range_meters":22000,"station_id":"ce4bhk92rcd13ifvqgb0","pricing_plan_id":"cebpf4jnsgd1na2vs0mg"},{"bike_id":"c968f716-720c-42e4-8720-a3b3511e87bb","system_id":"levelo_inurba_marseille","lat":43.28612,"lon":5.35105,"is_reserved":false,"is_disabled":false,"rental_uris":{"android":"levelo://app?vid=c968f716-720c-42e4-8720-a3b3511e87bb","ios":"levelo://app?vid=c968f716-720c-42e4-8720-a3b3511e87bb"},"vehicle_type_id":"4","last_reported":1746983261,"current_range_meters":22000,"station_id":"ce4bhch2rcd13ifvqeug","pricing_plan_id":"cebpf4jnsgd1na2vs0mg"},{"bike_id":"951528b9-5ab9-40c7-8853-fc470b9c1929","system_id":"levelo_inurba_marseille","lat":43.29524,"lon":5.38547,"is_reserved":false,"is_disabled":false,"rental_uris":{"android":"levelo://app?vid=951528b9-5ab9-40c7-8853-fc470b9c1929","ios":"levelo://app?vid=951528b9-5ab9-40c7-8853-fc470b9c1929"},"vehicle_type_id":"4","last_reported":1746983261,"current_range_meters":22000,"station_id":"ce4bgih2rcd13ifvqba0","pricing_plan_id":"cebpf4jnsgd1na2vs0mg"},{"bike_id":"85ecdd38-28a1-44a8-b660-7a0dcc59e9a3","system_id":"levelo_inurba_marseille","lat":43.30949,"lon":5.39028,"is_reserved":false,"is_disabled":false,"rental_uris":{"android":"levelo://app?vid=85ecdd38-28a1-44a8-b660-7a0dcc59e9a3","ios":"levelo://app?vid=85ecdd38-28a1-44a8-b660-7a0dcc59e9a3"},"vehicle_type_id":"4","last_reported":1746983261,"current_range_meters":22400,"station_id":"ce4bgup2rcd13ifvqco0","pricing_plan_id":"cebpf4jnsgd1na2vs0mg"},{"bike_id":"11a86d80-c603-4f7d-a36f-c9b19037a110","system_id":"levelo_inurba_marseille","lat":43.29801,"lon":5.40396,"is_reserved":false,"is_disabled":false,"rental_uris":{"android":"levelo://app?vid=11a86d80-c603-4f7d-a36f-c9b19037a110","ios":"levelo://app?vid=11a86d80-c603-4f7d-a36f-c9b19037a110"},"vehicle_type_id":"4","last_reported":1746983261,"current_range_meters":22400,"station_id":"ce4bh112rcd13ifvqd90","pricing_plan_id":"cebpf4jnsgd1na2vs0mg"},{"bike_id":"9be10adb-54cc-46f9-8783-6b21c7434018","system_id":"levelo_inurba_marseille","lat":43.292957,"lon":5.376377,"is_reserved":false,"is_disabled":false,"rental_uris":{"android":"levelo://app?vid=9be10adb-54cc-46f9-8783-6b21c7434018","ios":"levelo://app?vid=9be10adb-54cc-46f9-8783-6b21c7434018"},"vehicle_type_id":"4","last_reported":1746983261,"current_range_meters":22800,"station_id":"ce4bgi12rcd13ifvqb80","pricing_plan_id":"cebpf4jnsgd1na2vs0mg"},{"bike_id":"bbca6c79-9913-4829-a43a-3fa4df15637a","system_id":"levelo_inurba_marseille","lat":43.30138,"lon":5.39867,"is_reserved":false,"is_disabled":false,"rental_uris":{"android":"levelo://app?vid=bbca6c79-9913-4829-a43a-3fa4df15637a","ios":"levelo://app?vid=bbca6c79-9913-4829-a43a-3fa4df15637a"},"vehicle_type_id":"4","last_reported":1746983261,"current_range_meters":22800,"station_id":"ce4bh0h2rcd13ifvqd40","pricing_plan_id":"cebpf4jnsgd1na2vs0mg"},{"bike_id":"c65512c4-82c1-47c2-bf84-cd1ad20db18e","system_id":"levelo_inurba_marseille","lat":43.32493,"lon":5.36561,"is_reserved":false,"is_disabled":false,"rental_uris":{"android":"levelo://app?vid=c65512c4-82c1-47c2-bf84-cd1ad20db18e","ios":"levelo://app?vid=c65512c4-82c1-47c2-bf84-cd1ad20db18e"},"vehicle_type_id":"4","last_reported":1746983261,"current_range_meters":22800,"station_id":"ce4bhs12rcd13ifvqhvg","pricing_plan_id":"cebpf4jnsgd1na2vs0mg"},{"bike_id":"c6920a06-dbb3-45f5-9591-4885f6aff83a","system_id":"levelo_inurba_marseille","lat":43.29221,"lon":5.36058,"is_reserved":false,"is_disabled":false,"rental_uris":{"android":"levelo://app?vid=c6920a06-dbb3-45f5-9591-4885f6aff83a","ios":"levelo://app?vid=c6920a06-dbb3-45f5-9591-4885f6aff83a"},"vehicle_type_id":"4","last_reported":1746983261,"current_range_meters":23200,"station_id":"ce4bhbh2rcd13ifvqeqg","pricing_plan_id":"cebpf4jnsgd1na2vs0mg"},{"bike_id":"a546a166-3357-42b2-be14-012e05b92d7d","system_id":"levelo_inurba_marseille","lat":43.3261,"lon":5.43076,"is_reserved":false,"is_disabled":false,"rental_uris":{"android":"levelo://app?vid=a546a166-3357-42b2-be14-012e05b92d7d","ios":"levelo://app?vid=a546a166-3357-42b2-be14-012e05b92d7d"},"vehicle_type_id":"4","last_reported":1746983261,"current_range_meters":23200,"station_id":"","pricing_plan_id":"cebpf4jnsgd1na2vs0mg"},{"bike_id":"f1342c4c-a94b-4654-9628-680ba7db74df","system_id":"levelo_inurba_marseille","lat":43.231849,"lon":5.355809,"is_reserved":false,"is_disabled":true,"rental_uris":{"android":"levelo://app?vid=f1342c4c-a94b-4654-9628-680ba7db74df","ios":"levelo://app?vid=f1342c4c-a94b-4654-9628-680ba7db74df"},"vehicle_type_id":"4","last_reported":1746983261,"current_range_meters":23200,"station_id":"ce4bhu92rcd13ifvqi70","pricing_plan_id":"cebpf4jnsgd1na2vs0mg"},{"bike_id":"c3be660d-2cb7-40fe-9720-a26f0f505d2f","system_id":"levelo_inurba_marseille","lat":43.2318,"lon":5.39991,"is_reserved":false,"is_disabled":false,"rental_uris":{"android":"levelo://app?vid=c3be660d-2cb7-40fe-9720-a26f0f505d2f","ios":"levelo://app?vid=c3be660d-2cb7-40fe-9720-a26f0f505d2f"},"vehicle_type_id":"4","last_reported":1746983261,"current_range_meters":23200,"station_id":"ce4bhn12rcd13ifvqgqg","pricing_plan_id":"cebpf4jnsgd1na2vs0mg"},{"bike_id":"c84cc980-38fe-4761-924e-99f94b7ce9c7","system_id":"levelo_inurba_marseille","lat":43.337444,"lon":5.374475,"is_reserved":false,"is_disabled":true,"rental_uris":{"android":"levelo://app?vid=c84cc980-38fe-4761-924e-99f94b7ce9c7","ios":"levelo://app?vid=c84cc980-38fe-4761-924e-99f94b7ce9c7"},"vehicle_type_id":"4","last_reported":1746983261,"current_range_meters":23200,"station_id":"","pricing_plan_id":"cebpf4jnsgd1na2vs0mg"},{"bike_id":"4cb2e7dc-b71a-4068-ab9f-fb6c725d446d","system_id":"levelo_inurba_marseille","lat":43.28411,"lon":5.34994,"is_reserved":false,"is_disabled":false,"rental_uris":{"android":"levelo://app?vid=4cb2e7dc-b71a-4068-ab9f-fb6c725d446d","ios":"levelo://app?vid=4cb2e7dc-b71a-4068-ab9f-fb6c725d446d"},"vehicle_type_id":"4","last_reported":1746983261,"current_range_meters":23200,"station_id":"ce4bhbh2rcd13ifvqepg","pricing_plan_id":"cebpf4jnsgd1na2vs0mg"},{"bike_id":"aa99f814-331a-4e00-8475-adbfe9967dde","system_id":"levelo_inurba_marseille","lat":43.29365,"lon":5.37848,"is_reserved":false,"is_disabled":false,"rental_uris":{"android":"levelo://app?vid=aa99f814-331a-4e00-8475-adbfe9967dde","ios":"levelo://app?vid=aa99f814-331a-4e00-8475-adbfe9967dde"},"vehicle_type_id":"4","last_reported":1746983261,"current_range_meters":23200,"station_id":"ce4bgjh2rcd13ifvqbf0","pricing_plan_id":"cebpf4jnsgd1na2vs0mg"},{"bike_id":"6938ade0-f533-462c-80f9-a603d2cb0789","system_id":"levelo_inurba_marseille","lat":43.24069,"lon":5.37765,"is_reserved":false,"is_disabled":false,"rental_uris":{"android":"levelo://app?vid=6938ade0-f533-462c-80f9-a603d2cb0789","ios":"levelo://app?vid=6938ade0-f533-462c-80f9-a603d2cb0789"},"vehicle_type_id":"4","last_reported":1746983261,"current_range_meters":23200,"station_id":"ce4bhnp2rcd13ifvqgvg","pricing_plan_id":"cebpf4jnsgd1na2vs0mg"},{"bike_id":"7f9abf71-8019-498c-8243-8b5ce9ff851e","system_id":"levelo_inurba_marseille","lat":43.298539,"lon":5.362953,"is_reserved":false,"is_disabled":true,"rental_uris":{"android":"levelo://app?vid=7f9abf71-8019-498c-8243-8b5ce9ff851e","ios":"levelo://app?vid=7f9abf71-8019-498c-8243-8b5ce9ff851e"},"vehicle_type_id":"4","last_reported":1746983261,"current_range_meters":23200,"station_id":"","pricing_plan_id":"cebpf4jnsgd1na2vs0mg"},{"bike_id":"da33f86b-0df7-4aea-9a6d-75a51b552554","system_id":"levelo_inurba_marseille","lat":43.2841,"lon":5.34979,"is_reserved":false,"is_disabled":false,"rental_uris":{"android":"levelo://app?vid=da33f86b-0df7-4aea-9a6d-75a51b552554","ios":"levelo://app?vid=da33f86b-0df7-4aea-9a6d-75a51b552554"},"vehicle_type_id":"4","last_reported":1746983261,"current_range_meters":23200,"station_id":"ce4bhbh2rcd13ifvqepg","pricing_plan_id":"cebpf4jnsgd1na2vs0mg"},{"bike_id":"dc36bbfe-8e76-4945-beda-d5efba2e5117","system_id":"levelo_inurba_marseille","lat":43.26211,"lon":5.37441,"is_reserved":false,"is_disabled":true,"rental_uris":{"android":"levelo://app?vid=dc36bbfe-8e76-4945-beda-d5efba2e5117","ios":"levelo://app?vid=dc36bbfe-8e76-4945-beda-d5efba2e5117"},"vehicle_type_id":"4","last_reported":1746983261,"current_range_meters":24000,"station_id":"ce4bhgp2rcd13ifvqfc0","pricing_plan_id":"cebpf4jnsgd1na2vs0mg"},{"bike_id":"af870e04-8d0c-4a00-a73d-c5c448081eaf","system_id":"levelo_inurba_marseille","lat":43.2902,"lon":5.38645,"is_reserved":false,"is_disabled":true,"rental_uris":{"android":"levelo://app?vid=af870e04-8d0c-4a00-a73d-c5c448081eaf","ios":"levelo://app?vid=af870e04-8d0c-4a00-a73d-c5c448081eaf"},"vehicle_type_id":"4","last_reported":1746983261,"current_range_meters":24000,"station_id":"ce4bh4p2rcd13ifvqe0g","pricing_plan_id":"cebpf4jnsgd1na2vs0mg"},{"bike_id":"baae78c2-2fb0-4893-9442-90e6bb25df3b","system_id":"levelo_inurba_marseille","lat":43.26488,"lon":5.39543,"is_reserved":false,"is_disabled":false,"rental_uris":{"android":"levelo://app?vid=baae78c2-2fb0-4893-9442-90e6bb25df3b","ios":"levelo://app?vid=baae78c2-2fb0-4893-9442-90e6bb25df3b"},"vehicle_type_id":"4","last_reported":1746983261,"current_range_meters":24000,"station_id":"ce4bhi12rcd13ifvqfq0","pricing_plan_id":"cebpf4jnsgd1na2vs0mg"},{"bike_id":"2cc6ab33-b884-4b84-8f2e-73a9d9cc1642","system_id":"levelo_inurba_marseille","lat":43.28863,"lon":5.39318,"is_reserved":false,"is_disabled":true,"rental_uris":{"android":"levelo://app?vid=2cc6ab33-b884-4b84-8f2e-73a9d9cc1642","ios":"levelo://app?vid=2cc6ab33-b884-4b84-8f2e-73a9d9cc1642"},"vehicle_type_id":"4","last_reported":1746983261,"current_range_meters":24000,"station_id":"ce4bh2p2rcd13ifvqdi0","pricing_plan_id":"cebpf4jnsgd1na2vs0mg"},{"bike_id":"6916840e-4cbe-43f5-806a-e3c640a9e9ba","system_id":"levelo_inurba_marseille","lat":43.284276,"lon":5.34975,"is_reserved":false,"is_disabled":false,"rental_uris":{"android":"levelo://app?vid=6916840e-4cbe-43f5-806a-e3c640a9e9ba","ios":"levelo://app?vid=6916840e-4cbe-43f5-806a-e3c640a9e9ba"},"vehicle_type_id":"4","last_reported":1746983261,"current_range_meters":24000,"station_id":"ce4bhbh2rcd13ifvqepg","pricing_plan_id":"cebpf4jnsgd1na2vs0mg"},{"bike_id":"cc25aae6-3197-44f8-8471-8a0efb35cc4f","system_id":"levelo_inurba_marseille","lat":43.30614,"lon":5.36642,"is_reserved":false,"is_disabled":true,"rental_uris":{"android":"levelo://app?vid=cc25aae6-3197-44f8-8471-8a0efb35cc4f","ios":"levelo://app?vid=cc25aae6-3197-44f8-8471-8a0efb35cc4f"},"vehicle_type_id":"4","last_reported":1746983261,"current_range_meters":24000,"station_id":"","pricing_plan_id":"cebpf4jnsgd1na2vs0mg"},{"bike_id":"0a3e9417-6643-4978-9498-8312436bc84a","system_id":"levelo_inurba_marseille","lat":43.27611,"lon":5.36125,"is_reserved":false,"is_disabled":true,"rental_uris":{"android":"levelo://app?vid=0a3e9417-6643-4978-9498-8312436bc84a","ios":"levelo://app?vid=0a3e9417-6643-4978-9498-8312436bc84a"},"vehicle_type_id":"4","last_reported":1746983261,"current_range_meters":24000,"station_id":"ce4bgj92rcd13ifvqbe0","pricing_plan_id":"cebpf4jnsgd1na2vs0mg"},{"bike_id":"d3cbc46f-5375-4d60-978c-d259ee44514f","system_id":"levelo_inurba_marseille","lat":43.29308,"lon":5.37467,"is_reserved":false,"is_disabled":true,"rental_uris":{"android":"levelo://app?vid=d3cbc46f-5375-4d60-978c-d259ee44514f","ios":"levelo://app?vid=d3cbc46f-5375-4d60-978c-d259ee44514f"},"vehicle_type_id":"4","last_reported":1746983261,"current_range_meters":24400,"station_id":"","pricing_plan_id":"cebpf4jnsgd1na2vs0mg"},{"bike_id":"1ab888ae-16e9-4495-98da-cb7f2de372e5","system_id":"levelo_inurba_marseille","lat":43.290082,"lon":5.356128,"is_reserved":false,"is_disabled":false,"rental_uris":{"android":"levelo://app?vid=1ab888ae-16e9-4495-98da-cb7f2de372e5","ios":"levelo://app?vid=1ab888ae-16e9-4495-98da-cb7f2de372e5"},"vehicle_type_id":"4","last_reported":1746983261,"current_range_meters":24400,"station_id":"ce4bhb92rcd13ifvqen0","pricing_plan_id":"cebpf4jnsgd1na2vs0mg"},{"bike_id":"dc53d17a-6042-4f83-8552-4e608df3f076","system_id":"levelo_inurba_marseille","lat":43.25521,"lon":5.40092,"is_reserved":false,"is_disabled":false,"rental_uris":{"android":"levelo://app?vid=dc53d17a-6042-4f83-8552-4e608df3f076","ios":"levelo://app?vid=dc53d17a-6042-4f83-8552-4e608df3f076"},"vehicle_type_id":"4","last_reported":1746983261,"current_range_meters":24400,"station_id":"","pricing_plan_id":"cebpf4jnsgd1na2vs0mg"},{"bike_id":"fcf9463b-401b-4157-a5a9-4c36ca7d015d","system_id":"levelo_inurba_marseille","lat":43.30697,"lon":5.37053,"is_reserved":false,"is_disabled":false,"rental_uris":{"android":"levelo://app?vid=fcf9463b-401b-4157-a5a9-4c36ca7d015d","ios":"levelo://app?vid=fcf9463b-401b-4157-a5a9-4c36ca7d015d"},"vehicle_type_id":"4","last_reported":1746983261,"current_range_meters":24400,"station_id":"","pricing_plan_id":"cebpf4jnsgd1na2vs0mg"},{"bike_id":"1855ea00-c88f-4321-9481-9f466b5c3499","system_id":"levelo_inurba_marseille","lat":43.30539,"lon":5.3672,"is_reserved":false,"is_disabled":false,"rental_uris":{"android":"levelo://app?vid=1855ea00-c88f-4321-9481-9f466b5c3499","ios":"levelo://app?vid=1855ea00-c88f-4321-9481-9f466b5c3499"},"vehicle_type_id":"4","last_reported":1746983261,"current_range_meters":24400,"station_id":"ce4bgrp2rcd13ifvqc9g","pricing_plan_id":"cebpf4jnsgd1na2vs0mg"},{"bike_id":"1744f18d-8725-4f22-9ac8-cd451f7b9771","system_id":"levelo_inurba_marseille","lat":43.32339,"lon":5.40618,"is_reserved":false,"is_disabled":false,"rental_uris":{"android":"levelo://app?vid=1744f18d-8725-4f22-9ac8-cd451f7b9771","ios":"levelo://app?vid=1744f18d-8725-4f22-9ac8-cd451f7b9771"},"vehicle_type_id":"4","last_reported":1746983261,"current_range_meters":24400,"station_id":"ce4bhq92rcd13ifvqhjg","pricing_plan_id":"cebpf4jnsgd1na2vs0mg"},{"bike_id":"6deb05f9-7371-4827-b16a-15e0c7a1439a","system_id":"levelo_inurba_marseille","lat":43.28273,"lon":5.35077,"is_reserved":false,"is_disabled":false,"rental_uris":{"android":"levelo://app?vid=6deb05f9-7371-4827-b16a-15e0c7a1439a","ios":"levelo://app?vid=6deb05f9-7371-4827-b16a-15e0c7a1439a"},"vehicle_type_id":"4","last_reported":1746983261,"current_range_meters":24400,"station_id":"ce4bhbp2rcd13ifvqerg","pricing_plan_id":"cebpf4jnsgd1na2vs0mg"},{"bike_id":"ac754be4-9e6a-4394-8db1-1077f1394b37","system_id":"levelo_inurba_marseille","lat":43.30476,"lon":5.37235,"is_reserved":false,"is_disabled":false,"rental_uris":{"android":"levelo://app?vid=ac754be4-9e6a-4394-8db1-1077f1394b37","ios":"levelo://app?vid=ac754be4-9e6a-4394-8db1-1077f1394b37"},"vehicle_type_id":"4","last_reported":1746983261,"current_range_meters":24400,"station_id":"","pricing_plan_id":"cebpf4jnsgd1na2vs0mg"},{"bike_id":"4ebadb31-ad81-4ecf-8f75-4ac3758a4d3d","system_id":"levelo_inurba_marseille","lat":43.24073,"lon":5.37759,"is_reserved":false,"is_disabled":false,"rental_uris":{"android":"levelo://app?vid=4ebadb31-ad81-4ecf-8f75-4ac3758a4d3d","ios":"levelo://app?vid=4ebadb31-ad81-4ecf-8f75-4ac3758a4d3d"},"vehicle_type_id":"4","last_reported":1746983261,"current_range_meters":24800,"station_id":"ce4bhnp2rcd13ifvqgvg","pricing_plan_id":"cebpf4jnsgd1na2vs0mg"},{"bike_id":"e140141b-4b6e-4f40-928c-78a9d0cedfc5","system_id":"levelo_inurba_marseille","lat":43.217823,"lon":5.346024,"is_reserved":false,"is_disabled":false,"rental_uris":{"android":"levelo://app?vid=e140141b-4b6e-4f40-928c-78a9d0cedfc5","ios":"levelo://app?vid=e140141b-4b6e-4f40-928c-78a9d0cedfc5"},"vehicle_type_id":"4","last_reported":1746983261,"current_range_meters":24800,"station_id":"st_cvj6r9ubvosntc0bgbag","pricing_plan_id":"cebpf4jnsgd1na2vs0mg"},{"bike_id":"7fb05339-d0c8-493f-a5c4-7466e3f23c36","system_id":"levelo_inurba_marseille","lat":43.287119,"lon":5.37382,"is_reserved":false,"is_disabled":false,"rental_uris":{"android":"levelo://app?vid=7fb05339-d0c8-493f-a5c4-7466e3f23c36","ios":"levelo://app?vid=7fb05339-d0c8-493f-a5c4-7466e3f23c36"},"vehicle_type_id":"4","last_reported":1746983261,"current_range_meters":24800,"station_id":"ce4bh3p2rcd13ifvqdq0","pricing_plan_id":"cebpf4jnsgd1na2vs0mg"},{"bike_id":"824a0937-a979-451d-93ff-ae5c01e0c68d","system_id":"levelo_inurba_marseille","lat":43.28275,"lon":5.35083,"is_reserved":false,"is_disabled":false,"rental_uris":{"android":"levelo://app?vid=824a0937-a979-451d-93ff-ae5c01e0c68d","ios":"levelo://app?vid=824a0937-a979-451d-93ff-ae5c01e0c68d"},"vehicle_type_id":"4","last_reported":1746983261,"current_range_meters":24800,"station_id":"ce4bhbp2rcd13ifvqerg","pricing_plan_id":"cebpf4jnsgd1na2vs0mg"},{"bike_id":"025b2018-5ff3-4c4c-9661-1931d34e9be8","system_id":"levelo_inurba_marseille","lat":43.23573,"lon":5.36108,"is_reserved":false,"is_disabled":true,"rental_uris":{"android":"levelo://app?vid=025b2018-5ff3-4c4c-9661-1931d34e9be8","ios":"levelo://app?vid=025b2018-5ff3-4c4c-9661-1931d34e9be8"},"vehicle_type_id":"4","last_reported":1746983261,"current_range_meters":24800,"station_id":"","pricing_plan_id":"cebpf4jnsgd1na2vs0mg"},{"bike_id":"8df756a4-4b96-4a93-bf32-996b8106b65f","system_id":"levelo_inurba_marseille","lat":43.30552,"lon":5.36536,"is_reserved":false,"is_disabled":true,"rental_uris":{"android":"levelo://app?vid=8df756a4-4b96-4a93-bf32-996b8106b65f","ios":"levelo://app?vid=8df756a4-4b96-4a93-bf32-996b8106b65f"},"vehicle_type_id":"4","last_reported":1746983261,"current_range_meters":24800,"station_id":"ce4bgs12rcd13ifvqcag","pricing_plan_id":"cebpf4jnsgd1na2vs0mg"},{"bike_id":"1aeff0df-0e55-45ad-ba82-77e85ed583ca","system_id":"levelo_inurba_marseille","lat":43.32482,"lon":5.36564,"is_reserved":false,"is_disabled":false,"rental_uris":{"android":"levelo://app?vid=1aeff0df-0e55-45ad-ba82-77e85ed583ca","ios":"levelo://app?vid=1aeff0df-0e55-45ad-ba82-77e85ed583ca"},"vehicle_type_id":"4","last_reported":1746983261,"current_range_meters":25200,"station_id":"ce4bhs12rcd13ifvqhvg","pricing_plan_id":"cebpf4jnsgd1na2vs0mg"},{"bike_id":"f55e00c8-45ac-4814-885b-23e51d8217eb","system_id":"levelo_inurba_marseille","lat":43.290065,"lon":5.356197,"is_reserved":false,"is_disabled":false,"rental_uris":{"android":"levelo://app?vid=f55e00c8-45ac-4814-885b-23e51d8217eb","ios":"levelo://app?vid=f55e00c8-45ac-4814-885b-23e51d8217eb"},"vehicle_type_id":"4","last_reported":1746983261,"current_range_meters":25200,"station_id":"ce4bhb92rcd13ifvqen0","pricing_plan_id":"cebpf4jnsgd1na2vs0mg"},{"bike_id":"e890eed8-9796-4f8b-98ab-200c3b7bdeb4","system_id":"levelo_inurba_marseille","lat":43.25492,"lon":5.37649,"is_reserved":false,"is_disabled":false,"rental_uris":{"android":"levelo://app?vid=e890eed8-9796-4f8b-98ab-200c3b7bdeb4","ios":"levelo://app?vid=e890eed8-9796-4f8b-98ab-200c3b7bdeb4"},"vehicle_type_id":"4","last_reported":1746983261,"current_range_meters":24800,"station_id":"ce4bhh12rcd13ifvqff0","pricing_plan_id":"cebpf4jnsgd1na2vs0mg"},{"bike_id":"a2bed9dc-6cc1-428d-9c5a-0c464d9f7c5c","system_id":"levelo_inurba_marseille","lat":43.3309,"lon":5.3814,"is_reserved":false,"is_disabled":false,"rental_uris":{"android":"levelo://app?vid=a2bed9dc-6cc1-428d-9c5a-0c464d9f7c5c","ios":"levelo://app?vid=a2bed9dc-6cc1-428d-9c5a-0c464d9f7c5c"},"vehicle_type_id":"4","last_reported":1746983261,"current_range_meters":25600,"station_id":"","pricing_plan_id":"cebpf4jnsgd1na2vs0mg"},{"bike_id":"eb2c321a-5bfd-4d10-8326-4bb9500e415d","system_id":"levelo_inurba_marseille","lat":43.311785,"lon":5.368301,"is_reserved":false,"is_disabled":false,"rental_uris":{"android":"levelo://app?vid=eb2c321a-5bfd-4d10-8326-4bb9500e415d","ios":"levelo://app?vid=eb2c321a-5bfd-4d10-8326-4bb9500e415d"},"vehicle_type_id":"4","last_reported":1746983261,"current_range_meters":25600,"station_id":"","pricing_plan_id":"cebpf4jnsgd1na2vs0mg"},{"bike_id":"0f427eae-fabb-4fe3-a4ec-ff19956a0234","system_id":"levelo_inurba_marseille","lat":43.33389,"lon":5.3965,"is_reserved":false,"is_disabled":false,"rental_uris":{"android":"levelo://app?vid=0f427eae-fabb-4fe3-a4ec-ff19956a0234","ios":"levelo://app?vid=0f427eae-fabb-4fe3-a4ec-ff19956a0234"},"vehicle_type_id":"4","last_reported":1746983261,"current_range_meters":25600,"station_id":"","pricing_plan_id":"cebpf4jnsgd1na2vs0mg"},