{"last_updated":1728414371,"ttl":60,"version":"2.2","data":{"bikes":[{"bike_id":"0fe650f5-8c32-4c9f-956c-97c145e2339f","system_id":"levelo_inurba_marseille","lat":43.25867,"lon":5.39896,"is_reserved":false,"is_disabled":false,"rental_uris":{"android":"levelo://app?vid=0fe650f5-8c32-4c9f-956c-97c145e2339f","ios":"levelo://app?vid=0fe650f5-8c32-4c9f-956c-97c145e2339f"},"vehicle_type_id":"4","last_reported":1728414371,"current_range_meters":37600,"station_id":"ce4bhl92rcd13ifvqghg","pricing_plan_id":"cebpf4jnsgd1na2vs0mg"},{"bike_id":"a35661b2-b710-4aed-96d4-0351ce96658b","system_id":"levelo_inurba_marseille","lat":43.27616,"lon":5.36115,"is_reserved":false,"is_disabled":false,"rental_uris":{"android":"levelo://app?vid=a35661b2-b710-4aed-96d4-0351ce96658b","ios":"levelo://app?vid=a35661b2-b710-4aed-96d4-0351ce96658b"},"vehicle_type_id":"4","last_reported":1728414371,"current_range_meters":32000,"station_id":"ce4bgj92rcd13ifvqbe0","pricing_plan_id":"cebpf4jnsgd1na2vs0mg"},{"bike_id":"6275e111-6e30-4706-a830-24e11ad0074a","system_id":"levelo_inurba_marseille","lat":43.28612,"lon":5.37066,"is_reserved":false,"is_disabled":false,"rental_uris":{"android":"levelo://app?vid=6275e111-6e30-4706-a830-24e11ad0074a","ios":"levelo://app?vid=6275e111-6e30-4706-a830-24e11ad0074a"},"vehicle_type_id":"4","last_reported":1728414371,"current_range_meters":38400,"station_id":"ce4bht12rcd13ifvqi60","pricing_plan_id":"cebpf4jnsgd1na2vs0mg"},{"bike_id":"75f11660-7622-4c47-b2e5-57a2baeae5dd","system_id":"levelo_inurba_marseille","lat":43.27366,"lon":5.36258,"is_reserved":false,"is_disabled":false,"rental_uris":{"android":"levelo://app?vid=75f11660-7622-4c47-b2e5-57a2baeae5dd","ios":"levelo://app?vid=75f11660-7622-4c47-b2e5-57a2baeae5dd"},"vehicle_type_id":"4","last_reported":1728414371,"current_range_meters":36800,"station_id":"ce4bhbh2rcd13ifvqeo0","pricing_plan_id":"cebpf4jnsgd1na2vs0mg"},{"bike_id":"cd8f648d-3604-4910-8e4a-b926818f72e2","system_id":"levelo_inurba_marseille","lat":43.23065,"lon":5.35491,"is_reserved":false,"is_disabled":false,"rental_uris":{"android":"levelo://app?vid=cd8f648d-3604-4910-8e4a-b926818f72e2","ios":"levelo://app?vid=cd8f648d-3604-4910-8e4a-b926818f72e2"},"vehicle_type_id":"4","last_reported":1728414371,"current_range_meters":11600,"station_id":"cpo3342slgdg3j2ifvpg","pricing_plan_id":"cebpf4jnsgd1na2vs0mg"},{"bike_id":"05b41509-0303-470c-beef-09bf8a7494f1","system_id":"levelo_inurba_marseille","lat":43.2582,"lon":5.39441,"is_reserved":false,"is_disabled":false,"rental_uris":{"android":"levelo://app?vid=05b41509-0303-470c-beef-09bf8a7494f1","ios":"levelo://app?vid=05b41509-0303-470c-beef-09bf8a7494f1"},"vehicle_type_id":"4","last_reported":1728414371,"current_range_meters":28000,"station_id":"ce4bhip2rcd13ifvqft0","pricing_plan_id":"cebpf4jnsgd1na2vs0mg"},{"bike_id":"adf7750d-2d96-49bd-88db-eeb16e7ff5b1","system_id":"levelo_inurba_marseille","lat":43.3234,"lon":5.40623,"is_reserved":false,"is_disabled":false,"rental_uris":{"android":"levelo://app?vid=adf7750d-2d96-49bd-88db-eeb16e7ff5b1","ios":"levelo://app?vid=adf7750d-2d96-49bd-88db-eeb16e7ff5b1"},"vehicle_type_id":"4","last_reported":1728414371,"current_range_meters":2800,"station_id":"","pricing_plan_id":"cebpf4jnsgd1na2vs0mg"},{"bike_id":"008f17b6-d1a8-448d-9b06-91ad25a4b873","system_id":"levelo_inurba_marseille","lat":43.30928,"lon":5.40143,"is_reserved":false,"is_disabled":false,"rental_uris":{"android":"levelo://app?vid=008f17b6-d1a8-448d-9b06-91ad25a4b873","ios":"levelo://app?vid=008f17b6-d1a8-448d-9b06-91ad25a4b873"},"vehicle_type_id":"4","last_reported":1728414371,"current_range_meters":3200,"station_id":"ce4bgvp2rcd13ifvqct0","pricing_plan_id":"cebpf4jnsgd1na2vs0mg"},{"bike_id":"6a167eb3-18f5-4f57-b514-eb8148f7dcbe","system_id":"levelo_inurba_marseille","lat":43.303062,"lon":5.392149,"is_reserved":false,"is_disabled":false,"rental_uris":{"android":"levelo://app?vid=6a167eb3-18f5-4f57-b514-eb8148f7dcbe","ios":"levelo://app?vid=6a167eb3-18f5-4f57-b514-eb8148f7dcbe"},"vehicle_type_id":"4","last_reported":1728414371,"current_range_meters":9600,"station_id":"ce4bgkh2rcd13ifvqbk0","pricing_plan_id":"cebpf4jnsgd1na2vs0mg"},{"bike_id":"e8c5fdec-369f-43f3-9f8c-4694781a6735","system_id":"levelo_inurba_marseille","lat":43.28611,"lon":5.37065,"is_reserved":false,"is_disabled":false,"rental_uris":{"android":"levelo://app?vid=e8c5fdec-369f-43f3-9f8c-4694781a6735","ios":"levelo://app?vid=e8c5fdec-369f-43f3-9f8c-4694781a6735"},"vehicle_type_id":"4","last_reported":1728414371,"current_range_meters":9200,"station_id":"ce4bht12rcd13ifvqi60","pricing_plan_id":"cebpf4jnsgd1na2vs0mg"},{"bike_id":"2a462c9f-7c84-4d5b-afea-a4fbe34373fe","system_id":"levelo_inurba_marseille","lat":43.29547,"lon":5.42287,"is_reserved":false,"is_disabled":false,"rental_uris":{"android":"levelo://app?vid=2a462c9f-7c84-4d5b-afea-a4fbe34373fe","ios":"levelo://app?vid=2a462c9f-7c84-4d5b-afea-a4fbe34373fe"},"vehicle_type_id":"4","last_reported":1728414371,"current_range_meters":8400,"station_id":"ce4bhph2rcd13ifvqhdg","pricing_plan_id":"cebpf4jnsgd1na2vs0mg"},{"bike_id":"cf8f16fb-4580-41c1-9847-689c326f31cc","system_id":"levelo_inurba_marseille","lat":43.31172,"lon":5.38737,"is_reserved":false,"is_disabled":false,"rental_uris":{"android":"levelo://app?vid=cf8f16fb-4580-41c1-9847-689c326f31cc","ios":"levelo://app?vid=cf8f16fb-4580-41c1-9847-689c326f31cc"},"vehicle_type_id":"4","last_reported":1728414371,"current_range_meters":27200,"station_id":"ce4bgv12rcd13ifvqcp0","pricing_plan_id":"cebpf4jnsgd1na2vs0mg"},{"bike_id":"30677ec2-209d-4049-8aa1-16025f52c784","system_id":"levelo_inurba_marseille","lat":43.2815,"lon":5.42646,"is_reserved":false,"is_disabled":false,"rental_uris":{"android":"levelo://app?vid=30677ec2-209d-4049-8aa1-16025f52c784","ios":"levelo://app?vid=30677ec2-209d-4049-8aa1-16025f52c784"},"vehicle_type_id":"4","last_reported":1728414371,"current_range_meters":17600,"station_id":"ce4bhnh2rcd13ifvqgug","pricing_plan_id":"cebpf4jnsgd1na2vs0mg"},{"bike_id":"20db563e-4aee-4d17-a6c3-e405c3838ee2","system_id":"levelo_inurba_marseille","lat":43.27898,"lon":5.38002,"is_reserved":false,"is_disabled":false,"rental_uris":{"android":"levelo://app?vid=20db563e-4aee-4d17-a6c3-e405c3838ee2","ios":"levelo://app?vid=20db563e-4aee-4d17-a6c3-e405c3838ee2"},"vehicle_type_id":"4","last_reported":1728414371,"current_range_meters":16400,"station_id":"ce4bhf92rcd13ifvqf50","pricing_plan_id":"cebpf4jnsgd1na2vs0mg"},{"bike_id":"3835c92e-3bf9-4211-9e27-8bf627d200a6","system_id":"levelo_inurba_marseille","lat":43.30928,"lon":5.40144,"is_reserved":false,"is_disabled":false,"rental_uris":{"android":"levelo://app?vid=3835c92e-3bf9-4211-9e27-8bf627d200a6","ios":"levelo://app?vid=3835c92e-3bf9-4211-9e27-8bf627d200a6"},"vehicle_type_id":"4","last_reported":1728414371,"current_range_meters":28800,"station_id":"ce4bgvp2rcd13ifvqct0","pricing_plan_id":"cebpf4jnsgd1na2vs0mg"},{"bike_id":"2144f07d-f6df-4254-911c-b629e74209f9","system_id":"levelo_inurba_marseille","lat":43.23064,"lon":5.3549,"is_reserved":false,"is_disabled":false,"rental_uris":{"android":"levelo://app?vid=2144f07d-f6df-4254-911c-b629e74209f9","ios":"levelo://app?vid=2144f07d-f6df-4254-911c-b629e74209f9"},"vehicle_type_id":"4","last_reported":1728414371,"current_range_meters":6000,"station_id":"cpo3342slgdg3j2ifvpg","pricing_plan_id":"cebpf4jnsgd1na2vs0mg"},{"bike_id":"3b465c42-6aa4-4418-8849-2ece6689b117","system_id":"levelo_inurba_marseille","lat":43.31758,"lon":5.39008,"is_reserved":false,"is_disabled":false,"rental_uris":{"android":"levelo://app?vid=3b465c42-6aa4-4418-8849-2ece6689b117","ios":"levelo://app?vid=3b465c42-6aa4-4418-8849-2ece6689b117"},"vehicle_type_id":"4","last_reported":1728414371,"current_range_meters":38000,"station_id":"ce4bhqp2rcd13ifvqhng","pricing_plan_id":"cebpf4jnsgd1na2vs0mg"},{"bike_id":"1c5e9102-64cc-4162-ac44-ab9c67ef7cf6","system_id":"levelo_inurba_marseille","lat":43.3153,"lon":5.3803,"is_reserved":false,"is_disabled":false,"rental_uris":{"android":"levelo://app?vid=1c5e9102-64cc-4162-ac44-ab9c67ef7cf6","ios":"levelo://app?vid=1c5e9102-64cc-4162-ac44-ab9c67ef7cf6"},"vehicle_type_id":"4","last_reported":1728414371,"current_range_meters":38800,"station_id":"ce4bhsp2rcd13ifvqi50","pricing_plan_id":"cebpf4jnsgd1na2vs0mg"},{"bike_id":"728d6580-0a0d-4c50-a117-a8f67b546d67","system_id":"levelo_inurba_marseille","lat":43.2846,"lon":5.35887,"is_reserved":false,"is_disabled":false,"rental_uris":{"android":"levelo://app?vid=728d6580-0a0d-4c50-a117-a8f67b546d67","ios":"levelo://app?vid=728d6580-0a0d-4c50-a117-a8f67b546d67"},"vehicle_type_id":"4","last_reported":1728414371,"current_range_meters":36800,"station_id":"ce4bhah2rcd13ifvqei0","pricing_plan_id":"cebpf4jnsgd1na2vs0mg"},{"bike_id":"56409dcd-61df-4feb-aab8-5ad859c83e42","system_id":"levelo_inurba_marseille","lat":43.29605,"lon":5.38095,"is_reserved":false,"is_disabled":false,"rental_uris":{"android":"levelo://app?vid=56409dcd-61df-4feb-aab8-5ad859c83e42","ios":"levelo://app?vid=56409dcd-61df-4feb-aab8-5ad859c83e42"},"vehicle_type_id":"4","last_reported":1728414371,"current_range_meters":2800,"station_id":"ce4bgl12rcd13ifvqbo0","pricing_plan_id":"cebpf4jnsgd1na2vs0mg"},{"bike_id":"90b7b815-be07-4d3f-a351-671d7e515226","system_id":"levelo_inurba_marseille","lat":43.24645,"lon":5.38889,"is_reserved":false,"is_disabled":false,"rental_uris":{"android":"levelo://app?vid=90b7b815-be07-4d3f-a351-671d7e515226","ios":"levelo://app?vid=90b7b815-be07-4d3f-a351-671d7e515226"},"vehicle_type_id":"4","last_reported":1728414371,"current_range_meters":16800,"station_id":"ce4bhg12rcd13ifvqf60","pricing_plan_id":"cebpf4jnsgd1na2vs0mg"},{"bike_id":"826dd1af-4258-45c6-b681-6e32c6f22d67","system_id":"levelo_inurba_marseille","lat":43.30094,"lon":5.39083,"is_reserved":false,"is_disabled":false,"rental_uris":{"android":"levelo://app?vid=826dd1af-4258-45c6-b681-6e32c6f22d67","ios":"levelo://app?vid=826dd1af-4258-45c6-b681-6e32c6f22d67"},"vehicle_type_id":"4","last_reported":1728414371,"current_range_meters":39200,"station_id":"ce4bh192rcd13ifvqdb0","pricing_plan_id":"cebpf4jnsgd1na2vs0mg"},{"bike_id":"c1002d15-6c15-4e5d-83dc-d088992a69af","system_id":"levelo_inurba_marseille","lat":43.31169,"lon":5.3872,"is_reserved":false,"is_disabled":false,"rental_uris":{"android":"levelo://app?vid=c1002d15-6c15-4e5d-83dc-d088992a69af","ios":"levelo://app?vid=c1002d15-6c15-4e5d-83dc-d088992a69af"},"vehicle_type_id":"4","last_reported":1728414371,"current_range_meters":29600,"station_id":"ce4bgv12rcd13ifvqcp0","pricing_plan_id":"cebpf4jnsgd1na2vs0mg"},{"bike_id":"066ccb90-6b9a-4302-bde4-9c97dfce747d","system_id":"levelo_inurba_marseille","lat":43.33731,"lon":5.39188,"is_reserved":false,"is_disabled":false,"rental_uris":{"android":"levelo://app?vid=066ccb90-6b9a-4302-bde4-9c97dfce747d","ios":"levelo://app?vid=066ccb90-6b9a-4302-bde4-9c97dfce747d"},"vehicle_type_id":"4","last_reported":1728414371,"current_range_meters":36000,"station_id":"ce4bhr92rcd13ifvqhsg","pricing_plan_id":"cebpf4jnsgd1na2vs0mg"},{"bike_id":"78162ca2-a873-4095-b3f0-b96c3db339b0","system_id":"levelo_inurba_marseille","lat":43.284739,"lon":5.359085,"is_reserved":false,"is_disabled":false,"rental_uris":{"android":"levelo://app?vid=78162ca2-a873-4095-b3f0-b96c3db339b0","ios":"levelo://app?vid=78162ca2-a873-4095-b3f0-b96c3db339b0"},"vehicle_type_id":"4","last_reported":1728414371,"current_range_meters":5600,"station_id":"ce4bhah2rcd13ifvqei0","pricing_plan_id":"cebpf4jnsgd1na2vs0mg"},{"bike_id":"35db5aab-a536-4286-87d7-90ec43783f24","system_id":"levelo_inurba_marseille","lat":43.23193,"lon":5.35554,"is_reserved":false,"is_disabled":false,"rental_uris":{"android":"levelo://app?vid=35db5aab-a536-4286-87d7-90ec43783f24","ios":"levelo://app?vid=35db5aab-a536-4286-87d7-90ec43783f24"},"vehicle_type_id":"4","last_reported":1728414371,"current_range_meters":28400,"station_id":"ce4bhu92rcd13ifvqi70","pricing_plan_id":"cebpf4jnsgd1na2vs0mg"},{"bike_id":"38ddae5c-ea52-44f4-bf89-1782607dbc3e","system_id":"levelo_inurba_marseille","lat":43.29528,"lon":5.3855,"is_reserved":false,"is_disabled":false,"rental_uris":{"android":"levelo://app?vid=38ddae5c-ea52-44f4-bf89-1782607dbc3e","ios":"levelo://app?vid=38ddae5c-ea52-44f4-bf89-1782607dbc3e"},"vehicle_type_id":"4","last_reported":1728414371,"current_range_meters":4800,"station_id":"ce4bgih2rcd13ifvqba0","pricing_plan_id":"cebpf4jnsgd1na2vs0mg"},{"bike_id":"4907ceea-1fe4-40dd-b1b6-604d26b96f66","system_id":"levelo_inurba_marseille","lat":43.30891,"lon":5.36858,"is_reserved":false,"is_disabled":false,"rental_uris":{"android":"levelo://app?vid=4907ceea-1fe4-40dd-b1b6-604d26b96f66","ios":"levelo://app?vid=4907ceea-1fe4-40dd-b1b6-604d26b96f66"},"vehicle_type_id":"4","last_reported":1728414371,"current_range_meters":18800,"station_id":"ce4bgn92rcd13ifvqbvg","pricing_plan_id":"cebpf4jnsgd1na2vs0mg"},{"bike_id":"f8651fb9-6db1-42c3-b707-a0153b1d457b","system_id":"levelo_inurba_marseille","lat":43.23184,"lon":5.39984,"is_reserved":false,"is_disabled":false,"rental_uris":{"android":"levelo://app?vid=f8651fb9-6db1-42c3-b707-a0153b1d457b","ios":"levelo://app?vid=f8651fb9-6db1-42c3-b707-a0153b1d457b"},"vehicle_type_id":"4","last_reported":1728414371,"current_range_meters":7200,"station_id":"ce4bhn12rcd13ifvqgqg","pricing_plan_id":"cebpf4jnsgd1na2vs0mg"},{"bike_id":"d74661f0-830d-4988-b75c-49337b55f926","system_id":"levelo_inurba_marseille","lat":43.32153,"lon":5.38641,"is_reserved":false,"is_disabled":false,"rental_uris":{"android":"levelo://app?vid=d74661f0-830d-4988-b75c-49337b55f926","ios":"levelo://app?vid=d74661f0-830d-4988-b75c-49337b55f926"},"vehicle_type_id":"4","last_reported":1728414371,"current_range_meters":30800,"station_id":"","pricing_plan_id":"cebpf4jnsgd1na2vs0mg"},{"bike_id":"f2ca1e44-e304-48eb-ae87-fe965c250b6f","system_id":"levelo_inurba_marseille","lat":43.24672,"lon":5.38166,"is_reserved":false,"is_disabled":false,"rental_uris":{"android":"levelo://app?vid=f2ca1e44-e304-48eb-ae87-fe965c250b6f","ios":"levelo://app?vid=f2ca1e44-e304-48eb-ae87-fe965c250b6f"},"vehicle_type_id":"4","last_reported":1728414371,"current_range_meters":13600,"station_id":"ce4bhih2rcd13ifvqfr0","pricing_plan_id":"cebpf4jnsgd1na2vs0mg"},{"bike_id":"7f7c78be-6b53-4ad8-8c30-bbe39b9eb79b","system_id":"levelo_inurba_marseille","lat":43.25121,"lon":5.40317,"is_reserved":false,"is_disabled":false,"rental_uris":{"android":"levelo://app?vid=7f7c78be-6b53-4ad8-8c30-bbe39b9eb79b","ios":"levelo://app?vid=7f7c78be-6b53-4ad8-8c30-bbe39b9eb79b"},"vehicle_type_id":"4","last_reported":1728414371,"current_range_meters":3200,"station_id":"ce4bhlh2rcd13ifvqgig","pricing_plan_id":"cebpf4jnsgd1na2vs0mg"},{"bike_id":"67e35eee-5935-4304-a0ec-18495ce55588","system_id":"levelo_inurba_marseille","lat":43.29872,"lon":5.38905,"is_reserved":false,"is_disabled":false,"rental_uris":{"android":"levelo://app?vid=67e35eee-5935-4304-a0ec-18495ce55588","ios":"levelo://app?vid=67e35eee-5935-4304-a0ec-18495ce55588"},"vehicle_type_id":"4","last_reported":1728414371,"current_range_meters":38000,"station_id":"ce4bh392rcd13ifvqdl0","pricing_plan_id":"cebpf4jnsgd1na2vs0mg"},{"bike_id":"995578f9-3c6b-4d29-b275-7428d21add9a","system_id":"levelo_inurba_marseille","lat":43.27999,"lon":5.40003,"is_reserved":false,"is_disabled":false,"rental_uris":{"android":"levelo://app?vid=995578f9-3c6b-4d29-b275-7428d21add9a","ios":"levelo://app?vid=995578f9-3c6b-4d29-b275-7428d21add9a"},"vehicle_type_id":"4","last_reported":1728414371,"current_range_meters":32000,"station_id":"ce4bho92rcd13ifvqh4g","pricing_plan_id":"cebpf4jnsgd1na2vs0mg"},{"bike_id":"72f390d6-8036-4225-a9fd-bbdc6e34eeea","system_id":"levelo_inurba_marseille","lat":43.23186,"lon":5.39997,"is_reserved":false,"is_disabled":false,"rental_uris":{"android":"levelo://app?vid=72f390d6-8036-4225-a9fd-bbdc6e34eeea","ios":"levelo://app?vid=72f390d6-8036-4225-a9fd-bbdc6e34eeea"},"vehicle_type_id":"4","last_reported":1728414371,"current_range_meters":36400,"station_id":"ce4bhn12rcd13ifvqgqg","pricing_plan_id":"cebpf4jnsgd1na2vs0mg"},{"bike_id":"11cd30c8-d447-4a8a-ad0f-609e16e92e48","system_id":"levelo_inurba_marseille","lat":43.24802,"lon":5.37456,"is_reserved":false,"is_disabled":false,"rental_uris":{"android":"levelo://app?vid=11cd30c8-d447-4a8a-ad0f-609e16e92e48","ios":"levelo://app?vid=11cd30c8-d447-4a8a-ad0f-609e16e92e48"},"vehicle_type_id":"4","last_reported":1728414371,"current_range_meters":40000,"station_id":"ce4bhgh2rcd13ifvqfb0","pricing_plan_id":"cebpf4jnsgd1na2vs0mg"},{"bike_id":"2bb8ae6c-7b17-45f6-ae2f-a94631598955","system_id":"levelo_inurba_marseille","lat":43.22928,"lon":5.35377,"is_reserved":false,"is_disabled":false,"rental_uris":{"android":"levelo://app?vid=2bb8ae6c-7b17-45f6-ae2f-a94631598955","ios":"levelo://app?vid=2bb8ae6c-7b17-45f6-ae2f-a94631598955"},"vehicle_type_id":"4","last_reported":1728414371,"current_range_meters":19600,"station_id":"cpo3532slgdg3j2ikp40","pricing_plan_id":"cebpf4jnsgd1na2vs0mg"},{"bike_id":"1108f945-2562-4a37-b07f-6ae5d87c264e","system_id":"levelo_inurba_marseille","lat":43.337444,"lon":5.374475,"is_reserved":false,"is_disabled":false,"rental_uris":{"android":"levelo://app?vid=1108f945-2562-4a37-b07f-6ae5d87c264e","ios":"levelo://app?vid=1108f945-2562-4a37-b07f-6ae5d87c264e"},"vehicle_type_id":"4","last_reported":1728414371,"current_range_meters":36400,"station_id":"","pricing_plan_id":"cebpf4jnsgd1na2vs0mg"},{"bike_id":"c22fdad2-64a0-4224-b01d-89e6400775be","system_id":"levelo_inurba_marseille","lat":43.23964,"lon":5.36639,"is_reserved":false,"is_disabled":false,"rental_uris":{"android":"levelo://app?vid=c22fdad2-64a0-4224-b01d-89e6400775be","ios":"levelo://app?vid=c22fdad2-64a0-4224-b01d-89e6400775be"},"vehicle_type_id":"4","last_reported":1728414371,"current_range_meters":20400,"station_id":"ce4bhi12rcd13ifvqfp0","pricing_plan_id":"cebpf4jnsgd1na2vs0mg"},{"bike_id":"6f6c0afb-8ecf-4c38-bfcd-e69ba59ae862","system_id":"levelo_inurba_marseille","lat":43.29264,"lon":5.38448,"is_reserved":false,"is_disabled":false,"rental_uris":{"android":"levelo://app?vid=6f6c0afb-8ecf-4c38-bfcd-e69ba59ae862","ios":"levelo://app?vid=6f6c0afb-8ecf-4c38-bfcd-e69ba59ae862"},"vehicle_type_id":"4","last_reported":1728414371,"current_range_meters":33600,"station_id":"ce4bh692rcd13ifvqea0","pricing_plan_id":"cebpf4jnsgd1na2vs0mg"},{"bike_id":"b4c76401-0432-4f05-908b-d6e6c8549326","system_id":"levelo_inurba_marseille","lat":43.3133,"lon":5.39695,"is_reserved":false,"is_disabled":false,"rental_uris":{"android":"levelo://app?vid=b4c76401-0432-4f05-908b-d6e6c8549326","ios":"levelo://app?vid=b4c76401-0432-4f05-908b-d6e6c8549326"},"vehicle_type_id":"4","last_reported":1728414371,"current_range_meters":38800,"station_id":"ce4bgvp2rcd13ifvqcu0","pricing_plan_id":"cebpf4jnsgd1na2vs0mg"},{"bike_id":"d97ef086-b101-46be-b171-9933c814020e","system_id":"levelo_inurba_marseille","lat":43.3255,"lon":5.41436,"is_reserved":false,"is_disabled":false,"rental_uris":{"android":"levelo://app?vid=d97ef086-b101-46be-b171-9933c814020e","ios":"levelo://app?vid=d97ef086-b101-46be-b171-9933c814020e"},"vehicle_type_id":"4","last_reported":1728414371,"current_range_meters":25200,"station_id":"ce4bhq12rcd13ifvqhhg","pricing_plan_id":"cebpf4jnsgd1na2vs0mg"},{"bike_id":"347ea4de-5bde-472b-97e3-6aaa18cbf7ad","system_id":"levelo_inurba_marseille","lat":43.29026,"lon":5.38639,"is_reserved":false,"is_disabled":false,"rental_uris":{"android":"levelo://app?vid=347ea4de-5bde-472b-97e3-6aaa18cbf7ad","ios":"levelo://app?vid=347ea4de-5bde-472b-97e3-6aaa18cbf7ad"},"vehicle_type_id":"4","last_reported":1728414371,"current_range_meters":36400,"station_id":"ce4bh4p2rcd13ifvqe0g","pricing_plan_id":"cebpf4jnsgd1na2vs0mg"},{"bike_id":"c887f412-ea8d-487c-ab0e-69fd90f37ecb","system_id":"levelo_inurba_marseille","lat":43.33602,"lon":5.41037,"is_reserved":false,"is_disabled":false,"rental_uris":{"android":"levelo://app?vid=c887f412-ea8d-487c-ab0e-69fd90f37ecb","ios":"levelo://app?vid=c887f412-ea8d-487c-ab0e-69fd90f37ecb"},"vehicle_type_id":"4","last_reported":1728414371,"current_range_meters":28800,"station_id":"ce4bhqh2rcd13ifvqhmg","pricing_plan_id":"cebpf4jnsgd1na2vs0mg"},{"bike_id":"75335d2f-d722-42cf-a073-0955fe1dc611","system_id":"levelo_inurba_marseille","lat":43.33017,"lon":5.3904,"is_reserved":false,"is_disabled":false,"rental_uris":{"android":"levelo://app?vid=75335d2f-d722-42cf-a073-0955fe1dc611","ios":"levelo://app?vid=75335d2f-d722-42cf-a073-0955fe1dc611"},"vehicle_type_id":"4","last_reported":1728414371,"current_range_meters":38800,"station_id":"ce4bhr92rcd13ifvqhrg","pricing_plan_id":"cebpf4jnsgd1na2vs0mg"},{"bike_id":"67ae76c8-965c-4657-8428-89ddfb7be174","system_id":"levelo_inurba_marseille","lat":43.28001,"lon":5.41653,"is_reserved":false,"is_disabled":false,"rental_uris":{"android":"levelo://app?vid=67ae76c8-965c-4657-8428-89ddfb7be174","ios":"levelo://app?vid=67ae76c8-965c-4657-8428-89ddfb7be174"},"vehicle_type_id":"4","last_reported":1728414371,"current_range_meters":10000,"station_id":"ce4bho12rcd13ifvqh1g","pricing_plan_id":"cebpf4jnsgd1na2vs0mg"},{"bike_id":"c12c46a4-bd86-493d-803e-5d507cd7924b","system_id":"levelo_inurba_marseille","lat":43.23201,"lon":5.35546,"is_reserved":false,"is_disabled":false,"rental_uris":{"android":"levelo://app?vid=c12c46a4-bd86-493d-803e-5d507cd7924b","ios":"levelo://app?vid=c12c46a4-bd86-493d-803e-5d507cd7924b"},"vehicle_type_id":"4","last_reported":1728414371,"current_range_meters":16800,"station_id":"ce4bhu92rcd13ifvqi70","pricing_plan_id":"cebpf4jnsgd1na2vs0mg"},{"bike_id":"1e22ea5d-d406-4b63-92d6-06a783dc0af8","system_id":"levelo_inurba_marseille","lat":43.23173,"lon":5.39985,"is_reserved":false,"is_disabled":false,"rental_uris":{"android":"levelo://app?vid=1e22ea5d-d406-4b63-92d6-06a783dc0af8","ios":"levelo://app?vid=1e22ea5d-d406-4b63-92d6-06a783dc0af8"},"vehicle_type_id":"4","last_reported":1728414371,"current_range_meters":16800,"station_id":"ce4bhn12rcd13ifvqgqg","pricing_plan_id":"cebpf4jnsgd1na2vs0mg"},{"bike_id":"8342a0a5-17b2-4524-a2d2-e2cbce1247d1","system_id":"levelo_inurba_marseille","lat":43.25088,"lon":5.39516,"is_reserved":false,"is_disabled":false,"rental_uris":{"android":"levelo://app?vid=8342a0a5-17b2-4524-a2d2-e2cbce1247d1","ios":"levelo://app?vid=8342a0a5-17b2-4524-a2d2-e2cbce1247d1"},"vehicle_type_id":"4","last_reported":1728414371,"current_range_meters":16400,"station_id":"ce4bhm12rcd13ifvqgkg","pricing_plan_id":"cebpf4jnsgd1na2vs0mg"},{"bike_id":"662f4970-f45a-4eb7-8b5b-5f2d14dbdf57","system_id":"levelo_inurba_marseille","lat":43.26684,"lon":5.38284,"is_reserved":false,"is_disabled":false,"rental_uris":{"android":"levelo://app?vid=662f4970-f45a-4eb7-8b5b-5f2d14dbdf57","ios":"levelo://app?vid=662f4970-f45a-4eb7-8b5b-5f2d14dbdf57"},"vehicle_type_id":"4","last_reported":1728414371,"current_range_meters":36400,"station_id":"ce4bhg92rcd13ifvqf90","pricing_plan_id":"cebpf4jnsgd1na2vs0mg"},{"bike_id":"0574c1a0-3cc8-4f7d-b926-8637ca5584a1","system_id":"levelo_inurba_marseille","lat":43.28279,"lon":5.35069,"is_reserved":false,"is_disabled":false,"rental_uris":{"android":"levelo://app?vid=0574c1a0-3cc8-4f7d-b926-8637ca5584a1","ios":"levelo://app?vid=0574c1a0-3cc8-4f7d-b926-8637ca5584a1"},"vehicle_type_id":"4","last_reported":1728414371,"current_range_meters":38800,"station_id":"ce4bhbp2rcd13ifvqerg","pricing_plan_id":"cebpf4jnsgd1na2vs0mg"},{"bike_id":"4bac87d9-e4cb-494f-849e-9f8f51931f0a","system_id":"levelo_inurba_marseille","lat":43.29527,"lon":5.39405,"is_reserved":false,"is_disabled":false,"rental_uris":{"android":"levelo://app?vid=4bac87d9-e4cb-494f-849e-9f8f51931f0a","ios":"levelo://app?vid=4bac87d9-e4cb-494f-849e-9f8f51931f0a"},"vehicle_type_id":"4","last_reported":1728414371,"current_range_meters":38800,"station_id":"ce4bh292rcd13ifvqdf0","pricing_plan_id":"cebpf4jnsgd1na2vs0mg"},{"bike_id":"e6b4855e-0ff5-46c1-9f23-bcb0302a7d9e","system_id":"levelo_inurba_marseille","lat":43.2872,"lon":5.3794,"is_reserved":false,"is_disabled":false,"rental_uris":{"android":"levelo://app?vid=e6b4855e-0ff5-46c1-9f23-bcb0302a7d9e","ios":"levelo://app?vid=e6b4855e-0ff5-46c1-9f23-bcb0302a7d9e"},"vehicle_type_id":"4","last_reported":1728414371,"current_range_meters":2800,"station_id":"ce4bh9p2rcd13ifvqec0","pricing_plan_id":"cebpf4jnsgd1na2vs0mg"},{"bike_id":"737b16c8-da3a-41db-a1f1-40c76c299a56","system_id":"levelo_inurba_marseille","lat":43.29573,"lon":5.3751,"is_reserved":false,"is_disabled":false,"rental_uris":{"android":"levelo://app?vid=737b16c8-da3a-41db-a1f1-40c76c299a56","ios":"levelo://app?vid=737b16c8-da3a-41db-a1f1-40c76c299a56"},"vehicle_type_id":"4","last_reported":1728414371,"current_range_meters":38800,"station_id":"ce4bgh92rcd13ifvqb50","pricing_plan_id":"cebpf4jnsgd1na2vs0mg"},{"bike_id":"0f4a81d1-178a-4423-a9c5-4f762876e359","system_id":"levelo_inurba_marseille","lat":43.27996,"lon":5.40011,"is_reserved":false,"is_disabled":false,"rental_uris":{"android":"levelo://app?vid=0f4a81d1-178a-4423-a9c5-4f762876e359","ios":"levelo://app?vid=0f4a81d1-178a-4423-a9c5-4f762876e359"},"vehicle_type_id":"4","last_reported":1728414371,"current_range_meters":6400,"station_id":"ce4bho92rcd13ifvqh4g","pricing_plan_id":"cebpf4jnsgd1na2vs0mg"},{"bike_id":"ce0b03a7-4b03-4bd7-928b-a4a84159b584","system_id":"levelo_inurba_marseille","lat":43.23963,"lon":5.36619,"is_reserved":false,"is_disabled":false,"rental_uris":{"android":"levelo://app?vid=ce0b03a7-4b03-4bd7-928b-a4a84159b584","ios":"levelo://app?vid=ce0b03a7-4b03-4bd7-928b-a4a84159b584"},"vehicle_type_id":"4","last_reported":1728414371,"current_range_meters":38000,"station_id":"ce4bhi12rcd13ifvqfp0","pricing_plan_id":"cebpf4jnsgd1na2vs0mg"},{"bike_id":"dbea0b14-12e3-4069-9a8a-8217eb20d74f","system_id":"levelo_inurba_marseille","lat":43.305389,"lon":5.384298,"is_reserved":false,"is_disabled":false,"rental_uris":{"android":"levelo://app?vid=dbea0b14-12e3-4069-9a8a-8217eb20d74f","ios":"levelo://app?vid=dbea0b14-12e3-4069-9a8a-8217eb20d74f"},"vehicle_type_id":"4","last_reported":1728414371,"current_range_meters":28400,"station_id":"ce4bgg92rcd13ifvqb30","pricing_plan_id":"cebpf4jnsgd1na2vs0mg"},{"bike_id":"bc22e346-a7eb-4478-91e3-e51455a5d897","system_id":"levelo_inurba_marseille","lat":43.29421,"lon":5.38625,"is_reserved":false,"is_disabled":false,"rental_uris":{"android":"levelo://app?vid=bc22e346-a7eb-4478-91e3-e51455a5d897","ios":"levelo://app?vid=bc22e346-a7eb-4478-91e3-e51455a5d897"},"vehicle_type_id":"4","last_reported":1728414371,"current_range_meters":36400,"station_id":"ce4bh2h2rcd13ifvqdh0","pricing_plan_id":"cebpf4jnsgd1na2vs0mg"},{"bike_id":"72261ca1-c5c7-4f02-b10b-85cf7c9785d1","system_id":"levelo_inurba_marseille","lat":43.25872,"lon":5.39895,"is_reserved":false,"is_disabled":false,"rental_uris":{"android":"levelo://app?vid=72261ca1-c5c7-4f02-b10b-85cf7c9785d1","ios":"levelo://app?vid=72261ca1-c5c7-4f02-b10b-85cf7c9785d1"},"vehicle_type_id":"4","last_reported":1728414371,"current_range_meters":11200,"station_id":"ce4bhl92rcd13ifvqghg","pricing_plan_id":"cebpf4jnsgd1na2vs0mg"},{"bike_id":"d00a3477-782a-4de0-b711-15ed9dd434f4","system_id":"levelo_inurba_marseille","lat":43.23054,"lon":5.35488,"is_reserved":false,"is_disabled":false,"rental_uris":{"android":"levelo://app?vid=d00a3477-782a-4de0-b711-15ed9dd434f4","ios":"levelo://app?vid=d00a3477-782a-4de0-b711-15ed9dd434f4"},"vehicle_type_id":"4","last_reported":1728414371,"current_range_meters":2800,"station_id":"cpo3342slgdg3j2ifvpg","pricing_plan_id":"cebpf4jnsgd1na2vs0mg"},{"bike_id":"a96960fb-1ae0-4688-92ce-8bc122ef6c6a","system_id":"levelo_inurba_marseille","lat":43.31329,"lon":5.39691,"is_reserved":false,"is_disabled":false,"rental_uris":{"android":"levelo://app?vid=a96960fb-1ae0-4688-92ce-8bc122ef6c6a","ios":"levelo://app?vid=a96960fb-1ae0-4688-92ce-8bc122ef6c6a"},"vehicle_type_id":"4","last_reported":1728414371,"current_range_meters":38800,"station_id":"ce4bgvp2rcd13ifvqcu0","pricing_plan_id":"cebpf4jnsgd1na2vs0mg"},{"bike_id":"1a16b4b2-3882-45ac-8e9c-156fab61c883","system_id":"levelo_inurba_marseille","lat":43.2707,"lon":5.42281,"is_reserved":false,"is_disabled":false,"rental_uris":{"android":"levelo://app?vid=1a16b4b2-3882-45ac-8e9c-156fab61c883","ios":"levelo://app?vid=1a16b4b2-3882-45ac-8e9c-156fab61c883"},"vehicle_type_id":"4","last_reported":1728414371,"current_range_meters":6000,"station_id":"ce4bhk92rcd13ifvqgb0","pricing_plan_id":"cebpf4jnsgd1na2vs0mg"},{"bike_id":"e8f38f77-6572-42be-9296-0cbe6e7cb972","system_id":"levelo_inurba_marseille","lat":43.23054,"lon":5.35492,"is_reserved":false,"is_disabled":false,"rental_uris":{"android":"levelo://app?vid=e8f38f77-6572-42be-9296-0cbe6e7cb972","ios":"levelo://app?vid=e8f38f77-6572-42be-9296-0cbe6e7cb972"},"vehicle_type_id":"4","last_reported":1728414371,"current_range_meters":30400,"station_id":"cpo3342slgdg3j2ifvpg","pricing_plan_id":"cebpf4jnsgd1na2vs0mg"},{"bike_id":"912c6b05-4dec-4976-aafe-fb5561a101c0","system_id":"levelo_inurba_marseille","lat":43.24801,"lon":5.37455,"is_reserved":false,"is_disabled":false,"rental_uris":{"android":"levelo://app?vid=912c6b05-4dec-4976-aafe-fb5561a101c0","ios":"levelo://app?vid=912c6b05-4dec-4976-aafe-fb5561a101c0"},"vehicle_type_id":"4","last_reported":1728414371,"current_range_meters":24400,"station_id":"ce4bhgh2rcd13ifvqfb0","pricing_plan_id":"cebpf4jnsgd1na2vs0mg"},{"bike_id":"1302f1d5-5433-4f37-bda5-bf64fc3e260b","system_id":"levelo_inurba_marseille","lat":43.2987,"lon":5.39726,"is_reserved":false,"is_disabled":false,"rental_uris":{"android":"levelo://app?vid=1302f1d5-5433-4f37-bda5-bf64fc3e260b","ios":"levelo://app?vid=1302f1d5-5433-4f37-bda5-bf64fc3e260b"},"vehicle_type_id":"4","last_reported":1728414371,"current_range_meters":6800,"station_id":"ce4bh0h2rcd13ifvqd50","pricing_plan_id":"cebpf4jnsgd1na2vs0mg"},{"bike_id":"27990b65-6928-4044-8b6b-0fd7c4f76242","system_id":"levelo_inurba_marseille","lat":43.29866,"lon":5.39733,"is_reserved":false,"is_disabled":false,"rental_uris":{"android":"levelo://app?vid=27990b65-6928-4044-8b6b-0fd7c4f76242","ios":"levelo://app?vid=27990b65-6928-4044-8b6b-0fd7c4f76242"},"vehicle_type_id":"4","last_reported":1728414371,"current_range_meters":4000,"station_id":"ce4bh0h2rcd13ifvqd50","pricing_plan_id":"cebpf4jnsgd1na2vs0mg"},{"bike_id":"edaf4b36-393a-4ca6-8e5f-35fb0a688fdc","system_id":"levelo_inurba_marseille","lat":43.27989,"lon":5.40023,"is_reserved":false,"is_disabled":false,"rental_uris":{"android":"levelo://app?vid=edaf4b36-393a-4ca6-8e5f-35fb0a688fdc","ios":"levelo://app?vid=edaf4b36-393a-4ca6-8e5f-35fb0a688fdc"},"vehicle_type_id":"4","last_reported":1728414371,"current_range_meters":10000,"station_id":"ce4bho92rcd13ifvqh4g","pricing_plan_id":"cebpf4jnsgd1na2vs0mg"},{"bike_id":"49e93839-90e5-4fcc-990c-d6e1d1c57ba3","system_id":"levelo_inurba_marseille","lat":43.30269,"lon":5.37717,"is_reserved":false,"is_disabled":false,"rental_uris":{"android":"levelo://app?vid=49e93839-90e5-4fcc-990c-d6e1d1c57ba3","ios":"levelo://app?vid=49e93839-90e5-4fcc-990c-d6e1d1c57ba3"},"vehicle_type_id":"4","last_reported":1728414371,"current_range_meters":17200,"station_id":"ce4bguh2rcd13ifvqcj0","pricing_plan_id":"cebpf4jnsgd1na2vs0mg"},{"bike_id":"8ad55eee-602b-4949-a535-c4965d8587b5","system_id":"levelo_inurba_marseille","lat":43.31327,"lon":5.39693,"is_reserved":false,"is_disabled":false,"rental_uris":{"android":"levelo://app?vid=8ad55eee-602b-4949-a535-c4965d8587b5","ios":"levelo://app?vid=8ad55eee-602b-4949-a535-c4965d8587b5"},"vehicle_type_id":"4","last_reported":1728414371,"current_range_meters":38800,"station_id":"ce4bgvp2rcd13ifvqcu0","pricing_plan_id":"cebpf4jnsgd1na2vs0mg"},{"bike_id":"4230299b-aa81-4d3a-b457-3e58252c28cc","system_id":"levelo_inurba_marseille","lat":43.25723,"lon":5.4111,"is_reserved":false,"is_disabled":false,"rental_uris":{"android":"levelo://app?vid=4230299b-aa81-4d3a-b457-3e58252c28cc","ios":"levelo://app?vid=4230299b-aa81-4d3a-b457-3e58252c28cc"},"vehicle_type_id":"4","last_reported":1728414371,"current_range_meters":19600,"station_id":"ce4bhkp2rcd13ifvqgd0","pricing_plan_id":"cebpf4jnsgd1na2vs0mg"},{"bike_id":"b658c143-43b8-4433-a0d9-a48b3166f91e","system_id":"levelo_inurba_marseille","lat":43.31079,"lon":5.42433,"is_reserved":false,"is_disabled":false,"rental_uris":{"android":"levelo://app?vid=b658c143-43b8-4433-a0d9-a48b3166f91e","ios":"levelo://app?vid=b658c143-43b8-4433-a0d9-a48b3166f91e"},"vehicle_type_id":"4","last_reported":1728414371,"current_range_meters":12000,"station_id":"ce4bhp92rcd13ifvqhag","pricing_plan_id":"cebpf4jnsgd1na2vs0mg"},{"bike_id":"b5142c12-3f3f-452c-853c-bcb33ce12fbf","system_id":"levelo_inurba_marseille","lat":43.23193,"lon":5.35554,"is_reserved":false,"is_disabled":false,"rental_uris":{"android":"levelo://app?vid=b5142c12-3f3f-452c-853c-bcb33ce12fbf","ios":"levelo://app?vid=b5142c12-3f3f-452c-853c-bcb33ce12fbf"},"vehicle_type_id":"4","last_reported":1728414371,"current_range_meters":36400,"station_id":"ce4bhu92rcd13ifvqi70","pricing_plan_id":"cebpf4jnsgd1na2vs0mg"},{"bike_id":"41cbd591-be75-4a59-afc5-fbe9986717e5","system_id":"levelo_inurba_marseille","lat":43.3088,"lon":5.39652,"is_reserved":false,"is_disabled":false,"rental_uris":{"android":"levelo://app?vid=41cbd591-be75-4a59-afc5-fbe9986717e5","ios":"levelo://app?vid=41cbd591-be75-4a59-afc5-fbe9986717e5"},"vehicle_type_id":"4","last_reported":1728414371,"current_range_meters":5600,"station_id":"ce4bh012rcd13ifvqcv0","pricing_plan_id":"cebpf4jnsgd1na2vs0mg"},{"bike_id":"21de6ba0-bc03-48e1-8d9f-f875bba9c5b9","system_id":"levelo_inurba_marseille","lat":43.30799,"lon":5.43523,"is_reserved":false,"is_disabled":false,"rental_uris":{"android":"levelo://app?vid=21de6ba0-bc03-48e1-8d9f-f875bba9c5b9","ios":"levelo://app?vid=21de6ba0-bc03-48e1-8d9f-f875bba9c5b9"},"vehicle_type_id":"4","last_reported":1728414371,"current_range_meters":11200,"station_id":"ce4bhph2rcd13ifvqheg","pricing_plan_id":"cebpf4jnsgd1na2vs0mg"},{"bike_id":"9c332f9c-e641-4575-abad-a6746aeff043","system_id":"levelo_inurba_marseille","lat":43.27995,"lon":5.40008,"is_reserved":false,"is_disabled":false,"rental_uris":{"android":"levelo://app?vid=9c332f9c-e641-4575-abad-a6746aeff043","ios":"levelo://app?vid=9c332f9c-e641-4575-abad-a6746aeff043"},"vehicle_type_id":"4","last_reported":1728414371,"current_range_meters":4800,"station_id":"ce4bho92rcd13ifvqh4g","pricing_plan_id":"cebpf4jnsgd1na2vs0mg"},{"bike_id":"68fe04c0-5d75-45e6-beba-6d59590df5a2","system_id":"levelo_inurba_marseille","lat":43.30798,"lon":5.43522,"is_reserved":false,"is_disabled":false,"rental_uris":{"android":"levelo://app?vid=68fe04c0-5d75-45e6-beba-6d59590df5a2","ios":"levelo://app?vid=68fe04c0-5d75-45e6-beba-6d59590df5a2"},"vehicle_type_id":"4","last_reported":1728414371,"current_range_meters":8800,"station_id":"ce4bhph2rcd13ifvqheg","pricing_plan_id":"cebpf4jnsgd1na2vs0mg"},{"bike_id":"f5f4f11f-8ec0-4f87-af54-7238df71377c","system_id":"levelo_inurba_marseille","lat":43.30892,"lon":5.39653,"is_reserved":false,"is_disabled":false,"rental_uris":{"android":"levelo://app?vid=f5f4f11f-8ec0-4f87-af54-7238df71377c","ios":"levelo://app?vid=f5f4f11f-8ec0-4f87-af54-7238df71377c"},"vehicle_type_id":"4","last_reported":1728414371,"current_range_meters":30400,"station_id":"ce4bh012rcd13ifvqcv0","pricing_plan_id":"cebpf4jnsgd1na2vs0mg"},{"bike_id":"8e3669e3-0cc0-4473-bf2c-3229597f49cf","system_id":"levelo_inurba_marseille","lat":43.31175,"lon":5.38719,"is_reserved":false,"is_disabled":false,"rental_uris":{"android":"levelo://app?vid=8e3669e3-0cc0-4473-bf2c-3229597f49cf","ios":"levelo://app?vid=8e3669e3-0cc0-4473-bf2c-3229597f49cf"},"vehicle_type_id":"4","last_reported":1728414371,"current_range_meters":38800,"station_id":"ce4bgv12rcd13ifvqcp0","pricing_plan_id":"cebpf4jnsgd1na2vs0mg"},{"bike_id":"0de0d42b-a5f9-4a47-8a3c-7a17a3a62af0","system_id":"levelo_inurba_marseille","lat":43.29196,"lon":5.39327,"is_reserved":false,"is_disabled":false,"rental_uris":{"android":"levelo://app?vid=0de0d42b-a5f9-4a47-8a3c-7a17a3a62af0","ios":"levelo://app?vid=0de0d42b-a5f9-4a47-8a3c-7a17a3a62af0"},"vehicle_type_id":"4","last_reported":1728414371,"current_range_meters":10000,"station_id":"ce4bh192rcd13ifvqdd0","pricing_plan_id":"cebpf4jnsgd1na2vs0mg"},{"bike_id":"774e6f17-b939-4570-ac09-435652952c86","system_id":"levelo_inurba_marseille","lat":43.30799,"lon":5.43524,"is_reserved":false,"is_disabled":false,"rental_uris":{"android":"levelo://app?vid=774e6f17-b939-4570-ac09-435652952c86","ios":"levelo://app?vid=774e6f17-b939-4570-ac09-435652952c86"},"vehicle_type_id":"4","last_reported":1728414371,"current_range_meters":24000,"station_id":"ce4bhph2rcd13ifvqheg","pricing_plan_id":"cebpf4jnsgd1na2vs0mg"},{"bike_id":"57ef6de0-9539-4d46-a678-83c1acb5fcaf","system_id":"levelo_inurba_marseille","lat":43.26803,"lon":5.40271,"is_reserved":false,"is_disabled":false,"rental_uris":{"android":"levelo://app?vid=57ef6de0-9539-4d46-a678-83c1acb5fcaf","ios":"levelo://app?vid=57ef6de0-9539-4d46-a678-83c1acb5fcaf"},"vehicle_type_id":"4","last_reported":1728414371,"current_range_meters":32000,"station_id":"ce501612rcd8frsf0b60","pricing_plan_id":"cebpf4jnsgd1na2vs0mg"},{"bike_id":"004d90ed-66d1-4cf5-9e8a-125de5f2b1c0","system_id":"levelo_inurba_marseille","lat":43.28616,"lon":5.35105,"is_reserved":false,"is_disabled":false,"rental_uris":{"android":"levelo://app?vid=004d90ed-66d1-4cf5-9e8a-125de5f2b1c0","ios":"levelo://app?vid=004d90ed-66d1-4cf5-9e8a-125de5f2b1c0"},"vehicle_type_id":"4","last_reported":1728414371,"current_range_meters":38000,"station_id":"ce4bhch2rcd13ifvqeug","pricing_plan_id":"cebpf4jnsgd1na2vs0mg"},{"bike_id":"33c6cb8e-ee03-4077-be79-05812af01969","system_id":"levelo_inurba_marseille","lat":43.29259,"lon":5.38442,"is_reserved":false,"is_disabled":false,"rental_uris":{"android":"levelo://app?vid=33c6cb8e-ee03-4077-be79-05812af01969","ios":"levelo://app?vid=33c6cb8e-ee03-4077-be79-05812af01969"},"vehicle_type_id":"4","last_reported":1728414371,"current_range_meters":8800,"station_id":"ce4bh692rcd13ifvqea0","pricing_plan_id":"cebpf4jnsgd1na2vs0mg"},{"bike_id":"98e09388-cc22-4ce0-92f2-74a94b3c0d2c","system_id":"levelo_inurba_marseille","lat":43.30409,"lon":5.36774,"is_reserved":false,"is_disabled":false,"rental_uris":{"android":"levelo://app?vid=98e09388-cc22-4ce0-92f2-74a94b3c0d2c","ios":"levelo://app?vid=98e09388-cc22-4ce0-92f2-74a94b3c0d2c"},"vehicle_type_id":"4","last_reported":1728414371,"current_range_meters":9200,"station_id":"ce4bhs12rcd13ifvqhvg","pricing_plan_id":"cebpf4jnsgd1na2vs0mg"},{"bike_id":"017308ad-f481-4218-b7f9-5a36c9fab05f","system_id":"levelo_inurba_marseille","lat":43.23195,"lon":5.35554,"is_reserved":false,"is_disabled":false,"rental_uris":{"android":"levelo://app?vid=017308ad-f481-4218-b7f9-5a36c9fab05f","ios":"levelo://app?vid=017308ad-f481-4218-b7f9-5a36c9fab05f"},"vehicle_type_id":"4","last_reported":1728414371,"current_range_meters":22800,"station_id":"ce4bhu92rcd13ifvqi70","pricing_plan_id":"cebpf4jnsgd1na2vs0mg"},{"bike_id":"c9e82177-95ae-4f81-a382-25e2d2cdf56d","system_id":"levelo_inurba_marseille","lat":43.28565,"lon":5.39498,"is_reserved":false,"is_disabled":false,"rental_uris":{"android":"levelo://app?vid=c9e82177-95ae-4f81-a382-25e2d2cdf56d","ios":"levelo://app?vid=c9e82177-95ae-4f81-a382-25e2d2cdf56d"},"vehicle_type_id":"4","last_reported":1728414371,"current_range_meters":37600,"station_id":"ce4bh292rcd13ifvqdg0","pricing_plan_id":"cebpf4jnsgd1na2vs0mg"},{"bike_id":"3dd26556-ae9f-41a0-84e0-d9b075ceb4da","system_id":"levelo_inurba_marseille","lat":43.294758,"lon":5.397534,"is_reserved":false,"is_disabled":false,"rental_uris":{"android":"levelo://app?vid=3dd26556-ae9f-41a0-84e0-d9b075ceb4da","ios":"levelo://app?vid=3dd26556-ae9f-41a0-84e0-d9b075ceb4da"},"vehicle_type_id":"4","last_reported":1728414371,"current_range_meters":35200,"station_id":"ce4bh3h2rcd13ifvqdo0","pricing_plan_id":"cebpf4jnsgd1na2vs0mg"},{"bike_id":"18dc9840-28f2-47db-a6c2-550f1ddbc175","system_id":"levelo_inurba_marseille","lat":43.31171,"lon":5.38706,"is_reserved":false,"is_disabled":false,"rental_uris":{"android":"levelo://app?vid=18dc9840-28f2-47db-a6c2-550f1ddbc175","ios":"levelo://app?vid=18dc9840-28f2-47db-a6c2-550f1ddbc175"},"vehicle_type_id":"4","last_reported":1728414371,"current_range_meters":38800,"station_id":"ce4bgv12rcd13ifvqcp0","pricing_plan_id":"cebpf4jnsgd1na2vs0mg"},{"bike_id":"5f5b34ea-c761-44ef-965d-2cd145c53c6a","system_id":"levelo_inurba_marseille","lat":43.23199,"lon":5.35554,"is_reserved":false,"is_disabled":false,"rental_uris":{"android":"levelo://app?vid=5f5b34ea-c761-44ef-965d-2cd145c53c6a","ios":"levelo://app?vid=5f5b34ea-c761-44ef-965d-2cd145c53c6a"},"vehicle_type_id":"4","last_reported":1728414371,"current_range_meters":9200,"station_id":"ce4bhu92rcd13ifvqi70","pricing_plan_id":"cebpf4jnsgd1na2vs0mg"},{"bike_id":"2349ada1-d5bc-4fee-bf5c-a1816e85f8fd","system_id":"levelo_inurba_marseille","lat":43.28926,"lon":5.38402,"is_reserved":false,"is_disabled":false,"rental_uris":{"android":"levelo://app?vid=2349ada1-d5bc-4fee-bf5c-a1816e85f8fd","ios":"levelo://app?vid=2349ada1-d5bc-4fee-bf5c-a1816e85f8fd"},"vehicle_type_id":"4","last_reported":1728414371,"current_range_meters":27200,"station_id":"ce4bh612rcd13ifvqe6g","pricing_plan_id":"cebpf4jnsgd1na2vs0mg"},{"bike_id":"a92f6206-1720-4e29-9ed4-ca1db6a5dc4b","system_id":"levelo_inurba_marseille","lat":43.29772,"lon":5.37401,"is_reserved":false,"is_disabled":false,"rental_uris":{"android":"levelo://app?vid=a92f6206-1720-4e29-9ed4-ca1db6a5dc4b","ios":"levelo://app?vid=a92f6206-1720-4e29-9ed4-ca1db6a5dc4b"},"vehicle_type_id":"4","last_reported":1728414371,"current_range_meters":24800,"station_id":"","pricing_plan_id":"cebpf4jnsgd1na2vs0mg"},{"bike_id":"4ab9f254-ccb8-4e88-87f7-c1bcee3c3514","system_id":"levelo_inurba_marseille","lat":43.2396,"lon":5.36639,"is_reserved":false,"is_disabled":false,"rental_uris":{"android":"levelo://app?vid=4ab9f254-ccb8-4e88-87f7-c1bcee3c3514","ios":"levelo://app?vid=4ab9f254-ccb8-4e88-87f7-c1bcee3c3514"},"vehicle_type_id":"4","last_reported":1728414371,"current_range_meters":28000,"station_id":"ce4bhi12rcd13ifvqfp0","pricing_plan_id":"cebpf4jnsgd1na2vs0mg"},{"bike_id":"f62d0986-2767-4838-9ce2-0d39b75d5456","system_id":"levelo_inurba_marseille","lat":43.31268,"lon":5.40182,"is_reserved":false,"is_disabled":false,"rental_uris":{"android":"levelo://app?vid=f62d0986-2767-4838-9ce2-0d39b75d5456","ios":"levelo://app?vid=f62d0986-2767-4838-9ce2-0d39b75d5456"},"vehicle_type_id":"4","last_reported":1728414371,"current_range_meters":4800,"station_id":"ce4bh092rcd13ifvqd30","pricing_plan_id":"cebpf4jnsgd1na2vs0mg"},{"bike_id":"ba7360c0-9dc9-4270-a604-9f695deec5f2","system_id":"levelo_inurba_marseille","lat":43.3137,"lon":5.38494,"is_reserved":false,"is_disabled":false,"rental_uris":{"android":"levelo://app?vid=ba7360c0-9dc9-4270-a604-9f695deec5f2","ios":"levelo://app?vid=ba7360c0-9dc9-4270-a604-9f695deec5f2"},"vehicle_type_id":"4","last_reported":1728414371,"current_range_meters":11200,"station_id":"ce4bgt92rcd13ifvqcf0","pricing_plan_id":"cebpf4jnsgd1na2vs0mg"},{"bike_id":"972211f7-342f-484a-9e80-60f9a2127348","system_id":"levelo_inurba_marseille","lat":43.24662,"lon":5.38166,"is_reserved":false,"is_disabled":false,"rental_uris":{"android":"levelo://app?vid=972211f7-342f-484a-9e80-60f9a2127348","ios":"levelo://app?vid=972211f7-342f-484a-9e80-60f9a2127348"},"vehicle_type_id":"4","last_reported":1728414371,"current_range_meters":6800,"station_id":"ce4bhih2rcd13ifvqfr0","pricing_plan_id":"cebpf4jnsgd1na2vs0mg"},{"bike_id":"3d85f06b-6ef7-4d5b-aba6-f8dbe2224f4f","system_id":"levelo_inurba_marseille","lat":43.31437,"lon":5.37344,"is_reserved":false,"is_disabled":false,"rental_uris":{"android":"levelo://app?vid=3d85f06b-6ef7-4d5b-aba6-f8dbe2224f4f","ios":"levelo://app?vid=3d85f06b-6ef7-4d5b-aba6-f8dbe2224f4f"},"vehicle_type_id":"4","last_reported":1728414371,"current_range_meters":34000,"station_id":"ce4bgt12rcd13ifvqcd0","pricing_plan_id":"cebpf4jnsgd1na2vs0mg"},{"bike_id":"e0dfc8c2-14a5-4f79-8413-54a139919509","system_id":"levelo_inurba_marseille","lat":43.29847,"lon":5.36285,"is_reserved":false,"is_disabled":false,"rental_uris":{"android":"levelo://app?vid=e0dfc8c2-14a5-4f79-8413-54a139919509","ios":"levelo://app?vid=e0dfc8c2-14a5-4f79-8413-54a139919509"},"vehicle_type_id":"4","last_reported":1728414371,"current_range_meters":8400,"station_id":"ce4bgpp2rcd13ifvqc3g","pricing_plan_id":"cebpf4jnsgd1na2vs0mg"},{"bike_id":"62b6d635-7bcb-41a7-b9d5-21dbc57fd938","system_id":"levelo_inurba_marseille","lat":43.288913,"lon":5.37415,"is_reserved":false,"is_disabled":false,"rental_uris":{"android":"levelo://app?vid=62b6d635-7bcb-41a7-b9d5-21dbc57fd938","ios":"levelo://app?vid=62b6d635-7bcb-41a7-b9d5-21dbc57fd938"},"vehicle_type_id":"4","last_reported":1728414371,"current_range_meters":34000,"station_id":"","pricing_plan_id":"cebpf4jnsgd1na2vs0mg"},{"bike_id":"6b160f68-5f17-4add-a936-87f93f9ecf00","system_id":"levelo_inurba_marseille","lat":43.31116,"lon":5.3777,"is_reserved":false,"is_disabled":false,"rental_uris":{"android":"levelo://app?vid=6b160f68-5f17-4add-a936-87f93f9ecf00","ios":"levelo://app?vid=6b160f68-5f17-4add-a936-87f93f9ecf00"},"vehicle_type_id":"4","last_reported":1728414371,"current_range_meters":9600,"station_id":"ce4bgt92rcd13ifvqcg0","pricing_plan_id":"cebpf4jnsgd1na2vs0mg"},{"bike_id":"62340c92-f6a6-4f97-8029-9dffadf530fc","system_id":"levelo_inurba_marseille","lat":43.30435,"lon":5.39744,"is_reserved":false,"is_disabled":false,"rental_uris":{"android":"levelo://app?vid=62340c92-f6a6-4f97-8029-9dffadf530fc","ios":"levelo://app?vid=62340c92-f6a6-4f97-8029-9dffadf530fc"},"vehicle_type_id":"4","last_reported":1728414371,"current_range_meters":6000,"station_id":"ce4bh092rcd13ifvqd20","pricing_plan_id":"cebpf4jnsgd1na2vs0mg"},{"bike_id":"60043fce-e09a-44ab-bfe6-9f527914d85c","system_id":"levelo_inurba_marseille","lat":43.24546,"lon":5.39523,"is_reserved":false,"is_disabled":false,"rental_uris":{"android":"levelo://app?vid=60043fce-e09a-44ab-bfe6-9f527914d85c","ios":"levelo://app?vid=60043fce-e09a-44ab-bfe6-9f527914d85c"},"vehicle_type_id":"4","last_reported":1728414371,"current_range_meters":11600,"station_id":"ce4bhlp2rcd13ifvqgjg","pricing_plan_id":"cebpf4jnsgd1na2vs0mg"},{"bike_id":"cf927195-cafe-4fe6-8a9b-b503bf9be2b0","system_id":"levelo_inurba_marseille","lat":43.23183,"lon":5.3999,"is_reserved":false,"is_disabled":false,"rental_uris":{"android":"levelo://app?vid=cf927195-cafe-4fe6-8a9b-b503bf9be2b0","ios":"levelo://app?vid=cf927195-cafe-4fe6-8a9b-b503bf9be2b0"},"vehicle_type_id":"4","last_reported":1728414371,"current_range_meters":35600,"station_id":"ce4bhn12rcd13ifvqgqg","pricing_plan_id":"cebpf4jnsgd1na2vs0mg"},{"bike_id":"0b08e9ea-38c4-484f-a0b4-2a1cbff6f2f0","system_id":"levelo_inurba_marseille","lat":43.28,"lon":5.40012,"is_reserved":false,"is_disabled":false,"rental_uris":{"android":"levelo://app?vid=0b08e9ea-38c4-484f-a0b4-2a1cbff6f2f0","ios":"levelo://app?vid=0b08e9ea-38c4-484f-a0b4-2a1cbff6f2f0"},"vehicle_type_id":"4","last_reported":1728414371,"current_range_meters":8000,"station_id":"ce4bho92rcd13ifvqh4g","pricing_plan_id":"cebpf4jnsgd1na2vs0mg"},{"bike_id":"b05c87c3-4b39-48f9-af1f-30d8eb597226","system_id":"levelo_inurba_marseille","lat":43.26201,"lon":5.37935,"is_reserved":false,"is_disabled":false,"rental_uris":{"android":"levelo://app?vid=b05c87c3-4b39-48f9-af1f-30d8eb597226","ios":"levelo://app?vid=b05c87c3-4b39-48f9-af1f-30d8eb597226"},"vehicle_type_id":"4","last_reported":1728414371,"current_range_meters":21600,"station_id":"ce4bhjp2rcd13ifvqg90","pricing_plan_id":"cebpf4jnsgd1na2vs0mg"},{"bike_id":"f25c3320-3c59-4058-a283-2b0b09b21a7a","system_id":"levelo_inurba_marseille","lat":43.27183,"lon":5.40999,"is_reserved":false,"is_disabled":false,"rental_uris":{"android":"levelo://app?vid=f25c3320-3c59-4058-a283-2b0b09b21a7a","ios":"levelo://app?vid=f25c3320-3c59-4058-a283-2b0b09b21a7a"},"vehicle_type_id":"4","last_reported":1728414371,"current_range_meters":6400,"station_id":"ce4bhl12rcd13ifvqgf0","pricing_plan_id":"cebpf4jnsgd1na2vs0mg"},{"bike_id":"57d7ead1-2988-4a3b-8eb0-fb521156dcd5","system_id":"levelo_inurba_marseille","lat":43.28157,"lon":5.42639,"is_reserved":false,"is_disabled":false,"rental_uris":{"android":"levelo://app?vid=57d7ead1-2988-4a3b-8eb0-fb521156dcd5","ios":"levelo://app?vid=57d7ead1-2988-4a3b-8eb0-fb521156dcd5"},"vehicle_type_id":"4","last_reported":1728414371,"current_range_meters":8800,"station_id":"ce4bhnh2rcd13ifvqgug","pricing_plan_id":"cebpf4jnsgd1na2vs0mg"},{"bike_id":"00124bf0-3d1f-4bda-abf0-0a9703d1b2fe","system_id":"levelo_inurba_marseille","lat":43.30971,"lon":5.37042,"is_reserved":false,"is_disabled":false,"rental_uris":{"android":"levelo://app?vid=00124bf0-3d1f-4bda-abf0-0a9703d1b2fe","ios":"levelo://app?vid=00124bf0-3d1f-4bda-abf0-0a9703d1b2fe"},"vehicle_type_id":"4","last_reported":1728414371,"current_range_meters":25600,"station_id":"ce4bgqh2rcd13ifvqc4g","pricing_plan_id":"cebpf4jnsgd1na2vs0mg"},{"bike_id":"9a9df624-1549-41fb-b7f5-bd4059f46f71","system_id":"levelo_inurba_marseille","lat":43.31764,"lon":5.39005,"is_reserved":false,"is_disabled":false,"rental_uris":{"android":"levelo://app?vid=9a9df624-1549-41fb-b7f5-bd4059f46f71","ios":"levelo://app?vid=9a9df624-1549-41fb-b7f5-bd4059f46f71"},"vehicle_type_id":"4","last_reported":1728414371,"current_range_meters":27200,"station_id":"ce4bhqp2rcd13ifvqhng","pricing_plan_id":"cebpf4jnsgd1na2vs0mg"},{"bike_id":"da6edb29-cf10-4846-be16-2bb5f715fcf2","system_id":"levelo_inurba_marseille","lat":43.29523,"lon":5.39024,"is_reserved":false,"is_disabled":false,"rental_uris":{"android":"levelo://app?vid=da6edb29-cf10-4846-be16-2bb5f715fcf2","ios":"levelo://app?vid=da6edb29-cf10-4846-be16-2bb5f715fcf2"},"vehicle_type_id":"4","last_reported":1728414371,"current_range_meters":4400,"station_id":"ce4bh3p2rcd13ifvqdp0","pricing_plan_id":"cebpf4jnsgd1na2vs0mg"},{"bike_id":"f276946a-c301-4fd8-9ee9-b3ea2a208df0","system_id":"levelo_inurba_marseille","lat":43.23065,"lon":5.3549,"is_reserved":false,"is_disabled":false,"rental_uris":{"android":"levelo://app?vid=f276946a-c301-4fd8-9ee9-b3ea2a208df0","ios":"levelo://app?vid=f276946a-c301-4fd8-9ee9-b3ea2a208df0"},"vehicle_type_id":"4","last_reported":1728414371,"current_range_meters":23200,"station_id":"cpo3342slgdg3j2ifvpg","pricing_plan_id":"cebpf4jnsgd1na2vs0mg"},{"bike_id":"785dd6e2-063e-4f34-bde4-815072a28081","system_id":"levelo_inurba_marseille","lat":43.31367,"lon":5.38492,"is_reserved":false,"is_disabled":false,"rental_uris":{"android":"levelo://app?vid=785dd6e2-063e-4f34-bde4-815072a28081","ios":"levelo://app?vid=785dd6e2-063e-4f34-bde4-815072a28081"},"vehicle_type_id":"4","last_reported":1728414371,"current_range_meters":12800,"station_id":"ce4bgt92rcd13ifvqcf0","pricing_plan_id":"cebpf4jnsgd1na2vs0mg"},{"bike_id":"5eb1d50f-ca91-4fb8-860f-c0199bb2576b","system_id":"levelo_inurba_marseille","lat":43.25568,"lon":5.38226,"is_reserved":false,"is_disabled":false,"rental_uris":{"android":"levelo://app?vid=5eb1d50f-ca91-4fb8-860f-c0199bb2576b","ios":"levelo://app?vid=5eb1d50f-ca91-4fb8-860f-c0199bb2576b"},"vehicle_type_id":"4","last_reported":1728414371,"current_range_meters":36800,"station_id":"ce4bhih2rcd13ifvqfs0","pricing_plan_id":"cebpf4jnsgd1na2vs0mg"},{"bike_id":"0258d84f-d9c8-4728-9e87-824cf17cee21","system_id":"levelo_inurba_marseille","lat":43.28475,"lon":5.38411,"is_reserved":false,"is_disabled":false,"rental_uris":{"android":"levelo://app?vid=0258d84f-d9c8-4728-9e87-824cf17cee21","ios":"levelo://app?vid=0258d84f-d9c8-4728-9e87-824cf17cee21"},"vehicle_type_id":"4","last_reported":1728414371,"current_range_meters":2800,"station_id":"ce4bh512rcd13ifvqe3g","pricing_plan_id":"cebpf4jnsgd1na2vs0mg"},{"bike_id":"7f208d49-7559-4a45-b224-f4d65f25517b","system_id":"levelo_inurba_marseille","lat":43.29879,"lon":5.39726,"is_reserved":false,"is_disabled":false,"rental_uris":{"android":"levelo://app?vid=7f208d49-7559-4a45-b224-f4d65f25517b","ios":"levelo://app?vid=7f208d49-7559-4a45-b224-f4d65f25517b"},"vehicle_type_id":"4","last_reported":1728414371,"current_range_meters":8400,"station_id":"ce4bh0h2rcd13ifvqd50","pricing_plan_id":"cebpf4jnsgd1na2vs0mg"},{"bike_id":"8fa1c3fc-90ff-4c90-a3b1-d840672b1e2b","system_id":"levelo_inurba_marseille","lat":43.31709,"lon":5.43702,"is_reserved":false,"is_disabled":false,"rental_uris":{"android":"levelo://app?vid=8fa1c3fc-90ff-4c90-a3b1-d840672b1e2b","ios":"levelo://app?vid=8fa1c3fc-90ff-4c90-a3b1-d840672b1e2b"},"vehicle_type_id":"4","last_reported":1728414371,"current_range_meters":10000,"station_id":"ce4bhp92rcd13ifvqhcg","pricing_plan_id":"cebpf4jnsgd1na2vs0mg"},{"bike_id":"41b22edd-268c-4222-88bf-f8ef11dd1399","system_id":"levelo_inurba_marseille","lat":43.27999,"lon":5.40021,"is_reserved":false,"is_disabled":false,"rental_uris":{"android":"levelo://app?vid=41b22edd-268c-4222-88bf-f8ef11dd1399","ios":"levelo://app?vid=41b22edd-268c-4222-88bf-f8ef11dd1399"},"vehicle_type_id":"4","last_reported":1728414371,"current_range_meters":26000,"station_id":"ce4bho92rcd13ifvqh4g","pricing_plan_id":"cebpf4jnsgd1na2vs0mg"},{"bike_id":"5102b9e4-fde6-452f-9071-58db3beb671c","system_id":"levelo_inurba_marseille","lat":43.27998,"lon":5.40019,"is_reserved":false,"is_disabled":false,"rental_uris":{"android":"levelo://app?vid=5102b9e4-fde6-452f-9071-58db3beb671c","ios":"levelo://app?vid=5102b9e4-fde6-452f-9071-58db3beb671c"},"vehicle_type_id":"4","last_reported":1728414371,"current_range_meters":2800,"station_id":"ce4bho92rcd13ifvqh4g","pricing_plan_id":"cebpf4jnsgd1na2vs0mg"},{"bike_id":"652ea6b0-0568-4c2d-ae7b-676bb46190fb","system_id":"levelo_inurba_marseille","lat":43.29553,"lon":5.42287,"is_reserved":false,"is_disabled":false,"rental_uris":{"android":"levelo://app?vid=652ea6b0-0568-4c2d-ae7b-676bb46190fb","ios":"levelo://app?vid=652ea6b0-0568-4c2d-ae7b-676bb46190fb"},"vehicle_type_id":"4","last_reported":1728414371,"current_range_meters":9600,"station_id":"ce4bhph2rcd13ifvqhdg","pricing_plan_id":"cebpf4jnsgd1na2vs0mg"},{"bike_id":"3b80fc05-b2f9-416d-b897-bf4de0c4afc1","system_id":"levelo_inurba_marseille","lat":43.27991,"lon":5.40019,"is_reserved":false,"is_disabled":false,"rental_uris":{"android":"levelo://app?vid=3b80fc05-b2f9-416d-b897-bf4de0c4afc1","ios":"levelo://app?vid=3b80fc05-b2f9-416d-b897-bf4de0c4afc1"},"vehicle_type_id":"4","last_reported":1728414371,"current_range_meters":9600,"station_id":"ce4bho92rcd13ifvqh4g","pricing_plan_id":"cebpf4jnsgd1na2vs0mg"},{"bike_id":"9f249347-75e4-47cc-bbf5-03b5e106bc17","system_id":"levelo_inurba_marseille","lat":43.28453,"lon":5.35897,"is_reserved":false,"is_disabled":false,"rental_uris":{"android":"levelo://app?vid=9f249347-75e4-47cc-bbf5-03b5e106bc17","ios":"levelo://app?vid=9f249347-75e4-47cc-bbf5-03b5e106bc17"},"vehicle_type_id":"4","last_reported":1728414371,"current_range_meters":34000,"station_id":"ce4bhah2rcd13ifvqei0","pricing_plan_id":"cebpf4jnsgd1na2vs0mg"},{"bike_id":"4a489799-c7fc-4b6a-befb-18b51c7cac5c","system_id":"levelo_inurba_marseille","lat":43.31332,"lon":5.39693,"is_reserved":false,"is_disabled":false,"rental_uris":{"android":"levelo://app?vid=4a489799-c7fc-4b6a-befb-18b51c7cac5c","ios":"levelo://app?vid=4a489799-c7fc-4b6a-befb-18b51c7cac5c"},"vehicle_type_id":"4","last_reported":1728414371,"current_range_meters":24800,"station_id":"ce4bgvp2rcd13ifvqcu0","pricing_plan_id":"cebpf4jnsgd1na2vs0mg"},{"bike_id":"14aa3b67-793f-4fe5-8f3b-eb595e5d1c4d","system_id":"levelo_inurba_marseille","lat":43.3247,"lon":5.38999,"is_reserved":false,"is_disabled":false,"rental_uris":{"android":"levelo://app?vid=14aa3b67-793f-4fe5-8f3b-eb595e5d1c4d","ios":"levelo://app?vid=14aa3b67-793f-4fe5-8f3b-eb595e5d1c4d"},"vehicle_type_id":"4","last_reported":1728414371,"current_range_meters":18000,"station_id":"","pricing_plan_id":"cebpf4jnsgd1na2vs0mg"},{"bike_id":"e6d86d2f-929e-412d-b639-89761e6c74e0","system_id":"levelo_inurba_marseille","lat":43.337444,"lon":5.374475,"is_reserved":false,"is_disabled":false,"rental_uris":{"android":"levelo://app?vid=e6d86d2f-929e-412d-b639-89761e6c74e0","ios":"levelo://app?vid=e6d86d2f-929e-412d-b639-89761e6c74e0"},"vehicle_type_id":"4","last_reported":1728414371,"current_range_meters":28800,"station_id":"","pricing_plan_id":"cebpf4jnsgd1na2vs0mg"},{"bike_id":"d238b024-ab62-4ce1-871d-0c21a1a307a2","system_id":"levelo_inurba_marseille","lat":43.27994,"lon":5.40009,"is_reserved":false,"is_disabled":false,"rental_uris":{"android":"levelo://app?vid=d238b024-ab62-4ce1-871d-0c21a1a307a2","ios":"levelo://app?vid=d238b024-ab62-4ce1-871d-0c21a1a307a2"},"vehicle_type_id":"4","last_reported":1728414371,"current_range_meters":7200,"station_id":"ce4bho92rcd13ifvqh4g","pricing_plan_id":"cebpf4jnsgd1na2vs0mg"},{"bike_id":"a9797c8a-6123-42bd-b6c7-f4e7a29cf027","system_id":"levelo_inurba_marseille","lat":43.3248,"lon":5.36561,"is_reserved":false,"is_disabled":false,"rental_uris":{"android":"levelo://app?vid=a9797c8a-6123-42bd-b6c7-f4e7a29cf027","ios":"levelo://app?vid=a9797c8a-6123-42bd-b6c7-f4e7a29cf027"},"vehicle_type_id":"4","last_reported":1728414371,"current_range_meters":38000,"station_id":"ce4bhs12rcd13ifvqhvg","pricing_plan_id":"cebpf4jnsgd1na2vs0mg"},{"bike_id":"faa76c66-9da5-41c1-afec-f0c38264aa94","system_id":"levelo_inurba_marseille","lat":43.22932,"lon":5.3538,"is_reserved":false,"is_disabled":false,"rental_uris":{"android":"levelo://app?vid=faa76c66-9da5-41c1-afec-f0c38264aa94","ios":"levelo://app?vid=faa76c66-9da5-41c1-afec-f0c38264aa94"},"vehicle_type_id":"4","last_reported":1728414371,"current_range_meters":26800,"station_id":"cpo3532slgdg3j2ikp40","pricing_plan_id":"cebpf4jnsgd1na2vs0mg"},{"bike_id":"ee3fb93f-6ce1-4017-a20b-a68b1249cf58","system_id":"levelo_inurba_marseille","lat":43.31753,"lon":5.39017,"is_reserved":false,"is_disabled":false,"rental_uris":{"android":"levelo://app?vid=ee3fb93f-6ce1-4017-a20b-a68b1249cf58","ios":"levelo://app?vid=ee3fb93f-6ce1-4017-a20b-a68b1249cf58"},"vehicle_type_id":"4","last_reported":1728414371,"current_range_meters":32400,"station_id":"ce4bhqp2rcd13ifvqhng","pricing_plan_id":"cebpf4jnsgd1na2vs0mg"},{"bike_id":"aaaa9c8e-18c3-4178-bed9-eb45aaeb3ccd","system_id":"levelo_inurba_marseille","lat":43.33026,"lon":5.39036,"is_reserved":false,"is_disabled":false,"rental_uris":{"android":"levelo://app?vid=aaaa9c8e-18c3-4178-bed9-eb45aaeb3ccd","ios":"levelo://app?vid=aaaa9c8e-18c3-4178-bed9-eb45aaeb3ccd"},"vehicle_type_id":"4","last_reported":1728414371,"current_range_meters":22800,"station_id":"ce4bhr92rcd13ifvqhrg","pricing_plan_id":"cebpf4jnsgd1na2vs0mg"},{"bike_id":"c190b4a1-ea1d-47e2-b2e8-eefa3099f9cc","system_id":"levelo_inurba_marseille","lat":43.23193,"lon":5.35551,"is_reserved":false,"is_disabled":false,"rental_uris":{"android":"levelo://app?vid=c190b4a1-ea1d-47e2-b2e8-eefa3099f9cc","ios":"levelo://app?vid=c190b4a1-ea1d-47e2-b2e8-eefa3099f9cc"},"vehicle_type_id":"4","last_reported":1728414371,"current_range_meters":34000,"station_id":"ce4bhu92rcd13ifvqi70","pricing_plan_id":"cebpf4jnsgd1na2vs0mg"},{"bike_id":"2a75358c-c53d-4d85-b84f-ba43cbf3d3c3","system_id":"levelo_inurba_marseille","lat":43.337444,"lon":5.374475,"is_reserved":false,"is_disabled":false,"rental_uris":{"android":"levelo://app?vid=2a75358c-c53d-4d85-b84f-ba43cbf3d3c3","ios":"levelo://app?vid=2a75358c-c53d-4d85-b84f-ba43cbf3d3c3"},"vehicle_type_id":"4","last_reported":1728414371,"current_range_meters":36000,"station_id":"","pricing_plan_id":"cebpf4jnsgd1na2vs0mg"},{"bike_id":"ac58df12-f2ce-4383-9148-da362a7c68ed","system_id":"levelo_inurba_marseille","lat":43.26949,"lon":5.38629,"is_reserved":false,"is_disabled":false,"rental_uris":{"android":"levelo://app?vid=ac58df12-f2ce-4383-9148-da362a7c68ed","ios":"levelo://app?vid=ac58df12-f2ce-4383-9148-da362a7c68ed"},"vehicle_type_id":"4","last_reported":1728414371,"current_range_meters":27200,"station_id":"ce4bhh92rcd13ifvqfh0","pricing_plan_id":"cebpf4jnsgd1na2vs0mg"},{"bike_id":"c4063bb4-e98b-48fe-8a9a-6decedc0ec30","system_id":"levelo_inurba_marseille","lat":43.33019,"lon":5.39046,"is_reserved":false,"is_disabled":false,"rental_uris":{"android":"levelo://app?vid=c4063bb4-e98b-48fe-8a9a-6decedc0ec30","ios":"levelo://app?vid=c4063bb4-e98b-48fe-8a9a-6decedc0ec30"},"vehicle_type_id":"4","last_reported":1728414371,"current_range_meters":38800,"station_id":"ce4bhr92rcd13ifvqhrg","pricing_plan_id":"cebpf4jnsgd1na2vs0mg"},{"bike_id":"89a899fa-c4a3-40b8-a19a-f15ba88efe0a","system_id":"levelo_inurba_marseille","lat":43.31481,"lon":5.37306,"is_reserved":false,"is_disabled":false,"rental_uris":{"android":"levelo://app?vid=89a899fa-c4a3-40b8-a19a-f15ba88efe0a","ios":"levelo://app?vid=89a899fa-c4a3-40b8-a19a-f15ba88efe0a"},"vehicle_type_id":"4","last_reported":1728414371,"current_range_meters":30400,"station_id":"ce4bgt12rcd13ifvqcd0","pricing_plan_id":"cebpf4jnsgd1na2vs0mg"},{"bike_id":"f6a8c21d-b1f0-4240-bb8d-db34231d6f88","system_id":"levelo_inurba_marseille","lat":43.28002,"lon":5.40011,"is_reserved":false,"is_disabled":false,"rental_uris":{"android":"levelo://app?vid=f6a8c21d-b1f0-4240-bb8d-db34231d6f88","ios":"levelo://app?vid=f6a8c21d-b1f0-4240-bb8d-db34231d6f88"},"vehicle_type_id":"4","last_reported":1728414371,"current_range_meters":8400,"station_id":"ce4bho92rcd13ifvqh4g","pricing_plan_id":"cebpf4jnsgd1na2vs0mg"},{"bike_id":"444ea0a2-b471-47d3-a544-37c655a7eed3","system_id":"levelo_inurba_marseille","lat":43.2926,"lon":5.38438,"is_reserved":false,"is_disabled":false,"rental_uris":{"android":"levelo://app?vid=444ea0a2-b471-47d3-a544-37c655a7eed3","ios":"levelo://app?vid=444ea0a2-b471-47d3-a544-37c655a7eed3"},"vehicle_type_id":"4","last_reported":1728414371,"current_range_meters":36400,"station_id":"ce4bh692rcd13ifvqea0","pricing_plan_id":"cebpf4jnsgd1na2vs0mg"},{"bike_id":"1f76a312-eba0-49de-8e06-7edd4ff94e9f","system_id":"levelo_inurba_marseille","lat":43.27064,"lon":5.42278,"is_reserved":false,"is_disabled":false,"rental_uris":{"android":"levelo://app?vid=1f76a312-eba0-49de-8e06-7edd4ff94e9f","ios":"levelo://app?vid=1f76a312-eba0-49de-8e06-7edd4ff94e9f"},"vehicle_type_id":"4","last_reported":1728414371,"current_range_meters":38000,"station_id":"ce4bhk92rcd13ifvqgb0","pricing_plan_id":"cebpf4jnsgd1na2vs0mg"},{"bike_id":"3dd0e4d7-f4e6-4841-bfd7-b24937775bb1","system_id":"levelo_inurba_marseille","lat":43.28077,"lon":5.39657,"is_reserved":false,"is_disabled":false,"rental_uris":{"android":"levelo://app?vid=3dd0e4d7-f4e6-4841-bfd7-b24937775bb1","ios":"levelo://app?vid=3dd0e4d7-f4e6-4841-bfd7-b24937775bb1"},"vehicle_type_id":"4","last_reported":1728414371,"current_range_meters":8800,"station_id":"ce4bho12rcd13ifvqh2g","pricing_plan_id":"cebpf4jnsgd1na2vs0mg"},{"bike_id":"9f7d297b-7f86-4c61-acde-3b9b74500c85","system_id":"levelo_inurba_marseille","lat":43.28349,"lon":5.3811,"is_reserved":false,"is_disabled":false,"rental_uris":{"android":"levelo://app?vid=9f7d297b-7f86-4c61-acde-3b9b74500c85","ios":"levelo://app?vid=9f7d297b-7f86-4c61-acde-3b9b74500c85"},"vehicle_type_id":"4","last_reported":1728414371,"current_range_meters":14800,"station_id":"ce4bh412rcd13ifvqdr0","pricing_plan_id":"cebpf4jnsgd1na2vs0mg"},{"bike_id":"12d9157a-0426-4d97-95a6-f9e86bc15b89","system_id":"levelo_inurba_marseille","lat":43.22932,"lon":5.3538,"is_reserved":false,"is_disabled":false,"rental_uris":{"android":"levelo://app?vid=12d9157a-0426-4d97-95a6-f9e86bc15b89","ios":"levelo://app?vid=12d9157a-0426-4d97-95a6-f9e86bc15b89"},"vehicle_type_id":"4","last_reported":1728414371,"current_range_meters":24400,"station_id":"cpo3532slgdg3j2ikp40","pricing_plan_id":"cebpf4jnsgd1na2vs0mg"},{"bike_id":"9fe733a9-877b-4cdc-ae6f-b8acc662c3f3","system_id":"levelo_inurba_marseille","lat":43.29865,"lon":5.38904,"is_reserved":false,"is_disabled":false,"rental_uris":{"android":"levelo://app?vid=9fe733a9-877b-4cdc-ae6f-b8acc662c3f3","ios":"levelo://app?vid=9fe733a9-877b-4cdc-ae6f-b8acc662c3f3"},"vehicle_type_id":"4","last_reported":1728414371,"current_range_meters":39200,"station_id":"ce4bh392rcd13ifvqdl0","pricing_plan_id":"cebpf4jnsgd1na2vs0mg"},{"bike_id":"000e46b4-74c7-4956-8887-4004c2527d6b","system_id":"levelo_inurba_marseille","lat":43.27994,"lon":5.40008,"is_reserved":false,"is_disabled":false,"rental_uris":{"android":"levelo://app?vid=000e46b4-74c7-4956-8887-4004c2527d6b","ios":"levelo://app?vid=000e46b4-74c7-4956-8887-4004c2527d6b"},"vehicle_type_id":"4","last_reported":1728414371,"current_range_meters":38800,"station_id":"ce4bho92rcd13ifvqh4g","pricing_plan_id":"cebpf4jnsgd1na2vs0mg"},{"bike_id":"b625834a-54ef-4eab-8c9d-e8c85e149a97","system_id":"levelo_inurba_marseille","lat":43.31081,"lon":5.4243,"is_reserved":false,"is_disabled":false,"rental_uris":{"android":"levelo://app?vid=b625834a-54ef-4eab-8c9d-e8c85e149a97","ios":"levelo://app?vid=b625834a-54ef-4eab-8c9d-e8c85e149a97"},"vehicle_type_id":"4","last_reported":1728414371,"current_range_meters":36400,"station_id":"ce4bhp92rcd13ifvqhag","pricing_plan_id":"cebpf4jnsgd1na2vs0mg"},{"bike_id":"870c0672-a714-434c-9dd0-239fa399cf34","system_id":"levelo_inurba_marseille","lat":43.33022,"lon":5.39043,"is_reserved":false,"is_disabled":false,"rental_uris":{"android":"levelo://app?vid=870c0672-a714-434c-9dd0-239fa399cf34","ios":"levelo://app?vid=870c0672-a714-434c-9dd0-239fa399cf34"},"vehicle_type_id":"4","last_reported":1728414371,"current_range_meters":24000,"station_id":"ce4bhr92rcd13ifvqhrg","pricing_plan_id":"cebpf4jnsgd1na2vs0mg"},{"bike_id":"a195b9a0-6c51-4858-a719-77b417937247","system_id":"levelo_inurba_marseille","lat":43.27998,"lon":5.40002,"is_reserved":false,"is_disabled":false,"rental_uris":{"android":"levelo://app?vid=a195b9a0-6c51-4858-a719-77b417937247","ios":"levelo://app?vid=a195b9a0-6c51-4858-a719-77b417937247"},"vehicle_type_id":"4","last_reported":1728414371,"current_range_meters":35200,"station_id":"ce4bho92rcd13ifvqh4g","pricing_plan_id":"cebpf4jnsgd1na2vs0mg"},{"bike_id":"d33c4881-91bb-42d7-a2eb-87cf28e6c9e3","system_id":"levelo_inurba_marseille","lat":43.3025,"lon":5.39722,"is_reserved":false,"is_disabled":false,"rental_uris":{"android":"levelo://app?vid=d33c4881-91bb-42d7-a2eb-87cf28e6c9e3","ios":"levelo://app?vid=d33c4881-91bb-42d7-a2eb-87cf28e6c9e3"},"vehicle_type_id":"4","last_reported":1728414371,"current_range_meters":8400,"station_id":"ce4bh0h2rcd13ifvqd40","pricing_plan_id":"cebpf4jnsgd1na2vs0mg"},{"bike_id":"73560695-cc16-422f-ab21-232015a7230a","system_id":"levelo_inurba_marseille","lat":43.30218,"lon":5.36594,"is_reserved":false,"is_disabled":false,"rental_uris":{"android":"levelo://app?vid=73560695-cc16-422f-ab21-232015a7230a","ios":"levelo://app?vid=73560695-cc16-422f-ab21-232015a7230a"},"vehicle_type_id":"4","last_reported":1728414371,"current_range_meters":34800,"station_id":"ce4bgrh2rcd13ifvqc8g","pricing_plan_id":"cebpf4jnsgd1na2vs0mg"},{"bike_id":"d9e39179-8de8-4225-b4c8-d5a25ab41d81","system_id":"levelo_inurba_marseille","lat":43.27974,"lon":5.38724,"is_reserved":false,"is_disabled":false,"rental_uris":{"android":"levelo://app?vid=d9e39179-8de8-4225-b4c8-d5a25ab41d81","ios":"levelo://app?vid=d9e39179-8de8-4225-b4c8-d5a25ab41d81"},"vehicle_type_id":"4","last_reported":1728414371,"current_range_meters":16000,"station_id":"ce4bhg12rcd13ifvqf80","pricing_plan_id":"cebpf4jnsgd1na2vs0mg"},{"bike_id":"99d3f09b-e871-488d-ad7c-10f1aa21d02f","system_id":"levelo_inurba_marseille","lat":43.29425,"lon":5.38318,"is_reserved":false,"is_disabled":false,"rental_uris":{"android":"levelo://app?vid=99d3f09b-e871-488d-ad7c-10f1aa21d02f","ios":"levelo://app?vid=99d3f09b-e871-488d-ad7c-10f1aa21d02f"},"vehicle_type_id":"4","last_reported":1728414371,"current_range_meters":7200,"station_id":"","pricing_plan_id":"cebpf4jnsgd1na2vs0mg"},{"bike_id":"5dcd6a35-5bbc-4ae3-aa64-8828e87520d7","system_id":"levelo_inurba_marseille","lat":43.30927,"lon":5.40146,"is_reserved":false,"is_disabled":false,"rental_uris":{"android":"levelo://app?vid=5dcd6a35-5bbc-4ae3-aa64-8828e87520d7","ios":"levelo://app?vid=5dcd6a35-5bbc-4ae3-aa64-8828e87520d7"},"vehicle_type_id":"4","last_reported":1728414371,"current_range_meters":18000,"station_id":"ce4bgvp2rcd13ifvqct0","pricing_plan_id":"cebpf4jnsgd1na2vs0mg"},{"bike_id":"2ab6354b-4e96-43be-aedc-8cc67130aacd","system_id":"levelo_inurba_marseille","lat":43.30312,"lon":5.40435,"is_reserved":false,"is_disabled":false,"rental_uris":{"android":"levelo://app?vid=2ab6354b-4e96-43be-aedc-8cc67130aacd","ios":"levelo://app?vid=2ab6354b-4e96-43be-aedc-8cc67130aacd"},"vehicle_type_id":"4","last_reported":1728414371,"current_range_meters":36800,"station_id":"ce4bh012rcd13ifvqd10","pricing_plan_id":"cebpf4jnsgd1na2vs0mg"},{"bike_id":"84226d3c-c938-4a17-9f0e-1919f4cae521","system_id":"levelo_inurba_marseille","lat":43.30097,"lon":5.39084,"is_reserved":false,"is_disabled":false,"rental_uris":{"android":"levelo://app?vid=84226d3c-c938-4a17-9f0e-1919f4cae521","ios":"levelo://app?vid=84226d3c-c938-4a17-9f0e-1919f4cae521"},"vehicle_type_id":"4","last_reported":1728414371,"current_range_meters":25200,"station_id":"ce4bh192rcd13ifvqdb0","pricing_plan_id":"cebpf4jnsgd1na2vs0mg"},{"bike_id":"67ecbf11-d641-4a7f-9c31-0e80e2ac399a","system_id":"levelo_inurba_marseille","lat":43.29597,"lon":5.38099,"is_reserved":false,"is_disabled":false,"rental_uris":{"android":"levelo://app?vid=67ecbf11-d641-4a7f-9c31-0e80e2ac399a","ios":"levelo://app?vid=67ecbf11-d641-4a7f-9c31-0e80e2ac399a"},"vehicle_type_id":"4","last_reported":1728414371,"current_range_meters":25600,"station_id":"ce4bgl12rcd13ifvqbo0","pricing_plan_id":"cebpf4jnsgd1na2vs0mg"},{"bike_id":"9ba026fb-93fd-4cde-96f7-ba6343649ef3","system_id":"levelo_inurba_marseille","lat":43.296123,"lon":5.371558,"is_reserved":false,"is_disabled":false,"rental_uris":{"android":"levelo://app?vid=9ba026fb-93fd-4cde-96f7-ba6343649ef3","ios":"levelo://app?vid=9ba026fb-93fd-4cde-96f7-ba6343649ef3"},"vehicle_type_id":"4","last_reported":1728414371,"current_range_meters":30800,"station_id":"ce4bgnh2rcd13ifvqc0g","pricing_plan_id":"cebpf4jnsgd1na2vs0mg"},{"bike_id":"bc865ca1-2a5b-44fe-b3dd-04aadccb155c","system_id":"levelo_inurba_marseille","lat":43.26799,"lon":5.4027,"is_reserved":false,"is_disabled":false,"rental_uris":{"android":"levelo://app?vid=bc865ca1-2a5b-44fe-b3dd-04aadccb155c","ios":"levelo://app?vid=bc865ca1-2a5b-44fe-b3dd-04aadccb155c"},"vehicle_type_id":"4","last_reported":1728414371,"current_range_meters":26800,"station_id":"ce501612rcd8frsf0b60","pricing_plan_id":"cebpf4jnsgd1na2vs0mg"},{"bike_id":"b56e757a-0b37-419b-a510-6470b253d023","system_id":"levelo_inurba_marseille","lat":43.31071,"lon":5.38346,"is_reserved":false,"is_disabled":false,"rental_uris":{"android":"levelo://app?vid=b56e757a-0b37-419b-a510-6470b253d023","ios":"levelo://app?vid=b56e757a-0b37-419b-a510-6470b253d023"},"vehicle_type_id":"4","last_reported":1728414371,"current_range_meters":9600,"station_id":"ce4bgv92rcd13ifvqcr0","pricing_plan_id":"cebpf4jnsgd1na2vs0mg"},{"bike_id":"f2b75fa6-514c-427b-a3e0-4b73644e7188","system_id":"levelo_inurba_marseille","lat":43.28455,"lon":5.3589,"is_reserved":false,"is_disabled":false,"rental_uris":{"android":"levelo://app?vid=f2b75fa6-514c-427b-a3e0-4b73644e7188","ios":"levelo://app?vid=f2b75fa6-514c-427b-a3e0-4b73644e7188"},"vehicle_type_id":"4","last_reported":1728414371,"current_range_meters":25200,"station_id":"ce4bhah2rcd13ifvqei0","pricing_plan_id":"cebpf4jnsgd1na2vs0mg"},{"bike_id":"2920fcf8-cd0d-44c4-9deb-cbec5543bae7","system_id":"levelo_inurba_marseille","lat":43.25106,"lon":5.40324,"is_reserved":false,"is_disabled":false,"rental_uris":{"android":"levelo://app?vid=2920fcf8-cd0d-44c4-9deb-cbec5543bae7","ios":"levelo://app?vid=2920fcf8-cd0d-44c4-9deb-cbec5543bae7"},"vehicle_type_id":"4","last_reported":1728414371,"current_range_meters":25200,"station_id":"ce4bhlh2rcd13ifvqgig","pricing_plan_id":"cebpf4jnsgd1na2vs0mg"},{"bike_id":"923a0dd8-b6af-4d3e-94ef-c01a437429fa","system_id":"levelo_inurba_marseille","lat":43.26577,"lon":5.39012,"is_reserved":false,"is_disabled":false,"rental_uris":{"android":"levelo://app?vid=923a0dd8-b6af-4d3e-94ef-c01a437429fa","ios":"levelo://app?vid=923a0dd8-b6af-4d3e-94ef-c01a437429fa"},"vehicle_type_id":"4","last_reported":1728414371,"current_range_meters":4800,"station_id":"ce4bhe12rcd13ifvqf30","pricing_plan_id":"cebpf4jnsgd1na2vs0mg"},{"bike_id":"91ce8dff-dfab-4c51-9775-366b4dcbdcfe","system_id":"levelo_inurba_marseille","lat":43.28153,"lon":5.42644,"is_reserved":false,"is_disabled":false,"rental_uris":{"android":"levelo://app?vid=91ce8dff-dfab-4c51-9775-366b4dcbdcfe","ios":"levelo://app?vid=91ce8dff-dfab-4c51-9775-366b4dcbdcfe"},"vehicle_type_id":"4","last_reported":1728414371,"current_range_meters":17200,"station_id":"ce4bhnh2rcd13ifvqgug","pricing_plan_id":"cebpf4jnsgd1na2vs0mg"},{"bike_id":"7e8f0b3a-c809-43cb-b623-07a32f6abc64","system_id":"levelo_inurba_marseille","lat":43.27427,"lon":5.3942,"is_reserved":false,"is_disabled":false,"rental_uris":{"android":"levelo://app?vid=7e8f0b3a-c809-43cb-b623-07a32f6abc64","ios":"levelo://app?vid=7e8f0b3a-c809-43cb-b623-07a32f6abc64"},"vehicle_type_id":"4","last_reported":1728414371,"current_range_meters":18000,"station_id":"ce4bhdp2rcd13ifvqf20","pricing_plan_id":"cebpf4jnsgd1na2vs0mg"},{"bike_id":"ed1413a9-96b7-4463-bc73-aa0381b7f72c","system_id":"levelo_inurba_marseille","lat":43.30442,"lon":5.3975,"is_reserved":false,"is_disabled":false,"rental_uris":{"android":"levelo://app?vid=ed1413a9-96b7-4463-bc73-aa0381b7f72c","ios":"levelo://app?vid=ed1413a9-96b7-4463-bc73-aa0381b7f72c"},"vehicle_type_id":"4","last_reported":1728414371,"current_range_meters":12000,"station_id":"ce4bh092rcd13ifvqd20","pricing_plan_id":"cebpf4jnsgd1na2vs0mg"},{"bike_id":"650ab51e-7370-4612-a6a3-3dcbba4ae599","system_id":"levelo_inurba_marseille","lat":43.28618,"lon":5.35104,"is_reserved":false,"is_disabled":false,"rental_uris":{"android":"levelo://app?vid=650ab51e-7370-4612-a6a3-3dcbba4ae599","ios":"levelo://app?vid=650ab51e-7370-4612-a6a3-3dcbba4ae599"},"vehicle_type_id":"4","last_reported":1728414371,"current_range_meters":38800,"station_id":"ce4bhch2rcd13ifvqeug","pricing_plan_id":"cebpf4jnsgd1na2vs0mg"},{"bike_id":"fbab334e-6568-46ac-88f7-b856d9d2d598","system_id":"levelo_inurba_marseille","lat":43.23191,"lon":5.35562,"is_reserved":false,"is_disabled":false,"rental_uris":{"android":"levelo://app?vid=fbab334e-6568-46ac-88f7-b856d9d2d598","ios":"levelo://app?vid=fbab334e-6568-46ac-88f7-b856d9d2d598"},"vehicle_type_id":"4","last_reported":1728414371,"current_range_meters":38800,"station_id":"ce4bhu92rcd13ifvqi70","pricing_plan_id":"cebpf4jnsgd1na2vs0mg"},{"bike_id":"b0aac41a-ec46-4c6b-b22c-4a6f20a66d57","system_id":"levelo_inurba_marseille","lat":43.29274,"lon":5.38448,"is_reserved":false,"is_disabled":false,"rental_uris":{"android":"levelo://app?vid=b0aac41a-ec46-4c6b-b22c-4a6f20a66d57","ios":"levelo://app?vid=b0aac41a-ec46-4c6b-b22c-4a6f20a66d57"},"vehicle_type_id":"4","last_reported":1728414371,"current_range_meters":8400,"station_id":"ce4bh692rcd13ifvqea0","pricing_plan_id":"cebpf4jnsgd1na2vs0mg"},{"bike_id":"f324c31d-bea1-4417-aa1d-92e7cb0279b3","system_id":"levelo_inurba_marseille","lat":43.29081,"lon":5.37162,"is_reserved":false,"is_disabled":false,"rental_uris":{"android":"levelo://app?vid=f324c31d-bea1-4417-aa1d-92e7cb0279b3","ios":"levelo://app?vid=f324c31d-bea1-4417-aa1d-92e7cb0279b3"},"vehicle_type_id":"4","last_reported":1728414371,"current_range_meters":34000,"station_id":"ce4bh5p2rcd13ifvqe4g","pricing_plan_id":"cebpf4jnsgd1na2vs0mg"},{"bike_id":"43f7b58b-85c1-4071-a399-7127ef5bad95","system_id":"levelo_inurba_marseille","lat":43.26314,"lon":5.40456,"is_reserved":false,"is_disabled":false,"rental_uris":{"android":"levelo://app?vid=43f7b58b-85c1-4071-a399-7127ef5bad95","ios":"levelo://app?vid=43f7b58b-85c1-4071-a399-7127ef5bad95"},"vehicle_type_id":"4","last_reported":1728414371,"current_range_meters":33600,"station_id":"","pricing_plan_id":"cebpf4jnsgd1na2vs0mg"},{"bike_id":"237b0d7f-492c-4f0f-b630-e8593416d776","system_id":"levelo_inurba_marseille","lat":43.31486,"lon":5.37308,"is_reserved":false,"is_disabled":false,"rental_uris":{"android":"levelo://app?vid=237b0d7f-492c-4f0f-b630-e8593416d776","ios":"levelo://app?vid=237b0d7f-492c-4f0f-b630-e8593416d776"},"vehicle_type_id":"4","last_reported":1728414371,"current_range_meters":14800,"station_id":"ce4bgt12rcd13ifvqcd0","pricing_plan_id":"cebpf4jnsgd1na2vs0mg"},{"bike_id":"0b70c034-d92a-4e2b-b5c2-d3b65bb8f9c7","system_id":"levelo_inurba_marseille","lat":43.24073,"lon":5.37765,"is_reserved":false,"is_disabled":false,"rental_uris":{"android":"levelo://app?vid=0b70c034-d92a-4e2b-b5c2-d3b65bb8f9c7","ios":"levelo://app?vid=0b70c034-d92a-4e2b-b5c2-d3b65bb8f9c7"},"vehicle_type_id":"4","last_reported":1728414371,"current_range_meters":15200,"station_id":"ce4bhnp2rcd13ifvqgvg","pricing_plan_id":"cebpf4jnsgd1na2vs0mg"},{"bike_id":"10618fac-7e9b-48ad-a67d-2c44ef578753","system_id":"levelo_inurba_marseille","lat":43.30933,"lon":5.4014,"is_reserved":false,"is_disabled":false,"rental_uris":{"android":"levelo://app?vid=10618fac-7e9b-48ad-a67d-2c44ef578753","ios":"levelo://app?vid=10618fac-7e9b-48ad-a67d-2c44ef578753"},"vehicle_type_id":"4","last_reported":1728414371,"current_range_meters":3600,"station_id":"ce4bgvp2rcd13ifvqct0","pricing_plan_id":"cebpf4jnsgd1na2vs0mg"},{"bike_id":"4ac167e8-9680-4075-a60b-124e1bdede2e","system_id":"levelo_inurba_marseille","lat":43.31716,"lon":5.43707,"is_reserved":false,"is_disabled":false,"rental_uris":{"android":"levelo://app?vid=4ac167e8-9680-4075-a60b-124e1bdede2e","ios":"levelo://app?vid=4ac167e8-9680-4075-a60b-124e1bdede2e"},"vehicle_type_id":"4","last_reported":1728414371,"current_range_meters":26800,"station_id":"ce4bhp92rcd13ifvqhcg","pricing_plan_id":"cebpf4jnsgd1na2vs0mg"},{"bike_id":"a5f47d75-e503-488a-90bc-5639e7c31512","system_id":"levelo_inurba_marseille","lat":43.29028,"lon":5.35918,"is_reserved":false,"is_disabled":false,"rental_uris":{"android":"levelo://app?vid=a5f47d75-e503-488a-90bc-5639e7c31512","ios":"levelo://app?vid=a5f47d75-e503-488a-90bc-5639e7c31512"},"vehicle_type_id":"4","last_reported":1728414371,"current_range_meters":8000,"station_id":"ce4bha92rcd13ifvqeg0","pricing_plan_id":"cebpf4jnsgd1na2vs0mg"},{"bike_id":"ac63b881-53ef-4e4b-b5e6-9f4914bcf168","system_id":"levelo_inurba_marseille","lat":43.23057,"lon":5.35491,"is_reserved":false,"is_disabled":false,"rental_uris":{"android":"levelo://app?vid=ac63b881-53ef-4e4b-b5e6-9f4914bcf168","ios":"levelo://app?vid=ac63b881-53ef-4e4b-b5e6-9f4914bcf168"},"vehicle_type_id":"4","last_reported":1728414371,"current_range_meters":29600,"station_id":"cpo3342slgdg3j2ifvpg","pricing_plan_id":"cebpf4jnsgd1na2vs0mg"},{"bike_id":"a185443f-1207-408b-8c72-393a999c91bf","system_id":"levelo_inurba_marseille","lat":43.23962,"lon":5.36638,"is_reserved":false,"is_disabled":false,"rental_uris":{"android":"levelo://app?vid=a185443f-1207-408b-8c72-393a999c91bf","ios":"levelo://app?vid=a185443f-1207-408b-8c72-393a999c91bf"},"vehicle_type_id":"4","last_reported":1728414371,"current_range_meters":22400,"station_id":"ce4bhi12rcd13ifvqfp0","pricing_plan_id":"cebpf4jnsgd1na2vs0mg"},{"bike_id":"b51f6dd3-f252-45d5-99c1-5e087466c27f","system_id":"levelo_inurba_marseille","lat":43.293799,"lon":5.378516,"is_reserved":false,"is_disabled":false,"rental_uris":{"android":"levelo://app?vid=b51f6dd3-f252-45d5-99c1-5e087466c27f","ios":"levelo://app?vid=b51f6dd3-f252-45d5-99c1-5e087466c27f"},"vehicle_type_id":"4","last_reported":1728414371,"current_range_meters":12800,"station_id":"ce4bgjh2rcd13ifvqbf0","pricing_plan_id":"cebpf4jnsgd1na2vs0mg"},{"bike_id":"adac92ca-0bd4-4038-ac77-dd12e83eb9b8","system_id":"levelo_inurba_marseille","lat":43.30206,"lon":5.39466,"is_reserved":false,"is_disabled":false,"rental_uris":{"android":"levelo://app?vid=adac92ca-0bd4-4038-ac77-dd12e83eb9b8","ios":"levelo://app?vid=adac92ca-0bd4-4038-ac77-dd12e83eb9b8"},"vehicle_type_id":"4","last_reported":1728414371,"current_range_meters":28800,"station_id":"ce4bh0p2rcd13ifvqd70","pricing_plan_id":"cebpf4jnsgd1na2vs0mg"},{"bike_id":"d32ec491-e597-4b17-83fb-b15970464931","system_id":"levelo_inurba_marseille","lat":43.30133,"lon":5.38778,"is_reserved":false,"is_disabled":false,"rental_uris":{"android":"levelo://app?vid=d32ec491-e597-4b17-83fb-b15970464931","ios":"levelo://app?vid=d32ec491-e597-4b17-83fb-b15970464931"},"vehicle_type_id":"4","last_reported":1728414371,"current_range_meters":25600,"station_id":"ce4bghh2rcd13ifvqb60","pricing_plan_id":"cebpf4jnsgd1na2vs0mg"},{"bike_id":"e6c76516-ee72-48da-b3af-383023651ea6","system_id":"levelo_inurba_marseille","lat":43.29793,"lon":5.40396,"is_reserved":false,"is_disabled":false,"rental_uris":{"android":"levelo://app?vid=e6c76516-ee72-48da-b3af-383023651ea6","ios":"levelo://app?vid=e6c76516-ee72-48da-b3af-383023651ea6"},"vehicle_type_id":"4","last_reported":1728414371,"current_range_meters":30800,"station_id":"ce4bh112rcd13ifvqd90","pricing_plan_id":"cebpf4jnsgd1na2vs0mg"},{"bike_id":"e40cb1fd-913e-4524-b6d3-3ee01e26d072","system_id":"levelo_inurba_marseille","lat":43.2842,"lon":5.34989,"is_reserved":false,"is_disabled":false,"rental_uris":{"android":"levelo://app?vid=e40cb1fd-913e-4524-b6d3-3ee01e26d072","ios":"levelo://app?vid=e40cb1fd-913e-4524-b6d3-3ee01e26d072"},"vehicle_type_id":"4","last_reported":1728414371,"current_range_meters":38800,"station_id":"ce4bhbh2rcd13ifvqepg","pricing_plan_id":"cebpf4jnsgd1na2vs0mg"},{"bike_id":"7159f41a-8ecc-483e-87ba-ef8be92e143e","system_id":"levelo_inurba_marseille","lat":43.29329,"lon":5.40373,"is_reserved":false,"is_disabled":false,"rental_uris":{"android":"levelo://app?vid=7159f41a-8ecc-483e-87ba-ef8be92e143e","ios":"levelo://app?vid=7159f41a-8ecc-483e-87ba-ef8be92e143e"},"vehicle_type_id":"4","last_reported":1728414371,"current_range_meters":25600,"station_id":"","pricing_plan_id":"cebpf4jnsgd1na2vs0mg"},{"bike_id":"923f6136-540e-45bb-926f-0ee0d11e3eea","system_id":"levelo_inurba_marseille","lat":43.31681,"lon":5.40473,"is_reserved":false,"is_disabled":false,"rental_uris":{"android":"levelo://app?vid=923f6136-540e-45bb-926f-0ee0d11e3eea","ios":"levelo://app?vid=923f6136-540e-45bb-926f-0ee0d11e3eea"},"vehicle_type_id":"4","last_reported":1728414371,"current_range_meters":31200,"station_id":"ce4bh012rcd13ifvqd00","pricing_plan_id":"cebpf4jnsgd1na2vs0mg"},{"bike_id":"ee3f614b-373b-449c-a58d-35e47f5eafd2","system_id":"levelo_inurba_marseille","lat":43.23194,"lon":5.35549,"is_reserved":false,"is_disabled":false,"rental_uris":{"android":"levelo://app?vid=ee3f614b-373b-449c-a58d-35e47f5eafd2","ios":"levelo://app?vid=ee3f614b-373b-449c-a58d-35e47f5eafd2"},"vehicle_type_id":"4","last_reported":1728414371,"current_range_meters":6400,"station_id":"ce4bhu92rcd13ifvqi70","pricing_plan_id":"cebpf4jnsgd1na2vs0mg"},{"bike_id":"7b5b0940-bdce-4220-9c36-75767a888c17","system_id":"levelo_inurba_marseille","lat":43.27995,"lon":5.40004,"is_reserved":false,"is_disabled":false,"rental_uris":{"android":"levelo://app?vid=7b5b0940-bdce-4220-9c36-75767a888c17","ios":"levelo://app?vid=7b5b0940-bdce-4220-9c36-75767a888c17"},"vehicle_type_id":"4","last_reported":1728414371,"current_range_meters":36400,"station_id":"ce4bho92rcd13ifvqh4g","pricing_plan_id":"cebpf4jnsgd1na2vs0mg"},{"bike_id":"9e3fe2e1-eca8-4201-b615-2eaf2b4dc3f2","system_id":"levelo_inurba_marseille","lat":43.23196,"lon":5.35552,"is_reserved":false,"is_disabled":false,"rental_uris":{"android":"levelo://app?vid=9e3fe2e1-eca8-4201-b615-2eaf2b4dc3f2","ios":"levelo://app?vid=9e3fe2e1-eca8-4201-b615-2eaf2b4dc3f2"},"vehicle_type_id":"4","last_reported":1728414371,"current_range_meters":36800,"station_id":"ce4bhu92rcd13ifvqi70","pricing_plan_id":"cebpf4jnsgd1na2vs0mg"},{"bike_id":"e46c9b12-1f63-4350-9657-2b25bef55abb","system_id":"levelo_inurba_marseille","lat":43.25491,"lon":5.3765,"is_reserved":false,"is_disabled":false,"rental_uris":{"android":"levelo://app?vid=e46c9b12-1f63-4350-9657-2b25bef55abb","ios":"levelo://app?vid=e46c9b12-1f63-4350-9657-2b25bef55abb"},"vehicle_type_id":"4","last_reported":1728414371,"current_range_meters":36400,"station_id":"ce4bhh12rcd13ifvqff0","pricing_plan_id":"cebpf4jnsgd1na2vs0mg"},{"bike_id":"a62e60d5-76e9-4d97-8bc0-b9f335121f55","system_id":"levelo_inurba_marseille","lat":43.3172,"lon":5.42401,"is_reserved":false,"is_disabled":false,"rental_uris":{"android":"levelo://app?vid=a62e60d5-76e9-4d97-8bc0-b9f335121f55","ios":"levelo://app?vid=a62e60d5-76e9-4d97-8bc0-b9f335121f55"},"vehicle_type_id":"4","last_reported":1728414371,"current_range_meters":10800,"station_id":"ce4bhp92rcd13ifvqhbg","pricing_plan_id":"cebpf4jnsgd1na2vs0mg"},{"bike_id":"7da3e4b2-7f14-4de1-84fe-a8d5a4f793da","system_id":"levelo_inurba_marseille","lat":43.30801,"lon":5.43521,"is_reserved":false,"is_disabled":false,"rental_uris":{"android":"levelo://app?vid=7da3e4b2-7f14-4de1-84fe-a8d5a4f793da","ios":"levelo://app?vid=7da3e4b2-7f14-4de1-84fe-a8d5a4f793da"},"vehicle_type_id":"4","last_reported":1728414371,"current_range_meters":26800,"station_id":"ce4bhph2rcd13ifvqheg","pricing_plan_id":"cebpf4jnsgd1na2vs0mg"},{"bike_id":"dfc21774-e7c6-4759-ad88-2058278088ac","system_id":"levelo_inurba_marseille","lat":43.3153,"lon":5.38031,"is_reserved":false,"is_disabled":false,"rental_uris":{"android":"levelo://app?vid=dfc21774-e7c6-4759-ad88-2058278088ac","ios":"levelo://app?vid=dfc21774-e7c6-4759-ad88-2058278088ac"},"vehicle_type_id":"4","last_reported":1728414371,"current_range_meters":38800,"station_id":"ce4bhsp2rcd13ifvqi50","pricing_plan_id":"cebpf4jnsgd1na2vs0mg"},{"bike_id":"aa633575-e98c-4b00-80a5-6db29a8438f8","system_id":"levelo_inurba_marseille","lat":43.29549,"lon":5.42284,"is_reserved":false,"is_disabled":false,"rental_uris":{"android":"levelo://app?vid=aa633575-e98c-4b00-80a5-6db29a8438f8","ios":"levelo://app?vid=aa633575-e98c-4b00-80a5-6db29a8438f8"},"vehicle_type_id":"4","last_reported":1728414371,"current_range_meters":39200,"station_id":"ce4bhph2rcd13ifvqhdg","pricing_plan_id":"cebpf4jnsgd1na2vs0mg"},{"bike_id":"8b10cb9f-15d9-4eb9-a18e-896430cdcbda","system_id":"levelo_inurba_marseille","lat":43.32033,"lon":5.40822,"is_reserved":false,"is_disabled":false,"rental_uris":{"android":"levelo://app?vid=8b10cb9f-15d9-4eb9-a18e-896430cdcbda","ios":"levelo://app?vid=8b10cb9f-15d9-4eb9-a18e-896430cdcbda"},"vehicle_type_id":"4","last_reported":1728414371,"current_range_meters":27600,"station_id":"ce4bhq92rcd13ifvqhjg","pricing_plan_id":"cebpf4jnsgd1na2vs0mg"},{"bike_id":"1ed5e428-910d-45ef-8800-bd57d7ef8ae5","system_id":"levelo_inurba_marseille","lat":43.313284,"lon":5.396997,"is_reserved":false,"is_disabled":false,"rental_uris":{"android":"levelo://app?vid=1ed5e428-910d-45ef-8800-bd57d7ef8ae5","ios":"levelo://app?vid=1ed5e428-910d-45ef-8800-bd57d7ef8ae5"},"vehicle_type_id":"4","last_reported":1728414371,"current_range_meters":39200,"station_id":"ce4bgvp2rcd13ifvqcu0","pricing_plan_id":"cebpf4jnsgd1na2vs0mg"},{"bike_id":"6fb0f3df-00f7-4cd7-83ce-4768723133bf","system_id":"levelo_inurba_marseille","lat":43.29922,"lon":5.38515,"is_reserved":false,"is_disabled":false,"rental_uris":{"android":"levelo://app?vid=6fb0f3df-00f7-4cd7-83ce-4768723133bf","ios":"levelo://app?vid=6fb0f3df-00f7-4cd7-83ce-4768723133bf"},"vehicle_type_id":"4","last_reported":1728414371,"current_range_meters":9600,"station_id":"","pricing_plan_id":"cebpf4jnsgd1na2vs0mg"},{"bike_id":"ff3d256e-b83f-4b50-bcdf-8cbbb0159b40","system_id":"levelo_inurba_marseille","lat":43.25823,"lon":5.38865,"is_reserved":false,"is_disabled":false,"rental_uris":{"android":"levelo://app?vid=ff3d256e-b83f-4b50-bcdf-8cbbb0159b40","ios":"levelo://app?vid=ff3d256e-b83f-4b50-bcdf-8cbbb0159b40"},"vehicle_type_id":"4","last_reported":1728414371,"current_range_meters":33200,"station_id":"","pricing_plan_id":"cebpf4jnsgd1na2vs0mg"},{"bike_id":"c6f0f0e6-ff23-434a-aa40-c657d08769f8","system_id":"levelo_inurba_marseille","lat":43.33022,"lon":5.39036,"is_reserved":false,"is_disabled":false,"rental_uris":{"android":"levelo://app?vid=c6f0f0e6-ff23-434a-aa40-c657d08769f8","ios":"levelo://app?vid=c6f0f0e6-ff23-434a-aa40-c657d08769f8"},"vehicle_type_id":"4","last_reported":1728414371,"current_range_meters":39200,"station_id":"ce4bhqp2rcd13ifvqhng","pricing_plan_id":"cebpf4jnsgd1na2vs0mg"},{"bike_id":"edde507b-e30d-4ff3-8233-4743ca5a577a","system_id":"levelo_inurba_marseille","lat":43.28703,"lon":5.37391,"is_reserved":false,"is_disabled":false,"rental_uris":{"android":"levelo://app?vid=edde507b-e30d-4ff3-8233-4743ca5a577a","ios":"levelo://app?vid=edde507b-e30d-4ff3-8233-4743ca5a577a"},"vehicle_type_id":"4","last_reported":1728414371,"current_range_meters":38400,"station_id":"ce4bh3p2rcd13ifvqdq0","pricing_plan_id":"cebpf4jnsgd1na2vs0mg"},{"bike_id":"ff9250df-f516-49d1-8071-1b76513ac848","system_id":"levelo_inurba_marseille","lat":43.32478,"lon":5.36566,"is_reserved":false,"is_disabled":false,"rental_uris":{"android":"levelo://app?vid=ff9250df-f516-49d1-8071-1b76513ac848","ios":"levelo://app?vid=ff9250df-f516-49d1-8071-1b76513ac848"},"vehicle_type_id":"4","last_reported":1728414371,"current_range_meters":36400,"station_id":"ce4bhs12rcd13ifvqhvg","pricing_plan_id":"cebpf4jnsgd1na2vs0mg"},{"bike_id":"75e41d57-7cd3-4c6a-8a4c-56ceb6f9a881","system_id":"levelo_inurba_marseille","lat":43.28461,"lon":5.35883,"is_reserved":false,"is_disabled":false,"rental_uris":{"android":"levelo://app?vid=75e41d57-7cd3-4c6a-8a4c-56ceb6f9a881","ios":"levelo://app?vid=75e41d57-7cd3-4c6a-8a4c-56ceb6f9a881"},"vehicle_type_id":"4","last_reported":1728414371,"current_range_meters":36800,"station_id":"ce4bhah2rcd13ifvqei0","pricing_plan_id":"cebpf4jnsgd1na2vs0mg"},{"bike_id":"1027f6bf-9b3c-41af-9f81-0c58d1959e85","system_id":"levelo_inurba_marseille","lat":43.2862,"lon":5.35102,"is_reserved":false,"is_disabled":false,"rental_uris":{"android":"levelo://app?vid=1027f6bf-9b3c-41af-9f81-0c58d1959e85","ios":"levelo://app?vid=1027f6bf-9b3c-41af-9f81-0c58d1959e85"},"vehicle_type_id":"4","last_reported":1728414371,"current_range_meters":24800,"station_id":"ce4bhch2rcd13ifvqeug","pricing_plan_id":"cebpf4jnsgd1na2vs0mg"},{"bike_id":"2e8e4567-7336-4973-8476-66cf2e53b157","system_id":"levelo_inurba_marseille","lat":43.248253,"lon":5.374682,"is_reserved":false,"is_disabled":false,"rental_uris":{"android":"levelo://app?vid=2e8e4567-7336-4973-8476-66cf2e53b157","ios":"levelo://app?vid=2e8e4567-7336-4973-8476-66cf2e53b157"},"vehicle_type_id":"4","last_reported":1728414371,"current_range_meters":22000,"station_id":"ce4bhgh2rcd13ifvqfb0","pricing_plan_id":"cebpf4jnsgd1na2vs0mg"},{"bike_id":"b0f957ba-7a3a-48a1-88b9-5536c334ac20","system_id":"levelo_inurba_marseille","lat":43.296906,"lon":5.365987,"is_reserved":false,"is_disabled":false,"rental_uris":{"android":"levelo://app?vid=b0f957ba-7a3a-48a1-88b9-5536c334ac20","ios":"levelo://app?vid=b0f957ba-7a3a-48a1-88b9-5536c334ac20"},"vehicle_type_id":"4","last_reported":1728414371,"current_range_meters":22800,"station_id":"ce4bgn12rcd13ifvqbt0","pricing_plan_id":"cebpf4jnsgd1na2vs0mg"},{"bike_id":"0f8e5368-fba9-4d54-a446-5b8f578eedcd","system_id":"levelo_inurba_marseille","lat":43.28001,"lon":5.40012,"is_reserved":false,"is_disabled":false,"rental_uris":{"android":"levelo://app?vid=0f8e5368-fba9-4d54-a446-5b8f578eedcd","ios":"levelo://app?vid=0f8e5368-fba9-4d54-a446-5b8f578eedcd"},"vehicle_type_id":"4","last_reported":1728414371,"current_range_meters":14400,"station_id":"ce4bho92rcd13ifvqh4g","pricing_plan_id":"cebpf4jnsgd1na2vs0mg"},{"bike_id":"78ede81f-e425-47b9-9d00-597d3748bdca","system_id":"levelo_inurba_marseille","lat":43.27997,"lon":5.40018,"is_reserved":false,"is_disabled":false,"rental_uris":{"android":"levelo://app?vid=78ede81f-e425-47b9-9d00-597d3748bdca","ios":"levelo://app?vid=78ede81f-e425-47b9-9d00-597d3748bdca"},"vehicle_type_id":"4","last_reported":1728414371,"current_range_meters":30000,"station_id":"ce4bho92rcd13ifvqh4g","pricing_plan_id":"cebpf4jnsgd1na2vs0mg"},{"bike_id":"90886a14-1cfd-4faa-9cb4-da24f74c6d8a","system_id":"levelo_inurba_marseille","lat":43.26064,"lon":5.39396,"is_reserved":false,"is_disabled":false,"rental_uris":{"android":"levelo://app?vid=90886a14-1cfd-4faa-9cb4-da24f74c6d8a","ios":"levelo://app?vid=90886a14-1cfd-4faa-9cb4-da24f74c6d8a"},"vehicle_type_id":"4","last_reported":1728414371,"current_range_meters":22000,"station_id":"ce4bhh92rcd13ifvqfj0","pricing_plan_id":"cebpf4jnsgd1na2vs0mg"},{"bike_id":"4a7f32a5-45f9-4e4f-8b14-ad0c04f2fc35","system_id":"levelo_inurba_marseille","lat":43.25489,"lon":5.37649,"is_reserved":false,"is_disabled":false,"rental_uris":{"android":"levelo://app?vid=4a7f32a5-45f9-4e4f-8b14-ad0c04f2fc35","ios":"levelo://app?vid=4a7f32a5-45f9-4e4f-8b14-ad0c04f2fc35"},"vehicle_type_id":"4","last_reported":1728414371,"current_range_meters":9600,"station_id":"ce4bhh12rcd13ifvqff0","pricing_plan_id":"cebpf4jnsgd1na2vs0mg"},{"bike_id":"09a16eb8-943b-4fa3-af4a-bc84f292cf52","system_id":"levelo_inurba_marseille","lat":43.30927,"lon":5.40144,"is_reserved":false,"is_disabled":false,"rental_uris":{"android":"levelo://app?vid=09a16eb8-943b-4fa3-af4a-bc84f292cf52","ios":"levelo://app?vid=09a16eb8-943b-4fa3-af4a-bc84f292cf52"},"vehicle_type_id":"4","last_reported":1728414371,"current_range_meters":5600,"station_id":"ce4bgvp2rcd13ifvqct0","pricing_plan_id":"cebpf4jnsgd1na2vs0mg"},{"bike_id":"b5fec230-9d68-493e-8b69-81fc265913b0","system_id":"levelo_inurba_marseille","lat":43.29264,"lon":5.38437,"is_reserved":false,"is_disabled":false,"rental_uris":{"android":"levelo://app?vid=b5fec230-9d68-493e-8b69-81fc265913b0","ios":"levelo://app?vid=b5fec230-9d68-493e-8b69-81fc265913b0"},"vehicle_type_id":"4","last_reported":1728414371,"current_range_meters":8400,"station_id":"ce4bh692rcd13ifvqea0","pricing_plan_id":"cebpf4jnsgd1na2vs0mg"},{"bike_id":"5d98e0b3-1c48-4bce-8ffe-0e2c2ea088a0","system_id":"levelo_inurba_marseille","lat":43.23054,"lon":5.35491,"is_reserved":false,"is_disabled":false,"rental_uris":{"android":"levelo://app?vid=5d98e0b3-1c48-4bce-8ffe-0e2c2ea088a0","ios":"levelo://app?vid=5d98e0b3-1c48-4bce-8ffe-0e2c2ea088a0"},"vehicle_type_id":"4","last_reported":1728414371,"current_range_meters":30000,"station_id":"cpo3342slgdg3j2ifvpg","pricing_plan_id":"cebpf4jnsgd1na2vs0mg"},{"bike_id":"2ddb229b-4f5d-447c-866f-e3aa4068631d","system_id":"levelo_inurba_marseille","lat":43.29166,"lon":5.38602,"is_reserved":false,"is_disabled":false,"rental_uris":{"android":"levelo://app?vid=2ddb229b-4f5d-447c-866f-e3aa4068631d","ios":"levelo://app?vid=2ddb229b-4f5d-447c-866f-e3aa4068631d"},"vehicle_type_id":"4","last_reported":1728414371,"current_range_meters":16000,"station_id":"","pricing_plan_id":"cebpf4jnsgd1na2vs0mg"},{"bike_id":"844bbe36-5537-46cb-8c0c-5ea76aec4b09","system_id":"levelo_inurba_marseille","lat":43.31688,"lon":5.40479,"is_reserved":false,"is_disabled":false,"rental_uris":{"android":"levelo://app?vid=844bbe36-5537-46cb-8c0c-5ea76aec4b09","ios":"levelo://app?vid=844bbe36-5537-46cb-8c0c-5ea76aec4b09"},"vehicle_type_id":"4","last_reported":1728414371,"current_range_meters":27600,"station_id":"ce4bh012rcd13ifvqd00","pricing_plan_id":"cebpf4jnsgd1na2vs0mg"},{"bike_id":"1fe94854-bca7-4628-a77d-34cdb2a062d3","system_id":"levelo_inurba_marseille","lat":43.33022,"lon":5.39042,"is_reserved":false,"is_disabled":false,"rental_uris":{"android":"levelo://app?vid=1fe94854-bca7-4628-a77d-34cdb2a062d3","ios":"levelo://app?vid=1fe94854-bca7-4628-a77d-34cdb2a062d3"},"vehicle_type_id":"4","last_reported":1728414371,"current_range_meters":25200,"station_id":"ce4bhr92rcd13ifvqhrg","pricing_plan_id":"cebpf4jnsgd1na2vs0mg"},{"bike_id":"e1a92015-9fd9-4ceb-bf12-1c90eabe1974","system_id":"levelo_inurba_marseille","lat":43.282701,"lon":5.350708,"is_reserved":false,"is_disabled":false,"rental_uris":{"android":"levelo://app?vid=e1a92015-9fd9-4ceb-bf12-1c90eabe1974","ios":"levelo://app?vid=e1a92015-9fd9-4ceb-bf12-1c90eabe1974"},"vehicle_type_id":"4","last_reported":1728414371,"current_range_meters":26800,"station_id":"ce4bhf92rcd13ifvqf50","pricing_plan_id":"cebpf4jnsgd1na2vs0mg"},{"bike_id":"570e5a34-8463-480f-bbc3-7dec58660b45","system_id":"levelo_inurba_marseille","lat":43.24664,"lon":5.38168,"is_reserved":false,"is_disabled":false,"rental_uris":{"android":"levelo://app?vid=570e5a34-8463-480f-bbc3-7dec58660b45","ios":"levelo://app?vid=570e5a34-8463-480f-bbc3-7dec58660b45"},"vehicle_type_id":"4","last_reported":1728414371,"current_range_meters":22400,"station_id":"ce4bhih2rcd13ifvqfr0","pricing_plan_id":"cebpf4jnsgd1na2vs0mg"},{"bike_id":"406e5bb8-4992-497f-a3c0-834f9beaa662","system_id":"levelo_inurba_marseille","lat":43.28153,"lon":5.4265,"is_reserved":false,"is_disabled":false,"rental_uris":{"android":"levelo://app?vid=406e5bb8-4992-497f-a3c0-834f9beaa662","ios":"levelo://app?vid=406e5bb8-4992-497f-a3c0-834f9beaa662"},"vehicle_type_id":"4","last_reported":1728414371,"current_range_meters":6800,"station_id":"ce4bhnh2rcd13ifvqgug","pricing_plan_id":"cebpf4jnsgd1na2vs0mg"},{"bike_id":"6839fed7-6f81-4d48-ad68-124627305d1d","system_id":"levelo_inurba_marseille","lat":43.29431,"lon":5.39755,"is_reserved":false,"is_disabled":false,"rental_uris":{"android":"levelo://app?vid=6839fed7-6f81-4d48-ad68-124627305d1d","ios":"levelo://app?vid=6839fed7-6f81-4d48-ad68-124627305d1d"},"vehicle_type_id":"4","last_reported":1728414371,"current_range_meters":32400,"station_id":"ce4bh3h2rcd13ifvqdo0","pricing_plan_id":"cebpf4jnsgd1na2vs0mg"},{"bike_id":"9f9fa7e9-d3e1-4599-9ebd-d6ec9c348a6b","system_id":"levelo_inurba_marseille","lat":43.29878,"lon":5.38909,"is_reserved":false,"is_disabled":false,"rental_uris":{"android":"levelo://app?vid=9f9fa7e9-d3e1-4599-9ebd-d6ec9c348a6b","ios":"levelo://app?vid=9f9fa7e9-d3e1-4599-9ebd-d6ec9c348a6b"},"vehicle_type_id":"4","last_reported":1728414371,"current_range_meters":20400,"station_id":"ce4bh392rcd13ifvqdl0","pricing_plan_id":"cebpf4jnsgd1na2vs0mg"},{"bike_id":"c450c0b9-951a-457f-bbc1-928602f36c52","system_id":"levelo_inurba_marseille","lat":43.29786,"lon":5.39332,"is_reserved":false,"is_disabled":false,"rental_uris":{"android":"levelo://app?vid=c450c0b9-951a-457f-bbc1-928602f36c52","ios":"levelo://app?vid=c450c0b9-951a-457f-bbc1-928602f36c52"},"vehicle_type_id":"4","last_reported":1728414371,"current_range_meters":19200,"station_id":"chh1huq6cuj3fo74tm60","pricing_plan_id":"cebpf4jnsgd1na2vs0mg"},{"bike_id":"7eb32b1c-d72b-40af-b1d5-7b71f030e753","system_id":"levelo_inurba_marseille","lat":43.275723,"lon":5.384253,"is_reserved":false,"is_disabled":false,"rental_uris":{"android":"levelo://app?vid=7eb32b1c-d72b-40af-b1d5-7b71f030e753","ios":"levelo://app?vid=7eb32b1c-d72b-40af-b1d5-7b71f030e753"},"vehicle_type_id":"4","last_reported":1728414371,"current_range_meters":2000,"station_id":"ce4bhh92rcd13ifvqfi0","pricing_plan_id":"cebpf4jnsgd1na2vs0mg"},{"bike_id":"38fe48eb-ba19-496f-8375-4133073d320a","system_id":"levelo_inurba_marseille","lat":43.29418,"lon":5.38621,"is_reserved":false,"is_disabled":false,"rental_uris":{"android":"levelo://app?vid=38fe48eb-ba19-496f-8375-4133073d320a","ios":"levelo://app?vid=38fe48eb-ba19-496f-8375-4133073d320a"},"vehicle_type_id":"4","last_reported":1728414371,"current_range_meters":8400,"station_id":"ce4bh2h2rcd13ifvqdh0","pricing_plan_id":"cebpf4jnsgd1na2vs0mg"},{"bike_id":"bc533fc2-c1a4-4836-8642-a4ee03499fef","system_id":"levelo_inurba_marseille","lat":43.28371,"lon":5.38634,"is_reserved":false,"is_disabled":false,"rental_uris":{"android":"levelo://app?vid=bc533fc2-c1a4-4836-8642-a4ee03499fef","ios":"levelo://app?vid=bc533fc2-c1a4-4836-8642-a4ee03499fef"},"vehicle_type_id":"4","last_reported":1728414371,"current_range_meters":2800,"station_id":"ce4bh492rcd13ifvqdvg","pricing_plan_id":"cebpf4jnsgd1na2vs0mg"},{"bike_id":"baa6e742-3f73-46aa-91d3-efb7f748ca45","system_id":"levelo_inurba_marseille","lat":43.24168,"lon":5.36397,"is_reserved":false,"is_disabled":false,"rental_uris":{"android":"levelo://app?vid=baa6e742-3f73-46aa-91d3-efb7f748ca45","ios":"levelo://app?vid=baa6e742-3f73-46aa-91d3-efb7f748ca45"},"vehicle_type_id":"4","last_reported":1728414371,"current_range_meters":25200,"station_id":"cpo36qri1sfpv3e86is0","pricing_plan_id":"cebpf4jnsgd1na2vs0mg"},