{"last_updated":1692130024,"ttl":30,"version":"2.2","data":{"bikes":[{"bike_id":"748a3beb-57c3-4da9-8f98-2308e1c1af7c","system_id":"levelo_inurba_marseille","lat":43.313391,"lon":5.36706,"is_reserved":false,"is_disabled":false,"rental_uris":{"android":"levelo://app?vid=748a3beb-57c3-4da9-8f98-2308e1c1af7c","ios":"levelo://app?vid=748a3beb-57c3-4da9-8f98-2308e1c1af7c"},"vehicle_type_id":"4","last_reported":1692130024,"current_range_meters":28800,"station_id":"ce4bgr92rcd13ifvqc6g","pricing_plan_id":"free"},{"bike_id":"7052da32-2904-4580-ac32-1180b08dba71","system_id":"levelo_inurba_marseille","lat":43.312239,"lon":5.368562,"is_reserved":false,"is_disabled":false,"rental_uris":{"android":"levelo://app?vid=7052da32-2904-4580-ac32-1180b08dba71","ios":"levelo://app?vid=7052da32-2904-4580-ac32-1180b08dba71"},"vehicle_type_id":"4","last_reported":1692130024,"current_range_meters":22800,"station_id":"ce4bgl92rcd13ifvqbq0","pricing_plan_id":"free"},{"bike_id":"99e0e4eb-f3ad-4fe8-81a3-ac48bdc113b1","system_id":"levelo_inurba_marseille","lat":43.309076,"lon":5.368465,"is_reserved":false,"is_disabled":false,"rental_uris":{"android":"levelo://app?vid=99e0e4eb-f3ad-4fe8-81a3-ac48bdc113b1","ios":"levelo://app?vid=99e0e4eb-f3ad-4fe8-81a3-ac48bdc113b1"},"vehicle_type_id":"4","last_reported":1692130024,"current_range_meters":18000,"station_id":"ce4bgn92rcd13ifvqbvg","pricing_plan_id":"free"},{"bike_id":"f2129bca-efc2-4d4e-aa65-80fa263426a2","system_id":"levelo_inurba_marseille","lat":43.309076,"lon":5.368465,"is_reserved":false,"is_disabled":false,"rental_uris":{"android":"levelo://app?vid=f2129bca-efc2-4d4e-aa65-80fa263426a2","ios":"levelo://app?vid=f2129bca-efc2-4d4e-aa65-80fa263426a2"},"vehicle_type_id":"4","last_reported":1692130024,"current_range_meters":14400,"station_id":"ce4bgn92rcd13ifvqbvg","pricing_plan_id":"free"},{"bike_id":"9d95b2fe-37e1-4deb-8269-3133aa491023","system_id":"levelo_inurba_marseille","lat":43.31478,"lon":5.37299,"is_reserved":false,"is_disabled":false,"rental_uris":{"android":"levelo://app?vid=9d95b2fe-37e1-4deb-8269-3133aa491023","ios":"levelo://app?vid=9d95b2fe-37e1-4deb-8269-3133aa491023"},"vehicle_type_id":"4","last_reported":1692130024,"current_range_meters":31200,"station_id":"","pricing_plan_id":"free"},{"bike_id":"21342b85-ac4f-4cd0-a362-c59133192e44","system_id":"levelo_inurba_marseille","lat":43.314811,"lon":5.373103,"is_reserved":false,"is_disabled":false,"rental_uris":{"android":"levelo://app?vid=21342b85-ac4f-4cd0-a362-c59133192e44","ios":"levelo://app?vid=21342b85-ac4f-4cd0-a362-c59133192e44"},"vehicle_type_id":"4","last_reported":1692130024,"current_range_meters":28400,"station_id":"ce4bgt12rcd13ifvqcd0","pricing_plan_id":"free"},{"bike_id":"3d17acaa-4f4d-42ef-bf63-97285e2691ea","system_id":"levelo_inurba_marseille","lat":43.314811,"lon":5.373103,"is_reserved":false,"is_disabled":false,"rental_uris":{"android":"levelo://app?vid=3d17acaa-4f4d-42ef-bf63-97285e2691ea","ios":"levelo://app?vid=3d17acaa-4f4d-42ef-bf63-97285e2691ea"},"vehicle_type_id":"4","last_reported":1692130024,"current_range_meters":27600,"station_id":"ce4bgt12rcd13ifvqcd0","pricing_plan_id":"free"},{"bike_id":"2647c8d5-ab25-4b51-8f65-d2797c70fda9","system_id":"levelo_inurba_marseille","lat":43.314811,"lon":5.373103,"is_reserved":false,"is_disabled":false,"rental_uris":{"android":"levelo://app?vid=2647c8d5-ab25-4b51-8f65-d2797c70fda9","ios":"levelo://app?vid=2647c8d5-ab25-4b51-8f65-d2797c70fda9"},"vehicle_type_id":"4","last_reported":1692130024,"current_range_meters":10000,"station_id":"ce4bgt12rcd13ifvqcd0","pricing_plan_id":"free"},{"bike_id":"310d86bc-77be-44cc-af75-9aea543029e8","system_id":"levelo_inurba_marseille","lat":43.314811,"lon":5.373103,"is_reserved":false,"is_disabled":false,"rental_uris":{"android":"levelo://app?vid=310d86bc-77be-44cc-af75-9aea543029e8","ios":"levelo://app?vid=310d86bc-77be-44cc-af75-9aea543029e8"},"vehicle_type_id":"4","last_reported":1692130024,"current_range_meters":31200,"station_id":"ce4bgt12rcd13ifvqcd0","pricing_plan_id":"free"},{"bike_id":"60102b56-7cf6-469a-a6bb-7b1157bf5c06","system_id":"levelo_inurba_marseille","lat":43.30841,"lon":5.37033,"is_reserved":false,"is_disabled":false,"rental_uris":{"android":"levelo://app?vid=60102b56-7cf6-469a-a6bb-7b1157bf5c06","ios":"levelo://app?vid=60102b56-7cf6-469a-a6bb-7b1157bf5c06"},"vehicle_type_id":"4","last_reported":1692130024,"current_range_meters":30800,"station_id":"","pricing_plan_id":"free"},{"bike_id":"270019c4-ceed-43c5-9567-6e65410eee08","system_id":"levelo_inurba_marseille","lat":43.31503,"lon":5.37302,"is_reserved":false,"is_disabled":false,"rental_uris":{"android":"levelo://app?vid=270019c4-ceed-43c5-9567-6e65410eee08","ios":"levelo://app?vid=270019c4-ceed-43c5-9567-6e65410eee08"},"vehicle_type_id":"4","last_reported":1692130024,"current_range_meters":0,"station_id":"ce4bgt12rcd13ifvqcd0","pricing_plan_id":"free"},{"bike_id":"5daa8430-a2ba-4c33-b8a2-73a52715a873","system_id":"levelo_inurba_marseille","lat":43.314811,"lon":5.373103,"is_reserved":false,"is_disabled":false,"rental_uris":{"android":"levelo://app?vid=5daa8430-a2ba-4c33-b8a2-73a52715a873","ios":"levelo://app?vid=5daa8430-a2ba-4c33-b8a2-73a52715a873"},"vehicle_type_id":"4","last_reported":1692130024,"current_range_meters":23600,"station_id":"ce4bgt12rcd13ifvqcd0","pricing_plan_id":"free"},{"bike_id":"5fba9219-309b-4615-b220-968af001ee9c","system_id":"levelo_inurba_marseille","lat":43.314811,"lon":5.373104,"is_reserved":false,"is_disabled":false,"rental_uris":{"android":"levelo://app?vid=5fba9219-309b-4615-b220-968af001ee9c","ios":"levelo://app?vid=5fba9219-309b-4615-b220-968af001ee9c"},"vehicle_type_id":"4","last_reported":1692130024,"current_range_meters":11200,"station_id":"ce4bgt12rcd13ifvqcd0","pricing_plan_id":"free"},{"bike_id":"bc767af6-d285-40c3-8243-05287b09f9b3","system_id":"levelo_inurba_marseille","lat":43.30877,"lon":5.3718,"is_reserved":false,"is_disabled":false,"rental_uris":{"android":"levelo://app?vid=bc767af6-d285-40c3-8243-05287b09f9b3","ios":"levelo://app?vid=bc767af6-d285-40c3-8243-05287b09f9b3"},"vehicle_type_id":"4","last_reported":1692130024,"current_range_meters":6000,"station_id":"ce4bguh2rcd13ifvqckg","pricing_plan_id":"free"},{"bike_id":"3fbc4e0c-64e7-4706-9ea6-0ddd021caf97","system_id":"levelo_inurba_marseille","lat":43.30821,"lon":5.37395,"is_reserved":false,"is_disabled":false,"rental_uris":{"android":"levelo://app?vid=3fbc4e0c-64e7-4706-9ea6-0ddd021caf97","ios":"levelo://app?vid=3fbc4e0c-64e7-4706-9ea6-0ddd021caf97"},"vehicle_type_id":"4","last_reported":1692130024,"current_range_meters":26400,"station_id":"","pricing_plan_id":"free"},{"bike_id":"327bc887-c0e7-4ea0-8e62-ffd59a062a67","system_id":"levelo_inurba_marseille","lat":43.305714,"lon":5.365633,"is_reserved":false,"is_disabled":false,"rental_uris":{"android":"levelo://app?vid=327bc887-c0e7-4ea0-8e62-ffd59a062a67","ios":"levelo://app?vid=327bc887-c0e7-4ea0-8e62-ffd59a062a67"},"vehicle_type_id":"4","last_reported":1692130024,"current_range_meters":24000,"station_id":"ce4bgs12rcd13ifvqcag","pricing_plan_id":"free"},{"bike_id":"308ab7aa-2187-4716-b84f-00feae495198","system_id":"levelo_inurba_marseille","lat":43.30529,"lon":5.36705,"is_reserved":false,"is_disabled":false,"rental_uris":{"android":"levelo://app?vid=308ab7aa-2187-4716-b84f-00feae495198","ios":"levelo://app?vid=308ab7aa-2187-4716-b84f-00feae495198"},"vehicle_type_id":"4","last_reported":1692130024,"current_range_meters":10000,"station_id":"ce4bgrp2rcd13ifvqc9g","pricing_plan_id":"free"},{"bike_id":"9fbe6e18-d192-44c2-98b5-cafb68b41aa4","system_id":"levelo_inurba_marseille","lat":43.30525,"lon":5.36531,"is_reserved":false,"is_disabled":false,"rental_uris":{"android":"levelo://app?vid=9fbe6e18-d192-44c2-98b5-cafb68b41aa4","ios":"levelo://app?vid=9fbe6e18-d192-44c2-98b5-cafb68b41aa4"},"vehicle_type_id":"4","last_reported":1692130024,"current_range_meters":28800,"station_id":"ce4bgs12rcd13ifvqcag","pricing_plan_id":"free"},{"bike_id":"0f867f48-c25c-4d84-9eb6-a1992411eb5b","system_id":"levelo_inurba_marseille","lat":43.3061,"lon":5.37227,"is_reserved":false,"is_disabled":false,"rental_uris":{"android":"levelo://app?vid=0f867f48-c25c-4d84-9eb6-a1992411eb5b","ios":"levelo://app?vid=0f867f48-c25c-4d84-9eb6-a1992411eb5b"},"vehicle_type_id":"4","last_reported":1692130024,"current_range_meters":7600,"station_id":"ce4bgqh2rcd13ifvqc4g","pricing_plan_id":"free"},{"bike_id":"32d28d75-f4b4-4d4f-9ab3-9464b8fd6982","system_id":"levelo_inurba_marseille","lat":43.305989,"lon":5.37225,"is_reserved":false,"is_disabled":false,"rental_uris":{"android":"levelo://app?vid=32d28d75-f4b4-4d4f-9ab3-9464b8fd6982","ios":"levelo://app?vid=32d28d75-f4b4-4d4f-9ab3-9464b8fd6982"},"vehicle_type_id":"4","last_reported":1692130024,"current_range_meters":12000,"station_id":"ce4bgqh2rcd13ifvqc4g","pricing_plan_id":"free"},{"bike_id":"9c2a622e-dc5a-4cd1-a77b-335c8a6e7654","system_id":"levelo_inurba_marseille","lat":43.305989,"lon":5.37225,"is_reserved":false,"is_disabled":false,"rental_uris":{"android":"levelo://app?vid=9c2a622e-dc5a-4cd1-a77b-335c8a6e7654","ios":"levelo://app?vid=9c2a622e-dc5a-4cd1-a77b-335c8a6e7654"},"vehicle_type_id":"4","last_reported":1692130024,"current_range_meters":19200,"station_id":"ce4bgqh2rcd13ifvqc4g","pricing_plan_id":"free"},{"bike_id":"386ed8e3-b71e-4f68-86af-202c5b76503e","system_id":"levelo_inurba_marseille","lat":43.30593,"lon":5.37214,"is_reserved":false,"is_disabled":false,"rental_uris":{"android":"levelo://app?vid=386ed8e3-b71e-4f68-86af-202c5b76503e","ios":"levelo://app?vid=386ed8e3-b71e-4f68-86af-202c5b76503e"},"vehicle_type_id":"4","last_reported":1692130024,"current_range_meters":30000,"station_id":"ce4bgqh2rcd13ifvqc4g","pricing_plan_id":"free"},{"bike_id":"38a5b6ed-b2f1-4fd4-901c-13e7d593bb91","system_id":"levelo_inurba_marseille","lat":43.317075,"lon":5.377367,"is_reserved":false,"is_disabled":false,"rental_uris":{"android":"levelo://app?vid=38a5b6ed-b2f1-4fd4-901c-13e7d593bb91","ios":"levelo://app?vid=38a5b6ed-b2f1-4fd4-901c-13e7d593bb91"},"vehicle_type_id":"4","last_reported":1692130024,"current_range_meters":400,"station_id":"ce4bgth2rcd13ifvqch0","pricing_plan_id":"free"},{"bike_id":"3d0c4844-a32a-4147-a019-6e930dc0dfb2","system_id":"levelo_inurba_marseille","lat":43.307945,"lon":5.376487,"is_reserved":false,"is_disabled":false,"rental_uris":{"android":"levelo://app?vid=3d0c4844-a32a-4147-a019-6e930dc0dfb2","ios":"levelo://app?vid=3d0c4844-a32a-4147-a019-6e930dc0dfb2"},"vehicle_type_id":"4","last_reported":1692130024,"current_range_meters":16400,"station_id":"ce4bgv92rcd13ifvqcq0","pricing_plan_id":"free"},{"bike_id":"8329fce1-edb3-4931-a089-b77586e754e8","system_id":"levelo_inurba_marseille","lat":43.317075,"lon":5.377367,"is_reserved":false,"is_disabled":false,"rental_uris":{"android":"levelo://app?vid=8329fce1-edb3-4931-a089-b77586e754e8","ios":"levelo://app?vid=8329fce1-edb3-4931-a089-b77586e754e8"},"vehicle_type_id":"4","last_reported":1692130024,"current_range_meters":27600,"station_id":"ce4bgth2rcd13ifvqch0","pricing_plan_id":"free"},{"bike_id":"2ce42ac4-67f4-4bd4-a364-29a404bd1672","system_id":"levelo_inurba_marseille","lat":43.317075,"lon":5.377367,"is_reserved":false,"is_disabled":false,"rental_uris":{"android":"levelo://app?vid=2ce42ac4-67f4-4bd4-a364-29a404bd1672","ios":"levelo://app?vid=2ce42ac4-67f4-4bd4-a364-29a404bd1672"},"vehicle_type_id":"4","last_reported":1692130024,"current_range_meters":17600,"station_id":"ce4bgth2rcd13ifvqch0","pricing_plan_id":"free"},{"bike_id":"3c6e2d36-4b30-421b-90e6-04392e26023a","system_id":"levelo_inurba_marseille","lat":43.317075,"lon":5.377367,"is_reserved":false,"is_disabled":false,"rental_uris":{"android":"levelo://app?vid=3c6e2d36-4b30-421b-90e6-04392e26023a","ios":"levelo://app?vid=3c6e2d36-4b30-421b-90e6-04392e26023a"},"vehicle_type_id":"4","last_reported":1692130024,"current_range_meters":18800,"station_id":"ce4bgth2rcd13ifvqch0","pricing_plan_id":"free"},{"bike_id":"ccde4fab-a619-4b85-80d1-631ae22c1186","system_id":"levelo_inurba_marseille","lat":43.317075,"lon":5.377367,"is_reserved":false,"is_disabled":false,"rental_uris":{"android":"levelo://app?vid=ccde4fab-a619-4b85-80d1-631ae22c1186","ios":"levelo://app?vid=ccde4fab-a619-4b85-80d1-631ae22c1186"},"vehicle_type_id":"4","last_reported":1692130024,"current_range_meters":30000,"station_id":"ce4bgth2rcd13ifvqch0","pricing_plan_id":"free"},{"bike_id":"088145e7-1c91-4b5f-acba-54330b570b23","system_id":"levelo_inurba_marseille","lat":43.31527,"lon":5.38035,"is_reserved":false,"is_disabled":false,"rental_uris":{"android":"levelo://app?vid=088145e7-1c91-4b5f-acba-54330b570b23","ios":"levelo://app?vid=088145e7-1c91-4b5f-acba-54330b570b23"},"vehicle_type_id":"4","last_reported":1692130024,"current_range_meters":0,"station_id":"ce4bhsp2rcd13ifvqi50","pricing_plan_id":"free"},{"bike_id":"17107a81-540b-4d16-bf3d-3dca8fdfcc2f","system_id":"levelo_inurba_marseille","lat":43.31533,"lon":5.38036,"is_reserved":false,"is_disabled":false,"rental_uris":{"android":"levelo://app?vid=17107a81-540b-4d16-bf3d-3dca8fdfcc2f","ios":"levelo://app?vid=17107a81-540b-4d16-bf3d-3dca8fdfcc2f"},"vehicle_type_id":"4","last_reported":1692130024,"current_range_meters":28800,"station_id":"ce4bhsp2rcd13ifvqi50","pricing_plan_id":"free"},{"bike_id":"d40e1ede-5953-4426-bd40-295a1f5860cf","system_id":"levelo_inurba_marseille","lat":43.30812,"lon":5.38146,"is_reserved":false,"is_disabled":false,"rental_uris":{"android":"levelo://app?vid=d40e1ede-5953-4426-bd40-295a1f5860cf","ios":"levelo://app?vid=d40e1ede-5953-4426-bd40-295a1f5860cf"},"vehicle_type_id":"4","last_reported":1692130024,"current_range_meters":21600,"station_id":"ce4bgt12rcd13ifvqce0","pricing_plan_id":"free"},{"bike_id":"995695a8-de75-49a7-84a5-f4a33d581f30","system_id":"levelo_inurba_marseille","lat":43.30805,"lon":5.38157,"is_reserved":false,"is_disabled":false,"rental_uris":{"android":"levelo://app?vid=995695a8-de75-49a7-84a5-f4a33d581f30","ios":"levelo://app?vid=995695a8-de75-49a7-84a5-f4a33d581f30"},"vehicle_type_id":"4","last_reported":1692130024,"current_range_meters":14000,"station_id":"ce4bgt12rcd13ifvqce0","pricing_plan_id":"free"},{"bike_id":"789d310f-99ce-4036-9194-e5e9d9cee9c5","system_id":"levelo_inurba_marseille","lat":43.30802,"lon":5.38156,"is_reserved":false,"is_disabled":false,"rental_uris":{"android":"levelo://app?vid=789d310f-99ce-4036-9194-e5e9d9cee9c5","ios":"levelo://app?vid=789d310f-99ce-4036-9194-e5e9d9cee9c5"},"vehicle_type_id":"4","last_reported":1692130024,"current_range_meters":3600,"station_id":"ce4bgt12rcd13ifvqce0","pricing_plan_id":"free"},{"bike_id":"12e0a95b-7184-42e6-b99f-535978562cbe","system_id":"levelo_inurba_marseille","lat":43.30468,"lon":5.37906,"is_reserved":false,"is_disabled":false,"rental_uris":{"android":"levelo://app?vid=12e0a95b-7184-42e6-b99f-535978562cbe","ios":"levelo://app?vid=12e0a95b-7184-42e6-b99f-535978562cbe"},"vehicle_type_id":"4","last_reported":1692130024,"current_range_meters":16800,"station_id":"","pricing_plan_id":"free"},{"bike_id":"08c78ddd-9b9a-49eb-978b-3a374942fd87","system_id":"levelo_inurba_marseille","lat":43.304606,"lon":5.379026,"is_reserved":false,"is_disabled":false,"rental_uris":{"android":"levelo://app?vid=08c78ddd-9b9a-49eb-978b-3a374942fd87","ios":"levelo://app?vid=08c78ddd-9b9a-49eb-978b-3a374942fd87"},"vehicle_type_id":"4","last_reported":1692130024,"current_range_meters":31200,"station_id":"ce4bgup2rcd13ifvqcn0","pricing_plan_id":"free"},{"bike_id":"f1e173c2-b773-4c33-b6b5-8252eff6b188","system_id":"levelo_inurba_marseille","lat":43.30467,"lon":5.37915,"is_reserved":false,"is_disabled":false,"rental_uris":{"android":"levelo://app?vid=f1e173c2-b773-4c33-b6b5-8252eff6b188","ios":"levelo://app?vid=f1e173c2-b773-4c33-b6b5-8252eff6b188"},"vehicle_type_id":"4","last_reported":1692130024,"current_range_meters":5600,"station_id":"ce4bgup2rcd13ifvqcn0","pricing_plan_id":"free"},{"bike_id":"6a6f1675-dc6a-44c4-bc2f-73b7f73c82cf","system_id":"levelo_inurba_marseille","lat":43.304606,"lon":5.379026,"is_reserved":false,"is_disabled":false,"rental_uris":{"android":"levelo://app?vid=6a6f1675-dc6a-44c4-bc2f-73b7f73c82cf","ios":"levelo://app?vid=6a6f1675-dc6a-44c4-bc2f-73b7f73c82cf"},"vehicle_type_id":"4","last_reported":1692130024,"current_range_meters":27600,"station_id":"ce4bgup2rcd13ifvqcn0","pricing_plan_id":"free"},{"bike_id":"d20fd3b3-4c53-4e93-a0db-91a9181bf09a","system_id":"levelo_inurba_marseille","lat":43.304606,"lon":5.379026,"is_reserved":false,"is_disabled":false,"rental_uris":{"android":"levelo://app?vid=d20fd3b3-4c53-4e93-a0db-91a9181bf09a","ios":"levelo://app?vid=d20fd3b3-4c53-4e93-a0db-91a9181bf09a"},"vehicle_type_id":"4","last_reported":1692130024,"current_range_meters":16800,"station_id":"ce4bgup2rcd13ifvqcn0","pricing_plan_id":"free"},{"bike_id":"a440b2c5-6615-4f6e-8563-6d6b2bf47861","system_id":"levelo_inurba_marseille","lat":43.304606,"lon":5.379026,"is_reserved":false,"is_disabled":false,"rental_uris":{"android":"levelo://app?vid=a440b2c5-6615-4f6e-8563-6d6b2bf47861","ios":"levelo://app?vid=a440b2c5-6615-4f6e-8563-6d6b2bf47861"},"vehicle_type_id":"4","last_reported":1692130024,"current_range_meters":31200,"station_id":"ce4bgup2rcd13ifvqcn0","pricing_plan_id":"free"},{"bike_id":"463fc96b-94d2-49bd-a6a9-ba9fcd943e46","system_id":"levelo_inurba_marseille","lat":43.30455,"lon":5.37912,"is_reserved":false,"is_disabled":false,"rental_uris":{"android":"levelo://app?vid=463fc96b-94d2-49bd-a6a9-ba9fcd943e46","ios":"levelo://app?vid=463fc96b-94d2-49bd-a6a9-ba9fcd943e46"},"vehicle_type_id":"4","last_reported":1692130024,"current_range_meters":29600,"station_id":"ce4bgup2rcd13ifvqcn0","pricing_plan_id":"free"},{"bike_id":"21e574d6-25ef-46fd-8d0a-581ae6a5af21","system_id":"levelo_inurba_marseille","lat":43.302784,"lon":5.377158,"is_reserved":false,"is_disabled":false,"rental_uris":{"android":"levelo://app?vid=21e574d6-25ef-46fd-8d0a-581ae6a5af21","ios":"levelo://app?vid=21e574d6-25ef-46fd-8d0a-581ae6a5af21"},"vehicle_type_id":"4","last_reported":1692130024,"current_range_meters":26400,"station_id":"ce4bguh2rcd13ifvqcj0","pricing_plan_id":"free"},{"bike_id":"6bb416b6-aa59-4b37-b955-665189e50d47","system_id":"levelo_inurba_marseille","lat":43.302784,"lon":5.377158,"is_reserved":false,"is_disabled":false,"rental_uris":{"android":"levelo://app?vid=6bb416b6-aa59-4b37-b955-665189e50d47","ios":"levelo://app?vid=6bb416b6-aa59-4b37-b955-665189e50d47"},"vehicle_type_id":"4","last_reported":1692130024,"current_range_meters":28000,"station_id":"ce4bguh2rcd13ifvqcj0","pricing_plan_id":"free"},{"bike_id":"6f8ef17a-7233-480b-bf5c-0670e618535f","system_id":"levelo_inurba_marseille","lat":43.319935,"lon":5.381699,"is_reserved":false,"is_disabled":false,"rental_uris":{"android":"levelo://app?vid=6f8ef17a-7233-480b-bf5c-0670e618535f","ios":"levelo://app?vid=6f8ef17a-7233-480b-bf5c-0670e618535f"},"vehicle_type_id":"4","last_reported":1692130024,"current_range_meters":20800,"station_id":"ce4bhr12rcd13ifvqhpg","pricing_plan_id":"free"},{"bike_id":"78abbae6-fb70-438b-804f-1c5ad07d176a","system_id":"levelo_inurba_marseille","lat":43.31992,"lon":5.38143,"is_reserved":false,"is_disabled":false,"rental_uris":{"android":"levelo://app?vid=78abbae6-fb70-438b-804f-1c5ad07d176a","ios":"levelo://app?vid=78abbae6-fb70-438b-804f-1c5ad07d176a"},"vehicle_type_id":"4","last_reported":1692130024,"current_range_meters":6800,"station_id":"ce4bhr12rcd13ifvqhpg","pricing_plan_id":"free"},{"bike_id":"6a62258e-28a8-4c03-b468-e7ee8977190a","system_id":"levelo_inurba_marseille","lat":43.319935,"lon":5.381699,"is_reserved":false,"is_disabled":false,"rental_uris":{"android":"levelo://app?vid=6a62258e-28a8-4c03-b468-e7ee8977190a","ios":"levelo://app?vid=6a62258e-28a8-4c03-b468-e7ee8977190a"},"vehicle_type_id":"4","last_reported":1692130024,"current_range_meters":27600,"station_id":"ce4bhr12rcd13ifvqhpg","pricing_plan_id":"free"},{"bike_id":"10ace6ff-ef76-4b4d-a04f-2ec52dd81c45","system_id":"levelo_inurba_marseille","lat":43.319935,"lon":5.381699,"is_reserved":false,"is_disabled":false,"rental_uris":{"android":"levelo://app?vid=10ace6ff-ef76-4b4d-a04f-2ec52dd81c45","ios":"levelo://app?vid=10ace6ff-ef76-4b4d-a04f-2ec52dd81c45"},"vehicle_type_id":"4","last_reported":1692130024,"current_range_meters":18400,"station_id":"ce4bhr12rcd13ifvqhpg","pricing_plan_id":"free"},{"bike_id":"8257b402-9e5d-4065-83c8-88f3934663dd","system_id":"levelo_inurba_marseille","lat":43.319935,"lon":5.381699,"is_reserved":false,"is_disabled":false,"rental_uris":{"android":"levelo://app?vid=8257b402-9e5d-4065-83c8-88f3934663dd","ios":"levelo://app?vid=8257b402-9e5d-4065-83c8-88f3934663dd"},"vehicle_type_id":"4","last_reported":1692130024,"current_range_meters":14000,"station_id":"ce4bhr12rcd13ifvqhpg","pricing_plan_id":"free"},{"bike_id":"c17c70c2-0b4d-4d13-87b6-0d4475584bb3","system_id":"levelo_inurba_marseille","lat":43.31994,"lon":5.38155,"is_reserved":false,"is_disabled":false,"rental_uris":{"android":"levelo://app?vid=c17c70c2-0b4d-4d13-87b6-0d4475584bb3","ios":"levelo://app?vid=c17c70c2-0b4d-4d13-87b6-0d4475584bb3"},"vehicle_type_id":"4","last_reported":1692130024,"current_range_meters":8800,"station_id":"ce4bhr12rcd13ifvqhpg","pricing_plan_id":"free"},{"bike_id":"b16ecb86-7786-404a-a71a-f426dc90fc6c","system_id":"levelo_inurba_marseille","lat":43.313571,"lon":5.384829,"is_reserved":false,"is_disabled":false,"rental_uris":{"android":"levelo://app?vid=b16ecb86-7786-404a-a71a-f426dc90fc6c","ios":"levelo://app?vid=b16ecb86-7786-404a-a71a-f426dc90fc6c"},"vehicle_type_id":"4","last_reported":1692130024,"current_range_meters":18000,"station_id":"ce4bgt92rcd13ifvqcf0","pricing_plan_id":"free"},{"bike_id":"0923c047-fd97-4202-b855-89c9050aeb58","system_id":"levelo_inurba_marseille","lat":43.313571,"lon":5.384829,"is_reserved":false,"is_disabled":false,"rental_uris":{"android":"levelo://app?vid=0923c047-fd97-4202-b855-89c9050aeb58","ios":"levelo://app?vid=0923c047-fd97-4202-b855-89c9050aeb58"},"vehicle_type_id":"4","last_reported":1692130024,"current_range_meters":13600,"station_id":"ce4bgt92rcd13ifvqcf0","pricing_plan_id":"free"},{"bike_id":"8544d0c7-c635-4b33-9428-d1b01e88dcba","system_id":"levelo_inurba_marseille","lat":43.299817,"lon":5.371792,"is_reserved":false,"is_disabled":false,"rental_uris":{"android":"levelo://app?vid=8544d0c7-c635-4b33-9428-d1b01e88dcba","ios":"levelo://app?vid=8544d0c7-c635-4b33-9428-d1b01e88dcba"},"vehicle_type_id":"4","last_reported":1692130024,"current_range_meters":11600,"station_id":"","pricing_plan_id":"free"},{"bike_id":"71581be9-5a3a-4d87-b18f-fc93e62a925a","system_id":"levelo_inurba_marseille","lat":43.29981,"lon":5.37176,"is_reserved":false,"is_disabled":false,"rental_uris":{"android":"levelo://app?vid=71581be9-5a3a-4d87-b18f-fc93e62a925a","ios":"levelo://app?vid=71581be9-5a3a-4d87-b18f-fc93e62a925a"},"vehicle_type_id":"4","last_reported":1692130024,"current_range_meters":6000,"station_id":"ce4bgr92rcd13ifvqc7g","pricing_plan_id":"free"},{"bike_id":"e9366c55-b9c0-4313-a23f-8dd2f4ed563c","system_id":"levelo_inurba_marseille","lat":43.299724,"lon":5.371829,"is_reserved":false,"is_disabled":false,"rental_uris":{"android":"levelo://app?vid=e9366c55-b9c0-4313-a23f-8dd2f4ed563c","ios":"levelo://app?vid=e9366c55-b9c0-4313-a23f-8dd2f4ed563c"},"vehicle_type_id":"4","last_reported":1692130024,"current_range_meters":0,"station_id":"ce4bgr92rcd13ifvqc7g","pricing_plan_id":"free"},{"bike_id":"5943ec21-8fcd-4f87-aa15-c28d1e0c0a69","system_id":"levelo_inurba_marseille","lat":43.299222,"lon":5.365554,"is_reserved":false,"is_disabled":false,"rental_uris":{"android":"levelo://app?vid=5943ec21-8fcd-4f87-aa15-c28d1e0c0a69","ios":"levelo://app?vid=5943ec21-8fcd-4f87-aa15-c28d1e0c0a69"},"vehicle_type_id":"4","last_reported":1692130024,"current_range_meters":16800,"station_id":"ce4bgm92rcd13ifvqbr0","pricing_plan_id":"free"},{"bike_id":"7c9375a0-22b8-4b17-bf28-68d5decff7c9","system_id":"levelo_inurba_marseille","lat":43.29967,"lon":5.37176,"is_reserved":false,"is_disabled":false,"rental_uris":{"android":"levelo://app?vid=7c9375a0-22b8-4b17-bf28-68d5decff7c9","ios":"levelo://app?vid=7c9375a0-22b8-4b17-bf28-68d5decff7c9"},"vehicle_type_id":"4","last_reported":1692130024,"current_range_meters":26400,"station_id":"ce4bgr92rcd13ifvqc7g","pricing_plan_id":"free"},{"bike_id":"178dfc5d-4024-41e1-ad90-160669cdc6eb","system_id":"levelo_inurba_marseille","lat":43.305364,"lon":5.384119,"is_reserved":false,"is_disabled":false,"rental_uris":{"android":"levelo://app?vid=178dfc5d-4024-41e1-ad90-160669cdc6eb","ios":"levelo://app?vid=178dfc5d-4024-41e1-ad90-160669cdc6eb"},"vehicle_type_id":"4","last_reported":1692130024,"current_range_meters":19600,"station_id":"ce4bgg92rcd13ifvqb30","pricing_plan_id":"free"},{"bike_id":"10d78123-189f-4cf7-918d-0763e5e1ac50","system_id":"levelo_inurba_marseille","lat":43.298433,"lon":5.362774,"is_reserved":false,"is_disabled":false,"rental_uris":{"android":"levelo://app?vid=10d78123-189f-4cf7-918d-0763e5e1ac50","ios":"levelo://app?vid=10d78123-189f-4cf7-918d-0763e5e1ac50"},"vehicle_type_id":"4","last_reported":1692130024,"current_range_meters":22400,"station_id":"ce4bgpp2rcd13ifvqc3g","pricing_plan_id":"free"},{"bike_id":"c6cf7047-56a0-420e-b84a-52e47d8af2df","system_id":"levelo_inurba_marseille","lat":43.299243,"lon":5.37481,"is_reserved":false,"is_disabled":false,"rental_uris":{"android":"levelo://app?vid=c6cf7047-56a0-420e-b84a-52e47d8af2df","ios":"levelo://app?vid=c6cf7047-56a0-420e-b84a-52e47d8af2df"},"vehicle_type_id":"4","last_reported":1692130024,"current_range_meters":18400,"station_id":"ce4bgjh2rcd13ifvqbg0","pricing_plan_id":"free"},{"bike_id":"4640c64a-a8a1-400f-b4ab-cc5c330d1fe1","system_id":"levelo_inurba_marseille","lat":43.311722,"lon":5.387247,"is_reserved":false,"is_disabled":false,"rental_uris":{"android":"levelo://app?vid=4640c64a-a8a1-400f-b4ab-cc5c330d1fe1","ios":"levelo://app?vid=4640c64a-a8a1-400f-b4ab-cc5c330d1fe1"},"vehicle_type_id":"4","last_reported":1692130024,"current_range_meters":23200,"station_id":"ce4bgv12rcd13ifvqcp0","pricing_plan_id":"free"},{"bike_id":"f79bffc3-3c7b-421b-9346-b4ed62996945","system_id":"levelo_inurba_marseille","lat":43.311722,"lon":5.387247,"is_reserved":false,"is_disabled":false,"rental_uris":{"android":"levelo://app?vid=f79bffc3-3c7b-421b-9346-b4ed62996945","ios":"levelo://app?vid=f79bffc3-3c7b-421b-9346-b4ed62996945"},"vehicle_type_id":"4","last_reported":1692130024,"current_range_meters":10000,"station_id":"ce4bgv12rcd13ifvqcp0","pricing_plan_id":"free"},{"bike_id":"40344447-6fad-4016-8ff9-2112beb9484c","system_id":"levelo_inurba_marseille","lat":43.311722,"lon":5.387247,"is_reserved":false,"is_disabled":false,"rental_uris":{"android":"levelo://app?vid=40344447-6fad-4016-8ff9-2112beb9484c","ios":"levelo://app?vid=40344447-6fad-4016-8ff9-2112beb9484c"},"vehicle_type_id":"4","last_reported":1692130024,"current_range_meters":27600,"station_id":"ce4bgv12rcd13ifvqcp0","pricing_plan_id":"free"},{"bike_id":"dfa6a3f4-b101-48f5-9b75-f830cc1d060d","system_id":"levelo_inurba_marseille","lat":43.311722,"lon":5.387247,"is_reserved":false,"is_disabled":false,"rental_uris":{"android":"levelo://app?vid=dfa6a3f4-b101-48f5-9b75-f830cc1d060d","ios":"levelo://app?vid=dfa6a3f4-b101-48f5-9b75-f830cc1d060d"},"vehicle_type_id":"4","last_reported":1692130024,"current_range_meters":16800,"station_id":"ce4bgv12rcd13ifvqcp0","pricing_plan_id":"free"},{"bike_id":"03c1387b-537a-46e7-979a-afa0e84e3a11","system_id":"levelo_inurba_marseille","lat":43.311722,"lon":5.387247,"is_reserved":false,"is_disabled":false,"rental_uris":{"android":"levelo://app?vid=03c1387b-537a-46e7-979a-afa0e84e3a11","ios":"levelo://app?vid=03c1387b-537a-46e7-979a-afa0e84e3a11"},"vehicle_type_id":"4","last_reported":1692130024,"current_range_meters":12000,"station_id":"ce4bgv12rcd13ifvqcp0","pricing_plan_id":"free"},{"bike_id":"1bf667cf-3514-4a07-b0cc-6779ab8ce747","system_id":"levelo_inurba_marseille","lat":43.32288,"lon":5.38258,"is_reserved":false,"is_disabled":false,"rental_uris":{"android":"levelo://app?vid=1bf667cf-3514-4a07-b0cc-6779ab8ce747","ios":"levelo://app?vid=1bf667cf-3514-4a07-b0cc-6779ab8ce747"},"vehicle_type_id":"4","last_reported":1692130024,"current_range_meters":19600,"station_id":"ce4bhr12rcd13ifvqhqg","pricing_plan_id":"free"},{"bike_id":"0920391e-69e3-4df2-b622-a24af4e50927","system_id":"levelo_inurba_marseille","lat":43.32286,"lon":5.38264,"is_reserved":false,"is_disabled":false,"rental_uris":{"android":"levelo://app?vid=0920391e-69e3-4df2-b622-a24af4e50927","ios":"levelo://app?vid=0920391e-69e3-4df2-b622-a24af4e50927"},"vehicle_type_id":"4","last_reported":1692130024,"current_range_meters":10800,"station_id":"ce4bhr12rcd13ifvqhqg","pricing_plan_id":"free"},{"bike_id":"72bd70a1-a7ed-4f44-8c47-40459e9dcf7b","system_id":"levelo_inurba_marseille","lat":43.29777,"lon":5.37107,"is_reserved":false,"is_disabled":false,"rental_uris":{"android":"levelo://app?vid=72bd70a1-a7ed-4f44-8c47-40459e9dcf7b","ios":"levelo://app?vid=72bd70a1-a7ed-4f44-8c47-40459e9dcf7b"},"vehicle_type_id":"4","last_reported":1692130024,"current_range_meters":0,"station_id":"ce4bgop2rcd13ifvqc1g","pricing_plan_id":"free"},{"bike_id":"be2dbf05-e75a-434c-8474-c4fc485123e4","system_id":"levelo_inurba_marseille","lat":43.32287,"lon":5.38265,"is_reserved":false,"is_disabled":false,"rental_uris":{"android":"levelo://app?vid=be2dbf05-e75a-434c-8474-c4fc485123e4","ios":"levelo://app?vid=be2dbf05-e75a-434c-8474-c4fc485123e4"},"vehicle_type_id":"4","last_reported":1692130024,"current_range_meters":9200,"station_id":"ce4bhr12rcd13ifvqhqg","pricing_plan_id":"free"},{"bike_id":"40d61921-eefb-499e-ac11-2e37aa404bf1","system_id":"levelo_inurba_marseille","lat":43.32288,"lon":5.38267,"is_reserved":false,"is_disabled":false,"rental_uris":{"android":"levelo://app?vid=40d61921-eefb-499e-ac11-2e37aa404bf1","ios":"levelo://app?vid=40d61921-eefb-499e-ac11-2e37aa404bf1"},"vehicle_type_id":"4","last_reported":1692130024,"current_range_meters":8800,"station_id":"ce4bhr12rcd13ifvqhqg","pricing_plan_id":"free"},{"bike_id":"c6b539db-5b03-411d-8927-985ab9f2f17e","system_id":"levelo_inurba_marseille","lat":43.32284,"lon":5.38272,"is_reserved":false,"is_disabled":false,"rental_uris":{"android":"levelo://app?vid=c6b539db-5b03-411d-8927-985ab9f2f17e","ios":"levelo://app?vid=c6b539db-5b03-411d-8927-985ab9f2f17e"},"vehicle_type_id":"4","last_reported":1692130024,"current_range_meters":5200,"station_id":"ce4bhr12rcd13ifvqhqg","pricing_plan_id":"free"},{"bike_id":"bded37d9-fa3d-4a53-adec-d8a907c4aaf0","system_id":"levelo_inurba_marseille","lat":43.32287,"lon":5.3827,"is_reserved":false,"is_disabled":false,"rental_uris":{"android":"levelo://app?vid=bded37d9-fa3d-4a53-adec-d8a907c4aaf0","ios":"levelo://app?vid=bded37d9-fa3d-4a53-adec-d8a907c4aaf0"},"vehicle_type_id":"4","last_reported":1692130024,"current_range_meters":29200,"station_id":"ce4bhr12rcd13ifvqhqg","pricing_plan_id":"free"},{"bike_id":"913ad8d8-ff4a-402b-845d-993d8ad47139","system_id":"levelo_inurba_marseille","lat":43.32292,"lon":5.38264,"is_reserved":false,"is_disabled":false,"rental_uris":{"android":"levelo://app?vid=913ad8d8-ff4a-402b-845d-993d8ad47139","ios":"levelo://app?vid=913ad8d8-ff4a-402b-845d-993d8ad47139"},"vehicle_type_id":"4","last_reported":1692130024,"current_range_meters":4400,"station_id":"ce4bhr12rcd13ifvqhqg","pricing_plan_id":"free"},{"bike_id":"63c7f395-d84e-4403-8b6b-575626818765","system_id":"levelo_inurba_marseille","lat":43.32286,"lon":5.38276,"is_reserved":false,"is_disabled":false,"rental_uris":{"android":"levelo://app?vid=63c7f395-d84e-4403-8b6b-575626818765","ios":"levelo://app?vid=63c7f395-d84e-4403-8b6b-575626818765"},"vehicle_type_id":"4","last_reported":1692130024,"current_range_meters":20400,"station_id":"ce4bhr12rcd13ifvqhqg","pricing_plan_id":"free"},{"bike_id":"2adb823d-b9c8-4ba4-888f-79c22a26332e","system_id":"levelo_inurba_marseille","lat":43.32821,"lon":5.36692,"is_reserved":false,"is_disabled":false,"rental_uris":{"android":"levelo://app?vid=2adb823d-b9c8-4ba4-888f-79c22a26332e","ios":"levelo://app?vid=2adb823d-b9c8-4ba4-888f-79c22a26332e"},"vehicle_type_id":"4","last_reported":1692130024,"current_range_meters":12000,"station_id":"ce4bhs92rcd13ifvqi0g","pricing_plan_id":"free"},{"bike_id":"4ed96fad-2e51-49a2-879d-e8c05ef80263","system_id":"levelo_inurba_marseille","lat":43.32821,"lon":5.36671,"is_reserved":false,"is_disabled":false,"rental_uris":{"android":"levelo://app?vid=4ed96fad-2e51-49a2-879d-e8c05ef80263","ios":"levelo://app?vid=4ed96fad-2e51-49a2-879d-e8c05ef80263"},"vehicle_type_id":"4","last_reported":1692130024,"current_range_meters":19200,"station_id":"ce4bhs92rcd13ifvqi0g","pricing_plan_id":"free"},{"bike_id":"c75e237f-9156-411a-b0a1-d9997b9f0b04","system_id":"levelo_inurba_marseille","lat":43.32822,"lon":5.3668,"is_reserved":false,"is_disabled":false,"rental_uris":{"android":"levelo://app?vid=c75e237f-9156-411a-b0a1-d9997b9f0b04","ios":"levelo://app?vid=c75e237f-9156-411a-b0a1-d9997b9f0b04"},"vehicle_type_id":"4","last_reported":1692130024,"current_range_meters":22000,"station_id":"ce4bhs92rcd13ifvqi0g","pricing_plan_id":"free"},{"bike_id":"1736c7ba-8528-4e9d-b0b7-74e427fcc3c4","system_id":"levelo_inurba_marseille","lat":43.328371,"lon":5.366909,"is_reserved":false,"is_disabled":false,"rental_uris":{"android":"levelo://app?vid=1736c7ba-8528-4e9d-b0b7-74e427fcc3c4","ios":"levelo://app?vid=1736c7ba-8528-4e9d-b0b7-74e427fcc3c4"},"vehicle_type_id":"4","last_reported":1692130024,"current_range_meters":14000,"station_id":"ce4bhs92rcd13ifvqi0g","pricing_plan_id":"free"},{"bike_id":"d2511d9c-66f0-4f3a-8e27-f68c39f7e2cf","system_id":"levelo_inurba_marseille","lat":43.32826,"lon":5.36677,"is_reserved":false,"is_disabled":false,"rental_uris":{"android":"levelo://app?vid=d2511d9c-66f0-4f3a-8e27-f68c39f7e2cf","ios":"levelo://app?vid=d2511d9c-66f0-4f3a-8e27-f68c39f7e2cf"},"vehicle_type_id":"4","last_reported":1692130024,"current_range_meters":13600,"station_id":"ce4bhs92rcd13ifvqi0g","pricing_plan_id":"free"},{"bike_id":"046f10ea-3e8a-411e-bc99-7f6ff65bca5d","system_id":"levelo_inurba_marseille","lat":43.32827,"lon":5.36686,"is_reserved":false,"is_disabled":false,"rental_uris":{"android":"levelo://app?vid=046f10ea-3e8a-411e-bc99-7f6ff65bca5d","ios":"levelo://app?vid=046f10ea-3e8a-411e-bc99-7f6ff65bca5d"},"vehicle_type_id":"4","last_reported":1692130024,"current_range_meters":3600,"station_id":"ce4bhs92rcd13ifvqi0g","pricing_plan_id":"free"},{"bike_id":"df80a436-77c5-45a5-bc80-336a70ffbd1b","system_id":"levelo_inurba_marseille","lat":43.328371,"lon":5.366909,"is_reserved":false,"is_disabled":false,"rental_uris":{"android":"levelo://app?vid=df80a436-77c5-45a5-bc80-336a70ffbd1b","ios":"levelo://app?vid=df80a436-77c5-45a5-bc80-336a70ffbd1b"},"vehicle_type_id":"4","last_reported":1692130024,"current_range_meters":19600,"station_id":"ce4bhs92rcd13ifvqi0g","pricing_plan_id":"free"},{"bike_id":"7a379839-87fc-4106-aec0-245d7b5a467b","system_id":"levelo_inurba_marseille","lat":43.328371,"lon":5.366909,"is_reserved":false,"is_disabled":false,"rental_uris":{"android":"levelo://app?vid=7a379839-87fc-4106-aec0-245d7b5a467b","ios":"levelo://app?vid=7a379839-87fc-4106-aec0-245d7b5a467b"},"vehicle_type_id":"4","last_reported":1692130024,"current_range_meters":18400,"station_id":"ce4bhs92rcd13ifvqi0g","pricing_plan_id":"free"},{"bike_id":"dd789220-e7b5-42c1-b9dc-dc4243148021","system_id":"levelo_inurba_marseille","lat":43.297163,"lon":5.365866,"is_reserved":false,"is_disabled":false,"rental_uris":{"android":"levelo://app?vid=dd789220-e7b5-42c1-b9dc-dc4243148021","ios":"levelo://app?vid=dd789220-e7b5-42c1-b9dc-dc4243148021"},"vehicle_type_id":"4","last_reported":1692130024,"current_range_meters":31200,"station_id":"ce4bgn12rcd13ifvqbt0","pricing_plan_id":"free"},{"bike_id":"85b59cc5-72eb-4326-b627-008f0c66a7a2","system_id":"levelo_inurba_marseille","lat":43.297163,"lon":5.365866,"is_reserved":false,"is_disabled":false,"rental_uris":{"android":"levelo://app?vid=85b59cc5-72eb-4326-b627-008f0c66a7a2","ios":"levelo://app?vid=85b59cc5-72eb-4326-b627-008f0c66a7a2"},"vehicle_type_id":"4","last_reported":1692130024,"current_range_meters":27200,"station_id":"ce4bgn12rcd13ifvqbt0","pricing_plan_id":"free"},{"bike_id":"f84ba6d9-b2f9-4ab6-abe0-d424a793ac7f","system_id":"levelo_inurba_marseille","lat":43.2968,"lon":5.37291,"is_reserved":false,"is_disabled":false,"rental_uris":{"android":"levelo://app?vid=f84ba6d9-b2f9-4ab6-abe0-d424a793ac7f","ios":"levelo://app?vid=f84ba6d9-b2f9-4ab6-abe0-d424a793ac7f"},"vehicle_type_id":"4","last_reported":1692130024,"current_range_meters":11200,"station_id":"ce4bgk12rcd13ifvqbj0","pricing_plan_id":"free"},{"bike_id":"8824c5bc-6d4e-4186-802b-3c877177a2ad","system_id":"levelo_inurba_marseille","lat":43.304296,"lon":5.397513,"is_reserved":false,"is_disabled":false,"rental_uris":{"android":"levelo://app?vid=8824c5bc-6d4e-4186-802b-3c877177a2ad","ios":"levelo://app?vid=8824c5bc-6d4e-4186-802b-3c877177a2ad"},"vehicle_type_id":"4","last_reported":1692130024,"current_range_meters":9200,"station_id":"ce4bh092rcd13ifvqd20","pricing_plan_id":"free"},{"bike_id":"0c16fd08-1d8d-44ab-8fd3-7ffb6e7e61a0","system_id":"levelo_inurba_marseille","lat":43.296131,"lon":5.370791,"is_reserved":false,"is_disabled":false,"rental_uris":{"android":"levelo://app?vid=0c16fd08-1d8d-44ab-8fd3-7ffb6e7e61a0","ios":"levelo://app?vid=0c16fd08-1d8d-44ab-8fd3-7ffb6e7e61a0"},"vehicle_type_id":"4","last_reported":1692130024,"current_range_meters":31200,"station_id":"ce4bgnh2rcd13ifvqc0g","pricing_plan_id":"free"},{"bike_id":"8abf38b4-35d5-477f-a802-fd2c0065b254","system_id":"levelo_inurba_marseille","lat":43.296921,"lon":5.376579,"is_reserved":false,"is_disabled":false,"rental_uris":{"android":"levelo://app?vid=8abf38b4-35d5-477f-a802-fd2c0065b254","ios":"levelo://app?vid=8abf38b4-35d5-477f-a802-fd2c0065b254"},"vehicle_type_id":"4","last_reported":1692130024,"current_range_meters":29200,"station_id":"ce4bgkh2rcd13ifvqbl0","pricing_plan_id":"free"},{"bike_id":"6aaadac3-63a5-45bf-a268-93e54946c612","system_id":"levelo_inurba_marseille","lat":43.299028,"lon":5.381509,"is_reserved":false,"is_disabled":false,"rental_uris":{"android":"levelo://app?vid=6aaadac3-63a5-45bf-a268-93e54946c612","ios":"levelo://app?vid=6aaadac3-63a5-45bf-a268-93e54946c612"},"vehicle_type_id":"4","last_reported":1692130024,"current_range_meters":16000,"station_id":"ce4bgj12rcd13ifvqbc0","pricing_plan_id":"free"},{"bike_id":"50a833ea-d28d-43ef-bb8b-734bacfd48ba","system_id":"levelo_inurba_marseille","lat":43.30953,"lon":5.390223,"is_reserved":false,"is_disabled":false,"rental_uris":{"android":"levelo://app?vid=50a833ea-d28d-43ef-bb8b-734bacfd48ba","ios":"levelo://app?vid=50a833ea-d28d-43ef-bb8b-734bacfd48ba"},"vehicle_type_id":"4","last_reported":1692130024,"current_range_meters":14400,"station_id":"","pricing_plan_id":"free"},{"bike_id":"430f6ebb-ad2f-4080-a7f7-25c1ecfd2046","system_id":"levelo_inurba_marseille","lat":43.299028,"lon":5.381509,"is_reserved":false,"is_disabled":false,"rental_uris":{"android":"levelo://app?vid=430f6ebb-ad2f-4080-a7f7-25c1ecfd2046","ios":"levelo://app?vid=430f6ebb-ad2f-4080-a7f7-25c1ecfd2046"},"vehicle_type_id":"4","last_reported":1692130024,"current_range_meters":4400,"station_id":"ce4bgj12rcd13ifvqbc0","pricing_plan_id":"free"},{"bike_id":"f657d3d3-342c-4030-94a3-d384d7f78546","system_id":"levelo_inurba_marseille","lat":43.299028,"lon":5.381509,"is_reserved":false,"is_disabled":false,"rental_uris":{"android":"levelo://app?vid=f657d3d3-342c-4030-94a3-d384d7f78546","ios":"levelo://app?vid=f657d3d3-342c-4030-94a3-d384d7f78546"},"vehicle_type_id":"4","last_reported":1692130024,"current_range_meters":21200,"station_id":"ce4bgj12rcd13ifvqbc0","pricing_plan_id":"free"},{"bike_id":"4c9b13d8-c005-4989-98e3-a95f23374f75","system_id":"levelo_inurba_marseille","lat":43.299028,"lon":5.381509,"is_reserved":false,"is_disabled":false,"rental_uris":{"android":"levelo://app?vid=4c9b13d8-c005-4989-98e3-a95f23374f75","ios":"levelo://app?vid=4c9b13d8-c005-4989-98e3-a95f23374f75"},"vehicle_type_id":"4","last_reported":1692130024,"current_range_meters":0,"station_id":"ce4bgj12rcd13ifvqbc0","pricing_plan_id":"free"},{"bike_id":"33b9b85d-cfa9-4682-a63f-b02ab349d984","system_id":"levelo_inurba_marseille","lat":43.297037,"lon":5.376925,"is_reserved":false,"is_disabled":false,"rental_uris":{"android":"levelo://app?vid=33b9b85d-cfa9-4682-a63f-b02ab349d984","ios":"levelo://app?vid=33b9b85d-cfa9-4682-a63f-b02ab349d984"},"vehicle_type_id":"4","last_reported":1692130024,"current_range_meters":23600,"station_id":"ce4bh412rcd13ifvqds0","pricing_plan_id":"free"},{"bike_id":"d0504708-c4cc-4532-84fc-a6d7ce927b84","system_id":"levelo_inurba_marseille","lat":43.299028,"lon":5.381509,"is_reserved":false,"is_disabled":false,"rental_uris":{"android":"levelo://app?vid=d0504708-c4cc-4532-84fc-a6d7ce927b84","ios":"levelo://app?vid=d0504708-c4cc-4532-84fc-a6d7ce927b84"},"vehicle_type_id":"4","last_reported":1692130024,"current_range_meters":10800,"station_id":"ce4bgj12rcd13ifvqbc0","pricing_plan_id":"free"},{"bike_id":"335f7005-d31c-4180-8355-1f11a118fcdf","system_id":"levelo_inurba_marseille","lat":43.29706,"lon":5.37704,"is_reserved":false,"is_disabled":false,"rental_uris":{"android":"levelo://app?vid=335f7005-d31c-4180-8355-1f11a118fcdf","ios":"levelo://app?vid=335f7005-d31c-4180-8355-1f11a118fcdf"},"vehicle_type_id":"4","last_reported":1692130024,"current_range_meters":1600,"station_id":"","pricing_plan_id":"free"},{"bike_id":"95193720-60c4-44fc-9146-4ec4e2547400","system_id":"levelo_inurba_marseille","lat":43.309589,"lon":5.390258,"is_reserved":false,"is_disabled":false,"rental_uris":{"android":"levelo://app?vid=95193720-60c4-44fc-9146-4ec4e2547400","ios":"levelo://app?vid=95193720-60c4-44fc-9146-4ec4e2547400"},"vehicle_type_id":"4","last_reported":1692130024,"current_range_meters":14400,"station_id":"ce4bgup2rcd13ifvqco0","pricing_plan_id":"free"},{"bike_id":"658ceb66-2433-4447-b48a-928800e12f8c","system_id":"levelo_inurba_marseille","lat":43.317557,"lon":5.390173,"is_reserved":false,"is_disabled":false,"rental_uris":{"android":"levelo://app?vid=658ceb66-2433-4447-b48a-928800e12f8c","ios":"levelo://app?vid=658ceb66-2433-4447-b48a-928800e12f8c"},"vehicle_type_id":"4","last_reported":1692130024,"current_range_meters":22800,"station_id":"ce4bhqp2rcd13ifvqhng","pricing_plan_id":"free"},{"bike_id":"44b455a2-dfd5-4084-aba3-b42da4455c26","system_id":"levelo_inurba_marseille","lat":43.298037,"lon":5.381066,"is_reserved":false,"is_disabled":false,"rental_uris":{"android":"levelo://app?vid=44b455a2-dfd5-4084-aba3-b42da4455c26","ios":"levelo://app?vid=44b455a2-dfd5-4084-aba3-b42da4455c26"},"vehicle_type_id":"4","last_reported":1692130024,"current_range_meters":0,"station_id":"ce4bgip2rcd13ifvqbb0","pricing_plan_id":"free"},{"bike_id":"a4df99ce-0488-49dd-a888-94686f562e88","system_id":"levelo_inurba_marseille","lat":43.295748,"lon":5.37522,"is_reserved":false,"is_disabled":false,"rental_uris":{"android":"levelo://app?vid=a4df99ce-0488-49dd-a888-94686f562e88","ios":"levelo://app?vid=a4df99ce-0488-49dd-a888-94686f562e88"},"vehicle_type_id":"4","last_reported":1692130024,"current_range_meters":31200,"station_id":"ce4bgh92rcd13ifvqb50","pricing_plan_id":"free"},{"bike_id":"8e1be5e0-9ddb-47bf-a7ca-19c47903f3ef","system_id":"levelo_inurba_marseille","lat":43.3043,"lon":5.38897,"is_reserved":false,"is_disabled":false,"rental_uris":{"android":"levelo://app?vid=8e1be5e0-9ddb-47bf-a7ca-19c47903f3ef","ios":"levelo://app?vid=8e1be5e0-9ddb-47bf-a7ca-19c47903f3ef"},"vehicle_type_id":"4","last_reported":1692130024,"current_range_meters":24400,"station_id":"ce4bgk12rcd13ifvqbi0","pricing_plan_id":"free"},{"bike_id":"7e28ea37-af04-4a5f-be99-6c16bb35c390","system_id":"levelo_inurba_marseille","lat":43.299724,"lon":5.384848,"is_reserved":false,"is_disabled":false,"rental_uris":{"android":"levelo://app?vid=7e28ea37-af04-4a5f-be99-6c16bb35c390","ios":"levelo://app?vid=7e28ea37-af04-4a5f-be99-6c16bb35c390"},"vehicle_type_id":"4","last_reported":1692130024,"current_range_meters":3200,"station_id":"ce4bgj92rcd13ifvqbd0","pricing_plan_id":"free"},{"bike_id":"f95b683b-7c27-4980-8343-d5a1ed7c33ee","system_id":"levelo_inurba_marseille","lat":43.29602,"lon":5.381084,"is_reserved":false,"is_disabled":false,"rental_uris":{"android":"levelo://app?vid=f95b683b-7c27-4980-8343-d5a1ed7c33ee","ios":"levelo://app?vid=f95b683b-7c27-4980-8343-d5a1ed7c33ee"},"vehicle_type_id":"4","last_reported":1692130024,"current_range_meters":13200,"station_id":"ce4bgl12rcd13ifvqbo0","pricing_plan_id":"free"},{"bike_id":"176cfbc9-8d68-4000-9be7-6eeb3447682e","system_id":"levelo_inurba_marseille","lat":43.32367,"lon":5.388836,"is_reserved":false,"is_disabled":false,"rental_uris":{"android":"levelo://app?vid=176cfbc9-8d68-4000-9be7-6eeb3447682e","ios":"levelo://app?vid=176cfbc9-8d68-4000-9be7-6eeb3447682e"},"vehicle_type_id":"4","last_reported":1692130024,"current_range_meters":14400,"station_id":"ce4bhqp2rcd13ifvqhog","pricing_plan_id":"free"},{"bike_id":"222c88d4-2a12-4531-aa15-17c9c7f8f23b","system_id":"levelo_inurba_marseille","lat":43.32367,"lon":5.388836,"is_reserved":false,"is_disabled":false,"rental_uris":{"android":"levelo://app?vid=222c88d4-2a12-4531-aa15-17c9c7f8f23b","ios":"levelo://app?vid=222c88d4-2a12-4531-aa15-17c9c7f8f23b"},"vehicle_type_id":"4","last_reported":1692130024,"current_range_meters":22000,"station_id":"ce4bhqp2rcd13ifvqhog","pricing_plan_id":"free"},{"bike_id":"30e5381a-5b75-4137-8d6b-cd43732e8a15","system_id":"levelo_inurba_marseille","lat":43.29602,"lon":5.381084,"is_reserved":false,"is_disabled":false,"rental_uris":{"android":"levelo://app?vid=30e5381a-5b75-4137-8d6b-cd43732e8a15","ios":"levelo://app?vid=30e5381a-5b75-4137-8d6b-cd43732e8a15"},"vehicle_type_id":"4","last_reported":1692130024,"current_range_meters":6800,"station_id":"ce4bgl12rcd13ifvqbo0","pricing_plan_id":"free"},{"bike_id":"b2cbb229-fe18-4b75-8470-a0844d257837","system_id":"levelo_inurba_marseille","lat":43.29602,"lon":5.381084,"is_reserved":false,"is_disabled":false,"rental_uris":{"android":"levelo://app?vid=b2cbb229-fe18-4b75-8470-a0844d257837","ios":"levelo://app?vid=b2cbb229-fe18-4b75-8470-a0844d257837"},"vehicle_type_id":"4","last_reported":1692130024,"current_range_meters":22800,"station_id":"ce4bgl12rcd13ifvqbo0","pricing_plan_id":"free"},{"bike_id":"ee6bd6f0-5f34-4516-b5e0-42ec79a07c53","system_id":"levelo_inurba_marseille","lat":43.29602,"lon":5.381084,"is_reserved":false,"is_disabled":false,"rental_uris":{"android":"levelo://app?vid=ee6bd6f0-5f34-4516-b5e0-42ec79a07c53","ios":"levelo://app?vid=ee6bd6f0-5f34-4516-b5e0-42ec79a07c53"},"vehicle_type_id":"4","last_reported":1692130024,"current_range_meters":8800,"station_id":"ce4bgl12rcd13ifvqbo0","pricing_plan_id":"free"},{"bike_id":"e59440e5-d64e-4dae-b60e-729055a6c315","system_id":"levelo_inurba_marseille","lat":43.29589,"lon":5.38113,"is_reserved":false,"is_disabled":false,"rental_uris":{"android":"levelo://app?vid=e59440e5-d64e-4dae-b60e-729055a6c315","ios":"levelo://app?vid=e59440e5-d64e-4dae-b60e-729055a6c315"},"vehicle_type_id":"4","last_reported":1692130024,"current_range_meters":1600,"station_id":"","pricing_plan_id":"free"},{"bike_id":"f27f85a0-3af3-4957-835f-102da70b9243","system_id":"levelo_inurba_marseille","lat":43.292749,"lon":5.368402,"is_reserved":false,"is_disabled":false,"rental_uris":{"android":"levelo://app?vid=f27f85a0-3af3-4957-835f-102da70b9243","ios":"levelo://app?vid=f27f85a0-3af3-4957-835f-102da70b9243"},"vehicle_type_id":"4","last_reported":1692130024,"current_range_meters":29200,"station_id":"ce4bhbp2rcd13ifvqesg","pricing_plan_id":"free"},{"bike_id":"a37474b5-a1ae-4f26-9ee4-b9753b2f3a41","system_id":"levelo_inurba_marseille","lat":43.29306,"lon":5.3718,"is_reserved":false,"is_disabled":false,"rental_uris":{"android":"levelo://app?vid=a37474b5-a1ae-4f26-9ee4-b9753b2f3a41","ios":"levelo://app?vid=a37474b5-a1ae-4f26-9ee4-b9753b2f3a41"},"vehicle_type_id":"4","last_reported":1692130024,"current_range_meters":18400,"station_id":"ce4bgh92rcd13ifvqb40","pricing_plan_id":"free"},{"bike_id":"022726cd-30ae-4d2e-aa6e-39ceedc1c651","system_id":"levelo_inurba_marseille","lat":43.29306,"lon":5.37181,"is_reserved":false,"is_disabled":false,"rental_uris":{"android":"levelo://app?vid=022726cd-30ae-4d2e-aa6e-39ceedc1c651","ios":"levelo://app?vid=022726cd-30ae-4d2e-aa6e-39ceedc1c651"},"vehicle_type_id":"4","last_reported":1692130024,"current_range_meters":3600,"station_id":"ce4bgh92rcd13ifvqb40","pricing_plan_id":"free"},{"bike_id":"dc8f7d89-8e9d-44d8-88b5-71dc62912984","system_id":"levelo_inurba_marseille","lat":43.29306,"lon":5.37183,"is_reserved":false,"is_disabled":false,"rental_uris":{"android":"levelo://app?vid=dc8f7d89-8e9d-44d8-88b5-71dc62912984","ios":"levelo://app?vid=dc8f7d89-8e9d-44d8-88b5-71dc62912984"},"vehicle_type_id":"4","last_reported":1692130024,"current_range_meters":16000,"station_id":"ce4bgh92rcd13ifvqb40","pricing_plan_id":"free"},{"bike_id":"eeb863ed-8906-4416-8ab7-315640796e87","system_id":"levelo_inurba_marseille","lat":43.29305,"lon":5.37183,"is_reserved":false,"is_disabled":false,"rental_uris":{"android":"levelo://app?vid=eeb863ed-8906-4416-8ab7-315640796e87","ios":"levelo://app?vid=eeb863ed-8906-4416-8ab7-315640796e87"},"vehicle_type_id":"4","last_reported":1692130024,"current_range_meters":16400,"station_id":"ce4bgh92rcd13ifvqb40","pricing_plan_id":"free"},{"bike_id":"1ede6bad-7abf-45e1-997d-f156d2f1e644","system_id":"levelo_inurba_marseille","lat":43.29299,"lon":5.3718,"is_reserved":false,"is_disabled":false,"rental_uris":{"android":"levelo://app?vid=1ede6bad-7abf-45e1-997d-f156d2f1e644","ios":"levelo://app?vid=1ede6bad-7abf-45e1-997d-f156d2f1e644"},"vehicle_type_id":"4","last_reported":1692130024,"current_range_meters":11600,"station_id":"ce4bgh92rcd13ifvqb40","pricing_plan_id":"free"},{"bike_id":"dbe406a0-e31d-4174-932b-0d8d584d17c2","system_id":"levelo_inurba_marseille","lat":43.292749,"lon":5.368398,"is_reserved":false,"is_disabled":false,"rental_uris":{"android":"levelo://app?vid=dbe406a0-e31d-4174-932b-0d8d584d17c2","ios":"levelo://app?vid=dbe406a0-e31d-4174-932b-0d8d584d17c2"},"vehicle_type_id":"4","last_reported":1692130024,"current_range_meters":30400,"station_id":"ce4bhbp2rcd13ifvqesg","pricing_plan_id":"free"},{"bike_id":"aa9eda51-0625-473d-9651-f6787e5ae9a0","system_id":"levelo_inurba_marseille","lat":43.29296,"lon":5.37197,"is_reserved":false,"is_disabled":false,"rental_uris":{"android":"levelo://app?vid=aa9eda51-0625-473d-9651-f6787e5ae9a0","ios":"levelo://app?vid=aa9eda51-0625-473d-9651-f6787e5ae9a0"},"vehicle_type_id":"4","last_reported":1692130024,"current_range_meters":21600,"station_id":"ce4bgh92rcd13ifvqb40","pricing_plan_id":"free"},{"bike_id":"067f8c71-2bb2-4d1d-b9ca-63d13128fb13","system_id":"levelo_inurba_marseille","lat":43.293009,"lon":5.374584,"is_reserved":false,"is_disabled":false,"rental_uris":{"android":"levelo://app?vid=067f8c71-2bb2-4d1d-b9ca-63d13128fb13","ios":"levelo://app?vid=067f8c71-2bb2-4d1d-b9ca-63d13128fb13"},"vehicle_type_id":"4","last_reported":1692130024,"current_range_meters":25600,"station_id":"ce4bgi12rcd13ifvqb70","pricing_plan_id":"free"},{"bike_id":"a79f0ccb-5d08-4e60-910f-f1e75cc9c736","system_id":"levelo_inurba_marseille","lat":43.305994,"lon":5.393687,"is_reserved":false,"is_disabled":false,"rental_uris":{"android":"levelo://app?vid=a79f0ccb-5d08-4e60-910f-f1e75cc9c736","ios":"levelo://app?vid=a79f0ccb-5d08-4e60-910f-f1e75cc9c736"},"vehicle_type_id":"4","last_reported":1692130024,"current_range_meters":14800,"station_id":"ce4bh0p2rcd13ifvqd80","pricing_plan_id":"free"},{"bike_id":"a828c6bf-6aa0-433a-9d08-697670c697ea","system_id":"levelo_inurba_marseille","lat":43.305994,"lon":5.393687,"is_reserved":false,"is_disabled":false,"rental_uris":{"android":"levelo://app?vid=a828c6bf-6aa0-433a-9d08-697670c697ea","ios":"levelo://app?vid=a828c6bf-6aa0-433a-9d08-697670c697ea"},"vehicle_type_id":"4","last_reported":1692130024,"current_range_meters":2000,"station_id":"ce4bh0p2rcd13ifvqd80","pricing_plan_id":"free"},{"bike_id":"95c249b6-228e-4c61-b5ab-4e2e3b18ce39","system_id":"levelo_inurba_marseille","lat":43.300852,"lon":5.390859,"is_reserved":false,"is_disabled":false,"rental_uris":{"android":"levelo://app?vid=95c249b6-228e-4c61-b5ab-4e2e3b18ce39","ios":"levelo://app?vid=95c249b6-228e-4c61-b5ab-4e2e3b18ce39"},"vehicle_type_id":"4","last_reported":1692130024,"current_range_meters":14000,"station_id":"ce4bh192rcd13ifvqdb0","pricing_plan_id":"free"},{"bike_id":"3ff52e55-aba7-46c5-98e3-26cfd98466ea","system_id":"levelo_inurba_marseille","lat":43.300852,"lon":5.390859,"is_reserved":false,"is_disabled":false,"rental_uris":{"android":"levelo://app?vid=3ff52e55-aba7-46c5-98e3-26cfd98466ea","ios":"levelo://app?vid=3ff52e55-aba7-46c5-98e3-26cfd98466ea"},"vehicle_type_id":"4","last_reported":1692130024,"current_range_meters":18000,"station_id":"ce4bh192rcd13ifvqdb0","pricing_plan_id":"free"},{"bike_id":"dcedbe2b-ae67-4f6c-bac8-9d1c28983809","system_id":"levelo_inurba_marseille","lat":43.29889,"lon":5.38898,"is_reserved":false,"is_disabled":false,"rental_uris":{"android":"levelo://app?vid=dcedbe2b-ae67-4f6c-bac8-9d1c28983809","ios":"levelo://app?vid=dcedbe2b-ae67-4f6c-bac8-9d1c28983809"},"vehicle_type_id":"4","last_reported":1692130024,"current_range_meters":20400,"station_id":"ce4bh392rcd13ifvqdl0","pricing_plan_id":"free"},{"bike_id":"15b5ab1a-0868-4315-a45e-f617e2f4d335","system_id":"levelo_inurba_marseille","lat":43.2926,"lon":5.37612,"is_reserved":false,"is_disabled":false,"rental_uris":{"android":"levelo://app?vid=15b5ab1a-0868-4315-a45e-f617e2f4d335","ios":"levelo://app?vid=15b5ab1a-0868-4315-a45e-f617e2f4d335"},"vehicle_type_id":"4","last_reported":1692130024,"current_range_meters":28400,"station_id":"","pricing_plan_id":"free"},{"bike_id":"da7499f3-8e4b-41f8-b34e-01a4a1001be6","system_id":"levelo_inurba_marseille","lat":43.291671,"lon":5.371575,"is_reserved":false,"is_disabled":false,"rental_uris":{"android":"levelo://app?vid=da7499f3-8e4b-41f8-b34e-01a4a1001be6","ios":"levelo://app?vid=da7499f3-8e4b-41f8-b34e-01a4a1001be6"},"vehicle_type_id":"4","last_reported":1692130024,"current_range_meters":12800,"station_id":"ce4bha92rcd13ifvqeh0","pricing_plan_id":"free"},{"bike_id":"961e0897-dcd7-41d3-b1d4-94c5a4d9c152","system_id":"levelo_inurba_marseille","lat":43.309038,"lon":5.396546,"is_reserved":false,"is_disabled":false,"rental_uris":{"android":"levelo://app?vid=961e0897-dcd7-41d3-b1d4-94c5a4d9c152","ios":"levelo://app?vid=961e0897-dcd7-41d3-b1d4-94c5a4d9c152"},"vehicle_type_id":"4","last_reported":1692130024,"current_range_meters":18000,"station_id":"ce4bh012rcd13ifvqcv0","pricing_plan_id":"free"},{"bike_id":"6ae1f106-359d-4eb1-a5e5-0118a1a9f087","system_id":"levelo_inurba_marseille","lat":43.313291,"lon":5.396838,"is_reserved":false,"is_disabled":false,"rental_uris":{"android":"levelo://app?vid=6ae1f106-359d-4eb1-a5e5-0118a1a9f087","ios":"levelo://app?vid=6ae1f106-359d-4eb1-a5e5-0118a1a9f087"},"vehicle_type_id":"4","last_reported":1692130024,"current_range_meters":4400,"station_id":"ce4bgvp2rcd13ifvqcu0","pricing_plan_id":"free"},{"bike_id":"a5181f38-a55c-40e6-b9c7-95f14084b571","system_id":"levelo_inurba_marseille","lat":43.309038,"lon":5.396546,"is_reserved":false,"is_disabled":false,"rental_uris":{"android":"levelo://app?vid=a5181f38-a55c-40e6-b9c7-95f14084b571","ios":"levelo://app?vid=a5181f38-a55c-40e6-b9c7-95f14084b571"},"vehicle_type_id":"4","last_reported":1692130024,"current_range_meters":13200,"station_id":"ce4bh012rcd13ifvqcv0","pricing_plan_id":"free"},{"bike_id":"8188ea92-b322-45e8-9485-861a1ded7ea4","system_id":"levelo_inurba_marseille","lat":43.309038,"lon":5.396546,"is_reserved":false,"is_disabled":false,"rental_uris":{"android":"levelo://app?vid=8188ea92-b322-45e8-9485-861a1ded7ea4","ios":"levelo://app?vid=8188ea92-b322-45e8-9485-861a1ded7ea4"},"vehicle_type_id":"4","last_reported":1692130024,"current_range_meters":16000,"station_id":"ce4bh012rcd13ifvqcv0","pricing_plan_id":"free"},{"bike_id":"ebf2153f-5689-47fd-8b6e-e473df5efc51","system_id":"levelo_inurba_marseille","lat":43.309038,"lon":5.396546,"is_reserved":false,"is_disabled":false,"rental_uris":{"android":"levelo://app?vid=ebf2153f-5689-47fd-8b6e-e473df5efc51","ios":"levelo://app?vid=ebf2153f-5689-47fd-8b6e-e473df5efc51"},"vehicle_type_id":"4","last_reported":1692130024,"current_range_meters":4400,"station_id":"ce4bh012rcd13ifvqcv0","pricing_plan_id":"free"},{"bike_id":"ec716255-127f-4b84-bdb6-2d5046d302fb","system_id":"levelo_inurba_marseille","lat":43.29524,"lon":5.38531,"is_reserved":false,"is_disabled":false,"rental_uris":{"android":"levelo://app?vid=ec716255-127f-4b84-bdb6-2d5046d302fb","ios":"levelo://app?vid=ec716255-127f-4b84-bdb6-2d5046d302fb"},"vehicle_type_id":"4","last_reported":1692130024,"current_range_meters":0,"station_id":"ce4bgih2rcd13ifvqba0","pricing_plan_id":"free"},{"bike_id":"ae10f136-5a3c-429a-8179-7ce5a1444ed1","system_id":"levelo_inurba_marseille","lat":43.29528,"lon":5.38541,"is_reserved":false,"is_disabled":false,"rental_uris":{"android":"levelo://app?vid=ae10f136-5a3c-429a-8179-7ce5a1444ed1","ios":"levelo://app?vid=ae10f136-5a3c-429a-8179-7ce5a1444ed1"},"vehicle_type_id":"4","last_reported":1692130024,"current_range_meters":12800,"station_id":"ce4bgih2rcd13ifvqba0","pricing_plan_id":"free"},{"bike_id":"042e38d3-81fc-4773-afef-91b1f0092bad","system_id":"levelo_inurba_marseille","lat":43.29524,"lon":5.38534,"is_reserved":false,"is_disabled":false,"rental_uris":{"android":"levelo://app?vid=042e38d3-81fc-4773-afef-91b1f0092bad","ios":"levelo://app?vid=042e38d3-81fc-4773-afef-91b1f0092bad"},"vehicle_type_id":"4","last_reported":1692130024,"current_range_meters":9600,"station_id":"ce4bgih2rcd13ifvqba0","pricing_plan_id":"free"},{"bike_id":"a7c60b6f-2be8-4b03-8621-7a24613d77a0","system_id":"levelo_inurba_marseille","lat":43.29529,"lon":5.385581,"is_reserved":false,"is_disabled":false,"rental_uris":{"android":"levelo://app?vid=a7c60b6f-2be8-4b03-8621-7a24613d77a0","ios":"levelo://app?vid=a7c60b6f-2be8-4b03-8621-7a24613d77a0"},"vehicle_type_id":"4","last_reported":1692130024,"current_range_meters":6800,"station_id":"ce4bgih2rcd13ifvqba0","pricing_plan_id":"free"},{"bike_id":"1b949477-0992-44e7-ae5d-d15cc177eaaf","system_id":"levelo_inurba_marseille","lat":43.29529,"lon":5.385581,"is_reserved":false,"is_disabled":false,"rental_uris":{"android":"levelo://app?vid=1b949477-0992-44e7-ae5d-d15cc177eaaf","ios":"levelo://app?vid=1b949477-0992-44e7-ae5d-d15cc177eaaf"},"vehicle_type_id":"4","last_reported":1692130024,"current_range_meters":23200,"station_id":"ce4bgih2rcd13ifvqba0","pricing_plan_id":"free"},{"bike_id":"a2ad4c9e-b82c-4b10-a2d7-dab2dd3bf5e0","system_id":"levelo_inurba_marseille","lat":43.295008,"lon":5.386266,"is_reserved":false,"is_disabled":false,"rental_uris":{"android":"levelo://app?vid=a2ad4c9e-b82c-4b10-a2d7-dab2dd3bf5e0","ios":"levelo://app?vid=a2ad4c9e-b82c-4b10-a2d7-dab2dd3bf5e0"},"vehicle_type_id":"4","last_reported":1692130024,"current_range_meters":8400,"station_id":"ce4bh2h2rcd13ifvqdh0","pricing_plan_id":"free"},{"bike_id":"0fcf5033-14f7-444e-943a-0b3db7d0ffd5","system_id":"levelo_inurba_marseille","lat":43.302008,"lon":5.394694,"is_reserved":false,"is_disabled":false,"rental_uris":{"android":"levelo://app?vid=0fcf5033-14f7-444e-943a-0b3db7d0ffd5","ios":"levelo://app?vid=0fcf5033-14f7-444e-943a-0b3db7d0ffd5"},"vehicle_type_id":"4","last_reported":1692130024,"current_range_meters":8400,"station_id":"ce4bh0p2rcd13ifvqd70","pricing_plan_id":"free"},{"bike_id":"97d4bd2f-1a27-4d46-a075-8db17e0401e6","system_id":"levelo_inurba_marseille","lat":43.294228,"lon":5.38615,"is_reserved":false,"is_disabled":false,"rental_uris":{"android":"levelo://app?vid=97d4bd2f-1a27-4d46-a075-8db17e0401e6","ios":"levelo://app?vid=97d4bd2f-1a27-4d46-a075-8db17e0401e6"},"vehicle_type_id":"4","last_reported":1692130024,"current_range_meters":28800,"station_id":"ce4bh2h2rcd13ifvqdh0","pricing_plan_id":"free"},{"bike_id":"17ca7429-e276-4d3f-8c63-714052858a0b","system_id":"levelo_inurba_marseille","lat":43.29418,"lon":5.38622,"is_reserved":false,"is_disabled":false,"rental_uris":{"android":"levelo://app?vid=17ca7429-e276-4d3f-8c63-714052858a0b","ios":"levelo://app?vid=17ca7429-e276-4d3f-8c63-714052858a0b"},"vehicle_type_id":"4","last_reported":1692130024,"current_range_meters":22800,"station_id":"ce4bh2h2rcd13ifvqdh0","pricing_plan_id":"free"},{"bike_id":"c9a7dc1c-d4b5-4b66-af1f-0b2cf5c54565","system_id":"levelo_inurba_marseille","lat":43.29416,"lon":5.38619,"is_reserved":false,"is_disabled":false,"rental_uris":{"android":"levelo://app?vid=c9a7dc1c-d4b5-4b66-af1f-0b2cf5c54565","ios":"levelo://app?vid=c9a7dc1c-d4b5-4b66-af1f-0b2cf5c54565"},"vehicle_type_id":"4","last_reported":1692130024,"current_range_meters":12400,"station_id":"ce4bh2h2rcd13ifvqdh0","pricing_plan_id":"free"},{"bike_id":"fcaacc13-a96c-41b9-8ef8-d66b7537752c","system_id":"levelo_inurba_marseille","lat":43.29413,"lon":5.38617,"is_reserved":false,"is_disabled":false,"rental_uris":{"android":"levelo://app?vid=fcaacc13-a96c-41b9-8ef8-d66b7537752c","ios":"levelo://app?vid=fcaacc13-a96c-41b9-8ef8-d66b7537752c"},"vehicle_type_id":"4","last_reported":1692130024,"current_range_meters":12400,"station_id":"ce4bh2h2rcd13ifvqdh0","pricing_plan_id":"free"},{"bike_id":"cf308a37-45f8-46a7-bea6-3e0d29dd7309","system_id":"levelo_inurba_marseille","lat":43.29415,"lon":5.38621,"is_reserved":false,"is_disabled":false,"rental_uris":{"android":"levelo://app?vid=cf308a37-45f8-46a7-bea6-3e0d29dd7309","ios":"levelo://app?vid=cf308a37-45f8-46a7-bea6-3e0d29dd7309"},"vehicle_type_id":"4","last_reported":1692130024,"current_range_meters":12400,"station_id":"ce4bh2h2rcd13ifvqdh0","pricing_plan_id":"free"},{"bike_id":"99a302df-ddd9-44a9-b1fa-9ed9f0281b23","system_id":"levelo_inurba_marseille","lat":43.290327,"lon":5.375711,"is_reserved":false,"is_disabled":false,"rental_uris":{"android":"levelo://app?vid=99a302df-ddd9-44a9-b1fa-9ed9f0281b23","ios":"levelo://app?vid=99a302df-ddd9-44a9-b1fa-9ed9f0281b23"},"vehicle_type_id":"4","last_reported":1692130024,"current_range_meters":30800,"station_id":"ce4bh692rcd13ifvqe90","pricing_plan_id":"free"},{"bike_id":"0eaf951a-3397-4880-b026-bcf4777e1f12","system_id":"levelo_inurba_marseille","lat":43.29416,"lon":5.38624,"is_reserved":false,"is_disabled":false,"rental_uris":{"android":"levelo://app?vid=0eaf951a-3397-4880-b026-bcf4777e1f12","ios":"levelo://app?vid=0eaf951a-3397-4880-b026-bcf4777e1f12"},"vehicle_type_id":"4","last_reported":1692130024,"current_range_meters":12400,"station_id":"ce4bh2h2rcd13ifvqdh0","pricing_plan_id":"free"},{"bike_id":"7cfdb20f-954f-460a-a1fe-7041b0c9dd15","system_id":"levelo_inurba_marseille","lat":43.29416,"lon":5.38625,"is_reserved":false,"is_disabled":false,"rental_uris":{"android":"levelo://app?vid=7cfdb20f-954f-460a-a1fe-7041b0c9dd15","ios":"levelo://app?vid=7cfdb20f-954f-460a-a1fe-7041b0c9dd15"},"vehicle_type_id":"4","last_reported":1692130024,"current_range_meters":28400,"station_id":"ce4bh2h2rcd13ifvqdh0","pricing_plan_id":"free"},{"bike_id":"006e7386-33db-485d-9fc3-c98b6f59faee","system_id":"levelo_inurba_marseille","lat":43.294146,"lon":5.386229,"is_reserved":false,"is_disabled":false,"rental_uris":{"android":"levelo://app?vid=006e7386-33db-485d-9fc3-c98b6f59faee","ios":"levelo://app?vid=006e7386-33db-485d-9fc3-c98b6f59faee"},"vehicle_type_id":"4","last_reported":1692130024,"current_range_meters":26800,"station_id":"ce4bh2h2rcd13ifvqdh0","pricing_plan_id":"free"},{"bike_id":"655279a0-0447-44e0-9cc6-6738e21896cc","system_id":"levelo_inurba_marseille","lat":43.29416,"lon":5.38626,"is_reserved":false,"is_disabled":false,"rental_uris":{"android":"levelo://app?vid=655279a0-0447-44e0-9cc6-6738e21896cc","ios":"levelo://app?vid=655279a0-0447-44e0-9cc6-6738e21896cc"},"vehicle_type_id":"4","last_reported":1692130024,"current_range_meters":21600,"station_id":"ce4bh2h2rcd13ifvqdh0","pricing_plan_id":"free"},{"bike_id":"a718efe5-8978-457a-8311-343073b746be","system_id":"levelo_inurba_marseille","lat":43.29415,"lon":5.3863,"is_reserved":false,"is_disabled":false,"rental_uris":{"android":"levelo://app?vid=a718efe5-8978-457a-8311-343073b746be","ios":"levelo://app?vid=a718efe5-8978-457a-8311-343073b746be"},"vehicle_type_id":"4","last_reported":1692130024,"current_range_meters":1200,"station_id":"ce4bh2h2rcd13ifvqdh0","pricing_plan_id":"free"},{"bike_id":"b09776bd-3234-4d03-8651-4f3b80a77ada","system_id":"levelo_inurba_marseille","lat":43.29416,"lon":5.38633,"is_reserved":false,"is_disabled":false,"rental_uris":{"android":"levelo://app?vid=b09776bd-3234-4d03-8651-4f3b80a77ada","ios":"levelo://app?vid=b09776bd-3234-4d03-8651-4f3b80a77ada"},"vehicle_type_id":"4","last_reported":1692130024,"current_range_meters":1200,"station_id":"ce4bh2h2rcd13ifvqdh0","pricing_plan_id":"free"},{"bike_id":"df6fe223-0ec1-4705-b131-da04157b258a","system_id":"levelo_inurba_marseille","lat":43.29413,"lon":5.3863,"is_reserved":false,"is_disabled":false,"rental_uris":{"android":"levelo://app?vid=df6fe223-0ec1-4705-b131-da04157b258a","ios":"levelo://app?vid=df6fe223-0ec1-4705-b131-da04157b258a"},"vehicle_type_id":"4","last_reported":1692130024,"current_range_meters":2000,"station_id":"ce4bh2h2rcd13ifvqdh0","pricing_plan_id":"free"},{"bike_id":"c8b6b9d2-8885-4724-b09d-f1d4f2c89791","system_id":"levelo_inurba_marseille","lat":43.292644,"lon":5.384257,"is_reserved":false,"is_disabled":false,"rental_uris":{"android":"levelo://app?vid=c8b6b9d2-8885-4724-b09d-f1d4f2c89791","ios":"levelo://app?vid=c8b6b9d2-8885-4724-b09d-f1d4f2c89791"},"vehicle_type_id":"4","last_reported":1692130024,"current_range_meters":28000,"station_id":"ce4bh692rcd13ifvqea0","pricing_plan_id":"free"},{"bike_id":"90d09101-bd44-41f1-ad49-858d3e74c32d","system_id":"levelo_inurba_marseille","lat":43.292642,"lon":5.384254,"is_reserved":false,"is_disabled":false,"rental_uris":{"android":"levelo://app?vid=90d09101-bd44-41f1-ad49-858d3e74c32d","ios":"levelo://app?vid=90d09101-bd44-41f1-ad49-858d3e74c32d"},"vehicle_type_id":"4","last_reported":1692130024,"current_range_meters":22800,"station_id":"ce4bh692rcd13ifvqea0","pricing_plan_id":"free"},{"bike_id":"88131b0a-26e8-4971-9311-1e1787f2b423","system_id":"levelo_inurba_marseille","lat":43.292642,"lon":5.384254,"is_reserved":false,"is_disabled":false,"rental_uris":{"android":"levelo://app?vid=88131b0a-26e8-4971-9311-1e1787f2b423","ios":"levelo://app?vid=88131b0a-26e8-4971-9311-1e1787f2b423"},"vehicle_type_id":"4","last_reported":1692130024,"current_range_meters":29600,"station_id":"ce4bh692rcd13ifvqea0","pricing_plan_id":"free"},{"bike_id":"33f887bf-9c7c-4f7c-8704-499de2ac9eb3","system_id":"levelo_inurba_marseille","lat":43.292642,"lon":5.384254,"is_reserved":false,"is_disabled":false,"rental_uris":{"android":"levelo://app?vid=33f887bf-9c7c-4f7c-8704-499de2ac9eb3","ios":"levelo://app?vid=33f887bf-9c7c-4f7c-8704-499de2ac9eb3"},"vehicle_type_id":"4","last_reported":1692130024,"current_range_meters":22000,"station_id":"ce4bh692rcd13ifvqea0","pricing_plan_id":"free"},{"bike_id":"5c2dde48-8f7a-448a-b82f-740c846fde1e","system_id":"levelo_inurba_marseille","lat":43.292642,"lon":5.384254,"is_reserved":false,"is_disabled":false,"rental_uris":{"android":"levelo://app?vid=5c2dde48-8f7a-448a-b82f-740c846fde1e","ios":"levelo://app?vid=5c2dde48-8f7a-448a-b82f-740c846fde1e"},"vehicle_type_id":"4","last_reported":1692130024,"current_range_meters":6400,"station_id":"ce4bh692rcd13ifvqea0","pricing_plan_id":"free"},{"bike_id":"a3dcd189-c381-435f-b2e5-33b81102421f","system_id":"levelo_inurba_marseille","lat":43.292691,"lon":5.384483,"is_reserved":false,"is_disabled":false,"rental_uris":{"android":"levelo://app?vid=a3dcd189-c381-435f-b2e5-33b81102421f","ios":"levelo://app?vid=a3dcd189-c381-435f-b2e5-33b81102421f"},"vehicle_type_id":"4","last_reported":1692130024,"current_range_meters":31200,"station_id":"ce4bh692rcd13ifvqea0","pricing_plan_id":"free"},{"bike_id":"5bc7b177-dc4b-4a87-87de-7cb960ef65f9","system_id":"levelo_inurba_marseille","lat":43.292642,"lon":5.384254,"is_reserved":false,"is_disabled":false,"rental_uris":{"android":"levelo://app?vid=5bc7b177-dc4b-4a87-87de-7cb960ef65f9","ios":"levelo://app?vid=5bc7b177-dc4b-4a87-87de-7cb960ef65f9"},"vehicle_type_id":"4","last_reported":1692130024,"current_range_meters":29600,"station_id":"ce4bh692rcd13ifvqea0","pricing_plan_id":"free"},{"bike_id":"d315faa1-7637-47dd-b91e-3df493a3224d","system_id":"levelo_inurba_marseille","lat":43.304296,"lon":5.397513,"is_reserved":false,"is_disabled":false,"rental_uris":{"android":"levelo://app?vid=d315faa1-7637-47dd-b91e-3df493a3224d","ios":"levelo://app?vid=d315faa1-7637-47dd-b91e-3df493a3224d"},"vehicle_type_id":"4","last_reported":1692130024,"current_range_meters":14800,"station_id":"ce4bh092rcd13ifvqd20","pricing_plan_id":"free"},{"bike_id":"b74f0d24-43fc-48fb-877a-35eab4eb1ac0","system_id":"levelo_inurba_marseille","lat":43.30425,"lon":5.39753,"is_reserved":false,"is_disabled":false,"rental_uris":{"android":"levelo://app?vid=b74f0d24-43fc-48fb-877a-35eab4eb1ac0","ios":"levelo://app?vid=b74f0d24-43fc-48fb-877a-35eab4eb1ac0"},"vehicle_type_id":"4","last_reported":1692130024,"current_range_meters":15200,"station_id":"ce4bh092rcd13ifvqd20","pricing_plan_id":"free"},{"bike_id":"f1588964-b455-4e0c-a428-f1595a842ea9","system_id":"levelo_inurba_marseille","lat":43.292644,"lon":5.384257,"is_reserved":false,"is_disabled":false,"rental_uris":{"android":"levelo://app?vid=f1588964-b455-4e0c-a428-f1595a842ea9","ios":"levelo://app?vid=f1588964-b455-4e0c-a428-f1595a842ea9"},"vehicle_type_id":"4","last_reported":1692130024,"current_range_meters":14400,"station_id":"ce4bh692rcd13ifvqea0","pricing_plan_id":"free"},{"bike_id":"b7683355-50ee-4498-97c6-eb2b56cef140","system_id":"levelo_inurba_marseille","lat":43.292644,"lon":5.384257,"is_reserved":false,"is_disabled":false,"rental_uris":{"android":"levelo://app?vid=b7683355-50ee-4498-97c6-eb2b56cef140","ios":"levelo://app?vid=b7683355-50ee-4498-97c6-eb2b56cef140"},"vehicle_type_id":"4","last_reported":1692130024,"current_range_meters":26000,"station_id":"ce4bh692rcd13ifvqea0","pricing_plan_id":"free"},{"bike_id":"b1a95f78-498f-42f6-a8a1-8669f17a0b29","system_id":"levelo_inurba_marseille","lat":43.292644,"lon":5.384257,"is_reserved":false,"is_disabled":false,"rental_uris":{"android":"levelo://app?vid=b1a95f78-498f-42f6-a8a1-8669f17a0b29","ios":"levelo://app?vid=b1a95f78-498f-42f6-a8a1-8669f17a0b29"},"vehicle_type_id":"4","last_reported":1692130024,"current_range_meters":9200,"station_id":"ce4bh692rcd13ifvqea0","pricing_plan_id":"free"},{"bike_id":"28749fec-ae35-4083-a605-9cf541d2a258","system_id":"levelo_inurba_marseille","lat":43.292642,"lon":5.384254,"is_reserved":false,"is_disabled":false,"rental_uris":{"android":"levelo://app?vid=28749fec-ae35-4083-a605-9cf541d2a258","ios":"levelo://app?vid=28749fec-ae35-4083-a605-9cf541d2a258"},"vehicle_type_id":"4","last_reported":1692130024,"current_range_meters":30400,"station_id":"ce4bh692rcd13ifvqea0","pricing_plan_id":"free"},{"bike_id":"9e2b386d-a216-4cc7-afea-23cb93294198","system_id":"levelo_inurba_marseille","lat":43.292563,"lon":5.384498,"is_reserved":false,"is_disabled":false,"rental_uris":{"android":"levelo://app?vid=9e2b386d-a216-4cc7-afea-23cb93294198","ios":"levelo://app?vid=9e2b386d-a216-4cc7-afea-23cb93294198"},"vehicle_type_id":"4","last_reported":1692130024,"current_range_meters":31200,"station_id":"ce4bh692rcd13ifvqea0","pricing_plan_id":"free"},{"bike_id":"69c23820-b8c4-4b33-a6c2-28beb4ed1d2a","system_id":"levelo_inurba_marseille","lat":43.330357,"lon":5.38912,"is_reserved":false,"is_disabled":false,"rental_uris":{"android":"levelo://app?vid=69c23820-b8c4-4b33-a6c2-28beb4ed1d2a","ios":"levelo://app?vid=69c23820-b8c4-4b33-a6c2-28beb4ed1d2a"},"vehicle_type_id":"4","last_reported":1692130024,"current_range_meters":800,"station_id":"","pricing_plan_id":"free"},{"bike_id":"78f1a325-e5b4-4a72-bb0e-b29d3285ba24","system_id":"levelo_inurba_marseille","lat":43.290104,"lon":5.356111,"is_reserved":false,"is_disabled":false,"rental_uris":{"android":"levelo://app?vid=78f1a325-e5b4-4a72-bb0e-b29d3285ba24","ios":"levelo://app?vid=78f1a325-e5b4-4a72-bb0e-b29d3285ba24"},"vehicle_type_id":"4","last_reported":1692130024,"current_range_meters":31200,"station_id":"ce4bhb92rcd13ifvqen0","pricing_plan_id":"free"},{"bike_id":"8ae0ce58-4162-4719-947c-e47cc63be26c","system_id":"levelo_inurba_marseille","lat":43.3304,"lon":5.38917,"is_reserved":false,"is_disabled":false,"rental_uris":{"android":"levelo://app?vid=8ae0ce58-4162-4719-947c-e47cc63be26c","ios":"levelo://app?vid=8ae0ce58-4162-4719-947c-e47cc63be26c"},"vehicle_type_id":"4","last_reported":1692130024,"current_range_meters":14800,"station_id":"ce4bhr92rcd13ifvqhrg","pricing_plan_id":"free"},{"bike_id":"454b0b4f-dc87-4e03-ac2a-cf0617f16bff","system_id":"levelo_inurba_marseille","lat":43.3304,"lon":5.38918,"is_reserved":false,"is_disabled":false,"rental_uris":{"android":"levelo://app?vid=454b0b4f-dc87-4e03-ac2a-cf0617f16bff","ios":"levelo://app?vid=454b0b4f-dc87-4e03-ac2a-cf0617f16bff"},"vehicle_type_id":"4","last_reported":1692130024,"current_range_meters":17200,"station_id":"ce4bhr92rcd13ifvqhrg","pricing_plan_id":"free"},{"bike_id":"e184d9f0-8163-4a17-b3ea-e9518599abc7","system_id":"levelo_inurba_marseille","lat":43.33042,"lon":5.38917,"is_reserved":false,"is_disabled":false,"rental_uris":{"android":"levelo://app?vid=e184d9f0-8163-4a17-b3ea-e9518599abc7","ios":"levelo://app?vid=e184d9f0-8163-4a17-b3ea-e9518599abc7"},"vehicle_type_id":"4","last_reported":1692130024,"current_range_meters":29600,"station_id":"ce4bhr92rcd13ifvqhrg","pricing_plan_id":"free"},{"bike_id":"01bb66e8-6fc1-4982-b9b2-af4dae23e37f","system_id":"levelo_inurba_marseille","lat":43.33044,"lon":5.38914,"is_reserved":false,"is_disabled":false,"rental_uris":{"android":"levelo://app?vid=01bb66e8-6fc1-4982-b9b2-af4dae23e37f","ios":"levelo://app?vid=01bb66e8-6fc1-4982-b9b2-af4dae23e37f"},"vehicle_type_id":"4","last_reported":1692130024,"current_range_meters":27600,"station_id":"ce4bhr92rcd13ifvqhrg","pricing_plan_id":"free"},{"bike_id":"859ece1b-eaf2-4429-915d-1d151e169e7f","system_id":"levelo_inurba_marseille","lat":43.33038,"lon":5.38924,"is_reserved":false,"is_disabled":false,"rental_uris":{"android":"levelo://app?vid=859ece1b-eaf2-4429-915d-1d151e169e7f","ios":"levelo://app?vid=859ece1b-eaf2-4429-915d-1d151e169e7f"},"vehicle_type_id":"4","last_reported":1692130024,"current_range_meters":22800,"station_id":"ce4bhr92rcd13ifvqhrg","pricing_plan_id":"free"},{"bike_id":"2f0a0ac7-6e1a-4328-a504-4e02f95ee392","system_id":"levelo_inurba_marseille","lat":43.33042,"lon":5.3892,"is_reserved":false,"is_disabled":false,"rental_uris":{"android":"levelo://app?vid=2f0a0ac7-6e1a-4328-a504-4e02f95ee392","ios":"levelo://app?vid=2f0a0ac7-6e1a-4328-a504-4e02f95ee392"},"vehicle_type_id":"4","last_reported":1692130024,"current_range_meters":25600,"station_id":"ce4bhr92rcd13ifvqhrg","pricing_plan_id":"free"},{"bike_id":"bbbf5fae-c149-495f-b901-b659fd109f96","system_id":"levelo_inurba_marseille","lat":43.290104,"lon":5.356111,"is_reserved":false,"is_disabled":false,"rental_uris":{"android":"levelo://app?vid=bbbf5fae-c149-495f-b901-b659fd109f96","ios":"levelo://app?vid=bbbf5fae-c149-495f-b901-b659fd109f96"},"vehicle_type_id":"4","last_reported":1692130024,"current_range_meters":26800,"station_id":"ce4bhb92rcd13ifvqen0","pricing_plan_id":"free"},{"bike_id":"96ead541-9c33-4112-927f-93c74ea92183","system_id":"levelo_inurba_marseille","lat":43.33044,"lon":5.38918,"is_reserved":false,"is_disabled":false,"rental_uris":{"android":"levelo://app?vid=96ead541-9c33-4112-927f-93c74ea92183","ios":"levelo://app?vid=96ead541-9c33-4112-927f-93c74ea92183"},"vehicle_type_id":"4","last_reported":1692130024,"current_range_meters":11600,"station_id":"ce4bhr92rcd13ifvqhrg","pricing_plan_id":"free"},{"bike_id":"dff7f4b4-02ce-4bf2-9fff-80d605923188","system_id":"levelo_inurba_marseille","lat":43.33042,"lon":5.38922,"is_reserved":false,"is_disabled":false,"rental_uris":{"android":"levelo://app?vid=dff7f4b4-02ce-4bf2-9fff-80d605923188","ios":"levelo://app?vid=dff7f4b4-02ce-4bf2-9fff-80d605923188"},"vehicle_type_id":"4","last_reported":1692130024,"current_range_meters":20800,"station_id":"ce4bhr92rcd13ifvqhrg","pricing_plan_id":"free"},{"bike_id":"569fb482-04ac-449f-b013-337617dfb7a0","system_id":"levelo_inurba_marseille","lat":43.33044,"lon":5.3892,"is_reserved":false,"is_disabled":false,"rental_uris":{"android":"levelo://app?vid=569fb482-04ac-449f-b013-337617dfb7a0","ios":"levelo://app?vid=569fb482-04ac-449f-b013-337617dfb7a0"},"vehicle_type_id":"4","last_reported":1692130024,"current_range_meters":25200,"station_id":"ce4bhr92rcd13ifvqhrg","pricing_plan_id":"free"},{"bike_id":"d5578a77-3302-4d8a-ae9c-7edceb0f071e","system_id":"levelo_inurba_marseille","lat":43.33042,"lon":5.38924,"is_reserved":false,"is_disabled":false,"rental_uris":{"android":"levelo://app?vid=d5578a77-3302-4d8a-ae9c-7edceb0f071e","ios":"levelo://app?vid=d5578a77-3302-4d8a-ae9c-7edceb0f071e"},"vehicle_type_id":"4","last_reported":1692130024,"current_range_meters":29600,"station_id":"ce4bhr92rcd13ifvqhrg","pricing_plan_id":"free"},{"bike_id":"be005e4f-d207-40fd-bd99-241d744b2797","system_id":"levelo_inurba_marseille","lat":43.33048,"lon":5.38918,"is_reserved":false,"is_disabled":false,"rental_uris":{"android":"levelo://app?vid=be005e4f-d207-40fd-bd99-241d744b2797","ios":"levelo://app?vid=be005e4f-d207-40fd-bd99-241d744b2797"},"vehicle_type_id":"4","last_reported":1692130024,"current_range_meters":19600,"station_id":"ce4bhr92rcd13ifvqhrg","pricing_plan_id":"free"},{"bike_id":"e77b24cb-b125-4747-a456-3f996451e289","system_id":"levelo_inurba_marseille","lat":43.33052,"lon":5.38921,"is_reserved":false,"is_disabled":false,"rental_uris":{"android":"levelo://app?vid=e77b24cb-b125-4747-a456-3f996451e289","ios":"levelo://app?vid=e77b24cb-b125-4747-a456-3f996451e289"},"vehicle_type_id":"4","last_reported":1692130024,"current_range_meters":29600,"station_id":"ce4bhr92rcd13ifvqhrg","pricing_plan_id":"free"},{"bike_id":"d17b2758-de48-47a0-9c49-ca791aadf9d2","system_id":"levelo_inurba_marseille","lat":43.290995,"lon":5.381361,"is_reserved":false,"is_disabled":false,"rental_uris":{"android":"levelo://app?vid=d17b2758-de48-47a0-9c49-ca791aadf9d2","ios":"levelo://app?vid=d17b2758-de48-47a0-9c49-ca791aadf9d2"},"vehicle_type_id":"4","last_reported":1692130024,"current_range_meters":13600,"station_id":"ce4bh512rcd13ifvqe2g","pricing_plan_id":"free"},{"bike_id":"f2930eda-ed89-48fe-a282-fe79c0253492","system_id":"levelo_inurba_marseille","lat":43.290995,"lon":5.381361,"is_reserved":false,"is_disabled":false,"rental_uris":{"android":"levelo://app?vid=f2930eda-ed89-48fe-a282-fe79c0253492","ios":"levelo://app?vid=f2930eda-ed89-48fe-a282-fe79c0253492"},"vehicle_type_id":"4","last_reported":1692130024,"current_range_meters":23600,"station_id":"ce4bh512rcd13ifvqe2g","pricing_plan_id":"free"},{"bike_id":"67d4e1fc-5e52-463f-b282-d59231a5833e","system_id":"levelo_inurba_marseille","lat":43.29602,"lon":5.381084,"is_reserved":false,"is_disabled":false,"rental_uris":{"android":"levelo://app?vid=67d4e1fc-5e52-463f-b282-d59231a5833e","ios":"levelo://app?vid=67d4e1fc-5e52-463f-b282-d59231a5833e"},"vehicle_type_id":"4","last_reported":1692130024,"current_range_meters":10000,"station_id":"ce4bgl12rcd13ifvqbo0","pricing_plan_id":"free"},{"bike_id":"b5fee1c2-e659-43dc-8ca2-7c5ac02be619","system_id":"levelo_inurba_marseille","lat":43.290995,"lon":5.381361,"is_reserved":false,"is_disabled":false,"rental_uris":{"android":"levelo://app?vid=b5fee1c2-e659-43dc-8ca2-7c5ac02be619","ios":"levelo://app?vid=b5fee1c2-e659-43dc-8ca2-7c5ac02be619"},"vehicle_type_id":"4","last_reported":1692130024,"current_range_meters":27200,"station_id":"ce4bh512rcd13ifvqe2g","pricing_plan_id":"free"},{"bike_id":"b990a5ed-7fe8-44c6-ba33-6e6681a609fc","system_id":"levelo_inurba_marseille","lat":43.290995,"lon":5.381361,"is_reserved":false,"is_disabled":false,"rental_uris":{"android":"levelo://app?vid=b990a5ed-7fe8-44c6-ba33-6e6681a609fc","ios":"levelo://app?vid=b990a5ed-7fe8-44c6-ba33-6e6681a609fc"},"vehicle_type_id":"4","last_reported":1692130024,"current_range_meters":8800,"station_id":"ce4bh512rcd13ifvqe2g","pricing_plan_id":"free"},{"bike_id":"7c5a2929-d8bb-44e9-b423-5d41747eadf1","system_id":"levelo_inurba_marseille","lat":43.295169,"lon":5.390426,"is_reserved":false,"is_disabled":false,"rental_uris":{"android":"levelo://app?vid=7c5a2929-d8bb-44e9-b423-5d41747eadf1","ios":"levelo://app?vid=7c5a2929-d8bb-44e9-b423-5d41747eadf1"},"vehicle_type_id":"4","last_reported":1692130024,"current_range_meters":8800,"station_id":"ce4bh3p2rcd13ifvqdp0","pricing_plan_id":"free"},{"bike_id":"12a8d3d1-7cc6-4c44-abe5-1d234268e9af","system_id":"levelo_inurba_marseille","lat":43.295169,"lon":5.390426,"is_reserved":false,"is_disabled":false,"rental_uris":{"android":"levelo://app?vid=12a8d3d1-7cc6-4c44-abe5-1d234268e9af","ios":"levelo://app?vid=12a8d3d1-7cc6-4c44-abe5-1d234268e9af"},"vehicle_type_id":"4","last_reported":1692130024,"current_range_meters":9200,"station_id":"ce4bh3p2rcd13ifvqdp0","pricing_plan_id":"free"},{"bike_id":"79116f60-f71c-429a-b9e3-295cc9dbca75","system_id":"levelo_inurba_marseille","lat":43.295169,"lon":5.390426,"is_reserved":false,"is_disabled":false,"rental_uris":{"android":"levelo://app?vid=79116f60-f71c-429a-b9e3-295cc9dbca75","ios":"levelo://app?vid=79116f60-f71c-429a-b9e3-295cc9dbca75"},"vehicle_type_id":"4","last_reported":1692130024,"current_range_meters":2400,"station_id":"ce4bh3p2rcd13ifvqdp0","pricing_plan_id":"free"},{"bike_id":"73f60851-6136-4d03-b235-8ef6efd381de","system_id":"levelo_inurba_marseille","lat":43.28856,"lon":5.358371,"is_reserved":false,"is_disabled":false,"rental_uris":{"android":"levelo://app?vid=73f60851-6136-4d03-b235-8ef6efd381de","ios":"levelo://app?vid=73f60851-6136-4d03-b235-8ef6efd381de"},"vehicle_type_id":"4","last_reported":1692130024,"current_range_meters":17600,"station_id":"ce4bhb12rcd13ifvqem0","pricing_plan_id":"free"},{"bike_id":"75b6cb08-0437-45cd-b7de-3b0e35fff196","system_id":"levelo_inurba_marseille","lat":43.312609,"lon":5.401662,"is_reserved":false,"is_disabled":false,"rental_uris":{"android":"levelo://app?vid=75b6cb08-0437-45cd-b7de-3b0e35fff196","ios":"levelo://app?vid=75b6cb08-0437-45cd-b7de-3b0e35fff196"},"vehicle_type_id":"4","last_reported":1692130024,"current_range_meters":2000,"station_id":"ce4bh092rcd13ifvqd30","pricing_plan_id":"free"},{"bike_id":"e1c611a8-c73b-48e0-a492-fb608c2c287f","system_id":"levelo_inurba_marseille","lat":43.30926,"lon":5.40141,"is_reserved":false,"is_disabled":false,"rental_uris":{"android":"levelo://app?vid=e1c611a8-c73b-48e0-a492-fb608c2c287f","ios":"levelo://app?vid=e1c611a8-c73b-48e0-a492-fb608c2c287f"},"vehicle_type_id":"4","last_reported":1692130024,"current_range_meters":4400,"station_id":"ce4bgvp2rcd13ifvqct0","pricing_plan_id":"free"},{"bike_id":"ca05fb7f-9b1a-4579-a5a1-a914f27f3a18","system_id":"levelo_inurba_marseille","lat":43.309371,"lon":5.401449,"is_reserved":false,"is_disabled":false,"rental_uris":{"android":"levelo://app?vid=ca05fb7f-9b1a-4579-a5a1-a914f27f3a18","ios":"levelo://app?vid=ca05fb7f-9b1a-4579-a5a1-a914f27f3a18"},"vehicle_type_id":"4","last_reported":1692130024,"current_range_meters":22800,"station_id":"ce4bgvp2rcd13ifvqct0","pricing_plan_id":"free"},{"bike_id":"5ae968dd-c887-4622-a45d-30ab10660c52","system_id":"levelo_inurba_marseille","lat":43.30938,"lon":5.40146,"is_reserved":false,"is_disabled":false,"rental_uris":{"android":"levelo://app?vid=5ae968dd-c887-4622-a45d-30ab10660c52","ios":"levelo://app?vid=5ae968dd-c887-4622-a45d-30ab10660c52"},"vehicle_type_id":"4","last_reported":1692130024,"current_range_meters":1600,"station_id":"ce4bgvp2rcd13ifvqct0","pricing_plan_id":"free"},{"bike_id":"1a3556a6-83fd-4c3b-94dc-2db5b5bd3344","system_id":"levelo_inurba_marseille","lat":43.30933,"lon":5.40153,"is_reserved":false,"is_disabled":false,"rental_uris":{"android":"levelo://app?vid=1a3556a6-83fd-4c3b-94dc-2db5b5bd3344","ios":"levelo://app?vid=1a3556a6-83fd-4c3b-94dc-2db5b5bd3344"},"vehicle_type_id":"4","last_reported":1692130024,"current_range_meters":6000,"station_id":"ce4bgvp2rcd13ifvqct0","pricing_plan_id":"free"},{"bike_id":"351d93d3-10b7-4834-afc6-10b9d0c8d51b","system_id":"levelo_inurba_marseille","lat":43.33767,"lon":5.37432,"is_reserved":false,"is_disabled":false,"rental_uris":{"android":"levelo://app?vid=351d93d3-10b7-4834-afc6-10b9d0c8d51b","ios":"levelo://app?vid=351d93d3-10b7-4834-afc6-10b9d0c8d51b"},"vehicle_type_id":"4","last_reported":1692130024,"current_range_meters":29600,"station_id":"","pricing_plan_id":"free"},{"bike_id":"7bf6295e-c816-4f2d-a068-067340b12267","system_id":"levelo_inurba_marseille","lat":43.30636,"lon":5.40098,"is_reserved":false,"is_disabled":false,"rental_uris":{"android":"levelo://app?vid=7bf6295e-c816-4f2d-a068-067340b12267","ios":"levelo://app?vid=7bf6295e-c816-4f2d-a068-067340b12267"},"vehicle_type_id":"4","last_reported":1692130024,"current_range_meters":26400,"station_id":"ce4bh112rcd13ifvqda0","pricing_plan_id":"free"},{"bike_id":"f0204656-b1c3-4237-af5c-2a79032e7fdb","system_id":"levelo_inurba_marseille","lat":43.306412,"lon":5.401035,"is_reserved":false,"is_disabled":false,"rental_uris":{"android":"levelo://app?vid=f0204656-b1c3-4237-af5c-2a79032e7fdb","ios":"levelo://app?vid=f0204656-b1c3-4237-af5c-2a79032e7fdb"},"vehicle_type_id":"4","last_reported":1692130024,"current_range_meters":8000,"station_id":"ce4bh112rcd13ifvqda0","pricing_plan_id":"free"},{"bike_id":"97b1e776-92f5-4516-963b-7be896361640","system_id":"levelo_inurba_marseille","lat":43.287338,"lon":5.373525,"is_reserved":false,"is_disabled":false,"rental_uris":{"android":"levelo://app?vid=97b1e776-92f5-4516-963b-7be896361640","ios":"levelo://app?vid=97b1e776-92f5-4516-963b-7be896361640"},"vehicle_type_id":"4","last_reported":1692130024,"current_range_meters":0,"station_id":"ce4bh3p2rcd13ifvqdq0","pricing_plan_id":"free"},{"bike_id":"486eeadf-2bce-4942-9190-198f23386e72","system_id":"levelo_inurba_marseille","lat":43.298681,"lon":5.397225,"is_reserved":false,"is_disabled":false,"rental_uris":{"android":"levelo://app?vid=486eeadf-2bce-4942-9190-198f23386e72","ios":"levelo://app?vid=486eeadf-2bce-4942-9190-198f23386e72"},"vehicle_type_id":"4","last_reported":1692130024,"current_range_meters":31200,"station_id":"ce4bh0h2rcd13ifvqd50","pricing_plan_id":"free"},{"bike_id":"f88f749b-f89b-44df-9dcc-cb6962e00277","system_id":"levelo_inurba_marseille","lat":43.286591,"lon":5.363346,"is_reserved":false,"is_disabled":false,"rental_uris":{"android":"levelo://app?vid=f88f749b-f89b-44df-9dcc-cb6962e00277","ios":"levelo://app?vid=f88f749b-f89b-44df-9dcc-cb6962e00277"},"vehicle_type_id":"4","last_reported":1692130024,"current_range_meters":16400,"station_id":"ce4bhah2rcd13ifvqej0","pricing_plan_id":"free"},{"bike_id":"d37a754c-1f3a-4d23-91bc-a610a6a5e608","system_id":"levelo_inurba_marseille","lat":43.298681,"lon":5.397225,"is_reserved":false,"is_disabled":false,"rental_uris":{"android":"levelo://app?vid=d37a754c-1f3a-4d23-91bc-a610a6a5e608","ios":"levelo://app?vid=d37a754c-1f3a-4d23-91bc-a610a6a5e608"},"vehicle_type_id":"4","last_reported":1692130024,"current_range_meters":14000,"station_id":"ce4bh0h2rcd13ifvqd50","pricing_plan_id":"free"},{"bike_id":"fa428e9e-5c65-4dea-9108-a9762af99b12","system_id":"levelo_inurba_marseille","lat":43.298681,"lon":5.397225,"is_reserved":false,"is_disabled":false,"rental_uris":{"android":"levelo://app?vid=fa428e9e-5c65-4dea-9108-a9762af99b12","ios":"levelo://app?vid=fa428e9e-5c65-4dea-9108-a9762af99b12"},"vehicle_type_id":"4","last_reported":1692130024,"current_range_meters":15200,"station_id":"ce4bh0h2rcd13ifvqd50","pricing_plan_id":"free"},{"bike_id":"71177987-2951-4266-ae93-003eb41e048e","system_id":"levelo_inurba_marseille","lat":43.286961,"lon":5.373785,"is_reserved":false,"is_disabled":false,"rental_uris":{"android":"levelo://app?vid=71177987-2951-4266-ae93-003eb41e048e","ios":"levelo://app?vid=71177987-2951-4266-ae93-003eb41e048e"},"vehicle_type_id":"4","last_reported":1692130024,"current_range_meters":28000,"station_id":"ce4bh3p2rcd13ifvqdq0","pricing_plan_id":"free"},{"bike_id":"8501f8b8-6ba9-4563-82ac-898b5dc822f6","system_id":"levelo_inurba_marseille","lat":43.298681,"lon":5.397225,"is_reserved":false,"is_disabled":false,"rental_uris":{"android":"levelo://app?vid=8501f8b8-6ba9-4563-82ac-898b5dc822f6","ios":"levelo://app?vid=8501f8b8-6ba9-4563-82ac-898b5dc822f6"},"vehicle_type_id":"4","last_reported":1692130024,"current_range_meters":6000,"station_id":"ce4bh0h2rcd13ifvqd50","pricing_plan_id":"free"},{"bike_id":"f021979d-7a59-4539-a750-a6ab4f826a5d","system_id":"levelo_inurba_marseille","lat":43.298681,"lon":5.397225,"is_reserved":false,"is_disabled":false,"rental_uris":{"android":"levelo://app?vid=f021979d-7a59-4539-a750-a6ab4f826a5d","ios":"levelo://app?vid=f021979d-7a59-4539-a750-a6ab4f826a5d"},"vehicle_type_id":"4","last_reported":1692130024,"current_range_meters":26400,"station_id":"ce4bh0h2rcd13ifvqd50","pricing_plan_id":"free"},{"bike_id":"75199276-b705-4ad7-b6a9-49aeaa84628a","system_id":"levelo_inurba_marseille","lat":43.286591,"lon":5.363346,"is_reserved":false,"is_disabled":false,"rental_uris":{"android":"levelo://app?vid=75199276-b705-4ad7-b6a9-49aeaa84628a","ios":"levelo://app?vid=75199276-b705-4ad7-b6a9-49aeaa84628a"},"vehicle_type_id":"4","last_reported":1692130024,"current_range_meters":31200,"station_id":"ce4bhah2rcd13ifvqej0","pricing_plan_id":"free"},{"bike_id":"e897f731-818c-4174-9589-f2ee32c10e7c","system_id":"levelo_inurba_marseille","lat":43.298681,"lon":5.397225,"is_reserved":false,"is_disabled":false,"rental_uris":{"android":"levelo://app?vid=e897f731-818c-4174-9589-f2ee32c10e7c","ios":"levelo://app?vid=e897f731-818c-4174-9589-f2ee32c10e7c"},"vehicle_type_id":"4","last_reported":1692130024,"current_range_meters":14000,"station_id":"ce4bh0h2rcd13ifvqd50","pricing_plan_id":"free"},{"bike_id":"1e591cd8-1d64-47ee-ad28-80a4c9f8d597","system_id":"levelo_inurba_marseille","lat":43.298681,"lon":5.397225,"is_reserved":false,"is_disabled":false,"rental_uris":{"android":"levelo://app?vid=1e591cd8-1d64-47ee-ad28-80a4c9f8d597","ios":"levelo://app?vid=1e591cd8-1d64-47ee-ad28-80a4c9f8d597"},"vehicle_type_id":"4","last_reported":1692130024,"current_range_meters":7200,"station_id":"ce4bh0h2rcd13ifvqd50","pricing_plan_id":"free"},{"bike_id":"5d51b8f9-c725-409c-a820-59bffd410e63","system_id":"levelo_inurba_marseille","lat":43.295196,"lon":5.39397,"is_reserved":false,"is_disabled":false,"rental_uris":{"android":"levelo://app?vid=5d51b8f9-c725-409c-a820-59bffd410e63","ios":"levelo://app?vid=5d51b8f9-c725-409c-a820-59bffd410e63"},"vehicle_type_id":"4","last_reported":1692130024,"current_range_meters":0,"station_id":"ce4bh292rcd13ifvqdf0","pricing_plan_id":"free"},{"bike_id":"e47a5e4e-7e0d-40fc-b6fe-59fa9e51596f","system_id":"levelo_inurba_marseille","lat":43.295196,"lon":5.39397,"is_reserved":false,"is_disabled":false,"rental_uris":{"android":"levelo://app?vid=e47a5e4e-7e0d-40fc-b6fe-59fa9e51596f","ios":"levelo://app?vid=e47a5e4e-7e0d-40fc-b6fe-59fa9e51596f"},"vehicle_type_id":"4","last_reported":1692130024,"current_range_meters":11200,"station_id":"ce4bh292rcd13ifvqdf0","pricing_plan_id":"free"},{"bike_id":"f45dd28a-6da3-4cd7-b583-9f268057b0bc","system_id":"levelo_inurba_marseille","lat":43.295196,"lon":5.39397,"is_reserved":false,"is_disabled":false,"rental_uris":{"android":"levelo://app?vid=f45dd28a-6da3-4cd7-b583-9f268057b0bc","ios":"levelo://app?vid=f45dd28a-6da3-4cd7-b583-9f268057b0bc"},"vehicle_type_id":"4","last_reported":1692130024,"current_range_meters":12800,"station_id":"ce4bh292rcd13ifvqdf0","pricing_plan_id":"free"},{"bike_id":"fb08b6fb-9be3-439b-9d9f-838672aa48a9","system_id":"levelo_inurba_marseille","lat":43.295196,"lon":5.39397,"is_reserved":false,"is_disabled":false,"rental_uris":{"android":"levelo://app?vid=fb08b6fb-9be3-439b-9d9f-838672aa48a9","ios":"levelo://app?vid=fb08b6fb-9be3-439b-9d9f-838672aa48a9"},"vehicle_type_id":"4","last_reported":1692130024,"current_range_meters":2800,"station_id":"ce4bh292rcd13ifvqdf0","pricing_plan_id":"free"},{"bike_id":"883f941a-61b8-4f91-a9a9-5dddeae87931","system_id":"levelo_inurba_marseille","lat":43.29024,"lon":5.38633,"is_reserved":false,"is_disabled":false,"rental_uris":{"android":"levelo://app?vid=883f941a-61b8-4f91-a9a9-5dddeae87931","ios":"levelo://app?vid=883f941a-61b8-4f91-a9a9-5dddeae87931"},"vehicle_type_id":"4","last_reported":1692130024,"current_range_meters":8400,"station_id":"ce4bh4p2rcd13ifvqe0g","pricing_plan_id":"free"},{"bike_id":"28b690c4-4626-42fc-979f-21d28925c8df","system_id":"levelo_inurba_marseille","lat":43.29024,"lon":5.38638,"is_reserved":false,"is_disabled":false,"rental_uris":{"android":"levelo://app?vid=28b690c4-4626-42fc-979f-21d28925c8df","ios":"levelo://app?vid=28b690c4-4626-42fc-979f-21d28925c8df"},"vehicle_type_id":"4","last_reported":1692130024,"current_range_meters":5600,"station_id":"ce4bh4p2rcd13ifvqe0g","pricing_plan_id":"free"},{"bike_id":"e135a7da-4f71-4ab5-a771-83a6222fc6ca","system_id":"levelo_inurba_marseille","lat":43.290336,"lon":5.386425,"is_reserved":false,"is_disabled":false,"rental_uris":{"android":"levelo://app?vid=e135a7da-4f71-4ab5-a771-83a6222fc6ca","ios":"levelo://app?vid=e135a7da-4f71-4ab5-a771-83a6222fc6ca"},"vehicle_type_id":"4","last_reported":1692130024,"current_range_meters":13200,"station_id":"ce4bh4p2rcd13ifvqe0g","pricing_plan_id":"free"},{"bike_id":"51ad23b2-9f79-4d35-ba3a-e8eb5dbdef42","system_id":"levelo_inurba_marseille","lat":43.29024,"lon":5.38642,"is_reserved":false,"is_disabled":false,"rental_uris":{"android":"levelo://app?vid=51ad23b2-9f79-4d35-ba3a-e8eb5dbdef42","ios":"levelo://app?vid=51ad23b2-9f79-4d35-ba3a-e8eb5dbdef42"},"vehicle_type_id":"4","last_reported":1692130024,"current_range_meters":14000,"station_id":"ce4bh4p2rcd13ifvqe0g","pricing_plan_id":"free"},{"bike_id":"6b167587-863b-4438-910b-958ea92eb038","system_id":"levelo_inurba_marseille","lat":43.290336,"lon":5.386425,"is_reserved":false,"is_disabled":false,"rental_uris":{"android":"levelo://app?vid=6b167587-863b-4438-910b-958ea92eb038","ios":"levelo://app?vid=6b167587-863b-4438-910b-958ea92eb038"},"vehicle_type_id":"4","last_reported":1692130024,"current_range_meters":26800,"station_id":"ce4bh4p2rcd13ifvqe0g","pricing_plan_id":"free"},{"bike_id":"2cfa1776-9c84-4efc-b618-40fe5025bc54","system_id":"levelo_inurba_marseille","lat":43.286039,"lon":5.370681,"is_reserved":false,"is_disabled":false,"rental_uris":{"android":"levelo://app?vid=2cfa1776-9c84-4efc-b618-40fe5025bc54","ios":"levelo://app?vid=2cfa1776-9c84-4efc-b618-40fe5025bc54"},"vehicle_type_id":"4","last_reported":1692130024,"current_range_meters":24800,"station_id":"ce4bht12rcd13ifvqi60","pricing_plan_id":"free"},{"bike_id":"a5e9f472-7bac-4b12-a5fd-ed3ccddd1cce","system_id":"levelo_inurba_marseille","lat":43.286039,"lon":5.370681,"is_reserved":false,"is_disabled":false,"rental_uris":{"android":"levelo://app?vid=a5e9f472-7bac-4b12-a5fd-ed3ccddd1cce","ios":"levelo://app?vid=a5e9f472-7bac-4b12-a5fd-ed3ccddd1cce"},"vehicle_type_id":"4","last_reported":1692130024,"current_range_meters":0,"station_id":"ce4bht12rcd13ifvqi60","pricing_plan_id":"free"},{"bike_id":"b9c060f9-4653-4a68-bb6a-0543588eec25","system_id":"levelo_inurba_marseille","lat":43.286039,"lon":5.370681,"is_reserved":false,"is_disabled":false,"rental_uris":{"android":"levelo://app?vid=b9c060f9-4653-4a68-bb6a-0543588eec25","ios":"levelo://app?vid=b9c060f9-4653-4a68-bb6a-0543588eec25"},"vehicle_type_id":"4","last_reported":1692130024,"current_range_meters":20000,"station_id":"ce4bht12rcd13ifvqi60","pricing_plan_id":"free"},{"bike_id":"e6038008-5f7a-452e-9b22-a92d223ff85d","system_id":"levelo_inurba_marseille","lat":43.287184,"lon":5.37937,"is_reserved":false,"is_disabled":false,"rental_uris":{"android":"levelo://app?vid=e6038008-5f7a-452e-9b22-a92d223ff85d","ios":"levelo://app?vid=e6038008-5f7a-452e-9b22-a92d223ff85d"},"vehicle_type_id":"4","last_reported":1692130024,"current_range_meters":5600,"station_id":"ce4bh9p2rcd13ifvqec0","pricing_plan_id":"free"},{"bike_id":"4aebdf6a-5176-46ca-9ddf-24582a418c25","system_id":"levelo_inurba_marseille","lat":43.30241,"lon":5.40123,"is_reserved":false,"is_disabled":false,"rental_uris":{"android":"levelo://app?vid=4aebdf6a-5176-46ca-9ddf-24582a418c25","ios":"levelo://app?vid=4aebdf6a-5176-46ca-9ddf-24582a418c25"},"vehicle_type_id":"4","last_reported":1692130024,"current_range_meters":4800,"station_id":"","pricing_plan_id":"free"},{"bike_id":"e4f06f77-277e-42fe-97e1-9123a6aee40a","system_id":"levelo_inurba_marseille","lat":43.28724,"lon":5.37941,"is_reserved":false,"is_disabled":false,"rental_uris":{"android":"levelo://app?vid=e4f06f77-277e-42fe-97e1-9123a6aee40a","ios":"levelo://app?vid=e4f06f77-277e-42fe-97e1-9123a6aee40a"},"vehicle_type_id":"4","last_reported":1692130024,"current_range_meters":17600,"station_id":"ce4bh9p2rcd13ifvqec0","pricing_plan_id":"free"},{"bike_id":"74220d3c-4cd6-4230-be8a-c26c4d78ecbf","system_id":"levelo_inurba_marseille","lat":43.31643,"lon":5.40436,"is_reserved":false,"is_disabled":false,"rental_uris":{"android":"levelo://app?vid=74220d3c-4cd6-4230-be8a-c26c4d78ecbf","ios":"levelo://app?vid=74220d3c-4cd6-4230-be8a-c26c4d78ecbf"},"vehicle_type_id":"4","last_reported":1692130024,"current_range_meters":18800,"station_id":"ce4bh012rcd13ifvqd00","pricing_plan_id":"free"},{"bike_id":"222ae8f6-4334-4908-9bca-2491ef9754fd","system_id":"levelo_inurba_marseille","lat":43.291994,"lon":5.392907,"is_reserved":false,"is_disabled":false,"rental_uris":{"android":"levelo://app?vid=222ae8f6-4334-4908-9bca-2491ef9754fd","ios":"levelo://app?vid=222ae8f6-4334-4908-9bca-2491ef9754fd"},"vehicle_type_id":"4","last_reported":1692130024,"current_range_meters":1200,"station_id":"ce4bh192rcd13ifvqdd0","pricing_plan_id":"free"},{"bike_id":"aa545474-8fd6-4ab5-9304-4ad2f0b9b8d4","system_id":"levelo_inurba_marseille","lat":43.294314,"lon":5.397498,"is_reserved":false,"is_disabled":false,"rental_uris":{"android":"levelo://app?vid=aa545474-8fd6-4ab5-9304-4ad2f0b9b8d4","ios":"levelo://app?vid=aa545474-8fd6-4ab5-9304-4ad2f0b9b8d4"},"vehicle_type_id":"4","last_reported":1692130024,"current_range_meters":12800,"station_id":"ce4bh3h2rcd13ifvqdo0","pricing_plan_id":"free"},{"bike_id":"4a523b49-b758-4648-884d-af9c4a8050a9","system_id":"levelo_inurba_marseille","lat":43.294314,"lon":5.397498,"is_reserved":false,"is_disabled":false,"rental_uris":{"android":"levelo://app?vid=4a523b49-b758-4648-884d-af9c4a8050a9","ios":"levelo://app?vid=4a523b49-b758-4648-884d-af9c4a8050a9"},"vehicle_type_id":"4","last_reported":1692130024,"current_range_meters":20000,"station_id":"ce4bh3h2rcd13ifvqdo0","pricing_plan_id":"free"},{"bike_id":"dc635a63-ff37-4f51-9fad-b5bc9c62bc7a","system_id":"levelo_inurba_marseille","lat":43.294314,"lon":5.397498,"is_reserved":false,"is_disabled":false,"rental_uris":{"android":"levelo://app?vid=dc635a63-ff37-4f51-9fad-b5bc9c62bc7a","ios":"levelo://app?vid=dc635a63-ff37-4f51-9fad-b5bc9c62bc7a"},"vehicle_type_id":"4","last_reported":1692130024,"current_range_meters":12000,"station_id":"ce4bh3h2rcd13ifvqdo0","pricing_plan_id":"free"},{"bike_id":"a2a18fac-6e2d-48de-ba47-e92402ddfedd","system_id":"levelo_inurba_marseille","lat":43.28616,"lon":5.35102,"is_reserved":false,"is_disabled":false,"rental_uris":{"android":"levelo://app?vid=a2a18fac-6e2d-48de-ba47-e92402ddfedd","ios":"levelo://app?vid=a2a18fac-6e2d-48de-ba47-e92402ddfedd"},"vehicle_type_id":"4","last_reported":1692130024,"current_range_meters":15600,"station_id":"ce4bhch2rcd13ifvqeug","pricing_plan_id":"free"},{"bike_id":"bd2acee2-2484-496b-b3a7-35adf76f0f1c","system_id":"levelo_inurba_marseille","lat":43.28417,"lon":5.37517,"is_reserved":false,"is_disabled":false,"rental_uris":{"android":"levelo://app?vid=bd2acee2-2484-496b-b3a7-35adf76f0f1c","ios":"levelo://app?vid=bd2acee2-2484-496b-b3a7-35adf76f0f1c"},