{"last_updated":1701349828,"ttl":30,"version":"2.2","data":{"bikes":[{"bike_id":"230bf62b-c7d0-476d-a1c4-8200aa66fba2","system_id":"levelo_inurba_marseille","lat":43.313391,"lon":5.36706,"is_reserved":false,"is_disabled":false,"rental_uris":{"android":"levelo://app?vid=230bf62b-c7d0-476d-a1c4-8200aa66fba2","ios":"levelo://app?vid=230bf62b-c7d0-476d-a1c4-8200aa66fba2"},"vehicle_type_id":"4","last_reported":1701349828,"current_range_meters":6800,"station_id":"ce4bgr92rcd13ifvqc6g","pricing_plan_id":"free"},{"bike_id":"08c0f07f-1e2c-41a3-8d6c-92ccb0d6e88a","system_id":"levelo_inurba_marseille","lat":43.31341,"lon":5.367098,"is_reserved":false,"is_disabled":false,"rental_uris":{"android":"levelo://app?vid=08c0f07f-1e2c-41a3-8d6c-92ccb0d6e88a","ios":"levelo://app?vid=08c0f07f-1e2c-41a3-8d6c-92ccb0d6e88a"},"vehicle_type_id":"4","last_reported":1701349828,"current_range_meters":14800,"station_id":"ce4bgr92rcd13ifvqc6g","pricing_plan_id":"free"},{"bike_id":"6a0ba873-e6b5-4c2b-a7d7-2f9ccbe78d9e","system_id":"levelo_inurba_marseille","lat":43.313391,"lon":5.36706,"is_reserved":false,"is_disabled":false,"rental_uris":{"android":"levelo://app?vid=6a0ba873-e6b5-4c2b-a7d7-2f9ccbe78d9e","ios":"levelo://app?vid=6a0ba873-e6b5-4c2b-a7d7-2f9ccbe78d9e"},"vehicle_type_id":"4","last_reported":1701349828,"current_range_meters":31200,"station_id":"ce4bgr92rcd13ifvqc6g","pricing_plan_id":"free"},{"bike_id":"dc8aebcf-5310-4a5e-a1cd-e498b2840c41","system_id":"levelo_inurba_marseille","lat":43.313468,"lon":5.367212,"is_reserved":false,"is_disabled":false,"rental_uris":{"android":"levelo://app?vid=dc8aebcf-5310-4a5e-a1cd-e498b2840c41","ios":"levelo://app?vid=dc8aebcf-5310-4a5e-a1cd-e498b2840c41"},"vehicle_type_id":"4","last_reported":1701349828,"current_range_meters":16000,"station_id":"ce4bgr92rcd13ifvqc6g","pricing_plan_id":"free"},{"bike_id":"7c052d57-e5ae-4cd3-a31f-2f400eadca73","system_id":"levelo_inurba_marseille","lat":43.313521,"lon":5.367189,"is_reserved":false,"is_disabled":false,"rental_uris":{"android":"levelo://app?vid=7c052d57-e5ae-4cd3-a31f-2f400eadca73","ios":"levelo://app?vid=7c052d57-e5ae-4cd3-a31f-2f400eadca73"},"vehicle_type_id":"4","last_reported":1701349828,"current_range_meters":18400,"station_id":"ce4bgr92rcd13ifvqc6g","pricing_plan_id":"free"},{"bike_id":"5b4696ba-54c0-4218-b933-f6dc6bb7dfd2","system_id":"levelo_inurba_marseille","lat":43.31356,"lon":5.36715,"is_reserved":false,"is_disabled":false,"rental_uris":{"android":"levelo://app?vid=5b4696ba-54c0-4218-b933-f6dc6bb7dfd2","ios":"levelo://app?vid=5b4696ba-54c0-4218-b933-f6dc6bb7dfd2"},"vehicle_type_id":"4","last_reported":1701349828,"current_range_meters":26800,"station_id":"ce4bgr92rcd13ifvqc6g","pricing_plan_id":"free"},{"bike_id":"bed1e390-30ee-4727-858e-8a52e4b26941","system_id":"levelo_inurba_marseille","lat":43.31361,"lon":5.36702,"is_reserved":false,"is_disabled":false,"rental_uris":{"android":"levelo://app?vid=bed1e390-30ee-4727-858e-8a52e4b26941","ios":"levelo://app?vid=bed1e390-30ee-4727-858e-8a52e4b26941"},"vehicle_type_id":"4","last_reported":1701349828,"current_range_meters":29600,"station_id":"ce4bgr92rcd13ifvqc6g","pricing_plan_id":"free"},{"bike_id":"6069efed-4214-4ef4-89c2-abebeb832aca","system_id":"levelo_inurba_marseille","lat":43.312239,"lon":5.368562,"is_reserved":false,"is_disabled":false,"rental_uris":{"android":"levelo://app?vid=6069efed-4214-4ef4-89c2-abebeb832aca","ios":"levelo://app?vid=6069efed-4214-4ef4-89c2-abebeb832aca"},"vehicle_type_id":"4","last_reported":1701349828,"current_range_meters":30000,"station_id":"ce4bgl92rcd13ifvqbq0","pricing_plan_id":"free"},{"bike_id":"f40b73eb-0bdb-4dde-aa6e-c41354ad8135","system_id":"levelo_inurba_marseille","lat":43.312239,"lon":5.368562,"is_reserved":false,"is_disabled":false,"rental_uris":{"android":"levelo://app?vid=f40b73eb-0bdb-4dde-aa6e-c41354ad8135","ios":"levelo://app?vid=f40b73eb-0bdb-4dde-aa6e-c41354ad8135"},"vehicle_type_id":"4","last_reported":1701349828,"current_range_meters":10800,"station_id":"ce4bgl92rcd13ifvqbq0","pricing_plan_id":"free"},{"bike_id":"69907837-c36c-4c49-b90d-f2943933288a","system_id":"levelo_inurba_marseille","lat":43.309076,"lon":5.368465,"is_reserved":false,"is_disabled":false,"rental_uris":{"android":"levelo://app?vid=69907837-c36c-4c49-b90d-f2943933288a","ios":"levelo://app?vid=69907837-c36c-4c49-b90d-f2943933288a"},"vehicle_type_id":"4","last_reported":1701349828,"current_range_meters":31600,"station_id":"ce4bgn92rcd13ifvqbvg","pricing_plan_id":"free"},{"bike_id":"e0ed4152-83c6-48a0-8da6-adae3254e07e","system_id":"levelo_inurba_marseille","lat":43.309076,"lon":5.368465,"is_reserved":false,"is_disabled":false,"rental_uris":{"android":"levelo://app?vid=e0ed4152-83c6-48a0-8da6-adae3254e07e","ios":"levelo://app?vid=e0ed4152-83c6-48a0-8da6-adae3254e07e"},"vehicle_type_id":"4","last_reported":1701349828,"current_range_meters":31600,"station_id":"ce4bgn92rcd13ifvqbvg","pricing_plan_id":"free"},{"bike_id":"1e969908-02cc-4239-a406-be8b96ae7498","system_id":"levelo_inurba_marseille","lat":43.309076,"lon":5.368465,"is_reserved":false,"is_disabled":false,"rental_uris":{"android":"levelo://app?vid=1e969908-02cc-4239-a406-be8b96ae7498","ios":"levelo://app?vid=1e969908-02cc-4239-a406-be8b96ae7498"},"vehicle_type_id":"4","last_reported":1701349828,"current_range_meters":20400,"station_id":"ce4bgn92rcd13ifvqbvg","pricing_plan_id":"free"},{"bike_id":"d647e152-1033-4d6c-a8b6-f0456676aa1a","system_id":"levelo_inurba_marseille","lat":43.309076,"lon":5.368465,"is_reserved":false,"is_disabled":false,"rental_uris":{"android":"levelo://app?vid=d647e152-1033-4d6c-a8b6-f0456676aa1a","ios":"levelo://app?vid=d647e152-1033-4d6c-a8b6-f0456676aa1a"},"vehicle_type_id":"4","last_reported":1701349828,"current_range_meters":20400,"station_id":"ce4bgn92rcd13ifvqbvg","pricing_plan_id":"free"},{"bike_id":"f54eedfd-603c-42cf-b084-d047335ff135","system_id":"levelo_inurba_marseille","lat":43.309076,"lon":5.368465,"is_reserved":false,"is_disabled":false,"rental_uris":{"android":"levelo://app?vid=f54eedfd-603c-42cf-b084-d047335ff135","ios":"levelo://app?vid=f54eedfd-603c-42cf-b084-d047335ff135"},"vehicle_type_id":"4","last_reported":1701349828,"current_range_meters":31600,"station_id":"ce4bgn92rcd13ifvqbvg","pricing_plan_id":"free"},{"bike_id":"5ccc757b-55ba-497f-8a04-9995def58564","system_id":"levelo_inurba_marseille","lat":43.309076,"lon":5.368465,"is_reserved":false,"is_disabled":false,"rental_uris":{"android":"levelo://app?vid=5ccc757b-55ba-497f-8a04-9995def58564","ios":"levelo://app?vid=5ccc757b-55ba-497f-8a04-9995def58564"},"vehicle_type_id":"4","last_reported":1701349828,"current_range_meters":20800,"station_id":"ce4bgn92rcd13ifvqbvg","pricing_plan_id":"free"},{"bike_id":"46292cda-88ee-4995-aaab-576a03d5f41b","system_id":"levelo_inurba_marseille","lat":43.309076,"lon":5.368465,"is_reserved":false,"is_disabled":false,"rental_uris":{"android":"levelo://app?vid=46292cda-88ee-4995-aaab-576a03d5f41b","ios":"levelo://app?vid=46292cda-88ee-4995-aaab-576a03d5f41b"},"vehicle_type_id":"4","last_reported":1701349828,"current_range_meters":19200,"station_id":"ce4bgn92rcd13ifvqbvg","pricing_plan_id":"free"},{"bike_id":"8b25818d-b03c-42b1-92bc-6cb83397bf75","system_id":"levelo_inurba_marseille","lat":43.309076,"lon":5.368465,"is_reserved":false,"is_disabled":false,"rental_uris":{"android":"levelo://app?vid=8b25818d-b03c-42b1-92bc-6cb83397bf75","ios":"levelo://app?vid=8b25818d-b03c-42b1-92bc-6cb83397bf75"},"vehicle_type_id":"4","last_reported":1701349828,"current_range_meters":11600,"station_id":"ce4bgn92rcd13ifvqbvg","pricing_plan_id":"free"},{"bike_id":"2c956fd0-0828-4e6c-ac18-4831b238b588","system_id":"levelo_inurba_marseille","lat":43.314811,"lon":5.373103,"is_reserved":false,"is_disabled":false,"rental_uris":{"android":"levelo://app?vid=2c956fd0-0828-4e6c-ac18-4831b238b588","ios":"levelo://app?vid=2c956fd0-0828-4e6c-ac18-4831b238b588"},"vehicle_type_id":"4","last_reported":1701349828,"current_range_meters":31200,"station_id":"ce4bgt12rcd13ifvqcd0","pricing_plan_id":"free"},{"bike_id":"bbb4d7f1-08f2-4fbc-ab5c-181e6f4d6ac0","system_id":"levelo_inurba_marseille","lat":43.314811,"lon":5.373103,"is_reserved":false,"is_disabled":false,"rental_uris":{"android":"levelo://app?vid=bbb4d7f1-08f2-4fbc-ab5c-181e6f4d6ac0","ios":"levelo://app?vid=bbb4d7f1-08f2-4fbc-ab5c-181e6f4d6ac0"},"vehicle_type_id":"4","last_reported":1701349828,"current_range_meters":18800,"station_id":"ce4bgt12rcd13ifvqcd0","pricing_plan_id":"free"},{"bike_id":"1cd6ba7e-b861-4789-a6cf-c1e5ab66d5eb","system_id":"levelo_inurba_marseille","lat":43.314811,"lon":5.373104,"is_reserved":false,"is_disabled":false,"rental_uris":{"android":"levelo://app?vid=1cd6ba7e-b861-4789-a6cf-c1e5ab66d5eb","ios":"levelo://app?vid=1cd6ba7e-b861-4789-a6cf-c1e5ab66d5eb"},"vehicle_type_id":"4","last_reported":1701349828,"current_range_meters":29200,"station_id":"ce4bgt12rcd13ifvqcd0","pricing_plan_id":"free"},{"bike_id":"8df24494-9112-4de8-8b03-99f6061022de","system_id":"levelo_inurba_marseille","lat":43.30542,"lon":5.36535,"is_reserved":false,"is_disabled":false,"rental_uris":{"android":"levelo://app?vid=8df24494-9112-4de8-8b03-99f6061022de","ios":"levelo://app?vid=8df24494-9112-4de8-8b03-99f6061022de"},"vehicle_type_id":"4","last_reported":1701349828,"current_range_meters":0,"station_id":"ce4bgs12rcd13ifvqcag","pricing_plan_id":"free"},{"bike_id":"f8fabd24-8415-412c-bbf8-869ed52a9e9d","system_id":"levelo_inurba_marseille","lat":43.305706,"lon":5.365654,"is_reserved":false,"is_disabled":false,"rental_uris":{"android":"levelo://app?vid=f8fabd24-8415-412c-bbf8-869ed52a9e9d","ios":"levelo://app?vid=f8fabd24-8415-412c-bbf8-869ed52a9e9d"},"vehicle_type_id":"4","last_reported":1701349828,"current_range_meters":25600,"station_id":"ce4bgs12rcd13ifvqcag","pricing_plan_id":"free"},{"bike_id":"8ddbe663-31ab-400f-a2b2-be13cebcedc4","system_id":"levelo_inurba_marseille","lat":43.305706,"lon":5.365654,"is_reserved":false,"is_disabled":false,"rental_uris":{"android":"levelo://app?vid=8ddbe663-31ab-400f-a2b2-be13cebcedc4","ios":"levelo://app?vid=8ddbe663-31ab-400f-a2b2-be13cebcedc4"},"vehicle_type_id":"4","last_reported":1701349828,"current_range_meters":31600,"station_id":"ce4bgs12rcd13ifvqcag","pricing_plan_id":"free"},{"bike_id":"5575d2c7-db22-410d-b06a-4abfb92e95cf","system_id":"levelo_inurba_marseille","lat":43.3111,"lon":5.37766,"is_reserved":false,"is_disabled":false,"rental_uris":{"android":"levelo://app?vid=5575d2c7-db22-410d-b06a-4abfb92e95cf","ios":"levelo://app?vid=5575d2c7-db22-410d-b06a-4abfb92e95cf"},"vehicle_type_id":"4","last_reported":1701349828,"current_range_meters":31200,"station_id":"ce4bgt92rcd13ifvqcg0","pricing_plan_id":"free"},{"bike_id":"727d231a-d425-4d8f-ad3f-99b5a47572e8","system_id":"levelo_inurba_marseille","lat":43.30439,"lon":5.36753,"is_reserved":false,"is_disabled":false,"rental_uris":{"android":"levelo://app?vid=727d231a-d425-4d8f-ad3f-99b5a47572e8","ios":"levelo://app?vid=727d231a-d425-4d8f-ad3f-99b5a47572e8"},"vehicle_type_id":"4","last_reported":1701349828,"current_range_meters":30800,"station_id":"","pricing_plan_id":"free"},{"bike_id":"f427a2c3-6e4a-446b-ae2f-9be8aa7f4122","system_id":"levelo_inurba_marseille","lat":43.31719,"lon":5.376813,"is_reserved":false,"is_disabled":false,"rental_uris":{"android":"levelo://app?vid=f427a2c3-6e4a-446b-ae2f-9be8aa7f4122","ios":"levelo://app?vid=f427a2c3-6e4a-446b-ae2f-9be8aa7f4122"},"vehicle_type_id":"4","last_reported":1701349828,"current_range_meters":5600,"station_id":"ce4bgth2rcd13ifvqch0","pricing_plan_id":"free"},{"bike_id":"eb7c6a58-4440-4134-8f29-95e704f96b34","system_id":"levelo_inurba_marseille","lat":43.307945,"lon":5.376487,"is_reserved":false,"is_disabled":false,"rental_uris":{"android":"levelo://app?vid=eb7c6a58-4440-4134-8f29-95e704f96b34","ios":"levelo://app?vid=eb7c6a58-4440-4134-8f29-95e704f96b34"},"vehicle_type_id":"4","last_reported":1701349828,"current_range_meters":23200,"station_id":"ce4bgv92rcd13ifvqcq0","pricing_plan_id":"free"},{"bike_id":"e913f328-1e31-4c22-bd87-f809ea246de4","system_id":"levelo_inurba_marseille","lat":43.317168,"lon":5.376883,"is_reserved":false,"is_disabled":false,"rental_uris":{"android":"levelo://app?vid=e913f328-1e31-4c22-bd87-f809ea246de4","ios":"levelo://app?vid=e913f328-1e31-4c22-bd87-f809ea246de4"},"vehicle_type_id":"4","last_reported":1701349828,"current_range_meters":8000,"station_id":"ce4bgth2rcd13ifvqch0","pricing_plan_id":"free"},{"bike_id":"d4e2d88a-201a-40de-8526-5a0424bacd30","system_id":"levelo_inurba_marseille","lat":43.317075,"lon":5.377367,"is_reserved":false,"is_disabled":false,"rental_uris":{"android":"levelo://app?vid=d4e2d88a-201a-40de-8526-5a0424bacd30","ios":"levelo://app?vid=d4e2d88a-201a-40de-8526-5a0424bacd30"},"vehicle_type_id":"4","last_reported":1701349828,"current_range_meters":29200,"station_id":"ce4bgth2rcd13ifvqch0","pricing_plan_id":"free"},{"bike_id":"1eb5f003-b7b7-4f96-9fdf-2ec8feac4f3d","system_id":"levelo_inurba_marseille","lat":43.317075,"lon":5.377367,"is_reserved":false,"is_disabled":false,"rental_uris":{"android":"levelo://app?vid=1eb5f003-b7b7-4f96-9fdf-2ec8feac4f3d","ios":"levelo://app?vid=1eb5f003-b7b7-4f96-9fdf-2ec8feac4f3d"},"vehicle_type_id":"4","last_reported":1701349828,"current_range_meters":31200,"station_id":"ce4bgth2rcd13ifvqch0","pricing_plan_id":"free"},{"bike_id":"69d52bdc-2eef-45ba-92b8-831b861a75f7","system_id":"levelo_inurba_marseille","lat":43.303046,"lon":5.368981,"is_reserved":false,"is_disabled":false,"rental_uris":{"android":"levelo://app?vid=69d52bdc-2eef-45ba-92b8-831b861a75f7","ios":"levelo://app?vid=69d52bdc-2eef-45ba-92b8-831b861a75f7"},"vehicle_type_id":"4","last_reported":1701349828,"current_range_meters":9200,"station_id":"ce4bgqh2rcd13ifvqc5g","pricing_plan_id":"free"},{"bike_id":"bef3c888-e26e-4daf-a279-528d05d9f20b","system_id":"levelo_inurba_marseille","lat":43.30143,"lon":5.37413,"is_reserved":false,"is_disabled":false,"rental_uris":{"android":"levelo://app?vid=bef3c888-e26e-4daf-a279-528d05d9f20b","ios":"levelo://app?vid=bef3c888-e26e-4daf-a279-528d05d9f20b"},"vehicle_type_id":"4","last_reported":1701349828,"current_range_meters":22000,"station_id":"ce4bgs92rcd13ifvqcc0","pricing_plan_id":"free"},{"bike_id":"4921fd2c-3846-4957-b1ce-53de7fd87a72","system_id":"levelo_inurba_marseille","lat":43.308012,"lon":5.381511,"is_reserved":false,"is_disabled":false,"rental_uris":{"android":"levelo://app?vid=4921fd2c-3846-4957-b1ce-53de7fd87a72","ios":"levelo://app?vid=4921fd2c-3846-4957-b1ce-53de7fd87a72"},"vehicle_type_id":"4","last_reported":1701349828,"current_range_meters":13600,"station_id":"ce4bgt12rcd13ifvqce0","pricing_plan_id":"free"},{"bike_id":"a91fa5a2-7627-4bbc-ab68-a16597bd7d4c","system_id":"levelo_inurba_marseille","lat":43.30802,"lon":5.38162,"is_reserved":false,"is_disabled":false,"rental_uris":{"android":"levelo://app?vid=a91fa5a2-7627-4bbc-ab68-a16597bd7d4c","ios":"levelo://app?vid=a91fa5a2-7627-4bbc-ab68-a16597bd7d4c"},"vehicle_type_id":"4","last_reported":1701349828,"current_range_meters":16000,"station_id":"ce4bgt12rcd13ifvqce0","pricing_plan_id":"free"},{"bike_id":"9a710729-dccb-4ef5-b2d3-e400047927e6","system_id":"levelo_inurba_marseille","lat":43.308012,"lon":5.381511,"is_reserved":false,"is_disabled":false,"rental_uris":{"android":"levelo://app?vid=9a710729-dccb-4ef5-b2d3-e400047927e6","ios":"levelo://app?vid=9a710729-dccb-4ef5-b2d3-e400047927e6"},"vehicle_type_id":"4","last_reported":1701349828,"current_range_meters":800,"station_id":"ce4bgt12rcd13ifvqce0","pricing_plan_id":"free"},{"bike_id":"4b312d24-7b19-4574-b20e-1d1d449832de","system_id":"levelo_inurba_marseille","lat":43.308012,"lon":5.381511,"is_reserved":false,"is_disabled":false,"rental_uris":{"android":"levelo://app?vid=4b312d24-7b19-4574-b20e-1d1d449832de","ios":"levelo://app?vid=4b312d24-7b19-4574-b20e-1d1d449832de"},"vehicle_type_id":"4","last_reported":1701349828,"current_range_meters":19200,"station_id":"ce4bgt12rcd13ifvqce0","pricing_plan_id":"free"},{"bike_id":"3081581f-eecf-477c-9d3b-b3769bca7607","system_id":"levelo_inurba_marseille","lat":43.308012,"lon":5.381511,"is_reserved":false,"is_disabled":false,"rental_uris":{"android":"levelo://app?vid=3081581f-eecf-477c-9d3b-b3769bca7607","ios":"levelo://app?vid=3081581f-eecf-477c-9d3b-b3769bca7607"},"vehicle_type_id":"4","last_reported":1701349828,"current_range_meters":18400,"station_id":"ce4bgt12rcd13ifvqce0","pricing_plan_id":"free"},{"bike_id":"fb658766-ef7d-41bc-8914-59269b383780","system_id":"levelo_inurba_marseille","lat":43.308012,"lon":5.381511,"is_reserved":false,"is_disabled":false,"rental_uris":{"android":"levelo://app?vid=fb658766-ef7d-41bc-8914-59269b383780","ios":"levelo://app?vid=fb658766-ef7d-41bc-8914-59269b383780"},"vehicle_type_id":"4","last_reported":1701349828,"current_range_meters":6800,"station_id":"ce4bgt12rcd13ifvqce0","pricing_plan_id":"free"},{"bike_id":"0333723c-c349-4857-8498-59d26e2f6d58","system_id":"levelo_inurba_marseille","lat":43.304658,"lon":5.37902,"is_reserved":false,"is_disabled":false,"rental_uris":{"android":"levelo://app?vid=0333723c-c349-4857-8498-59d26e2f6d58","ios":"levelo://app?vid=0333723c-c349-4857-8498-59d26e2f6d58"},"vehicle_type_id":"4","last_reported":1701349828,"current_range_meters":24000,"station_id":"","pricing_plan_id":"free"},{"bike_id":"00a1a9ab-b6c2-4489-afdc-9077079b7fca","system_id":"levelo_inurba_marseille","lat":43.30461,"lon":5.37903,"is_reserved":false,"is_disabled":false,"rental_uris":{"android":"levelo://app?vid=00a1a9ab-b6c2-4489-afdc-9077079b7fca","ios":"levelo://app?vid=00a1a9ab-b6c2-4489-afdc-9077079b7fca"},"vehicle_type_id":"4","last_reported":1701349828,"current_range_meters":17200,"station_id":"ce4bgup2rcd13ifvqcn0","pricing_plan_id":"free"},{"bike_id":"54559a22-914f-4261-938c-0969966ee5df","system_id":"levelo_inurba_marseille","lat":43.30459,"lon":5.37901,"is_reserved":false,"is_disabled":false,"rental_uris":{"android":"levelo://app?vid=54559a22-914f-4261-938c-0969966ee5df","ios":"levelo://app?vid=54559a22-914f-4261-938c-0969966ee5df"},"vehicle_type_id":"4","last_reported":1701349828,"current_range_meters":10800,"station_id":"ce4bgup2rcd13ifvqcn0","pricing_plan_id":"free"},{"bike_id":"6a836329-fb79-403a-9d00-125eb03b4bad","system_id":"levelo_inurba_marseille","lat":43.30462,"lon":5.37906,"is_reserved":false,"is_disabled":false,"rental_uris":{"android":"levelo://app?vid=6a836329-fb79-403a-9d00-125eb03b4bad","ios":"levelo://app?vid=6a836329-fb79-403a-9d00-125eb03b4bad"},"vehicle_type_id":"4","last_reported":1701349828,"current_range_meters":1200,"station_id":"ce4bgup2rcd13ifvqcn0","pricing_plan_id":"free"},{"bike_id":"aab24523-8d9b-47b7-a368-8849051e7238","system_id":"levelo_inurba_marseille","lat":43.30453,"lon":5.37898,"is_reserved":false,"is_disabled":false,"rental_uris":{"android":"levelo://app?vid=aab24523-8d9b-47b7-a368-8849051e7238","ios":"levelo://app?vid=aab24523-8d9b-47b7-a368-8849051e7238"},"vehicle_type_id":"4","last_reported":1701349828,"current_range_meters":0,"station_id":"ce4bgup2rcd13ifvqcn0","pricing_plan_id":"free"},{"bike_id":"5a396881-4504-4987-8747-61d455bd1d26","system_id":"levelo_inurba_marseille","lat":43.30456,"lon":5.37903,"is_reserved":false,"is_disabled":false,"rental_uris":{"android":"levelo://app?vid=5a396881-4504-4987-8747-61d455bd1d26","ios":"levelo://app?vid=5a396881-4504-4987-8747-61d455bd1d26"},"vehicle_type_id":"4","last_reported":1701349828,"current_range_meters":21600,"station_id":"ce4bgup2rcd13ifvqcn0","pricing_plan_id":"free"},{"bike_id":"bf957a66-ea89-48b6-b3a4-e3b4bb782762","system_id":"levelo_inurba_marseille","lat":43.304606,"lon":5.379026,"is_reserved":false,"is_disabled":false,"rental_uris":{"android":"levelo://app?vid=bf957a66-ea89-48b6-b3a4-e3b4bb782762","ios":"levelo://app?vid=bf957a66-ea89-48b6-b3a4-e3b4bb782762"},"vehicle_type_id":"4","last_reported":1701349828,"current_range_meters":2000,"station_id":"ce4bgup2rcd13ifvqcn0","pricing_plan_id":"free"},{"bike_id":"0ba9607b-d967-428a-9a6b-0f5ad1d3e3c4","system_id":"levelo_inurba_marseille","lat":43.304606,"lon":5.379026,"is_reserved":false,"is_disabled":false,"rental_uris":{"android":"levelo://app?vid=0ba9607b-d967-428a-9a6b-0f5ad1d3e3c4","ios":"levelo://app?vid=0ba9607b-d967-428a-9a6b-0f5ad1d3e3c4"},"vehicle_type_id":"4","last_reported":1701349828,"current_range_meters":20000,"station_id":"ce4bgup2rcd13ifvqcn0","pricing_plan_id":"free"},{"bike_id":"6104e35a-8f8e-4236-b5bf-c165d44f9cf9","system_id":"levelo_inurba_marseille","lat":43.324771,"lon":5.36557,"is_reserved":false,"is_disabled":false,"rental_uris":{"android":"levelo://app?vid=6104e35a-8f8e-4236-b5bf-c165d44f9cf9","ios":"levelo://app?vid=6104e35a-8f8e-4236-b5bf-c165d44f9cf9"},"vehicle_type_id":"4","last_reported":1701349828,"current_range_meters":13200,"station_id":"ce4bhs12rcd13ifvqhvg","pricing_plan_id":"free"},{"bike_id":"5f0dcc7e-fe2f-41ae-b9b7-07b5430b86ee","system_id":"levelo_inurba_marseille","lat":43.324831,"lon":5.365583,"is_reserved":false,"is_disabled":false,"rental_uris":{"android":"levelo://app?vid=5f0dcc7e-fe2f-41ae-b9b7-07b5430b86ee","ios":"levelo://app?vid=5f0dcc7e-fe2f-41ae-b9b7-07b5430b86ee"},"vehicle_type_id":"4","last_reported":1701349828,"current_range_meters":14400,"station_id":"ce4bhs12rcd13ifvqhvg","pricing_plan_id":"free"},{"bike_id":"7104edd8-87c0-4109-9646-1b0847d65add","system_id":"levelo_inurba_marseille","lat":43.302784,"lon":5.377158,"is_reserved":false,"is_disabled":false,"rental_uris":{"android":"levelo://app?vid=7104edd8-87c0-4109-9646-1b0847d65add","ios":"levelo://app?vid=7104edd8-87c0-4109-9646-1b0847d65add"},"vehicle_type_id":"4","last_reported":1701349828,"current_range_meters":30000,"station_id":"ce4bguh2rcd13ifvqcj0","pricing_plan_id":"free"},{"bike_id":"d60f8413-5e65-4aa7-a9cd-6754d53177fa","system_id":"levelo_inurba_marseille","lat":43.302784,"lon":5.377158,"is_reserved":false,"is_disabled":false,"rental_uris":{"android":"levelo://app?vid=d60f8413-5e65-4aa7-a9cd-6754d53177fa","ios":"levelo://app?vid=d60f8413-5e65-4aa7-a9cd-6754d53177fa"},"vehicle_type_id":"4","last_reported":1701349828,"current_range_meters":17200,"station_id":"ce4bguh2rcd13ifvqcj0","pricing_plan_id":"free"},{"bike_id":"cc3cfcc6-db66-45da-a6d9-681db51ed10d","system_id":"levelo_inurba_marseille","lat":43.302784,"lon":5.377158,"is_reserved":false,"is_disabled":false,"rental_uris":{"android":"levelo://app?vid=cc3cfcc6-db66-45da-a6d9-681db51ed10d","ios":"levelo://app?vid=cc3cfcc6-db66-45da-a6d9-681db51ed10d"},"vehicle_type_id":"4","last_reported":1701349828,"current_range_meters":12400,"station_id":"ce4bguh2rcd13ifvqcj0","pricing_plan_id":"free"},{"bike_id":"fd3d235d-d0db-472a-80db-a13dfc7f388c","system_id":"levelo_inurba_marseille","lat":43.301429,"lon":5.37413,"is_reserved":false,"is_disabled":false,"rental_uris":{"android":"levelo://app?vid=fd3d235d-d0db-472a-80db-a13dfc7f388c","ios":"levelo://app?vid=fd3d235d-d0db-472a-80db-a13dfc7f388c"},"vehicle_type_id":"4","last_reported":1701349828,"current_range_meters":26800,"station_id":"ce4bgs92rcd13ifvqcc0","pricing_plan_id":"free"},{"bike_id":"36126671-6f79-4ad1-a386-d9a2aaebfb25","system_id":"levelo_inurba_marseille","lat":43.319935,"lon":5.381699,"is_reserved":false,"is_disabled":false,"rental_uris":{"android":"levelo://app?vid=36126671-6f79-4ad1-a386-d9a2aaebfb25","ios":"levelo://app?vid=36126671-6f79-4ad1-a386-d9a2aaebfb25"},"vehicle_type_id":"4","last_reported":1701349828,"current_range_meters":18400,"station_id":"ce4bhr12rcd13ifvqhpg","pricing_plan_id":"free"},{"bike_id":"3e01df68-27f0-42b4-ac09-2ec4a13acda6","system_id":"levelo_inurba_marseille","lat":43.319935,"lon":5.381699,"is_reserved":false,"is_disabled":false,"rental_uris":{"android":"levelo://app?vid=3e01df68-27f0-42b4-ac09-2ec4a13acda6","ios":"levelo://app?vid=3e01df68-27f0-42b4-ac09-2ec4a13acda6"},"vehicle_type_id":"4","last_reported":1701349828,"current_range_meters":7600,"station_id":"ce4bhr12rcd13ifvqhpg","pricing_plan_id":"free"},{"bike_id":"2275aca5-3158-4c2c-8022-ca5d2714bc86","system_id":"levelo_inurba_marseille","lat":43.319997,"lon":5.381594,"is_reserved":false,"is_disabled":false,"rental_uris":{"android":"levelo://app?vid=2275aca5-3158-4c2c-8022-ca5d2714bc86","ios":"levelo://app?vid=2275aca5-3158-4c2c-8022-ca5d2714bc86"},"vehicle_type_id":"4","last_reported":1701349828,"current_range_meters":22800,"station_id":"ce4bhr12rcd13ifvqhpg","pricing_plan_id":"free"},{"bike_id":"b801279d-6f79-4d4f-97f8-23e3678c61c6","system_id":"levelo_inurba_marseille","lat":43.313571,"lon":5.384829,"is_reserved":false,"is_disabled":false,"rental_uris":{"android":"levelo://app?vid=b801279d-6f79-4d4f-97f8-23e3678c61c6","ios":"levelo://app?vid=b801279d-6f79-4d4f-97f8-23e3678c61c6"},"vehicle_type_id":"4","last_reported":1701349828,"current_range_meters":12400,"station_id":"ce4bgt92rcd13ifvqcf0","pricing_plan_id":"free"},{"bike_id":"4d57b0f5-9641-495a-847f-9619b0eb2002","system_id":"levelo_inurba_marseille","lat":43.313571,"lon":5.384829,"is_reserved":false,"is_disabled":false,"rental_uris":{"android":"levelo://app?vid=4d57b0f5-9641-495a-847f-9619b0eb2002","ios":"levelo://app?vid=4d57b0f5-9641-495a-847f-9619b0eb2002"},"vehicle_type_id":"4","last_reported":1701349828,"current_range_meters":16400,"station_id":"ce4bgt92rcd13ifvqcf0","pricing_plan_id":"free"},{"bike_id":"7a45b53b-97a5-4129-934d-a6715cf29141","system_id":"levelo_inurba_marseille","lat":43.29932,"lon":5.36556,"is_reserved":false,"is_disabled":false,"rental_uris":{"android":"levelo://app?vid=7a45b53b-97a5-4129-934d-a6715cf29141","ios":"levelo://app?vid=7a45b53b-97a5-4129-934d-a6715cf29141"},"vehicle_type_id":"4","last_reported":1701349828,"current_range_meters":22400,"station_id":"ce4bgm92rcd13ifvqbr0","pricing_plan_id":"free"},{"bike_id":"85f13ce6-413a-405b-ac83-cc4a561f71dd","system_id":"levelo_inurba_marseille","lat":43.298433,"lon":5.362774,"is_reserved":false,"is_disabled":false,"rental_uris":{"android":"levelo://app?vid=85f13ce6-413a-405b-ac83-cc4a561f71dd","ios":"levelo://app?vid=85f13ce6-413a-405b-ac83-cc4a561f71dd"},"vehicle_type_id":"4","last_reported":1701349828,"current_range_meters":15200,"station_id":"ce4bgpp2rcd13ifvqc3g","pricing_plan_id":"free"},{"bike_id":"f30f4908-0ff0-4bbe-a261-f62b0bc99122","system_id":"levelo_inurba_marseille","lat":43.298433,"lon":5.362774,"is_reserved":false,"is_disabled":false,"rental_uris":{"android":"levelo://app?vid=f30f4908-0ff0-4bbe-a261-f62b0bc99122","ios":"levelo://app?vid=f30f4908-0ff0-4bbe-a261-f62b0bc99122"},"vehicle_type_id":"4","last_reported":1701349828,"current_range_meters":18000,"station_id":"ce4bgpp2rcd13ifvqc3g","pricing_plan_id":"free"},{"bike_id":"37daf336-ea2b-4d43-9172-b899c887e0fc","system_id":"levelo_inurba_marseille","lat":43.311722,"lon":5.387247,"is_reserved":false,"is_disabled":false,"rental_uris":{"android":"levelo://app?vid=37daf336-ea2b-4d43-9172-b899c887e0fc","ios":"levelo://app?vid=37daf336-ea2b-4d43-9172-b899c887e0fc"},"vehicle_type_id":"4","last_reported":1701349828,"current_range_meters":16000,"station_id":"ce4bgv12rcd13ifvqcp0","pricing_plan_id":"free"},{"bike_id":"aebb5f1f-3a1e-4323-a4f0-ae83e0b78d14","system_id":"levelo_inurba_marseille","lat":43.327603,"lon":5.36705,"is_reserved":false,"is_disabled":false,"rental_uris":{"android":"levelo://app?vid=aebb5f1f-3a1e-4323-a4f0-ae83e0b78d14","ios":"levelo://app?vid=aebb5f1f-3a1e-4323-a4f0-ae83e0b78d14"},"vehicle_type_id":"4","last_reported":1701349828,"current_range_meters":24400,"station_id":"","pricing_plan_id":"free"},{"bike_id":"159f20e7-15ca-47ea-9a72-dd857dc07724","system_id":"levelo_inurba_marseille","lat":43.297794,"lon":5.370888,"is_reserved":false,"is_disabled":false,"rental_uris":{"android":"levelo://app?vid=159f20e7-15ca-47ea-9a72-dd857dc07724","ios":"levelo://app?vid=159f20e7-15ca-47ea-9a72-dd857dc07724"},"vehicle_type_id":"4","last_reported":1701349828,"current_range_meters":24000,"station_id":"ce4bgop2rcd13ifvqc1g","pricing_plan_id":"free"},{"bike_id":"11fbc002-5b4d-4629-a038-bbbaf88697c2","system_id":"levelo_inurba_marseille","lat":43.322872,"lon":5.382756,"is_reserved":false,"is_disabled":false,"rental_uris":{"android":"levelo://app?vid=11fbc002-5b4d-4629-a038-bbbaf88697c2","ios":"levelo://app?vid=11fbc002-5b4d-4629-a038-bbbaf88697c2"},"vehicle_type_id":"4","last_reported":1701349828,"current_range_meters":16000,"station_id":"ce4bhr12rcd13ifvqhqg","pricing_plan_id":"free"},{"bike_id":"df0d9fa6-73d5-437e-b2a9-37e55b8c5a8d","system_id":"levelo_inurba_marseille","lat":43.309589,"lon":5.390258,"is_reserved":false,"is_disabled":false,"rental_uris":{"android":"levelo://app?vid=df0d9fa6-73d5-437e-b2a9-37e55b8c5a8d","ios":"levelo://app?vid=df0d9fa6-73d5-437e-b2a9-37e55b8c5a8d"},"vehicle_type_id":"4","last_reported":1701349828,"current_range_meters":20000,"station_id":"ce4bgup2rcd13ifvqco0","pricing_plan_id":"free"},{"bike_id":"f572b1d3-94bc-4ea1-95d9-f0b1739b38c6","system_id":"levelo_inurba_marseille","lat":43.328371,"lon":5.366909,"is_reserved":false,"is_disabled":false,"rental_uris":{"android":"levelo://app?vid=f572b1d3-94bc-4ea1-95d9-f0b1739b38c6","ios":"levelo://app?vid=f572b1d3-94bc-4ea1-95d9-f0b1739b38c6"},"vehicle_type_id":"4","last_reported":1701349828,"current_range_meters":19200,"station_id":"ce4bhs92rcd13ifvqi0g","pricing_plan_id":"free"},{"bike_id":"0cd30cda-abda-4e71-872f-17b27bdaf400","system_id":"levelo_inurba_marseille","lat":43.297163,"lon":5.365866,"is_reserved":false,"is_disabled":false,"rental_uris":{"android":"levelo://app?vid=0cd30cda-abda-4e71-872f-17b27bdaf400","ios":"levelo://app?vid=0cd30cda-abda-4e71-872f-17b27bdaf400"},"vehicle_type_id":"4","last_reported":1701349828,"current_range_meters":18800,"station_id":"ce4bgn12rcd13ifvqbt0","pricing_plan_id":"free"},{"bike_id":"d068864e-3768-4cb7-8f2c-e01febcf4d60","system_id":"levelo_inurba_marseille","lat":43.296215,"lon":5.36511,"is_reserved":false,"is_disabled":false,"rental_uris":{"android":"levelo://app?vid=d068864e-3768-4cb7-8f2c-e01febcf4d60","ios":"levelo://app?vid=d068864e-3768-4cb7-8f2c-e01febcf4d60"},"vehicle_type_id":"4","last_reported":1701349828,"current_range_meters":13200,"station_id":"","pricing_plan_id":"free"},{"bike_id":"c093a85d-0b52-4609-9f66-e103f1bae647","system_id":"levelo_inurba_marseille","lat":43.29573,"lon":5.367355,"is_reserved":false,"is_disabled":false,"rental_uris":{"android":"levelo://app?vid=c093a85d-0b52-4609-9f66-e103f1bae647","ios":"levelo://app?vid=c093a85d-0b52-4609-9f66-e103f1bae647"},"vehicle_type_id":"4","last_reported":1701349828,"current_range_meters":23600,"station_id":"ce4bgph2rcd13ifvqc2g","pricing_plan_id":"free"},{"bike_id":"5c0db87c-b9ec-4f72-9c11-f1e6305edd7d","system_id":"levelo_inurba_marseille","lat":43.296921,"lon":5.376579,"is_reserved":false,"is_disabled":false,"rental_uris":{"android":"levelo://app?vid=5c0db87c-b9ec-4f72-9c11-f1e6305edd7d","ios":"levelo://app?vid=5c0db87c-b9ec-4f72-9c11-f1e6305edd7d"},"vehicle_type_id":"4","last_reported":1701349828,"current_range_meters":26400,"station_id":"ce4bgkh2rcd13ifvqbl0","pricing_plan_id":"free"},{"bike_id":"5f8e48e0-258c-4b8f-8aa6-bc083ed7cdd0","system_id":"levelo_inurba_marseille","lat":43.299028,"lon":5.381509,"is_reserved":false,"is_disabled":false,"rental_uris":{"android":"levelo://app?vid=5f8e48e0-258c-4b8f-8aa6-bc083ed7cdd0","ios":"levelo://app?vid=5f8e48e0-258c-4b8f-8aa6-bc083ed7cdd0"},"vehicle_type_id":"4","last_reported":1701349828,"current_range_meters":26400,"station_id":"ce4bgj12rcd13ifvqbc0","pricing_plan_id":"free"},{"bike_id":"e3edde32-c92c-4e83-9a5e-b720c96663c7","system_id":"levelo_inurba_marseille","lat":43.309589,"lon":5.390258,"is_reserved":false,"is_disabled":false,"rental_uris":{"android":"levelo://app?vid=e3edde32-c92c-4e83-9a5e-b720c96663c7","ios":"levelo://app?vid=e3edde32-c92c-4e83-9a5e-b720c96663c7"},"vehicle_type_id":"4","last_reported":1701349828,"current_range_meters":10800,"station_id":"ce4bgup2rcd13ifvqco0","pricing_plan_id":"free"},{"bike_id":"eaa0e7e7-2390-47fa-909b-7b240952cbef","system_id":"levelo_inurba_marseille","lat":43.317557,"lon":5.390173,"is_reserved":false,"is_disabled":false,"rental_uris":{"android":"levelo://app?vid=eaa0e7e7-2390-47fa-909b-7b240952cbef","ios":"levelo://app?vid=eaa0e7e7-2390-47fa-909b-7b240952cbef"},"vehicle_type_id":"4","last_reported":1701349828,"current_range_meters":7600,"station_id":"ce4bhqp2rcd13ifvqhng","pricing_plan_id":"free"},{"bike_id":"5608d980-1260-4513-998d-80704138451c","system_id":"levelo_inurba_marseille","lat":43.295748,"lon":5.37522,"is_reserved":false,"is_disabled":false,"rental_uris":{"android":"levelo://app?vid=5608d980-1260-4513-998d-80704138451c","ios":"levelo://app?vid=5608d980-1260-4513-998d-80704138451c"},"vehicle_type_id":"4","last_reported":1701349828,"current_range_meters":16800,"station_id":"ce4bgh92rcd13ifvqb50","pricing_plan_id":"free"},{"bike_id":"2cc903a2-1d51-4547-a2d2-07dd7e959aef","system_id":"levelo_inurba_marseille","lat":43.29794,"lon":5.38113,"is_reserved":false,"is_disabled":false,"rental_uris":{"android":"levelo://app?vid=2cc903a2-1d51-4547-a2d2-07dd7e959aef","ios":"levelo://app?vid=2cc903a2-1d51-4547-a2d2-07dd7e959aef"},"vehicle_type_id":"4","last_reported":1701349828,"current_range_meters":0,"station_id":"ce4bgip2rcd13ifvqbb0","pricing_plan_id":"free"},{"bike_id":"03800ec5-51cd-4220-82a7-947f5f854b60","system_id":"levelo_inurba_marseille","lat":43.298037,"lon":5.381066,"is_reserved":false,"is_disabled":false,"rental_uris":{"android":"levelo://app?vid=03800ec5-51cd-4220-82a7-947f5f854b60","ios":"levelo://app?vid=03800ec5-51cd-4220-82a7-947f5f854b60"},"vehicle_type_id":"4","last_reported":1701349828,"current_range_meters":22800,"station_id":"ce4bgip2rcd13ifvqbb0","pricing_plan_id":"free"},{"bike_id":"458c49f6-d356-4490-afb7-f6161691d667","system_id":"levelo_inurba_marseille","lat":43.296263,"lon":5.377094,"is_reserved":false,"is_disabled":false,"rental_uris":{"android":"levelo://app?vid=458c49f6-d356-4490-afb7-f6161691d667","ios":"levelo://app?vid=458c49f6-d356-4490-afb7-f6161691d667"},"vehicle_type_id":"4","last_reported":1701349828,"current_range_meters":15600,"station_id":"ce4bgi92rcd13ifvqb90","pricing_plan_id":"free"},{"bike_id":"660c924e-4ff2-4453-ad2a-7a7a404d3d8a","system_id":"levelo_inurba_marseille","lat":43.299707,"lon":5.384859,"is_reserved":false,"is_disabled":false,"rental_uris":{"android":"levelo://app?vid=660c924e-4ff2-4453-ad2a-7a7a404d3d8a","ios":"levelo://app?vid=660c924e-4ff2-4453-ad2a-7a7a404d3d8a"},"vehicle_type_id":"4","last_reported":1701349828,"current_range_meters":26800,"station_id":"ce4bgj92rcd13ifvqbd0","pricing_plan_id":"free"},{"bike_id":"622a0831-c704-4556-af25-95ab97877aa7","system_id":"levelo_inurba_marseille","lat":43.295279,"lon":5.375048,"is_reserved":false,"is_disabled":false,"rental_uris":{"android":"levelo://app?vid=622a0831-c704-4556-af25-95ab97877aa7","ios":"levelo://app?vid=622a0831-c704-4556-af25-95ab97877aa7"},"vehicle_type_id":"4","last_reported":1701349828,"current_range_meters":22000,"station_id":"ce4bgkp2rcd13ifvqbmg","pricing_plan_id":"free"},{"bike_id":"51592f6d-dbcc-4775-933b-119af6a65f37","system_id":"levelo_inurba_marseille","lat":43.29969,"lon":5.38493,"is_reserved":false,"is_disabled":false,"rental_uris":{"android":"levelo://app?vid=51592f6d-dbcc-4775-933b-119af6a65f37","ios":"levelo://app?vid=51592f6d-dbcc-4775-933b-119af6a65f37"},"vehicle_type_id":"4","last_reported":1701349828,"current_range_meters":0,"station_id":"ce4bgj92rcd13ifvqbd0","pricing_plan_id":"free"},{"bike_id":"7bada5bc-9296-40bc-8cb1-ac1fc41f7acf","system_id":"levelo_inurba_marseille","lat":43.32367,"lon":5.388836,"is_reserved":false,"is_disabled":false,"rental_uris":{"android":"levelo://app?vid=7bada5bc-9296-40bc-8cb1-ac1fc41f7acf","ios":"levelo://app?vid=7bada5bc-9296-40bc-8cb1-ac1fc41f7acf"},"vehicle_type_id":"4","last_reported":1701349828,"current_range_meters":1200,"station_id":"ce4bhqp2rcd13ifvqhog","pricing_plan_id":"free"},{"bike_id":"a2f12fcc-77db-4a5e-9d0a-3e37ef1844fc","system_id":"levelo_inurba_marseille","lat":43.323648,"lon":5.388864,"is_reserved":false,"is_disabled":false,"rental_uris":{"android":"levelo://app?vid=a2f12fcc-77db-4a5e-9d0a-3e37ef1844fc","ios":"levelo://app?vid=a2f12fcc-77db-4a5e-9d0a-3e37ef1844fc"},"vehicle_type_id":"4","last_reported":1701349828,"current_range_meters":24800,"station_id":"ce4bhqp2rcd13ifvqhog","pricing_plan_id":"free"},{"bike_id":"50447284-9ef1-4feb-b520-eed03ae0c578","system_id":"levelo_inurba_marseille","lat":43.32367,"lon":5.388836,"is_reserved":false,"is_disabled":false,"rental_uris":{"android":"levelo://app?vid=50447284-9ef1-4feb-b520-eed03ae0c578","ios":"levelo://app?vid=50447284-9ef1-4feb-b520-eed03ae0c578"},"vehicle_type_id":"4","last_reported":1701349828,"current_range_meters":20800,"station_id":"ce4bhqp2rcd13ifvqhog","pricing_plan_id":"free"},{"bike_id":"fb5839ad-3d78-44e7-bc90-b2bee83ce132","system_id":"levelo_inurba_marseille","lat":43.304794,"lon":5.3934,"is_reserved":false,"is_disabled":false,"rental_uris":{"android":"levelo://app?vid=fb5839ad-3d78-44e7-bc90-b2bee83ce132","ios":"levelo://app?vid=fb5839ad-3d78-44e7-bc90-b2bee83ce132"},"vehicle_type_id":"4","last_reported":1701349828,"current_range_meters":0,"station_id":"","pricing_plan_id":"free"},{"bike_id":"0a7b73fa-5531-42f5-9ace-667ad3a61a2b","system_id":"levelo_inurba_marseille","lat":43.30085,"lon":5.390856,"is_reserved":false,"is_disabled":false,"rental_uris":{"android":"levelo://app?vid=0a7b73fa-5531-42f5-9ace-667ad3a61a2b","ios":"levelo://app?vid=0a7b73fa-5531-42f5-9ace-667ad3a61a2b"},"vehicle_type_id":"4","last_reported":1701349828,"current_range_meters":4800,"station_id":"ce4bh192rcd13ifvqdb0","pricing_plan_id":"free"},{"bike_id":"679d1e00-c007-4c7e-86ef-4cddf5fd76d1","system_id":"levelo_inurba_marseille","lat":43.300852,"lon":5.390859,"is_reserved":false,"is_disabled":false,"rental_uris":{"android":"levelo://app?vid=679d1e00-c007-4c7e-86ef-4cddf5fd76d1","ios":"levelo://app?vid=679d1e00-c007-4c7e-86ef-4cddf5fd76d1"},"vehicle_type_id":"4","last_reported":1701349828,"current_range_meters":20800,"station_id":"ce4bh192rcd13ifvqdb0","pricing_plan_id":"free"},{"bike_id":"86b4600e-1f9f-45d3-b058-30f94c2b332d","system_id":"levelo_inurba_marseille","lat":43.300852,"lon":5.390859,"is_reserved":false,"is_disabled":false,"rental_uris":{"android":"levelo://app?vid=86b4600e-1f9f-45d3-b058-30f94c2b332d","ios":"levelo://app?vid=86b4600e-1f9f-45d3-b058-30f94c2b332d"},"vehicle_type_id":"4","last_reported":1701349828,"current_range_meters":26400,"station_id":"ce4bh192rcd13ifvqdb0","pricing_plan_id":"free"},{"bike_id":"dcd310b5-eef9-4c42-b0e1-36baca902b14","system_id":"levelo_inurba_marseille","lat":43.29872,"lon":5.38904,"is_reserved":false,"is_disabled":false,"rental_uris":{"android":"levelo://app?vid=dcd310b5-eef9-4c42-b0e1-36baca902b14","ios":"levelo://app?vid=dcd310b5-eef9-4c42-b0e1-36baca902b14"},"vehicle_type_id":"4","last_reported":1701349828,"current_range_meters":6400,"station_id":"ce4bh392rcd13ifvqdl0","pricing_plan_id":"free"},{"bike_id":"7d24c38a-f810-40f4-864f-d66b73a3f855","system_id":"levelo_inurba_marseille","lat":43.29167,"lon":5.3717,"is_reserved":false,"is_disabled":false,"rental_uris":{"android":"levelo://app?vid=7d24c38a-f810-40f4-864f-d66b73a3f855","ios":"levelo://app?vid=7d24c38a-f810-40f4-864f-d66b73a3f855"},"vehicle_type_id":"4","last_reported":1701349828,"current_range_meters":11200,"station_id":"ce4bha92rcd13ifvqeh0","pricing_plan_id":"free"},{"bike_id":"bb54adee-21a9-42d9-b588-709589b5c7f1","system_id":"levelo_inurba_marseille","lat":43.31324,"lon":5.39693,"is_reserved":false,"is_disabled":false,"rental_uris":{"android":"levelo://app?vid=bb54adee-21a9-42d9-b588-709589b5c7f1","ios":"levelo://app?vid=bb54adee-21a9-42d9-b588-709589b5c7f1"},"vehicle_type_id":"4","last_reported":1701349828,"current_range_meters":13200,"station_id":"ce4bgvp2rcd13ifvqcu0","pricing_plan_id":"free"},{"bike_id":"d70aa0e6-b187-4d5e-b0bb-e5a21ddee67a","system_id":"levelo_inurba_marseille","lat":43.309038,"lon":5.396546,"is_reserved":false,"is_disabled":false,"rental_uris":{"android":"levelo://app?vid=d70aa0e6-b187-4d5e-b0bb-e5a21ddee67a","ios":"levelo://app?vid=d70aa0e6-b187-4d5e-b0bb-e5a21ddee67a"},"vehicle_type_id":"4","last_reported":1701349828,"current_range_meters":23600,"station_id":"ce4bh012rcd13ifvqcv0","pricing_plan_id":"free"},{"bike_id":"55686445-21a6-4c4e-a7c0-b94653c5c1ed","system_id":"levelo_inurba_marseille","lat":43.29529,"lon":5.385581,"is_reserved":false,"is_disabled":false,"rental_uris":{"android":"levelo://app?vid=55686445-21a6-4c4e-a7c0-b94653c5c1ed","ios":"levelo://app?vid=55686445-21a6-4c4e-a7c0-b94653c5c1ed"},"vehicle_type_id":"4","last_reported":1701349828,"current_range_meters":6800,"station_id":"ce4bgih2rcd13ifvqba0","pricing_plan_id":"free"},{"bike_id":"697001da-4e26-4f6b-a251-ed25d0004da4","system_id":"levelo_inurba_marseille","lat":43.290779,"lon":5.371482,"is_reserved":false,"is_disabled":false,"rental_uris":{"android":"levelo://app?vid=697001da-4e26-4f6b-a251-ed25d0004da4","ios":"levelo://app?vid=697001da-4e26-4f6b-a251-ed25d0004da4"},"vehicle_type_id":"4","last_reported":1701349828,"current_range_meters":24400,"station_id":"ce4bh5p2rcd13ifvqe4g","pricing_plan_id":"free"},{"bike_id":"a0be9416-b0fd-445b-a4d5-d3adee995195","system_id":"levelo_inurba_marseille","lat":43.30205,"lon":5.39458,"is_reserved":false,"is_disabled":false,"rental_uris":{"android":"levelo://app?vid=a0be9416-b0fd-445b-a4d5-d3adee995195","ios":"levelo://app?vid=a0be9416-b0fd-445b-a4d5-d3adee995195"},"vehicle_type_id":"4","last_reported":1701349828,"current_range_meters":25200,"station_id":"ce4bh0p2rcd13ifvqd70","pricing_plan_id":"free"},{"bike_id":"36c39208-edd1-4b4d-b961-e21f6095a822","system_id":"levelo_inurba_marseille","lat":43.289184,"lon":5.366408,"is_reserved":false,"is_disabled":false,"rental_uris":{"android":"levelo://app?vid=36c39208-edd1-4b4d-b961-e21f6095a822","ios":"levelo://app?vid=36c39208-edd1-4b4d-b961-e21f6095a822"},"vehicle_type_id":"4","last_reported":1701349828,"current_range_meters":2800,"station_id":"ce4bhap2rcd13ifvqek0","pricing_plan_id":"free"},{"bike_id":"ad3392fb-9e55-402c-9fb8-ac0d9dd85205","system_id":"levelo_inurba_marseille","lat":43.289184,"lon":5.366408,"is_reserved":false,"is_disabled":false,"rental_uris":{"android":"levelo://app?vid=ad3392fb-9e55-402c-9fb8-ac0d9dd85205","ios":"levelo://app?vid=ad3392fb-9e55-402c-9fb8-ac0d9dd85205"},"vehicle_type_id":"4","last_reported":1701349828,"current_range_meters":10800,"station_id":"ce4bhap2rcd13ifvqek0","pricing_plan_id":"free"},{"bike_id":"f9680489-c525-4ffb-b6e2-8bd61bb775c0","system_id":"levelo_inurba_marseille","lat":43.289184,"lon":5.366408,"is_reserved":false,"is_disabled":false,"rental_uris":{"android":"levelo://app?vid=f9680489-c525-4ffb-b6e2-8bd61bb775c0","ios":"levelo://app?vid=f9680489-c525-4ffb-b6e2-8bd61bb775c0"},"vehicle_type_id":"4","last_reported":1701349828,"current_range_meters":12800,"station_id":"ce4bhap2rcd13ifvqek0","pricing_plan_id":"free"},{"bike_id":"8ad150c4-189d-474a-864e-a15b4c4097d7","system_id":"levelo_inurba_marseille","lat":43.289184,"lon":5.366408,"is_reserved":false,"is_disabled":false,"rental_uris":{"android":"levelo://app?vid=8ad150c4-189d-474a-864e-a15b4c4097d7","ios":"levelo://app?vid=8ad150c4-189d-474a-864e-a15b4c4097d7"},"vehicle_type_id":"4","last_reported":1701349828,"current_range_meters":26800,"station_id":"ce4bhap2rcd13ifvqek0","pricing_plan_id":"free"},{"bike_id":"293edbdd-0e89-4429-9fa0-959aec1fe9e0","system_id":"levelo_inurba_marseille","lat":43.289184,"lon":5.366408,"is_reserved":false,"is_disabled":false,"rental_uris":{"android":"levelo://app?vid=293edbdd-0e89-4429-9fa0-959aec1fe9e0","ios":"levelo://app?vid=293edbdd-0e89-4429-9fa0-959aec1fe9e0"},"vehicle_type_id":"4","last_reported":1701349828,"current_range_meters":29600,"station_id":"ce4bhap2rcd13ifvqek0","pricing_plan_id":"free"},{"bike_id":"17e4a1c8-3402-416d-833c-e270fcd009e8","system_id":"levelo_inurba_marseille","lat":43.289184,"lon":5.366408,"is_reserved":false,"is_disabled":false,"rental_uris":{"android":"levelo://app?vid=17e4a1c8-3402-416d-833c-e270fcd009e8","ios":"levelo://app?vid=17e4a1c8-3402-416d-833c-e270fcd009e8"},"vehicle_type_id":"4","last_reported":1701349828,"current_range_meters":17600,"station_id":"ce4bhap2rcd13ifvqek0","pricing_plan_id":"free"},{"bike_id":"e8c99e41-0ce5-4fa5-9972-5101c5754a60","system_id":"levelo_inurba_marseille","lat":43.289184,"lon":5.366408,"is_reserved":false,"is_disabled":false,"rental_uris":{"android":"levelo://app?vid=e8c99e41-0ce5-4fa5-9972-5101c5754a60","ios":"levelo://app?vid=e8c99e41-0ce5-4fa5-9972-5101c5754a60"},"vehicle_type_id":"4","last_reported":1701349828,"current_range_meters":28400,"station_id":"ce4bhap2rcd13ifvqek0","pricing_plan_id":"free"},{"bike_id":"bf037b0a-d83d-475c-9e7d-7cdb0be58116","system_id":"levelo_inurba_marseille","lat":43.292642,"lon":5.384254,"is_reserved":false,"is_disabled":false,"rental_uris":{"android":"levelo://app?vid=bf037b0a-d83d-475c-9e7d-7cdb0be58116","ios":"levelo://app?vid=bf037b0a-d83d-475c-9e7d-7cdb0be58116"},"vehicle_type_id":"4","last_reported":1701349828,"current_range_meters":19600,"station_id":"ce4bh692rcd13ifvqea0","pricing_plan_id":"free"},{"bike_id":"de480542-fd52-4db0-8614-b4f0d2c1fb0c","system_id":"levelo_inurba_marseille","lat":43.292644,"lon":5.384257,"is_reserved":false,"is_disabled":false,"rental_uris":{"android":"levelo://app?vid=de480542-fd52-4db0-8614-b4f0d2c1fb0c","ios":"levelo://app?vid=de480542-fd52-4db0-8614-b4f0d2c1fb0c"},"vehicle_type_id":"4","last_reported":1701349828,"current_range_meters":22400,"station_id":"ce4bh692rcd13ifvqea0","pricing_plan_id":"free"},{"bike_id":"280b818d-922b-4996-8435-4e9ab10ddd45","system_id":"levelo_inurba_marseille","lat":43.33041,"lon":5.38921,"is_reserved":false,"is_disabled":false,"rental_uris":{"android":"levelo://app?vid=280b818d-922b-4996-8435-4e9ab10ddd45","ios":"levelo://app?vid=280b818d-922b-4996-8435-4e9ab10ddd45"},"vehicle_type_id":"4","last_reported":1701349828,"current_range_meters":6000,"station_id":"ce4bhr92rcd13ifvqhrg","pricing_plan_id":"free"},{"bike_id":"55c84667-a8f1-4e2c-9a3e-6128f81f7d9e","system_id":"levelo_inurba_marseille","lat":43.330442,"lon":5.389148,"is_reserved":false,"is_disabled":false,"rental_uris":{"android":"levelo://app?vid=55c84667-a8f1-4e2c-9a3e-6128f81f7d9e","ios":"levelo://app?vid=55c84667-a8f1-4e2c-9a3e-6128f81f7d9e"},"vehicle_type_id":"4","last_reported":1701349828,"current_range_meters":24000,"station_id":"ce4bhr92rcd13ifvqhrg","pricing_plan_id":"free"},{"bike_id":"1f5002b9-ca3d-44b6-9b35-7019195a53b3","system_id":"levelo_inurba_marseille","lat":43.290104,"lon":5.356111,"is_reserved":false,"is_disabled":false,"rental_uris":{"android":"levelo://app?vid=1f5002b9-ca3d-44b6-9b35-7019195a53b3","ios":"levelo://app?vid=1f5002b9-ca3d-44b6-9b35-7019195a53b3"},"vehicle_type_id":"4","last_reported":1701349828,"current_range_meters":21200,"station_id":"ce4bhb92rcd13ifvqen0","pricing_plan_id":"free"},{"bike_id":"c654bdf7-219a-4e52-a36b-cdeb0335ee4f","system_id":"levelo_inurba_marseille","lat":43.290995,"lon":5.381361,"is_reserved":false,"is_disabled":false,"rental_uris":{"android":"levelo://app?vid=c654bdf7-219a-4e52-a36b-cdeb0335ee4f","ios":"levelo://app?vid=c654bdf7-219a-4e52-a36b-cdeb0335ee4f"},"vehicle_type_id":"4","last_reported":1701349828,"current_range_meters":18000,"station_id":"ce4bh512rcd13ifvqe2g","pricing_plan_id":"free"},{"bike_id":"4ee8520c-e209-4575-b6bf-6b37cf4fd8b1","system_id":"levelo_inurba_marseille","lat":43.29783,"lon":5.39334,"is_reserved":false,"is_disabled":false,"rental_uris":{"android":"levelo://app?vid=4ee8520c-e209-4575-b6bf-6b37cf4fd8b1","ios":"levelo://app?vid=4ee8520c-e209-4575-b6bf-6b37cf4fd8b1"},"vehicle_type_id":"4","last_reported":1701349828,"current_range_meters":22000,"station_id":"chh1huq6cuj3fo74tm60","pricing_plan_id":"free"},{"bike_id":"c262891e-3e05-4cc4-9681-1f4086159c3f","system_id":"levelo_inurba_marseille","lat":43.29779,"lon":5.39336,"is_reserved":false,"is_disabled":false,"rental_uris":{"android":"levelo://app?vid=c262891e-3e05-4cc4-9681-1f4086159c3f","ios":"levelo://app?vid=c262891e-3e05-4cc4-9681-1f4086159c3f"},"vehicle_type_id":"4","last_reported":1701349828,"current_range_meters":18000,"station_id":"chh1huq6cuj3fo74tm60","pricing_plan_id":"free"},{"bike_id":"511e8040-3a62-49f2-9f9a-70b937d254e8","system_id":"levelo_inurba_marseille","lat":43.29771,"lon":5.39332,"is_reserved":false,"is_disabled":false,"rental_uris":{"android":"levelo://app?vid=511e8040-3a62-49f2-9f9a-70b937d254e8","ios":"levelo://app?vid=511e8040-3a62-49f2-9f9a-70b937d254e8"},"vehicle_type_id":"4","last_reported":1701349828,"current_range_meters":11200,"station_id":"chh1huq6cuj3fo74tm60","pricing_plan_id":"free"},{"bike_id":"93350f1e-c9e8-44a7-98b3-5398487c004d","system_id":"levelo_inurba_marseille","lat":43.297815,"lon":5.393548,"is_reserved":false,"is_disabled":false,"rental_uris":{"android":"levelo://app?vid=93350f1e-c9e8-44a7-98b3-5398487c004d","ios":"levelo://app?vid=93350f1e-c9e8-44a7-98b3-5398487c004d"},"vehicle_type_id":"4","last_reported":1701349828,"current_range_meters":29600,"station_id":"chh1huq6cuj3fo74tm60","pricing_plan_id":"free"},{"bike_id":"2e052f86-e0fe-41bc-8890-55af6dfcf386","system_id":"levelo_inurba_marseille","lat":43.28856,"lon":5.358371,"is_reserved":false,"is_disabled":false,"rental_uris":{"android":"levelo://app?vid=2e052f86-e0fe-41bc-8890-55af6dfcf386","ios":"levelo://app?vid=2e052f86-e0fe-41bc-8890-55af6dfcf386"},"vehicle_type_id":"4","last_reported":1701349828,"current_range_meters":7200,"station_id":"ce4bhb12rcd13ifvqem0","pricing_plan_id":"free"},{"bike_id":"31b86d52-b5e9-443c-aeef-0864c364d3f4","system_id":"levelo_inurba_marseille","lat":43.31264,"lon":5.40169,"is_reserved":false,"is_disabled":false,"rental_uris":{"android":"levelo://app?vid=31b86d52-b5e9-443c-aeef-0864c364d3f4","ios":"levelo://app?vid=31b86d52-b5e9-443c-aeef-0864c364d3f4"},"vehicle_type_id":"4","last_reported":1701349828,"current_range_meters":17200,"station_id":"ce4bh092rcd13ifvqd30","pricing_plan_id":"free"},{"bike_id":"6b0b18b0-8f7b-4d02-808f-fa0b9e3779b7","system_id":"levelo_inurba_marseille","lat":43.304296,"lon":5.397513,"is_reserved":false,"is_disabled":false,"rental_uris":{"android":"levelo://app?vid=6b0b18b0-8f7b-4d02-808f-fa0b9e3779b7","ios":"levelo://app?vid=6b0b18b0-8f7b-4d02-808f-fa0b9e3779b7"},"vehicle_type_id":"4","last_reported":1701349828,"current_range_meters":19600,"station_id":"ce4bh092rcd13ifvqd20","pricing_plan_id":"free"},{"bike_id":"2ae93018-1f66-4407-8727-ce3bd016a9f6","system_id":"levelo_inurba_marseille","lat":43.33747,"lon":5.37462,"is_reserved":false,"is_disabled":false,"rental_uris":{"android":"levelo://app?vid=2ae93018-1f66-4407-8727-ce3bd016a9f6","ios":"levelo://app?vid=2ae93018-1f66-4407-8727-ce3bd016a9f6"},"vehicle_type_id":"4","last_reported":1701349828,"current_range_meters":19200,"station_id":"","pricing_plan_id":"free"},{"bike_id":"f860c43e-5634-469a-ad27-e3b1408f4c1e","system_id":"levelo_inurba_marseille","lat":43.309371,"lon":5.401449,"is_reserved":false,"is_disabled":false,"rental_uris":{"android":"levelo://app?vid=f860c43e-5634-469a-ad27-e3b1408f4c1e","ios":"levelo://app?vid=f860c43e-5634-469a-ad27-e3b1408f4c1e"},"vehicle_type_id":"4","last_reported":1701349828,"current_range_meters":0,"station_id":"ce4bgvp2rcd13ifvqct0","pricing_plan_id":"free"},{"bike_id":"0c674e8f-4850-4728-a729-15837b309eea","system_id":"levelo_inurba_marseille","lat":43.306412,"lon":5.401035,"is_reserved":false,"is_disabled":false,"rental_uris":{"android":"levelo://app?vid=0c674e8f-4850-4728-a729-15837b309eea","ios":"levelo://app?vid=0c674e8f-4850-4728-a729-15837b309eea"},"vehicle_type_id":"4","last_reported":1701349828,"current_range_meters":18800,"station_id":"ce4bh112rcd13ifvqda0","pricing_plan_id":"free"},{"bike_id":"b930dc4e-3488-4b4b-b52b-1874865c3274","system_id":"levelo_inurba_marseille","lat":43.305283,"lon":5.400993,"is_reserved":false,"is_disabled":false,"rental_uris":{"android":"levelo://app?vid=b930dc4e-3488-4b4b-b52b-1874865c3274","ios":"levelo://app?vid=b930dc4e-3488-4b4b-b52b-1874865c3274"},"vehicle_type_id":"4","last_reported":1701349828,"current_range_meters":28000,"station_id":"","pricing_plan_id":"free"},{"bike_id":"611ba70c-6f2b-4ee7-afd2-3882cd4ef4b7","system_id":"levelo_inurba_marseille","lat":43.28727,"lon":5.36078,"is_reserved":false,"is_disabled":false,"rental_uris":{"android":"levelo://app?vid=611ba70c-6f2b-4ee7-afd2-3882cd4ef4b7","ios":"levelo://app?vid=611ba70c-6f2b-4ee7-afd2-3882cd4ef4b7"},"vehicle_type_id":"4","last_reported":1701349828,"current_range_meters":25200,"station_id":"cki0cbj6b192h4jlfktg","pricing_plan_id":"free"},{"bike_id":"7568d0a6-16b3-42e5-b02c-ad9f582cbd7b","system_id":"levelo_inurba_marseille","lat":43.286591,"lon":5.363346,"is_reserved":false,"is_disabled":false,"rental_uris":{"android":"levelo://app?vid=7568d0a6-16b3-42e5-b02c-ad9f582cbd7b","ios":"levelo://app?vid=7568d0a6-16b3-42e5-b02c-ad9f582cbd7b"},"vehicle_type_id":"4","last_reported":1701349828,"current_range_meters":29600,"station_id":"ce4bhah2rcd13ifvqej0","pricing_plan_id":"free"},{"bike_id":"2348ae5a-36dc-485f-8e64-741f9672e750","system_id":"levelo_inurba_marseille","lat":43.295196,"lon":5.39397,"is_reserved":false,"is_disabled":false,"rental_uris":{"android":"levelo://app?vid=2348ae5a-36dc-485f-8e64-741f9672e750","ios":"levelo://app?vid=2348ae5a-36dc-485f-8e64-741f9672e750"},"vehicle_type_id":"4","last_reported":1701349828,"current_range_meters":12800,"station_id":"ce4bh292rcd13ifvqdf0","pricing_plan_id":"free"},{"bike_id":"30a1e7e6-0f33-450f-a935-4df32211d621","system_id":"levelo_inurba_marseille","lat":43.29033,"lon":5.38639,"is_reserved":false,"is_disabled":false,"rental_uris":{"android":"levelo://app?vid=30a1e7e6-0f33-450f-a935-4df32211d621","ios":"levelo://app?vid=30a1e7e6-0f33-450f-a935-4df32211d621"},"vehicle_type_id":"4","last_reported":1701349828,"current_range_meters":3200,"station_id":"ce4bh4p2rcd13ifvqe0g","pricing_plan_id":"free"},{"bike_id":"7b7a4606-e231-4ab7-bcd1-bc9636082195","system_id":"levelo_inurba_marseille","lat":43.290337,"lon":5.386493,"is_reserved":false,"is_disabled":false,"rental_uris":{"android":"levelo://app?vid=7b7a4606-e231-4ab7-bcd1-bc9636082195","ios":"levelo://app?vid=7b7a4606-e231-4ab7-bcd1-bc9636082195"},"vehicle_type_id":"4","last_reported":1701349828,"current_range_meters":31200,"station_id":"ce4bh4p2rcd13ifvqe0g","pricing_plan_id":"free"},{"bike_id":"12dc9e65-ce62-42bf-8a47-39206de0dc08","system_id":"levelo_inurba_marseille","lat":43.29031,"lon":5.38654,"is_reserved":false,"is_disabled":false,"rental_uris":{"android":"levelo://app?vid=12dc9e65-ce62-42bf-8a47-39206de0dc08","ios":"levelo://app?vid=12dc9e65-ce62-42bf-8a47-39206de0dc08"},"vehicle_type_id":"4","last_reported":1701349828,"current_range_meters":19600,"station_id":"ce4bh4p2rcd13ifvqe0g","pricing_plan_id":"free"},{"bike_id":"3fd6bc9c-222e-4ce8-9186-014375c7aa34","system_id":"levelo_inurba_marseille","lat":43.29029,"lon":5.38651,"is_reserved":false,"is_disabled":false,"rental_uris":{"android":"levelo://app?vid=3fd6bc9c-222e-4ce8-9186-014375c7aa34","ios":"levelo://app?vid=3fd6bc9c-222e-4ce8-9186-014375c7aa34"},"vehicle_type_id":"4","last_reported":1701349828,"current_range_meters":5600,"station_id":"","pricing_plan_id":"free"},{"bike_id":"d6f719e8-038b-4b2e-89f0-47ed338bbd8c","system_id":"levelo_inurba_marseille","lat":43.29026,"lon":5.38653,"is_reserved":false,"is_disabled":false,"rental_uris":{"android":"levelo://app?vid=d6f719e8-038b-4b2e-89f0-47ed338bbd8c","ios":"levelo://app?vid=d6f719e8-038b-4b2e-89f0-47ed338bbd8c"},"vehicle_type_id":"4","last_reported":1701349828,"current_range_meters":0,"station_id":"","pricing_plan_id":"free"},{"bike_id":"04b4e916-c1ae-4ba3-9df2-9593f4f5321e","system_id":"levelo_inurba_marseille","lat":43.286039,"lon":5.370681,"is_reserved":false,"is_disabled":false,"rental_uris":{"android":"levelo://app?vid=04b4e916-c1ae-4ba3-9df2-9593f4f5321e","ios":"levelo://app?vid=04b4e916-c1ae-4ba3-9df2-9593f4f5321e"},"vehicle_type_id":"4","last_reported":1701349828,"current_range_meters":21600,"station_id":"ce4bht12rcd13ifvqi60","pricing_plan_id":"free"},{"bike_id":"a8c28ce3-b8a2-49cf-b5f4-ab346e7441f2","system_id":"levelo_inurba_marseille","lat":43.286039,"lon":5.370681,"is_reserved":false,"is_disabled":false,"rental_uris":{"android":"levelo://app?vid=a8c28ce3-b8a2-49cf-b5f4-ab346e7441f2","ios":"levelo://app?vid=a8c28ce3-b8a2-49cf-b5f4-ab346e7441f2"},"vehicle_type_id":"4","last_reported":1701349828,"current_range_meters":18000,"station_id":"ce4bht12rcd13ifvqi60","pricing_plan_id":"free"},{"bike_id":"9d87799b-d9f1-42a1-be56-d0b75fafb360","system_id":"levelo_inurba_marseille","lat":43.317121,"lon":5.40405,"is_reserved":false,"is_disabled":false,"rental_uris":{"android":"levelo://app?vid=9d87799b-d9f1-42a1-be56-d0b75fafb360","ios":"levelo://app?vid=9d87799b-d9f1-42a1-be56-d0b75fafb360"},"vehicle_type_id":"4","last_reported":1701349828,"current_range_meters":18000,"station_id":"ce4bh012rcd13ifvqd00","pricing_plan_id":"free"},{"bike_id":"efbeb7b5-dc43-407d-aef1-8d6a73e7e90f","system_id":"levelo_inurba_marseille","lat":43.291867,"lon":5.393087,"is_reserved":false,"is_disabled":false,"rental_uris":{"android":"levelo://app?vid=efbeb7b5-dc43-407d-aef1-8d6a73e7e90f","ios":"levelo://app?vid=efbeb7b5-dc43-407d-aef1-8d6a73e7e90f"},"vehicle_type_id":"4","last_reported":1701349828,"current_range_meters":18400,"station_id":"ce4bh192rcd13ifvqdd0","pricing_plan_id":"free"},{"bike_id":"72bd1cce-ac92-49a9-b637-68f827943734","system_id":"levelo_inurba_marseille","lat":43.291953,"lon":5.393253,"is_reserved":false,"is_disabled":false,"rental_uris":{"android":"levelo://app?vid=72bd1cce-ac92-49a9-b637-68f827943734","ios":"levelo://app?vid=72bd1cce-ac92-49a9-b637-68f827943734"},"vehicle_type_id":"4","last_reported":1701349828,"current_range_meters":25600,"station_id":"ce4bh192rcd13ifvqdd0","pricing_plan_id":"free"},{"bike_id":"fca32053-144e-4236-a41e-803013b41fb4","system_id":"levelo_inurba_marseille","lat":43.29571,"lon":5.39971,"is_reserved":false,"is_disabled":false,"rental_uris":{"android":"levelo://app?vid=fca32053-144e-4236-a41e-803013b41fb4","ios":"levelo://app?vid=fca32053-144e-4236-a41e-803013b41fb4"},"vehicle_type_id":"4","last_reported":1701349828,"current_range_meters":16800,"station_id":"","pricing_plan_id":"free"},{"bike_id":"3d383f68-57d5-4081-9b18-fdacd025749a","system_id":"levelo_inurba_marseille","lat":43.283998,"lon":5.375062,"is_reserved":false,"is_disabled":false,"rental_uris":{"android":"levelo://app?vid=3d383f68-57d5-4081-9b18-fdacd025749a","ios":"levelo://app?vid=3d383f68-57d5-4081-9b18-fdacd025749a"},"vehicle_type_id":"4","last_reported":1701349828,"current_range_meters":19600,"station_id":"ce4bh412rcd13ifvqds0","pricing_plan_id":"free"},{"bike_id":"56e55123-4169-4ef8-9ca6-7a4a26c5bf55","system_id":"levelo_inurba_marseille","lat":43.283998,"lon":5.375062,"is_reserved":false,"is_disabled":false,"rental_uris":{"android":"levelo://app?vid=56e55123-4169-4ef8-9ca6-7a4a26c5bf55","ios":"levelo://app?vid=56e55123-4169-4ef8-9ca6-7a4a26c5bf55"},"vehicle_type_id":"4","last_reported":1701349828,"current_range_meters":23600,"station_id":"ce4bh412rcd13ifvqds0","pricing_plan_id":"free"},{"bike_id":"e176c5b2-9e6d-4c77-bddf-d20c4316489c","system_id":"levelo_inurba_marseille","lat":43.286595,"lon":5.386795,"is_reserved":false,"is_disabled":false,"rental_uris":{"android":"levelo://app?vid=e176c5b2-9e6d-4c77-bddf-d20c4316489c","ios":"levelo://app?vid=e176c5b2-9e6d-4c77-bddf-d20c4316489c"},"vehicle_type_id":"4","last_reported":1701349828,"current_range_meters":27200,"station_id":"ce4bh492rcd13ifvqdug","pricing_plan_id":"free"},{"bike_id":"a8a68bf2-9d7e-4232-9561-5005387f7084","system_id":"levelo_inurba_marseille","lat":43.289184,"lon":5.366408,"is_reserved":false,"is_disabled":false,"rental_uris":{"android":"levelo://app?vid=a8a68bf2-9d7e-4232-9561-5005387f7084","ios":"levelo://app?vid=a8a68bf2-9d7e-4232-9561-5005387f7084"},"vehicle_type_id":"4","last_reported":1701349828,"current_range_meters":13600,"station_id":"ce4bhap2rcd13ifvqek0","pricing_plan_id":"free"},{"bike_id":"84132732-d5c2-4549-b3ed-7c713f6d4431","system_id":"levelo_inurba_marseille","lat":43.323464,"lon":5.406297,"is_reserved":false,"is_disabled":false,"rental_uris":{"android":"levelo://app?vid=84132732-d5c2-4549-b3ed-7c713f6d4431","ios":"levelo://app?vid=84132732-d5c2-4549-b3ed-7c713f6d4431"},"vehicle_type_id":"4","last_reported":1701349828,"current_range_meters":16800,"station_id":"ce4bhq92rcd13ifvqhjg","pricing_plan_id":"free"},{"bike_id":"38c23ee3-c116-4e13-a5d7-09535dc52a29","system_id":"levelo_inurba_marseille","lat":43.297946,"lon":5.404063,"is_reserved":false,"is_disabled":false,"rental_uris":{"android":"levelo://app?vid=38c23ee3-c116-4e13-a5d7-09535dc52a29","ios":"levelo://app?vid=38c23ee3-c116-4e13-a5d7-09535dc52a29"},"vehicle_type_id":"4","last_reported":1701349828,"current_range_meters":28800,"station_id":"ce4bh112rcd13ifvqd90","pricing_plan_id":"free"},{"bike_id":"9c6a79ed-d797-44cd-9089-34618657858f","system_id":"levelo_inurba_marseille","lat":43.292724,"lon":5.401131,"is_reserved":false,"is_disabled":false,"rental_uris":{"android":"levelo://app?vid=9c6a79ed-d797-44cd-9089-34618657858f","ios":"levelo://app?vid=9c6a79ed-d797-44cd-9089-34618657858f"},"vehicle_type_id":"4","last_reported":1701349828,"current_range_meters":20800,"station_id":"ce4bh312rcd13ifvqdk0","pricing_plan_id":"free"},{"bike_id":"4b67a96d-c529-400f-95c1-2393187ad881","system_id":"levelo_inurba_marseille","lat":43.282754,"lon":5.350519,"is_reserved":false,"is_disabled":false,"rental_uris":{"android":"levelo://app?vid=4b67a96d-c529-400f-95c1-2393187ad881","ios":"levelo://app?vid=4b67a96d-c529-400f-95c1-2393187ad881"},"vehicle_type_id":"4","last_reported":1701349828,"current_range_meters":25600,"station_id":"ce4bhbp2rcd13ifvqerg","pricing_plan_id":"free"},{"bike_id":"28fcf786-44bd-40a2-8fe2-9a9a2f6c47a3","system_id":"levelo_inurba_marseille","lat":43.283502,"lon":5.386471,"is_reserved":false,"is_disabled":false,"rental_uris":{"android":"levelo://app?vid=28fcf786-44bd-40a2-8fe2-9a9a2f6c47a3","ios":"levelo://app?vid=28fcf786-44bd-40a2-8fe2-9a9a2f6c47a3"},"vehicle_type_id":"4","last_reported":1701349828,"current_range_meters":400,"station_id":"ce4bh492rcd13ifvqdvg","pricing_plan_id":"free"},{"bike_id":"c99445c5-468c-446e-bce1-c35c4bbb8bfa","system_id":"levelo_inurba_marseille","lat":43.29041,"lon":5.3997,"is_reserved":false,"is_disabled":false,"rental_uris":{"android":"levelo://app?vid=c99445c5-468c-446e-bce1-c35c4bbb8bfa","ios":"levelo://app?vid=c99445c5-468c-446e-bce1-c35c4bbb8bfa"},"vehicle_type_id":"4","last_reported":1701349828,"current_range_meters":2000,"station_id":"ce4bh392rcd13ifvqdm0","pricing_plan_id":"free"},{"bike_id":"6e87ef1b-74b6-4b3b-ba73-260300afec07","system_id":"levelo_inurba_marseille","lat":43.281044,"lon":5.378308,"is_reserved":false,"is_disabled":false,"rental_uris":{"android":"levelo://app?vid=6e87ef1b-74b6-4b3b-ba73-260300afec07","ios":"levelo://app?vid=6e87ef1b-74b6-4b3b-ba73-260300afec07"},"vehicle_type_id":"4","last_reported":1701349828,"current_range_meters":11200,"station_id":"ce4bha12rcd13ifvqee0","pricing_plan_id":"free"},{"bike_id":"258ed5b9-b367-4467-a1c1-d9a36fe82a12","system_id":"levelo_inurba_marseille","lat":43.296263,"lon":5.40601,"is_reserved":false,"is_disabled":false,"rental_uris":{"android":"levelo://app?vid=258ed5b9-b367-4467-a1c1-d9a36fe82a12","ios":"levelo://app?vid=258ed5b9-b367-4467-a1c1-d9a36fe82a12"},"vehicle_type_id":"4","last_reported":1701349828,"current_range_meters":31600,"station_id":"ce4bh0h2rcd13ifvqd60","pricing_plan_id":"free"},{"bike_id":"29c0158a-8cdb-4db8-b494-3d120ce4d0fc","system_id":"levelo_inurba_marseille","lat":43.281044,"lon":5.378308,"is_reserved":false,"is_disabled":false,"rental_uris":{"android":"levelo://app?vid=29c0158a-8cdb-4db8-b494-3d120ce4d0fc","ios":"levelo://app?vid=29c0158a-8cdb-4db8-b494-3d120ce4d0fc"},"vehicle_type_id":"4","last_reported":1701349828,"current_range_meters":25600,"station_id":"ce4bha12rcd13ifvqee0","pricing_plan_id":"free"},{"bike_id":"29fe2c43-95a6-499e-b20a-cb240ff0233c","system_id":"levelo_inurba_marseille","lat":43.296263,"lon":5.40601,"is_reserved":false,"is_disabled":false,"rental_uris":{"android":"levelo://app?vid=29fe2c43-95a6-499e-b20a-cb240ff0233c","ios":"levelo://app?vid=29fe2c43-95a6-499e-b20a-cb240ff0233c"},"vehicle_type_id":"4","last_reported":1701349828,"current_range_meters":20000,"station_id":"ce4bh0h2rcd13ifvqd60","pricing_plan_id":"free"},{"bike_id":"0fdf4870-081c-46b5-8fd2-f5ada8115902","system_id":"levelo_inurba_marseille","lat":43.281044,"lon":5.378308,"is_reserved":false,"is_disabled":false,"rental_uris":{"android":"levelo://app?vid=0fdf4870-081c-46b5-8fd2-f5ada8115902","ios":"levelo://app?vid=0fdf4870-081c-46b5-8fd2-f5ada8115902"},"vehicle_type_id":"4","last_reported":1701349828,"current_range_meters":25200,"station_id":"ce4bha12rcd13ifvqee0","pricing_plan_id":"free"},{"bike_id":"2845409c-f934-45c3-ac76-1e7123bac8f0","system_id":"levelo_inurba_marseille","lat":43.290351,"lon":5.400057,"is_reserved":false,"is_disabled":false,"rental_uris":{"android":"levelo://app?vid=2845409c-f934-45c3-ac76-1e7123bac8f0","ios":"levelo://app?vid=2845409c-f934-45c3-ac76-1e7123bac8f0"},"vehicle_type_id":"4","last_reported":1701349828,"current_range_meters":16000,"station_id":"ce4bh392rcd13ifvqdm0","pricing_plan_id":"free"},{"bike_id":"f58e675e-031b-46f4-af6c-a27c3b175066","system_id":"levelo_inurba_marseille","lat":43.284317,"lon":5.391844,"is_reserved":false,"is_disabled":false,"rental_uris":{"android":"levelo://app?vid=f58e675e-031b-46f4-af6c-a27c3b175066","ios":"levelo://app?vid=f58e675e-031b-46f4-af6c-a27c3b175066"},"vehicle_type_id":"4","last_reported":1701349828,"current_range_meters":3600,"station_id":"ce4bhoh2rcd13ifvqh5g","pricing_plan_id":"free"},{"bike_id":"99a37863-d351-49d6-a5ce-b22fd1a03174","system_id":"levelo_inurba_marseille","lat":43.326605,"lon":5.409903,"is_reserved":false,"is_disabled":false,"rental_uris":{"android":"levelo://app?vid=99a37863-d351-49d6-a5ce-b22fd1a03174","ios":"levelo://app?vid=99a37863-d351-49d6-a5ce-b22fd1a03174"},"vehicle_type_id":"4","last_reported":1701349828,"current_range_meters":12400,"station_id":"ce4bhpp2rcd13ifvqhgg","pricing_plan_id":"free"},{"bike_id":"91117964-f737-4304-844e-b2cc2cb4943f","system_id":"levelo_inurba_marseille","lat":43.304188,"lon":5.412904,"is_reserved":false,"is_disabled":false,"rental_uris":{"android":"levelo://app?vid=91117964-f737-4304-844e-b2cc2cb4943f","ios":"levelo://app?vid=91117964-f737-4304-844e-b2cc2cb4943f"},"vehicle_type_id":"4","last_reported":1701349828,"current_range_meters":31200,"station_id":"ce4bhop2rcd13ifvqh8g","pricing_plan_id":"free"},{"bike_id":"6859a7a9-780f-4a7e-a364-5cda805a3d62","system_id":"levelo_inurba_marseille","lat":43.279087,"lon":5.380114,"is_reserved":false,"is_disabled":false,"rental_uris":{"android":"levelo://app?vid=6859a7a9-780f-4a7e-a364-5cda805a3d62","ios":"levelo://app?vid=6859a7a9-780f-4a7e-a364-5cda805a3d62"},"vehicle_type_id":"4","last_reported":1701349828,"current_range_meters":20400,"station_id":"ce4bhf92rcd13ifvqf50","pricing_plan_id":"free"},{"bike_id":"c698eb94-382c-42ed-a8f9-a0353bd0fbc7","system_id":"levelo_inurba_marseille","lat":43.279087,"lon":5.380114,"is_reserved":false,"is_disabled":false,"rental_uris":{"android":"levelo://app?vid=c698eb94-382c-42ed-a8f9-a0353bd0fbc7","ios":"levelo://app?vid=c698eb94-382c-42ed-a8f9-a0353bd0fbc7"},"vehicle_type_id":"4","last_reported":1701349828,"current_range_meters":22000,"station_id":"ce4bhf92rcd13ifvqf50","pricing_plan_id":"free"},{"bike_id":"4113b748-c45c-4e86-952e-8cfcaab8095f","system_id":"levelo_inurba_marseille","lat":43.320045,"lon":5.415046,"is_reserved":false,"is_disabled":false,"rental_uris":{"android":"levelo://app?vid=4113b748-c45c-4e86-952e-8cfcaab8095f","ios":"levelo://app?vid=4113b748-c45c-4e86-952e-8cfcaab8095f"},"vehicle_type_id":"4","last_reported":1701349828,"current_range_meters":25200,"station_id":"ce4bhq92rcd13ifvqhkg","pricing_plan_id":"free"},{"bike_id":"9c943a55-6508-4cfb-854a-3ed8eaa88167","system_id":"levelo_inurba_marseille","lat":43.299579,"lon":5.413255,"is_reserved":false,"is_disabled":false,"rental_uris":{"android":"levelo://app?vid=9c943a55-6508-4cfb-854a-3ed8eaa88167","ios":"levelo://app?vid=9c943a55-6508-4cfb-854a-3ed8eaa88167"},"vehicle_type_id":"4","last_reported":1701349828,"current_range_meters":30800,"station_id":"ce4bhp12rcd13ifvqh9g","pricing_plan_id":"free"},{"bike_id":"177561d0-4d07-43aa-8b9f-2d0095ed23db","system_id":"levelo_inurba_marseille","lat":43.299579,"lon":5.413255,"is_reserved":false,"is_disabled":false,"rental_uris":{"android":"levelo://app?vid=177561d0-4d07-43aa-8b9f-2d0095ed23db","ios":"levelo://app?vid=177561d0-4d07-43aa-8b9f-2d0095ed23db"},"vehicle_type_id":"4","last_reported":1701349828,"current_range_meters":30400,"station_id":"ce4bhp12rcd13ifvqh9g","pricing_plan_id":"free"},{"bike_id":"090478f9-c763-407f-bcae-33007ff245cf","system_id":"levelo_inurba_marseille","lat":43.299577,"lon":5.413277,"is_reserved":false,"is_disabled":false,"rental_uris":{"android":"levelo://app?vid=090478f9-c763-407f-bcae-33007ff245cf","ios":"levelo://app?vid=090478f9-c763-407f-bcae-33007ff245cf"},"vehicle_type_id":"4","last_reported":1701349828,"current_range_meters":0,"station_id":"ce4bhp12rcd13ifvqh9g","pricing_plan_id":"free"},{"bike_id":"9e17c717-47d8-4a08-90e7-b727f19c8fdb","system_id":"levelo_inurba_marseille","lat":43.279742,"lon":5.38744,"is_reserved":false,"is_disabled":false,"rental_uris":{"android":"levelo://app?vid=9e17c717-47d8-4a08-90e7-b727f19c8fdb","ios":"levelo://app?vid=9e17c717-47d8-4a08-90e7-b727f19c8fdb"},"vehicle_type_id":"4","last_reported":1701349828,"current_range_meters":22400,"station_id":"ce4bhg12rcd13ifvqf80","pricing_plan_id":"free"},{"bike_id":"0b44d77d-24a8-4e56-aab6-6c5f96db9879","system_id":"levelo_inurba_marseille","lat":43.292571,"lon":5.409107,"is_reserved":false,"is_disabled":false,"rental_uris":{"android":"levelo://app?vid=0b44d77d-24a8-4e56-aab6-6c5f96db9879","ios":"levelo://app?vid=0b44d77d-24a8-4e56-aab6-6c5f96db9879"},"vehicle_type_id":"4","last_reported":1701349828,"current_range_meters":16000,"station_id":"ce4bh192rcd13ifvqdc0","pricing_plan_id":"free"},{"bike_id":"057c8a3b-1a43-4293-ada9-3faf6b8b913e","system_id":"levelo_inurba_marseille","lat":43.292618,"lon":5.409096,"is_reserved":false,"is_disabled":false,"rental_uris":{"android":"levelo://app?vid=057c8a3b-1a43-4293-ada9-3faf6b8b913e","ios":"levelo://app?vid=057c8a3b-1a43-4293-ada9-3faf6b8b913e"},"vehicle_type_id":"4","last_reported":1701349828,"current_range_meters":14000,"station_id":"","pricing_plan_id":"free"},{"bike_id":"f23c819e-4e63-48d3-bd73-e9c7554c54bc","system_id":"levelo_inurba_marseille","lat":43.292571,"lon":5.409107,"is_reserved":false,"is_disabled":false,"rental_uris":{"android":"levelo://app?vid=f23c819e-4e63-48d3-bd73-e9c7554c54bc","ios":"levelo://app?vid=f23c819e-4e63-48d3-bd73-e9c7554c54bc"},"vehicle_type_id":"4","last_reported":1701349828,"current_range_meters":30800,"station_id":"ce4bh192rcd13ifvqdc0","pricing_plan_id":"free"},{"bike_id":"458466fa-fe82-4490-9c3f-f3774bb6a74c","system_id":"levelo_inurba_marseille","lat":43.292571,"lon":5.409107,"is_reserved":false,"is_disabled":false,"rental_uris":{"android":"levelo://app?vid=458466fa-fe82-4490-9c3f-f3774bb6a74c","ios":"levelo://app?vid=458466fa-fe82-4490-9c3f-f3774bb6a74c"},"vehicle_type_id":"4","last_reported":1701349828,"current_range_meters":18800,"station_id":"ce4bh192rcd13ifvqdc0","pricing_plan_id":"free"},{"bike_id":"95deb5dc-ecfd-48b0-8f42-7ea732b83d1b","system_id":"levelo_inurba_marseille","lat":43.273609,"lon":5.362708,"is_reserved":false,"is_disabled":false,"rental_uris":{"android":"levelo://app?vid=95deb5dc-ecfd-48b0-8f42-7ea732b83d1b","ios":"levelo://app?vid=95deb5dc-ecfd-48b0-8f42-7ea732b83d1b"},"vehicle_type_id":"4","last_reported":1701349828,"current_range_meters":20800,"station_id":"ce4bhbh2rcd13ifvqeo0","pricing_plan_id":"free"},{"bike_id":"0a839c3b-28e1-4a7d-bb02-c3a16a531c47","system_id":"levelo_inurba_marseille","lat":43.273609,"lon":5.362708,"is_reserved":false,"is_disabled":false,"rental_uris":{"android":"levelo://app?vid=0a839c3b-28e1-4a7d-bb02-c3a16a531c47","ios":"levelo://app?vid=0a839c3b-28e1-4a7d-bb02-c3a16a531c47"},"vehicle_type_id":"4","last_reported":1701349828,"current_range_meters":18000,"station_id":"ce4bhbh2rcd13ifvqeo0","pricing_plan_id":"free"},{"bike_id":"24645f66-df47-426e-814f-7fbd6331f022","system_id":"levelo_inurba_marseille","lat":43.275625,"lon":5.384392,"is_reserved":false,"is_disabled":false,"rental_uris":{"android":"levelo://app?vid=24645f66-df47-426e-814f-7fbd6331f022","ios":"levelo://app?vid=24645f66-df47-426e-814f-7fbd6331f022"},"vehicle_type_id":"4","last_reported":1701349828,"current_range_meters":17600,"station_id":"ce4bhh92rcd13ifvqfi0","pricing_plan_id":"free"},{"bike_id":"a209a9a0-4b24-4c30-a386-b067b767ad00","system_id":"levelo_inurba_marseille","lat":43.275625,"lon":5.384392,"is_reserved":false,"is_disabled":false,"rental_uris":{"android":"levelo://app?vid=a209a9a0-4b24-4c30-a386-b067b767ad00","ios":"levelo://app?vid=a209a9a0-4b24-4c30-a386-b067b767ad00"},"vehicle_type_id":"4","last_reported":1701349828,"current_range_meters":24800,"station_id":"ce4bhh92rcd13ifvqfi0","pricing_plan_id":"free"},{"bike_id":"46835676-c470-46c4-a9bf-b91207c84d80","system_id":"levelo_inurba_marseille","lat":43.276771,"lon":5.388799,"is_reserved":false,"is_disabled":false,"rental_uris":{"android":"levelo://app?vid=46835676-c470-46c4-a9bf-b91207c84d80","ios":"levelo://app?vid=46835676-c470-46c4-a9bf-b91207c84d80"},"vehicle_type_id":"4","last_reported":1701349828,"current_range_meters":22400,"station_id":"ce4bhi12rcd13ifvqfo0","pricing_plan_id":"free"},{"bike_id":"68234c93-50fa-4eb6-ab5d-05c54968fb5c","system_id":"levelo_inurba_marseille","lat":43.279952,"lon":5.400085,"is_reserved":false,"is_disabled":false,"rental_uris":{"android":"levelo://app?vid=68234c93-50fa-4eb6-ab5d-05c54968fb5c","ios":"levelo://app?vid=68234c93-50fa-4eb6-ab5d-05c54968fb5c"},"vehicle_type_id":"4","last_reported":1701349828,"current_range_meters":29600,"station_id":"ce4bho92rcd13ifvqh4g","pricing_plan_id":"free"},{"bike_id":"ec215ff4-b682-4229-97a3-55d8671b7581","system_id":"levelo_inurba_marseille","lat":43.27995,"lon":5.40009,"is_reserved":false,"is_disabled":false,"rental_uris":{"android":"levelo://app?vid=ec215ff4-b682-4229-97a3-55d8671b7581","ios":"levelo://app?vid=ec215ff4-b682-4229-97a3-55d8671b7581"},"vehicle_type_id":"4","last_reported":1701349828,"current_range_meters":29600,"station_id":"ce4bho92rcd13ifvqh4g","pricing_plan_id":"free"},{"bike_id":"b2e7d483-607f-46e2-a334-88db215703cd","system_id":"levelo_inurba_marseille","lat":43.304096,"lon":5.425385,"is_reserved":false,"is_disabled":false,"rental_uris":{"android":"levelo://app?vid=b2e7d483-607f-46e2-a334-88db215703cd","ios":"levelo://app?vid=b2e7d483-607f-46e2-a334-88db215703cd"},"vehicle_type_id":"4","last_reported":1701349828,"current_range_meters":0,"station_id":"ce4bhoh2rcd13ifvqh6g","pricing_plan_id":"free"},{"bike_id":"940ea296-2f44-4a09-a212-fcdd808e62e5","system_id":"levelo_inurba_marseille","lat":43.30411,"lon":5.42541,"is_reserved":false,"is_disabled":false,"rental_uris":{"android":"levelo://app?vid=940ea296-2f44-4a09-a212-fcdd808e62e5","ios":"levelo://app?vid=940ea296-2f44-4a09-a212-fcdd808e62e5"},"vehicle_type_id":"4","last_reported":1701349828,"current_range_meters":28400,"station_id":"ce4bhoh2rcd13ifvqh6g","pricing_plan_id":"free"},{"bike_id":"7335a393-cc37-4e1d-b729-82d3cd0e69fb","system_id":"levelo_inurba_marseille","lat":43.29517,"lon":5.42262,"is_reserved":false,"is_disabled":false,"rental_uris":{"android":"levelo://app?vid=7335a393-cc37-4e1d-b729-82d3cd0e69fb","ios":"levelo://app?vid=7335a393-cc37-4e1d-b729-82d3cd0e69fb"},"vehicle_type_id":"4","last_reported":1701349828,"current_range_meters":20400,"station_id":"ce4bhph2rcd13ifvqhdg","pricing_plan_id":"free"},{"bike_id":"85a163c0-138b-4b30-a127-7ff1d7d330d4","system_id":"levelo_inurba_marseille","lat":43.278128,"lon":5.407195,"is_reserved":false,"is_disabled":false,"rental_uris":{"android":"levelo://app?vid=85a163c0-138b-4b30-a127-7ff1d7d330d4","ios":"levelo://app?vid=85a163c0-138b-4b30-a127-7ff1d7d330d4"},"vehicle_type_id":"4","last_reported":1701349828,"current_range_meters":10400,"station_id":"ce4bhnh2rcd13ifvqgtg","pricing_plan_id":"free"},{"bike_id":"23d4d48b-cec3-45f2-ad42-8863f0f1de3d","system_id":"levelo_inurba_marseille","lat":43.278128,"lon":5.407195,"is_reserved":false,"is_disabled":false,"rental_uris":{"android":"levelo://app?vid=23d4d48b-cec3-45f2-ad42-8863f0f1de3d","ios":"levelo://app?vid=23d4d48b-cec3-45f2-ad42-8863f0f1de3d"},"vehicle_type_id":"4","last_reported":1701349828,"current_range_meters":24000,"station_id":"ce4bhnh2rcd13ifvqgtg","pricing_plan_id":"free"},{"bike_id":"cfb004e7-cc58-4cd9-8d35-41570da39b93","system_id":"levelo_inurba_marseille","lat":43.278128,"lon":5.407195,"is_reserved":false,"is_disabled":false,"rental_uris":{"android":"levelo://app?vid=cfb004e7-cc58-4cd9-8d35-41570da39b93","ios":"levelo://app?vid=cfb004e7-cc58-4cd9-8d35-41570da39b93"},"vehicle_type_id":"4","last_reported":1701349828,"current_range_meters":20400,"station_id":"ce4bhnh2rcd13ifvqgtg","pricing_plan_id":"free"},{"bike_id":"b5a4a15c-34cf-4035-b610-fceaaed2d696","system_id":"levelo_inurba_marseille","lat":43.269467,"lon":5.386439,"is_reserved":false,"is_disabled":false,"rental_uris":{"android":"levelo://app?vid=b5a4a15c-34cf-4035-b610-fceaaed2d696","ios":"levelo://app?vid=b5a4a15c-34cf-4035-b610-fceaaed2d696"},"vehicle_type_id":"4","last_reported":1701349828,"current_range_meters":18800,"station_id":"ce4bhh92rcd13ifvqfh0","pricing_plan_id":"free"},{"bike_id":"293fbabe-1daf-43f0-898e-880315813a98","system_id":"levelo_inurba_marseille","lat":43.269467,"lon":5.386439,"is_reserved":false,"is_disabled":false,"rental_uris":{"android":"levelo://app?vid=293fbabe-1daf-43f0-898e-880315813a98","ios":"levelo://app?vid=293fbabe-1daf-43f0-898e-880315813a98"},"vehicle_type_id":"4","last_reported":1701349828,"current_range_meters":26000,"station_id":"ce4bhh92rcd13ifvqfh0","pricing_plan_id":"free"},{"bike_id":"ec06aefd-bda9-48d1-9fd5-04a11ac3d06a","system_id":"levelo_inurba_marseille","lat":43.269467,"lon":5.386439,"is_reserved":false,"is_disabled":false,"rental_uris":{"android":"levelo://app?vid=ec06aefd-bda9-48d1-9fd5-04a11ac3d06a","ios":"levelo://app?vid=ec06aefd-bda9-48d1-9fd5-04a11ac3d06a"},"vehicle_type_id":"4","last_reported":1701349828,"current_range_meters":26000,"station_id":"ce4bhh92rcd13ifvqfh0","pricing_plan_id":"free"},{"bike_id":"663923f3-6f1e-487c-a07e-f3302d458758","system_id":"levelo_inurba_marseille","lat":43.269467,"lon":5.386439,"is_reserved":false,"is_disabled":false,"rental_uris":{"android":"levelo://app?vid=663923f3-6f1e-487c-a07e-f3302d458758","ios":"levelo://app?vid=663923f3-6f1e-487c-a07e-f3302d458758"},"vehicle_type_id":"4","last_reported":1701349828,"current_range_meters":11600,"station_id":"ce4bhh92rcd13ifvqfh0","pricing_plan_id":"free"},{"bike_id":"18e1c3d4-52bb-4c1c-94b4-b59427f6ef2a","system_id":"levelo_inurba_marseille","lat":43.269467,"lon":5.386439,"is_reserved":false,"is_disabled":false,"rental_uris":{"android":"levelo://app?vid=18e1c3d4-52bb-4c1c-94b4-b59427f6ef2a","ios":"levelo://app?vid=18e1c3d4-52bb-4c1c-94b4-b59427f6ef2a"},"vehicle_type_id":"4","last_reported":1701349828,"current_range_meters":28000,"station_id":"ce4bhh92rcd13ifvqfh0","pricing_plan_id":"free"},{"bike_id":"4a39e820-7ee7-42ea-89cd-2b4294d9313c","system_id":"levelo_inurba_marseille","lat":43.279465,"lon":5.410561,"is_reserved":false,"is_disabled":false,"rental_uris":{"android":"levelo://app?vid=4a39e820-7ee7-42ea-89cd-2b4294d9313c","ios":"levelo://app?vid=4a39e820-7ee7-42ea-89cd-2b4294d9313c"},"vehicle_type_id":"4","last_reported":1701349828,"current_range_meters":22400,"station_id":"ce4bhnp2rcd13ifvqh0g","pricing_plan_id":"free"},{"bike_id":"8e8d349d-09ef-483a-8322-0fd5fbd7b38e","system_id":"levelo_inurba_marseille","lat":43.308051,"lon":5.43527,"is_reserved":false,"is_disabled":false,"rental_uris":{"android":"levelo://app?vid=8e8d349d-09ef-483a-8322-0fd5fbd7b38e","ios":"levelo://app?vid=8e8d349d-09ef-483a-8322-0fd5fbd7b38e"},"vehicle_type_id":"4","last_reported":1701349828,"current_range_meters":11200,"station_id":"ce4bhph2rcd13ifvqheg","pricing_plan_id":"free"},{"bike_id":"9dedea8d-f1cb-4115-b060-42c73788698f","system_id":"levelo_inurba_marseille","lat":43.261782,"lon":5.374515,"is_reserved":false,"is_disabled":false,"rental_uris":{"android":"levelo://app?vid=9dedea8d-f1cb-4115-b060-42c73788698f","ios":"levelo://app?vid=9dedea8d-f1cb-4115-b060-42c73788698f"},"vehicle_type_id":"4","last_reported":1701349828,"current_range_meters":4800,"station_id":"ce4bhgp2rcd13ifvqfc0","pricing_plan_id":"free"},{"bike_id":"8e88bbcc-b9ee-46eb-9d34-9108505f0afe","system_id":"levelo_inurba_marseille","lat":43.260225,"lon":5.375455,"is_reserved":false,"is_disabled":false,"rental_uris":{"android":"levelo://app?vid=8e88bbcc-b9ee-46eb-9d34-9108505f0afe","ios":"levelo://app?vid=8e88bbcc-b9ee-46eb-9d34-9108505f0afe"},"vehicle_type_id":"4","last_reported":1701349828,"current_range_meters":5200,"station_id":"ce4bhgh2rcd13ifvqfa0","pricing_plan_id":"free"},{"bike_id":"4f5fe813-8935-4e78-9631-5e3e105a868a","system_id":"levelo_inurba_marseille","lat":43.281548,"lon":5.42643,"is_reserved":false,"is_disabled":false,"rental_uris":{"android":"levelo://app?vid=4f5fe813-8935-4e78-9631-5e3e105a868a","ios":"levelo://app?vid=4f5fe813-8935-4e78-9631-5e3e105a868a"},"vehicle_type_id":"4","last_reported":1701349828,"current_range_meters":27600,"station_id":"ce4bhnh2rcd13ifvqgug","pricing_plan_id":"free"},{"bike_id":"3a3a158e-e448-4aea-9204-f9245ee3113f","system_id":"levelo_inurba_marseille","lat":43.281548,"lon":5.42643,"is_reserved":false,"is_disabled":false,"rental_uris":{"android":"levelo://app?vid=3a3a158e-e448-4aea-9204-f9245ee3113f","ios":"levelo://app?vid=3a3a158e-e448-4aea-9204-f9245ee3113f"},"vehicle_type_id":"4","last_reported":1701349828,"current_range_meters":14800,"station_id":"ce4bhnh2rcd13ifvqgug","pricing_plan_id":"free"},{"bike_id":"3ef99185-b820-4a7b-9593-790c472e0906","system_id":"levelo_inurba_marseille","lat":43.2607,"lon":5.393983,"is_reserved":false,"is_disabled":false,"rental_uris":{"android":"levelo://app?vid=3ef99185-b820-4a7b-9593-790c472e0906","ios":"levelo://app?vid=3ef99185-b820-4a7b-9593-790c472e0906"},"vehicle_type_id":"4","last_reported":1701349828,"current_range_meters":8000,"station_id":"ce4bhh92rcd13ifvqfj0","pricing_plan_id":"free"},{"bike_id":"4d4b87d7-5132-45dc-a817-21b5d193d0e8","system_id":"levelo_inurba_marseille","lat":43.2607,"lon":5.393983,"is_reserved":false,"is_disabled":false,"rental_uris":{"android":"levelo://app?vid=4d4b87d7-5132-45dc-a817-21b5d193d0e8","ios":"levelo://app?vid=4d4b87d7-5132-45dc-a817-21b5d193d0e8"},"vehicle_type_id":"4","last_reported":1701349828,"current_range_meters":28000,"station_id":"ce4bhh92rcd13ifvqfj0","pricing_plan_id":"free"},{"bike_id":"bf8f69eb-2080-46bd-8d5b-fc3ab031288e","system_id":"levelo_inurba_marseille","lat":43.27495,"lon":5.42451,"is_reserved":false,"is_disabled":false,"rental_uris":{"android":"levelo://app?vid=bf8f69eb-2080-46bd-8d5b-fc3ab031288e","ios":"levelo://app?vid=bf8f69eb-2080-46bd-8d5b-fc3ab031288e"},"vehicle_type_id":"4","last_reported":1701349828,"current_range_meters":16000,"station_id":"ce4bhn92rcd13ifvqgrg","pricing_plan_id":"free"},{"bike_id":"797ae937-73b0-4a96-b6e3-262c31da2bed","system_id":"levelo_inurba_marseille","lat":43.275028,"lon":5.424534,"is_reserved":false,"is_disabled":false,"rental_uris":{"android":"levelo://app?vid=797ae937-73b0-4a96-b6e3-262c31da2bed","ios":"levelo://app?vid=797ae937-73b0-4a96-b6e3-262c31da2bed"},"vehicle_type_id":"4","last_reported":1701349828,"current_range_meters":14000,"station_id":"ce4bhn92rcd13ifvqgrg","pricing_plan_id":"free"},{"bike_id":"39bbd325-2982-41ca-a19c-aa5a8f6f43c6","system_id":"levelo_inurba_marseille","lat":43.275028,"lon":5.424534,"is_reserved":false,"is_disabled":false,"rental_uris":{"android":"levelo://app?vid=39bbd325-2982-41ca-a19c-aa5a8f6f43c6","ios":"levelo://app?vid=39bbd325-2982-41ca-a19c-aa5a8f6f43c6"},"vehicle_type_id":"4","last_reported":1701349828,"current_range_meters":18000,"station_id":"ce4bhn92rcd13ifvqgrg","pricing_plan_id":"free"},{"bike_id":"3001d79a-0953-4c83-859e-0fee9753d5bf","system_id":"levelo_inurba_marseille","lat":43.27494,"lon":5.42451,"is_reserved":false,"is_disabled":false,"rental_uris":{"android":"levelo://app?vid=3001d79a-0953-4c83-859e-0fee9753d5bf","ios":"levelo://app?vid=3001d79a-0953-4c83-859e-0fee9753d5bf"},"vehicle_type_id":"4","last_reported":1701349828,"current_range_meters":14000,"station_id":"ce4bhn92rcd13ifvqgrg","pricing_plan_id":"free"},{"bike_id":"0d523b16-5be4-4d62-a859-9f306f59436e","system_id":"levelo_inurba_marseille","lat":43.275028,"lon":5.424534,"is_reserved":false,"is_disabled":false,"rental_uris":{"android":"levelo://app?vid=0d523b16-5be4-4d62-a859-9f306f59436e","ios":"levelo://app?vid=0d523b16-5be4-4d62-a859-9f306f59436e"},"vehicle_type_id":"4","last_reported":1701349828,"current_range_meters":16800,"station_id":"ce4bhn92rcd13ifvqgrg","pricing_plan_id":"free"},{"bike_id":"7a58c54c-1808-497a-bea0-e0bff6829a55","system_id":"levelo_inurba_marseille","lat":43.275028,"lon":5.424534,"is_reserved":false,"is_disabled":false,"rental_uris":{"android":"levelo://app?vid=7a58c54c-1808-497a-bea0-e0bff6829a55","ios":"levelo://app?vid=7a58c54c-1808-497a-bea0-e0bff6829a55"},"vehicle_type_id":"4","last_reported":1701349828,"current_range_meters":5200,"station_id":"ce4bhn92rcd13ifvqgrg","pricing_plan_id":"free"},{"bike_id":"5cda8f3e-fb37-457b-95ea-f5e6805659d5","system_id":"levelo_inurba_marseille","lat":43.27492,"lon":5.42455,"is_reserved":false,"is_disabled":false,"rental_uris":{"android":"levelo://app?vid=5cda8f3e-fb37-457b-95ea-f5e6805659d5","ios":"levelo://app?vid=5cda8f3e-fb37-457b-95ea-f5e6805659d5"},"vehicle_type_id":"4","last_reported":1701349828,"current_range_meters":0,"station_id":"ce4bhn92rcd13ifvqgrg","pricing_plan_id":"free"},{"bike_id":"33b23ca4-a88d-4dce-8acd-eef6bf81eb7f","system_id":"levelo_inurba_marseille","lat":43.275028,"lon":5.424534,"is_reserved":false,"is_disabled":false,"rental_uris":{"android":"levelo://app?vid=33b23ca4-a88d-4dce-8acd-eef6bf81eb7f","ios":"levelo://app?vid=33b23ca4-a88d-4dce-8acd-eef6bf81eb7f"},"vehicle_type_id":"4","last_reported":1701349828,"current_range_meters":8400,"station_id":"ce4bhn92rcd13ifvqgrg","pricing_plan_id":"free"},{"bike_id":"3356f29e-ae4b-45d9-b165-b48ebc182256","system_id":"levelo_inurba_marseille","lat":43.275028,"lon":5.424534,"is_reserved":false,"is_disabled":false,"rental_uris":{"android":"levelo://app?vid=3356f29e-ae4b-45d9-b165-b48ebc182256","ios":"levelo://app?vid=3356f29e-ae4b-45d9-b165-b48ebc182256"},"vehicle_type_id":"4","last_reported":1701349828,"current_range_meters":13600,"station_id":"ce4bhn92rcd13ifvqgrg","pricing_plan_id":"free"},{"bike_id":"a0ad5954-4678-4ed0-a699-84d1b14aeda3","system_id":"levelo_inurba_marseille","lat":43.27483,"lon":5.42453,"is_reserved":false,"is_disabled":false,"rental_uris":{"android":"levelo://app?vid=a0ad5954-4678-4ed0-a699-84d1b14aeda3","ios":"levelo://app?vid=a0ad5954-4678-4ed0-a699-84d1b14aeda3"},"vehicle_type_id":"4","last_reported":1701349828,"current_range_meters":8400,"station_id":"ce4bhn92rcd13ifvqgrg","pricing_plan_id":"free"},{"bike_id":"94df2878-5bce-4d96-a18d-97127cb4926a","system_id":"levelo_inurba_marseille","lat":43.258224,"lon":5.394369,"is_reserved":false,"is_disabled":false,"rental_uris":{"android":"levelo://app?vid=94df2878-5bce-4d96-a18d-97127cb4926a","ios":"levelo://app?vid=94df2878-5bce-4d96-a18d-97127cb4926a"},"vehicle_type_id":"4","last_reported":1701349828,"current_range_meters":3600,"station_id":"ce4bhip2rcd13ifvqft0","pricing_plan_id":"free"},{"bike_id":"7173131f-54b9-4a8f-bd9e-938ff7ca005c","system_id":"levelo_inurba_marseille","lat":43.258224,"lon":5.394369,"is_reserved":false,"is_disabled":false,"rental_uris":{"android":"levelo://app?vid=7173131f-54b9-4a8f-bd9e-938ff7ca005c","ios":"levelo://app?vid=7173131f-54b9-4a8f-bd9e-938ff7ca005c"},"vehicle_type_id":"4","last_reported":1701349828,"current_range_meters":21600,"station_id":"ce4bhip2rcd13ifvqft0","pricing_plan_id":"free"},{"bike_id":"a1ebfa61-9a00-42cf-bbdb-acd444ebb328","system_id":"levelo_inurba_marseille","lat":43.258224,"lon":5.394369,"is_reserved":false,"is_disabled":false,"rental_uris":{"android":"levelo://app?vid=a1ebfa61-9a00-42cf-bbdb-acd444ebb328","ios":"levelo://app?vid=a1ebfa61-9a00-42cf-bbdb-acd444ebb328"},"vehicle_type_id":"4","last_reported":1701349828,"current_range_meters":24800,"station_id":"ce4bhip2rcd13ifvqft0","pricing_plan_id":"free"},{"bike_id":"3bde15e0-8c79-493c-8704-ed85820166b4","system_id":"levelo_inurba_marseille","lat":43.25572,"lon":5.3823,"is_reserved":false,"is_disabled":false,"rental_uris":{"android":"levelo://app?vid=3bde15e0-8c79-493c-8704-ed85820166b4","ios":"levelo://app?vid=3bde15e0-8c79-493c-8704-ed85820166b4"},"vehicle_type_id":"4","last_reported":1701349828,"current_range_meters":30800,"station_id":"ce4bhih2rcd13ifvqfs0","pricing_plan_id":"free"},{"bike_id":"ae6a23ea-ee31-45f5-b93a-58394a56c974","system_id":"levelo_inurba_marseille","lat":43.25572,"lon":5.38236,"is_reserved":false,"is_disabled":false,"rental_uris":{"android":"levelo://app?vid=ae6a23ea-ee31-45f5-b93a-58394a56c974","ios":"levelo://app?vid=ae6a23ea-ee31-45f5-b93a-58394a56c974"},"vehicle_type_id":"4","last_reported":1701349828,"current_range_meters":30400,"station_id":"ce4bhih2rcd13ifvqfs0","pricing_plan_id":"free"},{"bike_id":"072735fc-7166-45e4-ab1b-a3fa626d7d29","system_id":"levelo_inurba_marseille","lat":43.2549,"lon":5.3765,"is_reserved":false,"is_disabled":false,"rental_uris":{"android":"levelo://app?vid=072735fc-7166-45e4-ab1b-a3fa626d7d29","ios":"levelo://app?vid=072735fc-7166-45e4-ab1b-a3fa626d7d29"},"vehicle_type_id":"4","last_reported":1701349828,"current_range_meters":22400,"station_id":"ce4bhh12rcd13ifvqff0","pricing_plan_id":"free"},{"bike_id":"ce4a8b89-5467-4175-a7e0-4caeff86e402","system_id":"levelo_inurba_marseille","lat":43.270721,"lon":5.422764,"is_reserved":false,"is_disabled":false,"rental_uris":{"android":"levelo://app?vid=ce4a8b89-5467-4175-a7e0-4caeff86e402","ios":"levelo://app?vid=ce4a8b89-5467-4175-a7e0-4caeff86e402"},"vehicle_type_id":"4","last_reported":1701349828,"current_range_meters":31200,"station_id":"ce4bhk92rcd13ifvqgb0","pricing_plan_id":"free"},{"bike_id":"8a07c10e-58d8-480b-ac33-fcd6e26cdb24","system_id":"levelo_inurba_marseille","lat":43.270721,"lon":5.422764,"is_reserved":false,"is_disabled":false,"rental_uris":{"android":"levelo://app?vid=8a07c10e-58d8-480b-ac33-fcd6e26cdb24","ios":"levelo://app?vid=8a07c10e-58d8-480b-ac33-fcd6e26cdb24"},"vehicle_type_id":"4","last_reported":1701349828,"current_range_meters":30800,"station_id":"ce4bhk92rcd13ifvqgb0","pricing_plan_id":"free"},{"bike_id":"b71964a8-6e95-47d3-8fb4-a3af0f1bc2ad","system_id":"levelo_inurba_marseille","lat":43.270721,"lon":5.422764,"is_reserved":false,"is_disabled":false,"rental_uris":{"android":"levelo://app?vid=b71964a8-6e95-47d3-8fb4-a3af0f1bc2ad","ios":"levelo://app?vid=b71964a8-6e95-47d3-8fb4-a3af0f1bc2ad"},"vehicle_type_id":"4","last_reported":1701349828,"current_range_meters":21600,"station_id":"ce4bhk92rcd13ifvqgb0","pricing_plan_id":"free"},{"bike_id":"0bfa831d-c154-44c8-bf08-0af5df864f43","system_id":"levelo_inurba_marseille","lat":43.258658,"lon":5.398935,"is_reserved":false,"is_disabled":false,"rental_uris":{"android":"levelo://app?vid=0bfa831d-c154-44c8-bf08-0af5df864f43","ios":"levelo://app?vid=0bfa831d-c154-44c8-bf08-0af5df864f43"},"vehicle_type_id":"4","last_reported":1701349828,"current_range_meters":26800,"station_id":"ce4bhl92rcd13ifvqghg","pricing_plan_id":"free"},{"bike_id":"d4f9021c-ad89-46c1-83a7-86a9c9771265","system_id":"levelo_inurba_marseille","lat":43.250009,"lon":5.389195,"is_reserved":false,"is_disabled":false,"rental_uris":{"android":"levelo://app?vid=d4f9021c-ad89-46c1-83a7-86a9c9771265","ios":"levelo://app?vid=d4f9021c-ad89-46c1-83a7-86a9c9771265"},"vehicle_type_id":"4","last_reported":1701349828,"current_range_meters":31200,"station_id":"ce4bhgp2rcd13ifvqfd0","pricing_plan_id":"free"},{"bike_id":"22cf2c40-663c-472d-a818-51639de93de0","system_id":"levelo_inurba_marseille","lat":43.25004,"lon":5.38921,"is_reserved":false,"is_disabled":false,"rental_uris":{"android":"levelo://app?vid=22cf2c40-663c-472d-a818-51639de93de0","ios":"levelo://app?vid=22cf2c40-663c-472d-a818-51639de93de0"},"vehicle_type_id":"4","last_reported":1701349828,"current_range_meters":30400,"station_id":"ce4bhgp2rcd13ifvqfd0","pricing_plan_id":"free"},{"bike_id":"856f2952-0d85-4a71-9497-5e57411e76d2","system_id":"levelo_inurba_marseille","lat":43.250009,"lon":5.389195,"is_reserved":false,"is_disabled":false,"rental_uris":{"android":"levelo://app?vid=856f2952-0d85-4a71-9497-5e57411e76d2","ios":"levelo://app?vid=856f2952-0d85-4a71-9497-5e57411e76d2"},"vehicle_type_id":"4","last_reported":1701349828,"current_range_meters":31600,"station_id":"ce4bhgp2rcd13ifvqfd0","pricing_plan_id":"free"},{"bike_id":"85f01cb1-5515-46e6-9e1e-e59ba2b18d5b","system_id":"levelo_inurba_marseille","lat":43.250009,"lon":5.389195,"is_reserved":false,"is_disabled":false,"rental_uris":{"android":"levelo://app?vid=85f01cb1-5515-46e6-9e1e-e59ba2b18d5b","ios":"levelo://app?vid=85f01cb1-5515-46e6-9e1e-e59ba2b18d5b"},"vehicle_type_id":"4","last_reported":1701349828,"current_range_meters":18800,"station_id":"ce4bhgp2rcd13ifvqfd0","pricing_plan_id":"free"},{"bike_id":"dbd6fc41-d7e3-4c87-8bfc-203cc269bcf6","system_id":"levelo_inurba_marseille","lat":43.250023,"lon":5.38919,"is_reserved":false,"is_disabled":false,"rental_uris":{"android":"levelo://app?vid=dbd6fc41-d7e3-4c87-8bfc-203cc269bcf6","ios":"levelo://app?vid=dbd6fc41-d7e3-4c87-8bfc-203cc269bcf6"},"vehicle_type_id":"4","last_reported":1701349828,"current_range_meters":30400,"station_id":"ce4bhgp2rcd13ifvqfd0","pricing_plan_id":"free"},{"bike_id":"c36362d3-43e6-4c44-ad57-4ea4a0ee1f5b","system_id":"levelo_inurba_marseille","lat":43.24804,"lon":5.37457,"is_reserved":false,"is_disabled":false,"rental_uris":{"android":"levelo://app?vid=c36362d3-43e6-4c44-ad57-4ea4a0ee1f5b","ios":"levelo://app?vid=c36362d3-43e6-4c44-ad57-4ea4a0ee1f5b"},"vehicle_type_id":"4","last_reported":1701349828,"current_range_meters":28800,"station_id":"ce4bhgh2rcd13ifvqfb0","pricing_plan_id":"free"},{"bike_id":"8f6055a1-b2f6-45ff-8ebb-7f033cd52c5c","system_id":"levelo_inurba_marseille","lat":43.2479,"lon":5.374457,"is_reserved":false,"is_disabled":false,"rental_uris":{"android":"levelo://app?vid=8f6055a1-b2f6-45ff-8ebb-7f033cd52c5c","ios":"levelo://app?vid=8f6055a1-b2f6-45ff-8ebb-7f033cd52c5c"},"vehicle_type_id":"4","last_reported":1701349828,"current_range_meters":16000,"station_id":"ce4bhgh2rcd13ifvqfb0","pricing_plan_id":"free"},{"bike_id":"8ef0c053-8f63-47cb-af6f-02608d78b538","system_id":"levelo_inurba_marseille","lat":43.250872,"lon":5.395244,"is_reserved":false,"is_disabled":false,"rental_uris":{"android":"levelo://app?vid=8ef0c053-8f63-47cb-af6f-02608d78b538","ios":"levelo://app?vid=8ef0c053-8f63-47cb-af6f-02608d78b538"},"vehicle_type_id":"4","last_reported":1701349828,"current_range_meters":24400,"station_id":"ce4bhm12rcd13ifvqgkg","pricing_plan_id":"free"},{"bike_id":"613b4888-f450-484e-bde6-2f1d9f66ce70","system_id":"levelo_inurba_marseille","lat":43.250966,"lon":5.395186,"is_reserved":false,"is_disabled":false,"rental_uris":{"android":"levelo://app?vid=613b4888-f450-484e-bde6-2f1d9f66ce70","ios":"levelo://app?vid=613b4888-f450-484e-bde6-2f1d9f66ce70"},"vehicle_type_id":"4","last_reported":1701349828,"current_range_meters":0,"station_id":"ce4bhm12rcd13ifvqgkg","pricing_plan_id":"free"},{"bike_id":"620ee53d-8a6c-4d0d-8284-edd8c7869e03","system_id":"levelo_inurba_marseille","lat":43.24693,"lon":5.382096,"is_reserved":false,"is_disabled":false,"rental_uris":{"android":"levelo://app?vid=620ee53d-8a6c-4d0d-8284-edd8c7869e03","ios":"levelo://app?vid=620ee53d-8a6c-4d0d-8284-edd8c7869e03"},"vehicle_type_id":"4","last_reported":1701349828,"current_range_meters":11600,"station_id":"ce4bhih2rcd13ifvqfr0","pricing_plan_id":"free"},{"bike_id":"a8c25e28-f89e-480f-9f3b-4a0ecaae5379","system_id":"levelo_inurba_marseille","lat":43.246461,"lon":5.389014,"is_reserved":false,"is_disabled":false,"rental_uris":{"android":"levelo://app?vid=a8c25e28-f89e-480f-9f3b-4a0ecaae5379","ios":"levelo://app?vid=a8c25e28-f89e-480f-9f3b-4a0ecaae5379"},"vehicle_type_id":"4","last_reported":1701349828,"current_range_meters":27200,"station_id":"ce4bhg12rcd13ifvqf60","pricing_plan_id":"free"},{"bike_id":"6d6239be-9ca4-4e23-a40c-e8cb68671c03","system_id":"levelo_inurba_marseille","lat":43.243884,"lon":5.370736,"is_reserved":false,"is_disabled":false,"rental_uris":{"android":"levelo://app?vid=6d6239be-9ca4-4e23-a40c-e8cb68671c03","ios":"levelo://app?vid=6d6239be-9ca4-4e23-a40c-e8cb68671c03"},"vehicle_type_id":"4","last_reported":1701349828,"current_range_meters":31200,"station_id":"ce4bhhh2rcd13ifvqfk0","pricing_plan_id":"free"},{"bike_id":"f474efc7-ac20-4ade-b46d-d455a91ee990","system_id":"levelo_inurba_marseille","lat":43.243885,"lon":5.370635,"is_reserved":false,"is_disabled":false,"rental_uris":{"android":"levelo://app?vid=f474efc7-ac20-4ade-b46d-d455a91ee990","ios":"levelo://app?vid=f474efc7-ac20-4ade-b46d-d455a91ee990"},"vehicle_type_id":"4","last_reported":1701349828,"current_range_meters":7600,"station_id":"ce4bhhh2rcd13ifvqfk0","pricing_plan_id":"free"},{"bike_id":"46274338-7531-44ee-8066-1fb7da05be34","system_id":"levelo_inurba_marseille","lat":43.243883,"lon":5.370578,"is_reserved":false,"is_disabled":false,"rental_uris":{"android":"levelo://app?vid=46274338-7531-44ee-8066-1fb7da05be34","ios":"levelo://app?vid=46274338-7531-44ee-8066-1fb7da05be34"},"vehicle_type_id":"4","last_reported":1701349828,"current_range_meters":30400,"station_id":"ce4bhnp2rcd13ifvqgvg","pricing_plan_id":"free"},{"bike_id":"8609ba6f-5dba-4e42-821c-263a41645ca4","system_id":"levelo_inurba_marseille","lat":43.243884,"lon":5.370737,"is_reserved":false,"is_disabled":false,"rental_uris":{"android":"levelo://app?vid=8609ba6f-5dba-4e42-821c-263a41645ca4","ios":"levelo://app?vid=8609ba6f-5dba-4e42-821c-263a41645ca4"},"vehicle_type_id":"4","last_reported":1701349828,"current_range_meters":26400,"station_id":"ce4bhhh2rcd13ifvqfk0","pricing_plan_id":"free"},{"bike_id":"2e159999-87b7-4bc7-a918-309c1622eb4c","system_id":"levelo_inurba_marseille","lat":43.243884,"lon":5.370737,"is_reserved":false,"is_disabled":false,"rental_uris":{"android":"levelo://app?vid=2e159999-87b7-4bc7-a918-309c1622eb4c","ios":"levelo://app?vid=2e159999-87b7-4bc7-a918-309c1622eb4c"},"vehicle_type_id":"4","last_reported":1701349828,"current_range_meters":28400,"station_id":"ce4bhhh2rcd13ifvqfk0","pricing_plan_id":"free"},{"bike_id":"31477cac-dad9-40da-a8f0-2b06ddb732dc","system_id":"levelo_inurba_marseille","lat":43.243884,"lon":5.370736,"is_reserved":false,"is_disabled":false,"rental_uris":{"android":"levelo://app?vid=31477cac-dad9-40da-a8f0-2b06ddb732dc","ios":"levelo://app?vid=31477cac-dad9-40da-a8f0-2b06ddb732dc"},"vehicle_type_id":"4","last_reported":1701349828,"current_range_meters":25200,"station_id":"ce4bhhh2rcd13ifvqfk0","pricing_plan_id":"free"},{"bike_id":"bcc93469-dac7-4061-b03e-a1e648dc5717","system_id":"levelo_inurba_marseille","lat":43.243855,"lon":5.370581,"is_reserved":false,"is_disabled":false,"rental_uris":{"android":"levelo://app?vid=bcc93469-dac7-4061-b03e-a1e648dc5717","ios":"levelo://app?vid=bcc93469-dac7-4061-b03e-a1e648dc5717"},"vehicle_type_id":"4","last_reported":1701349828,"current_range_meters":31200,"station_id":"ce4bhhh2rcd13ifvqfk0","pricing_plan_id":"free"},