{"last_updated":1747717859,"ttl":60,"version":"2.2","data":{"bikes":[{"bike_id":"2eab994d-a378-4391-894b-b62d11a34041","system_id":"levelo_inurba_marseille","lat":43.231536,"lon":5.437059,"is_reserved":false,"is_disabled":true,"rental_uris":{"android":"levelo://app?vid=2eab994d-a378-4391-894b-b62d11a34041","ios":"levelo://app?vid=2eab994d-a378-4391-894b-b62d11a34041"},"vehicle_type_id":"4","last_reported":1747717860,"current_range_meters":2800,"station_id":"ce4bhmp2rcd13ifvqgog","pricing_plan_id":"cebpf4jnsgd1na2vs0mg"},{"bike_id":"afb6a1c2-854e-4666-ab58-f3fec34dd7a4","system_id":"levelo_inurba_marseille","lat":43.265573,"lon":5.373095,"is_reserved":false,"is_disabled":false,"rental_uris":{"android":"levelo://app?vid=afb6a1c2-854e-4666-ab58-f3fec34dd7a4","ios":"levelo://app?vid=afb6a1c2-854e-4666-ab58-f3fec34dd7a4"},"vehicle_type_id":"4","last_reported":1747717860,"current_range_meters":3200,"station_id":"ce4bhg12rcd13ifvqf70","pricing_plan_id":"cebpf4jnsgd1na2vs0mg"},{"bike_id":"001329da-21fb-4914-83a1-8f2b8ac66828","system_id":"levelo_inurba_marseille","lat":43.3111,"lon":5.37777,"is_reserved":false,"is_disabled":true,"rental_uris":{"android":"levelo://app?vid=001329da-21fb-4914-83a1-8f2b8ac66828","ios":"levelo://app?vid=001329da-21fb-4914-83a1-8f2b8ac66828"},"vehicle_type_id":"4","last_reported":1747717860,"current_range_meters":3200,"station_id":"ce4bgt92rcd13ifvqcg0","pricing_plan_id":"cebpf4jnsgd1na2vs0mg"},{"bike_id":"0eb7f958-813c-4599-a947-cc188a070eb3","system_id":"levelo_inurba_marseille","lat":43.251145,"lon":5.403259,"is_reserved":false,"is_disabled":false,"rental_uris":{"android":"levelo://app?vid=0eb7f958-813c-4599-a947-cc188a070eb3","ios":"levelo://app?vid=0eb7f958-813c-4599-a947-cc188a070eb3"},"vehicle_type_id":"4","last_reported":1747717860,"current_range_meters":3600,"station_id":"ce4bhlh2rcd13ifvqgig","pricing_plan_id":"cebpf4jnsgd1na2vs0mg"},{"bike_id":"1b136d29-9e9c-4723-8b83-b409e818f7bf","system_id":"levelo_inurba_marseille","lat":43.211843,"lon":5.350946,"is_reserved":false,"is_disabled":false,"rental_uris":{"android":"levelo://app?vid=1b136d29-9e9c-4723-8b83-b409e818f7bf","ios":"levelo://app?vid=1b136d29-9e9c-4723-8b83-b409e818f7bf"},"vehicle_type_id":"4","last_reported":1747717860,"current_range_meters":4000,"station_id":"st_cvj6sg6p6f1abm77japg","pricing_plan_id":"cebpf4jnsgd1na2vs0mg"},{"bike_id":"c2abbae2-2df0-4f41-a37b-7dfff83e6e10","system_id":"levelo_inurba_marseille","lat":43.29319,"lon":5.37159,"is_reserved":false,"is_disabled":true,"rental_uris":{"android":"levelo://app?vid=c2abbae2-2df0-4f41-a37b-7dfff83e6e10","ios":"levelo://app?vid=c2abbae2-2df0-4f41-a37b-7dfff83e6e10"},"vehicle_type_id":"4","last_reported":1747717860,"current_range_meters":4000,"station_id":"ce4bgh92rcd13ifvqb40","pricing_plan_id":"cebpf4jnsgd1na2vs0mg"},{"bike_id":"9098acce-4a9e-40d8-ba71-76f7509c9d2b","system_id":"levelo_inurba_marseille","lat":43.265539,"lon":5.372912,"is_reserved":false,"is_disabled":false,"rental_uris":{"android":"levelo://app?vid=9098acce-4a9e-40d8-ba71-76f7509c9d2b","ios":"levelo://app?vid=9098acce-4a9e-40d8-ba71-76f7509c9d2b"},"vehicle_type_id":"4","last_reported":1747717860,"current_range_meters":4000,"station_id":"ce4bhg12rcd13ifvqf70","pricing_plan_id":"cebpf4jnsgd1na2vs0mg"},{"bike_id":"9250ce71-3739-42ad-93fa-af55164b7c3f","system_id":"levelo_inurba_marseille","lat":43.30611,"lon":5.3724,"is_reserved":false,"is_disabled":false,"rental_uris":{"android":"levelo://app?vid=9250ce71-3739-42ad-93fa-af55164b7c3f","ios":"levelo://app?vid=9250ce71-3739-42ad-93fa-af55164b7c3f"},"vehicle_type_id":"4","last_reported":1747717860,"current_range_meters":4000,"station_id":"ce4bgqh2rcd13ifvqc4g","pricing_plan_id":"cebpf4jnsgd1na2vs0mg"},{"bike_id":"a44c52bb-9719-4976-b55f-bff181471d4b","system_id":"levelo_inurba_marseille","lat":43.27062,"lon":5.40278,"is_reserved":false,"is_disabled":false,"rental_uris":{"android":"levelo://app?vid=a44c52bb-9719-4976-b55f-bff181471d4b","ios":"levelo://app?vid=a44c52bb-9719-4976-b55f-bff181471d4b"},"vehicle_type_id":"4","last_reported":1747717860,"current_range_meters":4000,"station_id":"ce4bhk92rcd13ifvqgc0","pricing_plan_id":"cebpf4jnsgd1na2vs0mg"},{"bike_id":"b549a689-cfc7-4eb6-9417-b317b40e3807","system_id":"levelo_inurba_marseille","lat":43.30217,"lon":5.40033,"is_reserved":false,"is_disabled":false,"rental_uris":{"android":"levelo://app?vid=b549a689-cfc7-4eb6-9417-b317b40e3807","ios":"levelo://app?vid=b549a689-cfc7-4eb6-9417-b317b40e3807"},"vehicle_type_id":"4","last_reported":1747717860,"current_range_meters":4000,"station_id":"","pricing_plan_id":"cebpf4jnsgd1na2vs0mg"},{"bike_id":"0959ff5e-5955-4215-8723-80a097bacc26","system_id":"levelo_inurba_marseille","lat":43.278219,"lon":5.407221,"is_reserved":false,"is_disabled":false,"rental_uris":{"android":"levelo://app?vid=0959ff5e-5955-4215-8723-80a097bacc26","ios":"levelo://app?vid=0959ff5e-5955-4215-8723-80a097bacc26"},"vehicle_type_id":"4","last_reported":1747717860,"current_range_meters":4400,"station_id":"ce4bhnh2rcd13ifvqgtg","pricing_plan_id":"cebpf4jnsgd1na2vs0mg"},{"bike_id":"f40652e2-30a0-431e-b1f1-4d9fe84a8149","system_id":"levelo_inurba_marseille","lat":43.27383,"lon":5.36251,"is_reserved":false,"is_disabled":true,"rental_uris":{"android":"levelo://app?vid=f40652e2-30a0-431e-b1f1-4d9fe84a8149","ios":"levelo://app?vid=f40652e2-30a0-431e-b1f1-4d9fe84a8149"},"vehicle_type_id":"4","last_reported":1747717860,"current_range_meters":4800,"station_id":"ce4bhbh2rcd13ifvqeo0","pricing_plan_id":"cebpf4jnsgd1na2vs0mg"},{"bike_id":"1bb8d806-4321-436b-81ef-b3705e197593","system_id":"levelo_inurba_marseille","lat":43.31482,"lon":5.3731,"is_reserved":false,"is_disabled":false,"rental_uris":{"android":"levelo://app?vid=1bb8d806-4321-436b-81ef-b3705e197593","ios":"levelo://app?vid=1bb8d806-4321-436b-81ef-b3705e197593"},"vehicle_type_id":"4","last_reported":1747717860,"current_range_meters":4400,"station_id":"ce4bgt12rcd13ifvqcd0","pricing_plan_id":"cebpf4jnsgd1na2vs0mg"},{"bike_id":"fefa3ad1-29a6-4d50-af49-b905b6a48898","system_id":"levelo_inurba_marseille","lat":43.2815,"lon":5.42662,"is_reserved":false,"is_disabled":false,"rental_uris":{"android":"levelo://app?vid=fefa3ad1-29a6-4d50-af49-b905b6a48898","ios":"levelo://app?vid=fefa3ad1-29a6-4d50-af49-b905b6a48898"},"vehicle_type_id":"4","last_reported":1747717860,"current_range_meters":4800,"station_id":"ce4bhnh2rcd13ifvqgug","pricing_plan_id":"cebpf4jnsgd1na2vs0mg"},{"bike_id":"92a6af25-c13e-41f1-9234-7144ec89b7a9","system_id":"levelo_inurba_marseille","lat":43.23165,"lon":5.40008,"is_reserved":false,"is_disabled":false,"rental_uris":{"android":"levelo://app?vid=92a6af25-c13e-41f1-9234-7144ec89b7a9","ios":"levelo://app?vid=92a6af25-c13e-41f1-9234-7144ec89b7a9"},"vehicle_type_id":"4","last_reported":1747717860,"current_range_meters":5600,"station_id":"ce4bhn12rcd13ifvqgqg","pricing_plan_id":"cebpf4jnsgd1na2vs0mg"},{"bike_id":"e111fb48-6c9b-41ea-aa49-b2df8dd08e29","system_id":"levelo_inurba_marseille","lat":43.26821,"lon":5.40256,"is_reserved":false,"is_disabled":true,"rental_uris":{"android":"levelo://app?vid=e111fb48-6c9b-41ea-aa49-b2df8dd08e29","ios":"levelo://app?vid=e111fb48-6c9b-41ea-aa49-b2df8dd08e29"},"vehicle_type_id":"4","last_reported":1747717860,"current_range_meters":5600,"station_id":"ce501612rcd8frsf0b60","pricing_plan_id":"cebpf4jnsgd1na2vs0mg"},{"bike_id":"e53593f4-ac27-47ae-a13d-1558eb9c48c6","system_id":"levelo_inurba_marseille","lat":43.32045,"lon":5.4155,"is_reserved":false,"is_disabled":false,"rental_uris":{"android":"levelo://app?vid=e53593f4-ac27-47ae-a13d-1558eb9c48c6","ios":"levelo://app?vid=e53593f4-ac27-47ae-a13d-1558eb9c48c6"},"vehicle_type_id":"4","last_reported":1747717860,"current_range_meters":6000,"station_id":"ce4bhq92rcd13ifvqhkg","pricing_plan_id":"cebpf4jnsgd1na2vs0mg"},{"bike_id":"9ae48e25-eddd-4760-b976-a176149d9bad","system_id":"levelo_inurba_marseille","lat":43.28703,"lon":5.37396,"is_reserved":false,"is_disabled":true,"rental_uris":{"android":"levelo://app?vid=9ae48e25-eddd-4760-b976-a176149d9bad","ios":"levelo://app?vid=9ae48e25-eddd-4760-b976-a176149d9bad"},"vehicle_type_id":"4","last_reported":1747717860,"current_range_meters":6000,"station_id":"ce4bh3p2rcd13ifvqdq0","pricing_plan_id":"cebpf4jnsgd1na2vs0mg"},{"bike_id":"0814fc28-7c82-4444-bf57-b7589c01a901","system_id":"levelo_inurba_marseille","lat":43.249985,"lon":5.389426,"is_reserved":false,"is_disabled":false,"rental_uris":{"android":"levelo://app?vid=0814fc28-7c82-4444-bf57-b7589c01a901","ios":"levelo://app?vid=0814fc28-7c82-4444-bf57-b7589c01a901"},"vehicle_type_id":"4","last_reported":1747717860,"current_range_meters":6000,"station_id":"ce4bhgp2rcd13ifvqfd0","pricing_plan_id":"cebpf4jnsgd1na2vs0mg"},{"bike_id":"1f7dea22-24a3-45e9-b0c2-bb2b4d863d65","system_id":"levelo_inurba_marseille","lat":43.231863,"lon":5.39983,"is_reserved":false,"is_disabled":false,"rental_uris":{"android":"levelo://app?vid=1f7dea22-24a3-45e9-b0c2-bb2b4d863d65","ios":"levelo://app?vid=1f7dea22-24a3-45e9-b0c2-bb2b4d863d65"},"vehicle_type_id":"4","last_reported":1747717860,"current_range_meters":6000,"station_id":"ce4bhn12rcd13ifvqgqg","pricing_plan_id":"cebpf4jnsgd1na2vs0mg"},{"bike_id":"f00e4c85-4b74-4b78-914c-e4ecaf8cbdf9","system_id":"levelo_inurba_marseille","lat":43.274982,"lon":5.424578,"is_reserved":false,"is_disabled":false,"rental_uris":{"android":"levelo://app?vid=f00e4c85-4b74-4b78-914c-e4ecaf8cbdf9","ios":"levelo://app?vid=f00e4c85-4b74-4b78-914c-e4ecaf8cbdf9"},"vehicle_type_id":"4","last_reported":1747717860,"current_range_meters":6000,"station_id":"ce4bhn92rcd13ifvqgrg","pricing_plan_id":"cebpf4jnsgd1na2vs0mg"},{"bike_id":"7e57c655-a436-4f6a-b2f3-b4b39d87eb80","system_id":"levelo_inurba_marseille","lat":43.243748,"lon":5.370889,"is_reserved":false,"is_disabled":false,"rental_uris":{"android":"levelo://app?vid=7e57c655-a436-4f6a-b2f3-b4b39d87eb80","ios":"levelo://app?vid=7e57c655-a436-4f6a-b2f3-b4b39d87eb80"},"vehicle_type_id":"4","last_reported":1747717860,"current_range_meters":6400,"station_id":"ce4bhhh2rcd13ifvqfk0","pricing_plan_id":"cebpf4jnsgd1na2vs0mg"},{"bike_id":"cf2e5c45-aac0-4784-a8f5-2a28a2e32c91","system_id":"levelo_inurba_marseille","lat":43.27175,"lon":5.40982,"is_reserved":false,"is_disabled":false,"rental_uris":{"android":"levelo://app?vid=cf2e5c45-aac0-4784-a8f5-2a28a2e32c91","ios":"levelo://app?vid=cf2e5c45-aac0-4784-a8f5-2a28a2e32c91"},"vehicle_type_id":"4","last_reported":1747717860,"current_range_meters":6400,"station_id":"ce4bhl12rcd13ifvqgf0","pricing_plan_id":"cebpf4jnsgd1na2vs0mg"},{"bike_id":"9ca139b4-aea4-45bd-ba34-3886dcd82266","system_id":"levelo_inurba_marseille","lat":43.29236,"lon":5.40893,"is_reserved":false,"is_disabled":false,"rental_uris":{"android":"levelo://app?vid=9ca139b4-aea4-45bd-ba34-3886dcd82266","ios":"levelo://app?vid=9ca139b4-aea4-45bd-ba34-3886dcd82266"},"vehicle_type_id":"4","last_reported":1747717860,"current_range_meters":6400,"station_id":"ce4bh192rcd13ifvqdc0","pricing_plan_id":"cebpf4jnsgd1na2vs0mg"},{"bike_id":"9058608d-adf5-45da-b283-4068c6dc0fe2","system_id":"levelo_inurba_marseille","lat":43.27901,"lon":5.37993,"is_reserved":false,"is_disabled":false,"rental_uris":{"android":"levelo://app?vid=9058608d-adf5-45da-b283-4068c6dc0fe2","ios":"levelo://app?vid=9058608d-adf5-45da-b283-4068c6dc0fe2"},"vehicle_type_id":"4","last_reported":1747717860,"current_range_meters":6400,"station_id":"ce4bhf92rcd13ifvqf50","pricing_plan_id":"cebpf4jnsgd1na2vs0mg"},{"bike_id":"9e19f469-85ed-4588-aee0-093b8e855259","system_id":"levelo_inurba_marseille","lat":43.28419,"lon":5.37522,"is_reserved":false,"is_disabled":false,"rental_uris":{"android":"levelo://app?vid=9e19f469-85ed-4588-aee0-093b8e855259","ios":"levelo://app?vid=9e19f469-85ed-4588-aee0-093b8e855259"},"vehicle_type_id":"4","last_reported":1747717860,"current_range_meters":6800,"station_id":"ce4bh412rcd13ifvqds0","pricing_plan_id":"cebpf4jnsgd1na2vs0mg"},{"bike_id":"5a585b4e-47a9-416c-a173-084754acffd0","system_id":"levelo_inurba_marseille","lat":43.2468,"lon":5.3815,"is_reserved":false,"is_disabled":false,"rental_uris":{"android":"levelo://app?vid=5a585b4e-47a9-416c-a173-084754acffd0","ios":"levelo://app?vid=5a585b4e-47a9-416c-a173-084754acffd0"},"vehicle_type_id":"4","last_reported":1747717860,"current_range_meters":6800,"station_id":"ce4bhih2rcd13ifvqfr0","pricing_plan_id":"cebpf4jnsgd1na2vs0mg"},{"bike_id":"f61eb94e-1e62-4ef6-ad8b-232d3e5c7942","system_id":"levelo_inurba_marseille","lat":43.278159,"lon":5.407272,"is_reserved":false,"is_disabled":false,"rental_uris":{"android":"levelo://app?vid=f61eb94e-1e62-4ef6-ad8b-232d3e5c7942","ios":"levelo://app?vid=f61eb94e-1e62-4ef6-ad8b-232d3e5c7942"},"vehicle_type_id":"4","last_reported":1747717860,"current_range_meters":6800,"station_id":"ce4bhnh2rcd13ifvqgtg","pricing_plan_id":"cebpf4jnsgd1na2vs0mg"},{"bike_id":"814e2930-a412-47af-849d-26da2abc07f6","system_id":"levelo_inurba_marseille","lat":43.278232,"lon":5.407165,"is_reserved":false,"is_disabled":true,"rental_uris":{"android":"levelo://app?vid=814e2930-a412-47af-849d-26da2abc07f6","ios":"levelo://app?vid=814e2930-a412-47af-849d-26da2abc07f6"},"vehicle_type_id":"4","last_reported":1747717860,"current_range_meters":6800,"station_id":"ce4bhnh2rcd13ifvqgtg","pricing_plan_id":"cebpf4jnsgd1na2vs0mg"},{"bike_id":"fdbcb080-de86-408c-b4a8-7300b93393a6","system_id":"levelo_inurba_marseille","lat":43.231864,"lon":5.399963,"is_reserved":false,"is_disabled":false,"rental_uris":{"android":"levelo://app?vid=fdbcb080-de86-408c-b4a8-7300b93393a6","ios":"levelo://app?vid=fdbcb080-de86-408c-b4a8-7300b93393a6"},"vehicle_type_id":"4","last_reported":1747717860,"current_range_meters":7200,"station_id":"ce4bhn12rcd13ifvqgqg","pricing_plan_id":"cebpf4jnsgd1na2vs0mg"},{"bike_id":"71b34e5b-9627-4ecb-8580-7ab8e076d7c9","system_id":"levelo_inurba_marseille","lat":43.31127,"lon":5.37776,"is_reserved":false,"is_disabled":false,"rental_uris":{"android":"levelo://app?vid=71b34e5b-9627-4ecb-8580-7ab8e076d7c9","ios":"levelo://app?vid=71b34e5b-9627-4ecb-8580-7ab8e076d7c9"},"vehicle_type_id":"4","last_reported":1747717860,"current_range_meters":7200,"station_id":"ce4bgt92rcd13ifvqcg0","pricing_plan_id":"cebpf4jnsgd1na2vs0mg"},{"bike_id":"606f724a-1c53-443b-9378-c589b2767e9c","system_id":"levelo_inurba_marseille","lat":43.264849,"lon":5.3955,"is_reserved":false,"is_disabled":false,"rental_uris":{"android":"levelo://app?vid=606f724a-1c53-443b-9378-c589b2767e9c","ios":"levelo://app?vid=606f724a-1c53-443b-9378-c589b2767e9c"},"vehicle_type_id":"4","last_reported":1747717860,"current_range_meters":7200,"station_id":"ce4bhi12rcd13ifvqfq0","pricing_plan_id":"cebpf4jnsgd1na2vs0mg"},{"bike_id":"64366d8d-3020-466a-9cf8-d38ef48e57f9","system_id":"levelo_inurba_marseille","lat":43.25586,"lon":5.3826,"is_reserved":false,"is_disabled":false,"rental_uris":{"android":"levelo://app?vid=64366d8d-3020-466a-9cf8-d38ef48e57f9","ios":"levelo://app?vid=64366d8d-3020-466a-9cf8-d38ef48e57f9"},"vehicle_type_id":"4","last_reported":1747717860,"current_range_meters":7200,"station_id":"ce4bhih2rcd13ifvqfs0","pricing_plan_id":"cebpf4jnsgd1na2vs0mg"},{"bike_id":"dcfd757b-1758-4260-8ed5-1fc5f861d3ee","system_id":"levelo_inurba_marseille","lat":43.2731,"lon":5.39072,"is_reserved":false,"is_disabled":false,"rental_uris":{"android":"levelo://app?vid=dcfd757b-1758-4260-8ed5-1fc5f861d3ee","ios":"levelo://app?vid=dcfd757b-1758-4260-8ed5-1fc5f861d3ee"},"vehicle_type_id":"4","last_reported":1747717860,"current_range_meters":7200,"station_id":"ce4bhgp2rcd13ifvqfe0","pricing_plan_id":"cebpf4jnsgd1na2vs0mg"},{"bike_id":"06e452b4-00bd-4194-8cf0-97e51cbae02e","system_id":"levelo_inurba_marseille","lat":43.231936,"lon":5.399876,"is_reserved":false,"is_disabled":false,"rental_uris":{"android":"levelo://app?vid=06e452b4-00bd-4194-8cf0-97e51cbae02e","ios":"levelo://app?vid=06e452b4-00bd-4194-8cf0-97e51cbae02e"},"vehicle_type_id":"4","last_reported":1747717860,"current_range_meters":8000,"station_id":"ce4bhn12rcd13ifvqgqg","pricing_plan_id":"cebpf4jnsgd1na2vs0mg"},{"bike_id":"1492affc-5f7d-4a41-bc51-a000c24075e6","system_id":"levelo_inurba_marseille","lat":43.302527,"lon":5.400694,"is_reserved":false,"is_disabled":false,"rental_uris":{"android":"levelo://app?vid=1492affc-5f7d-4a41-bc51-a000c24075e6","ios":"levelo://app?vid=1492affc-5f7d-4a41-bc51-a000c24075e6"},"vehicle_type_id":"4","last_reported":1747717860,"current_range_meters":8000,"station_id":"ce4bgvh2rcd13ifvqcs0","pricing_plan_id":"cebpf4jnsgd1na2vs0mg"},{"bike_id":"a283b2fd-ff3f-48d1-abab-7a3c52921152","system_id":"levelo_inurba_marseille","lat":43.281527,"lon":5.426609,"is_reserved":false,"is_disabled":false,"rental_uris":{"android":"levelo://app?vid=a283b2fd-ff3f-48d1-abab-7a3c52921152","ios":"levelo://app?vid=a283b2fd-ff3f-48d1-abab-7a3c52921152"},"vehicle_type_id":"4","last_reported":1747717860,"current_range_meters":8000,"station_id":"ce4bhnh2rcd13ifvqgug","pricing_plan_id":"cebpf4jnsgd1na2vs0mg"},{"bike_id":"ebcb69aa-2ef2-4e46-b306-5216337cda2d","system_id":"levelo_inurba_marseille","lat":43.299777,"lon":5.371807,"is_reserved":false,"is_disabled":false,"rental_uris":{"android":"levelo://app?vid=ebcb69aa-2ef2-4e46-b306-5216337cda2d","ios":"levelo://app?vid=ebcb69aa-2ef2-4e46-b306-5216337cda2d"},"vehicle_type_id":"4","last_reported":1747717860,"current_range_meters":8000,"station_id":"ce4bgr92rcd13ifvqc7g","pricing_plan_id":"cebpf4jnsgd1na2vs0mg"},{"bike_id":"e64e36d1-c3e7-4427-9260-70ac75fa0a1c","system_id":"levelo_inurba_marseille","lat":43.299203,"lon":5.401929,"is_reserved":false,"is_disabled":false,"rental_uris":{"android":"levelo://app?vid=e64e36d1-c3e7-4427-9260-70ac75fa0a1c","ios":"levelo://app?vid=e64e36d1-c3e7-4427-9260-70ac75fa0a1c"},"vehicle_type_id":"4","last_reported":1747717860,"current_range_meters":8000,"station_id":"","pricing_plan_id":"cebpf4jnsgd1na2vs0mg"},{"bike_id":"0ed934a5-f846-4226-a605-82f12f967b47","system_id":"levelo_inurba_marseille","lat":43.25119,"lon":5.403248,"is_reserved":false,"is_disabled":false,"rental_uris":{"android":"levelo://app?vid=0ed934a5-f846-4226-a605-82f12f967b47","ios":"levelo://app?vid=0ed934a5-f846-4226-a605-82f12f967b47"},"vehicle_type_id":"4","last_reported":1747717860,"current_range_meters":8000,"station_id":"ce4bhlh2rcd13ifvqgig","pricing_plan_id":"cebpf4jnsgd1na2vs0mg"},{"bike_id":"20bee342-4a3f-4f34-940d-bb6cf00d52ae","system_id":"levelo_inurba_marseille","lat":43.26652,"lon":5.38613,"is_reserved":false,"is_disabled":false,"rental_uris":{"android":"levelo://app?vid=20bee342-4a3f-4f34-940d-bb6cf00d52ae","ios":"levelo://app?vid=20bee342-4a3f-4f34-940d-bb6cf00d52ae"},"vehicle_type_id":"4","last_reported":1747717860,"current_range_meters":8000,"station_id":"","pricing_plan_id":"cebpf4jnsgd1na2vs0mg"},{"bike_id":"6889e011-c4a7-4b40-b6d7-e1fde3581e3d","system_id":"levelo_inurba_marseille","lat":43.292742,"lon":5.401453,"is_reserved":false,"is_disabled":false,"rental_uris":{"android":"levelo://app?vid=6889e011-c4a7-4b40-b6d7-e1fde3581e3d","ios":"levelo://app?vid=6889e011-c4a7-4b40-b6d7-e1fde3581e3d"},"vehicle_type_id":"4","last_reported":1747717860,"current_range_meters":8000,"station_id":"ce4bh312rcd13ifvqdk0","pricing_plan_id":"cebpf4jnsgd1na2vs0mg"},{"bike_id":"f227df4d-9824-4803-8938-da373e985d05","system_id":"levelo_inurba_marseille","lat":43.261919,"lon":5.374589,"is_reserved":false,"is_disabled":true,"rental_uris":{"android":"levelo://app?vid=f227df4d-9824-4803-8938-da373e985d05","ios":"levelo://app?vid=f227df4d-9824-4803-8938-da373e985d05"},"vehicle_type_id":"4","last_reported":1747717860,"current_range_meters":8000,"station_id":"ce4bhgp2rcd13ifvqfc0","pricing_plan_id":"cebpf4jnsgd1na2vs0mg"},{"bike_id":"ece1ade1-74a1-4510-9756-1459f9cff1be","system_id":"levelo_inurba_marseille","lat":43.22517,"lon":5.34801,"is_reserved":false,"is_disabled":true,"rental_uris":{"android":"levelo://app?vid=ece1ade1-74a1-4510-9756-1459f9cff1be","ios":"levelo://app?vid=ece1ade1-74a1-4510-9756-1459f9cff1be"},"vehicle_type_id":"4","last_reported":1747717860,"current_range_meters":8400,"station_id":"st_cvj5dfep6f1abm77gieg","pricing_plan_id":"cebpf4jnsgd1na2vs0mg"},{"bike_id":"41dae116-84ff-4341-b36c-e7cfa5865e2b","system_id":"levelo_inurba_marseille","lat":43.309254,"lon":5.401649,"is_reserved":false,"is_disabled":false,"rental_uris":{"android":"levelo://app?vid=41dae116-84ff-4341-b36c-e7cfa5865e2b","ios":"levelo://app?vid=41dae116-84ff-4341-b36c-e7cfa5865e2b"},"vehicle_type_id":"4","last_reported":1747717860,"current_range_meters":8400,"station_id":"ce4bgvp2rcd13ifvqct0","pricing_plan_id":"cebpf4jnsgd1na2vs0mg"},{"bike_id":"f748f67e-63a6-4231-857a-d614a764d1c5","system_id":"levelo_inurba_marseille","lat":43.323651,"lon":5.388589,"is_reserved":false,"is_disabled":false,"rental_uris":{"android":"levelo://app?vid=f748f67e-63a6-4231-857a-d614a764d1c5","ios":"levelo://app?vid=f748f67e-63a6-4231-857a-d614a764d1c5"},"vehicle_type_id":"4","last_reported":1747717860,"current_range_meters":8400,"station_id":"","pricing_plan_id":"cebpf4jnsgd1na2vs0mg"},{"bike_id":"ffe6d238-6026-4e0e-a599-949c46ef6d5a","system_id":"levelo_inurba_marseille","lat":43.251166,"lon":5.403318,"is_reserved":false,"is_disabled":false,"rental_uris":{"android":"levelo://app?vid=ffe6d238-6026-4e0e-a599-949c46ef6d5a","ios":"levelo://app?vid=ffe6d238-6026-4e0e-a599-949c46ef6d5a"},"vehicle_type_id":"4","last_reported":1747717860,"current_range_meters":8400,"station_id":"ce4bhlh2rcd13ifvqgig","pricing_plan_id":"cebpf4jnsgd1na2vs0mg"},{"bike_id":"b2a8a085-4afe-4995-b62f-39dc8b761b89","system_id":"levelo_inurba_marseille","lat":43.211928,"lon":5.350759,"is_reserved":false,"is_disabled":false,"rental_uris":{"android":"levelo://app?vid=b2a8a085-4afe-4995-b62f-39dc8b761b89","ios":"levelo://app?vid=b2a8a085-4afe-4995-b62f-39dc8b761b89"},"vehicle_type_id":"4","last_reported":1747717860,"current_range_meters":8400,"station_id":"st_cvj6sg6p6f1abm77japg","pricing_plan_id":"cebpf4jnsgd1na2vs0mg"},{"bike_id":"21ea8fd1-7094-4cf9-b12a-80bc90604330","system_id":"levelo_inurba_marseille","lat":43.29253,"lon":5.376301,"is_reserved":false,"is_disabled":true,"rental_uris":{"android":"levelo://app?vid=21ea8fd1-7094-4cf9-b12a-80bc90604330","ios":"levelo://app?vid=21ea8fd1-7094-4cf9-b12a-80bc90604330"},"vehicle_type_id":"4","last_reported":1747717860,"current_range_meters":8400,"station_id":"ce4bgi12rcd13ifvqb80","pricing_plan_id":"cebpf4jnsgd1na2vs0mg"},{"bike_id":"1562e712-dfff-4fb6-a90a-e3524ac5d767","system_id":"levelo_inurba_marseille","lat":43.261925,"lon":5.374691,"is_reserved":false,"is_disabled":true,"rental_uris":{"android":"levelo://app?vid=1562e712-dfff-4fb6-a90a-e3524ac5d767","ios":"levelo://app?vid=1562e712-dfff-4fb6-a90a-e3524ac5d767"},"vehicle_type_id":"4","last_reported":1747717860,"current_range_meters":8400,"station_id":"ce4bhgp2rcd13ifvqfc0","pricing_plan_id":"cebpf4jnsgd1na2vs0mg"},{"bike_id":"67abd4ca-2cde-4910-b9ac-9f166a4696ae","system_id":"levelo_inurba_marseille","lat":43.28092,"lon":5.39648,"is_reserved":false,"is_disabled":false,"rental_uris":{"android":"levelo://app?vid=67abd4ca-2cde-4910-b9ac-9f166a4696ae","ios":"levelo://app?vid=67abd4ca-2cde-4910-b9ac-9f166a4696ae"},"vehicle_type_id":"4","last_reported":1747717860,"current_range_meters":8400,"station_id":"ce4bho12rcd13ifvqh2g","pricing_plan_id":"cebpf4jnsgd1na2vs0mg"},{"bike_id":"3fdeef47-b532-4e82-b7eb-ca3f0554a6e9","system_id":"levelo_inurba_marseille","lat":43.266898,"lon":5.382976,"is_reserved":false,"is_disabled":true,"rental_uris":{"android":"levelo://app?vid=3fdeef47-b532-4e82-b7eb-ca3f0554a6e9","ios":"levelo://app?vid=3fdeef47-b532-4e82-b7eb-ca3f0554a6e9"},"vehicle_type_id":"4","last_reported":1747717860,"current_range_meters":8800,"station_id":"ce4bhg92rcd13ifvqf90","pricing_plan_id":"cebpf4jnsgd1na2vs0mg"},{"bike_id":"8f0f531d-6a65-4647-8a6f-baa3d982f42f","system_id":"levelo_inurba_marseille","lat":43.28097,"lon":5.42573,"is_reserved":false,"is_disabled":false,"rental_uris":{"android":"levelo://app?vid=8f0f531d-6a65-4647-8a6f-baa3d982f42f","ios":"levelo://app?vid=8f0f531d-6a65-4647-8a6f-baa3d982f42f"},"vehicle_type_id":"4","last_reported":1747717860,"current_range_meters":8800,"station_id":"","pricing_plan_id":"cebpf4jnsgd1na2vs0mg"},{"bike_id":"bcbdbd69-7be8-42f8-a855-a4358565de8f","system_id":"levelo_inurba_marseille","lat":43.2772,"lon":5.41399,"is_reserved":false,"is_disabled":false,"rental_uris":{"android":"levelo://app?vid=bcbdbd69-7be8-42f8-a855-a4358565de8f","ios":"levelo://app?vid=bcbdbd69-7be8-42f8-a855-a4358565de8f"},"vehicle_type_id":"4","last_reported":1747717860,"current_range_meters":8800,"station_id":"","pricing_plan_id":"cebpf4jnsgd1na2vs0mg"},{"bike_id":"0bee8310-e3c6-4566-aecb-00d86829bb71","system_id":"levelo_inurba_marseille","lat":43.281508,"lon":5.42654,"is_reserved":false,"is_disabled":false,"rental_uris":{"android":"levelo://app?vid=0bee8310-e3c6-4566-aecb-00d86829bb71","ios":"levelo://app?vid=0bee8310-e3c6-4566-aecb-00d86829bb71"},"vehicle_type_id":"4","last_reported":1747717860,"current_range_meters":8800,"station_id":"ce4bhnh2rcd13ifvqgug","pricing_plan_id":"cebpf4jnsgd1na2vs0mg"},{"bike_id":"42acf94d-5999-40a3-ad8f-9eda9b980b02","system_id":"levelo_inurba_marseille","lat":43.31759,"lon":5.39038,"is_reserved":false,"is_disabled":false,"rental_uris":{"android":"levelo://app?vid=42acf94d-5999-40a3-ad8f-9eda9b980b02","ios":"levelo://app?vid=42acf94d-5999-40a3-ad8f-9eda9b980b02"},"vehicle_type_id":"4","last_reported":1747717860,"current_range_meters":8800,"station_id":"ce4bhqp2rcd13ifvqhng","pricing_plan_id":"cebpf4jnsgd1na2vs0mg"},{"bike_id":"f3845397-11cf-4eb8-a5a1-edc4116ff2ea","system_id":"levelo_inurba_marseille","lat":43.243969,"lon":5.370676,"is_reserved":false,"is_disabled":false,"rental_uris":{"android":"levelo://app?vid=f3845397-11cf-4eb8-a5a1-edc4116ff2ea","ios":"levelo://app?vid=f3845397-11cf-4eb8-a5a1-edc4116ff2ea"},"vehicle_type_id":"4","last_reported":1747717860,"current_range_meters":8800,"station_id":"ce4bhhh2rcd13ifvqfk0","pricing_plan_id":"cebpf4jnsgd1na2vs0mg"},{"bike_id":"46b8d967-5e1d-4884-8a0b-5ddff9a90472","system_id":"levelo_inurba_marseille","lat":43.33026,"lon":5.4385,"is_reserved":false,"is_disabled":false,"rental_uris":{"android":"levelo://app?vid=46b8d967-5e1d-4884-8a0b-5ddff9a90472","ios":"levelo://app?vid=46b8d967-5e1d-4884-8a0b-5ddff9a90472"},"vehicle_type_id":"4","last_reported":1747717860,"current_range_meters":8800,"station_id":"","pricing_plan_id":"cebpf4jnsgd1na2vs0mg"},{"bike_id":"ae92f61d-1120-4f68-9f8d-d0db94492c15","system_id":"levelo_inurba_marseille","lat":43.27197,"lon":5.40981,"is_reserved":false,"is_disabled":false,"rental_uris":{"android":"levelo://app?vid=ae92f61d-1120-4f68-9f8d-d0db94492c15","ios":"levelo://app?vid=ae92f61d-1120-4f68-9f8d-d0db94492c15"},"vehicle_type_id":"4","last_reported":1747717860,"current_range_meters":8800,"station_id":"ce4bhl12rcd13ifvqgf0","pricing_plan_id":"cebpf4jnsgd1na2vs0mg"},{"bike_id":"b5df4361-8fa9-4b8b-b1ad-cea9da2f893d","system_id":"levelo_inurba_marseille","lat":43.25106,"lon":5.40326,"is_reserved":false,"is_disabled":false,"rental_uris":{"android":"levelo://app?vid=b5df4361-8fa9-4b8b-b1ad-cea9da2f893d","ios":"levelo://app?vid=b5df4361-8fa9-4b8b-b1ad-cea9da2f893d"},"vehicle_type_id":"4","last_reported":1747717860,"current_range_meters":8800,"station_id":"ce4bhlh2rcd13ifvqgig","pricing_plan_id":"cebpf4jnsgd1na2vs0mg"},{"bike_id":"da010972-4ccc-41eb-af96-8bb9af3dbf4b","system_id":"levelo_inurba_marseille","lat":43.287058,"lon":5.399824,"is_reserved":false,"is_disabled":false,"rental_uris":{"android":"levelo://app?vid=da010972-4ccc-41eb-af96-8bb9af3dbf4b","ios":"levelo://app?vid=da010972-4ccc-41eb-af96-8bb9af3dbf4b"},"vehicle_type_id":"4","last_reported":1747717860,"current_range_meters":8800,"station_id":"ce4bho92rcd13ifvqh3g","pricing_plan_id":"cebpf4jnsgd1na2vs0mg"},{"bike_id":"82b7f009-bd5b-4d9b-a74a-f4d218e30cc4","system_id":"levelo_inurba_marseille","lat":43.292783,"lon":5.401503,"is_reserved":false,"is_disabled":false,"rental_uris":{"android":"levelo://app?vid=82b7f009-bd5b-4d9b-a74a-f4d218e30cc4","ios":"levelo://app?vid=82b7f009-bd5b-4d9b-a74a-f4d218e30cc4"},"vehicle_type_id":"4","last_reported":1747717860,"current_range_meters":9200,"station_id":"ce4bh312rcd13ifvqdk0","pricing_plan_id":"cebpf4jnsgd1na2vs0mg"},{"bike_id":"7ddabab5-fb9d-431e-bb65-ee4d4e122759","system_id":"levelo_inurba_marseille","lat":43.281499,"lon":5.426608,"is_reserved":false,"is_disabled":false,"rental_uris":{"android":"levelo://app?vid=7ddabab5-fb9d-431e-bb65-ee4d4e122759","ios":"levelo://app?vid=7ddabab5-fb9d-431e-bb65-ee4d4e122759"},"vehicle_type_id":"4","last_reported":1747717860,"current_range_meters":9200,"station_id":"ce4bhnh2rcd13ifvqgug","pricing_plan_id":"cebpf4jnsgd1na2vs0mg"},{"bike_id":"a5bcf3ab-5daa-4dec-898b-27b2e944e103","system_id":"levelo_inurba_marseille","lat":43.27277,"lon":5.41101,"is_reserved":false,"is_disabled":false,"rental_uris":{"android":"levelo://app?vid=a5bcf3ab-5daa-4dec-898b-27b2e944e103","ios":"levelo://app?vid=a5bcf3ab-5daa-4dec-898b-27b2e944e103"},"vehicle_type_id":"4","last_reported":1747717860,"current_range_meters":9200,"station_id":"","pricing_plan_id":"cebpf4jnsgd1na2vs0mg"},{"bike_id":"68944906-2bed-4069-92e3-fb4361342be4","system_id":"levelo_inurba_marseille","lat":43.290938,"lon":5.381417,"is_reserved":false,"is_disabled":true,"rental_uris":{"android":"levelo://app?vid=68944906-2bed-4069-92e3-fb4361342be4","ios":"levelo://app?vid=68944906-2bed-4069-92e3-fb4361342be4"},"vehicle_type_id":"4","last_reported":1747717860,"current_range_meters":9200,"station_id":"ce4bh512rcd13ifvqe2g","pricing_plan_id":"cebpf4jnsgd1na2vs0mg"},{"bike_id":"85eaca89-9437-48d0-9bca-a254337b88db","system_id":"levelo_inurba_marseille","lat":43.2746,"lon":5.41014,"is_reserved":false,"is_disabled":false,"rental_uris":{"android":"levelo://app?vid=85eaca89-9437-48d0-9bca-a254337b88db","ios":"levelo://app?vid=85eaca89-9437-48d0-9bca-a254337b88db"},"vehicle_type_id":"4","last_reported":1747717860,"current_range_meters":9200,"station_id":"","pricing_plan_id":"cebpf4jnsgd1na2vs0mg"},{"bike_id":"bf0f734e-7db4-4909-bee4-1c076f1b6d92","system_id":"levelo_inurba_marseille","lat":43.281548,"lon":5.426627,"is_reserved":false,"is_disabled":false,"rental_uris":{"android":"levelo://app?vid=bf0f734e-7db4-4909-bee4-1c076f1b6d92","ios":"levelo://app?vid=bf0f734e-7db4-4909-bee4-1c076f1b6d92"},"vehicle_type_id":"4","last_reported":1747717860,"current_range_meters":9200,"station_id":"ce4bhnh2rcd13ifvqgug","pricing_plan_id":"cebpf4jnsgd1na2vs0mg"},{"bike_id":"b7818455-a4e2-4ee4-9041-cdaccd7dec78","system_id":"levelo_inurba_marseille","lat":43.31479,"lon":5.37311,"is_reserved":false,"is_disabled":false,"rental_uris":{"android":"levelo://app?vid=b7818455-a4e2-4ee4-9041-cdaccd7dec78","ios":"levelo://app?vid=b7818455-a4e2-4ee4-9041-cdaccd7dec78"},"vehicle_type_id":"4","last_reported":1747717860,"current_range_meters":9200,"station_id":"ce4bgt12rcd13ifvqcd0","pricing_plan_id":"cebpf4jnsgd1na2vs0mg"},{"bike_id":"89e75d22-2829-4276-bd50-349663c80965","system_id":"levelo_inurba_marseille","lat":43.25105,"lon":5.40347,"is_reserved":false,"is_disabled":false,"rental_uris":{"android":"levelo://app?vid=89e75d22-2829-4276-bd50-349663c80965","ios":"levelo://app?vid=89e75d22-2829-4276-bd50-349663c80965"},"vehicle_type_id":"4","last_reported":1747717860,"current_range_meters":9200,"station_id":"ce4bhlh2rcd13ifvqgig","pricing_plan_id":"cebpf4jnsgd1na2vs0mg"},{"bike_id":"60393716-8180-42eb-a367-cc5098e8bc92","system_id":"levelo_inurba_marseille","lat":43.27964,"lon":5.40063,"is_reserved":false,"is_disabled":false,"rental_uris":{"android":"levelo://app?vid=60393716-8180-42eb-a367-cc5098e8bc92","ios":"levelo://app?vid=60393716-8180-42eb-a367-cc5098e8bc92"},"vehicle_type_id":"4","last_reported":1747717860,"current_range_meters":9200,"station_id":"","pricing_plan_id":"cebpf4jnsgd1na2vs0mg"},{"bike_id":"b69e9525-f9fe-475a-a8d8-418ab1b45f8d","system_id":"levelo_inurba_marseille","lat":43.287261,"lon":5.360749,"is_reserved":false,"is_disabled":false,"rental_uris":{"android":"levelo://app?vid=b69e9525-f9fe-475a-a8d8-418ab1b45f8d","ios":"levelo://app?vid=b69e9525-f9fe-475a-a8d8-418ab1b45f8d"},"vehicle_type_id":"4","last_reported":1747717860,"current_range_meters":9200,"station_id":"cki0cbj6b192h4jlfktg","pricing_plan_id":"cebpf4jnsgd1na2vs0mg"},{"bike_id":"e0391685-f930-423c-9e14-b2af3a4e59b5","system_id":"levelo_inurba_marseille","lat":43.23188,"lon":5.399904,"is_reserved":false,"is_disabled":false,"rental_uris":{"android":"levelo://app?vid=e0391685-f930-423c-9e14-b2af3a4e59b5","ios":"levelo://app?vid=e0391685-f930-423c-9e14-b2af3a4e59b5"},"vehicle_type_id":"4","last_reported":1747717860,"current_range_meters":9200,"station_id":"ce4bhn12rcd13ifvqgqg","pricing_plan_id":"cebpf4jnsgd1na2vs0mg"},{"bike_id":"c076ad54-d589-4eeb-ac51-e1376a33ec39","system_id":"levelo_inurba_marseille","lat":43.29547,"lon":5.42295,"is_reserved":false,"is_disabled":false,"rental_uris":{"android":"levelo://app?vid=c076ad54-d589-4eeb-ac51-e1376a33ec39","ios":"levelo://app?vid=c076ad54-d589-4eeb-ac51-e1376a33ec39"},"vehicle_type_id":"4","last_reported":1747717860,"current_range_meters":9200,"station_id":"ce4bhph2rcd13ifvqhdg","pricing_plan_id":"cebpf4jnsgd1na2vs0mg"},{"bike_id":"dbf8222a-eea0-42f0-80c2-a4791ac4ed58","system_id":"levelo_inurba_marseille","lat":43.25011,"lon":5.38931,"is_reserved":false,"is_disabled":false,"rental_uris":{"android":"levelo://app?vid=dbf8222a-eea0-42f0-80c2-a4791ac4ed58","ios":"levelo://app?vid=dbf8222a-eea0-42f0-80c2-a4791ac4ed58"},"vehicle_type_id":"4","last_reported":1747717860,"current_range_meters":9600,"station_id":"ce4bhgp2rcd13ifvqfd0","pricing_plan_id":"cebpf4jnsgd1na2vs0mg"},{"bike_id":"572c97ee-0da0-4be5-a2ce-28eff65f3ef1","system_id":"levelo_inurba_marseille","lat":43.337608,"lon":5.374721,"is_reserved":false,"is_disabled":false,"rental_uris":{"android":"levelo://app?vid=572c97ee-0da0-4be5-a2ce-28eff65f3ef1","ios":"levelo://app?vid=572c97ee-0da0-4be5-a2ce-28eff65f3ef1"},"vehicle_type_id":"4","last_reported":1747717860,"current_range_meters":9600,"station_id":"","pricing_plan_id":"cebpf4jnsgd1na2vs0mg"},{"bike_id":"8d91a467-443b-401e-bb33-c6f87a96e75a","system_id":"levelo_inurba_marseille","lat":43.29515,"lon":5.37503,"is_reserved":false,"is_disabled":true,"rental_uris":{"android":"levelo://app?vid=8d91a467-443b-401e-bb33-c6f87a96e75a","ios":"levelo://app?vid=8d91a467-443b-401e-bb33-c6f87a96e75a"},"vehicle_type_id":"4","last_reported":1747717860,"current_range_meters":9600,"station_id":"ce4bgkp2rcd13ifvqbmg","pricing_plan_id":"cebpf4jnsgd1na2vs0mg"},{"bike_id":"40d5f946-42f0-423c-82a6-7cd8e3c0679d","system_id":"levelo_inurba_marseille","lat":43.28405,"lon":5.37505,"is_reserved":false,"is_disabled":false,"rental_uris":{"android":"levelo://app?vid=40d5f946-42f0-423c-82a6-7cd8e3c0679d","ios":"levelo://app?vid=40d5f946-42f0-423c-82a6-7cd8e3c0679d"},"vehicle_type_id":"4","last_reported":1747717860,"current_range_meters":9600,"station_id":"ce4bh412rcd13ifvqds0","pricing_plan_id":"cebpf4jnsgd1na2vs0mg"},{"bike_id":"05c63458-b601-4e4e-ab26-7a54ca437048","system_id":"levelo_inurba_marseille","lat":43.29557,"lon":5.42284,"is_reserved":false,"is_disabled":false,"rental_uris":{"android":"levelo://app?vid=05c63458-b601-4e4e-ab26-7a54ca437048","ios":"levelo://app?vid=05c63458-b601-4e4e-ab26-7a54ca437048"},"vehicle_type_id":"4","last_reported":1747717860,"current_range_meters":9600,"station_id":"ce4bhph2rcd13ifvqhdg","pricing_plan_id":"cebpf4jnsgd1na2vs0mg"},{"bike_id":"870c685e-5967-4798-97cb-476b1794b9e1","system_id":"levelo_inurba_marseille","lat":43.302556,"lon":5.400629,"is_reserved":false,"is_disabled":false,"rental_uris":{"android":"levelo://app?vid=870c685e-5967-4798-97cb-476b1794b9e1","ios":"levelo://app?vid=870c685e-5967-4798-97cb-476b1794b9e1"},"vehicle_type_id":"4","last_reported":1747717860,"current_range_meters":9600,"station_id":"ce4bgvh2rcd13ifvqcs0","pricing_plan_id":"cebpf4jnsgd1na2vs0mg"},{"bike_id":"27e2e700-c978-4d72-8e0b-9608485d555f","system_id":"levelo_inurba_marseille","lat":43.24079,"lon":5.377539,"is_reserved":false,"is_disabled":false,"rental_uris":{"android":"levelo://app?vid=27e2e700-c978-4d72-8e0b-9608485d555f","ios":"levelo://app?vid=27e2e700-c978-4d72-8e0b-9608485d555f"},"vehicle_type_id":"4","last_reported":1747717860,"current_range_meters":10000,"station_id":"ce4bhnp2rcd13ifvqgvg","pricing_plan_id":"cebpf4jnsgd1na2vs0mg"},{"bike_id":"f9b3996d-2c0f-497b-a2fb-c22c787feca1","system_id":"levelo_inurba_marseille","lat":43.28098,"lon":5.40195,"is_reserved":false,"is_disabled":false,"rental_uris":{"android":"levelo://app?vid=f9b3996d-2c0f-497b-a2fb-c22c787feca1","ios":"levelo://app?vid=f9b3996d-2c0f-497b-a2fb-c22c787feca1"},"vehicle_type_id":"4","last_reported":1747717860,"current_range_meters":10000,"station_id":"","pricing_plan_id":"cebpf4jnsgd1na2vs0mg"},{"bike_id":"7b4ebcee-a823-442f-a8fb-bd9eabc7a6ed","system_id":"levelo_inurba_marseille","lat":43.250966,"lon":5.388339,"is_reserved":false,"is_disabled":false,"rental_uris":{"android":"levelo://app?vid=7b4ebcee-a823-442f-a8fb-bd9eabc7a6ed","ios":"levelo://app?vid=7b4ebcee-a823-442f-a8fb-bd9eabc7a6ed"},"vehicle_type_id":"4","last_reported":1747717860,"current_range_meters":10000,"station_id":"","pricing_plan_id":"cebpf4jnsgd1na2vs0mg"},{"bike_id":"4b4ec30a-5019-4306-ad90-2b94bab06dcd","system_id":"levelo_inurba_marseille","lat":43.300679,"lon":5.365754,"is_reserved":false,"is_disabled":true,"rental_uris":{"android":"levelo://app?vid=4b4ec30a-5019-4306-ad90-2b94bab06dcd","ios":"levelo://app?vid=4b4ec30a-5019-4306-ad90-2b94bab06dcd"},"vehicle_type_id":"4","last_reported":1747717860,"current_range_meters":10000,"station_id":"","pricing_plan_id":"cebpf4jnsgd1na2vs0mg"},{"bike_id":"f8911316-ecb6-4253-8bdc-b8e77174a78c","system_id":"levelo_inurba_marseille","lat":43.286986,"lon":5.373927,"is_reserved":false,"is_disabled":false,"rental_uris":{"android":"levelo://app?vid=f8911316-ecb6-4253-8bdc-b8e77174a78c","ios":"levelo://app?vid=f8911316-ecb6-4253-8bdc-b8e77174a78c"},"vehicle_type_id":"4","last_reported":1747717860,"current_range_meters":10000,"station_id":"ce4bh3p2rcd13ifvqdq0","pricing_plan_id":"cebpf4jnsgd1na2vs0mg"},{"bike_id":"08129706-0840-4cc7-a7e9-4dbc2d7407ba","system_id":"levelo_inurba_marseille","lat":43.23191,"lon":5.39984,"is_reserved":false,"is_disabled":false,"rental_uris":{"android":"levelo://app?vid=08129706-0840-4cc7-a7e9-4dbc2d7407ba","ios":"levelo://app?vid=08129706-0840-4cc7-a7e9-4dbc2d7407ba"},"vehicle_type_id":"4","last_reported":1747717860,"current_range_meters":10000,"station_id":"ce4bhn12rcd13ifvqgqg","pricing_plan_id":"cebpf4jnsgd1na2vs0mg"},{"bike_id":"4be0c667-10fb-4d0d-a527-4a1530a211d3","system_id":"levelo_inurba_marseille","lat":43.31501,"lon":5.37295,"is_reserved":false,"is_disabled":false,"rental_uris":{"android":"levelo://app?vid=4be0c667-10fb-4d0d-a527-4a1530a211d3","ios":"levelo://app?vid=4be0c667-10fb-4d0d-a527-4a1530a211d3"},"vehicle_type_id":"4","last_reported":1747717860,"current_range_meters":10000,"station_id":"ce4bgt12rcd13ifvqcd0","pricing_plan_id":"cebpf4jnsgd1na2vs0mg"},{"bike_id":"a9bed2ee-23b7-4708-b05e-86f24507f78f","system_id":"levelo_inurba_marseille","lat":43.265471,"lon":5.373111,"is_reserved":false,"is_disabled":false,"rental_uris":{"android":"levelo://app?vid=a9bed2ee-23b7-4708-b05e-86f24507f78f","ios":"levelo://app?vid=a9bed2ee-23b7-4708-b05e-86f24507f78f"},"vehicle_type_id":"4","last_reported":1747717860,"current_range_meters":10000,"station_id":"ce4bhg12rcd13ifvqf70","pricing_plan_id":"cebpf4jnsgd1na2vs0mg"},{"bike_id":"0091b09f-c2be-4c12-9467-47f26996591d","system_id":"levelo_inurba_marseille","lat":43.30458,"lon":5.37904,"is_reserved":false,"is_disabled":false,"rental_uris":{"android":"levelo://app?vid=0091b09f-c2be-4c12-9467-47f26996591d","ios":"levelo://app?vid=0091b09f-c2be-4c12-9467-47f26996591d"},"vehicle_type_id":"4","last_reported":1747717860,"current_range_meters":10000,"station_id":"ce4bgup2rcd13ifvqcn0","pricing_plan_id":"cebpf4jnsgd1na2vs0mg"},{"bike_id":"52a39732-f389-4238-8320-12a8ecb43bc9","system_id":"levelo_inurba_marseille","lat":43.33751,"lon":5.37471,"is_reserved":false,"is_disabled":false,"rental_uris":{"android":"levelo://app?vid=52a39732-f389-4238-8320-12a8ecb43bc9","ios":"levelo://app?vid=52a39732-f389-4238-8320-12a8ecb43bc9"},"vehicle_type_id":"4","last_reported":1747717860,"current_range_meters":10000,"station_id":"","pricing_plan_id":"cebpf4jnsgd1na2vs0mg"},{"bike_id":"02fc1184-206c-48c4-a5e6-80d0158ace74","system_id":"levelo_inurba_marseille","lat":43.30306,"lon":5.369086,"is_reserved":false,"is_disabled":true,"rental_uris":{"android":"levelo://app?vid=02fc1184-206c-48c4-a5e6-80d0158ace74","ios":"levelo://app?vid=02fc1184-206c-48c4-a5e6-80d0158ace74"},"vehicle_type_id":"4","last_reported":1747717860,"current_range_meters":10800,"station_id":"ce4bgqh2rcd13ifvqc5g","pricing_plan_id":"cebpf4jnsgd1na2vs0mg"},{"bike_id":"0767dbbf-ed3c-4904-92d7-716004b3e1f9","system_id":"levelo_inurba_marseille","lat":43.255744,"lon":5.382336,"is_reserved":false,"is_disabled":true,"rental_uris":{"android":"levelo://app?vid=0767dbbf-ed3c-4904-92d7-716004b3e1f9","ios":"levelo://app?vid=0767dbbf-ed3c-4904-92d7-716004b3e1f9"},"vehicle_type_id":"4","last_reported":1747717860,"current_range_meters":10800,"station_id":"ce4bhih2rcd13ifvqfs0","pricing_plan_id":"cebpf4jnsgd1na2vs0mg"},{"bike_id":"bffbaf88-357a-4e87-a68c-a9a27a6e01e6","system_id":"levelo_inurba_marseille","lat":43.262304,"lon":5.421354,"is_reserved":false,"is_disabled":false,"rental_uris":{"android":"levelo://app?vid=bffbaf88-357a-4e87-a68c-a9a27a6e01e6","ios":"levelo://app?vid=bffbaf88-357a-4e87-a68c-a9a27a6e01e6"},"vehicle_type_id":"4","last_reported":1747717860,"current_range_meters":10800,"station_id":"","pricing_plan_id":"cebpf4jnsgd1na2vs0mg"},{"bike_id":"a824fbd1-e4ac-448d-8615-1ee649070018","system_id":"levelo_inurba_marseille","lat":43.286098,"lon":5.370659,"is_reserved":false,"is_disabled":false,"rental_uris":{"android":"levelo://app?vid=a824fbd1-e4ac-448d-8615-1ee649070018","ios":"levelo://app?vid=a824fbd1-e4ac-448d-8615-1ee649070018"},"vehicle_type_id":"4","last_reported":1747717860,"current_range_meters":10800,"station_id":"ce4bht12rcd13ifvqi60","pricing_plan_id":"cebpf4jnsgd1na2vs0mg"},{"bike_id":"d39cae16-34b5-4b82-8fc6-cac28c889070","system_id":"levelo_inurba_marseille","lat":43.29443,"lon":5.38607,"is_reserved":false,"is_disabled":true,"rental_uris":{"android":"levelo://app?vid=d39cae16-34b5-4b82-8fc6-cac28c889070","ios":"levelo://app?vid=d39cae16-34b5-4b82-8fc6-cac28c889070"},"vehicle_type_id":"4","last_reported":1747717860,"current_range_meters":10800,"station_id":"ce4bh2h2rcd13ifvqdh0","pricing_plan_id":"cebpf4jnsgd1na2vs0mg"},{"bike_id":"204d1b88-2cc3-469d-bac1-db71361fd818","system_id":"levelo_inurba_marseille","lat":43.290195,"lon":5.38639,"is_reserved":false,"is_disabled":true,"rental_uris":{"android":"levelo://app?vid=204d1b88-2cc3-469d-bac1-db71361fd818","ios":"levelo://app?vid=204d1b88-2cc3-469d-bac1-db71361fd818"},"vehicle_type_id":"4","last_reported":1747717860,"current_range_meters":10800,"station_id":"ce4bh4p2rcd13ifvqe0g","pricing_plan_id":"cebpf4jnsgd1na2vs0mg"},{"bike_id":"45301c01-b041-4bcf-8043-cc735fe4d258","system_id":"levelo_inurba_marseille","lat":43.287154,"lon":5.39977,"is_reserved":false,"is_disabled":false,"rental_uris":{"android":"levelo://app?vid=45301c01-b041-4bcf-8043-cc735fe4d258","ios":"levelo://app?vid=45301c01-b041-4bcf-8043-cc735fe4d258"},"vehicle_type_id":"4","last_reported":1747717860,"current_range_meters":10800,"station_id":"ce4bho92rcd13ifvqh3g","pricing_plan_id":"cebpf4jnsgd1na2vs0mg"},{"bike_id":"598900bc-cc96-46f3-b8f9-32958f862dd5","system_id":"levelo_inurba_marseille","lat":43.30399,"lon":5.36784,"is_reserved":false,"is_disabled":false,"rental_uris":{"android":"levelo://app?vid=598900bc-cc96-46f3-b8f9-32958f862dd5","ios":"levelo://app?vid=598900bc-cc96-46f3-b8f9-32958f862dd5"},"vehicle_type_id":"4","last_reported":1747717860,"current_range_meters":11200,"station_id":"","pricing_plan_id":"cebpf4jnsgd1na2vs0mg"},{"bike_id":"a5069c23-eea7-40f4-9d9a-11b963aa48ad","system_id":"levelo_inurba_marseille","lat":43.2318,"lon":5.39985,"is_reserved":false,"is_disabled":false,"rental_uris":{"android":"levelo://app?vid=a5069c23-eea7-40f4-9d9a-11b963aa48ad","ios":"levelo://app?vid=a5069c23-eea7-40f4-9d9a-11b963aa48ad"},"vehicle_type_id":"4","last_reported":1747717860,"current_range_meters":11200,"station_id":"ce4bhn12rcd13ifvqgqg","pricing_plan_id":"cebpf4jnsgd1na2vs0mg"},{"bike_id":"f6dec522-dffe-4246-a51c-e4a759e3c14e","system_id":"levelo_inurba_marseille","lat":43.307759,"lon":5.376494,"is_reserved":false,"is_disabled":false,"rental_uris":{"android":"levelo://app?vid=f6dec522-dffe-4246-a51c-e4a759e3c14e","ios":"levelo://app?vid=f6dec522-dffe-4246-a51c-e4a759e3c14e"},"vehicle_type_id":"4","last_reported":1747717860,"current_range_meters":11200,"station_id":"ce4bgv92rcd13ifvqcq0","pricing_plan_id":"cebpf4jnsgd1na2vs0mg"},{"bike_id":"17327be2-c418-4d27-835d-14cf9f268a47","system_id":"levelo_inurba_marseille","lat":43.28934,"lon":5.36403,"is_reserved":false,"is_disabled":false,"rental_uris":{"android":"levelo://app?vid=17327be2-c418-4d27-835d-14cf9f268a47","ios":"levelo://app?vid=17327be2-c418-4d27-835d-14cf9f268a47"},"vehicle_type_id":"4","last_reported":1747717860,"current_range_meters":11200,"station_id":"ce4bhc92rcd13ifvqetg","pricing_plan_id":"cebpf4jnsgd1na2vs0mg"},{"bike_id":"b7cb1705-6b5a-49c6-8905-4f8177d4379a","system_id":"levelo_inurba_marseille","lat":43.23191,"lon":5.40015,"is_reserved":false,"is_disabled":false,"rental_uris":{"android":"levelo://app?vid=b7cb1705-6b5a-49c6-8905-4f8177d4379a","ios":"levelo://app?vid=b7cb1705-6b5a-49c6-8905-4f8177d4379a"},"vehicle_type_id":"4","last_reported":1747717860,"current_range_meters":11600,"station_id":"ce4bhn12rcd13ifvqgqg","pricing_plan_id":"cebpf4jnsgd1na2vs0mg"},{"bike_id":"363e9216-b958-47f9-991c-1c8209edd2c4","system_id":"levelo_inurba_marseille","lat":43.24682,"lon":5.3819,"is_reserved":false,"is_disabled":false,"rental_uris":{"android":"levelo://app?vid=363e9216-b958-47f9-991c-1c8209edd2c4","ios":"levelo://app?vid=363e9216-b958-47f9-991c-1c8209edd2c4"},"vehicle_type_id":"4","last_reported":1747717860,"current_range_meters":11600,"station_id":"ce4bhih2rcd13ifvqfr0","pricing_plan_id":"cebpf4jnsgd1na2vs0mg"},{"bike_id":"f9bd452a-300d-4454-890a-c716cf8ab1c5","system_id":"levelo_inurba_marseille","lat":43.25007,"lon":5.389394,"is_reserved":false,"is_disabled":false,"rental_uris":{"android":"levelo://app?vid=f9bd452a-300d-4454-890a-c716cf8ab1c5","ios":"levelo://app?vid=f9bd452a-300d-4454-890a-c716cf8ab1c5"},"vehicle_type_id":"4","last_reported":1747717860,"current_range_meters":11600,"station_id":"ce4bhgp2rcd13ifvqfd0","pricing_plan_id":"cebpf4jnsgd1na2vs0mg"},{"bike_id":"bca5fcbc-3c53-4bb3-9196-4ebb9a210b53","system_id":"levelo_inurba_marseille","lat":43.240729,"lon":5.377571,"is_reserved":false,"is_disabled":false,"rental_uris":{"android":"levelo://app?vid=bca5fcbc-3c53-4bb3-9196-4ebb9a210b53","ios":"levelo://app?vid=bca5fcbc-3c53-4bb3-9196-4ebb9a210b53"},"vehicle_type_id":"4","last_reported":1747717860,"current_range_meters":11600,"station_id":"ce4bhnp2rcd13ifvqgvg","pricing_plan_id":"cebpf4jnsgd1na2vs0mg"},{"bike_id":"fbeecaa8-3e92-4008-9973-c1794a6565a3","system_id":"levelo_inurba_marseille","lat":43.301452,"lon":5.374142,"is_reserved":false,"is_disabled":false,"rental_uris":{"android":"levelo://app?vid=fbeecaa8-3e92-4008-9973-c1794a6565a3","ios":"levelo://app?vid=fbeecaa8-3e92-4008-9973-c1794a6565a3"},"vehicle_type_id":"4","last_reported":1747717860,"current_range_meters":12000,"station_id":"","pricing_plan_id":"cebpf4jnsgd1na2vs0mg"},{"bike_id":"aab7d1e3-5abb-4aa2-a248-da2489d22e99","system_id":"levelo_inurba_marseille","lat":43.298694,"lon":5.389074,"is_reserved":false,"is_disabled":true,"rental_uris":{"android":"levelo://app?vid=aab7d1e3-5abb-4aa2-a248-da2489d22e99","ios":"levelo://app?vid=aab7d1e3-5abb-4aa2-a248-da2489d22e99"},"vehicle_type_id":"4","last_reported":1747717860,"current_range_meters":12000,"station_id":"ce4bh392rcd13ifvqdl0","pricing_plan_id":"cebpf4jnsgd1na2vs0mg"},{"bike_id":"98804e99-9bed-4363-a5ff-1489de79ae3d","system_id":"levelo_inurba_marseille","lat":43.281558,"lon":5.42636,"is_reserved":false,"is_disabled":true,"rental_uris":{"android":"levelo://app?vid=98804e99-9bed-4363-a5ff-1489de79ae3d","ios":"levelo://app?vid=98804e99-9bed-4363-a5ff-1489de79ae3d"},"vehicle_type_id":"4","last_reported":1747717860,"current_range_meters":12000,"station_id":"ce4bhnh2rcd13ifvqgug","pricing_plan_id":"cebpf4jnsgd1na2vs0mg"},{"bike_id":"184a7879-daca-44b6-873d-e1c7c604e329","system_id":"levelo_inurba_marseille","lat":43.3051,"lon":5.37902,"is_reserved":false,"is_disabled":true,"rental_uris":{"android":"levelo://app?vid=184a7879-daca-44b6-873d-e1c7c604e329","ios":"levelo://app?vid=184a7879-daca-44b6-873d-e1c7c604e329"},"vehicle_type_id":"4","last_reported":1747717860,"current_range_meters":12000,"station_id":"","pricing_plan_id":"cebpf4jnsgd1na2vs0mg"},{"bike_id":"da3205cd-df05-4a76-a08e-10bf4b39b88e","system_id":"levelo_inurba_marseille","lat":43.291959,"lon":5.393312,"is_reserved":false,"is_disabled":false,"rental_uris":{"android":"levelo://app?vid=da3205cd-df05-4a76-a08e-10bf4b39b88e","ios":"levelo://app?vid=da3205cd-df05-4a76-a08e-10bf4b39b88e"},"vehicle_type_id":"4","last_reported":1747717860,"current_range_meters":12400,"station_id":"ce4bh192rcd13ifvqdd0","pricing_plan_id":"cebpf4jnsgd1na2vs0mg"},{"bike_id":"58edc354-c183-4da4-b527-1ba0f2d395e0","system_id":"levelo_inurba_marseille","lat":43.27679,"lon":5.35757,"is_reserved":false,"is_disabled":false,"rental_uris":{"android":"levelo://app?vid=58edc354-c183-4da4-b527-1ba0f2d395e0","ios":"levelo://app?vid=58edc354-c183-4da4-b527-1ba0f2d395e0"},"vehicle_type_id":"4","last_reported":1747717860,"current_range_meters":12400,"station_id":"","pricing_plan_id":"cebpf4jnsgd1na2vs0mg"},{"bike_id":"0f9d6bdf-1d4f-466e-aa63-557c75d3adc2","system_id":"levelo_inurba_marseille","lat":43.280326,"lon":5.369409,"is_reserved":false,"is_disabled":false,"rental_uris":{"android":"levelo://app?vid=0f9d6bdf-1d4f-466e-aa63-557c75d3adc2","ios":"levelo://app?vid=0f9d6bdf-1d4f-466e-aa63-557c75d3adc2"},"vehicle_type_id":"4","last_reported":1747717860,"current_range_meters":12400,"station_id":"ce4bha12rcd13ifvqef0","pricing_plan_id":"cebpf4jnsgd1na2vs0mg"},{"bike_id":"e8162579-a5ad-485f-ad83-fec8a2ebe7e1","system_id":"levelo_inurba_marseille","lat":43.26826,"lon":5.39099,"is_reserved":false,"is_disabled":false,"rental_uris":{"android":"levelo://app?vid=e8162579-a5ad-485f-ad83-fec8a2ebe7e1","ios":"levelo://app?vid=e8162579-a5ad-485f-ad83-fec8a2ebe7e1"},"vehicle_type_id":"4","last_reported":1747717860,"current_range_meters":12400,"station_id":"","pricing_plan_id":"cebpf4jnsgd1na2vs0mg"},{"bike_id":"33e5cbd5-31c8-4fa0-9d70-cf685e1c2a15","system_id":"levelo_inurba_marseille","lat":43.25137,"lon":5.40325,"is_reserved":false,"is_disabled":false,"rental_uris":{"android":"levelo://app?vid=33e5cbd5-31c8-4fa0-9d70-cf685e1c2a15","ios":"levelo://app?vid=33e5cbd5-31c8-4fa0-9d70-cf685e1c2a15"},"vehicle_type_id":"4","last_reported":1747717860,"current_range_meters":12400,"station_id":"ce4bhlh2rcd13ifvqgig","pricing_plan_id":"cebpf4jnsgd1na2vs0mg"},{"bike_id":"d3331e4c-dc86-44d6-88ba-cf30e9c6a126","system_id":"levelo_inurba_marseille","lat":43.31215,"lon":5.36849,"is_reserved":false,"is_disabled":false,"rental_uris":{"android":"levelo://app?vid=d3331e4c-dc86-44d6-88ba-cf30e9c6a126","ios":"levelo://app?vid=d3331e4c-dc86-44d6-88ba-cf30e9c6a126"},"vehicle_type_id":"4","last_reported":1747717860,"current_range_meters":12400,"station_id":"ce4bgl92rcd13ifvqbq0","pricing_plan_id":"cebpf4jnsgd1na2vs0mg"},{"bike_id":"28c554a5-7272-45ce-9456-c02948158cfa","system_id":"levelo_inurba_marseille","lat":43.29038,"lon":5.39952,"is_reserved":false,"is_disabled":false,"rental_uris":{"android":"levelo://app?vid=28c554a5-7272-45ce-9456-c02948158cfa","ios":"levelo://app?vid=28c554a5-7272-45ce-9456-c02948158cfa"},"vehicle_type_id":"4","last_reported":1747717860,"current_range_meters":12400,"station_id":"ce4bh392rcd13ifvqdm0","pricing_plan_id":"cebpf4jnsgd1na2vs0mg"},{"bike_id":"59b8a132-4666-485c-b6ad-3e889f0d9322","system_id":"levelo_inurba_marseille","lat":43.255025,"lon":5.376456,"is_reserved":false,"is_disabled":false,"rental_uris":{"android":"levelo://app?vid=59b8a132-4666-485c-b6ad-3e889f0d9322","ios":"levelo://app?vid=59b8a132-4666-485c-b6ad-3e889f0d9322"},"vehicle_type_id":"4","last_reported":1747717860,"current_range_meters":12400,"station_id":"ce4bhh12rcd13ifvqff0","pricing_plan_id":"cebpf4jnsgd1na2vs0mg"},{"bike_id":"7ddd82f2-75df-464b-8c03-766d7fbb61de","system_id":"levelo_inurba_marseille","lat":43.29244,"lon":5.40906,"is_reserved":false,"is_disabled":false,"rental_uris":{"android":"levelo://app?vid=7ddd82f2-75df-464b-8c03-766d7fbb61de","ios":"levelo://app?vid=7ddd82f2-75df-464b-8c03-766d7fbb61de"},"vehicle_type_id":"4","last_reported":1747717860,"current_range_meters":12800,"station_id":"ce4bh192rcd13ifvqdc0","pricing_plan_id":"cebpf4jnsgd1na2vs0mg"},{"bike_id":"44930bc1-7cab-4e93-8091-3674d95b371a","system_id":"levelo_inurba_marseille","lat":43.31066,"lon":5.38353,"is_reserved":false,"is_disabled":false,"rental_uris":{"android":"levelo://app?vid=44930bc1-7cab-4e93-8091-3674d95b371a","ios":"levelo://app?vid=44930bc1-7cab-4e93-8091-3674d95b371a"},"vehicle_type_id":"4","last_reported":1747717860,"current_range_meters":12800,"station_id":"ce4bgv92rcd13ifvqcr0","pricing_plan_id":"cebpf4jnsgd1na2vs0mg"},{"bike_id":"b9fb0e08-545e-4b0f-b827-7ec1b0d84fae","system_id":"levelo_inurba_marseille","lat":43.29443,"lon":5.39757,"is_reserved":false,"is_disabled":false,"rental_uris":{"android":"levelo://app?vid=b9fb0e08-545e-4b0f-b827-7ec1b0d84fae","ios":"levelo://app?vid=b9fb0e08-545e-4b0f-b827-7ec1b0d84fae"},"vehicle_type_id":"4","last_reported":1747717860,"current_range_meters":13600,"station_id":"ce4bh3h2rcd13ifvqdo0","pricing_plan_id":"cebpf4jnsgd1na2vs0mg"},{"bike_id":"bb4b53fc-45b4-4e64-ac38-5876b2228a2c","system_id":"levelo_inurba_marseille","lat":43.28716,"lon":5.36097,"is_reserved":false,"is_disabled":false,"rental_uris":{"android":"levelo://app?vid=bb4b53fc-45b4-4e64-ac38-5876b2228a2c","ios":"levelo://app?vid=bb4b53fc-45b4-4e64-ac38-5876b2228a2c"},"vehicle_type_id":"4","last_reported":1747717860,"current_range_meters":13600,"station_id":"cki0cbj6b192h4jlfktg","pricing_plan_id":"cebpf4jnsgd1na2vs0mg"},{"bike_id":"e2e3a6f6-0f08-4185-b27b-75bc9500a96d","system_id":"levelo_inurba_marseille","lat":43.211873,"lon":5.35081,"is_reserved":false,"is_disabled":false,"rental_uris":{"android":"levelo://app?vid=e2e3a6f6-0f08-4185-b27b-75bc9500a96d","ios":"levelo://app?vid=e2e3a6f6-0f08-4185-b27b-75bc9500a96d"},"vehicle_type_id":"4","last_reported":1747717860,"current_range_meters":13600,"station_id":"st_cvj6sg6p6f1abm77japg","pricing_plan_id":"cebpf4jnsgd1na2vs0mg"},{"bike_id":"f7474435-f8d2-4143-bbcd-6ab773bd9583","system_id":"levelo_inurba_marseille","lat":43.308,"lon":5.381711,"is_reserved":false,"is_disabled":false,"rental_uris":{"android":"levelo://app?vid=f7474435-f8d2-4143-bbcd-6ab773bd9583","ios":"levelo://app?vid=f7474435-f8d2-4143-bbcd-6ab773bd9583"},"vehicle_type_id":"4","last_reported":1747717860,"current_range_meters":13600,"station_id":"ce4bgt12rcd13ifvqce0","pricing_plan_id":"cebpf4jnsgd1na2vs0mg"},{"bike_id":"ce4d1ffa-876e-4dab-b1eb-9b411a2a1967","system_id":"levelo_inurba_marseille","lat":43.278124,"lon":5.407349,"is_reserved":false,"is_disabled":false,"rental_uris":{"android":"levelo://app?vid=ce4d1ffa-876e-4dab-b1eb-9b411a2a1967","ios":"levelo://app?vid=ce4d1ffa-876e-4dab-b1eb-9b411a2a1967"},"vehicle_type_id":"4","last_reported":1747717860,"current_range_meters":13600,"station_id":"ce4bhnh2rcd13ifvqgtg","pricing_plan_id":"cebpf4jnsgd1na2vs0mg"},{"bike_id":"0f5e51c5-c8d7-47f5-8b06-dfdcf1c9042a","system_id":"levelo_inurba_marseille","lat":43.29767,"lon":5.39329,"is_reserved":false,"is_disabled":false,"rental_uris":{"android":"levelo://app?vid=0f5e51c5-c8d7-47f5-8b06-dfdcf1c9042a","ios":"levelo://app?vid=0f5e51c5-c8d7-47f5-8b06-dfdcf1c9042a"},"vehicle_type_id":"4","last_reported":1747717860,"current_range_meters":13600,"station_id":"chh1huq6cuj3fo74tm60","pricing_plan_id":"cebpf4jnsgd1na2vs0mg"},{"bike_id":"2aeaf632-8f44-4284-bf3b-9782c3bf4f04","system_id":"levelo_inurba_marseille","lat":43.27217,"lon":5.40991,"is_reserved":false,"is_disabled":false,"rental_uris":{"android":"levelo://app?vid=2aeaf632-8f44-4284-bf3b-9782c3bf4f04","ios":"levelo://app?vid=2aeaf632-8f44-4284-bf3b-9782c3bf4f04"},"vehicle_type_id":"4","last_reported":1747717860,"current_range_meters":14000,"station_id":"ce4bhl12rcd13ifvqgf0","pricing_plan_id":"cebpf4jnsgd1na2vs0mg"},{"bike_id":"fc4abf58-1635-4dd7-aeaa-046974ab6166","system_id":"levelo_inurba_marseille","lat":43.24991,"lon":5.38942,"is_reserved":false,"is_disabled":false,"rental_uris":{"android":"levelo://app?vid=fc4abf58-1635-4dd7-aeaa-046974ab6166","ios":"levelo://app?vid=fc4abf58-1635-4dd7-aeaa-046974ab6166"},"vehicle_type_id":"4","last_reported":1747717860,"current_range_meters":14000,"station_id":"ce4bhgp2rcd13ifvqfd0","pricing_plan_id":"cebpf4jnsgd1na2vs0mg"},{"bike_id":"3552fbf2-b43a-446f-93f5-d695fc251b73","system_id":"levelo_inurba_marseille","lat":43.251674,"lon":5.375218,"is_reserved":false,"is_disabled":false,"rental_uris":{"android":"levelo://app?vid=3552fbf2-b43a-446f-93f5-d695fc251b73","ios":"levelo://app?vid=3552fbf2-b43a-446f-93f5-d695fc251b73"},"vehicle_type_id":"4","last_reported":1747717860,"current_range_meters":14000,"station_id":"","pricing_plan_id":"cebpf4jnsgd1na2vs0mg"},{"bike_id":"c3c11b11-8507-45b4-bd48-1e3bdd46fbbe","system_id":"levelo_inurba_marseille","lat":43.23168,"lon":5.39989,"is_reserved":false,"is_disabled":false,"rental_uris":{"android":"levelo://app?vid=c3c11b11-8507-45b4-bd48-1e3bdd46fbbe","ios":"levelo://app?vid=c3c11b11-8507-45b4-bd48-1e3bdd46fbbe"},"vehicle_type_id":"4","last_reported":1747717860,"current_range_meters":14000,"station_id":"ce4bhn12rcd13ifvqgqg","pricing_plan_id":"cebpf4jnsgd1na2vs0mg"},{"bike_id":"971fc3c8-e765-452e-a7f2-ed2f1afcaaa3","system_id":"levelo_inurba_marseille","lat":43.31121,"lon":5.37788,"is_reserved":false,"is_disabled":false,"rental_uris":{"android":"levelo://app?vid=971fc3c8-e765-452e-a7f2-ed2f1afcaaa3","ios":"levelo://app?vid=971fc3c8-e765-452e-a7f2-ed2f1afcaaa3"},"vehicle_type_id":"4","last_reported":1747717860,"current_range_meters":14400,"station_id":"ce4bgt92rcd13ifvqcg0","pricing_plan_id":"cebpf4jnsgd1na2vs0mg"},{"bike_id":"b4092363-ce05-481e-b8a5-74f257327df5","system_id":"levelo_inurba_marseille","lat":43.250869,"lon":5.395242,"is_reserved":false,"is_disabled":false,"rental_uris":{"android":"levelo://app?vid=b4092363-ce05-481e-b8a5-74f257327df5","ios":"levelo://app?vid=b4092363-ce05-481e-b8a5-74f257327df5"},"vehicle_type_id":"4","last_reported":1747717860,"current_range_meters":14400,"station_id":"ce4bhm12rcd13ifvqgkg","pricing_plan_id":"cebpf4jnsgd1na2vs0mg"},{"bike_id":"33790735-6b85-4edc-981e-75cfd415e29a","system_id":"levelo_inurba_marseille","lat":43.30125,"lon":5.387873,"is_reserved":false,"is_disabled":true,"rental_uris":{"android":"levelo://app?vid=33790735-6b85-4edc-981e-75cfd415e29a","ios":"levelo://app?vid=33790735-6b85-4edc-981e-75cfd415e29a"},"vehicle_type_id":"4","last_reported":1747717860,"current_range_meters":14400,"station_id":"ce4bghh2rcd13ifvqb60","pricing_plan_id":"cebpf4jnsgd1na2vs0mg"},{"bike_id":"6386b301-5c5b-41dc-9be6-064d845d26a2","system_id":"levelo_inurba_marseille","lat":43.28609,"lon":5.40677,"is_reserved":false,"is_disabled":false,"rental_uris":{"android":"levelo://app?vid=6386b301-5c5b-41dc-9be6-064d845d26a2","ios":"levelo://app?vid=6386b301-5c5b-41dc-9be6-064d845d26a2"},"vehicle_type_id":"4","last_reported":1747717860,"current_range_meters":14400,"station_id":"","pricing_plan_id":"cebpf4jnsgd1na2vs0mg"},{"bike_id":"185ccfd4-2307-4269-8343-9f69a9c912b2","system_id":"levelo_inurba_marseille","lat":43.317549,"lon":5.390279,"is_reserved":false,"is_disabled":false,"rental_uris":{"android":"levelo://app?vid=185ccfd4-2307-4269-8343-9f69a9c912b2","ios":"levelo://app?vid=185ccfd4-2307-4269-8343-9f69a9c912b2"},"vehicle_type_id":"4","last_reported":1747717860,"current_range_meters":14400,"station_id":"ce4bhqp2rcd13ifvqhng","pricing_plan_id":"cebpf4jnsgd1na2vs0mg"},{"bike_id":"116ee6de-5d7e-4a40-80f6-c5e3f47d2eb6","system_id":"levelo_inurba_marseille","lat":43.304158,"lon":5.412898,"is_reserved":false,"is_disabled":false,"rental_uris":{"android":"levelo://app?vid=116ee6de-5d7e-4a40-80f6-c5e3f47d2eb6","ios":"levelo://app?vid=116ee6de-5d7e-4a40-80f6-c5e3f47d2eb6"},"vehicle_type_id":"4","last_reported":1747717860,"current_range_meters":14800,"station_id":"ce4bhop2rcd13ifvqh8g","pricing_plan_id":"cebpf4jnsgd1na2vs0mg"},{"bike_id":"901d18ec-442b-4311-be09-c99faa5dda47","system_id":"levelo_inurba_marseille","lat":43.299851,"lon":5.371796,"is_reserved":false,"is_disabled":true,"rental_uris":{"android":"levelo://app?vid=901d18ec-442b-4311-be09-c99faa5dda47","ios":"levelo://app?vid=901d18ec-442b-4311-be09-c99faa5dda47"},"vehicle_type_id":"4","last_reported":1747717860,"current_range_meters":14800,"station_id":"ce4bgr92rcd13ifvqc7g","pricing_plan_id":"cebpf4jnsgd1na2vs0mg"},{"bike_id":"08ea18f2-dc53-4ee0-8fd1-93801ba6e874","system_id":"levelo_inurba_marseille","lat":43.310735,"lon":5.383624,"is_reserved":false,"is_disabled":false,"rental_uris":{"android":"levelo://app?vid=08ea18f2-dc53-4ee0-8fd1-93801ba6e874","ios":"levelo://app?vid=08ea18f2-dc53-4ee0-8fd1-93801ba6e874"},"vehicle_type_id":"4","last_reported":1747717860,"current_range_meters":14800,"station_id":"ce4bgv92rcd13ifvqcr0","pricing_plan_id":"cebpf4jnsgd1na2vs0mg"},{"bike_id":"92821e98-ca5f-417b-a927-33d6183a33fb","system_id":"levelo_inurba_marseille","lat":43.309325,"lon":5.401495,"is_reserved":false,"is_disabled":false,"rental_uris":{"android":"levelo://app?vid=92821e98-ca5f-417b-a927-33d6183a33fb","ios":"levelo://app?vid=92821e98-ca5f-417b-a927-33d6183a33fb"},"vehicle_type_id":"4","last_reported":1747717860,"current_range_meters":14800,"station_id":"ce4bgvp2rcd13ifvqct0","pricing_plan_id":"cebpf4jnsgd1na2vs0mg"},{"bike_id":"75dee7d2-0f48-4cd8-b326-0e219910beed","system_id":"levelo_inurba_marseille","lat":43.307978,"lon":5.435284,"is_reserved":false,"is_disabled":false,"rental_uris":{"android":"levelo://app?vid=75dee7d2-0f48-4cd8-b326-0e219910beed","ios":"levelo://app?vid=75dee7d2-0f48-4cd8-b326-0e219910beed"},"vehicle_type_id":"4","last_reported":1747717860,"current_range_meters":14800,"station_id":"ce4bhph2rcd13ifvqheg","pricing_plan_id":"cebpf4jnsgd1na2vs0mg"},{"bike_id":"ef24fb0c-db74-4c0c-8c90-5cf92ab0b471","system_id":"levelo_inurba_marseille","lat":43.29255,"lon":5.40904,"is_reserved":false,"is_disabled":false,"rental_uris":{"android":"levelo://app?vid=ef24fb0c-db74-4c0c-8c90-5cf92ab0b471","ios":"levelo://app?vid=ef24fb0c-db74-4c0c-8c90-5cf92ab0b471"},"vehicle_type_id":"4","last_reported":1747717860,"current_range_meters":15200,"station_id":"ce4bh192rcd13ifvqdc0","pricing_plan_id":"cebpf4jnsgd1na2vs0mg"},{"bike_id":"88092a5f-6797-40bf-8e4d-17450765a42b","system_id":"levelo_inurba_marseille","lat":43.29529,"lon":5.39402,"is_reserved":false,"is_disabled":false,"rental_uris":{"android":"levelo://app?vid=88092a5f-6797-40bf-8e4d-17450765a42b","ios":"levelo://app?vid=88092a5f-6797-40bf-8e4d-17450765a42b"},"vehicle_type_id":"4","last_reported":1747717860,"current_range_meters":15200,"station_id":"ce4bh292rcd13ifvqdf0","pricing_plan_id":"cebpf4jnsgd1na2vs0mg"},{"bike_id":"a5f241f5-5f56-4773-b4f4-368dd15e3cca","system_id":"levelo_inurba_marseille","lat":43.32358,"lon":5.38892,"is_reserved":false,"is_disabled":false,"rental_uris":{"android":"levelo://app?vid=a5f241f5-5f56-4773-b4f4-368dd15e3cca","ios":"levelo://app?vid=a5f241f5-5f56-4773-b4f4-368dd15e3cca"},"vehicle_type_id":"4","last_reported":1747717860,"current_range_meters":15200,"station_id":"ce4bhqp2rcd13ifvqhog","pricing_plan_id":"cebpf4jnsgd1na2vs0mg"},{"bike_id":"2360e01b-c52d-4f5a-9885-8dcf40588104","system_id":"levelo_inurba_marseille","lat":43.292476,"lon":5.409104,"is_reserved":false,"is_disabled":false,"rental_uris":{"android":"levelo://app?vid=2360e01b-c52d-4f5a-9885-8dcf40588104","ios":"levelo://app?vid=2360e01b-c52d-4f5a-9885-8dcf40588104"},"vehicle_type_id":"4","last_reported":1747717860,"current_range_meters":15200,"station_id":"ce4bh192rcd13ifvqdc0","pricing_plan_id":"cebpf4jnsgd1na2vs0mg"},{"bike_id":"0c75e290-2f49-4428-9202-02a35670787a","system_id":"levelo_inurba_marseille","lat":43.23185,"lon":5.39984,"is_reserved":false,"is_disabled":false,"rental_uris":{"android":"levelo://app?vid=0c75e290-2f49-4428-9202-02a35670787a","ios":"levelo://app?vid=0c75e290-2f49-4428-9202-02a35670787a"},"vehicle_type_id":"4","last_reported":1747717860,"current_range_meters":15200,"station_id":"ce4bhn12rcd13ifvqgqg","pricing_plan_id":"cebpf4jnsgd1na2vs0mg"},{"bike_id":"52e5a0fd-9a82-4a4a-8f0b-b92665327644","system_id":"levelo_inurba_marseille","lat":43.30786,"lon":5.4354,"is_reserved":false,"is_disabled":false,"rental_uris":{"android":"levelo://app?vid=52e5a0fd-9a82-4a4a-8f0b-b92665327644","ios":"levelo://app?vid=52e5a0fd-9a82-4a4a-8f0b-b92665327644"},"vehicle_type_id":"4","last_reported":1747717860,"current_range_meters":15200,"station_id":"ce4bhph2rcd13ifvqheg","pricing_plan_id":"cebpf4jnsgd1na2vs0mg"},{"bike_id":"c2fca73b-e9e1-4897-bc96-315e3aac4c6c","system_id":"levelo_inurba_marseille","lat":43.25869,"lon":5.39897,"is_reserved":false,"is_disabled":false,"rental_uris":{"android":"levelo://app?vid=c2fca73b-e9e1-4897-bc96-315e3aac4c6c","ios":"levelo://app?vid=c2fca73b-e9e1-4897-bc96-315e3aac4c6c"},"vehicle_type_id":"4","last_reported":1747717860,"current_range_meters":15200,"station_id":"ce4bhl92rcd13ifvqghg","pricing_plan_id":"cebpf4jnsgd1na2vs0mg"},{"bike_id":"8da7c00b-5199-431e-9e81-0f430be4a158","system_id":"levelo_inurba_marseille","lat":43.3017,"lon":5.38066,"is_reserved":false,"is_disabled":false,"rental_uris":{"android":"levelo://app?vid=8da7c00b-5199-431e-9e81-0f430be4a158","ios":"levelo://app?vid=8da7c00b-5199-431e-9e81-0f430be4a158"},"vehicle_type_id":"4","last_reported":1747717860,"current_range_meters":16000,"station_id":"ce4bgjp2rcd13ifvqbh0","pricing_plan_id":"cebpf4jnsgd1na2vs0mg"},{"bike_id":"71817c77-e9f1-483d-89c1-16ca77de3122","system_id":"levelo_inurba_marseille","lat":43.250945,"lon":5.3953,"is_reserved":false,"is_disabled":false,"rental_uris":{"android":"levelo://app?vid=71817c77-e9f1-483d-89c1-16ca77de3122","ios":"levelo://app?vid=71817c77-e9f1-483d-89c1-16ca77de3122"},"vehicle_type_id":"4","last_reported":1747717860,"current_range_meters":16000,"station_id":"ce4bhm12rcd13ifvqgkg","pricing_plan_id":"cebpf4jnsgd1na2vs0mg"},{"bike_id":"a77299a9-0afc-4000-817b-f97ca1eaadca","system_id":"levelo_inurba_marseille","lat":43.288214,"lon":5.459544,"is_reserved":false,"is_disabled":false,"rental_uris":{"android":"levelo://app?vid=a77299a9-0afc-4000-817b-f97ca1eaadca","ios":"levelo://app?vid=a77299a9-0afc-4000-817b-f97ca1eaadca"},"vehicle_type_id":"4","last_reported":1747717860,"current_range_meters":16000,"station_id":"","pricing_plan_id":"cebpf4jnsgd1na2vs0mg"},{"bike_id":"2fec4f99-c08b-4324-9991-e52c3316729a","system_id":"levelo_inurba_marseille","lat":43.309293,"lon":5.401634,"is_reserved":false,"is_disabled":false,"rental_uris":{"android":"levelo://app?vid=2fec4f99-c08b-4324-9991-e52c3316729a","ios":"levelo://app?vid=2fec4f99-c08b-4324-9991-e52c3316729a"},"vehicle_type_id":"4","last_reported":1747717860,"current_range_meters":16000,"station_id":"ce4bgvp2rcd13ifvqct0","pricing_plan_id":"cebpf4jnsgd1na2vs0mg"},{"bike_id":"b209cd27-532c-40f1-a5bf-f25f6c308ae9","system_id":"levelo_inurba_marseille","lat":43.288568,"lon":5.393224,"is_reserved":false,"is_disabled":true,"rental_uris":{"android":"levelo://app?vid=b209cd27-532c-40f1-a5bf-f25f6c308ae9","ios":"levelo://app?vid=b209cd27-532c-40f1-a5bf-f25f6c308ae9"},"vehicle_type_id":"4","last_reported":1747717860,"current_range_meters":16000,"station_id":"ce4bh2p2rcd13ifvqdi0","pricing_plan_id":"cebpf4jnsgd1na2vs0mg"},{"bike_id":"e1d57822-ecc8-4c43-b3f2-6f5adecafb55","system_id":"levelo_inurba_marseille","lat":43.25082,"lon":5.39515,"is_reserved":false,"is_disabled":false,"rental_uris":{"android":"levelo://app?vid=e1d57822-ecc8-4c43-b3f2-6f5adecafb55","ios":"levelo://app?vid=e1d57822-ecc8-4c43-b3f2-6f5adecafb55"},"vehicle_type_id":"4","last_reported":1747717860,"current_range_meters":16000,"station_id":"ce4bhm12rcd13ifvqgkg","pricing_plan_id":"cebpf4jnsgd1na2vs0mg"},{"bike_id":"3db1d010-48a6-49be-97c6-2133fb8ee162","system_id":"levelo_inurba_marseille","lat":43.29962,"lon":5.38524,"is_reserved":false,"is_disabled":true,"rental_uris":{"android":"levelo://app?vid=3db1d010-48a6-49be-97c6-2133fb8ee162","ios":"levelo://app?vid=3db1d010-48a6-49be-97c6-2133fb8ee162"},"vehicle_type_id":"4","last_reported":1747717860,"current_range_meters":16000,"station_id":"ce4bgj92rcd13ifvqbd0","pricing_plan_id":"cebpf4jnsgd1na2vs0mg"},{"bike_id":"dc80936a-51b4-4ef9-b71e-e259b58f2ac3","system_id":"levelo_inurba_marseille","lat":43.231917,"lon":5.399949,"is_reserved":false,"is_disabled":false,"rental_uris":{"android":"levelo://app?vid=dc80936a-51b4-4ef9-b71e-e259b58f2ac3","ios":"levelo://app?vid=dc80936a-51b4-4ef9-b71e-e259b58f2ac3"},"vehicle_type_id":"4","last_reported":1747717860,"current_range_meters":16000,"station_id":"ce4bhn12rcd13ifvqgqg","pricing_plan_id":"cebpf4jnsgd1na2vs0mg"},{"bike_id":"77ae2670-5f4a-4f82-a74a-99848315064b","system_id":"levelo_inurba_marseille","lat":43.303133,"lon":5.404454,"is_reserved":false,"is_disabled":true,"rental_uris":{"android":"levelo://app?vid=77ae2670-5f4a-4f82-a74a-99848315064b","ios":"levelo://app?vid=77ae2670-5f4a-4f82-a74a-99848315064b"},"vehicle_type_id":"4","last_reported":1747717860,"current_range_meters":16000,"station_id":"ce4bh012rcd13ifvqd10","pricing_plan_id":"cebpf4jnsgd1na2vs0mg"},{"bike_id":"42cce372-3d36-4197-a55b-bf6adec344a3","system_id":"levelo_inurba_marseille","lat":43.30254,"lon":5.40088,"is_reserved":false,"is_disabled":false,"rental_uris":{"android":"levelo://app?vid=42cce372-3d36-4197-a55b-bf6adec344a3","ios":"levelo://app?vid=42cce372-3d36-4197-a55b-bf6adec344a3"},"vehicle_type_id":"4","last_reported":1747717860,"current_range_meters":16000,"station_id":"ce4bgvh2rcd13ifvqcs0","pricing_plan_id":"cebpf4jnsgd1na2vs0mg"},{"bike_id":"bfadeaec-216b-47d1-99b4-74d81f9ee763","system_id":"levelo_inurba_marseille","lat":43.321071,"lon":5.367865,"is_reserved":false,"is_disabled":false,"rental_uris":{"android":"levelo://app?vid=bfadeaec-216b-47d1-99b4-74d81f9ee763","ios":"levelo://app?vid=bfadeaec-216b-47d1-99b4-74d81f9ee763"},"vehicle_type_id":"4","last_reported":1747717860,"current_range_meters":16000,"station_id":"ce4bhrh2rcd13ifvqhug","pricing_plan_id":"cebpf4jnsgd1na2vs0mg"},{"bike_id":"7e053555-9d33-4a74-9b33-70ec85fc4206","system_id":"levelo_inurba_marseille","lat":43.303089,"lon":5.369139,"is_reserved":false,"is_disabled":false,"rental_uris":{"android":"levelo://app?vid=7e053555-9d33-4a74-9b33-70ec85fc4206","ios":"levelo://app?vid=7e053555-9d33-4a74-9b33-70ec85fc4206"},"vehicle_type_id":"4","last_reported":1747717860,"current_range_meters":16000,"station_id":"ce4bgqh2rcd13ifvqc5g","pricing_plan_id":"cebpf4jnsgd1na2vs0mg"},{"bike_id":"283403a0-596c-4a94-85e1-66d88d547369","system_id":"levelo_inurba_marseille","lat":43.29256,"lon":5.409,"is_reserved":false,"is_disabled":false,"rental_uris":{"android":"levelo://app?vid=283403a0-596c-4a94-85e1-66d88d547369","ios":"levelo://app?vid=283403a0-596c-4a94-85e1-66d88d547369"},"vehicle_type_id":"4","last_reported":1747717860,"current_range_meters":16400,"station_id":"ce4bh192rcd13ifvqdc0","pricing_plan_id":"cebpf4jnsgd1na2vs0mg"},{"bike_id":"96806db4-e850-4c29-beae-3920eff38299","system_id":"levelo_inurba_marseille","lat":43.29252,"lon":5.37639,"is_reserved":false,"is_disabled":true,"rental_uris":{"android":"levelo://app?vid=96806db4-e850-4c29-beae-3920eff38299","ios":"levelo://app?vid=96806db4-e850-4c29-beae-3920eff38299"},"vehicle_type_id":"4","last_reported":1747717860,"current_range_meters":16400,"station_id":"ce4bgi12rcd13ifvqb80","pricing_plan_id":"cebpf4jnsgd1na2vs0mg"},{"bike_id":"17008679-5b7b-4904-b0a5-a1a99ad3c945","system_id":"levelo_inurba_marseille","lat":43.29529,"lon":5.37515,"is_reserved":false,"is_disabled":true,"rental_uris":{"android":"levelo://app?vid=17008679-5b7b-4904-b0a5-a1a99ad3c945","ios":"levelo://app?vid=17008679-5b7b-4904-b0a5-a1a99ad3c945"},"vehicle_type_id":"4","last_reported":1747717860,"current_range_meters":16400,"station_id":"ce4bgkp2rcd13ifvqbmg","pricing_plan_id":"cebpf4jnsgd1na2vs0mg"},{"bike_id":"13496c9d-084c-4404-8560-fcb5e8f95d31","system_id":"levelo_inurba_marseille","lat":43.29297,"lon":5.37442,"is_reserved":false,"is_disabled":false,"rental_uris":{"android":"levelo://app?vid=13496c9d-084c-4404-8560-fcb5e8f95d31","ios":"levelo://app?vid=13496c9d-084c-4404-8560-fcb5e8f95d31"},"vehicle_type_id":"4","last_reported":1747717860,"current_range_meters":16400,"station_id":"ce4bgi12rcd13ifvqb70","pricing_plan_id":"cebpf4jnsgd1na2vs0mg"},{"bike_id":"3592927e-bdbe-4e67-99a2-1ba7f5aedb0d","system_id":"levelo_inurba_marseille","lat":43.292759,"lon":5.401249,"is_reserved":false,"is_disabled":false,"rental_uris":{"android":"levelo://app?vid=3592927e-bdbe-4e67-99a2-1ba7f5aedb0d","ios":"levelo://app?vid=3592927e-bdbe-4e67-99a2-1ba7f5aedb0d"},"vehicle_type_id":"4","last_reported":1747717860,"current_range_meters":16400,"station_id":"ce4bh312rcd13ifvqdk0","pricing_plan_id":"cebpf4jnsgd1na2vs0mg"},{"bike_id":"09d6ba82-f698-49a9-8e0d-85a4008ad1f8","system_id":"levelo_inurba_marseille","lat":43.311815,"lon":5.387144,"is_reserved":false,"is_disabled":false,"rental_uris":{"android":"levelo://app?vid=09d6ba82-f698-49a9-8e0d-85a4008ad1f8","ios":"levelo://app?vid=09d6ba82-f698-49a9-8e0d-85a4008ad1f8"},"vehicle_type_id":"4","last_reported":1747717860,"current_range_meters":16800,"station_id":"ce4bgv12rcd13ifvqcp0","pricing_plan_id":"cebpf4jnsgd1na2vs0mg"},{"bike_id":"094332af-7863-4c9b-b973-ff23daa8d0b7","system_id":"levelo_inurba_marseille","lat":43.24685,"lon":5.38145,"is_reserved":false,"is_disabled":false,"rental_uris":{"android":"levelo://app?vid=094332af-7863-4c9b-b973-ff23daa8d0b7","ios":"levelo://app?vid=094332af-7863-4c9b-b973-ff23daa8d0b7"},"vehicle_type_id":"4","last_reported":1747717860,"current_range_meters":16800,"station_id":"ce4bhih2rcd13ifvqfr0","pricing_plan_id":"cebpf4jnsgd1na2vs0mg"},{"bike_id":"4f2e4cda-39ca-4e24-bf95-e6bd03ac21a5","system_id":"levelo_inurba_marseille","lat":43.287281,"lon":5.360864,"is_reserved":false,"is_disabled":false,"rental_uris":{"android":"levelo://app?vid=4f2e4cda-39ca-4e24-bf95-e6bd03ac21a5","ios":"levelo://app?vid=4f2e4cda-39ca-4e24-bf95-e6bd03ac21a5"},"vehicle_type_id":"4","last_reported":1747717860,"current_range_meters":16800,"station_id":"cki0cbj6b192h4jlfktg","pricing_plan_id":"cebpf4jnsgd1na2vs0mg"},{"bike_id":"697a9b19-19cf-408f-a646-3bcdb4d31625","system_id":"levelo_inurba_marseille","lat":43.24668,"lon":5.38154,"is_reserved":false,"is_disabled":false,"rental_uris":{"android":"levelo://app?vid=697a9b19-19cf-408f-a646-3bcdb4d31625","ios":"levelo://app?vid=697a9b19-19cf-408f-a646-3bcdb4d31625"},"vehicle_type_id":"4","last_reported":1747717860,"current_range_meters":17200,"station_id":"ce4bhih2rcd13ifvqfr0","pricing_plan_id":"cebpf4jnsgd1na2vs0mg"},{"bike_id":"e9fff0e1-2564-480a-8b0f-214a21b6b96c","system_id":"levelo_inurba_marseille","lat":43.2705,"lon":5.40262,"is_reserved":false,"is_disabled":false,"rental_uris":{"android":"levelo://app?vid=e9fff0e1-2564-480a-8b0f-214a21b6b96c","ios":"levelo://app?vid=e9fff0e1-2564-480a-8b0f-214a21b6b96c"},"vehicle_type_id":"4","last_reported":1747717860,"current_range_meters":17200,"station_id":"ce4bhk92rcd13ifvqgc0","pricing_plan_id":"cebpf4jnsgd1na2vs0mg"},{"bike_id":"70e0567a-1091-48b5-9d11-86e921d1634e","system_id":"levelo_inurba_marseille","lat":43.28708,"lon":5.37382,"is_reserved":false,"is_disabled":false,"rental_uris":{"android":"levelo://app?vid=70e0567a-1091-48b5-9d11-86e921d1634e","ios":"levelo://app?vid=70e0567a-1091-48b5-9d11-86e921d1634e"},"vehicle_type_id":"4","last_reported":1747717860,"current_range_meters":17200,"station_id":"ce4bh3p2rcd13ifvqdq0","pricing_plan_id":"cebpf4jnsgd1na2vs0mg"},{"bike_id":"acfe07a3-d915-4c6f-9bb1-7746febe5e1b","system_id":"levelo_inurba_marseille","lat":43.284619,"lon":5.358904,"is_reserved":false,"is_disabled":false,"rental_uris":{"android":"levelo://app?vid=acfe07a3-d915-4c6f-9bb1-7746febe5e1b","ios":"levelo://app?vid=acfe07a3-d915-4c6f-9bb1-7746febe5e1b"},"vehicle_type_id":"4","last_reported":1747717860,"current_range_meters":17200,"station_id":"ce4bhah2rcd13ifvqei0","pricing_plan_id":"cebpf4jnsgd1na2vs0mg"},{"bike_id":"18c0878a-8caa-48a1-b8c5-12dc58136a1e","system_id":"levelo_inurba_marseille","lat":43.27096,"lon":5.42289,"is_reserved":false,"is_disabled":true,"rental_uris":{"android":"levelo://app?vid=18c0878a-8caa-48a1-b8c5-12dc58136a1e","ios":"levelo://app?vid=18c0878a-8caa-48a1-b8c5-12dc58136a1e"},"vehicle_type_id":"4","last_reported":1747717860,"current_range_meters":17600,"station_id":"ce4bhk92rcd13ifvqgb0","pricing_plan_id":"cebpf4jnsgd1na2vs0mg"},{"bike_id":"09d7a4d4-17d7-47a6-bb6b-5afb4119e4d9","system_id":"levelo_inurba_marseille","lat":43.295276,"lon":5.394164,"is_reserved":false,"is_disabled":false,"rental_uris":{"android":"levelo://app?vid=09d7a4d4-17d7-47a6-bb6b-5afb4119e4d9","ios":"levelo://app?vid=09d7a4d4-17d7-47a6-bb6b-5afb4119e4d9"},"vehicle_type_id":"4","last_reported":1747717860,"current_range_meters":17600,"station_id":"ce4bh292rcd13ifvqdf0","pricing_plan_id":"cebpf4jnsgd1na2vs0mg"},{"bike_id":"aa048516-7dde-4588-8581-150fd54aee39","system_id":"levelo_inurba_marseille","lat":43.24799,"lon":5.37484,"is_reserved":false,"is_disabled":false,"rental_uris":{"android":"levelo://app?vid=aa048516-7dde-4588-8581-150fd54aee39","ios":"levelo://app?vid=aa048516-7dde-4588-8581-150fd54aee39"},"vehicle_type_id":"4","last_reported":1747717860,"current_range_meters":17600,"station_id":"ce4bhgh2rcd13ifvqfb0","pricing_plan_id":"cebpf4jnsgd1na2vs0mg"},{"bike_id":"5765434c-77b5-41b5-8b14-b978e4d6dd10","system_id":"levelo_inurba_marseille","lat":43.21202,"lon":5.35048,"is_reserved":false,"is_disabled":false,"rental_uris":{"android":"levelo://app?vid=5765434c-77b5-41b5-8b14-b978e4d6dd10","ios":"levelo://app?vid=5765434c-77b5-41b5-8b14-b978e4d6dd10"},"vehicle_type_id":"4","last_reported":1747717860,"current_range_meters":17600,"station_id":"st_cvj6sg6p6f1abm77japg","pricing_plan_id":"cebpf4jnsgd1na2vs0mg"},{"bike_id":"d22b0fd0-78a6-46fc-aad8-ce2ca2a629e3","system_id":"levelo_inurba_marseille","lat":43.211975,"lon":5.350909,"is_reserved":false,"is_disabled":false,"rental_uris":{"android":"levelo://app?vid=d22b0fd0-78a6-46fc-aad8-ce2ca2a629e3","ios":"levelo://app?vid=d22b0fd0-78a6-46fc-aad8-ce2ca2a629e3"},"vehicle_type_id":"4","last_reported":1747717860,"current_range_meters":17600,"station_id":"st_cvj6sg6p6f1abm77japg","pricing_plan_id":"cebpf4jnsgd1na2vs0mg"},{"bike_id":"1ab14a22-64fc-4e05-9bc7-71c47c2434aa","system_id":"levelo_inurba_marseille","lat":43.29586,"lon":5.39972,"is_reserved":false,"is_disabled":false,"rental_uris":{"android":"levelo://app?vid=1ab14a22-64fc-4e05-9bc7-71c47c2434aa","ios":"levelo://app?vid=1ab14a22-64fc-4e05-9bc7-71c47c2434aa"},"vehicle_type_id":"4","last_reported":1747717860,"current_range_meters":17600,"station_id":"ce4bh312rcd13ifvqdj0","pricing_plan_id":"cebpf4jnsgd1na2vs0mg"},{"bike_id":"2a970de0-c1c9-469a-ab82-138a3fd977f3","system_id":"levelo_inurba_marseille","lat":43.29044,"lon":5.38655,"is_reserved":false,"is_disabled":true,"rental_uris":{"android":"levelo://app?vid=2a970de0-c1c9-469a-ab82-138a3fd977f3","ios":"levelo://app?vid=2a970de0-c1c9-469a-ab82-138a3fd977f3"},"vehicle_type_id":"4","last_reported":1747717860,"current_range_meters":18000,"station_id":"ce4bh4p2rcd13ifvqe0g","pricing_plan_id":"cebpf4jnsgd1na2vs0mg"},{"bike_id":"169e41d7-0c84-4fed-abef-f8a3ddc0dfd6","system_id":"levelo_inurba_marseille","lat":43.287098,"lon":5.361202,"is_reserved":false,"is_disabled":false,"rental_uris":{"android":"levelo://app?vid=169e41d7-0c84-4fed-abef-f8a3ddc0dfd6","ios":"levelo://app?vid=169e41d7-0c84-4fed-abef-f8a3ddc0dfd6"},"vehicle_type_id":"4","last_reported":1747717860,"current_range_meters":18000,"station_id":"cki0cbj6b192h4jlfktg","pricing_plan_id":"cebpf4jnsgd1na2vs0mg"},{"bike_id":"91142259-0ed6-40e7-9c78-83cc683d7f8e","system_id":"levelo_inurba_marseille","lat":43.28411,"lon":5.37523,"is_reserved":false,"is_disabled":false,"rental_uris":{"android":"levelo://app?vid=91142259-0ed6-40e7-9c78-83cc683d7f8e","ios":"levelo://app?vid=91142259-0ed6-40e7-9c78-83cc683d7f8e"},"vehicle_type_id":"4","last_reported":1747717860,"current_range_meters":18000,"station_id":"ce4bh412rcd13ifvqds0","pricing_plan_id":"cebpf4jnsgd1na2vs0mg"},{"bike_id":"87e7bc5e-db0f-423c-8aff-9df688bbf3bc","system_id":"levelo_inurba_marseille","lat":43.248066,"lon":5.374593,"is_reserved":false,"is_disabled":false,"rental_uris":{"android":"levelo://app?vid=87e7bc5e-db0f-423c-8aff-9df688bbf3bc","ios":"levelo://app?vid=87e7bc5e-db0f-423c-8aff-9df688bbf3bc"},"vehicle_type_id":"4","last_reported":1747717860,"current_range_meters":18000,"station_id":"ce4bhgh2rcd13ifvqfb0","pricing_plan_id":"cebpf4jnsgd1na2vs0mg"},{"bike_id":"c7bb0dfb-9f56-4d16-bd41-669f02cf50ad","system_id":"levelo_inurba_marseille","lat":43.303144,"lon":5.404516,"is_reserved":false,"is_disabled":true,"rental_uris":{"android":"levelo://app?vid=c7bb0dfb-9f56-4d16-bd41-669f02cf50ad","ios":"levelo://app?vid=c7bb0dfb-9f56-4d16-bd41-669f02cf50ad"},"vehicle_type_id":"4","last_reported":1747717860,"current_range_meters":18000,"station_id":"ce4bh012rcd13ifvqd10","pricing_plan_id":"cebpf4jnsgd1na2vs0mg"},{"bike_id":"a253706b-1cb9-4ca4-9560-173eeb92ac1f","system_id":"levelo_inurba_marseille","lat":43.30801,"lon":5.43526,"is_reserved":false,"is_disabled":false,"rental_uris":{"android":"levelo://app?vid=a253706b-1cb9-4ca4-9560-173eeb92ac1f","ios":"levelo://app?vid=a253706b-1cb9-4ca4-9560-173eeb92ac1f"},"vehicle_type_id":"4","last_reported":1747717860,"current_range_meters":18000,"station_id":"ce4bhph2rcd13ifvqheg","pricing_plan_id":"cebpf4jnsgd1na2vs0mg"},{"bike_id":"a3481c5a-d345-4a3b-a42a-9252438b88ad","system_id":"levelo_inurba_marseille","lat":43.28453,"lon":5.35901,"is_reserved":false,"is_disabled":false,"rental_uris":{"android":"levelo://app?vid=a3481c5a-d345-4a3b-a42a-9252438b88ad","ios":"levelo://app?vid=a3481c5a-d345-4a3b-a42a-9252438b88ad"},"vehicle_type_id":"4","last_reported":1747717860,"current_range_meters":18800,"station_id":"ce4bhah2rcd13ifvqei0","pricing_plan_id":"cebpf4jnsgd1na2vs0mg"},{"bike_id":"0fff9fb1-fc84-48c6-8ab5-8a9c77b239b4","system_id":"levelo_inurba_marseille","lat":43.251147,"lon":5.403377,"is_reserved":false,"is_disabled":false,"rental_uris":{"android":"levelo://app?vid=0fff9fb1-fc84-48c6-8ab5-8a9c77b239b4","ios":"levelo://app?vid=0fff9fb1-fc84-48c6-8ab5-8a9c77b239b4"},"vehicle_type_id":"4","last_reported":1747717860,"current_range_meters":18800,"station_id":"ce4bhlh2rcd13ifvqgig","pricing_plan_id":"cebpf4jnsgd1na2vs0mg"},{"bike_id":"3e90b5a3-cc90-4e07-92d6-fd1e339027d5","system_id":"levelo_inurba_marseille","lat":43.262144,"lon":5.404526,"is_reserved":false,"is_disabled":false,"rental_uris":{"android":"levelo://app?vid=3e90b5a3-cc90-4e07-92d6-fd1e339027d5","ios":"levelo://app?vid=3e90b5a3-cc90-4e07-92d6-fd1e339027d5"},"vehicle_type_id":"4","last_reported":1747717860,"current_range_meters":18800,"station_id":"ce4bhmh2rcd13ifvqgmg","pricing_plan_id":"cebpf4jnsgd1na2vs0mg"},{"bike_id":"bb1b1447-948b-478c-93fc-efd40a95386b","system_id":"levelo_inurba_marseille","lat":43.284046,"lon":5.375196,"is_reserved":false,"is_disabled":false,"rental_uris":{"android":"levelo://app?vid=bb1b1447-948b-478c-93fc-efd40a95386b","ios":"levelo://app?vid=bb1b1447-948b-478c-93fc-efd40a95386b"},"vehicle_type_id":"4","last_reported":1747717860,"current_range_meters":18800,"station_id":"ce4bh412rcd13ifvqds0","pricing_plan_id":"cebpf4jnsgd1na2vs0mg"},{"bike_id":"24dc12dd-e0a1-4ccc-b473-486d35ddca69","system_id":"levelo_inurba_marseille","lat":43.317156,"lon":5.437044,"is_reserved":false,"is_disabled":false,"rental_uris":{"android":"levelo://app?vid=24dc12dd-e0a1-4ccc-b473-486d35ddca69","ios":"levelo://app?vid=24dc12dd-e0a1-4ccc-b473-486d35ddca69"},"vehicle_type_id":"4","last_reported":1747717860,"current_range_meters":18800,"station_id":"ce4bhp92rcd13ifvqhcg","pricing_plan_id":"cebpf4jnsgd1na2vs0mg"},{"bike_id":"2da74e1b-9f8c-4ef1-85f5-dd4b92041c74","system_id":"levelo_inurba_marseille","lat":43.28711,"lon":5.37395,"is_reserved":false,"is_disabled":false,"rental_uris":{"android":"levelo://app?vid=2da74e1b-9f8c-4ef1-85f5-dd4b92041c74","ios":"levelo://app?vid=2da74e1b-9f8c-4ef1-85f5-dd4b92041c74"},"vehicle_type_id":"4","last_reported":1747717860,"current_range_meters":18800,"station_id":"ce4bh3p2rcd13ifvqdq0","pricing_plan_id":"cebpf4jnsgd1na2vs0mg"},{"bike_id":"da9c9dca-2f1f-4148-9531-64f0c6e07b68","system_id":"levelo_inurba_marseille","lat":43.28714,"lon":5.37396,"is_reserved":false,"is_disabled":false,"rental_uris":{"android":"levelo://app?vid=da9c9dca-2f1f-4148-9531-64f0c6e07b68","ios":"levelo://app?vid=da9c9dca-2f1f-4148-9531-64f0c6e07b68"},"vehicle_type_id":"4","last_reported":1747717860,"current_range_meters":18800,"station_id":"ce4bh3p2rcd13ifvqdq0","pricing_plan_id":"cebpf4jnsgd1na2vs0mg"},{"bike_id":"2157086c-546e-4d89-86fa-01ae0514ab7c","system_id":"levelo_inurba_marseille","lat":43.33732,"lon":5.3918,"is_reserved":false,"is_disabled":false,"rental_uris":{"android":"levelo://app?vid=2157086c-546e-4d89-86fa-01ae0514ab7c","ios":"levelo://app?vid=2157086c-546e-4d89-86fa-01ae0514ab7c"},"vehicle_type_id":"4","last_reported":1747717860,"current_range_meters":18800,"station_id":"ce4bhr92rcd13ifvqhsg","pricing_plan_id":"cebpf4jnsgd1na2vs0mg"},{"bike_id":"663106d9-3d8f-4347-ae89-d8e356470262","system_id":"levelo_inurba_marseille","lat":43.287266,"lon":5.361179,"is_reserved":false,"is_disabled":true,"rental_uris":{"android":"levelo://app?vid=663106d9-3d8f-4347-ae89-d8e356470262","ios":"levelo://app?vid=663106d9-3d8f-4347-ae89-d8e356470262"},"vehicle_type_id":"4","last_reported":1747717860,"current_range_meters":18800,"station_id":"cki0cbj6b192h4jlfktg","pricing_plan_id":"cebpf4jnsgd1na2vs0mg"},{"bike_id":"cda0f38f-93a4-4333-84b7-0533e012a157","system_id":"levelo_inurba_marseille","lat":43.30151,"lon":5.38081,"is_reserved":false,"is_disabled":false,"rental_uris":{"android":"levelo://app?vid=cda0f38f-93a4-4333-84b7-0533e012a157","ios":"levelo://app?vid=cda0f38f-93a4-4333-84b7-0533e012a157"},"vehicle_type_id":"4","last_reported":1747717860,"current_range_meters":18800,"station_id":"ce4bgjp2rcd13ifvqbh0","pricing_plan_id":"cebpf4jnsgd1na2vs0mg"},{"bike_id":"1ab1e2bf-f6bc-49f8-b44c-479c40706406","system_id":"levelo_inurba_marseille","lat":43.32062,"lon":5.4155,"is_reserved":false,"is_disabled":false,"rental_uris":{"android":"levelo://app?vid=1ab1e2bf-f6bc-49f8-b44c-479c40706406","ios":"levelo://app?vid=1ab1e2bf-f6bc-49f8-b44c-479c40706406"},"vehicle_type_id":"4","last_reported":1747717860,"current_range_meters":19200,"station_id":"ce4bhq92rcd13ifvqhkg","pricing_plan_id":"cebpf4jnsgd1na2vs0mg"},{"bike_id":"1059b443-c962-4331-ad65-b9896d1b4ce4","system_id":"levelo_inurba_marseille","lat":43.305906,"lon":5.393577,"is_reserved":false,"is_disabled":false,"rental_uris":{"android":"levelo://app?vid=1059b443-c962-4331-ad65-b9896d1b4ce4","ios":"levelo://app?vid=1059b443-c962-4331-ad65-b9896d1b4ce4"},"vehicle_type_id":"4","last_reported":1747717860,"current_range_meters":19200,"station_id":"ce4bh0p2rcd13ifvqd80","pricing_plan_id":"cebpf4jnsgd1na2vs0mg"},{"bike_id":"d9aaf1a2-4106-41f1-bdb5-227fd13f0c43","system_id":"levelo_inurba_marseille","lat":43.31136,"lon":5.37779,"is_reserved":false,"is_disabled":false,"rental_uris":{"android":"levelo://app?vid=d9aaf1a2-4106-41f1-bdb5-227fd13f0c43","ios":"levelo://app?vid=d9aaf1a2-4106-41f1-bdb5-227fd13f0c43"},"vehicle_type_id":"4","last_reported":1747717860,"current_range_meters":19200,"station_id":"ce4bgt92rcd13ifvqcg0","pricing_plan_id":"cebpf4jnsgd1na2vs0mg"},{"bike_id":"0343b7c1-b9e1-49c9-bf64-b48e8d7971b0","system_id":"levelo_inurba_marseille","lat":43.29563,"lon":5.39945,"is_reserved":false,"is_disabled":false,"rental_uris":{"android":"levelo://app?vid=0343b7c1-b9e1-49c9-bf64-b48e8d7971b0","ios":"levelo://app?vid=0343b7c1-b9e1-49c9-bf64-b48e8d7971b0"},"vehicle_type_id":"4","last_reported":1747717860,"current_range_meters":19200,"station_id":"ce4bh312rcd13ifvqdj0","pricing_plan_id":"cebpf4jnsgd1na2vs0mg"},{"bike_id":"601218b6-13d1-4278-bbe9-affcbb5962f7","system_id":"levelo_inurba_marseille","lat":43.30799,"lon":5.37652,"is_reserved":false,"is_disabled":false,"rental_uris":{"android":"levelo://app?vid=601218b6-13d1-4278-bbe9-affcbb5962f7","ios":"levelo://app?vid=601218b6-13d1-4278-bbe9-affcbb5962f7"},"vehicle_type_id":"4","last_reported":1747717860,"current_range_meters":19200,"station_id":"ce4bgv92rcd13ifvqcq0","pricing_plan_id":"cebpf4jnsgd1na2vs0mg"},{"bike_id":"bbbb59d5-2be6-482d-be95-14b0a73f23b3","system_id":"levelo_inurba_marseille","lat":43.28673,"lon":5.363514,"is_reserved":false,"is_disabled":false,"rental_uris":{"android":"levelo://app?vid=bbbb59d5-2be6-482d-be95-14b0a73f23b3","ios":"levelo://app?vid=bbbb59d5-2be6-482d-be95-14b0a73f23b3"},"vehicle_type_id":"4","last_reported":1747717860,"current_range_meters":19200,"station_id":"ce4bhah2rcd13ifvqej0","pricing_plan_id":"cebpf4jnsgd1na2vs0mg"},{"bike_id":"ad645217-e0a8-4df1-8194-00de8bf8e3a5","system_id":"levelo_inurba_marseille","lat":43.312939,"lon":5.383648,"is_reserved":false,"is_disabled":false,"rental_uris":{"android":"levelo://app?vid=ad645217-e0a8-4df1-8194-00de8bf8e3a5","ios":"levelo://app?vid=ad645217-e0a8-4df1-8194-00de8bf8e3a5"},"vehicle_type_id":"4","last_reported":1747717860,"current_range_meters":19200,"station_id":"","pricing_plan_id":"cebpf4jnsgd1na2vs0mg"},{"bike_id":"3a78ca34-3310-4ba2-bd48-75f23e091e71","system_id":"levelo_inurba_marseille","lat":43.29807,"lon":5.39346,"is_reserved":false,"is_disabled":false,"rental_uris":{"android":"levelo://app?vid=3a78ca34-3310-4ba2-bd48-75f23e091e71","ios":"levelo://app?vid=3a78ca34-3310-4ba2-bd48-75f23e091e71"},"vehicle_type_id":"4","last_reported":1747717860,"current_range_meters":19200,"station_id":"chh1huq6cuj3fo74tm60","pricing_plan_id":"cebpf4jnsgd1na2vs0mg"},{"bike_id":"53291868-9a47-43e0-921f-eb433569a23d","system_id":"levelo_inurba_marseille","lat":43.3094,"lon":5.40163,"is_reserved":false,"is_disabled":false,"rental_uris":{"android":"levelo://app?vid=53291868-9a47-43e0-921f-eb433569a23d","ios":"levelo://app?vid=53291868-9a47-43e0-921f-eb433569a23d"},"vehicle_type_id":"4","last_reported":1747717860,"current_range_meters":19200,"station_id":"ce4bgvp2rcd13ifvqct0","pricing_plan_id":"cebpf4jnsgd1na2vs0mg"},{"bike_id":"23e03e03-1bdb-46d3-ad4e-9958a18c2ffc","system_id":"levelo_inurba_marseille","lat":43.278109,"lon":5.407129,"is_reserved":false,"is_disabled":false,"rental_uris":{"android":"levelo://app?vid=23e03e03-1bdb-46d3-ad4e-9958a18c2ffc","ios":"levelo://app?vid=23e03e03-1bdb-46d3-ad4e-9958a18c2ffc"},"vehicle_type_id":"4","last_reported":1747717860,"current_range_meters":19600,"station_id":"ce4bhnh2rcd13ifvqgtg","pricing_plan_id":"cebpf4jnsgd1na2vs0mg"},{"bike_id":"28aad65e-0de0-436a-a9c6-72b66c7a120c","system_id":"levelo_inurba_marseille","lat":43.29259,"lon":5.37625,"is_reserved":false,"is_disabled":true,"rental_uris":{"android":"levelo://app?vid=28aad65e-0de0-436a-a9c6-72b66c7a120c","ios":"levelo://app?vid=28aad65e-0de0-436a-a9c6-72b66c7a120c"},"vehicle_type_id":"4","last_reported":1747717860,"current_range_meters":19600,"station_id":"ce4bgi12rcd13ifvqb80","pricing_plan_id":"cebpf4jnsgd1na2vs0mg"},{"bike_id":"7cfc1465-944d-42a9-88c5-853e46a70840","system_id":"levelo_inurba_marseille","lat":43.28455,"lon":5.35887,"is_reserved":false,"is_disabled":false,"rental_uris":{"android":"levelo://app?vid=7cfc1465-944d-42a9-88c5-853e46a70840","ios":"levelo://app?vid=7cfc1465-944d-42a9-88c5-853e46a70840"},"vehicle_type_id":"4","last_reported":1747717860,"current_range_meters":19600,"station_id":"ce4bhah2rcd13ifvqei0","pricing_plan_id":"cebpf4jnsgd1na2vs0mg"},{"bike_id":"75a553c5-d489-4944-addf-59be89c2a440","system_id":"levelo_inurba_marseille","lat":43.28935,"lon":5.36416,"is_reserved":false,"is_disabled":true,"rental_uris":{"android":"levelo://app?vid=75a553c5-d489-4944-addf-59be89c2a440","ios":"levelo://app?vid=75a553c5-d489-4944-addf-59be89c2a440"},"vehicle_type_id":"4","last_reported":1747717860,"current_range_meters":19600,"station_id":"ce4bhc92rcd13ifvqetg","pricing_plan_id":"cebpf4jnsgd1na2vs0mg"},{"bike_id":"1fea3aa0-bd2e-49a7-a54a-ab620f502330","system_id":"levelo_inurba_marseille","lat":43.29255,"lon":5.40165,"is_reserved":false,"is_disabled":false,"rental_uris":{"android":"levelo://app?vid=1fea3aa0-bd2e-49a7-a54a-ab620f502330","ios":"levelo://app?vid=1fea3aa0-bd2e-49a7-a54a-ab620f502330"},"vehicle_type_id":"4","last_reported":1747717860,"current_range_meters":19600,"station_id":"ce4bh312rcd13ifvqdk0","pricing_plan_id":"cebpf4jnsgd1na2vs0mg"},{"bike_id":"c52f169f-60f3-4f23-aba1-2578c1dfb918","system_id":"levelo_inurba_marseille","lat":43.280326,"lon":5.369504,"is_reserved":false,"is_disabled":false,"rental_uris":{"android":"levelo://app?vid=c52f169f-60f3-4f23-aba1-2578c1dfb918","ios":"levelo://app?vid=c52f169f-60f3-4f23-aba1-2578c1dfb918"},"vehicle_type_id":"4","last_reported":1747717860,"current_range_meters":20000,"station_id":"ce4bha12rcd13ifvqef0","pricing_plan_id":"cebpf4jnsgd1na2vs0mg"},{"bike_id":"c78b3ea0-3254-48d8-90c0-a0892b8475ac","system_id":"levelo_inurba_marseille","lat":43.27218,"lon":5.39179,"is_reserved":false,"is_disabled":false,"rental_uris":{"android":"levelo://app?vid=c78b3ea0-3254-48d8-90c0-a0892b8475ac","ios":"levelo://app?vid=c78b3ea0-3254-48d8-90c0-a0892b8475ac"},"vehicle_type_id":"4","last_reported":1747717860,"current_range_meters":19600,"station_id":"ce4bhhp2rcd13ifvqfm0","pricing_plan_id":"cebpf4jnsgd1na2vs0mg"},{"bike_id":"2cea2f52-43a7-4798-bbcc-fd510158a561","system_id":"levelo_inurba_marseille","lat":43.27233,"lon":5.40966,"is_reserved":false,"is_disabled":false,"rental_uris":{"android":"levelo://app?vid=2cea2f52-43a7-4798-bbcc-fd510158a561","ios":"levelo://app?vid=2cea2f52-43a7-4798-bbcc-fd510158a561"},"vehicle_type_id":"4","last_reported":1747717860,"current_range_meters":20000,"station_id":"ce4bhl12rcd13ifvqgf0","pricing_plan_id":"cebpf4jnsgd1na2vs0mg"},{"bike_id":"f7662c72-7b73-4bd8-a2af-bcea477ed2d6","system_id":"levelo_inurba_marseille","lat":43.278173,"lon":5.407181,"is_reserved":false,"is_disabled":false,"rental_uris":{"android":"levelo://app?vid=f7662c72-7b73-4bd8-a2af-bcea477ed2d6","ios":"levelo://app?vid=f7662c72-7b73-4bd8-a2af-bcea477ed2d6"},"vehicle_type_id":"4","last_reported":1747717860,"current_range_meters":20000,"station_id":"ce4bhnh2rcd13ifvqgtg","pricing_plan_id":"cebpf4jnsgd1na2vs0mg"},{"bike_id":"a033c6d8-5a8f-4551-9a74-b4f10acffaec","system_id":"levelo_inurba_marseille","lat":43.323553,"lon":5.367466,"is_reserved":false,"is_disabled":false,"rental_uris":{"android":"levelo://app?vid=a033c6d8-5a8f-4551-9a74-b4f10acffaec","ios":"levelo://app?vid=a033c6d8-5a8f-4551-9a74-b4f10acffaec"},"vehicle_type_id":"4","last_reported":1747717860,"current_range_meters":20000,"station_id":"ce4bhsh2rcd13ifvqi2g","pricing_plan_id":"cebpf4jnsgd1na2vs0mg"},{"bike_id":"8da44370-a435-48f7-9bf8-4043a5db973f","system_id":"levelo_inurba_marseille","lat":43.26096,"lon":5.37856,"is_reserved":false,"is_disabled":false,"rental_uris":{"android":"levelo://app?vid=8da44370-a435-48f7-9bf8-4043a5db973f","ios":"levelo://app?vid=8da44370-a435-48f7-9bf8-4043a5db973f"},"vehicle_type_id":"4","last_reported":1747717860,"current_range_meters":20000,"station_id":"","pricing_plan_id":"cebpf4jnsgd1na2vs0mg"},{"bike_id":"475e2f38-2844-4c15-947e-98a85e897d54","system_id":"levelo_inurba_marseille","lat":43.311144,"lon":5.377451,"is_reserved":false,"is_disabled":false,"rental_uris":{"android":"levelo://app?vid=475e2f38-2844-4c15-947e-98a85e897d54","ios":"levelo://app?vid=475e2f38-2844-4c15-947e-98a85e897d54"},"vehicle_type_id":"4","last_reported":1747717860,"current_range_meters":20000,"station_id":"ce4bgt92rcd13ifvqcg0","pricing_plan_id":"cebpf4jnsgd1na2vs0mg"},{"bike_id":"869cfffe-2f4a-4c85-8893-bc8d2c15d749","system_id":"levelo_inurba_marseille","lat":43.29249,"lon":5.40911,"is_reserved":false,"is_disabled":false,"rental_uris":{"android":"levelo://app?vid=869cfffe-2f4a-4c85-8893-bc8d2c15d749","ios":"levelo://app?vid=869cfffe-2f4a-4c85-8893-bc8d2c15d749"},"vehicle_type_id":"4","last_reported":1747717860,"current_range_meters":20000,"station_id":"ce4bh192rcd13ifvqdc0","pricing_plan_id":"cebpf4jnsgd1na2vs0mg"},{"bike_id":"c570830e-440b-486e-9c3a-6956c95ac019","system_id":"levelo_inurba_marseille","lat":43.287164,"lon":5.361024,"is_reserved":false,"is_disabled":false,"rental_uris":{"android":"levelo://app?vid=c570830e-440b-486e-9c3a-6956c95ac019","ios":"levelo://app?vid=c570830e-440b-486e-9c3a-6956c95ac019"},"vehicle_type_id":"4","last_reported":1747717860,"current_range_meters":20400,"station_id":"cki0cbj6b192h4jlfktg","pricing_plan_id":"cebpf4jnsgd1na2vs0mg"},{"bike_id":"73f432da-6399-4b0a-a471-840c9b36360f","system_id":"levelo_inurba_marseille","lat":43.301202,"lon":5.397445,"is_reserved":false,"is_disabled":false,"rental_uris":{"android":"levelo://app?vid=73f432da-6399-4b0a-a471-840c9b36360f","ios":"levelo://app?vid=73f432da-6399-4b0a-a471-840c9b36360f"},"vehicle_type_id":"4","last_reported":1747717860,"current_range_meters":20400,"station_id":"","pricing_plan_id":"cebpf4jnsgd1na2vs0mg"},{"bike_id":"128904f3-815c-42a0-8e9f-93990280fe97","system_id":"levelo_inurba_marseille","lat":43.248014,"lon":5.374629,"is_reserved":false,"is_disabled":false,"rental_uris":{"android":"levelo://app?vid=128904f3-815c-42a0-8e9f-93990280fe97","ios":"levelo://app?vid=128904f3-815c-42a0-8e9f-93990280fe97"},"vehicle_type_id":"4","last_reported":1747717860,"current_range_meters":20400,"station_id":"ce4bhgh2rcd13ifvqfb0","pricing_plan_id":"cebpf4jnsgd1na2vs0mg"},{"bike_id":"c151098a-1f8d-4fca-8935-14e1aeb32a06","system_id":"levelo_inurba_marseille","lat":43.26102,"lon":5.41496,"is_reserved":false,"is_disabled":false,"rental_uris":{"android":"levelo://app?vid=c151098a-1f8d-4fca-8935-14e1aeb32a06","ios":"levelo://app?vid=c151098a-1f8d-4fca-8935-14e1aeb32a06"},"vehicle_type_id":"4","last_reported":1747717860,"current_range_meters":20400,"station_id":"","pricing_plan_id":"cebpf4jnsgd1na2vs0mg"},{"bike_id":"3e4fab21-5b5c-4ac1-91d7-8021068d9a8d","system_id":"levelo_inurba_marseille","lat":43.3093,"lon":5.40143,"is_reserved":false,"is_disabled":false,"rental_uris":{"android":"levelo://app?vid=3e4fab21-5b5c-4ac1-91d7-8021068d9a8d","ios":"levelo://app?vid=3e4fab21-5b5c-4ac1-91d7-8021068d9a8d"},"vehicle_type_id":"4","last_reported":1747717860,"current_range_meters":20400,"station_id":"ce4bgvp2rcd13ifvqct0","pricing_plan_id":"cebpf4jnsgd1na2vs0mg"},{"bike_id":"eed5024f-fc41-4433-90d4-ad9f561864af","system_id":"levelo_inurba_marseille","lat":43.303184,"lon":5.368994,"is_reserved":false,"is_disabled":false,"rental_uris":{"android":"levelo://app?vid=eed5024f-fc41-4433-90d4-ad9f561864af","ios":"levelo://app?vid=eed5024f-fc41-4433-90d4-ad9f561864af"},"vehicle_type_id":"4","last_reported":1747717860,"current_range_meters":20400,"station_id":"ce4bgqh2rcd13ifvqc5g","pricing_plan_id":"cebpf4jnsgd1na2vs0mg"},{"bike_id":"43c8ceb9-7b8b-4a9a-aaed-285caf4c20cc","system_id":"levelo_inurba_marseille","lat":43.229357,"lon":5.353898,"is_reserved":false,"is_disabled":false,"rental_uris":{"android":"levelo://app?vid=43c8ceb9-7b8b-4a9a-aaed-285caf4c20cc","ios":"levelo://app?vid=43c8ceb9-7b8b-4a9a-aaed-285caf4c20cc"},