{"last_updated":1751148558,"ttl":60,"version":"2.2","data":{"bikes":[{"bike_id":"3da29fb8-fc97-44c6-b9ac-31dd456b2fd4","system_id":"levelo_inurba_marseille","lat":43.33771,"lon":5.37424,"is_reserved":false,"is_disabled":true,"rental_uris":{"android":"levelo://app?vid=3da29fb8-fc97-44c6-b9ac-31dd456b2fd4","ios":"levelo://app?vid=3da29fb8-fc97-44c6-b9ac-31dd456b2fd4"},"vehicle_type_id":"4","last_reported":1751148558,"current_range_meters":0,"station_id":"","pricing_plan_id":"cebpf4jnsgd1na2vs0mg"},{"bike_id":"01861ad8-a8d7-4be6-816e-651927c87584","system_id":"levelo_inurba_marseille","lat":43.33751,"lon":5.37456,"is_reserved":false,"is_disabled":true,"rental_uris":{"android":"levelo://app?vid=01861ad8-a8d7-4be6-816e-651927c87584","ios":"levelo://app?vid=01861ad8-a8d7-4be6-816e-651927c87584"},"vehicle_type_id":"4","last_reported":1751148558,"current_range_meters":0,"station_id":"","pricing_plan_id":"cebpf4jnsgd1na2vs0mg"},{"bike_id":"612b34ed-ddf1-4f6a-96bb-08fc82d7d35a","system_id":"levelo_inurba_marseille","lat":43.27149,"lon":5.40908,"is_reserved":false,"is_disabled":true,"rental_uris":{"android":"levelo://app?vid=612b34ed-ddf1-4f6a-96bb-08fc82d7d35a","ios":"levelo://app?vid=612b34ed-ddf1-4f6a-96bb-08fc82d7d35a"},"vehicle_type_id":"4","last_reported":1751148558,"current_range_meters":0,"station_id":"","pricing_plan_id":"cebpf4jnsgd1na2vs0mg"},{"bike_id":"7aac647a-260b-423f-ae41-874b82472ad9","system_id":"levelo_inurba_marseille","lat":43.23212,"lon":5.3516,"is_reserved":false,"is_disabled":true,"rental_uris":{"android":"levelo://app?vid=7aac647a-260b-423f-ae41-874b82472ad9","ios":"levelo://app?vid=7aac647a-260b-423f-ae41-874b82472ad9"},"vehicle_type_id":"4","last_reported":1751148558,"current_range_meters":0,"station_id":"","pricing_plan_id":"cebpf4jnsgd1na2vs0mg"},{"bike_id":"499114bb-646f-4618-a3ce-ee7c9ab2a1c4","system_id":"levelo_inurba_marseille","lat":43.33007,"lon":5.39098,"is_reserved":false,"is_disabled":true,"rental_uris":{"android":"levelo://app?vid=499114bb-646f-4618-a3ce-ee7c9ab2a1c4","ios":"levelo://app?vid=499114bb-646f-4618-a3ce-ee7c9ab2a1c4"},"vehicle_type_id":"4","last_reported":1751148558,"current_range_meters":0,"station_id":"","pricing_plan_id":"cebpf4jnsgd1na2vs0mg"},{"bike_id":"d166e6b0-d12b-463c-ab82-d5d42034aba7","system_id":"levelo_inurba_marseille","lat":43.30828,"lon":5.36939,"is_reserved":false,"is_disabled":true,"rental_uris":{"android":"levelo://app?vid=d166e6b0-d12b-463c-ab82-d5d42034aba7","ios":"levelo://app?vid=d166e6b0-d12b-463c-ab82-d5d42034aba7"},"vehicle_type_id":"4","last_reported":1751148558,"current_range_meters":0,"station_id":"","pricing_plan_id":"cebpf4jnsgd1na2vs0mg"},{"bike_id":"e9a7f2ce-f5b2-41e5-b572-5533013492a4","system_id":"levelo_inurba_marseille","lat":43.337444,"lon":5.374475,"is_reserved":false,"is_disabled":true,"rental_uris":{"android":"levelo://app?vid=e9a7f2ce-f5b2-41e5-b572-5533013492a4","ios":"levelo://app?vid=e9a7f2ce-f5b2-41e5-b572-5533013492a4"},"vehicle_type_id":"4","last_reported":1751148558,"current_range_meters":0,"station_id":"","pricing_plan_id":"cebpf4jnsgd1na2vs0mg"},{"bike_id":"666ef40e-8142-4330-a1bf-355f72ca0910","system_id":"levelo_inurba_marseille","lat":43.26341,"lon":5.40109,"is_reserved":false,"is_disabled":true,"rental_uris":{"android":"levelo://app?vid=666ef40e-8142-4330-a1bf-355f72ca0910","ios":"levelo://app?vid=666ef40e-8142-4330-a1bf-355f72ca0910"},"vehicle_type_id":"4","last_reported":1751148558,"current_range_meters":0,"station_id":"","pricing_plan_id":"cebpf4jnsgd1na2vs0mg"},{"bike_id":"52a77d00-5cba-4b39-8bbf-8452e3eb94d5","system_id":"levelo_inurba_marseille","lat":43.30136,"lon":5.38767,"is_reserved":false,"is_disabled":true,"rental_uris":{"android":"levelo://app?vid=52a77d00-5cba-4b39-8bbf-8452e3eb94d5","ios":"levelo://app?vid=52a77d00-5cba-4b39-8bbf-8452e3eb94d5"},"vehicle_type_id":"4","last_reported":1751148558,"current_range_meters":0,"station_id":"ce4bghh2rcd13ifvqb60","pricing_plan_id":"cebpf4jnsgd1na2vs0mg"},{"bike_id":"bc6ff6df-9aa7-4f21-a3e3-3288d6259e9d","system_id":"levelo_inurba_marseille","lat":43.29967,"lon":5.37169,"is_reserved":false,"is_disabled":true,"rental_uris":{"android":"levelo://app?vid=bc6ff6df-9aa7-4f21-a3e3-3288d6259e9d","ios":"levelo://app?vid=bc6ff6df-9aa7-4f21-a3e3-3288d6259e9d"},"vehicle_type_id":"4","last_reported":1751148558,"current_range_meters":0,"station_id":"ce4bgr92rcd13ifvqc7g","pricing_plan_id":"cebpf4jnsgd1na2vs0mg"},{"bike_id":"91719294-37c2-4f4d-bbc4-55272bbdf55c","system_id":"levelo_inurba_marseille","lat":43.30946,"lon":5.39028,"is_reserved":false,"is_disabled":true,"rental_uris":{"android":"levelo://app?vid=91719294-37c2-4f4d-bbc4-55272bbdf55c","ios":"levelo://app?vid=91719294-37c2-4f4d-bbc4-55272bbdf55c"},"vehicle_type_id":"4","last_reported":1751148558,"current_range_meters":0,"station_id":"ce4bgup2rcd13ifvqco0","pricing_plan_id":"cebpf4jnsgd1na2vs0mg"},{"bike_id":"d86d6404-53b1-4461-808f-1f212739deab","system_id":"levelo_inurba_marseille","lat":43.30255,"lon":5.40097,"is_reserved":false,"is_disabled":true,"rental_uris":{"android":"levelo://app?vid=d86d6404-53b1-4461-808f-1f212739deab","ios":"levelo://app?vid=d86d6404-53b1-4461-808f-1f212739deab"},"vehicle_type_id":"4","last_reported":1751148558,"current_range_meters":0,"station_id":"ce4bgvh2rcd13ifvqcs0","pricing_plan_id":"cebpf4jnsgd1na2vs0mg"},{"bike_id":"1b57e34d-1b7d-46b7-b69e-1d11a47ad78b","system_id":"levelo_inurba_marseille","lat":43.31684,"lon":5.40474,"is_reserved":false,"is_disabled":true,"rental_uris":{"android":"levelo://app?vid=1b57e34d-1b7d-46b7-b69e-1d11a47ad78b","ios":"levelo://app?vid=1b57e34d-1b7d-46b7-b69e-1d11a47ad78b"},"vehicle_type_id":"4","last_reported":1751148558,"current_range_meters":0,"station_id":"ce4bh012rcd13ifvqd00","pricing_plan_id":"cebpf4jnsgd1na2vs0mg"},{"bike_id":"001ad19d-d630-4e5b-bccf-639c68a68db5","system_id":"levelo_inurba_marseille","lat":43.301,"lon":5.3911,"is_reserved":false,"is_disabled":true,"rental_uris":{"android":"levelo://app?vid=001ad19d-d630-4e5b-bccf-639c68a68db5","ios":"levelo://app?vid=001ad19d-d630-4e5b-bccf-639c68a68db5"},"vehicle_type_id":"4","last_reported":1751148558,"current_range_meters":0,"station_id":"ce4bh192rcd13ifvqdb0","pricing_plan_id":"cebpf4jnsgd1na2vs0mg"},{"bike_id":"732c1116-4f80-43d2-b21a-3c1f42b61440","system_id":"levelo_inurba_marseille","lat":43.2927,"lon":5.3844,"is_reserved":false,"is_disabled":true,"rental_uris":{"android":"levelo://app?vid=732c1116-4f80-43d2-b21a-3c1f42b61440","ios":"levelo://app?vid=732c1116-4f80-43d2-b21a-3c1f42b61440"},"vehicle_type_id":"4","last_reported":1751148558,"current_range_meters":0,"station_id":"ce4bh692rcd13ifvqea0","pricing_plan_id":"cebpf4jnsgd1na2vs0mg"},{"bike_id":"23fd02cb-1182-467e-9d3d-d2aacff25e13","system_id":"levelo_inurba_marseille","lat":43.28937,"lon":5.36398,"is_reserved":false,"is_disabled":true,"rental_uris":{"android":"levelo://app?vid=23fd02cb-1182-467e-9d3d-d2aacff25e13","ios":"levelo://app?vid=23fd02cb-1182-467e-9d3d-d2aacff25e13"},"vehicle_type_id":"4","last_reported":1751148558,"current_range_meters":0,"station_id":"ce4bhc92rcd13ifvqetg","pricing_plan_id":"cebpf4jnsgd1na2vs0mg"},{"bike_id":"ddf7ea66-efd0-456b-a139-fcb3ce0f5444","system_id":"levelo_inurba_marseille","lat":43.27068,"lon":5.40239,"is_reserved":false,"is_disabled":true,"rental_uris":{"android":"levelo://app?vid=ddf7ea66-efd0-456b-a139-fcb3ce0f5444","ios":"levelo://app?vid=ddf7ea66-efd0-456b-a139-fcb3ce0f5444"},"vehicle_type_id":"4","last_reported":1751148558,"current_range_meters":0,"station_id":"ce4bhk92rcd13ifvqgc0","pricing_plan_id":"cebpf4jnsgd1na2vs0mg"},{"bike_id":"0f4624c4-0983-4063-97ff-484b03c1ef0e","system_id":"levelo_inurba_marseille","lat":43.25118,"lon":5.40319,"is_reserved":false,"is_disabled":true,"rental_uris":{"android":"levelo://app?vid=0f4624c4-0983-4063-97ff-484b03c1ef0e","ios":"levelo://app?vid=0f4624c4-0983-4063-97ff-484b03c1ef0e"},"vehicle_type_id":"4","last_reported":1751148558,"current_range_meters":0,"station_id":"ce4bhlh2rcd13ifvqgig","pricing_plan_id":"cebpf4jnsgd1na2vs0mg"},{"bike_id":"986afbb8-b615-4de2-baa0-d2e83572a784","system_id":"levelo_inurba_marseille","lat":43.33613,"lon":5.41034,"is_reserved":false,"is_disabled":true,"rental_uris":{"android":"levelo://app?vid=986afbb8-b615-4de2-baa0-d2e83572a784","ios":"levelo://app?vid=986afbb8-b615-4de2-baa0-d2e83572a784"},"vehicle_type_id":"4","last_reported":1751148558,"current_range_meters":0,"station_id":"ce4bhqh2rcd13ifvqhmg","pricing_plan_id":"cebpf4jnsgd1na2vs0mg"},{"bike_id":"38d01765-5414-4f3d-b96c-a482eae367ca","system_id":"levelo_inurba_marseille","lat":43.217546,"lon":5.34604,"is_reserved":false,"is_disabled":true,"rental_uris":{"android":"levelo://app?vid=38d01765-5414-4f3d-b96c-a482eae367ca","ios":"levelo://app?vid=38d01765-5414-4f3d-b96c-a482eae367ca"},"vehicle_type_id":"4","last_reported":1751148558,"current_range_meters":0,"station_id":"st_cvj6r9ubvosntc0bgbag","pricing_plan_id":"cebpf4jnsgd1na2vs0mg"},{"bike_id":"53f760d9-2926-4c0b-9078-ae8706c81b5c","system_id":"levelo_inurba_marseille","lat":43.21765,"lon":5.34619,"is_reserved":false,"is_disabled":true,"rental_uris":{"android":"levelo://app?vid=53f760d9-2926-4c0b-9078-ae8706c81b5c","ios":"levelo://app?vid=53f760d9-2926-4c0b-9078-ae8706c81b5c"},"vehicle_type_id":"4","last_reported":1751148558,"current_range_meters":0,"station_id":"st_cvj6r9ubvosntc0bgbag","pricing_plan_id":"cebpf4jnsgd1na2vs0mg"},{"bike_id":"070a5204-3e73-4cf5-9fda-520c8795969f","system_id":"levelo_inurba_marseille","lat":43.21748,"lon":5.34606,"is_reserved":false,"is_disabled":true,"rental_uris":{"android":"levelo://app?vid=070a5204-3e73-4cf5-9fda-520c8795969f","ios":"levelo://app?vid=070a5204-3e73-4cf5-9fda-520c8795969f"},"vehicle_type_id":"4","last_reported":1751148558,"current_range_meters":0,"station_id":"st_cvj6r9ubvosntc0bgbag","pricing_plan_id":"cebpf4jnsgd1na2vs0mg"},{"bike_id":"3ed97791-4fd1-4beb-9e6b-4998740d59d9","system_id":"levelo_inurba_marseille","lat":43.271719,"lon":5.410008,"is_reserved":false,"is_disabled":true,"rental_uris":{"android":"levelo://app?vid=3ed97791-4fd1-4beb-9e6b-4998740d59d9","ios":"levelo://app?vid=3ed97791-4fd1-4beb-9e6b-4998740d59d9"},"vehicle_type_id":"4","last_reported":1751148558,"current_range_meters":400,"station_id":"","pricing_plan_id":"cebpf4jnsgd1na2vs0mg"},{"bike_id":"4c4c7f73-9d17-4b79-8f50-bafebb6a9ebe","system_id":"levelo_inurba_marseille","lat":43.30882,"lon":5.39654,"is_reserved":false,"is_disabled":true,"rental_uris":{"android":"levelo://app?vid=4c4c7f73-9d17-4b79-8f50-bafebb6a9ebe","ios":"levelo://app?vid=4c4c7f73-9d17-4b79-8f50-bafebb6a9ebe"},"vehicle_type_id":"4","last_reported":1751148558,"current_range_meters":400,"station_id":"ce4bh012rcd13ifvqcv0","pricing_plan_id":"cebpf4jnsgd1na2vs0mg"},{"bike_id":"fc4a6741-9156-4956-82c6-f162638292fa","system_id":"levelo_inurba_marseille","lat":43.2603,"lon":5.37547,"is_reserved":false,"is_disabled":true,"rental_uris":{"android":"levelo://app?vid=fc4a6741-9156-4956-82c6-f162638292fa","ios":"levelo://app?vid=fc4a6741-9156-4956-82c6-f162638292fa"},"vehicle_type_id":"4","last_reported":1751148558,"current_range_meters":400,"station_id":"ce4bhgh2rcd13ifvqfa0","pricing_plan_id":"cebpf4jnsgd1na2vs0mg"},{"bike_id":"cd5d6cd1-57ed-4ce4-84aa-d6b3d7829bd2","system_id":"levelo_inurba_marseille","lat":43.25575,"lon":5.38233,"is_reserved":false,"is_disabled":true,"rental_uris":{"android":"levelo://app?vid=cd5d6cd1-57ed-4ce4-84aa-d6b3d7829bd2","ios":"levelo://app?vid=cd5d6cd1-57ed-4ce4-84aa-d6b3d7829bd2"},"vehicle_type_id":"4","last_reported":1751148558,"current_range_meters":400,"station_id":"ce4bhih2rcd13ifvqfs0","pricing_plan_id":"cebpf4jnsgd1na2vs0mg"},{"bike_id":"102c153a-86f9-4e8f-82d0-b5e92e05f17c","system_id":"levelo_inurba_marseille","lat":43.29538,"lon":5.3854,"is_reserved":false,"is_disabled":true,"rental_uris":{"android":"levelo://app?vid=102c153a-86f9-4e8f-82d0-b5e92e05f17c","ios":"levelo://app?vid=102c153a-86f9-4e8f-82d0-b5e92e05f17c"},"vehicle_type_id":"4","last_reported":1751148558,"current_range_meters":800,"station_id":"ce4bgih2rcd13ifvqba0","pricing_plan_id":"cebpf4jnsgd1na2vs0mg"},{"bike_id":"4289b9ea-ff54-4076-86fb-8fa5a69a601a","system_id":"levelo_inurba_marseille","lat":43.29878,"lon":5.3891,"is_reserved":false,"is_disabled":true,"rental_uris":{"android":"levelo://app?vid=4289b9ea-ff54-4076-86fb-8fa5a69a601a","ios":"levelo://app?vid=4289b9ea-ff54-4076-86fb-8fa5a69a601a"},"vehicle_type_id":"4","last_reported":1751148558,"current_range_meters":800,"station_id":"ce4bh392rcd13ifvqdl0","pricing_plan_id":"cebpf4jnsgd1na2vs0mg"},{"bike_id":"d362d02d-128e-4cca-a1a9-f3b988a32336","system_id":"levelo_inurba_marseille","lat":43.2291,"lon":5.35416,"is_reserved":false,"is_disabled":true,"rental_uris":{"android":"levelo://app?vid=d362d02d-128e-4cca-a1a9-f3b988a32336","ios":"levelo://app?vid=d362d02d-128e-4cca-a1a9-f3b988a32336"},"vehicle_type_id":"4","last_reported":1751148558,"current_range_meters":800,"station_id":"cpo3532slgdg3j2ikp40","pricing_plan_id":"cebpf4jnsgd1na2vs0mg"},{"bike_id":"0c809a9d-5d6f-4fcd-845f-600fe18efe0e","system_id":"levelo_inurba_marseille","lat":43.29534,"lon":5.38548,"is_reserved":false,"is_disabled":true,"rental_uris":{"android":"levelo://app?vid=0c809a9d-5d6f-4fcd-845f-600fe18efe0e","ios":"levelo://app?vid=0c809a9d-5d6f-4fcd-845f-600fe18efe0e"},"vehicle_type_id":"4","last_reported":1751148558,"current_range_meters":1200,"station_id":"ce4bgih2rcd13ifvqba0","pricing_plan_id":"cebpf4jnsgd1na2vs0mg"},{"bike_id":"e75f8b5f-d7e5-4828-bd79-194452eeeeb8","system_id":"levelo_inurba_marseille","lat":43.29531,"lon":5.38553,"is_reserved":false,"is_disabled":true,"rental_uris":{"android":"levelo://app?vid=e75f8b5f-d7e5-4828-bd79-194452eeeeb8","ios":"levelo://app?vid=e75f8b5f-d7e5-4828-bd79-194452eeeeb8"},"vehicle_type_id":"4","last_reported":1751148558,"current_range_meters":2000,"station_id":"ce4bgih2rcd13ifvqba0","pricing_plan_id":"cebpf4jnsgd1na2vs0mg"},{"bike_id":"240facc1-38ac-49ce-9676-805692f020c3","system_id":"levelo_inurba_marseille","lat":43.3095,"lon":5.39035,"is_reserved":false,"is_disabled":true,"rental_uris":{"android":"levelo://app?vid=240facc1-38ac-49ce-9676-805692f020c3","ios":"levelo://app?vid=240facc1-38ac-49ce-9676-805692f020c3"},"vehicle_type_id":"4","last_reported":1751148558,"current_range_meters":2000,"station_id":"ce4bgup2rcd13ifvqco0","pricing_plan_id":"cebpf4jnsgd1na2vs0mg"},{"bike_id":"d17f714d-5037-40ab-8474-eef45a4d81ff","system_id":"levelo_inurba_marseille","lat":43.217504,"lon":5.346001,"is_reserved":false,"is_disabled":true,"rental_uris":{"android":"levelo://app?vid=d17f714d-5037-40ab-8474-eef45a4d81ff","ios":"levelo://app?vid=d17f714d-5037-40ab-8474-eef45a4d81ff"},"vehicle_type_id":"4","last_reported":1751148558,"current_range_meters":2000,"station_id":"st_cvj6r9ubvosntc0bgbag","pricing_plan_id":"cebpf4jnsgd1na2vs0mg"},{"bike_id":"d91e7bb0-a291-4df0-86ce-38afac617fd6","system_id":"levelo_inurba_marseille","lat":43.31343,"lon":5.36737,"is_reserved":false,"is_disabled":false,"rental_uris":{"android":"levelo://app?vid=d91e7bb0-a291-4df0-86ce-38afac617fd6","ios":"levelo://app?vid=d91e7bb0-a291-4df0-86ce-38afac617fd6"},"vehicle_type_id":"4","last_reported":1751148558,"current_range_meters":2800,"station_id":"ce4bgr92rcd13ifvqc6g","pricing_plan_id":"cebpf4jnsgd1na2vs0mg"},{"bike_id":"2d6a83db-53e6-4367-8772-7f2c1d42c5f8","system_id":"levelo_inurba_marseille","lat":43.29452,"lon":5.38886,"is_reserved":false,"is_disabled":false,"rental_uris":{"android":"levelo://app?vid=2d6a83db-53e6-4367-8772-7f2c1d42c5f8","ios":"levelo://app?vid=2d6a83db-53e6-4367-8772-7f2c1d42c5f8"},"vehicle_type_id":"4","last_reported":1751148558,"current_range_meters":3200,"station_id":"","pricing_plan_id":"cebpf4jnsgd1na2vs0mg"},{"bike_id":"67c308fc-5814-49c3-90c3-2ee3c07cadc9","system_id":"levelo_inurba_marseille","lat":43.320006,"lon":5.381592,"is_reserved":false,"is_disabled":false,"rental_uris":{"android":"levelo://app?vid=67c308fc-5814-49c3-90c3-2ee3c07cadc9","ios":"levelo://app?vid=67c308fc-5814-49c3-90c3-2ee3c07cadc9"},"vehicle_type_id":"4","last_reported":1751148558,"current_range_meters":3200,"station_id":"","pricing_plan_id":"cebpf4jnsgd1na2vs0mg"},{"bike_id":"6a1f47d4-a5ee-4a3a-8767-cd2c9d9d7486","system_id":"levelo_inurba_marseille","lat":43.29033,"lon":5.38651,"is_reserved":false,"is_disabled":false,"rental_uris":{"android":"levelo://app?vid=6a1f47d4-a5ee-4a3a-8767-cd2c9d9d7486","ios":"levelo://app?vid=6a1f47d4-a5ee-4a3a-8767-cd2c9d9d7486"},"vehicle_type_id":"4","last_reported":1751148558,"current_range_meters":3600,"station_id":"ce4bh4p2rcd13ifvqe0g","pricing_plan_id":"cebpf4jnsgd1na2vs0mg"},{"bike_id":"7fe77cf1-5d36-4f6b-adf2-e81567d9ef03","system_id":"levelo_inurba_marseille","lat":43.30947,"lon":5.39036,"is_reserved":false,"is_disabled":false,"rental_uris":{"android":"levelo://app?vid=7fe77cf1-5d36-4f6b-adf2-e81567d9ef03","ios":"levelo://app?vid=7fe77cf1-5d36-4f6b-adf2-e81567d9ef03"},"vehicle_type_id":"4","last_reported":1751148558,"current_range_meters":4000,"station_id":"ce4bgup2rcd13ifvqco0","pricing_plan_id":"cebpf4jnsgd1na2vs0mg"},{"bike_id":"8c6a0de7-605a-452b-93fc-e1f29555feb5","system_id":"levelo_inurba_marseille","lat":43.298781,"lon":5.39747,"is_reserved":false,"is_disabled":false,"rental_uris":{"android":"levelo://app?vid=8c6a0de7-605a-452b-93fc-e1f29555feb5","ios":"levelo://app?vid=8c6a0de7-605a-452b-93fc-e1f29555feb5"},"vehicle_type_id":"4","last_reported":1751148558,"current_range_meters":4000,"station_id":"ce4bh0h2rcd13ifvqd50","pricing_plan_id":"cebpf4jnsgd1na2vs0mg"},{"bike_id":"73a03650-973e-42b0-bad4-545481e15f73","system_id":"levelo_inurba_marseille","lat":43.312346,"lon":5.390585,"is_reserved":false,"is_disabled":false,"rental_uris":{"android":"levelo://app?vid=73a03650-973e-42b0-bad4-545481e15f73","ios":"levelo://app?vid=73a03650-973e-42b0-bad4-545481e15f73"},"vehicle_type_id":"4","last_reported":1751148558,"current_range_meters":4400,"station_id":"","pricing_plan_id":"cebpf4jnsgd1na2vs0mg"},{"bike_id":"750c0315-c73d-4a67-a9bb-cab09bdf3316","system_id":"levelo_inurba_marseille","lat":43.29537,"lon":5.38566,"is_reserved":false,"is_disabled":false,"rental_uris":{"android":"levelo://app?vid=750c0315-c73d-4a67-a9bb-cab09bdf3316","ios":"levelo://app?vid=750c0315-c73d-4a67-a9bb-cab09bdf3316"},"vehicle_type_id":"4","last_reported":1751148558,"current_range_meters":4400,"station_id":"ce4bgih2rcd13ifvqba0","pricing_plan_id":"cebpf4jnsgd1na2vs0mg"},{"bike_id":"c855d841-69e7-4434-860c-385077ff8e3f","system_id":"levelo_inurba_marseille","lat":43.29524,"lon":5.3903,"is_reserved":false,"is_disabled":false,"rental_uris":{"android":"levelo://app?vid=c855d841-69e7-4434-860c-385077ff8e3f","ios":"levelo://app?vid=c855d841-69e7-4434-860c-385077ff8e3f"},"vehicle_type_id":"4","last_reported":1751148558,"current_range_meters":4400,"station_id":"ce4bh3p2rcd13ifvqdp0","pricing_plan_id":"cebpf4jnsgd1na2vs0mg"},{"bike_id":"46b1f54f-1aba-4adf-a683-be2dc83e7f3f","system_id":"levelo_inurba_marseille","lat":43.25109,"lon":5.40326,"is_reserved":false,"is_disabled":false,"rental_uris":{"android":"levelo://app?vid=46b1f54f-1aba-4adf-a683-be2dc83e7f3f","ios":"levelo://app?vid=46b1f54f-1aba-4adf-a683-be2dc83e7f3f"},"vehicle_type_id":"4","last_reported":1751148558,"current_range_meters":4800,"station_id":"ce4bhlh2rcd13ifvqgig","pricing_plan_id":"cebpf4jnsgd1na2vs0mg"},{"bike_id":"a440f2f6-8cf8-4348-9ba1-e21002a18a07","system_id":"levelo_inurba_marseille","lat":43.32117,"lon":5.36811,"is_reserved":false,"is_disabled":false,"rental_uris":{"android":"levelo://app?vid=a440f2f6-8cf8-4348-9ba1-e21002a18a07","ios":"levelo://app?vid=a440f2f6-8cf8-4348-9ba1-e21002a18a07"},"vehicle_type_id":"4","last_reported":1751148558,"current_range_meters":4800,"station_id":"ce4bhrh2rcd13ifvqhug","pricing_plan_id":"cebpf4jnsgd1na2vs0mg"},{"bike_id":"162ddb2f-ff1e-46b5-a3a2-11d78c5283d8","system_id":"levelo_inurba_marseille","lat":43.29421,"lon":5.38611,"is_reserved":false,"is_disabled":false,"rental_uris":{"android":"levelo://app?vid=162ddb2f-ff1e-46b5-a3a2-11d78c5283d8","ios":"levelo://app?vid=162ddb2f-ff1e-46b5-a3a2-11d78c5283d8"},"vehicle_type_id":"4","last_reported":1751148558,"current_range_meters":5600,"station_id":"ce4bh2h2rcd13ifvqdh0","pricing_plan_id":"cebpf4jnsgd1na2vs0mg"},{"bike_id":"8fef65a0-32be-4106-aa4e-d6bff5990ae5","system_id":"levelo_inurba_marseille","lat":43.3015,"lon":5.38075,"is_reserved":false,"is_disabled":false,"rental_uris":{"android":"levelo://app?vid=8fef65a0-32be-4106-aa4e-d6bff5990ae5","ios":"levelo://app?vid=8fef65a0-32be-4106-aa4e-d6bff5990ae5"},"vehicle_type_id":"4","last_reported":1751148558,"current_range_meters":6000,"station_id":"ce4bgjp2rcd13ifvqbh0","pricing_plan_id":"cebpf4jnsgd1na2vs0mg"},{"bike_id":"281c06c7-9aa7-4543-95f4-878f7926a0e9","system_id":"levelo_inurba_marseille","lat":43.25938,"lon":5.40905,"is_reserved":false,"is_disabled":false,"rental_uris":{"android":"levelo://app?vid=281c06c7-9aa7-4543-95f4-878f7926a0e9","ios":"levelo://app?vid=281c06c7-9aa7-4543-95f4-878f7926a0e9"},"vehicle_type_id":"4","last_reported":1751148558,"current_range_meters":6000,"station_id":"ce4bhm92rcd13ifvqglg","pricing_plan_id":"cebpf4jnsgd1na2vs0mg"},{"bike_id":"01d55084-1fb9-4fe6-abc8-8e45dd0f4f14","system_id":"levelo_inurba_marseille","lat":43.28445,"lon":5.39197,"is_reserved":false,"is_disabled":false,"rental_uris":{"android":"levelo://app?vid=01d55084-1fb9-4fe6-abc8-8e45dd0f4f14","ios":"levelo://app?vid=01d55084-1fb9-4fe6-abc8-8e45dd0f4f14"},"vehicle_type_id":"4","last_reported":1751148558,"current_range_meters":6000,"station_id":"ce4bhoh2rcd13ifvqh5g","pricing_plan_id":"cebpf4jnsgd1na2vs0mg"},{"bike_id":"d93518a7-acea-49d1-8b1d-66917831e25a","system_id":"levelo_inurba_marseille","lat":43.28366,"lon":5.39556,"is_reserved":false,"is_disabled":false,"rental_uris":{"android":"levelo://app?vid=d93518a7-acea-49d1-8b1d-66917831e25a","ios":"levelo://app?vid=d93518a7-acea-49d1-8b1d-66917831e25a"},"vehicle_type_id":"4","last_reported":1751148558,"current_range_meters":6400,"station_id":"","pricing_plan_id":"cebpf4jnsgd1na2vs0mg"},{"bike_id":"2d322d04-3a5c-45c8-8c18-fa22d60ab82d","system_id":"levelo_inurba_marseille","lat":43.29283,"lon":5.40122,"is_reserved":false,"is_disabled":false,"rental_uris":{"android":"levelo://app?vid=2d322d04-3a5c-45c8-8c18-fa22d60ab82d","ios":"levelo://app?vid=2d322d04-3a5c-45c8-8c18-fa22d60ab82d"},"vehicle_type_id":"4","last_reported":1751148558,"current_range_meters":6400,"station_id":"ce4bh312rcd13ifvqdk0","pricing_plan_id":"cebpf4jnsgd1na2vs0mg"},{"bike_id":"75221e87-b0fc-4a08-8172-dd8b904c021d","system_id":"levelo_inurba_marseille","lat":43.25575,"lon":5.3825,"is_reserved":false,"is_disabled":false,"rental_uris":{"android":"levelo://app?vid=75221e87-b0fc-4a08-8172-dd8b904c021d","ios":"levelo://app?vid=75221e87-b0fc-4a08-8172-dd8b904c021d"},"vehicle_type_id":"4","last_reported":1751148558,"current_range_meters":6400,"station_id":"ce4bhih2rcd13ifvqfs0","pricing_plan_id":"cebpf4jnsgd1na2vs0mg"},{"bike_id":"7c4b24a6-74e0-4139-a951-20f07aa1b949","system_id":"levelo_inurba_marseille","lat":43.30653,"lon":5.40072,"is_reserved":false,"is_disabled":false,"rental_uris":{"android":"levelo://app?vid=7c4b24a6-74e0-4139-a951-20f07aa1b949","ios":"levelo://app?vid=7c4b24a6-74e0-4139-a951-20f07aa1b949"},"vehicle_type_id":"4","last_reported":1751148558,"current_range_meters":6800,"station_id":"ce4bh112rcd13ifvqda0","pricing_plan_id":"cebpf4jnsgd1na2vs0mg"},{"bike_id":"e3ec5952-926b-4b24-962b-9016195e3547","system_id":"levelo_inurba_marseille","lat":43.32365,"lon":5.38883,"is_reserved":false,"is_disabled":false,"rental_uris":{"android":"levelo://app?vid=e3ec5952-926b-4b24-962b-9016195e3547","ios":"levelo://app?vid=e3ec5952-926b-4b24-962b-9016195e3547"},"vehicle_type_id":"4","last_reported":1751148558,"current_range_meters":6800,"station_id":"ce4bhqp2rcd13ifvqhog","pricing_plan_id":"cebpf4jnsgd1na2vs0mg"},{"bike_id":"1c8ab180-05fd-405f-9922-b2b2c2d5142f","system_id":"levelo_inurba_marseille","lat":43.32108,"lon":5.36771,"is_reserved":false,"is_disabled":false,"rental_uris":{"android":"levelo://app?vid=1c8ab180-05fd-405f-9922-b2b2c2d5142f","ios":"levelo://app?vid=1c8ab180-05fd-405f-9922-b2b2c2d5142f"},"vehicle_type_id":"4","last_reported":1751148558,"current_range_meters":6800,"station_id":"ce4bhrh2rcd13ifvqhug","pricing_plan_id":"cebpf4jnsgd1na2vs0mg"},{"bike_id":"7991db7f-6230-4ac0-a025-53b04856df95","system_id":"levelo_inurba_marseille","lat":43.2292,"lon":5.35392,"is_reserved":false,"is_disabled":false,"rental_uris":{"android":"levelo://app?vid=7991db7f-6230-4ac0-a025-53b04856df95","ios":"levelo://app?vid=7991db7f-6230-4ac0-a025-53b04856df95"},"vehicle_type_id":"4","last_reported":1751148558,"current_range_meters":6800,"station_id":"cpo3532slgdg3j2ikp40","pricing_plan_id":"cebpf4jnsgd1na2vs0mg"},{"bike_id":"c10305b9-2be9-4030-a44c-d7f83a9a8973","system_id":"levelo_inurba_marseille","lat":43.30149,"lon":5.38094,"is_reserved":false,"is_disabled":false,"rental_uris":{"android":"levelo://app?vid=c10305b9-2be9-4030-a44c-d7f83a9a8973","ios":"levelo://app?vid=c10305b9-2be9-4030-a44c-d7f83a9a8973"},"vehicle_type_id":"4","last_reported":1751148558,"current_range_meters":7200,"station_id":"ce4bgjp2rcd13ifvqbh0","pricing_plan_id":"cebpf4jnsgd1na2vs0mg"},{"bike_id":"c2ace1a9-86cd-4ccf-aefe-e687685dcc8e","system_id":"levelo_inurba_marseille","lat":43.29519,"lon":5.39031,"is_reserved":false,"is_disabled":false,"rental_uris":{"android":"levelo://app?vid=c2ace1a9-86cd-4ccf-aefe-e687685dcc8e","ios":"levelo://app?vid=c2ace1a9-86cd-4ccf-aefe-e687685dcc8e"},"vehicle_type_id":"4","last_reported":1751148558,"current_range_meters":7200,"station_id":"ce4bh3p2rcd13ifvqdp0","pricing_plan_id":"cebpf4jnsgd1na2vs0mg"},{"bike_id":"0811f159-3469-4901-a72c-cd1802c079d4","system_id":"levelo_inurba_marseille","lat":43.29528,"lon":5.39044,"is_reserved":false,"is_disabled":false,"rental_uris":{"android":"levelo://app?vid=0811f159-3469-4901-a72c-cd1802c079d4","ios":"levelo://app?vid=0811f159-3469-4901-a72c-cd1802c079d4"},"vehicle_type_id":"4","last_reported":1751148558,"current_range_meters":7200,"station_id":"ce4bh3p2rcd13ifvqdp0","pricing_plan_id":"cebpf4jnsgd1na2vs0mg"},{"bike_id":"001fdb65-7adf-45d8-b172-ccc00924ec85","system_id":"levelo_inurba_marseille","lat":43.241677,"lon":5.363925,"is_reserved":false,"is_disabled":false,"rental_uris":{"android":"levelo://app?vid=001fdb65-7adf-45d8-b172-ccc00924ec85","ios":"levelo://app?vid=001fdb65-7adf-45d8-b172-ccc00924ec85"},"vehicle_type_id":"4","last_reported":1751148558,"current_range_meters":7200,"station_id":"cpo36qri1sfpv3e86is0","pricing_plan_id":"cebpf4jnsgd1na2vs0mg"},{"bike_id":"7580eecc-134e-4d9a-8570-435ce41fb518","system_id":"levelo_inurba_marseille","lat":43.29694,"lon":5.37308,"is_reserved":false,"is_disabled":false,"rental_uris":{"android":"levelo://app?vid=7580eecc-134e-4d9a-8570-435ce41fb518","ios":"levelo://app?vid=7580eecc-134e-4d9a-8570-435ce41fb518"},"vehicle_type_id":"4","last_reported":1751148558,"current_range_meters":8000,"station_id":"ce4bgk12rcd13ifvqbj0","pricing_plan_id":"cebpf4jnsgd1na2vs0mg"},{"bike_id":"0c704874-bd09-4eb7-bd0e-fbbcf46a600a","system_id":"levelo_inurba_marseille","lat":43.30307,"lon":5.39211,"is_reserved":false,"is_disabled":false,"rental_uris":{"android":"levelo://app?vid=0c704874-bd09-4eb7-bd0e-fbbcf46a600a","ios":"levelo://app?vid=0c704874-bd09-4eb7-bd0e-fbbcf46a600a"},"vehicle_type_id":"4","last_reported":1751148558,"current_range_meters":8000,"station_id":"ce4bgkh2rcd13ifvqbk0","pricing_plan_id":"cebpf4jnsgd1na2vs0mg"},{"bike_id":"7050c574-4a19-4654-9fdc-2a5cdb160df8","system_id":"levelo_inurba_marseille","lat":43.28932,"lon":5.38399,"is_reserved":false,"is_disabled":false,"rental_uris":{"android":"levelo://app?vid=7050c574-4a19-4654-9fdc-2a5cdb160df8","ios":"levelo://app?vid=7050c574-4a19-4654-9fdc-2a5cdb160df8"},"vehicle_type_id":"4","last_reported":1751148558,"current_range_meters":8000,"station_id":"ce4bh612rcd13ifvqe6g","pricing_plan_id":"cebpf4jnsgd1na2vs0mg"},{"bike_id":"8bca3279-9ecc-43fb-b0c3-0a567c6b007a","system_id":"levelo_inurba_marseille","lat":43.28152,"lon":5.42647,"is_reserved":false,"is_disabled":false,"rental_uris":{"android":"levelo://app?vid=8bca3279-9ecc-43fb-b0c3-0a567c6b007a","ios":"levelo://app?vid=8bca3279-9ecc-43fb-b0c3-0a567c6b007a"},"vehicle_type_id":"4","last_reported":1751148558,"current_range_meters":8000,"station_id":"ce4bhnh2rcd13ifvqgug","pricing_plan_id":"cebpf4jnsgd1na2vs0mg"},{"bike_id":"ff7b050d-8f96-47e0-9ee4-ee887945ed8e","system_id":"levelo_inurba_marseille","lat":43.31145,"lon":5.38426,"is_reserved":false,"is_disabled":false,"rental_uris":{"android":"levelo://app?vid=ff7b050d-8f96-47e0-9ee4-ee887945ed8e","ios":"levelo://app?vid=ff7b050d-8f96-47e0-9ee4-ee887945ed8e"},"vehicle_type_id":"4","last_reported":1751148558,"current_range_meters":8400,"station_id":"","pricing_plan_id":"cebpf4jnsgd1na2vs0mg"},{"bike_id":"89126929-801b-4467-b078-22db4df16610","system_id":"levelo_inurba_marseille","lat":43.30787,"lon":5.38168,"is_reserved":false,"is_disabled":false,"rental_uris":{"android":"levelo://app?vid=89126929-801b-4467-b078-22db4df16610","ios":"levelo://app?vid=89126929-801b-4467-b078-22db4df16610"},"vehicle_type_id":"4","last_reported":1751148558,"current_range_meters":8400,"station_id":"ce4bgt12rcd13ifvqce0","pricing_plan_id":"cebpf4jnsgd1na2vs0mg"},{"bike_id":"6ba3c878-96df-47b8-a9d1-e6780e7e3171","system_id":"levelo_inurba_marseille","lat":43.3112,"lon":5.37773,"is_reserved":false,"is_disabled":false,"rental_uris":{"android":"levelo://app?vid=6ba3c878-96df-47b8-a9d1-e6780e7e3171","ios":"levelo://app?vid=6ba3c878-96df-47b8-a9d1-e6780e7e3171"},"vehicle_type_id":"4","last_reported":1751148558,"current_range_meters":8400,"station_id":"ce4bgt92rcd13ifvqcg0","pricing_plan_id":"cebpf4jnsgd1na2vs0mg"},{"bike_id":"5680f9d6-549a-433f-a41d-08d83754159a","system_id":"levelo_inurba_marseille","lat":43.29864,"lon":5.39758,"is_reserved":false,"is_disabled":false,"rental_uris":{"android":"levelo://app?vid=5680f9d6-549a-433f-a41d-08d83754159a","ios":"levelo://app?vid=5680f9d6-549a-433f-a41d-08d83754159a"},"vehicle_type_id":"4","last_reported":1751148558,"current_range_meters":8400,"station_id":"ce4bh0h2rcd13ifvqd50","pricing_plan_id":"cebpf4jnsgd1na2vs0mg"},{"bike_id":"5285971f-a60d-4bb6-a928-38856b3aa436","system_id":"levelo_inurba_marseille","lat":43.27524,"lon":5.42472,"is_reserved":false,"is_disabled":false,"rental_uris":{"android":"levelo://app?vid=5285971f-a60d-4bb6-a928-38856b3aa436","ios":"levelo://app?vid=5285971f-a60d-4bb6-a928-38856b3aa436"},"vehicle_type_id":"4","last_reported":1751148558,"current_range_meters":8400,"station_id":"ce4bhn92rcd13ifvqgrg","pricing_plan_id":"cebpf4jnsgd1na2vs0mg"},{"bike_id":"a0fe624e-ec1b-4e09-94cc-c264efa2d097","system_id":"levelo_inurba_marseille","lat":43.289721,"lon":5.378377,"is_reserved":false,"is_disabled":false,"rental_uris":{"android":"levelo://app?vid=a0fe624e-ec1b-4e09-94cc-c264efa2d097","ios":"levelo://app?vid=a0fe624e-ec1b-4e09-94cc-c264efa2d097"},"vehicle_type_id":"4","last_reported":1751148558,"current_range_meters":8800,"station_id":"","pricing_plan_id":"cebpf4jnsgd1na2vs0mg"},{"bike_id":"d5e70777-ad97-4594-91b6-43ede9611b14","system_id":"levelo_inurba_marseille","lat":43.32163,"lon":5.36819,"is_reserved":false,"is_disabled":false,"rental_uris":{"android":"levelo://app?vid=d5e70777-ad97-4594-91b6-43ede9611b14","ios":"levelo://app?vid=d5e70777-ad97-4594-91b6-43ede9611b14"},"vehicle_type_id":"4","last_reported":1751148558,"current_range_meters":8800,"station_id":"","pricing_plan_id":"cebpf4jnsgd1na2vs0mg"},{"bike_id":"863e84db-9603-4f15-9b07-8e1d0f9a7f6b","system_id":"levelo_inurba_marseille","lat":43.25094,"lon":5.403079,"is_reserved":false,"is_disabled":false,"rental_uris":{"android":"levelo://app?vid=863e84db-9603-4f15-9b07-8e1d0f9a7f6b","ios":"levelo://app?vid=863e84db-9603-4f15-9b07-8e1d0f9a7f6b"},"vehicle_type_id":"4","last_reported":1751148558,"current_range_meters":8800,"station_id":"ce4bhlh2rcd13ifvqgig","pricing_plan_id":"cebpf4jnsgd1na2vs0mg"},{"bike_id":"d8a97814-f7b2-4fe8-89cc-19b809e7e23f","system_id":"levelo_inurba_marseille","lat":43.317614,"lon":5.390065,"is_reserved":false,"is_disabled":false,"rental_uris":{"android":"levelo://app?vid=d8a97814-f7b2-4fe8-89cc-19b809e7e23f","ios":"levelo://app?vid=d8a97814-f7b2-4fe8-89cc-19b809e7e23f"},"vehicle_type_id":"4","last_reported":1751148558,"current_range_meters":8800,"station_id":"ce4bhqp2rcd13ifvqhng","pricing_plan_id":"cebpf4jnsgd1na2vs0mg"},{"bike_id":"fa05065a-ec51-4aa6-98f6-495d2a8a7726","system_id":"levelo_inurba_marseille","lat":43.32472,"lon":5.36561,"is_reserved":false,"is_disabled":false,"rental_uris":{"android":"levelo://app?vid=fa05065a-ec51-4aa6-98f6-495d2a8a7726","ios":"levelo://app?vid=fa05065a-ec51-4aa6-98f6-495d2a8a7726"},"vehicle_type_id":"4","last_reported":1751148558,"current_range_meters":8800,"station_id":"ce4bhs12rcd13ifvqhvg","pricing_plan_id":"cebpf4jnsgd1na2vs0mg"},{"bike_id":"b9c284bb-85a3-4e0e-893b-566989df9f45","system_id":"levelo_inurba_marseille","lat":43.324872,"lon":5.365632,"is_reserved":false,"is_disabled":false,"rental_uris":{"android":"levelo://app?vid=b9c284bb-85a3-4e0e-893b-566989df9f45","ios":"levelo://app?vid=b9c284bb-85a3-4e0e-893b-566989df9f45"},"vehicle_type_id":"4","last_reported":1751148558,"current_range_meters":8800,"station_id":"ce4bhs12rcd13ifvqhvg","pricing_plan_id":"cebpf4jnsgd1na2vs0mg"},{"bike_id":"a262b0ea-69a7-4e8d-854e-8e63afa111e4","system_id":"levelo_inurba_marseille","lat":43.24166,"lon":5.36401,"is_reserved":false,"is_disabled":false,"rental_uris":{"android":"levelo://app?vid=a262b0ea-69a7-4e8d-854e-8e63afa111e4","ios":"levelo://app?vid=a262b0ea-69a7-4e8d-854e-8e63afa111e4"},"vehicle_type_id":"4","last_reported":1751148558,"current_range_meters":8800,"station_id":"cpo36qri1sfpv3e86is0","pricing_plan_id":"cebpf4jnsgd1na2vs0mg"},{"bike_id":"de86a1cb-d4ca-4697-b110-a2244b9aa97e","system_id":"levelo_inurba_marseille","lat":43.29534,"lon":5.3856,"is_reserved":false,"is_disabled":false,"rental_uris":{"android":"levelo://app?vid=de86a1cb-d4ca-4697-b110-a2244b9aa97e","ios":"levelo://app?vid=de86a1cb-d4ca-4697-b110-a2244b9aa97e"},"vehicle_type_id":"4","last_reported":1751148558,"current_range_meters":9200,"station_id":"ce4bgih2rcd13ifvqba0","pricing_plan_id":"cebpf4jnsgd1na2vs0mg"},{"bike_id":"bb8962de-981f-454e-aa70-24faaf71f12b","system_id":"levelo_inurba_marseille","lat":43.29963,"lon":5.38526,"is_reserved":false,"is_disabled":false,"rental_uris":{"android":"levelo://app?vid=bb8962de-981f-454e-aa70-24faaf71f12b","ios":"levelo://app?vid=bb8962de-981f-454e-aa70-24faaf71f12b"},"vehicle_type_id":"4","last_reported":1751148558,"current_range_meters":9200,"station_id":"ce4bgj92rcd13ifvqbd0","pricing_plan_id":"cebpf4jnsgd1na2vs0mg"},{"bike_id":"571f904a-3237-44b2-81d3-7d2a9f510fa2","system_id":"levelo_inurba_marseille","lat":43.3063,"lon":5.40095,"is_reserved":false,"is_disabled":false,"rental_uris":{"android":"levelo://app?vid=571f904a-3237-44b2-81d3-7d2a9f510fa2","ios":"levelo://app?vid=571f904a-3237-44b2-81d3-7d2a9f510fa2"},"vehicle_type_id":"4","last_reported":1751148558,"current_range_meters":9200,"station_id":"ce4bh112rcd13ifvqda0","pricing_plan_id":"cebpf4jnsgd1na2vs0mg"},{"bike_id":"e6ce70f7-9138-485c-a4db-2c9174614cff","system_id":"levelo_inurba_marseille","lat":43.317767,"lon":5.368521,"is_reserved":false,"is_disabled":false,"rental_uris":{"android":"levelo://app?vid=e6ce70f7-9138-485c-a4db-2c9174614cff","ios":"levelo://app?vid=e6ce70f7-9138-485c-a4db-2c9174614cff"},"vehicle_type_id":"4","last_reported":1751148558,"current_range_meters":9600,"station_id":"","pricing_plan_id":"cebpf4jnsgd1na2vs0mg"},{"bike_id":"9ed47e43-f340-44f7-be71-f80b2c913341","system_id":"levelo_inurba_marseille","lat":43.29259,"lon":5.384466,"is_reserved":false,"is_disabled":false,"rental_uris":{"android":"levelo://app?vid=9ed47e43-f340-44f7-be71-f80b2c913341","ios":"levelo://app?vid=9ed47e43-f340-44f7-be71-f80b2c913341"},"vehicle_type_id":"4","last_reported":1751148558,"current_range_meters":9600,"station_id":"","pricing_plan_id":"cebpf4jnsgd1na2vs0mg"},{"bike_id":"873facc6-e7b7-4624-96bf-88db65f80e31","system_id":"levelo_inurba_marseille","lat":43.265587,"lon":5.37281,"is_reserved":false,"is_disabled":false,"rental_uris":{"android":"levelo://app?vid=873facc6-e7b7-4624-96bf-88db65f80e31","ios":"levelo://app?vid=873facc6-e7b7-4624-96bf-88db65f80e31"},"vehicle_type_id":"4","last_reported":1751148558,"current_range_meters":9600,"station_id":"ce4bhg12rcd13ifvqf70","pricing_plan_id":"cebpf4jnsgd1na2vs0mg"},{"bike_id":"13726ea4-91b3-4b24-87ce-db653217d50c","system_id":"levelo_inurba_marseille","lat":43.32107,"lon":5.3676,"is_reserved":false,"is_disabled":false,"rental_uris":{"android":"levelo://app?vid=13726ea4-91b3-4b24-87ce-db653217d50c","ios":"levelo://app?vid=13726ea4-91b3-4b24-87ce-db653217d50c"},"vehicle_type_id":"4","last_reported":1751148558,"current_range_meters":9600,"station_id":"ce4bhrh2rcd13ifvqhug","pricing_plan_id":"cebpf4jnsgd1na2vs0mg"},{"bike_id":"bbc4a376-bee7-4ad5-a49a-1022d27c1489","system_id":"levelo_inurba_marseille","lat":43.32078,"lon":5.36771,"is_reserved":false,"is_disabled":false,"rental_uris":{"android":"levelo://app?vid=bbc4a376-bee7-4ad5-a49a-1022d27c1489","ios":"levelo://app?vid=bbc4a376-bee7-4ad5-a49a-1022d27c1489"},"vehicle_type_id":"4","last_reported":1751148558,"current_range_meters":9600,"station_id":"ce4bhrh2rcd13ifvqhug","pricing_plan_id":"cebpf4jnsgd1na2vs0mg"},{"bike_id":"44b677c8-76ed-4eac-8888-58151f9d5d6e","system_id":"levelo_inurba_marseille","lat":43.31961,"lon":5.36744,"is_reserved":false,"is_disabled":false,"rental_uris":{"android":"levelo://app?vid=44b677c8-76ed-4eac-8888-58151f9d5d6e","ios":"levelo://app?vid=44b677c8-76ed-4eac-8888-58151f9d5d6e"},"vehicle_type_id":"4","last_reported":1751148558,"current_range_meters":10000,"station_id":"","pricing_plan_id":"cebpf4jnsgd1na2vs0mg"},{"bike_id":"01d2f5b3-2f17-44fd-9669-93ec1516361a","system_id":"levelo_inurba_marseille","lat":43.2944,"lon":5.39752,"is_reserved":false,"is_disabled":false,"rental_uris":{"android":"levelo://app?vid=01d2f5b3-2f17-44fd-9669-93ec1516361a","ios":"levelo://app?vid=01d2f5b3-2f17-44fd-9669-93ec1516361a"},"vehicle_type_id":"4","last_reported":1751148558,"current_range_meters":10000,"station_id":"ce4bh3h2rcd13ifvqdo0","pricing_plan_id":"cebpf4jnsgd1na2vs0mg"},{"bike_id":"72a0bb1b-f9a5-41cc-b76b-95c4d75d7c25","system_id":"levelo_inurba_marseille","lat":43.28703,"lon":5.37374,"is_reserved":false,"is_disabled":false,"rental_uris":{"android":"levelo://app?vid=72a0bb1b-f9a5-41cc-b76b-95c4d75d7c25","ios":"levelo://app?vid=72a0bb1b-f9a5-41cc-b76b-95c4d75d7c25"},"vehicle_type_id":"4","last_reported":1751148558,"current_range_meters":10000,"station_id":"ce4bh3p2rcd13ifvqdq0","pricing_plan_id":"cebpf4jnsgd1na2vs0mg"},{"bike_id":"9d776620-2d0c-49e2-9e7a-8265ab4705fd","system_id":"levelo_inurba_marseille","lat":43.31166,"lon":5.38715,"is_reserved":false,"is_disabled":false,"rental_uris":{"android":"levelo://app?vid=9d776620-2d0c-49e2-9e7a-8265ab4705fd","ios":"levelo://app?vid=9d776620-2d0c-49e2-9e7a-8265ab4705fd"},"vehicle_type_id":"4","last_reported":1751148558,"current_range_meters":10800,"station_id":"ce4bgv12rcd13ifvqcp0","pricing_plan_id":"cebpf4jnsgd1na2vs0mg"},{"bike_id":"70e5c7e3-5aa4-4da2-92ca-98928e1d80b6","system_id":"levelo_inurba_marseille","lat":43.29866,"lon":5.3973,"is_reserved":false,"is_disabled":false,"rental_uris":{"android":"levelo://app?vid=70e5c7e3-5aa4-4da2-92ca-98928e1d80b6","ios":"levelo://app?vid=70e5c7e3-5aa4-4da2-92ca-98928e1d80b6"},"vehicle_type_id":"4","last_reported":1751148558,"current_range_meters":10800,"station_id":"ce4bh0h2rcd13ifvqd50","pricing_plan_id":"cebpf4jnsgd1na2vs0mg"},{"bike_id":"576cb815-1d92-486e-a138-f51c6724c88a","system_id":"levelo_inurba_marseille","lat":43.30646,"lon":5.40095,"is_reserved":false,"is_disabled":false,"rental_uris":{"android":"levelo://app?vid=576cb815-1d92-486e-a138-f51c6724c88a","ios":"levelo://app?vid=576cb815-1d92-486e-a138-f51c6724c88a"},"vehicle_type_id":"4","last_reported":1751148558,"current_range_meters":10800,"station_id":"ce4bh112rcd13ifvqda0","pricing_plan_id":"cebpf4jnsgd1na2vs0mg"},{"bike_id":"ddc32f42-6c6b-4efd-b624-808533ea3c9e","system_id":"levelo_inurba_marseille","lat":43.26213,"lon":5.37454,"is_reserved":false,"is_disabled":false,"rental_uris":{"android":"levelo://app?vid=ddc32f42-6c6b-4efd-b624-808533ea3c9e","ios":"levelo://app?vid=ddc32f42-6c6b-4efd-b624-808533ea3c9e"},"vehicle_type_id":"4","last_reported":1751148558,"current_range_meters":10800,"station_id":"ce4bhgp2rcd13ifvqfc0","pricing_plan_id":"cebpf4jnsgd1na2vs0mg"},{"bike_id":"873256bf-030f-48f2-9da5-60f4daab0bef","system_id":"levelo_inurba_marseille","lat":43.2511,"lon":5.40324,"is_reserved":false,"is_disabled":false,"rental_uris":{"android":"levelo://app?vid=873256bf-030f-48f2-9da5-60f4daab0bef","ios":"levelo://app?vid=873256bf-030f-48f2-9da5-60f4daab0bef"},"vehicle_type_id":"4","last_reported":1751148558,"current_range_meters":10800,"station_id":"ce4bhlh2rcd13ifvqgig","pricing_plan_id":"cebpf4jnsgd1na2vs0mg"},{"bike_id":"962af267-d53f-46b3-80f5-26c7fbd343ce","system_id":"levelo_inurba_marseille","lat":43.22446,"lon":5.34808,"is_reserved":false,"is_disabled":false,"rental_uris":{"android":"levelo://app?vid=962af267-d53f-46b3-80f5-26c7fbd343ce","ios":"levelo://app?vid=962af267-d53f-46b3-80f5-26c7fbd343ce"},"vehicle_type_id":"4","last_reported":1751148558,"current_range_meters":10800,"station_id":"st_cvj5dfep6f1abm77gieg","pricing_plan_id":"cebpf4jnsgd1na2vs0mg"},{"bike_id":"13fabc0f-5bfd-4dc8-9136-84b1659cd66b","system_id":"levelo_inurba_marseille","lat":43.211869,"lon":5.350487,"is_reserved":false,"is_disabled":false,"rental_uris":{"android":"levelo://app?vid=13fabc0f-5bfd-4dc8-9136-84b1659cd66b","ios":"levelo://app?vid=13fabc0f-5bfd-4dc8-9136-84b1659cd66b"},"vehicle_type_id":"4","last_reported":1751148558,"current_range_meters":10800,"station_id":"st_cvj6sg6p6f1abm77japg","pricing_plan_id":"cebpf4jnsgd1na2vs0mg"},{"bike_id":"12c7fc9f-7c7b-4185-9b2f-badd0c17e36b","system_id":"levelo_inurba_marseille","lat":43.24742,"lon":5.37447,"is_reserved":false,"is_disabled":false,"rental_uris":{"android":"levelo://app?vid=12c7fc9f-7c7b-4185-9b2f-badd0c17e36b","ios":"levelo://app?vid=12c7fc9f-7c7b-4185-9b2f-badd0c17e36b"},"vehicle_type_id":"4","last_reported":1751148558,"current_range_meters":11200,"station_id":"","pricing_plan_id":"cebpf4jnsgd1na2vs0mg"},{"bike_id":"721165c1-ef6f-40cc-8d33-af3a7999864b","system_id":"levelo_inurba_marseille","lat":43.326036,"lon":5.378681,"is_reserved":false,"is_disabled":false,"rental_uris":{"android":"levelo://app?vid=721165c1-ef6f-40cc-8d33-af3a7999864b","ios":"levelo://app?vid=721165c1-ef6f-40cc-8d33-af3a7999864b"},"vehicle_type_id":"4","last_reported":1751148558,"current_range_meters":11200,"station_id":"","pricing_plan_id":"cebpf4jnsgd1na2vs0mg"},{"bike_id":"fcc46504-cca5-4295-a4f6-1c02e2e46c6a","system_id":"levelo_inurba_marseille","lat":43.262073,"lon":5.374455,"is_reserved":false,"is_disabled":false,"rental_uris":{"android":"levelo://app?vid=fcc46504-cca5-4295-a4f6-1c02e2e46c6a","ios":"levelo://app?vid=fcc46504-cca5-4295-a4f6-1c02e2e46c6a"},"vehicle_type_id":"4","last_reported":1751148558,"current_range_meters":11200,"station_id":"","pricing_plan_id":"cebpf4jnsgd1na2vs0mg"},{"bike_id":"706ac376-dfcb-4e92-bef8-f6530609bbcd","system_id":"levelo_inurba_marseille","lat":43.30478,"lon":5.37894,"is_reserved":false,"is_disabled":false,"rental_uris":{"android":"levelo://app?vid=706ac376-dfcb-4e92-bef8-f6530609bbcd","ios":"levelo://app?vid=706ac376-dfcb-4e92-bef8-f6530609bbcd"},"vehicle_type_id":"4","last_reported":1751148558,"current_range_meters":11200,"station_id":"ce4bgup2rcd13ifvqcn0","pricing_plan_id":"cebpf4jnsgd1na2vs0mg"},{"bike_id":"07b3984a-2889-4253-99cf-c5ef4530e935","system_id":"levelo_inurba_marseille","lat":43.29435,"lon":5.38609,"is_reserved":false,"is_disabled":false,"rental_uris":{"android":"levelo://app?vid=07b3984a-2889-4253-99cf-c5ef4530e935","ios":"levelo://app?vid=07b3984a-2889-4253-99cf-c5ef4530e935"},"vehicle_type_id":"4","last_reported":1751148558,"current_range_meters":11200,"station_id":"ce4bh2h2rcd13ifvqdh0","pricing_plan_id":"cebpf4jnsgd1na2vs0mg"},{"bike_id":"ae98fe4e-f7d2-4867-a6d5-e7dccd03e41f","system_id":"levelo_inurba_marseille","lat":43.29252,"lon":5.38432,"is_reserved":false,"is_disabled":false,"rental_uris":{"android":"levelo://app?vid=ae98fe4e-f7d2-4867-a6d5-e7dccd03e41f","ios":"levelo://app?vid=ae98fe4e-f7d2-4867-a6d5-e7dccd03e41f"},"vehicle_type_id":"4","last_reported":1751148558,"current_range_meters":11200,"station_id":"ce4bh692rcd13ifvqea0","pricing_plan_id":"cebpf4jnsgd1na2vs0mg"},{"bike_id":"42b6f9cf-8722-4df0-9487-1709586295f8","system_id":"levelo_inurba_marseille","lat":43.28023,"lon":5.36951,"is_reserved":false,"is_disabled":false,"rental_uris":{"android":"levelo://app?vid=42b6f9cf-8722-4df0-9487-1709586295f8","ios":"levelo://app?vid=42b6f9cf-8722-4df0-9487-1709586295f8"},"vehicle_type_id":"4","last_reported":1751148558,"current_range_meters":11200,"station_id":"ce4bha12rcd13ifvqef0","pricing_plan_id":"cebpf4jnsgd1na2vs0mg"},{"bike_id":"afd6e774-29f8-4928-9b0e-b3dcf4448abd","system_id":"levelo_inurba_marseille","lat":43.24542,"lon":5.39551,"is_reserved":false,"is_disabled":false,"rental_uris":{"android":"levelo://app?vid=afd6e774-29f8-4928-9b0e-b3dcf4448abd","ios":"levelo://app?vid=afd6e774-29f8-4928-9b0e-b3dcf4448abd"},"vehicle_type_id":"4","last_reported":1751148558,"current_range_meters":11200,"station_id":"ce4bhlp2rcd13ifvqgjg","pricing_plan_id":"cebpf4jnsgd1na2vs0mg"},{"bike_id":"873ce198-d36d-4815-8778-b72bd2ca0116","system_id":"levelo_inurba_marseille","lat":43.32107,"lon":5.36782,"is_reserved":false,"is_disabled":false,"rental_uris":{"android":"levelo://app?vid=873ce198-d36d-4815-8778-b72bd2ca0116","ios":"levelo://app?vid=873ce198-d36d-4815-8778-b72bd2ca0116"},"vehicle_type_id":"4","last_reported":1751148558,"current_range_meters":11200,"station_id":"ce4bhrh2rcd13ifvqhug","pricing_plan_id":"cebpf4jnsgd1na2vs0mg"},{"bike_id":"071d9ad8-79e9-447b-b25c-0a0463116df8","system_id":"levelo_inurba_marseille","lat":43.23891,"lon":5.36558,"is_reserved":false,"is_disabled":false,"rental_uris":{"android":"levelo://app?vid=071d9ad8-79e9-447b-b25c-0a0463116df8","ios":"levelo://app?vid=071d9ad8-79e9-447b-b25c-0a0463116df8"},"vehicle_type_id":"4","last_reported":1751148558,"current_range_meters":11600,"station_id":"","pricing_plan_id":"cebpf4jnsgd1na2vs0mg"},{"bike_id":"29a14885-0218-42d8-89ac-fa15e854a28c","system_id":"levelo_inurba_marseille","lat":43.30422,"lon":5.39741,"is_reserved":false,"is_disabled":false,"rental_uris":{"android":"levelo://app?vid=29a14885-0218-42d8-89ac-fa15e854a28c","ios":"levelo://app?vid=29a14885-0218-42d8-89ac-fa15e854a28c"},"vehicle_type_id":"4","last_reported":1751148558,"current_range_meters":11600,"station_id":"ce4bh092rcd13ifvqd20","pricing_plan_id":"cebpf4jnsgd1na2vs0mg"},{"bike_id":"a63f8bfa-3fba-4d8c-bbb0-738faae29dff","system_id":"levelo_inurba_marseille","lat":43.29416,"lon":5.38619,"is_reserved":false,"is_disabled":false,"rental_uris":{"android":"levelo://app?vid=a63f8bfa-3fba-4d8c-bbb0-738faae29dff","ios":"levelo://app?vid=a63f8bfa-3fba-4d8c-bbb0-738faae29dff"},"vehicle_type_id":"4","last_reported":1751148558,"current_range_meters":11600,"station_id":"ce4bh2h2rcd13ifvqdh0","pricing_plan_id":"cebpf4jnsgd1na2vs0mg"},{"bike_id":"4cbc926a-a3ce-4b56-990c-ad28412a86ad","system_id":"levelo_inurba_marseille","lat":43.29523,"lon":5.39036,"is_reserved":false,"is_disabled":false,"rental_uris":{"android":"levelo://app?vid=4cbc926a-a3ce-4b56-990c-ad28412a86ad","ios":"levelo://app?vid=4cbc926a-a3ce-4b56-990c-ad28412a86ad"},"vehicle_type_id":"4","last_reported":1751148558,"current_range_meters":11600,"station_id":"ce4bh3p2rcd13ifvqdp0","pricing_plan_id":"cebpf4jnsgd1na2vs0mg"},{"bike_id":"98debcc3-267a-47ea-aae8-b7276036a9d7","system_id":"levelo_inurba_marseille","lat":43.28464,"lon":5.35884,"is_reserved":false,"is_disabled":false,"rental_uris":{"android":"levelo://app?vid=98debcc3-267a-47ea-aae8-b7276036a9d7","ios":"levelo://app?vid=98debcc3-267a-47ea-aae8-b7276036a9d7"},"vehicle_type_id":"4","last_reported":1751148558,"current_range_meters":11600,"station_id":"ce4bhah2rcd13ifvqei0","pricing_plan_id":"cebpf4jnsgd1na2vs0mg"},{"bike_id":"4d8e7eb5-6538-45cc-b116-91fbbd25b24f","system_id":"levelo_inurba_marseille","lat":43.30473,"lon":5.37902,"is_reserved":false,"is_disabled":false,"rental_uris":{"android":"levelo://app?vid=4d8e7eb5-6538-45cc-b116-91fbbd25b24f","ios":"levelo://app?vid=4d8e7eb5-6538-45cc-b116-91fbbd25b24f"},"vehicle_type_id":"4","last_reported":1751148558,"current_range_meters":12000,"station_id":"ce4bgup2rcd13ifvqcn0","pricing_plan_id":"cebpf4jnsgd1na2vs0mg"},{"bike_id":"e673dc05-c442-49dd-ba5f-5f85af7e5a15","system_id":"levelo_inurba_marseille","lat":43.286961,"lon":5.399801,"is_reserved":false,"is_disabled":false,"rental_uris":{"android":"levelo://app?vid=e673dc05-c442-49dd-ba5f-5f85af7e5a15","ios":"levelo://app?vid=e673dc05-c442-49dd-ba5f-5f85af7e5a15"},"vehicle_type_id":"4","last_reported":1751148558,"current_range_meters":12000,"station_id":"ce4bho92rcd13ifvqh3g","pricing_plan_id":"cebpf4jnsgd1na2vs0mg"},{"bike_id":"a7883090-0e10-4075-944b-a3cca54bc544","system_id":"levelo_inurba_marseille","lat":43.225066,"lon":5.347826,"is_reserved":false,"is_disabled":false,"rental_uris":{"android":"levelo://app?vid=a7883090-0e10-4075-944b-a3cca54bc544","ios":"levelo://app?vid=a7883090-0e10-4075-944b-a3cca54bc544"},"vehicle_type_id":"4","last_reported":1751148558,"current_range_meters":12000,"station_id":"st_cvj5dfep6f1abm77gieg","pricing_plan_id":"cebpf4jnsgd1na2vs0mg"},{"bike_id":"762acdc5-9b99-47a0-bda1-ee8060271245","system_id":"levelo_inurba_marseille","lat":43.21195,"lon":5.35089,"is_reserved":false,"is_disabled":false,"rental_uris":{"android":"levelo://app?vid=762acdc5-9b99-47a0-bda1-ee8060271245","ios":"levelo://app?vid=762acdc5-9b99-47a0-bda1-ee8060271245"},"vehicle_type_id":"4","last_reported":1751148558,"current_range_meters":12000,"station_id":"st_cvj6sg6p6f1abm77japg","pricing_plan_id":"cebpf4jnsgd1na2vs0mg"},{"bike_id":"909f6574-fc05-4763-81b6-140892a682ea","system_id":"levelo_inurba_marseille","lat":43.31073,"lon":5.38373,"is_reserved":false,"is_disabled":false,"rental_uris":{"android":"levelo://app?vid=909f6574-fc05-4763-81b6-140892a682ea","ios":"levelo://app?vid=909f6574-fc05-4763-81b6-140892a682ea"},"vehicle_type_id":"4","last_reported":1751148558,"current_range_meters":12400,"station_id":"ce4bgv92rcd13ifvqcr0","pricing_plan_id":"cebpf4jnsgd1na2vs0mg"},{"bike_id":"a9811df1-1126-4952-a3a7-fdf1d53a863e","system_id":"levelo_inurba_marseille","lat":43.31281,"lon":5.40173,"is_reserved":false,"is_disabled":false,"rental_uris":{"android":"levelo://app?vid=a9811df1-1126-4952-a3a7-fdf1d53a863e","ios":"levelo://app?vid=a9811df1-1126-4952-a3a7-fdf1d53a863e"},"vehicle_type_id":"4","last_reported":1751148558,"current_range_meters":12400,"station_id":"ce4bh092rcd13ifvqd30","pricing_plan_id":"cebpf4jnsgd1na2vs0mg"},{"bike_id":"dbafef98-c28e-4e1c-b5cc-db925b1f334d","system_id":"levelo_inurba_marseille","lat":43.30638,"lon":5.4008,"is_reserved":false,"is_disabled":false,"rental_uris":{"android":"levelo://app?vid=dbafef98-c28e-4e1c-b5cc-db925b1f334d","ios":"levelo://app?vid=dbafef98-c28e-4e1c-b5cc-db925b1f334d"},"vehicle_type_id":"4","last_reported":1751148558,"current_range_meters":12400,"station_id":"ce4bh112rcd13ifvqda0","pricing_plan_id":"cebpf4jnsgd1na2vs0mg"},{"bike_id":"22bdc172-735a-4e54-8cb3-d571a217df7d","system_id":"levelo_inurba_marseille","lat":43.28698,"lon":5.38668,"is_reserved":false,"is_disabled":false,"rental_uris":{"android":"levelo://app?vid=22bdc172-735a-4e54-8cb3-d571a217df7d","ios":"levelo://app?vid=22bdc172-735a-4e54-8cb3-d571a217df7d"},"vehicle_type_id":"4","last_reported":1751148558,"current_range_meters":12400,"station_id":"ce4bh492rcd13ifvqdug","pricing_plan_id":"cebpf4jnsgd1na2vs0mg"},{"bike_id":"21a76ff1-dec2-4da4-9814-4ec3daa770d9","system_id":"levelo_inurba_marseille","lat":43.27567,"lon":5.38427,"is_reserved":false,"is_disabled":false,"rental_uris":{"android":"levelo://app?vid=21a76ff1-dec2-4da4-9814-4ec3daa770d9","ios":"levelo://app?vid=21a76ff1-dec2-4da4-9814-4ec3daa770d9"},"vehicle_type_id":"4","last_reported":1751148558,"current_range_meters":12400,"station_id":"ce4bhh92rcd13ifvqfi0","pricing_plan_id":"cebpf4jnsgd1na2vs0mg"},{"bike_id":"23100b8f-96ba-48de-b814-d02d28fdf970","system_id":"levelo_inurba_marseille","lat":43.295547,"lon":5.422922,"is_reserved":false,"is_disabled":false,"rental_uris":{"android":"levelo://app?vid=23100b8f-96ba-48de-b814-d02d28fdf970","ios":"levelo://app?vid=23100b8f-96ba-48de-b814-d02d28fdf970"},"vehicle_type_id":"4","last_reported":1751148558,"current_range_meters":12400,"station_id":"ce4bhph2rcd13ifvqhdg","pricing_plan_id":"cebpf4jnsgd1na2vs0mg"},{"bike_id":"de9ed94b-c887-4c1d-945c-1fa9d5293e55","system_id":"levelo_inurba_marseille","lat":43.28855,"lon":5.39336,"is_reserved":false,"is_disabled":false,"rental_uris":{"android":"levelo://app?vid=de9ed94b-c887-4c1d-945c-1fa9d5293e55","ios":"levelo://app?vid=de9ed94b-c887-4c1d-945c-1fa9d5293e55"},"vehicle_type_id":"4","last_reported":1751148558,"current_range_meters":12800,"station_id":"ce4bh2p2rcd13ifvqdi0","pricing_plan_id":"cebpf4jnsgd1na2vs0mg"},{"bike_id":"c61e3ab8-a881-4f8f-b520-a6f9f0d2eab0","system_id":"levelo_inurba_marseille","lat":43.27972,"lon":5.38741,"is_reserved":false,"is_disabled":false,"rental_uris":{"android":"levelo://app?vid=c61e3ab8-a881-4f8f-b520-a6f9f0d2eab0","ios":"levelo://app?vid=c61e3ab8-a881-4f8f-b520-a6f9f0d2eab0"},"vehicle_type_id":"4","last_reported":1751148558,"current_range_meters":12800,"station_id":"ce4bhg12rcd13ifvqf80","pricing_plan_id":"cebpf4jnsgd1na2vs0mg"},{"bike_id":"91b65e10-0e4e-418a-bcf7-105b8872a5de","system_id":"levelo_inurba_marseille","lat":43.23086,"lon":5.354693,"is_reserved":false,"is_disabled":false,"rental_uris":{"android":"levelo://app?vid=91b65e10-0e4e-418a-bcf7-105b8872a5de","ios":"levelo://app?vid=91b65e10-0e4e-418a-bcf7-105b8872a5de"},"vehicle_type_id":"4","last_reported":1751148558,"current_range_meters":12800,"station_id":"cpo3342slgdg3j2ifvpg","pricing_plan_id":"cebpf4jnsgd1na2vs0mg"},{"bike_id":"870e5fb9-c097-4e97-8f15-9764e3c0937f","system_id":"levelo_inurba_marseille","lat":43.27962,"lon":5.38727,"is_reserved":false,"is_disabled":false,"rental_uris":{"android":"levelo://app?vid=870e5fb9-c097-4e97-8f15-9764e3c0937f","ios":"levelo://app?vid=870e5fb9-c097-4e97-8f15-9764e3c0937f"},"vehicle_type_id":"4","last_reported":1751148558,"current_range_meters":13600,"station_id":"ce4bhg12rcd13ifvqf80","pricing_plan_id":"cebpf4jnsgd1na2vs0mg"},{"bike_id":"c4e23027-fb76-4e12-a17a-e866f2d0c4a5","system_id":"levelo_inurba_marseille","lat":43.26062,"lon":5.37563,"is_reserved":false,"is_disabled":false,"rental_uris":{"android":"levelo://app?vid=c4e23027-fb76-4e12-a17a-e866f2d0c4a5","ios":"levelo://app?vid=c4e23027-fb76-4e12-a17a-e866f2d0c4a5"},"vehicle_type_id":"4","last_reported":1751148558,"current_range_meters":13600,"station_id":"ce4bhgh2rcd13ifvqfa0","pricing_plan_id":"cebpf4jnsgd1na2vs0mg"},{"bike_id":"e9931aff-891f-4ab2-80de-abfe09343716","system_id":"levelo_inurba_marseille","lat":43.26021,"lon":5.37563,"is_reserved":false,"is_disabled":false,"rental_uris":{"android":"levelo://app?vid=e9931aff-891f-4ab2-80de-abfe09343716","ios":"levelo://app?vid=e9931aff-891f-4ab2-80de-abfe09343716"},"vehicle_type_id":"4","last_reported":1751148558,"current_range_meters":13600,"station_id":"ce4bhgh2rcd13ifvqfa0","pricing_plan_id":"cebpf4jnsgd1na2vs0mg"},{"bike_id":"91f5eeff-b5f8-4205-938b-157c50f1ac5f","system_id":"levelo_inurba_marseille","lat":43.2874,"lon":5.36089,"is_reserved":false,"is_disabled":false,"rental_uris":{"android":"levelo://app?vid=91f5eeff-b5f8-4205-938b-157c50f1ac5f","ios":"levelo://app?vid=91f5eeff-b5f8-4205-938b-157c50f1ac5f"},"vehicle_type_id":"4","last_reported":1751148558,"current_range_meters":13600,"station_id":"cki0cbj6b192h4jlfktg","pricing_plan_id":"cebpf4jnsgd1na2vs0mg"},{"bike_id":"30428c3c-6c1e-4ce4-8e0a-d633937e9efb","system_id":"levelo_inurba_marseille","lat":43.29391,"lon":5.37427,"is_reserved":false,"is_disabled":false,"rental_uris":{"android":"levelo://app?vid=30428c3c-6c1e-4ce4-8e0a-d633937e9efb","ios":"levelo://app?vid=30428c3c-6c1e-4ce4-8e0a-d633937e9efb"},"vehicle_type_id":"4","last_reported":1751148558,"current_range_meters":14000,"station_id":"","pricing_plan_id":"cebpf4jnsgd1na2vs0mg"},{"bike_id":"bdb53073-0c98-452a-965a-959937fafcc5","system_id":"levelo_inurba_marseille","lat":43.32478,"lon":5.36565,"is_reserved":false,"is_disabled":false,"rental_uris":{"android":"levelo://app?vid=bdb53073-0c98-452a-965a-959937fafcc5","ios":"levelo://app?vid=bdb53073-0c98-452a-965a-959937fafcc5"},"vehicle_type_id":"4","last_reported":1751148558,"current_range_meters":14000,"station_id":"ce4bhs12rcd13ifvqhvg","pricing_plan_id":"cebpf4jnsgd1na2vs0mg"},{"bike_id":"c0a2de0a-20e3-4e62-848e-f0dbd6b2e588","system_id":"levelo_inurba_marseille","lat":43.22504,"lon":5.34824,"is_reserved":false,"is_disabled":false,"rental_uris":{"android":"levelo://app?vid=c0a2de0a-20e3-4e62-848e-f0dbd6b2e588","ios":"levelo://app?vid=c0a2de0a-20e3-4e62-848e-f0dbd6b2e588"},"vehicle_type_id":"4","last_reported":1751148558,"current_range_meters":14000,"station_id":"st_cvj5dfep6f1abm77gieg","pricing_plan_id":"cebpf4jnsgd1na2vs0mg"},{"bike_id":"2a9a5366-8dad-42f1-bee6-ffb042c54776","system_id":"levelo_inurba_marseille","lat":43.21193,"lon":5.35059,"is_reserved":false,"is_disabled":false,"rental_uris":{"android":"levelo://app?vid=2a9a5366-8dad-42f1-bee6-ffb042c54776","ios":"levelo://app?vid=2a9a5366-8dad-42f1-bee6-ffb042c54776"},"vehicle_type_id":"4","last_reported":1751148558,"current_range_meters":14000,"station_id":"st_cvj6sg6p6f1abm77japg","pricing_plan_id":"cebpf4jnsgd1na2vs0mg"},{"bike_id":"29a831bc-f3e2-4316-978e-5abfbb6f9509","system_id":"levelo_inurba_marseille","lat":43.29434,"lon":5.39746,"is_reserved":false,"is_disabled":false,"rental_uris":{"android":"levelo://app?vid=29a831bc-f3e2-4316-978e-5abfbb6f9509","ios":"levelo://app?vid=29a831bc-f3e2-4316-978e-5abfbb6f9509"},"vehicle_type_id":"4","last_reported":1751148558,"current_range_meters":14400,"station_id":"ce4bh3h2rcd13ifvqdo0","pricing_plan_id":"cebpf4jnsgd1na2vs0mg"},{"bike_id":"f810be2a-3c00-446f-9ba1-1f3840ce349d","system_id":"levelo_inurba_marseille","lat":43.32108,"lon":5.36779,"is_reserved":false,"is_disabled":false,"rental_uris":{"android":"levelo://app?vid=f810be2a-3c00-446f-9ba1-1f3840ce349d","ios":"levelo://app?vid=f810be2a-3c00-446f-9ba1-1f3840ce349d"},"vehicle_type_id":"4","last_reported":1751148558,"current_range_meters":14400,"station_id":"ce4bhrh2rcd13ifvqhug","pricing_plan_id":"cebpf4jnsgd1na2vs0mg"},{"bike_id":"e5e9e78b-4730-43b1-8651-5c571c638bbb","system_id":"levelo_inurba_marseille","lat":43.21194,"lon":5.3509,"is_reserved":false,"is_disabled":false,"rental_uris":{"android":"levelo://app?vid=e5e9e78b-4730-43b1-8651-5c571c638bbb","ios":"levelo://app?vid=e5e9e78b-4730-43b1-8651-5c571c638bbb"},"vehicle_type_id":"4","last_reported":1751148558,"current_range_meters":14400,"station_id":"st_cvj6sg6p6f1abm77japg","pricing_plan_id":"cebpf4jnsgd1na2vs0mg"},{"bike_id":"df6b8d76-a7f4-4217-bead-18ab05422cd5","system_id":"levelo_inurba_marseille","lat":43.307937,"lon":5.381543,"is_reserved":false,"is_disabled":false,"rental_uris":{"android":"levelo://app?vid=df6b8d76-a7f4-4217-bead-18ab05422cd5","ios":"levelo://app?vid=df6b8d76-a7f4-4217-bead-18ab05422cd5"},"vehicle_type_id":"4","last_reported":1751148558,"current_range_meters":14800,"station_id":"ce4bgt12rcd13ifvqce0","pricing_plan_id":"cebpf4jnsgd1na2vs0mg"},{"bike_id":"4f7da216-f811-4c57-9e64-cdee7467bddd","system_id":"levelo_inurba_marseille","lat":43.22525,"lon":5.3478,"is_reserved":false,"is_disabled":false,"rental_uris":{"android":"levelo://app?vid=4f7da216-f811-4c57-9e64-cdee7467bddd","ios":"levelo://app?vid=4f7da216-f811-4c57-9e64-cdee7467bddd"},"vehicle_type_id":"4","last_reported":1751148558,"current_range_meters":14800,"station_id":"st_cvj5dfep6f1abm77gieg","pricing_plan_id":"cebpf4jnsgd1na2vs0mg"},{"bike_id":"735fb3ec-51d3-42a0-b0e0-35a6ef148211","system_id":"levelo_inurba_marseille","lat":43.312842,"lon":5.373074,"is_reserved":false,"is_disabled":false,"rental_uris":{"android":"levelo://app?vid=735fb3ec-51d3-42a0-b0e0-35a6ef148211","ios":"levelo://app?vid=735fb3ec-51d3-42a0-b0e0-35a6ef148211"},"vehicle_type_id":"4","last_reported":1751148558,"current_range_meters":15200,"station_id":"","pricing_plan_id":"cebpf4jnsgd1na2vs0mg"},{"bike_id":"5ce69dd2-d017-41fb-9193-ab3e097b4e8d","system_id":"levelo_inurba_marseille","lat":43.29534,"lon":5.38551,"is_reserved":false,"is_disabled":false,"rental_uris":{"android":"levelo://app?vid=5ce69dd2-d017-41fb-9193-ab3e097b4e8d","ios":"levelo://app?vid=5ce69dd2-d017-41fb-9193-ab3e097b4e8d"},"vehicle_type_id":"4","last_reported":1751148558,"current_range_meters":15200,"station_id":"ce4bgih2rcd13ifvqba0","pricing_plan_id":"cebpf4jnsgd1na2vs0mg"},{"bike_id":"b636965d-7db1-47cd-adbf-cfced905006a","system_id":"levelo_inurba_marseille","lat":43.2119,"lon":5.35073,"is_reserved":false,"is_disabled":false,"rental_uris":{"android":"levelo://app?vid=b636965d-7db1-47cd-adbf-cfced905006a","ios":"levelo://app?vid=b636965d-7db1-47cd-adbf-cfced905006a"},"vehicle_type_id":"4","last_reported":1751148558,"current_range_meters":15200,"station_id":"st_cvj6sg6p6f1abm77japg","pricing_plan_id":"cebpf4jnsgd1na2vs0mg"},{"bike_id":"b13877a6-4825-4d82-b46b-67fa8ad66c5d","system_id":"levelo_inurba_marseille","lat":43.211901,"lon":5.350761,"is_reserved":false,"is_disabled":false,"rental_uris":{"android":"levelo://app?vid=b13877a6-4825-4d82-b46b-67fa8ad66c5d","ios":"levelo://app?vid=b13877a6-4825-4d82-b46b-67fa8ad66c5d"},"vehicle_type_id":"4","last_reported":1751148558,"current_range_meters":15200,"station_id":"st_cvj6sg6p6f1abm77japg","pricing_plan_id":"cebpf4jnsgd1na2vs0mg"},{"bike_id":"0aa10f60-d15a-4059-97e2-0a69cf539127","system_id":"levelo_inurba_marseille","lat":43.28124,"lon":5.35195,"is_reserved":false,"is_disabled":false,"rental_uris":{"android":"levelo://app?vid=0aa10f60-d15a-4059-97e2-0a69cf539127","ios":"levelo://app?vid=0aa10f60-d15a-4059-97e2-0a69cf539127"},"vehicle_type_id":"4","last_reported":1751148558,"current_range_meters":16000,"station_id":"","pricing_plan_id":"cebpf4jnsgd1na2vs0mg"},{"bike_id":"07ca4d32-f8d4-4205-8a35-c7ff63def9dc","system_id":"levelo_inurba_marseille","lat":43.22497,"lon":5.34784,"is_reserved":false,"is_disabled":false,"rental_uris":{"android":"levelo://app?vid=07ca4d32-f8d4-4205-8a35-c7ff63def9dc","ios":"levelo://app?vid=07ca4d32-f8d4-4205-8a35-c7ff63def9dc"},"vehicle_type_id":"4","last_reported":1751148558,"current_range_meters":16000,"station_id":"","pricing_plan_id":"cebpf4jnsgd1na2vs0mg"},{"bike_id":"d308c658-b19c-49c0-8014-5506ff26f69a","system_id":"levelo_inurba_marseille","lat":43.23073,"lon":5.40495,"is_reserved":false,"is_disabled":false,"rental_uris":{"android":"levelo://app?vid=d308c658-b19c-49c0-8014-5506ff26f69a","ios":"levelo://app?vid=d308c658-b19c-49c0-8014-5506ff26f69a"},"vehicle_type_id":"4","last_reported":1751148558,"current_range_meters":16000,"station_id":"","pricing_plan_id":"cebpf4jnsgd1na2vs0mg"},{"bike_id":"e934a84d-46b6-4c35-8ff1-af1cfdbd5790","system_id":"levelo_inurba_marseille","lat":43.31681,"lon":5.40474,"is_reserved":false,"is_disabled":false,"rental_uris":{"android":"levelo://app?vid=e934a84d-46b6-4c35-8ff1-af1cfdbd5790","ios":"levelo://app?vid=e934a84d-46b6-4c35-8ff1-af1cfdbd5790"},"vehicle_type_id":"4","last_reported":1751148558,"current_range_meters":16000,"station_id":"ce4bh012rcd13ifvqd00","pricing_plan_id":"cebpf4jnsgd1na2vs0mg"},{"bike_id":"77684aef-635b-40c0-88e7-978d1d677bd6","system_id":"levelo_inurba_marseille","lat":43.27202,"lon":5.39188,"is_reserved":false,"is_disabled":false,"rental_uris":{"android":"levelo://app?vid=77684aef-635b-40c0-88e7-978d1d677bd6","ios":"levelo://app?vid=77684aef-635b-40c0-88e7-978d1d677bd6"},"vehicle_type_id":"4","last_reported":1751148558,"current_range_meters":16000,"station_id":"ce4bhhp2rcd13ifvqfm0","pricing_plan_id":"cebpf4jnsgd1na2vs0mg"},{"bike_id":"dc52be52-60b5-448c-b8e7-30f1c07b993e","system_id":"levelo_inurba_marseille","lat":43.25105,"lon":5.40337,"is_reserved":false,"is_disabled":false,"rental_uris":{"android":"levelo://app?vid=dc52be52-60b5-448c-b8e7-30f1c07b993e","ios":"levelo://app?vid=dc52be52-60b5-448c-b8e7-30f1c07b993e"},"vehicle_type_id":"4","last_reported":1751148558,"current_range_meters":16000,"station_id":"ce4bhlh2rcd13ifvqgig","pricing_plan_id":"cebpf4jnsgd1na2vs0mg"},{"bike_id":"064e1b75-6456-473b-9a83-8a42db06b827","system_id":"levelo_inurba_marseille","lat":43.26235,"lon":5.40433,"is_reserved":false,"is_disabled":false,"rental_uris":{"android":"levelo://app?vid=064e1b75-6456-473b-9a83-8a42db06b827","ios":"levelo://app?vid=064e1b75-6456-473b-9a83-8a42db06b827"},"vehicle_type_id":"4","last_reported":1751148558,"current_range_meters":16000,"station_id":"ce4bhmh2rcd13ifvqgmg","pricing_plan_id":"cebpf4jnsgd1na2vs0mg"},{"bike_id":"a589a0ed-854e-4a3a-8bf5-6576bfc17531","system_id":"levelo_inurba_marseille","lat":43.28157,"lon":5.42644,"is_reserved":false,"is_disabled":false,"rental_uris":{"android":"levelo://app?vid=a589a0ed-854e-4a3a-8bf5-6576bfc17531","ios":"levelo://app?vid=a589a0ed-854e-4a3a-8bf5-6576bfc17531"},"vehicle_type_id":"4","last_reported":1751148558,"current_range_meters":16000,"station_id":"ce4bhnh2rcd13ifvqgug","pricing_plan_id":"cebpf4jnsgd1na2vs0mg"},{"bike_id":"8d1e10f3-20fd-463c-a408-0a21083b0c6f","system_id":"levelo_inurba_marseille","lat":43.21196,"lon":5.35076,"is_reserved":false,"is_disabled":false,"rental_uris":{"android":"levelo://app?vid=8d1e10f3-20fd-463c-a408-0a21083b0c6f","ios":"levelo://app?vid=8d1e10f3-20fd-463c-a408-0a21083b0c6f"},"vehicle_type_id":"4","last_reported":1751148558,"current_range_meters":16000,"station_id":"st_cvj6sg6p6f1abm77japg","pricing_plan_id":"cebpf4jnsgd1na2vs0mg"},{"bike_id":"5d5e13a4-10cc-485c-a362-06d02242e666","system_id":"levelo_inurba_marseille","lat":43.21202,"lon":5.35073,"is_reserved":false,"is_disabled":false,"rental_uris":{"android":"levelo://app?vid=5d5e13a4-10cc-485c-a362-06d02242e666","ios":"levelo://app?vid=5d5e13a4-10cc-485c-a362-06d02242e666"},"vehicle_type_id":"4","last_reported":1751148558,"current_range_meters":16000,"station_id":"st_cvj6sg6p6f1abm77japg","pricing_plan_id":"cebpf4jnsgd1na2vs0mg"},{"bike_id":"d83be15c-239d-410c-9374-2954b9783857","system_id":"levelo_inurba_marseille","lat":43.21202,"lon":5.35085,"is_reserved":false,"is_disabled":false,"rental_uris":{"android":"levelo://app?vid=d83be15c-239d-410c-9374-2954b9783857","ios":"levelo://app?vid=d83be15c-239d-410c-9374-2954b9783857"},"vehicle_type_id":"4","last_reported":1751148558,"current_range_meters":16000,"station_id":"st_cvj6sg6p6f1abm77japg","pricing_plan_id":"cebpf4jnsgd1na2vs0mg"},{"bike_id":"9fc6b39a-5532-40ac-8f58-975bced56a19","system_id":"levelo_inurba_marseille","lat":43.32603,"lon":5.40477,"is_reserved":false,"is_disabled":false,"rental_uris":{"android":"levelo://app?vid=9fc6b39a-5532-40ac-8f58-975bced56a19","ios":"levelo://app?vid=9fc6b39a-5532-40ac-8f58-975bced56a19"},"vehicle_type_id":"4","last_reported":1751148558,"current_range_meters":16400,"station_id":"","pricing_plan_id":"cebpf4jnsgd1na2vs0mg"},{"bike_id":"bca121d6-7dac-4f14-a296-ce2249d7aad2","system_id":"levelo_inurba_marseille","lat":43.28144,"lon":5.44308,"is_reserved":false,"is_disabled":false,"rental_uris":{"android":"levelo://app?vid=bca121d6-7dac-4f14-a296-ce2249d7aad2","ios":"levelo://app?vid=bca121d6-7dac-4f14-a296-ce2249d7aad2"},"vehicle_type_id":"4","last_reported":1751148558,"current_range_meters":16400,"station_id":"","pricing_plan_id":"cebpf4jnsgd1na2vs0mg"},{"bike_id":"66abb35b-0e37-4ddd-bf66-70dc62e8f63c","system_id":"levelo_inurba_marseille","lat":43.22856,"lon":5.3512,"is_reserved":false,"is_disabled":false,"rental_uris":{"android":"levelo://app?vid=66abb35b-0e37-4ddd-bf66-70dc62e8f63c","ios":"levelo://app?vid=66abb35b-0e37-4ddd-bf66-70dc62e8f63c"},"vehicle_type_id":"4","last_reported":1751148558,"current_range_meters":16400,"station_id":"","pricing_plan_id":"cebpf4jnsgd1na2vs0mg"},{"bike_id":"ad9b625a-d7cf-4c21-9bcd-0629140c763f","system_id":"levelo_inurba_marseille","lat":43.30887,"lon":5.3966,"is_reserved":false,"is_disabled":false,"rental_uris":{"android":"levelo://app?vid=ad9b625a-d7cf-4c21-9bcd-0629140c763f","ios":"levelo://app?vid=ad9b625a-d7cf-4c21-9bcd-0629140c763f"},"vehicle_type_id":"4","last_reported":1751148558,"current_range_meters":16400,"station_id":"ce4bh012rcd13ifvqcv0","pricing_plan_id":"cebpf4jnsgd1na2vs0mg"},{"bike_id":"48a892f7-3aa2-47c4-8098-b29e10cac269","system_id":"levelo_inurba_marseille","lat":43.27839,"lon":5.39214,"is_reserved":false,"is_disabled":false,"rental_uris":{"android":"levelo://app?vid=48a892f7-3aa2-47c4-8098-b29e10cac269","ios":"levelo://app?vid=48a892f7-3aa2-47c4-8098-b29e10cac269"},"vehicle_type_id":"4","last_reported":1751148558,"current_range_meters":16400,"station_id":"ce4bhjp2rcd13ifvqga0","pricing_plan_id":"cebpf4jnsgd1na2vs0mg"},{"bike_id":"706791be-79ff-4961-85f9-10b00214ce8a","system_id":"levelo_inurba_marseille","lat":43.33035,"lon":5.39526,"is_reserved":false,"is_disabled":false,"rental_uris":{"android":"levelo://app?vid=706791be-79ff-4961-85f9-10b00214ce8a","ios":"levelo://app?vid=706791be-79ff-4961-85f9-10b00214ce8a"},"vehicle_type_id":"4","last_reported":1751148558,"current_range_meters":16800,"station_id":"","pricing_plan_id":"cebpf4jnsgd1na2vs0mg"},{"bike_id":"c595d0e1-c778-4abe-9c79-a9dd74f54e27","system_id":"levelo_inurba_marseille","lat":43.24466,"lon":5.37226,"is_reserved":false,"is_disabled":false,"rental_uris":{"android":"levelo://app?vid=c595d0e1-c778-4abe-9c79-a9dd74f54e27","ios":"levelo://app?vid=c595d0e1-c778-4abe-9c79-a9dd74f54e27"},"vehicle_type_id":"4","last_reported":1751148558,"current_range_meters":16800,"station_id":"","pricing_plan_id":"cebpf4jnsgd1na2vs0mg"},{"bike_id":"452c6f96-de9d-446d-bf16-dd00300b57f2","system_id":"levelo_inurba_marseille","lat":43.294485,"lon":5.397458,"is_reserved":false,"is_disabled":false,"rental_uris":{"android":"levelo://app?vid=452c6f96-de9d-446d-bf16-dd00300b57f2","ios":"levelo://app?vid=452c6f96-de9d-446d-bf16-dd00300b57f2"},"vehicle_type_id":"4","last_reported":1751148558,"current_range_meters":16800,"station_id":"ce4bh3h2rcd13ifvqdo0","pricing_plan_id":"cebpf4jnsgd1na2vs0mg"},{"bike_id":"298811a9-f34a-4e7a-a524-88e2290f0327","system_id":"levelo_inurba_marseille","lat":43.30136,"lon":5.38783,"is_reserved":false,"is_disabled":false,"rental_uris":{"android":"levelo://app?vid=298811a9-f34a-4e7a-a524-88e2290f0327","ios":"levelo://app?vid=298811a9-f34a-4e7a-a524-88e2290f0327"},"vehicle_type_id":"4","last_reported":1751148558,"current_range_meters":17200,"station_id":"ce4bghh2rcd13ifvqb60","pricing_plan_id":"cebpf4jnsgd1na2vs0mg"},{"bike_id":"4420339b-987b-4799-a11e-17a863858e3f","system_id":"levelo_inurba_marseille","lat":43.303,"lon":5.36885,"is_reserved":false,"is_disabled":false,"rental_uris":{"android":"levelo://app?vid=4420339b-987b-4799-a11e-17a863858e3f","ios":"levelo://app?vid=4420339b-987b-4799-a11e-17a863858e3f"},"vehicle_type_id":"4","last_reported":1751148558,"current_range_meters":17200,"station_id":"ce4bgqh2rcd13ifvqc5g","pricing_plan_id":"cebpf4jnsgd1na2vs0mg"},{"bike_id":"ce87cba7-68cf-4c64-b41f-169f9b124263","system_id":"levelo_inurba_marseille","lat":43.31069,"lon":5.38358,"is_reserved":false,"is_disabled":false,"rental_uris":{"android":"levelo://app?vid=ce87cba7-68cf-4c64-b41f-169f9b124263","ios":"levelo://app?vid=ce87cba7-68cf-4c64-b41f-169f9b124263"},"vehicle_type_id":"4","last_reported":1751148558,"current_range_meters":17200,"station_id":"ce4bgv92rcd13ifvqcr0","pricing_plan_id":"cebpf4jnsgd1na2vs0mg"},{"bike_id":"113af194-c488-4314-bb18-0b04c905fcd9","system_id":"levelo_inurba_marseille","lat":43.28348,"lon":5.38111,"is_reserved":false,"is_disabled":false,"rental_uris":{"android":"levelo://app?vid=113af194-c488-4314-bb18-0b04c905fcd9","ios":"levelo://app?vid=113af194-c488-4314-bb18-0b04c905fcd9"},"vehicle_type_id":"4","last_reported":1751148558,"current_range_meters":17200,"station_id":"ce4bh412rcd13ifvqdr0","pricing_plan_id":"cebpf4jnsgd1na2vs0mg"},{"bike_id":"dd1d02fa-53aa-47d9-bc20-5148f7509ed3","system_id":"levelo_inurba_marseille","lat":43.33608,"lon":5.41039,"is_reserved":false,"is_disabled":false,"rental_uris":{"android":"levelo://app?vid=dd1d02fa-53aa-47d9-bc20-5148f7509ed3","ios":"levelo://app?vid=dd1d02fa-53aa-47d9-bc20-5148f7509ed3"},"vehicle_type_id":"4","last_reported":1751148558,"current_range_meters":17200,"station_id":"ce4bhqh2rcd13ifvqhmg","pricing_plan_id":"cebpf4jnsgd1na2vs0mg"},{"bike_id":"8396458f-c5e8-43e6-bdb1-56999b8de8d6","system_id":"levelo_inurba_marseille","lat":43.29536,"lon":5.38546,"is_reserved":false,"is_disabled":false,"rental_uris":{"android":"levelo://app?vid=8396458f-c5e8-43e6-bdb1-56999b8de8d6","ios":"levelo://app?vid=8396458f-c5e8-43e6-bdb1-56999b8de8d6"},"vehicle_type_id":"4","last_reported":1751148558,"current_range_meters":17600,"station_id":"ce4bgih2rcd13ifvqba0","pricing_plan_id":"cebpf4jnsgd1na2vs0mg"},{"bike_id":"beba7688-de3b-4fec-be3c-29d5eb8ab3e5","system_id":"levelo_inurba_marseille","lat":43.29525,"lon":5.38541,"is_reserved":false,"is_disabled":false,"rental_uris":{"android":"levelo://app?vid=beba7688-de3b-4fec-be3c-29d5eb8ab3e5","ios":"levelo://app?vid=beba7688-de3b-4fec-be3c-29d5eb8ab3e5"},"vehicle_type_id":"4","last_reported":1751148558,"current_range_meters":17600,"station_id":"ce4bgih2rcd13ifvqba0","pricing_plan_id":"cebpf4jnsgd1na2vs0mg"},{"bike_id":"414c6577-de53-4998-be8b-8f022a761f5c","system_id":"levelo_inurba_marseille","lat":43.30142,"lon":5.38077,"is_reserved":false,"is_disabled":false,"rental_uris":{"android":"levelo://app?vid=414c6577-de53-4998-be8b-8f022a761f5c","ios":"levelo://app?vid=414c6577-de53-4998-be8b-8f022a761f5c"},"vehicle_type_id":"4","last_reported":1751148558,"current_range_meters":17600,"station_id":"ce4bgjp2rcd13ifvqbh0","pricing_plan_id":"cebpf4jnsgd1na2vs0mg"},{"bike_id":"c33bc5ee-9fc1-4703-a3d7-0dbfee6120f2","system_id":"levelo_inurba_marseille","lat":43.3133,"lon":5.39683,"is_reserved":false,"is_disabled":false,"rental_uris":{"android":"levelo://app?vid=c33bc5ee-9fc1-4703-a3d7-0dbfee6120f2","ios":"levelo://app?vid=c33bc5ee-9fc1-4703-a3d7-0dbfee6120f2"},"vehicle_type_id":"4","last_reported":1751148558,"current_range_meters":17600,"station_id":"ce4bgvp2rcd13ifvqcu0","pricing_plan_id":"cebpf4jnsgd1na2vs0mg"},{"bike_id":"7b7da01a-51f5-4d6b-9a57-4897c71c5693","system_id":"levelo_inurba_marseille","lat":43.32113,"lon":5.36766,"is_reserved":false,"is_disabled":false,"rental_uris":{"android":"levelo://app?vid=7b7da01a-51f5-4d6b-9a57-4897c71c5693","ios":"levelo://app?vid=7b7da01a-51f5-4d6b-9a57-4897c71c5693"},"vehicle_type_id":"4","last_reported":1751148558,"current_range_meters":17600,"station_id":"ce4bhrh2rcd13ifvqhug","pricing_plan_id":"cebpf4jnsgd1na2vs0mg"},{"bike_id":"6e53ad1f-d4f5-4de6-9418-67b290ec993f","system_id":"levelo_inurba_marseille","lat":43.30941,"lon":5.4103,"is_reserved":false,"is_disabled":false,"rental_uris":{"android":"levelo://app?vid=6e53ad1f-d4f5-4de6-9418-67b290ec993f","ios":"levelo://app?vid=6e53ad1f-d4f5-4de6-9418-67b290ec993f"},"vehicle_type_id":"4","last_reported":1751148558,"current_range_meters":18000,"station_id":"","pricing_plan_id":"cebpf4jnsgd1na2vs0mg"},{"bike_id":"48b96c76-923a-4239-8b31-f81d99951f58","system_id":"levelo_inurba_marseille","lat":43.29853,"lon":5.38417,"is_reserved":false,"is_disabled":false,"rental_uris":{"android":"levelo://app?vid=48b96c76-923a-4239-8b31-f81d99951f58","ios":"levelo://app?vid=48b96c76-923a-4239-8b31-f81d99951f58"},"vehicle_type_id":"4","last_reported":1751148558,"current_range_meters":18000,"station_id":"","pricing_plan_id":"cebpf4jnsgd1na2vs0mg"},{"bike_id":"74e85be6-e94e-474f-b1b2-c3d901430316","system_id":"levelo_inurba_marseille","lat":43.27951,"lon":5.38749,"is_reserved":false,"is_disabled":false,"rental_uris":{"android":"levelo://app?vid=74e85be6-e94e-474f-b1b2-c3d901430316","ios":"levelo://app?vid=74e85be6-e94e-474f-b1b2-c3d901430316"},"vehicle_type_id":"4","last_reported":1751148558,"current_range_meters":18000,"station_id":"ce4bhg12rcd13ifvqf80","pricing_plan_id":"cebpf4jnsgd1na2vs0mg"},{"bike_id":"81fcccba-75ab-4058-8b78-4513f3d7d1b5","system_id":"levelo_inurba_marseille","lat":43.32366,"lon":5.36765,"is_reserved":false,"is_disabled":false,"rental_uris":{"android":"levelo://app?vid=81fcccba-75ab-4058-8b78-4513f3d7d1b5","ios":"levelo://app?vid=81fcccba-75ab-4058-8b78-4513f3d7d1b5"},"vehicle_type_id":"4","last_reported":1751148558,"current_range_meters":18000,"station_id":"ce4bhsh2rcd13ifvqi2g","pricing_plan_id":"cebpf4jnsgd1na2vs0mg"},{"bike_id":"3e82f598-9d1d-4257-8afa-a4dc7305de09","system_id":"levelo_inurba_marseille","lat":43.21215,"lon":5.351,"is_reserved":false,"is_disabled":false,"rental_uris":{"android":"levelo://app?vid=3e82f598-9d1d-4257-8afa-a4dc7305de09","ios":"levelo://app?vid=3e82f598-9d1d-4257-8afa-a4dc7305de09"},"vehicle_type_id":"4","last_reported":1751148558,"current_range_meters":18000,"station_id":"st_cvj6sg6p6f1abm77japg","pricing_plan_id":"cebpf4jnsgd1na2vs0mg"},{"bike_id":"bf24b26e-7f51-4120-9a48-54c87edaa2f7","system_id":"levelo_inurba_marseille","lat":43.21192,"lon":5.35065,"is_reserved":false,"is_disabled":false,"rental_uris":{"android":"levelo://app?vid=bf24b26e-7f51-4120-9a48-54c87edaa2f7","ios":"levelo://app?vid=bf24b26e-7f51-4120-9a48-54c87edaa2f7"},"vehicle_type_id":"4","last_reported":1751148558,"current_range_meters":18000,"station_id":"st_cvj6sg6p6f1abm77japg","pricing_plan_id":"cebpf4jnsgd1na2vs0mg"},{"bike_id":"7cd73daf-6410-4b72-a872-e5224e9d29ff","system_id":"levelo_inurba_marseille","lat":43.27407,"lon":5.41187,"is_reserved":false,"is_disabled":false,"rental_uris":{"android":"levelo://app?vid=7cd73daf-6410-4b72-a872-e5224e9d29ff","ios":"levelo://app?vid=7cd73daf-6410-4b72-a872-e5224e9d29ff"},"vehicle_type_id":"4","last_reported":1751148558,"current_range_meters":18800,"station_id":"","pricing_plan_id":"cebpf4jnsgd1na2vs0mg"},{"bike_id":"a50c24d5-9e7f-4518-b53b-3553d0cdfd58","system_id":"levelo_inurba_marseille","lat":43.29962,"lon":5.38499,"is_reserved":false,"is_disabled":false,"rental_uris":{"android":"levelo://app?vid=a50c24d5-9e7f-4518-b53b-3553d0cdfd58","ios":"levelo://app?vid=a50c24d5-9e7f-4518-b53b-3553d0cdfd58"},"vehicle_type_id":"4","last_reported":1751148558,"current_range_meters":18800,"station_id":"ce4bgj92rcd13ifvqbd0","pricing_plan_id":"cebpf4jnsgd1na2vs0mg"},{"bike_id":"45ccb7a4-a3fb-4b57-bc48-8b56463b935b","system_id":"levelo_inurba_marseille","lat":43.31068,"lon":5.3836,"is_reserved":false,"is_disabled":false,"rental_uris":{"android":"levelo://app?vid=45ccb7a4-a3fb-4b57-bc48-8b56463b935b","ios":"levelo://app?vid=45ccb7a4-a3fb-4b57-bc48-8b56463b935b"},"vehicle_type_id":"4","last_reported":1751148558,"current_range_meters":18800,"station_id":"ce4bgv92rcd13ifvqcr0","pricing_plan_id":"cebpf4jnsgd1na2vs0mg"},{"bike_id":"fa9b461f-2910-4162-8637-dedabeee80a4","system_id":"levelo_inurba_marseille","lat":43.29885,"lon":5.39725,"is_reserved":false,"is_disabled":false,"rental_uris":{"android":"levelo://app?vid=fa9b461f-2910-4162-8637-dedabeee80a4","ios":"levelo://app?vid=fa9b461f-2910-4162-8637-dedabeee80a4"},"vehicle_type_id":"4","last_reported":1751148558,"current_range_meters":18800,"station_id":"ce4bh0h2rcd13ifvqd50","pricing_plan_id":"cebpf4jnsgd1na2vs0mg"},{"bike_id":"179cd352-be56-4dfe-b2d2-cd8be8f3394b","system_id":"levelo_inurba_marseille","lat":43.29794,"lon":5.40407,"is_reserved":false,"is_disabled":false,"rental_uris":{"android":"levelo://app?vid=179cd352-be56-4dfe-b2d2-cd8be8f3394b","ios":"levelo://app?vid=179cd352-be56-4dfe-b2d2-cd8be8f3394b"},"vehicle_type_id":"4","last_reported":1751148558,"current_range_meters":18800,"station_id":"ce4bh112rcd13ifvqd90","pricing_plan_id":"cebpf4jnsgd1na2vs0mg"},{"bike_id":"dc7c98ad-3098-44d7-945c-df7e11515004","system_id":"levelo_inurba_marseille","lat":43.28667,"lon":5.36357,"is_reserved":false,"is_disabled":false,"rental_uris":{"android":"levelo://app?vid=dc7c98ad-3098-44d7-945c-df7e11515004","ios":"levelo://app?vid=dc7c98ad-3098-44d7-945c-df7e11515004"},"vehicle_type_id":"4","last_reported":1751148558,"current_range_meters":18800,"station_id":"ce4bhah2rcd13ifvqej0","pricing_plan_id":"cebpf4jnsgd1na2vs0mg"},{"bike_id":"e8e55826-9823-4cd6-a81d-6219a591b271","system_id":"levelo_inurba_marseille","lat":43.28701,"lon":5.39988,"is_reserved":false,"is_disabled":false,"rental_uris":{"android":"levelo://app?vid=e8e55826-9823-4cd6-a81d-6219a591b271","ios":"levelo://app?vid=e8e55826-9823-4cd6-a81d-6219a591b271"},"vehicle_type_id":"4","last_reported":1751148558,"current_range_meters":18800,"station_id":"ce4bho92rcd13ifvqh3g","pricing_plan_id":"cebpf4jnsgd1na2vs0mg"},{"bike_id":"a71fe3d7-4ac5-4332-8247-9ec6211843a3","system_id":"levelo_inurba_marseille","lat":43.30448,"lon":5.38894,"is_reserved":false,"is_disabled":false,"rental_uris":{"android":"levelo://app?vid=a71fe3d7-4ac5-4332-8247-9ec6211843a3","ios":"levelo://app?vid=a71fe3d7-4ac5-4332-8247-9ec6211843a3"},"vehicle_type_id":"4","last_reported":1751148558,"current_range_meters":19200,"station_id":"ce4bgk12rcd13ifvqbi0","pricing_plan_id":"cebpf4jnsgd1na2vs0mg"},{"bike_id":"3b9ece1d-7198-4632-8e2f-12ebf93377c0","system_id":"levelo_inurba_marseille","lat":43.29628,"lon":5.40599,"is_reserved":false,"is_disabled":false,"rental_uris":{"android":"levelo://app?vid=3b9ece1d-7198-4632-8e2f-12ebf93377c0","ios":"levelo://app?vid=3b9ece1d-7198-4632-8e2f-12ebf93377c0"},"vehicle_type_id":"4","last_reported":1751148558,"current_range_meters":19200,"station_id":"ce4bh0h2rcd13ifvqd60","pricing_plan_id":"cebpf4jnsgd1na2vs0mg"},{"bike_id":"66da2abd-53fe-417b-bdbd-b9f8c2164212","system_id":"levelo_inurba_marseille","lat":43.30647,"lon":5.40101,"is_reserved":false,"is_disabled":false,"rental_uris":{"android":"levelo://app?vid=66da2abd-53fe-417b-bdbd-b9f8c2164212","ios":"levelo://app?vid=66da2abd-53fe-417b-bdbd-b9f8c2164212"},"vehicle_type_id":"4","last_reported":1751148558,"current_range_meters":19200,"station_id":"ce4bh112rcd13ifvqda0","pricing_plan_id":"cebpf4jnsgd1na2vs0mg"},{"bike_id":"8b01877b-fc29-480c-8b90-c1d9e30d9d6e","system_id":"levelo_inurba_marseille","lat":43.27814,"lon":5.4072,"is_reserved":false,"is_disabled":false,"rental_uris":{"android":"levelo://app?vid=8b01877b-fc29-480c-8b90-c1d9e30d9d6e","ios":"levelo://app?vid=8b01877b-fc29-480c-8b90-c1d9e30d9d6e"},"vehicle_type_id":"4","last_reported":1751148558,"current_range_meters":19200,"station_id":"ce4bhnh2rcd13ifvqgtg","pricing_plan_id":"cebpf4jnsgd1na2vs0mg"},{"bike_id":"939be693-a370-48b7-b180-8f2ad16a27e1","system_id":"levelo_inurba_marseille","lat":43.30313,"lon":5.36906,"is_reserved":false,"is_disabled":false,"rental_uris":{"android":"levelo://app?vid=939be693-a370-48b7-b180-8f2ad16a27e1","ios":"levelo://app?vid=939be693-a370-48b7-b180-8f2ad16a27e1"},"vehicle_type_id":"4","last_reported":1751148558,"current_range_meters":19600,"station_id":"ce4bgqh2rcd13ifvqc5g","pricing_plan_id":"cebpf4jnsgd1na2vs0mg"},{"bike_id":"5a27af3e-427d-4af9-b254-6de3cde57fd3","system_id":"levelo_inurba_marseille","lat":43.30787,"lon":5.38162,"is_reserved":false,"is_disabled":false,"rental_uris":{"android":"levelo://app?vid=5a27af3e-427d-4af9-b254-6de3cde57fd3","ios":"levelo://app?vid=5a27af3e-427d-4af9-b254-6de3cde57fd3"},"vehicle_type_id":"4","last_reported":1751148558,"current_range_meters":19600,"station_id":"ce4bgt12rcd13ifvqce0","pricing_plan_id":"cebpf4jnsgd1na2vs0mg"},{"bike_id":"00aa786c-2660-42db-b96f-6143ee2d5494","system_id":"levelo_inurba_marseille","lat":43.29434,"lon":5.39748,"is_reserved":false,"is_disabled":false,"rental_uris":{"android":"levelo://app?vid=00aa786c-2660-42db-b96f-6143ee2d5494","ios":"levelo://app?vid=00aa786c-2660-42db-b96f-6143ee2d5494"},"vehicle_type_id":"4","last_reported":1751148558,"current_range_meters":19600,"station_id":"ce4bh3h2rcd13ifvqdo0","pricing_plan_id":"cebpf4jnsgd1na2vs0mg"},{"bike_id":"475b102c-5316-4a4f-ab85-c32f5a7d0282","system_id":"levelo_inurba_marseille","lat":43.29023,"lon":5.38646,"is_reserved":false,"is_disabled":false,"rental_uris":{"android":"levelo://app?vid=475b102c-5316-4a4f-ab85-c32f5a7d0282","ios":"levelo://app?vid=475b102c-5316-4a4f-ab85-c32f5a7d0282"},"vehicle_type_id":"4","last_reported":1751148558,"current_range_meters":19600,"station_id":"ce4bh4p2rcd13ifvqe0g","pricing_plan_id":"cebpf4jnsgd1na2vs0mg"},{"bike_id":"372677d7-1361-4166-ab37-0d5b789c20a6","system_id":"levelo_inurba_marseille","lat":43.27561,"lon":5.38429,"is_reserved":false,"is_disabled":false,"rental_uris":{"android":"levelo://app?vid=372677d7-1361-4166-ab37-0d5b789c20a6","ios":"levelo://app?vid=372677d7-1361-4166-ab37-0d5b789c20a6"},"vehicle_type_id":"4","last_reported":1751148558,"current_range_meters":19600,"station_id":"ce4bhh92rcd13ifvqfi0","pricing_plan_id":"cebpf4jnsgd1na2vs0mg"},{"bike_id":"479b7095-1726-43bd-b4fe-ff84c0bcbd85","system_id":"levelo_inurba_marseille","lat":43.25581,"lon":5.38222,"is_reserved":false,"is_disabled":false,"rental_uris":{"android":"levelo://app?vid=479b7095-1726-43bd-b4fe-ff84c0bcbd85","ios":"levelo://app?vid=479b7095-1726-43bd-b4fe-ff84c0bcbd85"},"vehicle_type_id":"4","last_reported":1751148558,"current_range_meters":19600,"station_id":"ce4bhih2rcd13ifvqfs0","pricing_plan_id":"cebpf4jnsgd1na2vs0mg"},{"bike_id":"a80b72e5-8128-417d-97f5-70ca927eb5e9","system_id":"levelo_inurba_marseille","lat":43.31732,"lon":5.42369,"is_reserved":false,"is_disabled":false,"rental_uris":{"android":"levelo://app?vid=a80b72e5-8128-417d-97f5-70ca927eb5e9","ios":"levelo://app?vid=a80b72e5-8128-417d-97f5-70ca927eb5e9"},"vehicle_type_id":"4","last_reported":1751148558,"current_range_meters":19600,"station_id":"ce4bhp92rcd13ifvqhbg","pricing_plan_id":"cebpf4jnsgd1na2vs0mg"},{"bike_id":"9dc29fb8-e3fb-41f8-a3ad-c2c6c5e7fe8f","system_id":"levelo_inurba_marseille","lat":43.326587,"lon":5.409893,"is_reserved":false,"is_disabled":false,"rental_uris":{"android":"levelo://app?vid=9dc29fb8-e3fb-41f8-a3ad-c2c6c5e7fe8f","ios":"levelo://app?vid=9dc29fb8-e3fb-41f8-a3ad-c2c6c5e7fe8f"},"vehicle_type_id":"4","last_reported":1751148558,"current_range_meters":19600,"station_id":"ce4bhpp2rcd13ifvqhgg","pricing_plan_id":"cebpf4jnsgd1na2vs0mg"},{"bike_id":"e7641e58-176f-485d-9342-129003cdc52b","system_id":"levelo_inurba_marseille","lat":43.32107,"lon":5.36776,"is_reserved":false,"is_disabled":false,"rental_uris":{"android":"levelo://app?vid=e7641e58-176f-485d-9342-129003cdc52b","ios":"levelo://app?vid=e7641e58-176f-485d-9342-129003cdc52b"},"vehicle_type_id":"4","last_reported":1751148558,"current_range_meters":19600,"station_id":"ce4bhrh2rcd13ifvqhug","pricing_plan_id":"cebpf4jnsgd1na2vs0mg"},{"bike_id":"7a9ed77c-f1cd-4001-9e41-61ecd996cfdf","system_id":"levelo_inurba_marseille","lat":43.21196,"lon":5.35075,"is_reserved":false,"is_disabled":false,"rental_uris":{"android":"levelo://app?vid=7a9ed77c-f1cd-4001-9e41-61ecd996cfdf","ios":"levelo://app?vid=7a9ed77c-f1cd-4001-9e41-61ecd996cfdf"},"vehicle_type_id":"4","last_reported":1751148558,"current_range_meters":19600,"station_id":"st_cvj6sg6p6f1abm77japg","pricing_plan_id":"cebpf4jnsgd1na2vs0mg"},{"bike_id":"b4f2d101-07b6-417e-a536-505e3e234697","system_id":"levelo_inurba_marseille","lat":43.29909,"lon":5.39758,"is_reserved":false,"is_disabled":false,"rental_uris":{"android":"levelo://app?vid=b4f2d101-07b6-417e-a536-505e3e234697","ios":"levelo://app?vid=b4f2d101-07b6-417e-a536-505e3e234697"},"vehicle_type_id":"4","last_reported":1751148558,"current_range_meters":20000,"station_id":"","pricing_plan_id":"cebpf4jnsgd1na2vs0mg"},{"bike_id":"5f124578-9903-4ce0-aef2-0313526aed53","system_id":"levelo_inurba_marseille","lat":43.29535,"lon":5.38536,"is_reserved":false,"is_disabled":false,"rental_uris":{"android":"levelo://app?vid=5f124578-9903-4ce0-aef2-0313526aed53","ios":"levelo://app?vid=5f124578-9903-4ce0-aef2-0313526aed53"},"vehicle_type_id":"4","last_reported":1751148558,"current_range_meters":20000,"station_id":"ce4bgih2rcd13ifvqba0","pricing_plan_id":"cebpf4jnsgd1na2vs0mg"},{"bike_id":"abf7101a-61f1-4662-ac9c-1edad8888016","system_id":"levelo_inurba_marseille","lat":43.30259,"lon":5.40079,"is_reserved":false,"is_disabled":false,"rental_uris":{"android":"levelo://app?vid=abf7101a-61f1-4662-ac9c-1edad8888016","ios":"levelo://app?vid=abf7101a-61f1-4662-ac9c-1edad8888016"},"vehicle_type_id":"4","last_reported":1751148558,"current_range_meters":20000,"station_id":"ce4bgvh2rcd13ifvqcs0","pricing_plan_id":"cebpf4jnsgd1na2vs0mg"},{"bike_id":"54e6c144-89e2-4352-bee4-0bc5a4da8819","system_id":"levelo_inurba_marseille","lat":43.326618,"lon":5.409858,"is_reserved":false,"is_disabled":false,"rental_uris":{"android":"levelo://app?vid=54e6c144-89e2-4352-bee4-0bc5a4da8819","ios":"levelo://app?vid=54e6c144-89e2-4352-bee4-0bc5a4da8819"},"vehicle_type_id":"4","last_reported":1751148558,"current_range_meters":20000,"station_id":"ce4bhpp2rcd13ifvqhgg","pricing_plan_id":"cebpf4jnsgd1na2vs0mg"},{"bike_id":"2a7d4522-b0dd-48c1-8653-7a6d0e58cc43","system_id":"levelo_inurba_marseille","lat":43.3208,"lon":5.40135,"is_reserved":false,"is_disabled":false,"rental_uris":{"android":"levelo://app?vid=2a7d4522-b0dd-48c1-8653-7a6d0e58cc43","ios":"levelo://app?vid=2a7d4522-b0dd-48c1-8653-7a6d0e58cc43"},"vehicle_type_id":"4","last_reported":1751148558,"current_range_meters":20400,"station_id":"","pricing_plan_id":"cebpf4jnsgd1na2vs0mg"},{"bike_id":"7e091221-4229-4112-a379-c44d616917f7","system_id":"levelo_inurba_marseille","lat":43.295092,"lon":5.385608,"is_reserved":false,"is_disabled":false,"rental_uris":{"android":"levelo://app?vid=7e091221-4229-4112-a379-c44d616917f7","ios":"levelo://app?vid=7e091221-4229-4112-a379-c44d616917f7"},"vehicle_type_id":"4","last_reported":1751148558,"current_range_meters":20400,"station_id":"ce4bgih2rcd13ifvqba0","pricing_plan_id":"cebpf4jnsgd1na2vs0mg"},{"bike_id":"de7a54b4-82b8-432b-a93e-d77ea0ac1c74","system_id":"levelo_inurba_marseille","lat":43.31073,"lon":5.38351,"is_reserved":false,"is_disabled":false,"rental_uris":{"android":"levelo://app?vid=de7a54b4-82b8-432b-a93e-d77ea0ac1c74","ios":"levelo://app?vid=de7a54b4-82b8-432b-a93e-d77ea0ac1c74"},"vehicle_type_id":"4","last_reported":1751148558,"current_range_meters":20400,"station_id":"ce4bgv92rcd13ifvqcr0","pricing_plan_id":"cebpf4jnsgd1na2vs0mg"},{"bike_id":"1aebb9f0-3812-499f-b9a0-af194ea589c5","system_id":"levelo_inurba_marseille","lat":43.24999,"lon":5.38934,"is_reserved":false,"is_disabled":false,"rental_uris":{"android":"levelo://app?vid=1aebb9f0-3812-499f-b9a0-af194ea589c5","ios":"levelo://app?vid=1aebb9f0-3812-499f-b9a0-af194ea589c5"},"vehicle_type_id":"4","last_reported":1751148558,"current_range_meters":20400,"station_id":"ce4bhgp2rcd13ifvqfd0","pricing_plan_id":"cebpf4jnsgd1na2vs0mg"},{"bike_id":"3eabe1e2-f9f5-41cb-a4ed-73ca7f909c5c","system_id":"levelo_inurba_marseille","lat":43.21184,"lon":5.3506,"is_reserved":false,"is_disabled":false,"rental_uris":{"android":"levelo://app?vid=3eabe1e2-f9f5-41cb-a4ed-73ca7f909c5c","ios":"levelo://app?vid=3eabe1e2-f9f5-41cb-a4ed-73ca7f909c5c"},"vehicle_type_id":"4","last_reported":1751148558,"current_range_meters":20400,"station_id":"st_cvj6sg6p6f1abm77japg","pricing_plan_id":"cebpf4jnsgd1na2vs0mg"},{"bike_id":"ba926bfc-9632-4680-b0ed-32a040d6fb83","system_id":"levelo_inurba_marseille","lat":43.21181,"lon":5.3508,"is_reserved":false,"is_disabled":false,"rental_uris":{"android":"levelo://app?vid=ba926bfc-9632-4680-b0ed-32a040d6fb83","ios":"levelo://app?vid=ba926bfc-9632-4680-b0ed-32a040d6fb83"},"vehicle_type_id":"4","last_reported":1751148558,"current_range_meters":20400,"station_id":"st_cvj6sg6p6f1abm77japg","pricing_plan_id":"cebpf4jnsgd1na2vs0mg"},{"bike_id":"452e8211-4f44-45d0-814a-3e9e25b8c44e","system_id":"levelo_inurba_marseille","lat":43.21177,"lon":5.35074,"is_reserved":false,"is_disabled":false,"rental_uris":{"android":"levelo://app?vid=452e8211-4f44-45d0-814a-3e9e25b8c44e","ios":"levelo://app?vid=452e8211-4f44-45d0-814a-3e9e25b8c44e"},"vehicle_type_id":"4","last_reported":1751148558,"current_range_meters":20400,"station_id":"st_cvj6sg6p6f1abm77japg","pricing_plan_id":"cebpf4jnsgd1na2vs0mg"},{"bike_id":"1ac664aa-f2a4-4b75-879f-dcb93272d133","system_id":"levelo_inurba_marseille","lat":43.32026,"lon":5.40943,"is_reserved":false,"is_disabled":false,"rental_uris":{"android":"levelo://app?vid=1ac664aa-f2a4-4b75-879f-dcb93272d133","ios":"levelo://app?vid=1ac664aa-f2a4-4b75-879f-dcb93272d133"},"vehicle_type_id":"4","last_reported":1751148558,"current_range_meters":20800,"station_id":"","pricing_plan_id":"cebpf4jnsgd1na2vs0mg"},{"bike_id":"4b4944f9-2685-4030-af5e-96c830fc545f","system_id":"levelo_inurba_marseille","lat":43.31715,"lon":5.37756,"is_reserved":false,"is_disabled":false,"rental_uris":{"android":"levelo://app?vid=4b4944f9-2685-4030-af5e-96c830fc545f","ios":"levelo://app?vid=4b4944f9-2685-4030-af5e-96c830fc545f"},"vehicle_type_id":"4","last_reported":1751148558,"current_range_meters":20800,"station_id":"ce4bgth2rcd13ifvqch0","pricing_plan_id":"cebpf4jnsgd1na2vs0mg"},{"bike_id":"a8f3c0b1-f2ae-4c6a-a60c-7ed066610deb","system_id":"levelo_inurba_marseille","lat":43.25109,"lon":5.4032,"is_reserved":false,"is_disabled":false,"rental_uris":{"android":"levelo://app?vid=a8f3c0b1-f2ae-4c6a-a60c-7ed066610deb","ios":"levelo://app?vid=a8f3c0b1-f2ae-4c6a-a60c-7ed066610deb"},"vehicle_type_id":"4","last_reported":1751148558,"current_range_meters":20800,"station_id":"ce4bhlh2rcd13ifvqgig","pricing_plan_id":"cebpf4jnsgd1na2vs0mg"},{"bike_id":"ff3dd43a-0876-4535-b403-186dafeccf2c","system_id":"levelo_inurba_marseille","lat":43.279923,"lon":5.416616,"is_reserved":false,"is_disabled":false,"rental_uris":{"android":"levelo://app?vid=ff3dd43a-0876-4535-b403-186dafeccf2c","ios":"levelo://app?vid=ff3dd43a-0876-4535-b403-186dafeccf2c"},"vehicle_type_id":"4","last_reported":1751148558,"current_range_meters":20800,"station_id":"ce4bho12rcd13ifvqh1g","pricing_plan_id":"cebpf4jnsgd1na2vs0mg"},{"bike_id":"5452237a-4fc5-4612-8f4a-68d2dfd12fa7","system_id":"levelo_inurba_marseille","lat":43.2931,"lon":5.43916,"is_reserved":false,"is_disabled":false,"rental_uris":{"android":"levelo://app?vid=5452237a-4fc5-4612-8f4a-68d2dfd12fa7","ios":"levelo://app?vid=5452237a-4fc5-4612-8f4a-68d2dfd12fa7"},"vehicle_type_id":"4","last_reported":1751148558,"current_range_meters":21600,"station_id":"","pricing_plan_id":"cebpf4jnsgd1na2vs0mg"},{"bike_id":"4632270e-ba7e-494b-8f97-07a18e59fbad","system_id":"levelo_inurba_marseille","lat":43.29775,"lon":5.38131,"is_reserved":false,"is_disabled":false,"rental_uris":{"android":"levelo://app?vid=4632270e-ba7e-494b-8f97-07a18e59fbad","ios":"levelo://app?vid=4632270e-ba7e-494b-8f97-07a18e59fbad"},"vehicle_type_id":"4","last_reported":1751148558,"current_range_meters":21600,"station_id":"ce4bgip2rcd13ifvqbb0","pricing_plan_id":"cebpf4jnsgd1na2vs0mg"},{"bike_id":"0d054cba-b150-4a2b-b377-62e26039f378","system_id":"levelo_inurba_marseille","lat":43.31711,"lon":5.37738,"is_reserved":false,"is_disabled":false,"rental_uris":{"android":"levelo://app?vid=0d054cba-b150-4a2b-b377-62e26039f378","ios":"levelo://app?vid=0d054cba-b150-4a2b-b377-62e26039f378"},"vehicle_type_id":"4","last_reported":1751148558,"current_range_meters":21600,"station_id":"ce4bgth2rcd13ifvqch0","pricing_plan_id":"cebpf4jnsgd1na2vs0mg"},{"bike_id":"9ce469cc-8f97-4dac-9542-1ead9e37b78b","system_id":"levelo_inurba_marseille","lat":43.3176,"lon":5.39016,"is_reserved":false,"is_disabled":false,"rental_uris":{"android":"levelo://app?vid=9ce469cc-8f97-4dac-9542-1ead9e37b78b","ios":"levelo://app?vid=9ce469cc-8f97-4dac-9542-1ead9e37b78b"},"vehicle_type_id":"4","last_reported":1751148558,"current_range_meters":21600,"station_id":"ce4bhqp2rcd13ifvqhng","pricing_plan_id":"cebpf4jnsgd1na2vs0mg"},{"bike_id":"6c7acf8b-2671-4491-9c3c-fa99910f0446","system_id":"levelo_inurba_marseille","lat":43.32362,"lon":5.38891,"is_reserved":false,"is_disabled":false,"rental_uris":{"android":"levelo://app?vid=6c7acf8b-2671-4491-9c3c-fa99910f0446","ios":"levelo://app?vid=6c7acf8b-2671-4491-9c3c-fa99910f0446"},"vehicle_type_id":"4","last_reported":1751148558,"current_range_meters":21600,"station_id":"ce4bhqp2rcd13ifvqhog","pricing_plan_id":"cebpf4jnsgd1na2vs0mg"},{"bike_id":"a211cd9f-5b21-4de6-8c08-426b2e8d7de1","system_id":"levelo_inurba_marseille","lat":43.21206,"lon":5.35043,"is_reserved":false,"is_disabled":false,"rental_uris":{"android":"levelo://app?vid=a211cd9f-5b21-4de6-8c08-426b2e8d7de1","ios":"levelo://app?vid=a211cd9f-5b21-4de6-8c08-426b2e8d7de1"},"vehicle_type_id":"4","last_reported":1751148558,"current_range_meters":21600,"station_id":"st_cvj6sg6p6f1abm77japg","pricing_plan_id":"cebpf4jnsgd1na2vs0mg"},{"bike_id":"f1326c06-8a78-4799-9a6f-b2634a95550e","system_id":"levelo_inurba_marseille","lat":43.29647,"lon":5.36663,"is_reserved":false,"is_disabled":false,"rental_uris":{"android":"levelo://app?vid=f1326c06-8a78-4799-9a6f-b2634a95550e","ios":"levelo://app?vid=f1326c06-8a78-4799-9a6f-b2634a95550e"},"vehicle_type_id":"4","last_reported":1751148558,"current_range_meters":22000,"station_id":"ce4bgn12rcd13ifvqbt0","pricing_plan_id":"cebpf4jnsgd1na2vs0mg"},{"bike_id":"b8170953-ffb4-41d4-bc0f-afab347902a1","system_id":"levelo_inurba_marseille","lat":43.31329,"lon":5.39688,"is_reserved":false,"is_disabled":false,"rental_uris":{"android":"levelo://app?vid=b8170953-ffb4-41d4-bc0f-afab347902a1","ios":"levelo://app?vid=b8170953-ffb4-41d4-bc0f-afab347902a1"},"vehicle_type_id":"4","last_reported":1751148558,"current_range_meters":22000,"station_id":"ce4bgvp2rcd13ifvqcu0","pricing_plan_id":"cebpf4jnsgd1na2vs0mg"},{"bike_id":"b489781e-949e-4c51-988c-8e26a37eae34","system_id":"levelo_inurba_marseille","lat":43.3043,"lon":5.39754,"is_reserved":false,"is_disabled":false,"rental_uris":{"android":"levelo://app?vid=b489781e-949e-4c51-988c-8e26a37eae34","ios":"levelo://app?vid=b489781e-949e-4c51-988c-8e26a37eae34"},"vehicle_type_id":"4","last_reported":1751148558,"current_range_meters":22000,"station_id":"ce4bh092rcd13ifvqd20","pricing_plan_id":"cebpf4jnsgd1na2vs0mg"},{"bike_id":"b4a2e0c0-dba2-4e7e-85a3-d55e34253657","system_id":"levelo_inurba_marseille","lat":43.27564,"lon":5.38439,"is_reserved":false,"is_disabled":false,"rental_uris":{"android":"levelo://app?vid=b4a2e0c0-dba2-4e7e-85a3-d55e34253657","ios":"levelo://app?vid=b4a2e0c0-dba2-4e7e-85a3-d55e34253657"},"vehicle_type_id":"4","last_reported":1751148558,"current_range_meters":22000,"station_id":"ce4bhh92rcd13ifvqfi0","pricing_plan_id":"cebpf4jnsgd1na2vs0mg"},{"bike_id":"cc04118e-9312-4bf8-9106-d64e829afbaa","system_id":"levelo_inurba_marseille","lat":43.21187,"lon":5.35078,"is_reserved":false,"is_disabled":false,"rental_uris":{"android":"levelo://app?vid=cc04118e-9312-4bf8-9106-d64e829afbaa","ios":"levelo://app?vid=cc04118e-9312-4bf8-9106-d64e829afbaa"},"vehicle_type_id":"4","last_reported":1751148558,"current_range_meters":22000,"station_id":"st_cvj6sg6p6f1abm77japg","pricing_plan_id":"cebpf4jnsgd1na2vs0mg"},{"bike_id":"8af0b800-058d-4432-90b6-b653630651d3","system_id":"levelo_inurba_marseille","lat":43.27617,"lon":5.36113,"is_reserved":false,"is_disabled":false,"rental_uris":{"android":"levelo://app?vid=8af0b800-058d-4432-90b6-b653630651d3","ios":"levelo://app?vid=8af0b800-058d-4432-90b6-b653630651d3"},"vehicle_type_id":"4","last_reported":1751148558,"current_range_meters":22400,"station_id":"ce4bgj92rcd13ifvqbe0","pricing_plan_id":"cebpf4jnsgd1na2vs0mg"},