{"last_updated":1715983653,"ttl":30,"version":"2.2","data":{"bikes":[{"bike_id":"d3bc2334-2750-47f2-8d1b-97315f67a099","system_id":"levelo_inurba_marseille","lat":43.31341,"lon":5.367098,"is_reserved":false,"is_disabled":false,"rental_uris":{"android":"levelo://app?vid=d3bc2334-2750-47f2-8d1b-97315f67a099","ios":"levelo://app?vid=d3bc2334-2750-47f2-8d1b-97315f67a099"},"vehicle_type_id":"4","last_reported":1715983653,"current_range_meters":20000,"station_id":"ce4bgr92rcd13ifvqc6g","pricing_plan_id":"cebpf4jnsgd1na2vs0mg"},{"bike_id":"d08e5707-1020-4002-ab74-4e1e41b6bf81","system_id":"levelo_inurba_marseille","lat":43.31225,"lon":5.36839,"is_reserved":false,"is_disabled":false,"rental_uris":{"android":"levelo://app?vid=d08e5707-1020-4002-ab74-4e1e41b6bf81","ios":"levelo://app?vid=d08e5707-1020-4002-ab74-4e1e41b6bf81"},"vehicle_type_id":"4","last_reported":1715983653,"current_range_meters":10000,"station_id":"ce4bgl92rcd13ifvqbq0","pricing_plan_id":"cebpf4jnsgd1na2vs0mg"},{"bike_id":"a32e7c60-0dbf-4aba-b7d2-e9e5de3198b2","system_id":"levelo_inurba_marseille","lat":43.312239,"lon":5.368562,"is_reserved":false,"is_disabled":false,"rental_uris":{"android":"levelo://app?vid=a32e7c60-0dbf-4aba-b7d2-e9e5de3198b2","ios":"levelo://app?vid=a32e7c60-0dbf-4aba-b7d2-e9e5de3198b2"},"vehicle_type_id":"4","last_reported":1715983653,"current_range_meters":28000,"station_id":"ce4bgl92rcd13ifvqbq0","pricing_plan_id":"cebpf4jnsgd1na2vs0mg"},{"bike_id":"380dc1ba-5d28-47b2-873c-8707f947249f","system_id":"levelo_inurba_marseille","lat":43.31226,"lon":5.36858,"is_reserved":false,"is_disabled":false,"rental_uris":{"android":"levelo://app?vid=380dc1ba-5d28-47b2-873c-8707f947249f","ios":"levelo://app?vid=380dc1ba-5d28-47b2-873c-8707f947249f"},"vehicle_type_id":"4","last_reported":1715983653,"current_range_meters":6000,"station_id":"ce4bgl92rcd13ifvqbq0","pricing_plan_id":"cebpf4jnsgd1na2vs0mg"},{"bike_id":"67e7f24f-df65-4a99-83f9-490073e94ba7","system_id":"levelo_inurba_marseille","lat":43.309076,"lon":5.368465,"is_reserved":false,"is_disabled":false,"rental_uris":{"android":"levelo://app?vid=67e7f24f-df65-4a99-83f9-490073e94ba7","ios":"levelo://app?vid=67e7f24f-df65-4a99-83f9-490073e94ba7"},"vehicle_type_id":"4","last_reported":1715983653,"current_range_meters":20400,"station_id":"ce4bgn92rcd13ifvqbvg","pricing_plan_id":"cebpf4jnsgd1na2vs0mg"},{"bike_id":"b1495c46-7568-4e1c-a92e-67a156dbd2d0","system_id":"levelo_inurba_marseille","lat":43.309076,"lon":5.368465,"is_reserved":false,"is_disabled":false,"rental_uris":{"android":"levelo://app?vid=b1495c46-7568-4e1c-a92e-67a156dbd2d0","ios":"levelo://app?vid=b1495c46-7568-4e1c-a92e-67a156dbd2d0"},"vehicle_type_id":"4","last_reported":1715983653,"current_range_meters":0,"station_id":"ce4bgn92rcd13ifvqbvg","pricing_plan_id":"cebpf4jnsgd1na2vs0mg"},{"bike_id":"b6418600-0832-4b13-a093-9de397c031b7","system_id":"levelo_inurba_marseille","lat":43.31489,"lon":5.37307,"is_reserved":false,"is_disabled":false,"rental_uris":{"android":"levelo://app?vid=b6418600-0832-4b13-a093-9de397c031b7","ios":"levelo://app?vid=b6418600-0832-4b13-a093-9de397c031b7"},"vehicle_type_id":"4","last_reported":1715983653,"current_range_meters":18400,"station_id":"ce4bgt12rcd13ifvqcd0","pricing_plan_id":"cebpf4jnsgd1na2vs0mg"},{"bike_id":"6f38bab7-f601-44cd-8dc1-4749ba059b2b","system_id":"levelo_inurba_marseille","lat":43.314811,"lon":5.373103,"is_reserved":false,"is_disabled":false,"rental_uris":{"android":"levelo://app?vid=6f38bab7-f601-44cd-8dc1-4749ba059b2b","ios":"levelo://app?vid=6f38bab7-f601-44cd-8dc1-4749ba059b2b"},"vehicle_type_id":"4","last_reported":1715983653,"current_range_meters":12800,"station_id":"ce4bgt12rcd13ifvqcd0","pricing_plan_id":"cebpf4jnsgd1na2vs0mg"},{"bike_id":"45fff844-f789-4da9-9c40-930d5d1469c7","system_id":"levelo_inurba_marseille","lat":43.314811,"lon":5.373103,"is_reserved":false,"is_disabled":false,"rental_uris":{"android":"levelo://app?vid=45fff844-f789-4da9-9c40-930d5d1469c7","ios":"levelo://app?vid=45fff844-f789-4da9-9c40-930d5d1469c7"},"vehicle_type_id":"4","last_reported":1715983653,"current_range_meters":19200,"station_id":"ce4bgt12rcd13ifvqcd0","pricing_plan_id":"cebpf4jnsgd1na2vs0mg"},{"bike_id":"66af3d9a-aac3-4545-adaa-8996d932f50f","system_id":"levelo_inurba_marseille","lat":43.314811,"lon":5.373103,"is_reserved":false,"is_disabled":false,"rental_uris":{"android":"levelo://app?vid=66af3d9a-aac3-4545-adaa-8996d932f50f","ios":"levelo://app?vid=66af3d9a-aac3-4545-adaa-8996d932f50f"},"vehicle_type_id":"4","last_reported":1715983653,"current_range_meters":20800,"station_id":"ce4bgt12rcd13ifvqcd0","pricing_plan_id":"cebpf4jnsgd1na2vs0mg"},{"bike_id":"1f3d8527-2662-4ed7-8423-b35f24caca17","system_id":"levelo_inurba_marseille","lat":43.314811,"lon":5.373104,"is_reserved":false,"is_disabled":false,"rental_uris":{"android":"levelo://app?vid=1f3d8527-2662-4ed7-8423-b35f24caca17","ios":"levelo://app?vid=1f3d8527-2662-4ed7-8423-b35f24caca17"},"vehicle_type_id":"4","last_reported":1715983653,"current_range_meters":7200,"station_id":"ce4bgt12rcd13ifvqcd0","pricing_plan_id":"cebpf4jnsgd1na2vs0mg"},{"bike_id":"ea8fa979-6aa1-4fcf-bd1f-bfbf64d3638c","system_id":"levelo_inurba_marseille","lat":43.31489,"lon":5.37312,"is_reserved":false,"is_disabled":false,"rental_uris":{"android":"levelo://app?vid=ea8fa979-6aa1-4fcf-bd1f-bfbf64d3638c","ios":"levelo://app?vid=ea8fa979-6aa1-4fcf-bd1f-bfbf64d3638c"},"vehicle_type_id":"4","last_reported":1715983653,"current_range_meters":24800,"station_id":"ce4bgt12rcd13ifvqcd0","pricing_plan_id":"cebpf4jnsgd1na2vs0mg"},{"bike_id":"2c8315d1-25ee-430e-a9a7-b255ed46e256","system_id":"levelo_inurba_marseille","lat":43.314811,"lon":5.373103,"is_reserved":false,"is_disabled":false,"rental_uris":{"android":"levelo://app?vid=2c8315d1-25ee-430e-a9a7-b255ed46e256","ios":"levelo://app?vid=2c8315d1-25ee-430e-a9a7-b255ed46e256"},"vehicle_type_id":"4","last_reported":1715983653,"current_range_meters":19200,"station_id":"ce4bgt12rcd13ifvqcd0","pricing_plan_id":"cebpf4jnsgd1na2vs0mg"},{"bike_id":"212bb422-17e3-48cb-909a-d33920361c99","system_id":"levelo_inurba_marseille","lat":43.31501,"lon":5.37307,"is_reserved":false,"is_disabled":false,"rental_uris":{"android":"levelo://app?vid=212bb422-17e3-48cb-909a-d33920361c99","ios":"levelo://app?vid=212bb422-17e3-48cb-909a-d33920361c99"},"vehicle_type_id":"4","last_reported":1715983653,"current_range_meters":30000,"station_id":"ce4bgt12rcd13ifvqcd0","pricing_plan_id":"cebpf4jnsgd1na2vs0mg"},{"bike_id":"642fc321-81e2-4b6b-b168-1101a01eccdd","system_id":"levelo_inurba_marseille","lat":43.31491,"lon":5.37314,"is_reserved":false,"is_disabled":false,"rental_uris":{"android":"levelo://app?vid=642fc321-81e2-4b6b-b168-1101a01eccdd","ios":"levelo://app?vid=642fc321-81e2-4b6b-b168-1101a01eccdd"},"vehicle_type_id":"4","last_reported":1715983653,"current_range_meters":0,"station_id":"ce4bgt12rcd13ifvqcd0","pricing_plan_id":"cebpf4jnsgd1na2vs0mg"},{"bike_id":"c98eb250-50b0-4238-a80b-25efc822f135","system_id":"levelo_inurba_marseille","lat":43.314811,"lon":5.373104,"is_reserved":false,"is_disabled":false,"rental_uris":{"android":"levelo://app?vid=c98eb250-50b0-4238-a80b-25efc822f135","ios":"levelo://app?vid=c98eb250-50b0-4238-a80b-25efc822f135"},"vehicle_type_id":"4","last_reported":1715983653,"current_range_meters":4000,"station_id":"ce4bgt12rcd13ifvqcd0","pricing_plan_id":"cebpf4jnsgd1na2vs0mg"},{"bike_id":"5f5d5e58-5cac-4a09-98be-64ee48e466a8","system_id":"levelo_inurba_marseille","lat":43.309039,"lon":5.371797,"is_reserved":false,"is_disabled":false,"rental_uris":{"android":"levelo://app?vid=5f5d5e58-5cac-4a09-98be-64ee48e466a8","ios":"levelo://app?vid=5f5d5e58-5cac-4a09-98be-64ee48e466a8"},"vehicle_type_id":"4","last_reported":1715983653,"current_range_meters":7200,"station_id":"ce4bguh2rcd13ifvqckg","pricing_plan_id":"cebpf4jnsgd1na2vs0mg"},{"bike_id":"92c3ab40-e049-419e-86e6-3a8c74db6a13","system_id":"levelo_inurba_marseille","lat":43.309039,"lon":5.371797,"is_reserved":false,"is_disabled":false,"rental_uris":{"android":"levelo://app?vid=92c3ab40-e049-419e-86e6-3a8c74db6a13","ios":"levelo://app?vid=92c3ab40-e049-419e-86e6-3a8c74db6a13"},"vehicle_type_id":"4","last_reported":1715983653,"current_range_meters":7200,"station_id":"ce4bguh2rcd13ifvqckg","pricing_plan_id":"cebpf4jnsgd1na2vs0mg"},{"bike_id":"f1b1c9ed-3db8-4170-8ba0-395f62a9a275","system_id":"levelo_inurba_marseille","lat":43.309039,"lon":5.371797,"is_reserved":false,"is_disabled":false,"rental_uris":{"android":"levelo://app?vid=f1b1c9ed-3db8-4170-8ba0-395f62a9a275","ios":"levelo://app?vid=f1b1c9ed-3db8-4170-8ba0-395f62a9a275"},"vehicle_type_id":"4","last_reported":1715983653,"current_range_meters":7600,"station_id":"ce4bguh2rcd13ifvqckg","pricing_plan_id":"cebpf4jnsgd1na2vs0mg"},{"bike_id":"abcef819-84a9-4956-83f4-f421c45ac34e","system_id":"levelo_inurba_marseille","lat":43.309034,"lon":5.371783,"is_reserved":false,"is_disabled":false,"rental_uris":{"android":"levelo://app?vid=abcef819-84a9-4956-83f4-f421c45ac34e","ios":"levelo://app?vid=abcef819-84a9-4956-83f4-f421c45ac34e"},"vehicle_type_id":"4","last_reported":1715983653,"current_range_meters":25600,"station_id":"ce4bguh2rcd13ifvqckg","pricing_plan_id":"cebpf4jnsgd1na2vs0mg"},{"bike_id":"dc794562-229e-4198-b19e-70667cb77db8","system_id":"levelo_inurba_marseille","lat":43.305714,"lon":5.365633,"is_reserved":false,"is_disabled":false,"rental_uris":{"android":"levelo://app?vid=dc794562-229e-4198-b19e-70667cb77db8","ios":"levelo://app?vid=dc794562-229e-4198-b19e-70667cb77db8"},"vehicle_type_id":"4","last_reported":1715983653,"current_range_meters":25600,"station_id":"ce4bgs12rcd13ifvqcag","pricing_plan_id":"cebpf4jnsgd1na2vs0mg"},{"bike_id":"748e39c4-a0a2-4724-a925-f6f1df0f9ba1","system_id":"levelo_inurba_marseille","lat":43.305714,"lon":5.365633,"is_reserved":false,"is_disabled":false,"rental_uris":{"android":"levelo://app?vid=748e39c4-a0a2-4724-a925-f6f1df0f9ba1","ios":"levelo://app?vid=748e39c4-a0a2-4724-a925-f6f1df0f9ba1"},"vehicle_type_id":"4","last_reported":1715983653,"current_range_meters":31200,"station_id":"ce4bgs12rcd13ifvqcag","pricing_plan_id":"cebpf4jnsgd1na2vs0mg"},{"bike_id":"6e622315-ff88-4e80-ad29-52ca7ac5be58","system_id":"levelo_inurba_marseille","lat":43.30535,"lon":5.36695,"is_reserved":false,"is_disabled":false,"rental_uris":{"android":"levelo://app?vid=6e622315-ff88-4e80-ad29-52ca7ac5be58","ios":"levelo://app?vid=6e622315-ff88-4e80-ad29-52ca7ac5be58"},"vehicle_type_id":"4","last_reported":1715983653,"current_range_meters":26800,"station_id":"ce4bgrp2rcd13ifvqc9g","pricing_plan_id":"cebpf4jnsgd1na2vs0mg"},{"bike_id":"50349e82-b544-4687-be0b-cf8ad4a11349","system_id":"levelo_inurba_marseille","lat":43.305714,"lon":5.365633,"is_reserved":false,"is_disabled":false,"rental_uris":{"android":"levelo://app?vid=50349e82-b544-4687-be0b-cf8ad4a11349","ios":"levelo://app?vid=50349e82-b544-4687-be0b-cf8ad4a11349"},"vehicle_type_id":"4","last_reported":1715983653,"current_range_meters":23600,"station_id":"ce4bgs12rcd13ifvqcag","pricing_plan_id":"cebpf4jnsgd1na2vs0mg"},{"bike_id":"2e29a01d-d0be-4b33-83e8-9186cf7551f1","system_id":"levelo_inurba_marseille","lat":43.305989,"lon":5.37225,"is_reserved":false,"is_disabled":false,"rental_uris":{"android":"levelo://app?vid=2e29a01d-d0be-4b33-83e8-9186cf7551f1","ios":"levelo://app?vid=2e29a01d-d0be-4b33-83e8-9186cf7551f1"},"vehicle_type_id":"4","last_reported":1715983653,"current_range_meters":30400,"station_id":"ce4bgqh2rcd13ifvqc4g","pricing_plan_id":"cebpf4jnsgd1na2vs0mg"},{"bike_id":"2fa36165-01f5-4133-97ba-6db0e7f273ff","system_id":"levelo_inurba_marseille","lat":43.305989,"lon":5.37225,"is_reserved":false,"is_disabled":false,"rental_uris":{"android":"levelo://app?vid=2fa36165-01f5-4133-97ba-6db0e7f273ff","ios":"levelo://app?vid=2fa36165-01f5-4133-97ba-6db0e7f273ff"},"vehicle_type_id":"4","last_reported":1715983653,"current_range_meters":29200,"station_id":"ce4bgqh2rcd13ifvqc4g","pricing_plan_id":"cebpf4jnsgd1na2vs0mg"},{"bike_id":"f24f5f18-e0a6-4ad3-baf5-fb007f3d4cad","system_id":"levelo_inurba_marseille","lat":43.311125,"lon":5.377624,"is_reserved":false,"is_disabled":false,"rental_uris":{"android":"levelo://app?vid=f24f5f18-e0a6-4ad3-baf5-fb007f3d4cad","ios":"levelo://app?vid=f24f5f18-e0a6-4ad3-baf5-fb007f3d4cad"},"vehicle_type_id":"4","last_reported":1715983653,"current_range_meters":29600,"station_id":"ce4bgt92rcd13ifvqcg0","pricing_plan_id":"cebpf4jnsgd1na2vs0mg"},{"bike_id":"aeb9dfda-85e5-4d2c-b296-cecf22f4aba8","system_id":"levelo_inurba_marseille","lat":43.311131,"lon":5.377651,"is_reserved":false,"is_disabled":false,"rental_uris":{"android":"levelo://app?vid=aeb9dfda-85e5-4d2c-b296-cecf22f4aba8","ios":"levelo://app?vid=aeb9dfda-85e5-4d2c-b296-cecf22f4aba8"},"vehicle_type_id":"4","last_reported":1715983653,"current_range_meters":0,"station_id":"ce4bgt92rcd13ifvqcg0","pricing_plan_id":"cebpf4jnsgd1na2vs0mg"},{"bike_id":"c066edd5-81a9-4895-a731-b46c3ab83d26","system_id":"levelo_inurba_marseille","lat":43.311125,"lon":5.377624,"is_reserved":false,"is_disabled":false,"rental_uris":{"android":"levelo://app?vid=c066edd5-81a9-4895-a731-b46c3ab83d26","ios":"levelo://app?vid=c066edd5-81a9-4895-a731-b46c3ab83d26"},"vehicle_type_id":"4","last_reported":1715983653,"current_range_meters":14000,"station_id":"ce4bgt92rcd13ifvqcg0","pricing_plan_id":"cebpf4jnsgd1na2vs0mg"},{"bike_id":"7fd1c146-7aae-43b5-b45c-0ff76d32c103","system_id":"levelo_inurba_marseille","lat":43.31109,"lon":5.37773,"is_reserved":false,"is_disabled":false,"rental_uris":{"android":"levelo://app?vid=7fd1c146-7aae-43b5-b45c-0ff76d32c103","ios":"levelo://app?vid=7fd1c146-7aae-43b5-b45c-0ff76d32c103"},"vehicle_type_id":"4","last_reported":1715983653,"current_range_meters":14800,"station_id":"ce4bgt92rcd13ifvqcg0","pricing_plan_id":"cebpf4jnsgd1na2vs0mg"},{"bike_id":"ae78d2d8-717b-47b1-a28f-c96417d76daf","system_id":"levelo_inurba_marseille","lat":43.307945,"lon":5.376487,"is_reserved":false,"is_disabled":false,"rental_uris":{"android":"levelo://app?vid=ae78d2d8-717b-47b1-a28f-c96417d76daf","ios":"levelo://app?vid=ae78d2d8-717b-47b1-a28f-c96417d76daf"},"vehicle_type_id":"4","last_reported":1715983653,"current_range_meters":400,"station_id":"ce4bgv92rcd13ifvqcq0","pricing_plan_id":"cebpf4jnsgd1na2vs0mg"},{"bike_id":"abfb1cfb-df77-43cf-a66d-544e15a4587c","system_id":"levelo_inurba_marseille","lat":43.307945,"lon":5.376487,"is_reserved":false,"is_disabled":false,"rental_uris":{"android":"levelo://app?vid=abfb1cfb-df77-43cf-a66d-544e15a4587c","ios":"levelo://app?vid=abfb1cfb-df77-43cf-a66d-544e15a4587c"},"vehicle_type_id":"4","last_reported":1715983653,"current_range_meters":26400,"station_id":"ce4bgv92rcd13ifvqcq0","pricing_plan_id":"cebpf4jnsgd1na2vs0mg"},{"bike_id":"b8d54f86-b227-4432-b2f2-c349e781cac4","system_id":"levelo_inurba_marseille","lat":43.317075,"lon":5.377367,"is_reserved":false,"is_disabled":false,"rental_uris":{"android":"levelo://app?vid=b8d54f86-b227-4432-b2f2-c349e781cac4","ios":"levelo://app?vid=b8d54f86-b227-4432-b2f2-c349e781cac4"},"vehicle_type_id":"4","last_reported":1715983653,"current_range_meters":14400,"station_id":"ce4bgth2rcd13ifvqch0","pricing_plan_id":"cebpf4jnsgd1na2vs0mg"},{"bike_id":"e2af8688-0435-4b69-99ee-5602c5214dad","system_id":"levelo_inurba_marseille","lat":43.317075,"lon":5.377367,"is_reserved":false,"is_disabled":false,"rental_uris":{"android":"levelo://app?vid=e2af8688-0435-4b69-99ee-5602c5214dad","ios":"levelo://app?vid=e2af8688-0435-4b69-99ee-5602c5214dad"},"vehicle_type_id":"4","last_reported":1715983653,"current_range_meters":17200,"station_id":"ce4bgth2rcd13ifvqch0","pricing_plan_id":"cebpf4jnsgd1na2vs0mg"},{"bike_id":"f673e677-d4c8-421e-9042-9eff9f34ccae","system_id":"levelo_inurba_marseille","lat":43.317076,"lon":5.37747,"is_reserved":false,"is_disabled":false,"rental_uris":{"android":"levelo://app?vid=f673e677-d4c8-421e-9042-9eff9f34ccae","ios":"levelo://app?vid=f673e677-d4c8-421e-9042-9eff9f34ccae"},"vehicle_type_id":"4","last_reported":1715983653,"current_range_meters":0,"station_id":"ce4bgth2rcd13ifvqch0","pricing_plan_id":"cebpf4jnsgd1na2vs0mg"},{"bike_id":"5adb0767-e760-44cb-9400-b6bf8b101faa","system_id":"levelo_inurba_marseille","lat":43.317075,"lon":5.377367,"is_reserved":false,"is_disabled":false,"rental_uris":{"android":"levelo://app?vid=5adb0767-e760-44cb-9400-b6bf8b101faa","ios":"levelo://app?vid=5adb0767-e760-44cb-9400-b6bf8b101faa"},"vehicle_type_id":"4","last_reported":1715983653,"current_range_meters":0,"station_id":"ce4bgth2rcd13ifvqch0","pricing_plan_id":"cebpf4jnsgd1na2vs0mg"},{"bike_id":"e2ed4cdc-fc97-4d82-b431-b627cb4bd1ae","system_id":"levelo_inurba_marseille","lat":43.317075,"lon":5.377367,"is_reserved":false,"is_disabled":false,"rental_uris":{"android":"levelo://app?vid=e2ed4cdc-fc97-4d82-b431-b627cb4bd1ae","ios":"levelo://app?vid=e2ed4cdc-fc97-4d82-b431-b627cb4bd1ae"},"vehicle_type_id":"4","last_reported":1715983653,"current_range_meters":11600,"station_id":"ce4bgth2rcd13ifvqch0","pricing_plan_id":"cebpf4jnsgd1na2vs0mg"},{"bike_id":"84b12753-80bf-47af-9502-f8e46524e089","system_id":"levelo_inurba_marseille","lat":43.317121,"lon":5.37767,"is_reserved":false,"is_disabled":false,"rental_uris":{"android":"levelo://app?vid=84b12753-80bf-47af-9502-f8e46524e089","ios":"levelo://app?vid=84b12753-80bf-47af-9502-f8e46524e089"},"vehicle_type_id":"4","last_reported":1715983653,"current_range_meters":4800,"station_id":"ce4bgth2rcd13ifvqch0","pricing_plan_id":"cebpf4jnsgd1na2vs0mg"},{"bike_id":"2a6ea533-bd90-44ae-90c1-df129b91a35a","system_id":"levelo_inurba_marseille","lat":43.30304,"lon":5.368987,"is_reserved":false,"is_disabled":false,"rental_uris":{"android":"levelo://app?vid=2a6ea533-bd90-44ae-90c1-df129b91a35a","ios":"levelo://app?vid=2a6ea533-bd90-44ae-90c1-df129b91a35a"},"vehicle_type_id":"4","last_reported":1715983653,"current_range_meters":26400,"station_id":"ce4bgqh2rcd13ifvqc5g","pricing_plan_id":"cebpf4jnsgd1na2vs0mg"},{"bike_id":"4de76b01-9c52-454d-a65e-e682c8e29f6c","system_id":"levelo_inurba_marseille","lat":43.303046,"lon":5.368981,"is_reserved":false,"is_disabled":false,"rental_uris":{"android":"levelo://app?vid=4de76b01-9c52-454d-a65e-e682c8e29f6c","ios":"levelo://app?vid=4de76b01-9c52-454d-a65e-e682c8e29f6c"},"vehicle_type_id":"4","last_reported":1715983653,"current_range_meters":8400,"station_id":"ce4bgqh2rcd13ifvqc5g","pricing_plan_id":"cebpf4jnsgd1na2vs0mg"},{"bike_id":"aa9d544f-01ff-470e-81f2-33533d5fd2ba","system_id":"levelo_inurba_marseille","lat":43.303046,"lon":5.368981,"is_reserved":false,"is_disabled":false,"rental_uris":{"android":"levelo://app?vid=aa9d544f-01ff-470e-81f2-33533d5fd2ba","ios":"levelo://app?vid=aa9d544f-01ff-470e-81f2-33533d5fd2ba"},"vehicle_type_id":"4","last_reported":1715983653,"current_range_meters":2000,"station_id":"ce4bgqh2rcd13ifvqc5g","pricing_plan_id":"cebpf4jnsgd1na2vs0mg"},{"bike_id":"0afdec95-669b-4857-a8a8-4f49ea2ae51b","system_id":"levelo_inurba_marseille","lat":43.303046,"lon":5.368981,"is_reserved":false,"is_disabled":false,"rental_uris":{"android":"levelo://app?vid=0afdec95-669b-4857-a8a8-4f49ea2ae51b","ios":"levelo://app?vid=0afdec95-669b-4857-a8a8-4f49ea2ae51b"},"vehicle_type_id":"4","last_reported":1715983653,"current_range_meters":6000,"station_id":"ce4bgqh2rcd13ifvqc5g","pricing_plan_id":"cebpf4jnsgd1na2vs0mg"},{"bike_id":"2dfde7d8-870c-41ef-8f56-0f6d23a651f3","system_id":"levelo_inurba_marseille","lat":43.303046,"lon":5.368981,"is_reserved":false,"is_disabled":false,"rental_uris":{"android":"levelo://app?vid=2dfde7d8-870c-41ef-8f56-0f6d23a651f3","ios":"levelo://app?vid=2dfde7d8-870c-41ef-8f56-0f6d23a651f3"},"vehicle_type_id":"4","last_reported":1715983653,"current_range_meters":4000,"station_id":"ce4bgqh2rcd13ifvqc5g","pricing_plan_id":"cebpf4jnsgd1na2vs0mg"},{"bike_id":"1ec53050-4ef0-4ddd-8896-0b93a91c5a16","system_id":"levelo_inurba_marseille","lat":43.3153,"lon":5.38032,"is_reserved":false,"is_disabled":false,"rental_uris":{"android":"levelo://app?vid=1ec53050-4ef0-4ddd-8896-0b93a91c5a16","ios":"levelo://app?vid=1ec53050-4ef0-4ddd-8896-0b93a91c5a16"},"vehicle_type_id":"4","last_reported":1715983653,"current_range_meters":8400,"station_id":"ce4bhsp2rcd13ifvqi50","pricing_plan_id":"cebpf4jnsgd1na2vs0mg"},{"bike_id":"dae36f3f-60c1-4434-b2c9-513bd7afe340","system_id":"levelo_inurba_marseille","lat":43.315309,"lon":5.38032,"is_reserved":false,"is_disabled":false,"rental_uris":{"android":"levelo://app?vid=dae36f3f-60c1-4434-b2c9-513bd7afe340","ios":"levelo://app?vid=dae36f3f-60c1-4434-b2c9-513bd7afe340"},"vehicle_type_id":"4","last_reported":1715983653,"current_range_meters":2400,"station_id":"ce4bhsp2rcd13ifvqi50","pricing_plan_id":"cebpf4jnsgd1na2vs0mg"},{"bike_id":"adbf2b43-7f6d-42d1-bfc0-35fb384ce4ea","system_id":"levelo_inurba_marseille","lat":43.315293,"lon":5.380349,"is_reserved":false,"is_disabled":false,"rental_uris":{"android":"levelo://app?vid=adbf2b43-7f6d-42d1-bfc0-35fb384ce4ea","ios":"levelo://app?vid=adbf2b43-7f6d-42d1-bfc0-35fb384ce4ea"},"vehicle_type_id":"4","last_reported":1715983653,"current_range_meters":16800,"station_id":"ce4bhsp2rcd13ifvqi50","pricing_plan_id":"cebpf4jnsgd1na2vs0mg"},{"bike_id":"2d6d6ca6-941e-4007-9ddb-eacee766af70","system_id":"levelo_inurba_marseille","lat":43.301939,"lon":5.366286,"is_reserved":false,"is_disabled":false,"rental_uris":{"android":"levelo://app?vid=2d6d6ca6-941e-4007-9ddb-eacee766af70","ios":"levelo://app?vid=2d6d6ca6-941e-4007-9ddb-eacee766af70"},"vehicle_type_id":"4","last_reported":1715983653,"current_range_meters":22800,"station_id":"ce4bgrh2rcd13ifvqc8g","pricing_plan_id":"cebpf4jnsgd1na2vs0mg"},{"bike_id":"17e0572a-285d-4267-bb2a-f0d759c8f177","system_id":"levelo_inurba_marseille","lat":43.301939,"lon":5.366286,"is_reserved":false,"is_disabled":false,"rental_uris":{"android":"levelo://app?vid=17e0572a-285d-4267-bb2a-f0d759c8f177","ios":"levelo://app?vid=17e0572a-285d-4267-bb2a-f0d759c8f177"},"vehicle_type_id":"4","last_reported":1715983653,"current_range_meters":16800,"station_id":"ce4bgrh2rcd13ifvqc8g","pricing_plan_id":"cebpf4jnsgd1na2vs0mg"},{"bike_id":"0c757db8-cb64-468c-85dc-a83d9798d1be","system_id":"levelo_inurba_marseille","lat":43.301939,"lon":5.366286,"is_reserved":false,"is_disabled":false,"rental_uris":{"android":"levelo://app?vid=0c757db8-cb64-468c-85dc-a83d9798d1be","ios":"levelo://app?vid=0c757db8-cb64-468c-85dc-a83d9798d1be"},"vehicle_type_id":"4","last_reported":1715983653,"current_range_meters":25200,"station_id":"ce4bgrh2rcd13ifvqc8g","pricing_plan_id":"cebpf4jnsgd1na2vs0mg"},{"bike_id":"c5f6c3a4-6311-4d78-b08f-ace7cf99539f","system_id":"levelo_inurba_marseille","lat":43.301939,"lon":5.366286,"is_reserved":false,"is_disabled":false,"rental_uris":{"android":"levelo://app?vid=c5f6c3a4-6311-4d78-b08f-ace7cf99539f","ios":"levelo://app?vid=c5f6c3a4-6311-4d78-b08f-ace7cf99539f"},"vehicle_type_id":"4","last_reported":1715983653,"current_range_meters":1600,"station_id":"ce4bgrh2rcd13ifvqc8g","pricing_plan_id":"cebpf4jnsgd1na2vs0mg"},{"bike_id":"b371731d-6772-4ca8-ac35-70c7ac9c1109","system_id":"levelo_inurba_marseille","lat":43.301939,"lon":5.366286,"is_reserved":false,"is_disabled":false,"rental_uris":{"android":"levelo://app?vid=b371731d-6772-4ca8-ac35-70c7ac9c1109","ios":"levelo://app?vid=b371731d-6772-4ca8-ac35-70c7ac9c1109"},"vehicle_type_id":"4","last_reported":1715983653,"current_range_meters":15200,"station_id":"ce4bgrh2rcd13ifvqc8g","pricing_plan_id":"cebpf4jnsgd1na2vs0mg"},{"bike_id":"e4b2c6cf-ceaf-4832-b1a4-787f4fd437ce","system_id":"levelo_inurba_marseille","lat":43.301927,"lon":5.36879,"is_reserved":false,"is_disabled":false,"rental_uris":{"android":"levelo://app?vid=e4b2c6cf-ceaf-4832-b1a4-787f4fd437ce","ios":"levelo://app?vid=e4b2c6cf-ceaf-4832-b1a4-787f4fd437ce"},"vehicle_type_id":"4","last_reported":1715983653,"current_range_meters":17200,"station_id":"","pricing_plan_id":"cebpf4jnsgd1na2vs0mg"},{"bike_id":"5a1ab1b6-9402-45b1-a6de-023f4a64f5a4","system_id":"levelo_inurba_marseille","lat":43.308012,"lon":5.381511,"is_reserved":false,"is_disabled":false,"rental_uris":{"android":"levelo://app?vid=5a1ab1b6-9402-45b1-a6de-023f4a64f5a4","ios":"levelo://app?vid=5a1ab1b6-9402-45b1-a6de-023f4a64f5a4"},"vehicle_type_id":"4","last_reported":1715983653,"current_range_meters":16800,"station_id":"ce4bgt12rcd13ifvqce0","pricing_plan_id":"cebpf4jnsgd1na2vs0mg"},{"bike_id":"15c201f4-a397-4229-9493-962e447afbaf","system_id":"levelo_inurba_marseille","lat":43.308012,"lon":5.381511,"is_reserved":false,"is_disabled":false,"rental_uris":{"android":"levelo://app?vid=15c201f4-a397-4229-9493-962e447afbaf","ios":"levelo://app?vid=15c201f4-a397-4229-9493-962e447afbaf"},"vehicle_type_id":"4","last_reported":1715983653,"current_range_meters":18800,"station_id":"ce4bgt12rcd13ifvqce0","pricing_plan_id":"cebpf4jnsgd1na2vs0mg"},{"bike_id":"b4b5bc16-5ab9-49e8-9b05-7f371fc34e8e","system_id":"levelo_inurba_marseille","lat":43.308012,"lon":5.381511,"is_reserved":false,"is_disabled":false,"rental_uris":{"android":"levelo://app?vid=b4b5bc16-5ab9-49e8-9b05-7f371fc34e8e","ios":"levelo://app?vid=b4b5bc16-5ab9-49e8-9b05-7f371fc34e8e"},"vehicle_type_id":"4","last_reported":1715983653,"current_range_meters":16000,"station_id":"ce4bgt12rcd13ifvqce0","pricing_plan_id":"cebpf4jnsgd1na2vs0mg"},{"bike_id":"00bc931b-8745-4c6f-97dd-1dcb56cbca3d","system_id":"levelo_inurba_marseille","lat":43.308012,"lon":5.381511,"is_reserved":false,"is_disabled":false,"rental_uris":{"android":"levelo://app?vid=00bc931b-8745-4c6f-97dd-1dcb56cbca3d","ios":"levelo://app?vid=00bc931b-8745-4c6f-97dd-1dcb56cbca3d"},"vehicle_type_id":"4","last_reported":1715983653,"current_range_meters":0,"station_id":"ce4bgt12rcd13ifvqce0","pricing_plan_id":"cebpf4jnsgd1na2vs0mg"},{"bike_id":"22bdc3fa-aa4d-4ff2-9998-0abece2c6760","system_id":"levelo_inurba_marseille","lat":43.304606,"lon":5.379026,"is_reserved":false,"is_disabled":false,"rental_uris":{"android":"levelo://app?vid=22bdc3fa-aa4d-4ff2-9998-0abece2c6760","ios":"levelo://app?vid=22bdc3fa-aa4d-4ff2-9998-0abece2c6760"},"vehicle_type_id":"4","last_reported":1715983653,"current_range_meters":0,"station_id":"ce4bgup2rcd13ifvqcn0","pricing_plan_id":"cebpf4jnsgd1na2vs0mg"},{"bike_id":"9d8f7ee6-be7b-4b2e-ba1c-92986d40dc97","system_id":"levelo_inurba_marseille","lat":43.304606,"lon":5.379026,"is_reserved":false,"is_disabled":false,"rental_uris":{"android":"levelo://app?vid=9d8f7ee6-be7b-4b2e-ba1c-92986d40dc97","ios":"levelo://app?vid=9d8f7ee6-be7b-4b2e-ba1c-92986d40dc97"},"vehicle_type_id":"4","last_reported":1715983653,"current_range_meters":2000,"station_id":"ce4bgup2rcd13ifvqcn0","pricing_plan_id":"cebpf4jnsgd1na2vs0mg"},{"bike_id":"7522fd6a-8a27-4544-97ec-c630c74fb350","system_id":"levelo_inurba_marseille","lat":43.304606,"lon":5.379026,"is_reserved":false,"is_disabled":false,"rental_uris":{"android":"levelo://app?vid=7522fd6a-8a27-4544-97ec-c630c74fb350","ios":"levelo://app?vid=7522fd6a-8a27-4544-97ec-c630c74fb350"},"vehicle_type_id":"4","last_reported":1715983653,"current_range_meters":0,"station_id":"ce4bgup2rcd13ifvqcn0","pricing_plan_id":"cebpf4jnsgd1na2vs0mg"},{"bike_id":"4f987fe8-62b8-4dae-99e6-19681d71ff7b","system_id":"levelo_inurba_marseille","lat":43.304606,"lon":5.379026,"is_reserved":false,"is_disabled":false,"rental_uris":{"android":"levelo://app?vid=4f987fe8-62b8-4dae-99e6-19681d71ff7b","ios":"levelo://app?vid=4f987fe8-62b8-4dae-99e6-19681d71ff7b"},"vehicle_type_id":"4","last_reported":1715983653,"current_range_meters":17200,"station_id":"ce4bgup2rcd13ifvqcn0","pricing_plan_id":"cebpf4jnsgd1na2vs0mg"},{"bike_id":"053d9588-457f-4a95-b34d-c3d454367b42","system_id":"levelo_inurba_marseille","lat":43.304606,"lon":5.379026,"is_reserved":false,"is_disabled":false,"rental_uris":{"android":"levelo://app?vid=053d9588-457f-4a95-b34d-c3d454367b42","ios":"levelo://app?vid=053d9588-457f-4a95-b34d-c3d454367b42"},"vehicle_type_id":"4","last_reported":1715983653,"current_range_meters":7200,"station_id":"ce4bgup2rcd13ifvqcn0","pricing_plan_id":"cebpf4jnsgd1na2vs0mg"},{"bike_id":"58d52356-6fe8-41fe-8b76-f112b8c7aca0","system_id":"levelo_inurba_marseille","lat":43.324771,"lon":5.36557,"is_reserved":false,"is_disabled":false,"rental_uris":{"android":"levelo://app?vid=58d52356-6fe8-41fe-8b76-f112b8c7aca0","ios":"levelo://app?vid=58d52356-6fe8-41fe-8b76-f112b8c7aca0"},"vehicle_type_id":"4","last_reported":1715983653,"current_range_meters":31200,"station_id":"ce4bhs12rcd13ifvqhvg","pricing_plan_id":"cebpf4jnsgd1na2vs0mg"},{"bike_id":"b6d3d4c3-48f1-44f6-88f4-a78216be9c29","system_id":"levelo_inurba_marseille","lat":43.324771,"lon":5.36557,"is_reserved":false,"is_disabled":false,"rental_uris":{"android":"levelo://app?vid=b6d3d4c3-48f1-44f6-88f4-a78216be9c29","ios":"levelo://app?vid=b6d3d4c3-48f1-44f6-88f4-a78216be9c29"},"vehicle_type_id":"4","last_reported":1715983653,"current_range_meters":4400,"station_id":"ce4bhs12rcd13ifvqhvg","pricing_plan_id":"cebpf4jnsgd1na2vs0mg"},{"bike_id":"9c1f7e62-096c-495b-a21f-f5bf00cc381b","system_id":"levelo_inurba_marseille","lat":43.324771,"lon":5.36557,"is_reserved":false,"is_disabled":false,"rental_uris":{"android":"levelo://app?vid=9c1f7e62-096c-495b-a21f-f5bf00cc381b","ios":"levelo://app?vid=9c1f7e62-096c-495b-a21f-f5bf00cc381b"},"vehicle_type_id":"4","last_reported":1715983653,"current_range_meters":27600,"station_id":"ce4bhs12rcd13ifvqhvg","pricing_plan_id":"cebpf4jnsgd1na2vs0mg"},{"bike_id":"bf44b839-a72e-457a-a95b-a061a3b96cf8","system_id":"levelo_inurba_marseille","lat":43.32485,"lon":5.36556,"is_reserved":false,"is_disabled":false,"rental_uris":{"android":"levelo://app?vid=bf44b839-a72e-457a-a95b-a061a3b96cf8","ios":"levelo://app?vid=bf44b839-a72e-457a-a95b-a061a3b96cf8"},"vehicle_type_id":"4","last_reported":1715983653,"current_range_meters":6400,"station_id":"ce4bhs12rcd13ifvqhvg","pricing_plan_id":"cebpf4jnsgd1na2vs0mg"},{"bike_id":"7e0f5720-6220-4adb-979a-5e49b2333554","system_id":"levelo_inurba_marseille","lat":43.324771,"lon":5.36557,"is_reserved":false,"is_disabled":false,"rental_uris":{"android":"levelo://app?vid=7e0f5720-6220-4adb-979a-5e49b2333554","ios":"levelo://app?vid=7e0f5720-6220-4adb-979a-5e49b2333554"},"vehicle_type_id":"4","last_reported":1715983653,"current_range_meters":14400,"station_id":"ce4bhs12rcd13ifvqhvg","pricing_plan_id":"cebpf4jnsgd1na2vs0mg"},{"bike_id":"c12e6424-5b1d-4422-ad09-ca701b9482d2","system_id":"levelo_inurba_marseille","lat":43.310804,"lon":5.38359,"is_reserved":false,"is_disabled":false,"rental_uris":{"android":"levelo://app?vid=c12e6424-5b1d-4422-ad09-ca701b9482d2","ios":"levelo://app?vid=c12e6424-5b1d-4422-ad09-ca701b9482d2"},"vehicle_type_id":"4","last_reported":1715983653,"current_range_meters":18800,"station_id":"ce4bgv92rcd13ifvqcr0","pricing_plan_id":"cebpf4jnsgd1na2vs0mg"},{"bike_id":"17a30039-4e87-4006-af45-4962db161f5d","system_id":"levelo_inurba_marseille","lat":43.310804,"lon":5.38359,"is_reserved":false,"is_disabled":false,"rental_uris":{"android":"levelo://app?vid=17a30039-4e87-4006-af45-4962db161f5d","ios":"levelo://app?vid=17a30039-4e87-4006-af45-4962db161f5d"},"vehicle_type_id":"4","last_reported":1715983653,"current_range_meters":18800,"station_id":"ce4bgv92rcd13ifvqcr0","pricing_plan_id":"cebpf4jnsgd1na2vs0mg"},{"bike_id":"f4ef172b-707a-40ee-8b9e-e12bc02e346a","system_id":"levelo_inurba_marseille","lat":43.310804,"lon":5.38359,"is_reserved":false,"is_disabled":false,"rental_uris":{"android":"levelo://app?vid=f4ef172b-707a-40ee-8b9e-e12bc02e346a","ios":"levelo://app?vid=f4ef172b-707a-40ee-8b9e-e12bc02e346a"},"vehicle_type_id":"4","last_reported":1715983653,"current_range_meters":10000,"station_id":"ce4bgv92rcd13ifvqcr0","pricing_plan_id":"cebpf4jnsgd1na2vs0mg"},{"bike_id":"e5adfa35-df25-4497-b020-ba2df4a0f714","system_id":"levelo_inurba_marseille","lat":43.310804,"lon":5.38359,"is_reserved":false,"is_disabled":false,"rental_uris":{"android":"levelo://app?vid=e5adfa35-df25-4497-b020-ba2df4a0f714","ios":"levelo://app?vid=e5adfa35-df25-4497-b020-ba2df4a0f714"},"vehicle_type_id":"4","last_reported":1715983653,"current_range_meters":29600,"station_id":"ce4bgv92rcd13ifvqcr0","pricing_plan_id":"cebpf4jnsgd1na2vs0mg"},{"bike_id":"5dd578cd-e46c-428f-b864-03706e98435e","system_id":"levelo_inurba_marseille","lat":43.302784,"lon":5.377158,"is_reserved":false,"is_disabled":false,"rental_uris":{"android":"levelo://app?vid=5dd578cd-e46c-428f-b864-03706e98435e","ios":"levelo://app?vid=5dd578cd-e46c-428f-b864-03706e98435e"},"vehicle_type_id":"4","last_reported":1715983653,"current_range_meters":24000,"station_id":"ce4bguh2rcd13ifvqcj0","pricing_plan_id":"cebpf4jnsgd1na2vs0mg"},{"bike_id":"dcd6d415-8b53-4d0a-91f5-7109ebe54b93","system_id":"levelo_inurba_marseille","lat":43.310804,"lon":5.38359,"is_reserved":false,"is_disabled":false,"rental_uris":{"android":"levelo://app?vid=dcd6d415-8b53-4d0a-91f5-7109ebe54b93","ios":"levelo://app?vid=dcd6d415-8b53-4d0a-91f5-7109ebe54b93"},"vehicle_type_id":"4","last_reported":1715983653,"current_range_meters":4800,"station_id":"ce4bgv92rcd13ifvqcr0","pricing_plan_id":"cebpf4jnsgd1na2vs0mg"},{"bike_id":"248887c3-9032-4972-a69a-11b34fb82767","system_id":"levelo_inurba_marseille","lat":43.310804,"lon":5.38359,"is_reserved":false,"is_disabled":false,"rental_uris":{"android":"levelo://app?vid=248887c3-9032-4972-a69a-11b34fb82767","ios":"levelo://app?vid=248887c3-9032-4972-a69a-11b34fb82767"},"vehicle_type_id":"4","last_reported":1715983653,"current_range_meters":0,"station_id":"ce4bgv92rcd13ifvqcr0","pricing_plan_id":"cebpf4jnsgd1na2vs0mg"},{"bike_id":"bc0c7c05-bd4f-436d-b045-abd319029f01","system_id":"levelo_inurba_marseille","lat":43.310804,"lon":5.38359,"is_reserved":false,"is_disabled":false,"rental_uris":{"android":"levelo://app?vid=bc0c7c05-bd4f-436d-b045-abd319029f01","ios":"levelo://app?vid=bc0c7c05-bd4f-436d-b045-abd319029f01"},"vehicle_type_id":"4","last_reported":1715983653,"current_range_meters":20800,"station_id":"ce4bgv92rcd13ifvqcr0","pricing_plan_id":"cebpf4jnsgd1na2vs0mg"},{"bike_id":"f6bf99e6-5040-40d8-8d5a-5bd1054da510","system_id":"levelo_inurba_marseille","lat":43.301429,"lon":5.37413,"is_reserved":false,"is_disabled":false,"rental_uris":{"android":"levelo://app?vid=f6bf99e6-5040-40d8-8d5a-5bd1054da510","ios":"levelo://app?vid=f6bf99e6-5040-40d8-8d5a-5bd1054da510"},"vehicle_type_id":"4","last_reported":1715983653,"current_range_meters":1200,"station_id":"ce4bgs92rcd13ifvqcc0","pricing_plan_id":"cebpf4jnsgd1na2vs0mg"},{"bike_id":"b7b1157a-a8f9-4f8b-bc3f-a31623d4101b","system_id":"levelo_inurba_marseille","lat":43.301429,"lon":5.37413,"is_reserved":false,"is_disabled":false,"rental_uris":{"android":"levelo://app?vid=b7b1157a-a8f9-4f8b-bc3f-a31623d4101b","ios":"levelo://app?vid=b7b1157a-a8f9-4f8b-bc3f-a31623d4101b"},"vehicle_type_id":"4","last_reported":1715983653,"current_range_meters":18800,"station_id":"ce4bgs92rcd13ifvqcc0","pricing_plan_id":"cebpf4jnsgd1na2vs0mg"},{"bike_id":"86bfc7ca-87f4-4377-81b3-49bc3e126da8","system_id":"levelo_inurba_marseille","lat":43.301429,"lon":5.37413,"is_reserved":false,"is_disabled":false,"rental_uris":{"android":"levelo://app?vid=86bfc7ca-87f4-4377-81b3-49bc3e126da8","ios":"levelo://app?vid=86bfc7ca-87f4-4377-81b3-49bc3e126da8"},"vehicle_type_id":"4","last_reported":1715983653,"current_range_meters":14800,"station_id":"ce4bgs92rcd13ifvqcc0","pricing_plan_id":"cebpf4jnsgd1na2vs0mg"},{"bike_id":"7ca4b76a-d3e8-4273-abcf-20ee737cf28e","system_id":"levelo_inurba_marseille","lat":43.319935,"lon":5.381699,"is_reserved":false,"is_disabled":false,"rental_uris":{"android":"levelo://app?vid=7ca4b76a-d3e8-4273-abcf-20ee737cf28e","ios":"levelo://app?vid=7ca4b76a-d3e8-4273-abcf-20ee737cf28e"},"vehicle_type_id":"4","last_reported":1715983653,"current_range_meters":15200,"station_id":"ce4bhr12rcd13ifvqhpg","pricing_plan_id":"cebpf4jnsgd1na2vs0mg"},{"bike_id":"29232f31-dfeb-4833-ac35-685cda987b87","system_id":"levelo_inurba_marseille","lat":43.319935,"lon":5.381699,"is_reserved":false,"is_disabled":false,"rental_uris":{"android":"levelo://app?vid=29232f31-dfeb-4833-ac35-685cda987b87","ios":"levelo://app?vid=29232f31-dfeb-4833-ac35-685cda987b87"},"vehicle_type_id":"4","last_reported":1715983653,"current_range_meters":8000,"station_id":"ce4bhr12rcd13ifvqhpg","pricing_plan_id":"cebpf4jnsgd1na2vs0mg"},{"bike_id":"9f7836c3-eeba-4cf6-b327-a4c07141725a","system_id":"levelo_inurba_marseille","lat":43.313571,"lon":5.384829,"is_reserved":false,"is_disabled":false,"rental_uris":{"android":"levelo://app?vid=9f7836c3-eeba-4cf6-b327-a4c07141725a","ios":"levelo://app?vid=9f7836c3-eeba-4cf6-b327-a4c07141725a"},"vehicle_type_id":"4","last_reported":1715983653,"current_range_meters":11200,"station_id":"ce4bgt92rcd13ifvqcf0","pricing_plan_id":"cebpf4jnsgd1na2vs0mg"},{"bike_id":"95490912-94f3-417b-9e90-bbb2e8df4fd8","system_id":"levelo_inurba_marseille","lat":43.313571,"lon":5.384829,"is_reserved":false,"is_disabled":false,"rental_uris":{"android":"levelo://app?vid=95490912-94f3-417b-9e90-bbb2e8df4fd8","ios":"levelo://app?vid=95490912-94f3-417b-9e90-bbb2e8df4fd8"},"vehicle_type_id":"4","last_reported":1715983653,"current_range_meters":2000,"station_id":"ce4bgt92rcd13ifvqcf0","pricing_plan_id":"cebpf4jnsgd1na2vs0mg"},{"bike_id":"b43712b2-9fcd-4c29-b2a1-ab3499da4d06","system_id":"levelo_inurba_marseille","lat":43.3137,"lon":5.38493,"is_reserved":false,"is_disabled":false,"rental_uris":{"android":"levelo://app?vid=b43712b2-9fcd-4c29-b2a1-ab3499da4d06","ios":"levelo://app?vid=b43712b2-9fcd-4c29-b2a1-ab3499da4d06"},"vehicle_type_id":"4","last_reported":1715983653,"current_range_meters":10400,"station_id":"ce4bgt92rcd13ifvqcf0","pricing_plan_id":"cebpf4jnsgd1na2vs0mg"},{"bike_id":"bdb2f496-f1c4-4bb6-a7bf-98c51f2fa8aa","system_id":"levelo_inurba_marseille","lat":43.31372,"lon":5.38493,"is_reserved":false,"is_disabled":false,"rental_uris":{"android":"levelo://app?vid=bdb2f496-f1c4-4bb6-a7bf-98c51f2fa8aa","ios":"levelo://app?vid=bdb2f496-f1c4-4bb6-a7bf-98c51f2fa8aa"},"vehicle_type_id":"4","last_reported":1715983653,"current_range_meters":0,"station_id":"ce4bgt92rcd13ifvqcf0","pricing_plan_id":"cebpf4jnsgd1na2vs0mg"},{"bike_id":"3c9beba4-171d-47fd-b4a5-ceb98b2bf4f8","system_id":"levelo_inurba_marseille","lat":43.313571,"lon":5.384829,"is_reserved":false,"is_disabled":false,"rental_uris":{"android":"levelo://app?vid=3c9beba4-171d-47fd-b4a5-ceb98b2bf4f8","ios":"levelo://app?vid=3c9beba4-171d-47fd-b4a5-ceb98b2bf4f8"},"vehicle_type_id":"4","last_reported":1715983653,"current_range_meters":6400,"station_id":"ce4bgt92rcd13ifvqcf0","pricing_plan_id":"cebpf4jnsgd1na2vs0mg"},{"bike_id":"4af11e96-c3e6-4d38-b8eb-4c5e56e3a4f4","system_id":"levelo_inurba_marseille","lat":43.313571,"lon":5.384829,"is_reserved":false,"is_disabled":false,"rental_uris":{"android":"levelo://app?vid=4af11e96-c3e6-4d38-b8eb-4c5e56e3a4f4","ios":"levelo://app?vid=4af11e96-c3e6-4d38-b8eb-4c5e56e3a4f4"},"vehicle_type_id":"4","last_reported":1715983653,"current_range_meters":3600,"station_id":"ce4bgt92rcd13ifvqcf0","pricing_plan_id":"cebpf4jnsgd1na2vs0mg"},{"bike_id":"08d2b0c5-5560-4912-bb54-e320f7c7d912","system_id":"levelo_inurba_marseille","lat":43.313553,"lon":5.384975,"is_reserved":false,"is_disabled":false,"rental_uris":{"android":"levelo://app?vid=08d2b0c5-5560-4912-bb54-e320f7c7d912","ios":"levelo://app?vid=08d2b0c5-5560-4912-bb54-e320f7c7d912"},"vehicle_type_id":"4","last_reported":1715983653,"current_range_meters":0,"station_id":"ce4bgt92rcd13ifvqcf0","pricing_plan_id":"cebpf4jnsgd1na2vs0mg"},{"bike_id":"d477931c-3dbc-4aa1-8ca8-d4f0cec45a82","system_id":"levelo_inurba_marseille","lat":43.299724,"lon":5.371829,"is_reserved":false,"is_disabled":false,"rental_uris":{"android":"levelo://app?vid=d477931c-3dbc-4aa1-8ca8-d4f0cec45a82","ios":"levelo://app?vid=d477931c-3dbc-4aa1-8ca8-d4f0cec45a82"},"vehicle_type_id":"4","last_reported":1715983653,"current_range_meters":31200,"station_id":"ce4bgr92rcd13ifvqc7g","pricing_plan_id":"cebpf4jnsgd1na2vs0mg"},{"bike_id":"2770a6db-f1d0-4909-9027-49f87f9a0062","system_id":"levelo_inurba_marseille","lat":43.299724,"lon":5.371829,"is_reserved":false,"is_disabled":false,"rental_uris":{"android":"levelo://app?vid=2770a6db-f1d0-4909-9027-49f87f9a0062","ios":"levelo://app?vid=2770a6db-f1d0-4909-9027-49f87f9a0062"},"vehicle_type_id":"4","last_reported":1715983653,"current_range_meters":29600,"station_id":"ce4bgr92rcd13ifvqc7g","pricing_plan_id":"cebpf4jnsgd1na2vs0mg"},{"bike_id":"02cc5803-ffbd-4fae-891b-0b7b3f6a994f","system_id":"levelo_inurba_marseille","lat":43.29977,"lon":5.3718,"is_reserved":false,"is_disabled":false,"rental_uris":{"android":"levelo://app?vid=02cc5803-ffbd-4fae-891b-0b7b3f6a994f","ios":"levelo://app?vid=02cc5803-ffbd-4fae-891b-0b7b3f6a994f"},"vehicle_type_id":"4","last_reported":1715983653,"current_range_meters":4000,"station_id":"","pricing_plan_id":"cebpf4jnsgd1na2vs0mg"},{"bike_id":"9e9d7aa7-90bd-4444-841c-c7805fde2ff1","system_id":"levelo_inurba_marseille","lat":43.297163,"lon":5.365866,"is_reserved":false,"is_disabled":false,"rental_uris":{"android":"levelo://app?vid=9e9d7aa7-90bd-4444-841c-c7805fde2ff1","ios":"levelo://app?vid=9e9d7aa7-90bd-4444-841c-c7805fde2ff1"},"vehicle_type_id":"4","last_reported":1715983653,"current_range_meters":11600,"station_id":"ce4bgn12rcd13ifvqbt0","pricing_plan_id":"cebpf4jnsgd1na2vs0mg"},{"bike_id":"731082e3-5a67-42c8-9f39-73e0c013b205","system_id":"levelo_inurba_marseille","lat":43.305364,"lon":5.384119,"is_reserved":false,"is_disabled":false,"rental_uris":{"android":"levelo://app?vid=731082e3-5a67-42c8-9f39-73e0c013b205","ios":"levelo://app?vid=731082e3-5a67-42c8-9f39-73e0c013b205"},"vehicle_type_id":"4","last_reported":1715983653,"current_range_meters":7200,"station_id":"ce4bgg92rcd13ifvqb30","pricing_plan_id":"cebpf4jnsgd1na2vs0mg"},{"bike_id":"cae4ce73-65e7-4b4e-b594-185b09df3582","system_id":"levelo_inurba_marseille","lat":43.305364,"lon":5.384119,"is_reserved":false,"is_disabled":false,"rental_uris":{"android":"levelo://app?vid=cae4ce73-65e7-4b4e-b594-185b09df3582","ios":"levelo://app?vid=cae4ce73-65e7-4b4e-b594-185b09df3582"},"vehicle_type_id":"4","last_reported":1715983653,"current_range_meters":2400,"station_id":"ce4bgg92rcd13ifvqb30","pricing_plan_id":"cebpf4jnsgd1na2vs0mg"},{"bike_id":"109cd800-c4f1-4d61-af8b-f993fe802cb5","system_id":"levelo_inurba_marseille","lat":43.305364,"lon":5.384119,"is_reserved":false,"is_disabled":false,"rental_uris":{"android":"levelo://app?vid=109cd800-c4f1-4d61-af8b-f993fe802cb5","ios":"levelo://app?vid=109cd800-c4f1-4d61-af8b-f993fe802cb5"},"vehicle_type_id":"4","last_reported":1715983653,"current_range_meters":29200,"station_id":"ce4bgg92rcd13ifvqb30","pricing_plan_id":"cebpf4jnsgd1na2vs0mg"},{"bike_id":"cc9f22f2-efe0-4378-b7d8-37bccd572591","system_id":"levelo_inurba_marseille","lat":43.305364,"lon":5.384119,"is_reserved":false,"is_disabled":false,"rental_uris":{"android":"levelo://app?vid=cc9f22f2-efe0-4378-b7d8-37bccd572591","ios":"levelo://app?vid=cc9f22f2-efe0-4378-b7d8-37bccd572591"},"vehicle_type_id":"4","last_reported":1715983653,"current_range_meters":8400,"station_id":"ce4bgg92rcd13ifvqb30","pricing_plan_id":"cebpf4jnsgd1na2vs0mg"},{"bike_id":"a8420d12-5ea1-4553-ba77-74153419b9a1","system_id":"levelo_inurba_marseille","lat":43.305364,"lon":5.384119,"is_reserved":false,"is_disabled":false,"rental_uris":{"android":"levelo://app?vid=a8420d12-5ea1-4553-ba77-74153419b9a1","ios":"levelo://app?vid=a8420d12-5ea1-4553-ba77-74153419b9a1"},"vehicle_type_id":"4","last_reported":1715983653,"current_range_meters":30400,"station_id":"ce4bgg92rcd13ifvqb30","pricing_plan_id":"cebpf4jnsgd1na2vs0mg"},{"bike_id":"0c4eb777-e5e3-4e3a-851d-89925a8a8d85","system_id":"levelo_inurba_marseille","lat":43.305364,"lon":5.384119,"is_reserved":false,"is_disabled":false,"rental_uris":{"android":"levelo://app?vid=0c4eb777-e5e3-4e3a-851d-89925a8a8d85","ios":"levelo://app?vid=0c4eb777-e5e3-4e3a-851d-89925a8a8d85"},"vehicle_type_id":"4","last_reported":1715983653,"current_range_meters":31600,"station_id":"ce4bgg92rcd13ifvqb30","pricing_plan_id":"cebpf4jnsgd1na2vs0mg"},{"bike_id":"c10d5cc2-dc00-4941-b34c-6b1c9bce69b0","system_id":"levelo_inurba_marseille","lat":43.305364,"lon":5.384119,"is_reserved":false,"is_disabled":false,"rental_uris":{"android":"levelo://app?vid=c10d5cc2-dc00-4941-b34c-6b1c9bce69b0","ios":"levelo://app?vid=c10d5cc2-dc00-4941-b34c-6b1c9bce69b0"},"vehicle_type_id":"4","last_reported":1715983653,"current_range_meters":0,"station_id":"ce4bgg92rcd13ifvqb30","pricing_plan_id":"cebpf4jnsgd1na2vs0mg"},{"bike_id":"46ee22aa-9446-419d-b195-e694d40e0b0e","system_id":"levelo_inurba_marseille","lat":43.305326,"lon":5.384321,"is_reserved":false,"is_disabled":false,"rental_uris":{"android":"levelo://app?vid=46ee22aa-9446-419d-b195-e694d40e0b0e","ios":"levelo://app?vid=46ee22aa-9446-419d-b195-e694d40e0b0e"},"vehicle_type_id":"4","last_reported":1715983653,"current_range_meters":0,"station_id":"ce4bgg92rcd13ifvqb30","pricing_plan_id":"cebpf4jnsgd1na2vs0mg"},{"bike_id":"7aab775f-b714-411d-9161-4990f3d7492d","system_id":"levelo_inurba_marseille","lat":43.299243,"lon":5.37481,"is_reserved":false,"is_disabled":false,"rental_uris":{"android":"levelo://app?vid=7aab775f-b714-411d-9161-4990f3d7492d","ios":"levelo://app?vid=7aab775f-b714-411d-9161-4990f3d7492d"},"vehicle_type_id":"4","last_reported":1715983653,"current_range_meters":8000,"station_id":"ce4bgjh2rcd13ifvqbg0","pricing_plan_id":"cebpf4jnsgd1na2vs0mg"},{"bike_id":"e451d665-da30-4c3a-ae5b-31410aaed7dc","system_id":"levelo_inurba_marseille","lat":43.311722,"lon":5.387247,"is_reserved":false,"is_disabled":false,"rental_uris":{"android":"levelo://app?vid=e451d665-da30-4c3a-ae5b-31410aaed7dc","ios":"levelo://app?vid=e451d665-da30-4c3a-ae5b-31410aaed7dc"},"vehicle_type_id":"4","last_reported":1715983653,"current_range_meters":13600,"station_id":"ce4bgv12rcd13ifvqcp0","pricing_plan_id":"cebpf4jnsgd1na2vs0mg"},{"bike_id":"9b91e0ef-7fc4-4b52-a63b-e673b722d423","system_id":"levelo_inurba_marseille","lat":43.311722,"lon":5.387247,"is_reserved":false,"is_disabled":false,"rental_uris":{"android":"levelo://app?vid=9b91e0ef-7fc4-4b52-a63b-e673b722d423","ios":"levelo://app?vid=9b91e0ef-7fc4-4b52-a63b-e673b722d423"},"vehicle_type_id":"4","last_reported":1715983653,"current_range_meters":24400,"station_id":"ce4bgv12rcd13ifvqcp0","pricing_plan_id":"cebpf4jnsgd1na2vs0mg"},{"bike_id":"9d7139e6-7f2c-4cf1-9584-a31682551947","system_id":"levelo_inurba_marseille","lat":43.311722,"lon":5.387247,"is_reserved":false,"is_disabled":false,"rental_uris":{"android":"levelo://app?vid=9d7139e6-7f2c-4cf1-9584-a31682551947","ios":"levelo://app?vid=9d7139e6-7f2c-4cf1-9584-a31682551947"},"vehicle_type_id":"4","last_reported":1715983653,"current_range_meters":16800,"station_id":"ce4bgv12rcd13ifvqcp0","pricing_plan_id":"cebpf4jnsgd1na2vs0mg"},{"bike_id":"c26a9d58-79a4-4a69-b096-f83caab18d38","system_id":"levelo_inurba_marseille","lat":43.311722,"lon":5.387247,"is_reserved":false,"is_disabled":false,"rental_uris":{"android":"levelo://app?vid=c26a9d58-79a4-4a69-b096-f83caab18d38","ios":"levelo://app?vid=c26a9d58-79a4-4a69-b096-f83caab18d38"},"vehicle_type_id":"4","last_reported":1715983653,"current_range_meters":24400,"station_id":"ce4bgv12rcd13ifvqcp0","pricing_plan_id":"cebpf4jnsgd1na2vs0mg"},{"bike_id":"14c46802-e8b7-4e93-9d51-4836dc5351fc","system_id":"levelo_inurba_marseille","lat":43.311722,"lon":5.387247,"is_reserved":false,"is_disabled":false,"rental_uris":{"android":"levelo://app?vid=14c46802-e8b7-4e93-9d51-4836dc5351fc","ios":"levelo://app?vid=14c46802-e8b7-4e93-9d51-4836dc5351fc"},"vehicle_type_id":"4","last_reported":1715983653,"current_range_meters":23200,"station_id":"ce4bgv12rcd13ifvqcp0","pricing_plan_id":"cebpf4jnsgd1na2vs0mg"},{"bike_id":"7274a2e7-9f77-47f3-b399-41ee4d08d74b","system_id":"levelo_inurba_marseille","lat":43.299243,"lon":5.37481,"is_reserved":false,"is_disabled":false,"rental_uris":{"android":"levelo://app?vid=7274a2e7-9f77-47f3-b399-41ee4d08d74b","ios":"levelo://app?vid=7274a2e7-9f77-47f3-b399-41ee4d08d74b"},"vehicle_type_id":"4","last_reported":1715983653,"current_range_meters":30800,"station_id":"ce4bgjh2rcd13ifvqbg0","pricing_plan_id":"cebpf4jnsgd1na2vs0mg"},{"bike_id":"9c1ed24f-b6e6-44d4-ae8d-470af449d6cd","system_id":"levelo_inurba_marseille","lat":43.311722,"lon":5.387247,"is_reserved":false,"is_disabled":false,"rental_uris":{"android":"levelo://app?vid=9c1ed24f-b6e6-44d4-ae8d-470af449d6cd","ios":"levelo://app?vid=9c1ed24f-b6e6-44d4-ae8d-470af449d6cd"},"vehicle_type_id":"4","last_reported":1715983653,"current_range_meters":22000,"station_id":"ce4bgv12rcd13ifvqcp0","pricing_plan_id":"cebpf4jnsgd1na2vs0mg"},{"bike_id":"ccb74aca-4be4-4a07-a6ff-c2c51018e500","system_id":"levelo_inurba_marseille","lat":43.311722,"lon":5.387247,"is_reserved":false,"is_disabled":false,"rental_uris":{"android":"levelo://app?vid=ccb74aca-4be4-4a07-a6ff-c2c51018e500","ios":"levelo://app?vid=ccb74aca-4be4-4a07-a6ff-c2c51018e500"},"vehicle_type_id":"4","last_reported":1715983653,"current_range_meters":0,"station_id":"ce4bgv12rcd13ifvqcp0","pricing_plan_id":"cebpf4jnsgd1na2vs0mg"},{"bike_id":"2aec7b46-e969-471b-a5c7-c0247f8d5598","system_id":"levelo_inurba_marseille","lat":43.311722,"lon":5.387247,"is_reserved":false,"is_disabled":false,"rental_uris":{"android":"levelo://app?vid=2aec7b46-e969-471b-a5c7-c0247f8d5598","ios":"levelo://app?vid=2aec7b46-e969-471b-a5c7-c0247f8d5598"},"vehicle_type_id":"4","last_reported":1715983653,"current_range_meters":12000,"station_id":"ce4bgv12rcd13ifvqcp0","pricing_plan_id":"cebpf4jnsgd1na2vs0mg"},{"bike_id":"dd178107-2164-4219-8e91-d1034c3fd853","system_id":"levelo_inurba_marseille","lat":43.311722,"lon":5.387247,"is_reserved":false,"is_disabled":false,"rental_uris":{"android":"levelo://app?vid=dd178107-2164-4219-8e91-d1034c3fd853","ios":"levelo://app?vid=dd178107-2164-4219-8e91-d1034c3fd853"},"vehicle_type_id":"4","last_reported":1715983653,"current_range_meters":5600,"station_id":"ce4bgv12rcd13ifvqcp0","pricing_plan_id":"cebpf4jnsgd1na2vs0mg"},{"bike_id":"9e7c228c-e7be-433d-bc45-365e053c0515","system_id":"levelo_inurba_marseille","lat":43.311722,"lon":5.387247,"is_reserved":false,"is_disabled":false,"rental_uris":{"android":"levelo://app?vid=9e7c228c-e7be-433d-bc45-365e053c0515","ios":"levelo://app?vid=9e7c228c-e7be-433d-bc45-365e053c0515"},"vehicle_type_id":"4","last_reported":1715983653,"current_range_meters":14400,"station_id":"ce4bgv12rcd13ifvqcp0","pricing_plan_id":"cebpf4jnsgd1na2vs0mg"},{"bike_id":"95ee7603-2479-4680-b00a-d8b6e7960ffc","system_id":"levelo_inurba_marseille","lat":43.311722,"lon":5.387247,"is_reserved":false,"is_disabled":false,"rental_uris":{"android":"levelo://app?vid=95ee7603-2479-4680-b00a-d8b6e7960ffc","ios":"levelo://app?vid=95ee7603-2479-4680-b00a-d8b6e7960ffc"},"vehicle_type_id":"4","last_reported":1715983653,"current_range_meters":11600,"station_id":"ce4bgv12rcd13ifvqcp0","pricing_plan_id":"cebpf4jnsgd1na2vs0mg"},{"bike_id":"cd1572f2-8b42-48d3-8587-ae8de48853de","system_id":"levelo_inurba_marseille","lat":43.311722,"lon":5.387247,"is_reserved":false,"is_disabled":false,"rental_uris":{"android":"levelo://app?vid=cd1572f2-8b42-48d3-8587-ae8de48853de","ios":"levelo://app?vid=cd1572f2-8b42-48d3-8587-ae8de48853de"},"vehicle_type_id":"4","last_reported":1715983653,"current_range_meters":26000,"station_id":"ce4bgv12rcd13ifvqcp0","pricing_plan_id":"cebpf4jnsgd1na2vs0mg"},{"bike_id":"53a90bc9-3e8f-4fa3-a8e4-e404b8cc8d78","system_id":"levelo_inurba_marseille","lat":43.311722,"lon":5.387247,"is_reserved":false,"is_disabled":false,"rental_uris":{"android":"levelo://app?vid=53a90bc9-3e8f-4fa3-a8e4-e404b8cc8d78","ios":"levelo://app?vid=53a90bc9-3e8f-4fa3-a8e4-e404b8cc8d78"},"vehicle_type_id":"4","last_reported":1715983653,"current_range_meters":21600,"station_id":"ce4bgv12rcd13ifvqcp0","pricing_plan_id":"cebpf4jnsgd1na2vs0mg"},{"bike_id":"d72d23e9-fdd3-44b2-97ad-33b48c0e53be","system_id":"levelo_inurba_marseille","lat":43.297163,"lon":5.365866,"is_reserved":false,"is_disabled":false,"rental_uris":{"android":"levelo://app?vid=d72d23e9-fdd3-44b2-97ad-33b48c0e53be","ios":"levelo://app?vid=d72d23e9-fdd3-44b2-97ad-33b48c0e53be"},"vehicle_type_id":"4","last_reported":1715983653,"current_range_meters":16800,"station_id":"ce4bgn12rcd13ifvqbt0","pricing_plan_id":"cebpf4jnsgd1na2vs0mg"},{"bike_id":"f5f4cfd6-c823-4174-8f91-0c7953bf8779","system_id":"levelo_inurba_marseille","lat":43.297163,"lon":5.365866,"is_reserved":false,"is_disabled":false,"rental_uris":{"android":"levelo://app?vid=f5f4cfd6-c823-4174-8f91-0c7953bf8779","ios":"levelo://app?vid=f5f4cfd6-c823-4174-8f91-0c7953bf8779"},"vehicle_type_id":"4","last_reported":1715983653,"current_range_meters":4800,"station_id":"ce4bgn12rcd13ifvqbt0","pricing_plan_id":"cebpf4jnsgd1na2vs0mg"},{"bike_id":"67432d9b-41bb-438b-b288-995e538dabc8","system_id":"levelo_inurba_marseille","lat":43.29714,"lon":5.36602,"is_reserved":false,"is_disabled":false,"rental_uris":{"android":"levelo://app?vid=67432d9b-41bb-438b-b288-995e538dabc8","ios":"levelo://app?vid=67432d9b-41bb-438b-b288-995e538dabc8"},"vehicle_type_id":"4","last_reported":1715983653,"current_range_meters":30800,"station_id":"ce4bgn12rcd13ifvqbt0","pricing_plan_id":"cebpf4jnsgd1na2vs0mg"},{"bike_id":"8bd9d45e-1477-4a4d-bf11-f114020c1534","system_id":"levelo_inurba_marseille","lat":43.297163,"lon":5.365866,"is_reserved":false,"is_disabled":false,"rental_uris":{"android":"levelo://app?vid=8bd9d45e-1477-4a4d-bf11-f114020c1534","ios":"levelo://app?vid=8bd9d45e-1477-4a4d-bf11-f114020c1534"},"vehicle_type_id":"4","last_reported":1715983653,"current_range_meters":12400,"station_id":"ce4bgn12rcd13ifvqbt0","pricing_plan_id":"cebpf4jnsgd1na2vs0mg"},{"bike_id":"baf1507a-400b-444b-a120-cd8ed3553f6d","system_id":"levelo_inurba_marseille","lat":43.297163,"lon":5.365866,"is_reserved":false,"is_disabled":false,"rental_uris":{"android":"levelo://app?vid=baf1507a-400b-444b-a120-cd8ed3553f6d","ios":"levelo://app?vid=baf1507a-400b-444b-a120-cd8ed3553f6d"},"vehicle_type_id":"4","last_reported":1715983653,"current_range_meters":23600,"station_id":"ce4bgn12rcd13ifvqbt0","pricing_plan_id":"cebpf4jnsgd1na2vs0mg"},{"bike_id":"e8b74b53-1f66-4822-bc9f-59e0cd63ffdc","system_id":"levelo_inurba_marseille","lat":43.297086,"lon":5.369007,"is_reserved":false,"is_disabled":false,"rental_uris":{"android":"levelo://app?vid=e8b74b53-1f66-4822-bc9f-59e0cd63ffdc","ios":"levelo://app?vid=e8b74b53-1f66-4822-bc9f-59e0cd63ffdc"},"vehicle_type_id":"4","last_reported":1715983653,"current_range_meters":4400,"station_id":"","pricing_plan_id":"cebpf4jnsgd1na2vs0mg"},{"bike_id":"99692ed1-219a-4680-8202-10dd84b80b43","system_id":"levelo_inurba_marseille","lat":43.2991,"lon":5.381355,"is_reserved":false,"is_disabled":false,"rental_uris":{"android":"levelo://app?vid=99692ed1-219a-4680-8202-10dd84b80b43","ios":"levelo://app?vid=99692ed1-219a-4680-8202-10dd84b80b43"},"vehicle_type_id":"4","last_reported":1715983653,"current_range_meters":27600,"station_id":"ce4bgj12rcd13ifvqbc0","pricing_plan_id":"cebpf4jnsgd1na2vs0mg"},{"bike_id":"1cccac5c-88f9-4802-9c79-7204f62a8af9","system_id":"levelo_inurba_marseille","lat":43.309488,"lon":5.390168,"is_reserved":false,"is_disabled":false,"rental_uris":{"android":"levelo://app?vid=1cccac5c-88f9-4802-9c79-7204f62a8af9","ios":"levelo://app?vid=1cccac5c-88f9-4802-9c79-7204f62a8af9"},"vehicle_type_id":"4","last_reported":1715983653,"current_range_meters":8400,"station_id":"ce4bgup2rcd13ifvqco0","pricing_plan_id":"cebpf4jnsgd1na2vs0mg"},{"bike_id":"bfae441f-2613-438a-8b4c-4ddcb1a4f19a","system_id":"levelo_inurba_marseille","lat":43.299025,"lon":5.381376,"is_reserved":false,"is_disabled":false,"rental_uris":{"android":"levelo://app?vid=bfae441f-2613-438a-8b4c-4ddcb1a4f19a","ios":"levelo://app?vid=bfae441f-2613-438a-8b4c-4ddcb1a4f19a"},"vehicle_type_id":"4","last_reported":1715983653,"current_range_meters":29200,"station_id":"ce4bgj12rcd13ifvqbc0","pricing_plan_id":"cebpf4jnsgd1na2vs0mg"},{"bike_id":"585fd619-1182-4ab5-b73e-975a70927316","system_id":"levelo_inurba_marseille","lat":43.309589,"lon":5.390258,"is_reserved":false,"is_disabled":false,"rental_uris":{"android":"levelo://app?vid=585fd619-1182-4ab5-b73e-975a70927316","ios":"levelo://app?vid=585fd619-1182-4ab5-b73e-975a70927316"},"vehicle_type_id":"4","last_reported":1715983653,"current_range_meters":0,"station_id":"ce4bgup2rcd13ifvqco0","pricing_plan_id":"cebpf4jnsgd1na2vs0mg"},{"bike_id":"6beb5895-437c-476d-926b-0b16d9379e1b","system_id":"levelo_inurba_marseille","lat":43.299032,"lon":5.381411,"is_reserved":false,"is_disabled":false,"rental_uris":{"android":"levelo://app?vid=6beb5895-437c-476d-926b-0b16d9379e1b","ios":"levelo://app?vid=6beb5895-437c-476d-926b-0b16d9379e1b"},"vehicle_type_id":"4","last_reported":1715983653,"current_range_meters":31200,"station_id":"ce4bgj12rcd13ifvqbc0","pricing_plan_id":"cebpf4jnsgd1na2vs0mg"},{"bike_id":"8a2c617e-d46b-4515-9a31-c52167115705","system_id":"levelo_inurba_marseille","lat":43.30951,"lon":5.39029,"is_reserved":false,"is_disabled":false,"rental_uris":{"android":"levelo://app?vid=8a2c617e-d46b-4515-9a31-c52167115705","ios":"levelo://app?vid=8a2c617e-d46b-4515-9a31-c52167115705"},"vehicle_type_id":"4","last_reported":1715983653,"current_range_meters":800,"station_id":"ce4bgup2rcd13ifvqco0","pricing_plan_id":"cebpf4jnsgd1na2vs0mg"},{"bike_id":"e304f165-4df8-4586-a8ef-8657c77b278e","system_id":"levelo_inurba_marseille","lat":43.309589,"lon":5.390258,"is_reserved":false,"is_disabled":false,"rental_uris":{"android":"levelo://app?vid=e304f165-4df8-4586-a8ef-8657c77b278e","ios":"levelo://app?vid=e304f165-4df8-4586-a8ef-8657c77b278e"},"vehicle_type_id":"4","last_reported":1715983653,"current_range_meters":28400,"station_id":"ce4bgup2rcd13ifvqco0","pricing_plan_id":"cebpf4jnsgd1na2vs0mg"},{"bike_id":"7df8d221-330a-471f-b791-41cf427cd3ad","system_id":"levelo_inurba_marseille","lat":43.309589,"lon":5.390258,"is_reserved":false,"is_disabled":false,"rental_uris":{"android":"levelo://app?vid=7df8d221-330a-471f-b791-41cf427cd3ad","ios":"levelo://app?vid=7df8d221-330a-471f-b791-41cf427cd3ad"},"vehicle_type_id":"4","last_reported":1715983653,"current_range_meters":14000,"station_id":"ce4bgup2rcd13ifvqco0","pricing_plan_id":"cebpf4jnsgd1na2vs0mg"},{"bike_id":"e29ce095-3f03-4b6a-844d-d60880ab8a6b","system_id":"levelo_inurba_marseille","lat":43.309611,"lon":5.39033,"is_reserved":false,"is_disabled":false,"rental_uris":{"android":"levelo://app?vid=e29ce095-3f03-4b6a-844d-d60880ab8a6b","ios":"levelo://app?vid=e29ce095-3f03-4b6a-844d-d60880ab8a6b"},"vehicle_type_id":"4","last_reported":1715983653,"current_range_meters":21600,"station_id":"ce4bgup2rcd13ifvqco0","pricing_plan_id":"cebpf4jnsgd1na2vs0mg"},{"bike_id":"22833f30-fdb4-44cb-a00b-b5ac241753be","system_id":"levelo_inurba_marseille","lat":43.29907,"lon":5.38153,"is_reserved":false,"is_disabled":false,"rental_uris":{"android":"levelo://app?vid=22833f30-fdb4-44cb-a00b-b5ac241753be","ios":"levelo://app?vid=22833f30-fdb4-44cb-a00b-b5ac241753be"},"vehicle_type_id":"4","last_reported":1715983653,"current_range_meters":0,"station_id":"ce4bgj12rcd13ifvqbc0","pricing_plan_id":"cebpf4jnsgd1na2vs0mg"},{"bike_id":"004a52e8-9365-4f8c-b625-c3b97836f8d8","system_id":"levelo_inurba_marseille","lat":43.309589,"lon":5.390258,"is_reserved":false,"is_disabled":false,"rental_uris":{"android":"levelo://app?vid=004a52e8-9365-4f8c-b625-c3b97836f8d8","ios":"levelo://app?vid=004a52e8-9365-4f8c-b625-c3b97836f8d8"},"vehicle_type_id":"4","last_reported":1715983653,"current_range_meters":0,"station_id":"ce4bgup2rcd13ifvqco0","pricing_plan_id":"cebpf4jnsgd1na2vs0mg"},{"bike_id":"de64e38c-f555-4bb1-9a52-2286b26cbc8e","system_id":"levelo_inurba_marseille","lat":43.29899,"lon":5.3814,"is_reserved":false,"is_disabled":false,"rental_uris":{"android":"levelo://app?vid=de64e38c-f555-4bb1-9a52-2286b26cbc8e","ios":"levelo://app?vid=de64e38c-f555-4bb1-9a52-2286b26cbc8e"},"vehicle_type_id":"4","last_reported":1715983653,"current_range_meters":18800,"station_id":"ce4bgj12rcd13ifvqbc0","pricing_plan_id":"cebpf4jnsgd1na2vs0mg"},{"bike_id":"fe4d2e18-cfca-44bb-8d63-e426da664ebc","system_id":"levelo_inurba_marseille","lat":43.309534,"lon":5.390319,"is_reserved":false,"is_disabled":false,"rental_uris":{"android":"levelo://app?vid=fe4d2e18-cfca-44bb-8d63-e426da664ebc","ios":"levelo://app?vid=fe4d2e18-cfca-44bb-8d63-e426da664ebc"},"vehicle_type_id":"4","last_reported":1715983653,"current_range_meters":31200,"station_id":"ce4bgup2rcd13ifvqco0","pricing_plan_id":"cebpf4jnsgd1na2vs0mg"},{"bike_id":"a02ee0cb-bf6e-480f-b299-aa24dd4cf63d","system_id":"levelo_inurba_marseille","lat":43.30951,"lon":5.39032,"is_reserved":false,"is_disabled":false,"rental_uris":{"android":"levelo://app?vid=a02ee0cb-bf6e-480f-b299-aa24dd4cf63d","ios":"levelo://app?vid=a02ee0cb-bf6e-480f-b299-aa24dd4cf63d"},"vehicle_type_id":"4","last_reported":1715983653,"current_range_meters":0,"station_id":"ce4bgup2rcd13ifvqco0","pricing_plan_id":"cebpf4jnsgd1na2vs0mg"},{"bike_id":"deda7f2e-44be-4c33-99ee-d606f8e7f1fc","system_id":"levelo_inurba_marseille","lat":43.299028,"lon":5.381509,"is_reserved":false,"is_disabled":false,"rental_uris":{"android":"levelo://app?vid=deda7f2e-44be-4c33-99ee-d606f8e7f1fc","ios":"levelo://app?vid=deda7f2e-44be-4c33-99ee-d606f8e7f1fc"},"vehicle_type_id":"4","last_reported":1715983653,"current_range_meters":2000,"station_id":"ce4bgj12rcd13ifvqbc0","pricing_plan_id":"cebpf4jnsgd1na2vs0mg"},{"bike_id":"9645c2b5-ac6d-4d2c-a8b8-7838dd00ed9c","system_id":"levelo_inurba_marseille","lat":43.296935,"lon":5.376544,"is_reserved":false,"is_disabled":false,"rental_uris":{"android":"levelo://app?vid=9645c2b5-ac6d-4d2c-a8b8-7838dd00ed9c","ios":"levelo://app?vid=9645c2b5-ac6d-4d2c-a8b8-7838dd00ed9c"},"vehicle_type_id":"4","last_reported":1715983653,"current_range_meters":4000,"station_id":"ce4bgkh2rcd13ifvqbl0","pricing_plan_id":"cebpf4jnsgd1na2vs0mg"},{"bike_id":"ab162396-b813-4bbf-893f-f67f473514b0","system_id":"levelo_inurba_marseille","lat":43.309589,"lon":5.390258,"is_reserved":false,"is_disabled":false,"rental_uris":{"android":"levelo://app?vid=ab162396-b813-4bbf-893f-f67f473514b0","ios":"levelo://app?vid=ab162396-b813-4bbf-893f-f67f473514b0"},"vehicle_type_id":"4","last_reported":1715983653,"current_range_meters":15600,"station_id":"ce4bgup2rcd13ifvqco0","pricing_plan_id":"cebpf4jnsgd1na2vs0mg"},{"bike_id":"e7ae8d07-f82e-4429-952c-2b793a4ca4d0","system_id":"levelo_inurba_marseille","lat":43.29904,"lon":5.38153,"is_reserved":false,"is_disabled":false,"rental_uris":{"android":"levelo://app?vid=e7ae8d07-f82e-4429-952c-2b793a4ca4d0","ios":"levelo://app?vid=e7ae8d07-f82e-4429-952c-2b793a4ca4d0"},"vehicle_type_id":"4","last_reported":1715983653,"current_range_meters":14000,"station_id":"ce4bgj12rcd13ifvqbc0","pricing_plan_id":"cebpf4jnsgd1na2vs0mg"},{"bike_id":"db2781b9-cd03-436a-9589-0a0763679e58","system_id":"levelo_inurba_marseille","lat":43.309577,"lon":5.390357,"is_reserved":false,"is_disabled":false,"rental_uris":{"android":"levelo://app?vid=db2781b9-cd03-436a-9589-0a0763679e58","ios":"levelo://app?vid=db2781b9-cd03-436a-9589-0a0763679e58"},"vehicle_type_id":"4","last_reported":1715983653,"current_range_meters":4000,"station_id":"ce4bgup2rcd13ifvqco0","pricing_plan_id":"cebpf4jnsgd1na2vs0mg"},{"bike_id":"a2cf89ff-25aa-4fee-8fc9-56edb9e0a061","system_id":"levelo_inurba_marseille","lat":43.3095,"lon":5.39035,"is_reserved":false,"is_disabled":false,"rental_uris":{"android":"levelo://app?vid=a2cf89ff-25aa-4fee-8fc9-56edb9e0a061","ios":"levelo://app?vid=a2cf89ff-25aa-4fee-8fc9-56edb9e0a061"},"vehicle_type_id":"4","last_reported":1715983653,"current_range_meters":1200,"station_id":"ce4bgup2rcd13ifvqco0","pricing_plan_id":"cebpf4jnsgd1na2vs0mg"},{"bike_id":"45cd0528-9e82-4a12-b525-28c9397e2160","system_id":"levelo_inurba_marseille","lat":43.309589,"lon":5.390258,"is_reserved":false,"is_disabled":false,"rental_uris":{"android":"levelo://app?vid=45cd0528-9e82-4a12-b525-28c9397e2160","ios":"levelo://app?vid=45cd0528-9e82-4a12-b525-28c9397e2160"},"vehicle_type_id":"4","last_reported":1715983653,"current_range_meters":18400,"station_id":"ce4bgup2rcd13ifvqco0","pricing_plan_id":"cebpf4jnsgd1na2vs0mg"},{"bike_id":"8f5e919a-470c-4835-a52d-269590b719d7","system_id":"levelo_inurba_marseille","lat":43.309565,"lon":5.390368,"is_reserved":false,"is_disabled":false,"rental_uris":{"android":"levelo://app?vid=8f5e919a-470c-4835-a52d-269590b719d7","ios":"levelo://app?vid=8f5e919a-470c-4835-a52d-269590b719d7"},"vehicle_type_id":"4","last_reported":1715983653,"current_range_meters":16400,"station_id":"ce4bgup2rcd13ifvqco0","pricing_plan_id":"cebpf4jnsgd1na2vs0mg"},{"bike_id":"78abd96a-6772-4616-a8ca-e36875b6c03a","system_id":"levelo_inurba_marseille","lat":43.309589,"lon":5.390258,"is_reserved":false,"is_disabled":false,"rental_uris":{"android":"levelo://app?vid=78abd96a-6772-4616-a8ca-e36875b6c03a","ios":"levelo://app?vid=78abd96a-6772-4616-a8ca-e36875b6c03a"},"vehicle_type_id":"4","last_reported":1715983653,"current_range_meters":24800,"station_id":"ce4bgup2rcd13ifvqco0","pricing_plan_id":"cebpf4jnsgd1na2vs0mg"},{"bike_id":"fc238e07-b9d8-4366-837e-788ed46bcf56","system_id":"levelo_inurba_marseille","lat":43.309522,"lon":5.39036,"is_reserved":false,"is_disabled":false,"rental_uris":{"android":"levelo://app?vid=fc238e07-b9d8-4366-837e-788ed46bcf56","ios":"levelo://app?vid=fc238e07-b9d8-4366-837e-788ed46bcf56"},"vehicle_type_id":"4","last_reported":1715983653,"current_range_meters":28000,"station_id":"ce4bgup2rcd13ifvqco0","pricing_plan_id":"cebpf4jnsgd1na2vs0mg"},{"bike_id":"77f72742-4ca4-42a6-ab56-92b36066e957","system_id":"levelo_inurba_marseille","lat":43.309554,"lon":5.390373,"is_reserved":false,"is_disabled":false,"rental_uris":{"android":"levelo://app?vid=77f72742-4ca4-42a6-ab56-92b36066e957","ios":"levelo://app?vid=77f72742-4ca4-42a6-ab56-92b36066e957"},"vehicle_type_id":"4","last_reported":1715983653,"current_range_meters":0,"station_id":"ce4bgup2rcd13ifvqco0","pricing_plan_id":"cebpf4jnsgd1na2vs0mg"},{"bike_id":"d4603411-4579-4210-b660-f1eb009512c8","system_id":"levelo_inurba_marseille","lat":43.309627,"lon":5.390399,"is_reserved":false,"is_disabled":false,"rental_uris":{"android":"levelo://app?vid=d4603411-4579-4210-b660-f1eb009512c8","ios":"levelo://app?vid=d4603411-4579-4210-b660-f1eb009512c8"},"vehicle_type_id":"4","last_reported":1715983653,"current_range_meters":30800,"station_id":"ce4bgup2rcd13ifvqco0","pricing_plan_id":"cebpf4jnsgd1na2vs0mg"},{"bike_id":"888724ba-44a3-4f3a-8240-f6152cf014d8","system_id":"levelo_inurba_marseille","lat":43.309611,"lon":5.390419,"is_reserved":false,"is_disabled":false,"rental_uris":{"android":"levelo://app?vid=888724ba-44a3-4f3a-8240-f6152cf014d8","ios":"levelo://app?vid=888724ba-44a3-4f3a-8240-f6152cf014d8"},"vehicle_type_id":"4","last_reported":1715983653,"current_range_meters":6800,"station_id":"ce4bgup2rcd13ifvqco0","pricing_plan_id":"cebpf4jnsgd1na2vs0mg"},{"bike_id":"bdc95fef-8728-4703-83e0-5b59e3af01f5","system_id":"levelo_inurba_marseille","lat":43.309589,"lon":5.390258,"is_reserved":false,"is_disabled":false,"rental_uris":{"android":"levelo://app?vid=bdc95fef-8728-4703-83e0-5b59e3af01f5","ios":"levelo://app?vid=bdc95fef-8728-4703-83e0-5b59e3af01f5"},"vehicle_type_id":"4","last_reported":1715983653,"current_range_meters":15200,"station_id":"ce4bgup2rcd13ifvqco0","pricing_plan_id":"cebpf4jnsgd1na2vs0mg"},{"bike_id":"cae80257-98a5-4e4a-89b6-cf85ddd29a93","system_id":"levelo_inurba_marseille","lat":43.309589,"lon":5.390258,"is_reserved":false,"is_disabled":false,"rental_uris":{"android":"levelo://app?vid=cae80257-98a5-4e4a-89b6-cf85ddd29a93","ios":"levelo://app?vid=cae80257-98a5-4e4a-89b6-cf85ddd29a93"},"vehicle_type_id":"4","last_reported":1715983653,"current_range_meters":1600,"station_id":"ce4bgup2rcd13ifvqco0","pricing_plan_id":"cebpf4jnsgd1na2vs0mg"},{"bike_id":"1530b218-5207-40bc-9ec7-87f2d407499b","system_id":"levelo_inurba_marseille","lat":43.299028,"lon":5.381509,"is_reserved":false,"is_disabled":false,"rental_uris":{"android":"levelo://app?vid=1530b218-5207-40bc-9ec7-87f2d407499b","ios":"levelo://app?vid=1530b218-5207-40bc-9ec7-87f2d407499b"},"vehicle_type_id":"4","last_reported":1715983653,"current_range_meters":20000,"station_id":"ce4bgj12rcd13ifvqbc0","pricing_plan_id":"cebpf4jnsgd1na2vs0mg"},{"bike_id":"374be493-526d-4c1d-a296-c624260093ea","system_id":"levelo_inurba_marseille","lat":43.30955,"lon":5.39041,"is_reserved":false,"is_disabled":false,"rental_uris":{"android":"levelo://app?vid=374be493-526d-4c1d-a296-c624260093ea","ios":"levelo://app?vid=374be493-526d-4c1d-a296-c624260093ea"},"vehicle_type_id":"4","last_reported":1715983653,"current_range_meters":0,"station_id":"ce4bgup2rcd13ifvqco0","pricing_plan_id":"cebpf4jnsgd1na2vs0mg"},{"bike_id":"cf4e173d-3349-4b0d-b3ee-83c931c737d2","system_id":"levelo_inurba_marseille","lat":43.309553,"lon":5.390417,"is_reserved":false,"is_disabled":false,"rental_uris":{"android":"levelo://app?vid=cf4e173d-3349-4b0d-b3ee-83c931c737d2","ios":"levelo://app?vid=cf4e173d-3349-4b0d-b3ee-83c931c737d2"},"vehicle_type_id":"4","last_reported":1715983653,"current_range_meters":22400,"station_id":"ce4bgup2rcd13ifvqco0","pricing_plan_id":"cebpf4jnsgd1na2vs0mg"},{"bike_id":"c494c3b8-8478-462d-9ed7-d8d78c228a46","system_id":"levelo_inurba_marseille","lat":43.309589,"lon":5.390258,"is_reserved":false,"is_disabled":false,"rental_uris":{"android":"levelo://app?vid=c494c3b8-8478-462d-9ed7-d8d78c228a46","ios":"levelo://app?vid=c494c3b8-8478-462d-9ed7-d8d78c228a46"},"vehicle_type_id":"4","last_reported":1715983653,"current_range_meters":12000,"station_id":"ce4bgup2rcd13ifvqco0","pricing_plan_id":"cebpf4jnsgd1na2vs0mg"},{"bike_id":"274b21bc-fa61-4bc8-9757-a79ea84a14df","system_id":"levelo_inurba_marseille","lat":43.30958,"lon":5.39044,"is_reserved":false,"is_disabled":false,"rental_uris":{"android":"levelo://app?vid=274b21bc-fa61-4bc8-9757-a79ea84a14df","ios":"levelo://app?vid=274b21bc-fa61-4bc8-9757-a79ea84a14df"},"vehicle_type_id":"4","last_reported":1715983653,"current_range_meters":0,"station_id":"ce4bgup2rcd13ifvqco0","pricing_plan_id":"cebpf4jnsgd1na2vs0mg"},{"bike_id":"1424a9c1-688d-47e8-854d-83c57dcfcdb2","system_id":"levelo_inurba_marseille","lat":43.309589,"lon":5.390258,"is_reserved":false,"is_disabled":false,"rental_uris":{"android":"levelo://app?vid=1424a9c1-688d-47e8-854d-83c57dcfcdb2","ios":"levelo://app?vid=1424a9c1-688d-47e8-854d-83c57dcfcdb2"},"vehicle_type_id":"4","last_reported":1715983653,"current_range_meters":24800,"station_id":"ce4bgup2rcd13ifvqco0","pricing_plan_id":"cebpf4jnsgd1na2vs0mg"},{"bike_id":"8e930d01-762c-40b7-a48f-7dcb0fa356c7","system_id":"levelo_inurba_marseille","lat":43.309589,"lon":5.390258,"is_reserved":false,"is_disabled":false,"rental_uris":{"android":"levelo://app?vid=8e930d01-762c-40b7-a48f-7dcb0fa356c7","ios":"levelo://app?vid=8e930d01-762c-40b7-a48f-7dcb0fa356c7"},"vehicle_type_id":"4","last_reported":1715983653,"current_range_meters":20800,"station_id":"ce4bgup2rcd13ifvqco0","pricing_plan_id":"cebpf4jnsgd1na2vs0mg"},{"bike_id":"73133b33-343d-423e-8b13-9c95ef36bde4","system_id":"levelo_inurba_marseille","lat":43.309592,"lon":5.39048,"is_reserved":false,"is_disabled":false,"rental_uris":{"android":"levelo://app?vid=73133b33-343d-423e-8b13-9c95ef36bde4","ios":"levelo://app?vid=73133b33-343d-423e-8b13-9c95ef36bde4"},"vehicle_type_id":"4","last_reported":1715983653,"current_range_meters":9200,"station_id":"ce4bgup2rcd13ifvqco0","pricing_plan_id":"cebpf4jnsgd1na2vs0mg"},{"bike_id":"2d899684-77f8-4fb7-8297-1abfccd107bb","system_id":"levelo_inurba_marseille","lat":43.31756,"lon":5.39011,"is_reserved":false,"is_disabled":false,"rental_uris":{"android":"levelo://app?vid=2d899684-77f8-4fb7-8297-1abfccd107bb","ios":"levelo://app?vid=2d899684-77f8-4fb7-8297-1abfccd107bb"},"vehicle_type_id":"4","last_reported":1715983653,"current_range_meters":0,"station_id":"ce4bhqp2rcd13ifvqhng","pricing_plan_id":"cebpf4jnsgd1na2vs0mg"},{"bike_id":"e9873e49-af75-44e2-bd0b-465259ed6161","system_id":"levelo_inurba_marseille","lat":43.317557,"lon":5.390173,"is_reserved":false,"is_disabled":false,"rental_uris":{"android":"levelo://app?vid=e9873e49-af75-44e2-bd0b-465259ed6161","ios":"levelo://app?vid=e9873e49-af75-44e2-bd0b-465259ed6161"},"vehicle_type_id":"4","last_reported":1715983653,"current_range_meters":23200,"station_id":"ce4bhqp2rcd13ifvqhng","pricing_plan_id":"cebpf4jnsgd1na2vs0mg"},{"bike_id":"9cabd77f-858c-4b5b-b392-66fa4e1cb38c","system_id":"levelo_inurba_marseille","lat":43.317557,"lon":5.390173,"is_reserved":false,"is_disabled":false,"rental_uris":{"android":"levelo://app?vid=9cabd77f-858c-4b5b-b392-66fa4e1cb38c","ios":"levelo://app?vid=9cabd77f-858c-4b5b-b392-66fa4e1cb38c"},"vehicle_type_id":"4","last_reported":1715983653,"current_range_meters":5600,"station_id":"ce4bhqp2rcd13ifvqhng","pricing_plan_id":"cebpf4jnsgd1na2vs0mg"},{"bike_id":"c2f48bbf-6abe-4c2b-8c71-d35831fa3de7","system_id":"levelo_inurba_marseille","lat":43.317557,"lon":5.390173,"is_reserved":false,"is_disabled":false,"rental_uris":{"android":"levelo://app?vid=c2f48bbf-6abe-4c2b-8c71-d35831fa3de7","ios":"levelo://app?vid=c2f48bbf-6abe-4c2b-8c71-d35831fa3de7"},"vehicle_type_id":"4","last_reported":1715983653,"current_range_meters":30000,"station_id":"ce4bhqp2rcd13ifvqhng","pricing_plan_id":"cebpf4jnsgd1na2vs0mg"},{"bike_id":"6ca922a5-bb8e-4411-a515-5cc145124695","system_id":"levelo_inurba_marseille","lat":43.317557,"lon":5.390173,"is_reserved":false,"is_disabled":false,"rental_uris":{"android":"levelo://app?vid=6ca922a5-bb8e-4411-a515-5cc145124695","ios":"levelo://app?vid=6ca922a5-bb8e-4411-a515-5cc145124695"},"vehicle_type_id":"4","last_reported":1715983653,"current_range_meters":24800,"station_id":"ce4bhqp2rcd13ifvqhng","pricing_plan_id":"cebpf4jnsgd1na2vs0mg"},{"bike_id":"7e87f7a8-044f-45f4-b232-efd2a391017e","system_id":"levelo_inurba_marseille","lat":43.31761,"lon":5.39017,"is_reserved":false,"is_disabled":false,"rental_uris":{"android":"levelo://app?vid=7e87f7a8-044f-45f4-b232-efd2a391017e","ios":"levelo://app?vid=7e87f7a8-044f-45f4-b232-efd2a391017e"},"vehicle_type_id":"4","last_reported":1715983653,"current_range_meters":13200,"station_id":"ce4bhqp2rcd13ifvqhng","pricing_plan_id":"cebpf4jnsgd1na2vs0mg"},{"bike_id":"b8739a74-da9a-47de-8519-8a102081adda","system_id":"levelo_inurba_marseille","lat":43.29656,"lon":5.3766,"is_reserved":false,"is_disabled":false,"rental_uris":{"android":"levelo://app?vid=b8739a74-da9a-47de-8519-8a102081adda","ios":"levelo://app?vid=b8739a74-da9a-47de-8519-8a102081adda"},"vehicle_type_id":"4","last_reported":1715983653,"current_range_meters":19600,"station_id":"ce4bgi92rcd13ifvqb90","pricing_plan_id":"cebpf4jnsgd1na2vs0mg"},{"bike_id":"c7195265-c4f8-4e94-b23f-4e0330e84031","system_id":"levelo_inurba_marseille","lat":43.29811,"lon":5.38098,"is_reserved":false,"is_disabled":false,"rental_uris":{"android":"levelo://app?vid=c7195265-c4f8-4e94-b23f-4e0330e84031","ios":"levelo://app?vid=c7195265-c4f8-4e94-b23f-4e0330e84031"},"vehicle_type_id":"4","last_reported":1715983653,"current_range_meters":21600,"station_id":"ce4bgip2rcd13ifvqbb0","pricing_plan_id":"cebpf4jnsgd1na2vs0mg"},{"bike_id":"83e3738c-6c81-4826-982a-800af63f4af9","system_id":"levelo_inurba_marseille","lat":43.298037,"lon":5.381066,"is_reserved":false,"is_disabled":false,"rental_uris":{"android":"levelo://app?vid=83e3738c-6c81-4826-982a-800af63f4af9","ios":"levelo://app?vid=83e3738c-6c81-4826-982a-800af63f4af9"},"vehicle_type_id":"4","last_reported":1715983653,"current_range_meters":30400,"station_id":"ce4bgip2rcd13ifvqbb0","pricing_plan_id":"cebpf4jnsgd1na2vs0mg"},{"bike_id":"6a435423-fe15-46a9-9ae5-93b5a1f0f1ec","system_id":"levelo_inurba_marseille","lat":43.29806,"lon":5.38102,"is_reserved":false,"is_disabled":false,"rental_uris":{"android":"levelo://app?vid=6a435423-fe15-46a9-9ae5-93b5a1f0f1ec","ios":"levelo://app?vid=6a435423-fe15-46a9-9ae5-93b5a1f0f1ec"},"vehicle_type_id":"4","last_reported":1715983653,"current_range_meters":14800,"station_id":"ce4bgip2rcd13ifvqbb0","pricing_plan_id":"cebpf4jnsgd1na2vs0mg"},{"bike_id":"3b7e7f70-b026-4ef3-8573-b37090f53016","system_id":"levelo_inurba_marseille","lat":43.2981,"lon":5.3811,"is_reserved":false,"is_disabled":false,"rental_uris":{"android":"levelo://app?vid=3b7e7f70-b026-4ef3-8573-b37090f53016","ios":"levelo://app?vid=3b7e7f70-b026-4ef3-8573-b37090f53016"},"vehicle_type_id":"4","last_reported":1715983653,"current_range_meters":4000,"station_id":"ce4bgip2rcd13ifvqbb0","pricing_plan_id":"cebpf4jnsgd1na2vs0mg"},{"bike_id":"3485225d-b1a4-4881-b619-1d85196dfda8","system_id":"levelo_inurba_marseille","lat":43.298037,"lon":5.381066,"is_reserved":false,"is_disabled":false,"rental_uris":{"android":"levelo://app?vid=3485225d-b1a4-4881-b619-1d85196dfda8","ios":"levelo://app?vid=3485225d-b1a4-4881-b619-1d85196dfda8"},"vehicle_type_id":"4","last_reported":1715983653,"current_range_meters":26800,"station_id":"ce4bgip2rcd13ifvqbb0","pricing_plan_id":"cebpf4jnsgd1na2vs0mg"},{"bike_id":"0e9d6b08-a705-4a40-afe9-422524609c11","system_id":"levelo_inurba_marseille","lat":43.29798,"lon":5.38096,"is_reserved":false,"is_disabled":false,"rental_uris":{"android":"levelo://app?vid=0e9d6b08-a705-4a40-afe9-422524609c11","ios":"levelo://app?vid=0e9d6b08-a705-4a40-afe9-422524609c11"},"vehicle_type_id":"4","last_reported":1715983653,"current_range_meters":0,"station_id":"ce4bgip2rcd13ifvqbb0","pricing_plan_id":"cebpf4jnsgd1na2vs0mg"},{"bike_id":"7e2df935-9a2c-42ca-bfd9-5df571a8739a","system_id":"levelo_inurba_marseille","lat":43.29793,"lon":5.38088,"is_reserved":false,"is_disabled":false,"rental_uris":{"android":"levelo://app?vid=7e2df935-9a2c-42ca-bfd9-5df571a8739a","ios":"levelo://app?vid=7e2df935-9a2c-42ca-bfd9-5df571a8739a"},"vehicle_type_id":"4","last_reported":1715983653,"current_range_meters":30000,"station_id":"ce4bgip2rcd13ifvqbb0","pricing_plan_id":"cebpf4jnsgd1na2vs0mg"},{"bike_id":"b264bd54-33b3-4bad-82cf-a8ba265638fa","system_id":"levelo_inurba_marseille","lat":43.298037,"lon":5.381066,"is_reserved":false,"is_disabled":false,"rental_uris":{"android":"levelo://app?vid=b264bd54-33b3-4bad-82cf-a8ba265638fa","ios":"levelo://app?vid=b264bd54-33b3-4bad-82cf-a8ba265638fa"},"vehicle_type_id":"4","last_reported":1715983653,"current_range_meters":10800,"station_id":"ce4bgip2rcd13ifvqbb0","pricing_plan_id":"cebpf4jnsgd1na2vs0mg"},{"bike_id":"173bca2b-c5a7-4511-b122-15eb1a7c367d","system_id":"levelo_inurba_marseille","lat":43.298037,"lon":5.381066,"is_reserved":false,"is_disabled":false,"rental_uris":{"android":"levelo://app?vid=173bca2b-c5a7-4511-b122-15eb1a7c367d","ios":"levelo://app?vid=173bca2b-c5a7-4511-b122-15eb1a7c367d"},"vehicle_type_id":"4","last_reported":1715983653,"current_range_meters":3600,"station_id":"ce4bgip2rcd13ifvqbb0","pricing_plan_id":"cebpf4jnsgd1na2vs0mg"},{"bike_id":"59a230d4-d337-48be-90d7-5d6b19472c09","system_id":"levelo_inurba_marseille","lat":43.295748,"lon":5.37522,"is_reserved":false,"is_disabled":false,"rental_uris":{"android":"levelo://app?vid=59a230d4-d337-48be-90d7-5d6b19472c09","ios":"levelo://app?vid=59a230d4-d337-48be-90d7-5d6b19472c09"},"vehicle_type_id":"4","last_reported":1715983653,"current_range_meters":7200,"station_id":"ce4bgh92rcd13ifvqb50","pricing_plan_id":"cebpf4jnsgd1na2vs0mg"},{"bike_id":"fced7570-c2f5-4435-a6e4-e3588930b792","system_id":"levelo_inurba_marseille","lat":43.29794,"lon":5.381021,"is_reserved":false,"is_disabled":false,"rental_uris":{"android":"levelo://app?vid=fced7570-c2f5-4435-a6e4-e3588930b792","ios":"levelo://app?vid=fced7570-c2f5-4435-a6e4-e3588930b792"},"vehicle_type_id":"4","last_reported":1715983653,"current_range_meters":28000,"station_id":"ce4bgip2rcd13ifvqbb0","pricing_plan_id":"cebpf4jnsgd1na2vs0mg"},{"bike_id":"34142faf-85c9-4769-8c7a-9924aa6fcc40","system_id":"levelo_inurba_marseille","lat":43.29574,"lon":5.37522,"is_reserved":false,"is_disabled":false,"rental_uris":{"android":"levelo://app?vid=34142faf-85c9-4769-8c7a-9924aa6fcc40","ios":"levelo://app?vid=34142faf-85c9-4769-8c7a-9924aa6fcc40"},"vehicle_type_id":"4","last_reported":1715983653,"current_range_meters":16000,"station_id":"ce4bgh92rcd13ifvqb50","pricing_plan_id":"cebpf4jnsgd1na2vs0mg"},{"bike_id":"e323883b-eeaf-46f9-80bc-96b873b519ea","system_id":"levelo_inurba_marseille","lat":43.297912,"lon":5.381078,"is_reserved":false,"is_disabled":false,"rental_uris":{"android":"levelo://app?vid=e323883b-eeaf-46f9-80bc-96b873b519ea","ios":"levelo://app?vid=e323883b-eeaf-46f9-80bc-96b873b519ea"},"vehicle_type_id":"4","last_reported":1715983653,"current_range_meters":30400,"station_id":"ce4bgip2rcd13ifvqbb0","pricing_plan_id":"cebpf4jnsgd1na2vs0mg"},{"bike_id":"ac798ea1-4984-44b9-8d3c-1d8447c7c445","system_id":"levelo_inurba_marseille","lat":43.295748,"lon":5.37522,"is_reserved":false,"is_disabled":false,"rental_uris":{"android":"levelo://app?vid=ac798ea1-4984-44b9-8d3c-1d8447c7c445","ios":"levelo://app?vid=ac798ea1-4984-44b9-8d3c-1d8447c7c445"},"vehicle_type_id":"4","last_reported":1715983653,"current_range_meters":31200,"station_id":"ce4bgh92rcd13ifvqb50","pricing_plan_id":"cebpf4jnsgd1na2vs0mg"},{"bike_id":"bc240b99-ec42-46ae-8491-a2234c1c32ba","system_id":"levelo_inurba_marseille","lat":43.297916,"lon":5.381103,"is_reserved":false,"is_disabled":false,"rental_uris":{"android":"levelo://app?vid=bc240b99-ec42-46ae-8491-a2234c1c32ba","ios":"levelo://app?vid=bc240b99-ec42-46ae-8491-a2234c1c32ba"},"vehicle_type_id":"4","last_reported":1715983653,"current_range_meters":31200,"station_id":"ce4bgip2rcd13ifvqbb0","pricing_plan_id":"cebpf4jnsgd1na2vs0mg"},{"bike_id":"b9db28c6-a182-4adb-918a-141d93082050","system_id":"levelo_inurba_marseille","lat":43.304278,"lon":5.388868,"is_reserved":false,"is_disabled":false,"rental_uris":{"android":"levelo://app?vid=b9db28c6-a182-4adb-918a-141d93082050","ios":"levelo://app?vid=b9db28c6-a182-4adb-918a-141d93082050"},"vehicle_type_id":"4","last_reported":1715983653,"current_range_meters":17600,"station_id":"ce4bgk12rcd13ifvqbi0","pricing_plan_id":"cebpf4jnsgd1na2vs0mg"},{"bike_id":"3d352877-6046-481d-b693-0d8e49f518cd","system_id":"levelo_inurba_marseille","lat":43.304274,"lon":5.388873,"is_reserved":false,"is_disabled":false,"rental_uris":{"android":"levelo://app?vid=3d352877-6046-481d-b693-0d8e49f518cd","ios":"levelo://app?vid=3d352877-6046-481d-b693-0d8e49f518cd"},"vehicle_type_id":"4","last_reported":1715983653,"current_range_meters":28800,"station_id":"ce4bgk12rcd13ifvqbi0","pricing_plan_id":"cebpf4jnsgd1na2vs0mg"},{"bike_id":"0688b6b7-8523-421e-849e-c27668764305","system_id":"levelo_inurba_marseille","lat":43.297903,"lon":5.381117,"is_reserved":false,"is_disabled":false,"rental_uris":{"android":"levelo://app?vid=0688b6b7-8523-421e-849e-c27668764305","ios":"levelo://app?vid=0688b6b7-8523-421e-849e-c27668764305"},"vehicle_type_id":"4","last_reported":1715983653,"current_range_meters":28800,"station_id":"ce4bgip2rcd13ifvqbb0","pricing_plan_id":"cebpf4jnsgd1na2vs0mg"},{"bike_id":"c981813a-899f-4500-aa24-a06e086be3e1","system_id":"levelo_inurba_marseille","lat":43.304278,"lon":5.388868,"is_reserved":false,"is_disabled":false,"rental_uris":{"android":"levelo://app?vid=c981813a-899f-4500-aa24-a06e086be3e1","ios":"levelo://app?vid=c981813a-899f-4500-aa24-a06e086be3e1"},"vehicle_type_id":"4","last_reported":1715983653,"current_range_meters":2800,"station_id":"ce4bgk12rcd13ifvqbi0","pricing_plan_id":"cebpf4jnsgd1na2vs0mg"},{"bike_id":"85471616-a70e-4c65-a0b6-e9fc77effe11","system_id":"levelo_inurba_marseille","lat":43.304278,"lon":5.388868,"is_reserved":false,"is_disabled":false,"rental_uris":{"android":"levelo://app?vid=85471616-a70e-4c65-a0b6-e9fc77effe11","ios":"levelo://app?vid=85471616-a70e-4c65-a0b6-e9fc77effe11"},"vehicle_type_id":"4","last_reported":1715983653,"current_range_meters":27200,"station_id":"ce4bgk12rcd13ifvqbi0","pricing_plan_id":"cebpf4jnsgd1na2vs0mg"},{"bike_id":"c7201932-10fa-4bf3-82c1-ebdd6e3d783b","system_id":"levelo_inurba_marseille","lat":43.304278,"lon":5.388868,"is_reserved":false,"is_disabled":false,"rental_uris":{"android":"levelo://app?vid=c7201932-10fa-4bf3-82c1-ebdd6e3d783b","ios":"levelo://app?vid=c7201932-10fa-4bf3-82c1-ebdd6e3d783b"},"vehicle_type_id":"4","last_reported":1715983653,"current_range_meters":19600,"station_id":"ce4bgk12rcd13ifvqbi0","pricing_plan_id":"cebpf4jnsgd1na2vs0mg"},{"bike_id":"262a49fd-0839-4120-922d-00864ccb6cfb","system_id":"levelo_inurba_marseille","lat":43.304278,"lon":5.388868,"is_reserved":false,"is_disabled":false,"rental_uris":{"android":"levelo://app?vid=262a49fd-0839-4120-922d-00864ccb6cfb","ios":"levelo://app?vid=262a49fd-0839-4120-922d-00864ccb6cfb"},"vehicle_type_id":"4","last_reported":1715983653,"current_range_meters":14000,"station_id":"ce4bgk12rcd13ifvqbi0","pricing_plan_id":"cebpf4jnsgd1na2vs0mg"},{"bike_id":"1a0614e3-d22e-49d5-b81f-c2ffa4d2e47f","system_id":"levelo_inurba_marseille","lat":43.304274,"lon":5.388873,"is_reserved":false,"is_disabled":false,"rental_uris":{"android":"levelo://app?vid=1a0614e3-d22e-49d5-b81f-c2ffa4d2e47f","ios":"levelo://app?vid=1a0614e3-d22e-49d5-b81f-c2ffa4d2e47f"},"vehicle_type_id":"4","last_reported":1715983653,"current_range_meters":16400,"station_id":"ce4bgk12rcd13ifvqbi0","pricing_plan_id":"cebpf4jnsgd1na2vs0mg"},{"bike_id":"29963626-08a0-497c-81a2-c6157bc1d824","system_id":"levelo_inurba_marseille","lat":43.304278,"lon":5.388868,"is_reserved":false,"is_disabled":false,"rental_uris":{"android":"levelo://app?vid=29963626-08a0-497c-81a2-c6157bc1d824","ios":"levelo://app?vid=29963626-08a0-497c-81a2-c6157bc1d824"},"vehicle_type_id":"4","last_reported":1715983653,"current_range_meters":10000,"station_id":"ce4bgk12rcd13ifvqbi0","pricing_plan_id":"cebpf4jnsgd1na2vs0mg"},{"bike_id":"dc2ba45b-6b1d-434f-9cd7-fbedc7411921","system_id":"levelo_inurba_marseille","lat":43.296157,"lon":5.377082,"is_reserved":false,"is_disabled":false,"rental_uris":{"android":"levelo://app?vid=dc2ba45b-6b1d-434f-9cd7-fbedc7411921","ios":"levelo://app?vid=dc2ba45b-6b1d-434f-9cd7-fbedc7411921"},"vehicle_type_id":"4","last_reported":1715983653,"current_range_meters":0,"station_id":"ce4bgi92rcd13ifvqb90","pricing_plan_id":"cebpf4jnsgd1na2vs0mg"},{"bike_id":"1273d86c-3728-45ca-a53b-daf9cdfb0095","system_id":"levelo_inurba_marseille","lat":43.296277,"lon":5.377108,"is_reserved":false,"is_disabled":false,"rental_uris":{"android":"levelo://app?vid=1273d86c-3728-45ca-a53b-daf9cdfb0095","ios":"levelo://app?vid=1273d86c-3728-45ca-a53b-daf9cdfb0095"},"vehicle_type_id":"4","last_reported":1715983653,"current_range_meters":400,"station_id":"ce4bgi92rcd13ifvqb90","pricing_plan_id":"cebpf4jnsgd1na2vs0mg"},{"bike_id":"b219593c-22a1-4109-b9dc-254e6dd3340c","system_id":"levelo_inurba_marseille","lat":43.29671,"lon":5.3788,"is_reserved":false,"is_disabled":false,"rental_uris":{"android":"levelo://app?vid=b219593c-22a1-4109-b9dc-254e6dd3340c","ios":"levelo://app?vid=b219593c-22a1-4109-b9dc-254e6dd3340c"},"vehicle_type_id":"4","last_reported":1715983653,"current_range_meters":4000,"station_id":"","pricing_plan_id":"cebpf4jnsgd1na2vs0mg"},{"bike_id":"eb5996e2-fdd9-4d60-8f8d-0d820535168e","system_id":"levelo_inurba_marseille","lat":43.299707,"lon":5.384859,"is_reserved":false,"is_disabled":false,"rental_uris":{"android":"levelo://app?vid=eb5996e2-fdd9-4d60-8f8d-0d820535168e","ios":"levelo://app?vid=eb5996e2-fdd9-4d60-8f8d-0d820535168e"},"vehicle_type_id":"4","last_reported":1715983653,"current_range_meters":13200,"station_id":"ce4bgj92rcd13ifvqbd0","pricing_plan_id":"cebpf4jnsgd1na2vs0mg"},{"bike_id":"3a8255e2-7166-49c2-a137-8e603da9d33f","system_id":"levelo_inurba_marseille","lat":43.299724,"lon":5.384848,"is_reserved":false,"is_disabled":false,"rental_uris":{"android":"levelo://app?vid=3a8255e2-7166-49c2-a137-8e603da9d33f","ios":"levelo://app?vid=3a8255e2-7166-49c2-a137-8e603da9d33f"},"vehicle_type_id":"4","last_reported":1715983653,"current_range_meters":20800,"station_id":"ce4bgj92rcd13ifvqbd0","pricing_plan_id":"cebpf4jnsgd1na2vs0mg"},{"bike_id":"fb93f2b6-68f1-491d-8adb-88c44b35bd79","system_id":"levelo_inurba_marseille","lat":43.299707,"lon":5.384859,"is_reserved":false,"is_disabled":false,"rental_uris":{"android":"levelo://app?vid=fb93f2b6-68f1-491d-8adb-88c44b35bd79","ios":"levelo://app?vid=fb93f2b6-68f1-491d-8adb-88c44b35bd79"},"vehicle_type_id":"4","last_reported":1715983653,"current_range_meters":10800,"station_id":"ce4bgj92rcd13ifvqbd0","pricing_plan_id":"cebpf4jnsgd1na2vs0mg"},{"bike_id":"afdcdcbf-c0c9-490b-bbac-d61381189151","system_id":"levelo_inurba_marseille","lat":43.299717,"lon":5.384845,"is_reserved":false,"is_disabled":false,"rental_uris":{"android":"levelo://app?vid=afdcdcbf-c0c9-490b-bbac-d61381189151","ios":"levelo://app?vid=afdcdcbf-c0c9-490b-bbac-d61381189151"},"vehicle_type_id":"4","last_reported":1715983653,"current_range_meters":800,"station_id":"ce4bgj92rcd13ifvqbd0","pricing_plan_id":"cebpf4jnsgd1na2vs0mg"},{"bike_id":"83a0874d-13e8-46ec-b1f3-60a37abd2fb5","system_id":"levelo_inurba_marseille","lat":43.299707,"lon":5.384859,"is_reserved":false,"is_disabled":false,"rental_uris":{"android":"levelo://app?vid=83a0874d-13e8-46ec-b1f3-60a37abd2fb5","ios":"levelo://app?vid=83a0874d-13e8-46ec-b1f3-60a37abd2fb5"},"vehicle_type_id":"4","last_reported":1715983653,"current_range_meters":29200,"station_id":"ce4bgj92rcd13ifvqbd0","pricing_plan_id":"cebpf4jnsgd1na2vs0mg"},{"bike_id":"d1f54470-a40c-4937-a81d-983237b475aa","system_id":"levelo_inurba_marseille","lat":43.29971,"lon":5.38492,"is_reserved":false,"is_disabled":false,"rental_uris":{"android":"levelo://app?vid=d1f54470-a40c-4937-a81d-983237b475aa","ios":"levelo://app?vid=d1f54470-a40c-4937-a81d-983237b475aa"},"vehicle_type_id":"4","last_reported":1715983653,"current_range_meters":8000,"station_id":"ce4bgj92rcd13ifvqbd0","pricing_plan_id":"cebpf4jnsgd1na2vs0mg"},{"bike_id":"42013800-ca24-47ef-babe-2df3aa8bd7b4","system_id":"levelo_inurba_marseille","lat":43.299707,"lon":5.384859,"is_reserved":false,"is_disabled":false,"rental_uris":{"android":"levelo://app?vid=42013800-ca24-47ef-babe-2df3aa8bd7b4","ios":"levelo://app?vid=42013800-ca24-47ef-babe-2df3aa8bd7b4"},"vehicle_type_id":"4","last_reported":1715983653,"current_range_meters":10800,"station_id":"ce4bgj92rcd13ifvqbd0","pricing_plan_id":"cebpf4jnsgd1na2vs0mg"},{"bike_id":"d27423ee-40c4-447f-a4d9-a166fa928db1","system_id":"levelo_inurba_marseille","lat":43.295279,"lon":5.375048,"is_reserved":false,"is_disabled":false,"rental_uris":{"android":"levelo://app?vid=d27423ee-40c4-447f-a4d9-a166fa928db1","ios":"levelo://app?vid=d27423ee-40c4-447f-a4d9-a166fa928db1"},"vehicle_type_id":"4","last_reported":1715983653,"current_range_meters":23200,"station_id":"ce4bgkp2rcd13ifvqbmg","pricing_plan_id":"cebpf4jnsgd1na2vs0mg"},{"bike_id":"5e7f4a8e-4b0f-4ca8-888c-5db8a4be180e","system_id":"levelo_inurba_marseille","lat":43.29968,"lon":5.38494,"is_reserved":false,"is_disabled":false,"rental_uris":{"android":"levelo://app?vid=5e7f4a8e-4b0f-4ca8-888c-5db8a4be180e","ios":"levelo://app?vid=5e7f4a8e-4b0f-4ca8-888c-5db8a4be180e"},"vehicle_type_id":"4","last_reported":1715983653,"current_range_meters":2800,"station_id":"ce4bgj92rcd13ifvqbd0","pricing_plan_id":"cebpf4jnsgd1na2vs0mg"},{"bike_id":"a7268b5c-a0e8-4829-ac00-68d12a64dba0","system_id":"levelo_inurba_marseille","lat":43.299708,"lon":5.384998,"is_reserved":false,"is_disabled":false,"rental_uris":{"android":"levelo://app?vid=a7268b5c-a0e8-4829-ac00-68d12a64dba0","ios":"levelo://app?vid=a7268b5c-a0e8-4829-ac00-68d12a64dba0"},"vehicle_type_id":"4","last_reported":1715983653,"current_range_meters":4000,"station_id":"ce4bgj92rcd13ifvqbd0","pricing_plan_id":"cebpf4jnsgd1na2vs0mg"},{"bike_id":"844173fb-7ffd-4215-b544-abaaedf02b15","system_id":"levelo_inurba_marseille","lat":43.295122,"lon":5.37584,"is_reserved":false,"is_disabled":false,"rental_uris":{"android":"levelo://app?vid=844173fb-7ffd-4215-b544-abaaedf02b15","ios":"levelo://app?vid=844173fb-7ffd-4215-b544-abaaedf02b15"},"vehicle_type_id":"4","last_reported":1715983653,"current_range_meters":27600,"station_id":"","pricing_plan_id":"cebpf4jnsgd1na2vs0mg"},{"bike_id":"06afebc5-9a53-48b4-ae25-735ba2f926c5","system_id":"levelo_inurba_marseille","lat":43.32367,"lon":5.388836,"is_reserved":false,"is_disabled":false,"rental_uris":{"android":"levelo://app?vid=06afebc5-9a53-48b4-ae25-735ba2f926c5","ios":"levelo://app?vid=06afebc5-9a53-48b4-ae25-735ba2f926c5"},"vehicle_type_id":"4","last_reported":1715983653,"current_range_meters":0,"station_id":"ce4bhqp2rcd13ifvqhog","pricing_plan_id":"cebpf4jnsgd1na2vs0mg"},{"bike_id":"0d60c1a5-d293-4d0d-8fa8-084b12796698","system_id":"levelo_inurba_marseille","lat":43.31116,"lon":5.39339,"is_reserved":false,"is_disabled":false,"rental_uris":{"android":"levelo://app?vid=0d60c1a5-d293-4d0d-8fa8-084b12796698","ios":"levelo://app?vid=0d60c1a5-d293-4d0d-8fa8-084b12796698"},"vehicle_type_id":"4","last_reported":1715983653,"current_range_meters":22800,"station_id":"","pricing_plan_id":"cebpf4jnsgd1na2vs0mg"},{"bike_id":"9f52fdd3-01f0-4199-a9d1-76717266099b","system_id":"levelo_inurba_marseille","lat":43.32367,"lon":5.388836,"is_reserved":false,"is_disabled":false,"rental_uris":{"android":"levelo://app?vid=9f52fdd3-01f0-4199-a9d1-76717266099b","ios":"levelo://app?vid=9f52fdd3-01f0-4199-a9d1-76717266099b"},"vehicle_type_id":"4","last_reported":1715983653,"current_range_meters":13200,"station_id":"ce4bhqp2rcd13ifvqhog","pricing_plan_id":"cebpf4jnsgd1na2vs0mg"},{"bike_id":"880a9bc9-a690-4ffd-bdcd-ae10cca07ed3","system_id":"levelo_inurba_marseille","lat":43.29602,"lon":5.381084,"is_reserved":false,"is_disabled":false,"rental_uris":{"android":"levelo://app?vid=880a9bc9-a690-4ffd-bdcd-ae10cca07ed3","ios":"levelo://app?vid=880a9bc9-a690-4ffd-bdcd-ae10cca07ed3"},"vehicle_type_id":"4","last_reported":1715983653,"current_range_meters":28800,"station_id":"ce4bgl12rcd13ifvqbo0","pricing_plan_id":"cebpf4jnsgd1na2vs0mg"},{"bike_id":"ba04c569-05c2-4767-9d69-5c70c3600ba3","system_id":"levelo_inurba_marseille","lat":43.296057,"lon":5.380978,"is_reserved":false,"is_disabled":false,"rental_uris":{"android":"levelo://app?vid=ba04c569-05c2-4767-9d69-5c70c3600ba3","ios":"levelo://app?vid=ba04c569-05c2-4767-9d69-5c70c3600ba3"},"vehicle_type_id":"4","last_reported":1715983653,"current_range_meters":0,"station_id":"ce4bgl12rcd13ifvqbo0","pricing_plan_id":"cebpf4jnsgd1na2vs0mg"},{"bike_id":"887ec261-9b80-4012-8459-f751119e903d","system_id":"levelo_inurba_marseille","lat":43.29602,"lon":5.381084,"is_reserved":false,"is_disabled":false,"rental_uris":{"android":"levelo://app?vid=887ec261-9b80-4012-8459-f751119e903d","ios":"levelo://app?vid=887ec261-9b80-4012-8459-f751119e903d"},"vehicle_type_id":"4","last_reported":1715983653,"current_range_meters":19600,"station_id":"ce4bgl12rcd13ifvqbo0","pricing_plan_id":"cebpf4jnsgd1na2vs0mg"},{"bike_id":"ba8a2d6d-d260-4bce-977e-6d44f1adb77b","system_id":"levelo_inurba_marseille","lat":43.306875,"lon":5.393765,"is_reserved":false,"is_disabled":false,"rental_uris":{"android":"levelo://app?vid=ba8a2d6d-d260-4bce-977e-6d44f1adb77b","ios":"levelo://app?vid=ba8a2d6d-d260-4bce-977e-6d44f1adb77b"},"vehicle_type_id":"4","last_reported":1715983653,"current_range_meters":4000,"station_id":"ce4bh192rcd13ifvqdb0","pricing_plan_id":"cebpf4jnsgd1na2vs0mg"},{"bike_id":"19d6bc5a-4535-4f6c-b5ae-a6470261bcc2","system_id":"levelo_inurba_marseille","lat":43.305994,"lon":5.393687,"is_reserved":false,"is_disabled":false,"rental_uris":{"android":"levelo://app?vid=19d6bc5a-4535-4f6c-b5ae-a6470261bcc2","ios":"levelo://app?vid=19d6bc5a-4535-4f6c-b5ae-a6470261bcc2"},"vehicle_type_id":"4","last_reported":1715983653,"current_range_meters":12000,"station_id":"ce4bh0p2rcd13ifvqd80","pricing_plan_id":"cebpf4jnsgd1na2vs0mg"},{"bike_id":"f67c9a32-f12f-4cd0-b1b7-6d5fa861376f","system_id":"levelo_inurba_marseille","lat":43.293009,"lon":5.374584,"is_reserved":false,"is_disabled":false,"rental_uris":{"android":"levelo://app?vid=f67c9a32-f12f-4cd0-b1b7-6d5fa861376f","ios":"levelo://app?vid=f67c9a32-f12f-4cd0-b1b7-6d5fa861376f"},"vehicle_type_id":"4","last_reported":1715983653,"current_range_meters":26800,"station_id":"ce4bgi12rcd13ifvqb70","pricing_plan_id":"cebpf4jnsgd1na2vs0mg"},{"bike_id":"1d63a672-65e6-4f8a-9485-17788579dfe0","system_id":"levelo_inurba_marseille","lat":43.305994,"lon":5.393687,"is_reserved":false,"is_disabled":false,"rental_uris":{"android":"levelo://app?vid=1d63a672-65e6-4f8a-9485-17788579dfe0","ios":"levelo://app?vid=1d63a672-65e6-4f8a-9485-17788579dfe0"},"vehicle_type_id":"4","last_reported":1715983653,"current_range_meters":30400,"station_id":"ce4bh0p2rcd13ifvqd80","pricing_plan_id":"cebpf4jnsgd1na2vs0mg"},{"bike_id":"07f0a237-4661-4e2b-a2d5-f29e30fe5e85","system_id":"levelo_inurba_marseille","lat":43.305994,"lon":5.393687,"is_reserved":false,"is_disabled":false,"rental_uris":{"android":"levelo://app?vid=07f0a237-4661-4e2b-a2d5-f29e30fe5e85","ios":"levelo://app?vid=07f0a237-4661-4e2b-a2d5-f29e30fe5e85"},"vehicle_type_id":"4","last_reported":1715983653,"current_range_meters":21600,"station_id":"ce4bh0p2rcd13ifvqd80","pricing_plan_id":"cebpf4jnsgd1na2vs0mg"},{"bike_id":"3f8554f5-812c-4d0c-b2d4-bb098fdb091b","system_id":"levelo_inurba_marseille","lat":43.30593,"lon":5.39351,"is_reserved":false,"is_disabled":false,"rental_uris":{"android":"levelo://app?vid=3f8554f5-812c-4d0c-b2d4-bb098fdb091b","ios":"levelo://app?vid=3f8554f5-812c-4d0c-b2d4-bb098fdb091b"},"vehicle_type_id":"4","last_reported":1715983653,"current_range_meters":7600,"station_id":"ce4bh0p2rcd13ifvqd80","pricing_plan_id":"cebpf4jnsgd1na2vs0mg"},{"bike_id":"6a67e828-857b-4bc6-a168-af45c4b31b27","system_id":"levelo_inurba_marseille","lat":43.306018,"lon":5.393566,"is_reserved":false,"is_disabled":false,"rental_uris":{"android":"levelo://app?vid=6a67e828-857b-4bc6-a168-af45c4b31b27","ios":"levelo://app?vid=6a67e828-857b-4bc6-a168-af45c4b31b27"},"vehicle_type_id":"4","last_reported":1715983653,"current_range_meters":20000,"station_id":"ce4bh0p2rcd13ifvqd80","pricing_plan_id":"cebpf4jnsgd1na2vs0mg"},{"bike_id":"247272b0-e28e-45c8-a6b3-a7001422b20b","system_id":"levelo_inurba_marseille","lat":43.305994,"lon":5.393687,"is_reserved":false,"is_disabled":false,"rental_uris":{"android":"levelo://app?vid=247272b0-e28e-45c8-a6b3-a7001422b20b","ios":"levelo://app?vid=247272b0-e28e-45c8-a6b3-a7001422b20b"},"vehicle_type_id":"4","last_reported":1715983653,"current_range_meters":8000,"station_id":"ce4bh0p2rcd13ifvqd80","pricing_plan_id":"cebpf4jnsgd1na2vs0mg"},{"bike_id":"edc0db3b-ecc2-49a9-9814-95ff9218a9f2","system_id":"levelo_inurba_marseille","lat":43.305994,"lon":5.393687,"is_reserved":false,"is_disabled":false,"rental_uris":{"android":"levelo://app?vid=edc0db3b-ecc2-49a9-9814-95ff9218a9f2","ios":"levelo://app?vid=edc0db3b-ecc2-49a9-9814-95ff9218a9f2"},"vehicle_type_id":"4","last_reported":1715983653,"current_range_meters":18800,"station_id":"ce4bh0p2rcd13ifvqd80","pricing_plan_id":"cebpf4jnsgd1na2vs0mg"},{"bike_id":"17b70488-b809-4a1a-8cf3-4c77d0d69e5c","system_id":"levelo_inurba_marseille","lat":43.30596,"lon":5.39356,"is_reserved":false,"is_disabled":false,"rental_uris":{"android":"levelo://app?vid=17b70488-b809-4a1a-8cf3-4c77d0d69e5c","ios":"levelo://app?vid=17b70488-b809-4a1a-8cf3-4c77d0d69e5c"},"vehicle_type_id":"4","last_reported":1715983653,"current_range_meters":24800,"station_id":"ce4bh0p2rcd13ifvqd80","pricing_plan_id":"cebpf4jnsgd1na2vs0mg"},{"bike_id":"faf7a0b3-f13c-4f69-b0ff-c979627e88f4","system_id":"levelo_inurba_marseille","lat":43.30598,"lon":5.39362,"is_reserved":false,"is_disabled":false,"rental_uris":{"android":"levelo://app?vid=faf7a0b3-f13c-4f69-b0ff-c979627e88f4","ios":"levelo://app?vid=faf7a0b3-f13c-4f69-b0ff-c979627e88f4"},"vehicle_type_id":"4","last_reported":1715983653,"current_range_meters":0,"station_id":"ce4bh0p2rcd13ifvqd80","pricing_plan_id":"cebpf4jnsgd1na2vs0mg"},