{"last_updated":1750396314,"ttl":60,"version":"2.2","data":{"bikes":[{"bike_id":"3da29fb8-fc97-44c6-b9ac-31dd456b2fd4","system_id":"levelo_inurba_marseille","lat":43.33771,"lon":5.37424,"is_reserved":false,"is_disabled":true,"rental_uris":{"android":"levelo://app?vid=3da29fb8-fc97-44c6-b9ac-31dd456b2fd4","ios":"levelo://app?vid=3da29fb8-fc97-44c6-b9ac-31dd456b2fd4"},"vehicle_type_id":"4","last_reported":1750396315,"current_range_meters":0,"station_id":"","pricing_plan_id":"cebpf4jnsgd1na2vs0mg"},{"bike_id":"01861ad8-a8d7-4be6-816e-651927c87584","system_id":"levelo_inurba_marseille","lat":43.33751,"lon":5.37456,"is_reserved":false,"is_disabled":true,"rental_uris":{"android":"levelo://app?vid=01861ad8-a8d7-4be6-816e-651927c87584","ios":"levelo://app?vid=01861ad8-a8d7-4be6-816e-651927c87584"},"vehicle_type_id":"4","last_reported":1750396315,"current_range_meters":0,"station_id":"","pricing_plan_id":"cebpf4jnsgd1na2vs0mg"},{"bike_id":"eff675e9-75ca-47c9-bd95-5090bc060d4f","system_id":"levelo_inurba_marseille","lat":43.340471,"lon":5.361067,"is_reserved":false,"is_disabled":true,"rental_uris":{"android":"levelo://app?vid=eff675e9-75ca-47c9-bd95-5090bc060d4f","ios":"levelo://app?vid=eff675e9-75ca-47c9-bd95-5090bc060d4f"},"vehicle_type_id":"4","last_reported":1750396315,"current_range_meters":0,"station_id":"","pricing_plan_id":"cebpf4jnsgd1na2vs0mg"},{"bike_id":"d4b2375e-15c2-4b2f-a628-6d423b46231b","system_id":"levelo_inurba_marseille","lat":43.24257,"lon":5.41033,"is_reserved":false,"is_disabled":true,"rental_uris":{"android":"levelo://app?vid=d4b2375e-15c2-4b2f-a628-6d423b46231b","ios":"levelo://app?vid=d4b2375e-15c2-4b2f-a628-6d423b46231b"},"vehicle_type_id":"4","last_reported":1750396315,"current_range_meters":0,"station_id":"","pricing_plan_id":"cebpf4jnsgd1na2vs0mg"},{"bike_id":"64b8b83e-503a-4015-b7c1-3bd9b6c0bb97","system_id":"levelo_inurba_marseille","lat":43.30317,"lon":5.45141,"is_reserved":false,"is_disabled":true,"rental_uris":{"android":"levelo://app?vid=64b8b83e-503a-4015-b7c1-3bd9b6c0bb97","ios":"levelo://app?vid=64b8b83e-503a-4015-b7c1-3bd9b6c0bb97"},"vehicle_type_id":"4","last_reported":1750396315,"current_range_meters":0,"station_id":"","pricing_plan_id":"cebpf4jnsgd1na2vs0mg"},{"bike_id":"d2bd57c8-6b64-48db-ad24-5398eb3fd9d6","system_id":"levelo_inurba_marseille","lat":43.337444,"lon":5.374475,"is_reserved":false,"is_disabled":true,"rental_uris":{"android":"levelo://app?vid=d2bd57c8-6b64-48db-ad24-5398eb3fd9d6","ios":"levelo://app?vid=d2bd57c8-6b64-48db-ad24-5398eb3fd9d6"},"vehicle_type_id":"4","last_reported":1750396315,"current_range_meters":0,"station_id":"","pricing_plan_id":"cebpf4jnsgd1na2vs0mg"},{"bike_id":"62a493c7-4534-4419-ad43-0582de34a72a","system_id":"levelo_inurba_marseille","lat":43.21366,"lon":5.355183,"is_reserved":false,"is_disabled":true,"rental_uris":{"android":"levelo://app?vid=62a493c7-4534-4419-ad43-0582de34a72a","ios":"levelo://app?vid=62a493c7-4534-4419-ad43-0582de34a72a"},"vehicle_type_id":"4","last_reported":1750396315,"current_range_meters":0,"station_id":"","pricing_plan_id":"cebpf4jnsgd1na2vs0mg"},{"bike_id":"4058c190-2d8f-4783-8d80-8d72c78a821c","system_id":"levelo_inurba_marseille","lat":43.33457,"lon":5.36373,"is_reserved":false,"is_disabled":true,"rental_uris":{"android":"levelo://app?vid=4058c190-2d8f-4783-8d80-8d72c78a821c","ios":"levelo://app?vid=4058c190-2d8f-4783-8d80-8d72c78a821c"},"vehicle_type_id":"4","last_reported":1750396315,"current_range_meters":0,"station_id":"","pricing_plan_id":"cebpf4jnsgd1na2vs0mg"},{"bike_id":"8ad9234e-001a-4549-8bba-9baf2ef98804","system_id":"levelo_inurba_marseille","lat":43.2689,"lon":5.39883,"is_reserved":false,"is_disabled":true,"rental_uris":{"android":"levelo://app?vid=8ad9234e-001a-4549-8bba-9baf2ef98804","ios":"levelo://app?vid=8ad9234e-001a-4549-8bba-9baf2ef98804"},"vehicle_type_id":"4","last_reported":1750396315,"current_range_meters":0,"station_id":"","pricing_plan_id":"cebpf4jnsgd1na2vs0mg"},{"bike_id":"05172c24-6dde-4907-8af6-01d0e481b4de","system_id":"levelo_inurba_marseille","lat":43.22495,"lon":5.34795,"is_reserved":false,"is_disabled":true,"rental_uris":{"android":"levelo://app?vid=05172c24-6dde-4907-8af6-01d0e481b4de","ios":"levelo://app?vid=05172c24-6dde-4907-8af6-01d0e481b4de"},"vehicle_type_id":"4","last_reported":1750396315,"current_range_meters":0,"station_id":"","pricing_plan_id":"cebpf4jnsgd1na2vs0mg"},{"bike_id":"a50a6588-33f7-480b-86db-f01191577927","system_id":"levelo_inurba_marseille","lat":43.27918,"lon":5.42807,"is_reserved":false,"is_disabled":true,"rental_uris":{"android":"levelo://app?vid=a50a6588-33f7-480b-86db-f01191577927","ios":"levelo://app?vid=a50a6588-33f7-480b-86db-f01191577927"},"vehicle_type_id":"4","last_reported":1750396315,"current_range_meters":0,"station_id":"","pricing_plan_id":"cebpf4jnsgd1na2vs0mg"},{"bike_id":"47196f00-388f-4b3b-a4de-3dba126cd107","system_id":"levelo_inurba_marseille","lat":43.24365,"lon":5.41136,"is_reserved":false,"is_disabled":true,"rental_uris":{"android":"levelo://app?vid=47196f00-388f-4b3b-a4de-3dba126cd107","ios":"levelo://app?vid=47196f00-388f-4b3b-a4de-3dba126cd107"},"vehicle_type_id":"4","last_reported":1750396315,"current_range_meters":0,"station_id":"","pricing_plan_id":"cebpf4jnsgd1na2vs0mg"},{"bike_id":"efb4bfd8-07a4-4223-a74a-5636a3528a1c","system_id":"levelo_inurba_marseille","lat":43.29302,"lon":5.45613,"is_reserved":false,"is_disabled":true,"rental_uris":{"android":"levelo://app?vid=efb4bfd8-07a4-4223-a74a-5636a3528a1c","ios":"levelo://app?vid=efb4bfd8-07a4-4223-a74a-5636a3528a1c"},"vehicle_type_id":"4","last_reported":1750396315,"current_range_meters":0,"station_id":"","pricing_plan_id":"cebpf4jnsgd1na2vs0mg"},{"bike_id":"d6609b4f-333b-43c1-9ebe-8726f5e76e88","system_id":"levelo_inurba_marseille","lat":43.337444,"lon":5.374475,"is_reserved":false,"is_disabled":true,"rental_uris":{"android":"levelo://app?vid=d6609b4f-333b-43c1-9ebe-8726f5e76e88","ios":"levelo://app?vid=d6609b4f-333b-43c1-9ebe-8726f5e76e88"},"vehicle_type_id":"4","last_reported":1750396315,"current_range_meters":0,"station_id":"","pricing_plan_id":"cebpf4jnsgd1na2vs0mg"},{"bike_id":"57c83ce1-960e-466a-b6c5-d93bc130c53a","system_id":"levelo_inurba_marseille","lat":43.24947,"lon":5.38942,"is_reserved":false,"is_disabled":true,"rental_uris":{"android":"levelo://app?vid=57c83ce1-960e-466a-b6c5-d93bc130c53a","ios":"levelo://app?vid=57c83ce1-960e-466a-b6c5-d93bc130c53a"},"vehicle_type_id":"4","last_reported":1750396315,"current_range_meters":0,"station_id":"","pricing_plan_id":"cebpf4jnsgd1na2vs0mg"},{"bike_id":"3cd1dffc-0149-4b48-b4c1-54b99b6468d4","system_id":"levelo_inurba_marseille","lat":43.30211,"lon":5.39465,"is_reserved":false,"is_disabled":true,"rental_uris":{"android":"levelo://app?vid=3cd1dffc-0149-4b48-b4c1-54b99b6468d4","ios":"levelo://app?vid=3cd1dffc-0149-4b48-b4c1-54b99b6468d4"},"vehicle_type_id":"4","last_reported":1750396315,"current_range_meters":0,"station_id":"ce4bh0p2rcd13ifvqd70","pricing_plan_id":"cebpf4jnsgd1na2vs0mg"},{"bike_id":"071be348-e535-46a5-b437-2fe87f1c4155","system_id":"levelo_inurba_marseille","lat":43.21748,"lon":5.34613,"is_reserved":false,"is_disabled":true,"rental_uris":{"android":"levelo://app?vid=071be348-e535-46a5-b437-2fe87f1c4155","ios":"levelo://app?vid=071be348-e535-46a5-b437-2fe87f1c4155"},"vehicle_type_id":"4","last_reported":1750396315,"current_range_meters":0,"station_id":"st_cvj6r9ubvosntc0bgbag","pricing_plan_id":"cebpf4jnsgd1na2vs0mg"},{"bike_id":"9f330ac5-5f1d-46ed-a6b0-51cde3054b1a","system_id":"levelo_inurba_marseille","lat":43.211803,"lon":5.350838,"is_reserved":false,"is_disabled":true,"rental_uris":{"android":"levelo://app?vid=9f330ac5-5f1d-46ed-a6b0-51cde3054b1a","ios":"levelo://app?vid=9f330ac5-5f1d-46ed-a6b0-51cde3054b1a"},"vehicle_type_id":"4","last_reported":1750396315,"current_range_meters":0,"station_id":"st_cvj6sg6p6f1abm77japg","pricing_plan_id":"cebpf4jnsgd1na2vs0mg"},{"bike_id":"780983d0-98cd-48cd-b864-ef9a767ea130","system_id":"levelo_inurba_marseille","lat":43.211899,"lon":5.35074,"is_reserved":false,"is_disabled":true,"rental_uris":{"android":"levelo://app?vid=780983d0-98cd-48cd-b864-ef9a767ea130","ios":"levelo://app?vid=780983d0-98cd-48cd-b864-ef9a767ea130"},"vehicle_type_id":"4","last_reported":1750396315,"current_range_meters":0,"station_id":"st_cvj6sg6p6f1abm77japg","pricing_plan_id":"cebpf4jnsgd1na2vs0mg"},{"bike_id":"4ce5b165-f22d-40cf-abd3-1cb294861955","system_id":"levelo_inurba_marseille","lat":43.21191,"lon":5.35072,"is_reserved":false,"is_disabled":true,"rental_uris":{"android":"levelo://app?vid=4ce5b165-f22d-40cf-abd3-1cb294861955","ios":"levelo://app?vid=4ce5b165-f22d-40cf-abd3-1cb294861955"},"vehicle_type_id":"4","last_reported":1750396315,"current_range_meters":0,"station_id":"st_cvj6sg6p6f1abm77japg","pricing_plan_id":"cebpf4jnsgd1na2vs0mg"},{"bike_id":"3bbb3ce5-c63f-42a2-b2a1-470bb9065f9e","system_id":"levelo_inurba_marseille","lat":43.21188,"lon":5.35058,"is_reserved":false,"is_disabled":true,"rental_uris":{"android":"levelo://app?vid=3bbb3ce5-c63f-42a2-b2a1-470bb9065f9e","ios":"levelo://app?vid=3bbb3ce5-c63f-42a2-b2a1-470bb9065f9e"},"vehicle_type_id":"4","last_reported":1750396315,"current_range_meters":0,"station_id":"st_cvj6sg6p6f1abm77japg","pricing_plan_id":"cebpf4jnsgd1na2vs0mg"},{"bike_id":"cdfe7948-a710-4ab8-a2f8-9e1f8a38b925","system_id":"levelo_inurba_marseille","lat":43.23149,"lon":5.43706,"is_reserved":false,"is_disabled":true,"rental_uris":{"android":"levelo://app?vid=cdfe7948-a710-4ab8-a2f8-9e1f8a38b925","ios":"levelo://app?vid=cdfe7948-a710-4ab8-a2f8-9e1f8a38b925"},"vehicle_type_id":"4","last_reported":1750396315,"current_range_meters":800,"station_id":"ce4bhmp2rcd13ifvqgog","pricing_plan_id":"cebpf4jnsgd1na2vs0mg"},{"bike_id":"ee7f7975-e9cb-4aad-9ca0-64853ce255d4","system_id":"levelo_inurba_marseille","lat":43.30131,"lon":5.39873,"is_reserved":false,"is_disabled":true,"rental_uris":{"android":"levelo://app?vid=ee7f7975-e9cb-4aad-9ca0-64853ce255d4","ios":"levelo://app?vid=ee7f7975-e9cb-4aad-9ca0-64853ce255d4"},"vehicle_type_id":"4","last_reported":1750396315,"current_range_meters":1200,"station_id":"ce4bh0h2rcd13ifvqd40","pricing_plan_id":"cebpf4jnsgd1na2vs0mg"},{"bike_id":"dd78fbbb-806f-404d-a05b-e4e69450a8bc","system_id":"levelo_inurba_marseille","lat":43.2955,"lon":5.39844,"is_reserved":false,"is_disabled":true,"rental_uris":{"android":"levelo://app?vid=dd78fbbb-806f-404d-a05b-e4e69450a8bc","ios":"levelo://app?vid=dd78fbbb-806f-404d-a05b-e4e69450a8bc"},"vehicle_type_id":"4","last_reported":1750396315,"current_range_meters":2000,"station_id":"","pricing_plan_id":"cebpf4jnsgd1na2vs0mg"},{"bike_id":"5758f02d-ab77-4076-9ccd-2538e67f35b9","system_id":"levelo_inurba_marseille","lat":43.30105,"lon":5.37919,"is_reserved":false,"is_disabled":false,"rental_uris":{"android":"levelo://app?vid=5758f02d-ab77-4076-9ccd-2538e67f35b9","ios":"levelo://app?vid=5758f02d-ab77-4076-9ccd-2538e67f35b9"},"vehicle_type_id":"4","last_reported":1750396315,"current_range_meters":3200,"station_id":"","pricing_plan_id":"cebpf4jnsgd1na2vs0mg"},{"bike_id":"ac0ce348-7e23-495c-844b-f21d8527a660","system_id":"levelo_inurba_marseille","lat":43.28331,"lon":5.43281,"is_reserved":false,"is_disabled":false,"rental_uris":{"android":"levelo://app?vid=ac0ce348-7e23-495c-844b-f21d8527a660","ios":"levelo://app?vid=ac0ce348-7e23-495c-844b-f21d8527a660"},"vehicle_type_id":"4","last_reported":1750396315,"current_range_meters":5600,"station_id":"","pricing_plan_id":"cebpf4jnsgd1na2vs0mg"},{"bike_id":"e6318816-efd1-427a-92d1-41f1bb8742b4","system_id":"levelo_inurba_marseille","lat":43.33747,"lon":5.37457,"is_reserved":false,"is_disabled":false,"rental_uris":{"android":"levelo://app?vid=e6318816-efd1-427a-92d1-41f1bb8742b4","ios":"levelo://app?vid=e6318816-efd1-427a-92d1-41f1bb8742b4"},"vehicle_type_id":"4","last_reported":1750396315,"current_range_meters":5600,"station_id":"","pricing_plan_id":"cebpf4jnsgd1na2vs0mg"},{"bike_id":"d4342ced-f5af-400d-ba9f-b33917cad645","system_id":"levelo_inurba_marseille","lat":43.30298,"lon":5.36888,"is_reserved":false,"is_disabled":false,"rental_uris":{"android":"levelo://app?vid=d4342ced-f5af-400d-ba9f-b33917cad645","ios":"levelo://app?vid=d4342ced-f5af-400d-ba9f-b33917cad645"},"vehicle_type_id":"4","last_reported":1750396315,"current_range_meters":5600,"station_id":"ce4bgqh2rcd13ifvqc5g","pricing_plan_id":"cebpf4jnsgd1na2vs0mg"},{"bike_id":"20c17770-413a-48d9-93b3-bfedd707bc11","system_id":"levelo_inurba_marseille","lat":43.2924,"lon":5.40088,"is_reserved":false,"is_disabled":false,"rental_uris":{"android":"levelo://app?vid=20c17770-413a-48d9-93b3-bfedd707bc11","ios":"levelo://app?vid=20c17770-413a-48d9-93b3-bfedd707bc11"},"vehicle_type_id":"4","last_reported":1750396315,"current_range_meters":6000,"station_id":"ce4bh312rcd13ifvqdk0","pricing_plan_id":"cebpf4jnsgd1na2vs0mg"},{"bike_id":"fb829c66-ca74-4a38-97cf-e8de48a4c197","system_id":"levelo_inurba_marseille","lat":43.3014,"lon":5.38092,"is_reserved":false,"is_disabled":false,"rental_uris":{"android":"levelo://app?vid=fb829c66-ca74-4a38-97cf-e8de48a4c197","ios":"levelo://app?vid=fb829c66-ca74-4a38-97cf-e8de48a4c197"},"vehicle_type_id":"4","last_reported":1750396315,"current_range_meters":6400,"station_id":"ce4bgjp2rcd13ifvqbh0","pricing_plan_id":"cebpf4jnsgd1na2vs0mg"},{"bike_id":"ea01c513-7709-46fb-be1c-853d88343db7","system_id":"levelo_inurba_marseille","lat":43.28096,"lon":5.37836,"is_reserved":false,"is_disabled":false,"rental_uris":{"android":"levelo://app?vid=ea01c513-7709-46fb-be1c-853d88343db7","ios":"levelo://app?vid=ea01c513-7709-46fb-be1c-853d88343db7"},"vehicle_type_id":"4","last_reported":1750396315,"current_range_meters":6400,"station_id":"ce4bha12rcd13ifvqee0","pricing_plan_id":"cebpf4jnsgd1na2vs0mg"},{"bike_id":"be0d89ba-35b1-4f33-adf6-4dbcbb61c73f","system_id":"levelo_inurba_marseille","lat":43.304677,"lon":5.379192,"is_reserved":false,"is_disabled":false,"rental_uris":{"android":"levelo://app?vid=be0d89ba-35b1-4f33-adf6-4dbcbb61c73f","ios":"levelo://app?vid=be0d89ba-35b1-4f33-adf6-4dbcbb61c73f"},"vehicle_type_id":"4","last_reported":1750396315,"current_range_meters":6800,"station_id":"ce4bgup2rcd13ifvqcn0","pricing_plan_id":"cebpf4jnsgd1na2vs0mg"},{"bike_id":"d4a3083b-e346-4145-adce-cb8c79b50ab1","system_id":"levelo_inurba_marseille","lat":43.30921,"lon":5.40171,"is_reserved":false,"is_disabled":false,"rental_uris":{"android":"levelo://app?vid=d4a3083b-e346-4145-adce-cb8c79b50ab1","ios":"levelo://app?vid=d4a3083b-e346-4145-adce-cb8c79b50ab1"},"vehicle_type_id":"4","last_reported":1750396315,"current_range_meters":6800,"station_id":"ce4bgvp2rcd13ifvqct0","pricing_plan_id":"cebpf4jnsgd1na2vs0mg"},{"bike_id":"127f5244-7e76-44ae-a74e-43b7a0fbd888","system_id":"levelo_inurba_marseille","lat":43.24547,"lon":5.39541,"is_reserved":false,"is_disabled":false,"rental_uris":{"android":"levelo://app?vid=127f5244-7e76-44ae-a74e-43b7a0fbd888","ios":"levelo://app?vid=127f5244-7e76-44ae-a74e-43b7a0fbd888"},"vehicle_type_id":"4","last_reported":1750396315,"current_range_meters":6800,"station_id":"ce4bhlp2rcd13ifvqgjg","pricing_plan_id":"cebpf4jnsgd1na2vs0mg"},{"bike_id":"0dedb6f6-6801-483b-bfb8-9cd4533d158f","system_id":"levelo_inurba_marseille","lat":43.31129,"lon":5.38096,"is_reserved":false,"is_disabled":false,"rental_uris":{"android":"levelo://app?vid=0dedb6f6-6801-483b-bfb8-9cd4533d158f","ios":"levelo://app?vid=0dedb6f6-6801-483b-bfb8-9cd4533d158f"},"vehicle_type_id":"4","last_reported":1750396315,"current_range_meters":7200,"station_id":"","pricing_plan_id":"cebpf4jnsgd1na2vs0mg"},{"bike_id":"8114ee66-a28a-48e1-bdcc-dca514a16ea7","system_id":"levelo_inurba_marseille","lat":43.30897,"lon":5.37195,"is_reserved":false,"is_disabled":false,"rental_uris":{"android":"levelo://app?vid=8114ee66-a28a-48e1-bdcc-dca514a16ea7","ios":"levelo://app?vid=8114ee66-a28a-48e1-bdcc-dca514a16ea7"},"vehicle_type_id":"4","last_reported":1750396315,"current_range_meters":7200,"station_id":"ce4bguh2rcd13ifvqckg","pricing_plan_id":"cebpf4jnsgd1na2vs0mg"},{"bike_id":"906e7407-caaf-400a-b021-9a3ca6dfa165","system_id":"levelo_inurba_marseille","lat":43.283728,"lon":5.386282,"is_reserved":false,"is_disabled":false,"rental_uris":{"android":"levelo://app?vid=906e7407-caaf-400a-b021-9a3ca6dfa165","ios":"levelo://app?vid=906e7407-caaf-400a-b021-9a3ca6dfa165"},"vehicle_type_id":"4","last_reported":1750396315,"current_range_meters":7200,"station_id":"ce4bh492rcd13ifvqdvg","pricing_plan_id":"cebpf4jnsgd1na2vs0mg"},{"bike_id":"268aafb4-1331-426c-97bc-a7d6564caeb6","system_id":"levelo_inurba_marseille","lat":43.32933,"lon":5.37919,"is_reserved":false,"is_disabled":false,"rental_uris":{"android":"levelo://app?vid=268aafb4-1331-426c-97bc-a7d6564caeb6","ios":"levelo://app?vid=268aafb4-1331-426c-97bc-a7d6564caeb6"},"vehicle_type_id":"4","last_reported":1750396315,"current_range_meters":8000,"station_id":"","pricing_plan_id":"cebpf4jnsgd1na2vs0mg"},{"bike_id":"7c4b8828-3085-484b-bfd2-fd278a96aabe","system_id":"levelo_inurba_marseille","lat":43.30535,"lon":5.39355,"is_reserved":false,"is_disabled":false,"rental_uris":{"android":"levelo://app?vid=7c4b8828-3085-484b-bfd2-fd278a96aabe","ios":"levelo://app?vid=7c4b8828-3085-484b-bfd2-fd278a96aabe"},"vehicle_type_id":"4","last_reported":1750396315,"current_range_meters":8000,"station_id":"","pricing_plan_id":"cebpf4jnsgd1na2vs0mg"},{"bike_id":"cbbabf3c-b5b3-4a36-b3c3-072747707e4f","system_id":"levelo_inurba_marseille","lat":43.30946,"lon":5.39024,"is_reserved":false,"is_disabled":false,"rental_uris":{"android":"levelo://app?vid=cbbabf3c-b5b3-4a36-b3c3-072747707e4f","ios":"levelo://app?vid=cbbabf3c-b5b3-4a36-b3c3-072747707e4f"},"vehicle_type_id":"4","last_reported":1750396315,"current_range_meters":8000,"station_id":"ce4bgup2rcd13ifvqco0","pricing_plan_id":"cebpf4jnsgd1na2vs0mg"},{"bike_id":"852840ef-5579-466e-ae8f-d88831eb3af2","system_id":"levelo_inurba_marseille","lat":43.29879,"lon":5.39732,"is_reserved":false,"is_disabled":false,"rental_uris":{"android":"levelo://app?vid=852840ef-5579-466e-ae8f-d88831eb3af2","ios":"levelo://app?vid=852840ef-5579-466e-ae8f-d88831eb3af2"},"vehicle_type_id":"4","last_reported":1750396315,"current_range_meters":8000,"station_id":"ce4bh0h2rcd13ifvqd50","pricing_plan_id":"cebpf4jnsgd1na2vs0mg"},{"bike_id":"4053d86c-a5fa-4fb5-bff4-0e4a6065b148","system_id":"levelo_inurba_marseille","lat":43.29042,"lon":5.39929,"is_reserved":false,"is_disabled":false,"rental_uris":{"android":"levelo://app?vid=4053d86c-a5fa-4fb5-bff4-0e4a6065b148","ios":"levelo://app?vid=4053d86c-a5fa-4fb5-bff4-0e4a6065b148"},"vehicle_type_id":"4","last_reported":1750396315,"current_range_meters":8000,"station_id":"ce4bh392rcd13ifvqdm0","pricing_plan_id":"cebpf4jnsgd1na2vs0mg"},{"bike_id":"bf2effce-a6ba-40c8-8c84-98760fe006f7","system_id":"levelo_inurba_marseille","lat":43.32004,"lon":5.381548,"is_reserved":false,"is_disabled":false,"rental_uris":{"android":"levelo://app?vid=bf2effce-a6ba-40c8-8c84-98760fe006f7","ios":"levelo://app?vid=bf2effce-a6ba-40c8-8c84-98760fe006f7"},"vehicle_type_id":"4","last_reported":1750396315,"current_range_meters":8000,"station_id":"ce4bhr12rcd13ifvqhpg","pricing_plan_id":"cebpf4jnsgd1na2vs0mg"},{"bike_id":"41427841-d839-40c1-81bd-45e69072b2cd","system_id":"levelo_inurba_marseille","lat":43.22503,"lon":5.34783,"is_reserved":false,"is_disabled":false,"rental_uris":{"android":"levelo://app?vid=41427841-d839-40c1-81bd-45e69072b2cd","ios":"levelo://app?vid=41427841-d839-40c1-81bd-45e69072b2cd"},"vehicle_type_id":"4","last_reported":1750396315,"current_range_meters":8000,"station_id":"st_cvj5dfep6f1abm77gieg","pricing_plan_id":"cebpf4jnsgd1na2vs0mg"},{"bike_id":"78f74128-95d9-451a-a128-9c7939c00d91","system_id":"levelo_inurba_marseille","lat":43.31506,"lon":5.37297,"is_reserved":false,"is_disabled":false,"rental_uris":{"android":"levelo://app?vid=78f74128-95d9-451a-a128-9c7939c00d91","ios":"levelo://app?vid=78f74128-95d9-451a-a128-9c7939c00d91"},"vehicle_type_id":"4","last_reported":1750396315,"current_range_meters":8400,"station_id":"ce4bgt12rcd13ifvqcd0","pricing_plan_id":"cebpf4jnsgd1na2vs0mg"},{"bike_id":"a52aebd8-73c0-4eda-8300-c81aa7c74d48","system_id":"levelo_inurba_marseille","lat":43.28696,"lon":5.39994,"is_reserved":false,"is_disabled":false,"rental_uris":{"android":"levelo://app?vid=a52aebd8-73c0-4eda-8300-c81aa7c74d48","ios":"levelo://app?vid=a52aebd8-73c0-4eda-8300-c81aa7c74d48"},"vehicle_type_id":"4","last_reported":1750396315,"current_range_meters":8400,"station_id":"ce4bho92rcd13ifvqh3g","pricing_plan_id":"cebpf4jnsgd1na2vs0mg"},{"bike_id":"fad42d14-6f11-4aba-b3fa-75a29ad3bf45","system_id":"levelo_inurba_marseille","lat":43.29971,"lon":5.4132,"is_reserved":false,"is_disabled":false,"rental_uris":{"android":"levelo://app?vid=fad42d14-6f11-4aba-b3fa-75a29ad3bf45","ios":"levelo://app?vid=fad42d14-6f11-4aba-b3fa-75a29ad3bf45"},"vehicle_type_id":"4","last_reported":1750396315,"current_range_meters":8400,"station_id":"ce4bhp12rcd13ifvqh9g","pricing_plan_id":"cebpf4jnsgd1na2vs0mg"},{"bike_id":"d8e4b89d-b577-4dec-93fb-246b584dea2a","system_id":"levelo_inurba_marseille","lat":43.28728,"lon":5.36094,"is_reserved":false,"is_disabled":false,"rental_uris":{"android":"levelo://app?vid=d8e4b89d-b577-4dec-93fb-246b584dea2a","ios":"levelo://app?vid=d8e4b89d-b577-4dec-93fb-246b584dea2a"},"vehicle_type_id":"4","last_reported":1750396315,"current_range_meters":8400,"station_id":"cki0cbj6b192h4jlfktg","pricing_plan_id":"cebpf4jnsgd1na2vs0mg"},{"bike_id":"56fdfc4e-979c-4ed5-9885-57018d76de79","system_id":"levelo_inurba_marseille","lat":43.29357,"lon":5.42821,"is_reserved":false,"is_disabled":false,"rental_uris":{"android":"levelo://app?vid=56fdfc4e-979c-4ed5-9885-57018d76de79","ios":"levelo://app?vid=56fdfc4e-979c-4ed5-9885-57018d76de79"},"vehicle_type_id":"4","last_reported":1750396315,"current_range_meters":8800,"station_id":"","pricing_plan_id":"cebpf4jnsgd1na2vs0mg"},{"bike_id":"dab7a91a-99af-4b64-a8c7-9441263f38ad","system_id":"levelo_inurba_marseille","lat":43.31117,"lon":5.37752,"is_reserved":false,"is_disabled":false,"rental_uris":{"android":"levelo://app?vid=dab7a91a-99af-4b64-a8c7-9441263f38ad","ios":"levelo://app?vid=dab7a91a-99af-4b64-a8c7-9441263f38ad"},"vehicle_type_id":"4","last_reported":1750396315,"current_range_meters":8800,"station_id":"ce4bgt92rcd13ifvqcg0","pricing_plan_id":"cebpf4jnsgd1na2vs0mg"},{"bike_id":"ccf3a128-d753-4adb-b4fb-7837d23aea46","system_id":"levelo_inurba_marseille","lat":43.30893,"lon":5.37197,"is_reserved":false,"is_disabled":false,"rental_uris":{"android":"levelo://app?vid=ccf3a128-d753-4adb-b4fb-7837d23aea46","ios":"levelo://app?vid=ccf3a128-d753-4adb-b4fb-7837d23aea46"},"vehicle_type_id":"4","last_reported":1750396315,"current_range_meters":8800,"station_id":"ce4bguh2rcd13ifvqckg","pricing_plan_id":"cebpf4jnsgd1na2vs0mg"},{"bike_id":"f025e0b0-8595-426c-b214-cb9b74c5fcfd","system_id":"levelo_inurba_marseille","lat":43.32205,"lon":5.40577,"is_reserved":false,"is_disabled":false,"rental_uris":{"android":"levelo://app?vid=f025e0b0-8595-426c-b214-cb9b74c5fcfd","ios":"levelo://app?vid=f025e0b0-8595-426c-b214-cb9b74c5fcfd"},"vehicle_type_id":"4","last_reported":1750396315,"current_range_meters":9200,"station_id":"","pricing_plan_id":"cebpf4jnsgd1na2vs0mg"},{"bike_id":"479ddb17-8603-46f7-9c90-c1ea01e38681","system_id":"levelo_inurba_marseille","lat":43.30651,"lon":5.4007,"is_reserved":false,"is_disabled":false,"rental_uris":{"android":"levelo://app?vid=479ddb17-8603-46f7-9c90-c1ea01e38681","ios":"levelo://app?vid=479ddb17-8603-46f7-9c90-c1ea01e38681"},"vehicle_type_id":"4","last_reported":1750396315,"current_range_meters":9200,"station_id":"ce4bh112rcd13ifvqda0","pricing_plan_id":"cebpf4jnsgd1na2vs0mg"},{"bike_id":"fc8a4500-8778-45a2-b50e-efbf94c2c4ef","system_id":"levelo_inurba_marseille","lat":43.285698,"lon":5.394988,"is_reserved":false,"is_disabled":false,"rental_uris":{"android":"levelo://app?vid=fc8a4500-8778-45a2-b50e-efbf94c2c4ef","ios":"levelo://app?vid=fc8a4500-8778-45a2-b50e-efbf94c2c4ef"},"vehicle_type_id":"4","last_reported":1750396315,"current_range_meters":9200,"station_id":"ce4bh292rcd13ifvqdg0","pricing_plan_id":"cebpf4jnsgd1na2vs0mg"},{"bike_id":"505943d8-4439-4cc9-bf5d-a5ee32d570c4","system_id":"levelo_inurba_marseille","lat":43.31072,"lon":5.383525,"is_reserved":false,"is_disabled":false,"rental_uris":{"android":"levelo://app?vid=505943d8-4439-4cc9-bf5d-a5ee32d570c4","ios":"levelo://app?vid=505943d8-4439-4cc9-bf5d-a5ee32d570c4"},"vehicle_type_id":"4","last_reported":1750396315,"current_range_meters":9600,"station_id":"ce4bgv92rcd13ifvqcr0","pricing_plan_id":"cebpf4jnsgd1na2vs0mg"},{"bike_id":"79b7f464-514d-4d06-8f9f-7945d52e6dad","system_id":"levelo_inurba_marseille","lat":43.312786,"lon":5.40177,"is_reserved":false,"is_disabled":false,"rental_uris":{"android":"levelo://app?vid=79b7f464-514d-4d06-8f9f-7945d52e6dad","ios":"levelo://app?vid=79b7f464-514d-4d06-8f9f-7945d52e6dad"},"vehicle_type_id":"4","last_reported":1750396315,"current_range_meters":9600,"station_id":"ce4bh092rcd13ifvqd30","pricing_plan_id":"cebpf4jnsgd1na2vs0mg"},{"bike_id":"c7b7da37-41bd-4aa7-8008-334647b5c293","system_id":"levelo_inurba_marseille","lat":43.3235,"lon":5.40636,"is_reserved":false,"is_disabled":false,"rental_uris":{"android":"levelo://app?vid=c7b7da37-41bd-4aa7-8008-334647b5c293","ios":"levelo://app?vid=c7b7da37-41bd-4aa7-8008-334647b5c293"},"vehicle_type_id":"4","last_reported":1750396315,"current_range_meters":9600,"station_id":"ce4bhq92rcd13ifvqhjg","pricing_plan_id":"cebpf4jnsgd1na2vs0mg"},{"bike_id":"a5c9d32b-628b-4bee-843e-5b37079a1bd2","system_id":"levelo_inurba_marseille","lat":43.30024,"lon":5.38869,"is_reserved":false,"is_disabled":false,"rental_uris":{"android":"levelo://app?vid=a5c9d32b-628b-4bee-843e-5b37079a1bd2","ios":"levelo://app?vid=a5c9d32b-628b-4bee-843e-5b37079a1bd2"},"vehicle_type_id":"4","last_reported":1750396315,"current_range_meters":10000,"station_id":"","pricing_plan_id":"cebpf4jnsgd1na2vs0mg"},{"bike_id":"1c8ec477-260f-492c-b064-d6a4601fabdd","system_id":"levelo_inurba_marseille","lat":43.29629,"lon":5.37724,"is_reserved":false,"is_disabled":false,"rental_uris":{"android":"levelo://app?vid=1c8ec477-260f-492c-b064-d6a4601fabdd","ios":"levelo://app?vid=1c8ec477-260f-492c-b064-d6a4601fabdd"},"vehicle_type_id":"4","last_reported":1750396315,"current_range_meters":10000,"station_id":"ce4bgi92rcd13ifvqb90","pricing_plan_id":"cebpf4jnsgd1na2vs0mg"},{"bike_id":"b0eb848a-f8d8-4316-a6f3-c2f7c60f0c9e","system_id":"levelo_inurba_marseille","lat":43.31122,"lon":5.37756,"is_reserved":false,"is_disabled":false,"rental_uris":{"android":"levelo://app?vid=b0eb848a-f8d8-4316-a6f3-c2f7c60f0c9e","ios":"levelo://app?vid=b0eb848a-f8d8-4316-a6f3-c2f7c60f0c9e"},"vehicle_type_id":"4","last_reported":1750396315,"current_range_meters":10000,"station_id":"ce4bgt92rcd13ifvqcg0","pricing_plan_id":"cebpf4jnsgd1na2vs0mg"},{"bike_id":"b2386fa3-cc60-46b3-bbec-9188eb9f4c26","system_id":"levelo_inurba_marseille","lat":43.30922,"lon":5.40149,"is_reserved":false,"is_disabled":false,"rental_uris":{"android":"levelo://app?vid=b2386fa3-cc60-46b3-bbec-9188eb9f4c26","ios":"levelo://app?vid=b2386fa3-cc60-46b3-bbec-9188eb9f4c26"},"vehicle_type_id":"4","last_reported":1750396315,"current_range_meters":10000,"station_id":"ce4bgvp2rcd13ifvqct0","pricing_plan_id":"cebpf4jnsgd1na2vs0mg"},{"bike_id":"652096af-58f0-4ece-a668-67ec15e57123","system_id":"levelo_inurba_marseille","lat":43.28349,"lon":5.38633,"is_reserved":false,"is_disabled":false,"rental_uris":{"android":"levelo://app?vid=652096af-58f0-4ece-a668-67ec15e57123","ios":"levelo://app?vid=652096af-58f0-4ece-a668-67ec15e57123"},"vehicle_type_id":"4","last_reported":1750396315,"current_range_meters":10000,"station_id":"ce4bh492rcd13ifvqdvg","pricing_plan_id":"cebpf4jnsgd1na2vs0mg"},{"bike_id":"df735c88-ae0a-4f8e-9723-d29eb27d80b9","system_id":"levelo_inurba_marseille","lat":43.29921,"lon":5.3765,"is_reserved":false,"is_disabled":false,"rental_uris":{"android":"levelo://app?vid=df735c88-ae0a-4f8e-9723-d29eb27d80b9","ios":"levelo://app?vid=df735c88-ae0a-4f8e-9723-d29eb27d80b9"},"vehicle_type_id":"4","last_reported":1750396315,"current_range_meters":10800,"station_id":"","pricing_plan_id":"cebpf4jnsgd1na2vs0mg"},{"bike_id":"8f3d49e8-ee3d-4f7c-8fcc-d58fd05db24d","system_id":"levelo_inurba_marseille","lat":43.30538,"lon":5.38419,"is_reserved":false,"is_disabled":false,"rental_uris":{"android":"levelo://app?vid=8f3d49e8-ee3d-4f7c-8fcc-d58fd05db24d","ios":"levelo://app?vid=8f3d49e8-ee3d-4f7c-8fcc-d58fd05db24d"},"vehicle_type_id":"4","last_reported":1750396315,"current_range_meters":10800,"station_id":"ce4bgg92rcd13ifvqb30","pricing_plan_id":"cebpf4jnsgd1na2vs0mg"},{"bike_id":"762419c8-032e-4e0a-a881-c1eaa3a7fcac","system_id":"levelo_inurba_marseille","lat":43.313352,"lon":5.397079,"is_reserved":false,"is_disabled":false,"rental_uris":{"android":"levelo://app?vid=762419c8-032e-4e0a-a881-c1eaa3a7fcac","ios":"levelo://app?vid=762419c8-032e-4e0a-a881-c1eaa3a7fcac"},"vehicle_type_id":"4","last_reported":1750396315,"current_range_meters":10800,"station_id":"ce4bgvp2rcd13ifvqcu0","pricing_plan_id":"cebpf4jnsgd1na2vs0mg"},{"bike_id":"5d3b828d-6cae-4f3f-81fd-66d90ebfa879","system_id":"levelo_inurba_marseille","lat":43.275535,"lon":5.384341,"is_reserved":false,"is_disabled":false,"rental_uris":{"android":"levelo://app?vid=5d3b828d-6cae-4f3f-81fd-66d90ebfa879","ios":"levelo://app?vid=5d3b828d-6cae-4f3f-81fd-66d90ebfa879"},"vehicle_type_id":"4","last_reported":1750396315,"current_range_meters":10800,"station_id":"ce4bhh92rcd13ifvqfi0","pricing_plan_id":"cebpf4jnsgd1na2vs0mg"},{"bike_id":"5b43db9d-b35a-477e-af1d-a0f3964d74db","system_id":"levelo_inurba_marseille","lat":43.3305,"lon":5.39078,"is_reserved":false,"is_disabled":false,"rental_uris":{"android":"levelo://app?vid=5b43db9d-b35a-477e-af1d-a0f3964d74db","ios":"levelo://app?vid=5b43db9d-b35a-477e-af1d-a0f3964d74db"},"vehicle_type_id":"4","last_reported":1750396315,"current_range_meters":10800,"station_id":"ce4bhr92rcd13ifvqhrg","pricing_plan_id":"cebpf4jnsgd1na2vs0mg"},{"bike_id":"f7d85a7e-7764-4bb9-8201-23213a11e7ea","system_id":"levelo_inurba_marseille","lat":43.267306,"lon":5.392048,"is_reserved":false,"is_disabled":false,"rental_uris":{"android":"levelo://app?vid=f7d85a7e-7764-4bb9-8201-23213a11e7ea","ios":"levelo://app?vid=f7d85a7e-7764-4bb9-8201-23213a11e7ea"},"vehicle_type_id":"4","last_reported":1750396315,"current_range_meters":11200,"station_id":"","pricing_plan_id":"cebpf4jnsgd1na2vs0mg"},{"bike_id":"d9b2950a-cd4b-488f-8f1a-b2421b953666","system_id":"levelo_inurba_marseille","lat":43.31496,"lon":5.39225,"is_reserved":false,"is_disabled":false,"rental_uris":{"android":"levelo://app?vid=d9b2950a-cd4b-488f-8f1a-b2421b953666","ios":"levelo://app?vid=d9b2950a-cd4b-488f-8f1a-b2421b953666"},"vehicle_type_id":"4","last_reported":1750396315,"current_range_meters":11200,"station_id":"","pricing_plan_id":"cebpf4jnsgd1na2vs0mg"},{"bike_id":"d12874b3-02ea-4409-a12a-99cbcc280260","system_id":"levelo_inurba_marseille","lat":43.30156,"lon":5.38072,"is_reserved":false,"is_disabled":false,"rental_uris":{"android":"levelo://app?vid=d12874b3-02ea-4409-a12a-99cbcc280260","ios":"levelo://app?vid=d12874b3-02ea-4409-a12a-99cbcc280260"},"vehicle_type_id":"4","last_reported":1750396315,"current_range_meters":11200,"station_id":"ce4bgjp2rcd13ifvqbh0","pricing_plan_id":"cebpf4jnsgd1na2vs0mg"},{"bike_id":"eb429dd9-13c6-4ee9-9e84-5b259b38c6ff","system_id":"levelo_inurba_marseille","lat":43.3065,"lon":5.40051,"is_reserved":false,"is_disabled":false,"rental_uris":{"android":"levelo://app?vid=eb429dd9-13c6-4ee9-9e84-5b259b38c6ff","ios":"levelo://app?vid=eb429dd9-13c6-4ee9-9e84-5b259b38c6ff"},"vehicle_type_id":"4","last_reported":1750396315,"current_range_meters":11200,"station_id":"ce4bh112rcd13ifvqda0","pricing_plan_id":"cebpf4jnsgd1na2vs0mg"},{"bike_id":"a7f124d4-d675-4f7f-a209-7e0c316a8969","system_id":"levelo_inurba_marseille","lat":43.28686,"lon":5.38655,"is_reserved":false,"is_disabled":false,"rental_uris":{"android":"levelo://app?vid=a7f124d4-d675-4f7f-a209-7e0c316a8969","ios":"levelo://app?vid=a7f124d4-d675-4f7f-a209-7e0c316a8969"},"vehicle_type_id":"4","last_reported":1750396315,"current_range_meters":11200,"station_id":"ce4bh492rcd13ifvqdug","pricing_plan_id":"cebpf4jnsgd1na2vs0mg"},{"bike_id":"23164ea7-f10f-412e-a0de-db806c5e2185","system_id":"levelo_inurba_marseille","lat":43.317027,"lon":5.437185,"is_reserved":false,"is_disabled":false,"rental_uris":{"android":"levelo://app?vid=23164ea7-f10f-412e-a0de-db806c5e2185","ios":"levelo://app?vid=23164ea7-f10f-412e-a0de-db806c5e2185"},"vehicle_type_id":"4","last_reported":1750396315,"current_range_meters":11200,"station_id":"ce4bhp92rcd13ifvqhcg","pricing_plan_id":"cebpf4jnsgd1na2vs0mg"},{"bike_id":"d976c5ad-5171-47e3-9a04-4cedcf058ed1","system_id":"levelo_inurba_marseille","lat":43.309037,"lon":5.371923,"is_reserved":false,"is_disabled":false,"rental_uris":{"android":"levelo://app?vid=d976c5ad-5171-47e3-9a04-4cedcf058ed1","ios":"levelo://app?vid=d976c5ad-5171-47e3-9a04-4cedcf058ed1"},"vehicle_type_id":"4","last_reported":1750396315,"current_range_meters":11600,"station_id":"ce4bguh2rcd13ifvqckg","pricing_plan_id":"cebpf4jnsgd1na2vs0mg"},{"bike_id":"309e9578-aa44-4452-b03b-f955fdf35329","system_id":"levelo_inurba_marseille","lat":43.29529,"lon":5.39058,"is_reserved":false,"is_disabled":false,"rental_uris":{"android":"levelo://app?vid=309e9578-aa44-4452-b03b-f955fdf35329","ios":"levelo://app?vid=309e9578-aa44-4452-b03b-f955fdf35329"},"vehicle_type_id":"4","last_reported":1750396315,"current_range_meters":11600,"station_id":"ce4bh3p2rcd13ifvqdp0","pricing_plan_id":"cebpf4jnsgd1na2vs0mg"},{"bike_id":"9cd1ef92-443d-46cd-9b30-c2c76057b49e","system_id":"levelo_inurba_marseille","lat":43.28708,"lon":5.39978,"is_reserved":false,"is_disabled":false,"rental_uris":{"android":"levelo://app?vid=9cd1ef92-443d-46cd-9b30-c2c76057b49e","ios":"levelo://app?vid=9cd1ef92-443d-46cd-9b30-c2c76057b49e"},"vehicle_type_id":"4","last_reported":1750396315,"current_range_meters":11600,"station_id":"ce4bho92rcd13ifvqh3g","pricing_plan_id":"cebpf4jnsgd1na2vs0mg"},{"bike_id":"57452e76-494f-4de7-8664-8d06979c1b6f","system_id":"levelo_inurba_marseille","lat":43.29107,"lon":5.42782,"is_reserved":false,"is_disabled":false,"rental_uris":{"android":"levelo://app?vid=57452e76-494f-4de7-8664-8d06979c1b6f","ios":"levelo://app?vid=57452e76-494f-4de7-8664-8d06979c1b6f"},"vehicle_type_id":"4","last_reported":1750396315,"current_range_meters":12000,"station_id":"","pricing_plan_id":"cebpf4jnsgd1na2vs0mg"},{"bike_id":"60563cbb-9061-4006-8e41-2def95d43c6c","system_id":"levelo_inurba_marseille","lat":43.31357,"lon":5.38648,"is_reserved":false,"is_disabled":false,"rental_uris":{"android":"levelo://app?vid=60563cbb-9061-4006-8e41-2def95d43c6c","ios":"levelo://app?vid=60563cbb-9061-4006-8e41-2def95d43c6c"},"vehicle_type_id":"4","last_reported":1750396315,"current_range_meters":12000,"station_id":"","pricing_plan_id":"cebpf4jnsgd1na2vs0mg"},{"bike_id":"110bdd0a-f929-49ec-8b15-115649dfecdd","system_id":"levelo_inurba_marseille","lat":43.30666,"lon":5.4006,"is_reserved":false,"is_disabled":false,"rental_uris":{"android":"levelo://app?vid=110bdd0a-f929-49ec-8b15-115649dfecdd","ios":"levelo://app?vid=110bdd0a-f929-49ec-8b15-115649dfecdd"},"vehicle_type_id":"4","last_reported":1750396315,"current_range_meters":12000,"station_id":"ce4bh112rcd13ifvqda0","pricing_plan_id":"cebpf4jnsgd1na2vs0mg"},{"bike_id":"eac6242c-4acc-494b-9f05-deb600f9260b","system_id":"levelo_inurba_marseille","lat":43.26955,"lon":5.38624,"is_reserved":false,"is_disabled":false,"rental_uris":{"android":"levelo://app?vid=eac6242c-4acc-494b-9f05-deb600f9260b","ios":"levelo://app?vid=eac6242c-4acc-494b-9f05-deb600f9260b"},"vehicle_type_id":"4","last_reported":1750396315,"current_range_meters":12000,"station_id":"ce4bhh92rcd13ifvqfh0","pricing_plan_id":"cebpf4jnsgd1na2vs0mg"},{"bike_id":"47bf54a2-302b-4c72-94af-cf84f256696a","system_id":"levelo_inurba_marseille","lat":43.24065,"lon":5.37762,"is_reserved":false,"is_disabled":false,"rental_uris":{"android":"levelo://app?vid=47bf54a2-302b-4c72-94af-cf84f256696a","ios":"levelo://app?vid=47bf54a2-302b-4c72-94af-cf84f256696a"},"vehicle_type_id":"4","last_reported":1750396315,"current_range_meters":12000,"station_id":"ce4bhnp2rcd13ifvqgvg","pricing_plan_id":"cebpf4jnsgd1na2vs0mg"},{"bike_id":"f7574965-0667-4f3b-90e2-276750d028f1","system_id":"levelo_inurba_marseille","lat":43.330954,"lon":5.382435,"is_reserved":false,"is_disabled":false,"rental_uris":{"android":"levelo://app?vid=f7574965-0667-4f3b-90e2-276750d028f1","ios":"levelo://app?vid=f7574965-0667-4f3b-90e2-276750d028f1"},"vehicle_type_id":"4","last_reported":1750396315,"current_range_meters":12400,"station_id":"","pricing_plan_id":"cebpf4jnsgd1na2vs0mg"},{"bike_id":"bd2e3db0-15ce-44ad-9ac2-515a135d6c18","system_id":"levelo_inurba_marseille","lat":43.3014,"lon":5.39873,"is_reserved":false,"is_disabled":false,"rental_uris":{"android":"levelo://app?vid=bd2e3db0-15ce-44ad-9ac2-515a135d6c18","ios":"levelo://app?vid=bd2e3db0-15ce-44ad-9ac2-515a135d6c18"},"vehicle_type_id":"4","last_reported":1750396315,"current_range_meters":12800,"station_id":"ce4bh0h2rcd13ifvqd40","pricing_plan_id":"cebpf4jnsgd1na2vs0mg"},{"bike_id":"6742a001-79fa-4bf2-8273-4c9ed70436de","system_id":"levelo_inurba_marseille","lat":43.27069,"lon":5.42277,"is_reserved":false,"is_disabled":false,"rental_uris":{"android":"levelo://app?vid=6742a001-79fa-4bf2-8273-4c9ed70436de","ios":"levelo://app?vid=6742a001-79fa-4bf2-8273-4c9ed70436de"},"vehicle_type_id":"4","last_reported":1750396315,"current_range_meters":12800,"station_id":"ce4bhk92rcd13ifvqgb0","pricing_plan_id":"cebpf4jnsgd1na2vs0mg"},{"bike_id":"61f0109e-5b5f-4685-a66f-5c667ee5e2a0","system_id":"levelo_inurba_marseille","lat":43.307848,"lon":5.381528,"is_reserved":false,"is_disabled":false,"rental_uris":{"android":"levelo://app?vid=61f0109e-5b5f-4685-a66f-5c667ee5e2a0","ios":"levelo://app?vid=61f0109e-5b5f-4685-a66f-5c667ee5e2a0"},"vehicle_type_id":"4","last_reported":1750396315,"current_range_meters":13600,"station_id":"ce4bgt12rcd13ifvqce0","pricing_plan_id":"cebpf4jnsgd1na2vs0mg"},{"bike_id":"f8905997-0681-4b59-95f2-491634f253fe","system_id":"levelo_inurba_marseille","lat":43.28106,"lon":5.3784,"is_reserved":false,"is_disabled":false,"rental_uris":{"android":"levelo://app?vid=f8905997-0681-4b59-95f2-491634f253fe","ios":"levelo://app?vid=f8905997-0681-4b59-95f2-491634f253fe"},"vehicle_type_id":"4","last_reported":1750396315,"current_range_meters":13600,"station_id":"ce4bha12rcd13ifvqee0","pricing_plan_id":"cebpf4jnsgd1na2vs0mg"},{"bike_id":"4a271093-b69b-4ea1-904d-7fa3f8abecd6","system_id":"levelo_inurba_marseille","lat":43.3232,"lon":5.40588,"is_reserved":false,"is_disabled":false,"rental_uris":{"android":"levelo://app?vid=4a271093-b69b-4ea1-904d-7fa3f8abecd6","ios":"levelo://app?vid=4a271093-b69b-4ea1-904d-7fa3f8abecd6"},"vehicle_type_id":"4","last_reported":1750396315,"current_range_meters":13600,"station_id":"ce4bhq92rcd13ifvqhjg","pricing_plan_id":"cebpf4jnsgd1na2vs0mg"},{"bike_id":"677107d7-600e-47ab-bf1f-3663373dae58","system_id":"levelo_inurba_marseille","lat":43.29568,"lon":5.39963,"is_reserved":false,"is_disabled":false,"rental_uris":{"android":"levelo://app?vid=677107d7-600e-47ab-bf1f-3663373dae58","ios":"levelo://app?vid=677107d7-600e-47ab-bf1f-3663373dae58"},"vehicle_type_id":"4","last_reported":1750396315,"current_range_meters":14000,"station_id":"ce4bh312rcd13ifvqdj0","pricing_plan_id":"cebpf4jnsgd1na2vs0mg"},{"bike_id":"649dca85-5746-4c0d-af0c-0a8803c8878a","system_id":"levelo_inurba_marseille","lat":43.27057,"lon":5.40267,"is_reserved":false,"is_disabled":false,"rental_uris":{"android":"levelo://app?vid=649dca85-5746-4c0d-af0c-0a8803c8878a","ios":"levelo://app?vid=649dca85-5746-4c0d-af0c-0a8803c8878a"},"vehicle_type_id":"4","last_reported":1750396315,"current_range_meters":14000,"station_id":"ce4bhk92rcd13ifvqgc0","pricing_plan_id":"cebpf4jnsgd1na2vs0mg"},{"bike_id":"cfcc63e5-33ec-4229-a7bf-4d1c7311a7b9","system_id":"levelo_inurba_marseille","lat":43.29908,"lon":5.43662,"is_reserved":false,"is_disabled":false,"rental_uris":{"android":"levelo://app?vid=cfcc63e5-33ec-4229-a7bf-4d1c7311a7b9","ios":"levelo://app?vid=cfcc63e5-33ec-4229-a7bf-4d1c7311a7b9"},"vehicle_type_id":"4","last_reported":1750396315,"current_range_meters":14000,"station_id":"ce4bhpp2rcd13ifvqhfg","pricing_plan_id":"cebpf4jnsgd1na2vs0mg"},{"bike_id":"199c2831-e081-4bc0-9b94-19503817091d","system_id":"levelo_inurba_marseille","lat":43.24892,"lon":5.4068,"is_reserved":false,"is_disabled":false,"rental_uris":{"android":"levelo://app?vid=199c2831-e081-4bc0-9b94-19503817091d","ios":"levelo://app?vid=199c2831-e081-4bc0-9b94-19503817091d"},"vehicle_type_id":"4","last_reported":1750396315,"current_range_meters":14400,"station_id":"","pricing_plan_id":"cebpf4jnsgd1na2vs0mg"},{"bike_id":"e406a19b-ea65-4308-93d3-43a06d68463a","system_id":"levelo_inurba_marseille","lat":43.31322,"lon":5.366686,"is_reserved":false,"is_disabled":false,"rental_uris":{"android":"levelo://app?vid=e406a19b-ea65-4308-93d3-43a06d68463a","ios":"levelo://app?vid=e406a19b-ea65-4308-93d3-43a06d68463a"},"vehicle_type_id":"4","last_reported":1750396315,"current_range_meters":14800,"station_id":"ce4bgr92rcd13ifvqc6g","pricing_plan_id":"cebpf4jnsgd1na2vs0mg"},{"bike_id":"5005bcb3-d352-49ed-a572-f06596c66a2e","system_id":"levelo_inurba_marseille","lat":43.31123,"lon":5.37756,"is_reserved":false,"is_disabled":false,"rental_uris":{"android":"levelo://app?vid=5005bcb3-d352-49ed-a572-f06596c66a2e","ios":"levelo://app?vid=5005bcb3-d352-49ed-a572-f06596c66a2e"},"vehicle_type_id":"4","last_reported":1750396315,"current_range_meters":14800,"station_id":"ce4bgt92rcd13ifvqcg0","pricing_plan_id":"cebpf4jnsgd1na2vs0mg"},{"bike_id":"59d39ccb-de8c-4723-8105-b2aa24d2605f","system_id":"levelo_inurba_marseille","lat":43.33739,"lon":5.3918,"is_reserved":false,"is_disabled":false,"rental_uris":{"android":"levelo://app?vid=59d39ccb-de8c-4723-8105-b2aa24d2605f","ios":"levelo://app?vid=59d39ccb-de8c-4723-8105-b2aa24d2605f"},"vehicle_type_id":"4","last_reported":1750396315,"current_range_meters":14800,"station_id":"ce4bhr92rcd13ifvqhsg","pricing_plan_id":"cebpf4jnsgd1na2vs0mg"},{"bike_id":"0708cf38-7a7f-4f4d-a4c6-7778c58c5a3c","system_id":"levelo_inurba_marseille","lat":43.283139,"lon":5.411021,"is_reserved":false,"is_disabled":false,"rental_uris":{"android":"levelo://app?vid=0708cf38-7a7f-4f4d-a4c6-7778c58c5a3c","ios":"levelo://app?vid=0708cf38-7a7f-4f4d-a4c6-7778c58c5a3c"},"vehicle_type_id":"4","last_reported":1750396315,"current_range_meters":15200,"station_id":"","pricing_plan_id":"cebpf4jnsgd1na2vs0mg"},{"bike_id":"efe79985-c7d4-439c-9a96-4a9eb763b390","system_id":"levelo_inurba_marseille","lat":43.33418,"lon":5.40077,"is_reserved":false,"is_disabled":false,"rental_uris":{"android":"levelo://app?vid=efe79985-c7d4-439c-9a96-4a9eb763b390","ios":"levelo://app?vid=efe79985-c7d4-439c-9a96-4a9eb763b390"},"vehicle_type_id":"4","last_reported":1750396315,"current_range_meters":15200,"station_id":"","pricing_plan_id":"cebpf4jnsgd1na2vs0mg"},{"bike_id":"c7a83f03-dac2-4117-a93e-084f50699cff","system_id":"levelo_inurba_marseille","lat":43.21194,"lon":5.350739,"is_reserved":false,"is_disabled":false,"rental_uris":{"android":"levelo://app?vid=c7a83f03-dac2-4117-a93e-084f50699cff","ios":"levelo://app?vid=c7a83f03-dac2-4117-a93e-084f50699cff"},"vehicle_type_id":"4","last_reported":1750396315,"current_range_meters":16000,"station_id":"st_cvj6sg6p6f1abm77japg","pricing_plan_id":"cebpf4jnsgd1na2vs0mg"},{"bike_id":"f30123e7-96d3-442d-9d01-6c98dc61e7c8","system_id":"levelo_inurba_marseille","lat":43.29811,"lon":5.36842,"is_reserved":false,"is_disabled":false,"rental_uris":{"android":"levelo://app?vid=f30123e7-96d3-442d-9d01-6c98dc61e7c8","ios":"levelo://app?vid=f30123e7-96d3-442d-9d01-6c98dc61e7c8"},"vehicle_type_id":"4","last_reported":1750396315,"current_range_meters":16400,"station_id":"","pricing_plan_id":"cebpf4jnsgd1na2vs0mg"},{"bike_id":"7fb8f777-502e-4027-8e9f-d463bb7373be","system_id":"levelo_inurba_marseille","lat":43.29663,"lon":5.38015,"is_reserved":false,"is_disabled":false,"rental_uris":{"android":"levelo://app?vid=7fb8f777-502e-4027-8e9f-d463bb7373be","ios":"levelo://app?vid=7fb8f777-502e-4027-8e9f-d463bb7373be"},"vehicle_type_id":"4","last_reported":1750396315,"current_range_meters":16400,"station_id":"","pricing_plan_id":"cebpf4jnsgd1na2vs0mg"},{"bike_id":"7d7204ca-6495-4bac-9321-ff74d8baa9c2","system_id":"levelo_inurba_marseille","lat":43.27974,"lon":5.38738,"is_reserved":false,"is_disabled":false,"rental_uris":{"android":"levelo://app?vid=7d7204ca-6495-4bac-9321-ff74d8baa9c2","ios":"levelo://app?vid=7d7204ca-6495-4bac-9321-ff74d8baa9c2"},"vehicle_type_id":"4","last_reported":1750396315,"current_range_meters":16400,"station_id":"ce4bhg12rcd13ifvqf80","pricing_plan_id":"cebpf4jnsgd1na2vs0mg"},{"bike_id":"0fd73e2b-f74f-4858-81f9-ac141d0fa408","system_id":"levelo_inurba_marseille","lat":43.27847,"lon":5.39235,"is_reserved":false,"is_disabled":false,"rental_uris":{"android":"levelo://app?vid=0fd73e2b-f74f-4858-81f9-ac141d0fa408","ios":"levelo://app?vid=0fd73e2b-f74f-4858-81f9-ac141d0fa408"},"vehicle_type_id":"4","last_reported":1750396315,"current_range_meters":16400,"station_id":"ce4bhjp2rcd13ifvqga0","pricing_plan_id":"cebpf4jnsgd1na2vs0mg"},{"bike_id":"a19f7c27-1733-4b8c-8e80-26f31b64c7e6","system_id":"levelo_inurba_marseille","lat":43.30371,"lon":5.42478,"is_reserved":false,"is_disabled":false,"rental_uris":{"android":"levelo://app?vid=a19f7c27-1733-4b8c-8e80-26f31b64c7e6","ios":"levelo://app?vid=a19f7c27-1733-4b8c-8e80-26f31b64c7e6"},"vehicle_type_id":"4","last_reported":1750396315,"current_range_meters":16400,"station_id":"ce4bhoh2rcd13ifvqh6g","pricing_plan_id":"cebpf4jnsgd1na2vs0mg"},{"bike_id":"39ef9621-abc8-4224-9c70-d4b1653baf36","system_id":"levelo_inurba_marseille","lat":43.211909,"lon":5.350711,"is_reserved":false,"is_disabled":false,"rental_uris":{"android":"levelo://app?vid=39ef9621-abc8-4224-9c70-d4b1653baf36","ios":"levelo://app?vid=39ef9621-abc8-4224-9c70-d4b1653baf36"},"vehicle_type_id":"4","last_reported":1750396315,"current_range_meters":16400,"station_id":"st_cvj6sg6p6f1abm77japg","pricing_plan_id":"cebpf4jnsgd1na2vs0mg"},{"bike_id":"ca6842d6-6a08-4dae-b545-a4aefc25764b","system_id":"levelo_inurba_marseille","lat":43.3031,"lon":5.38897,"is_reserved":false,"is_disabled":false,"rental_uris":{"android":"levelo://app?vid=ca6842d6-6a08-4dae-b545-a4aefc25764b","ios":"levelo://app?vid=ca6842d6-6a08-4dae-b545-a4aefc25764b"},"vehicle_type_id":"4","last_reported":1750396315,"current_range_meters":16800,"station_id":"","pricing_plan_id":"cebpf4jnsgd1na2vs0mg"},{"bike_id":"aeb9c9c5-9d48-417a-b230-66423e1acdf6","system_id":"levelo_inurba_marseille","lat":43.311646,"lon":5.387245,"is_reserved":false,"is_disabled":false,"rental_uris":{"android":"levelo://app?vid=aeb9c9c5-9d48-417a-b230-66423e1acdf6","ios":"levelo://app?vid=aeb9c9c5-9d48-417a-b230-66423e1acdf6"},"vehicle_type_id":"4","last_reported":1750396315,"current_range_meters":16800,"station_id":"ce4bgv12rcd13ifvqcp0","pricing_plan_id":"cebpf4jnsgd1na2vs0mg"},{"bike_id":"1783240e-6c77-4f9c-9db2-46a95aba8868","system_id":"levelo_inurba_marseille","lat":43.29284,"lon":5.40113,"is_reserved":false,"is_disabled":false,"rental_uris":{"android":"levelo://app?vid=1783240e-6c77-4f9c-9db2-46a95aba8868","ios":"levelo://app?vid=1783240e-6c77-4f9c-9db2-46a95aba8868"},"vehicle_type_id":"4","last_reported":1750396315,"current_range_meters":16800,"station_id":"ce4bh312rcd13ifvqdk0","pricing_plan_id":"cebpf4jnsgd1na2vs0mg"},{"bike_id":"d07f9ea6-ad7e-4d22-b2da-949347136a3e","system_id":"levelo_inurba_marseille","lat":43.24392,"lon":5.37065,"is_reserved":false,"is_disabled":false,"rental_uris":{"android":"levelo://app?vid=d07f9ea6-ad7e-4d22-b2da-949347136a3e","ios":"levelo://app?vid=d07f9ea6-ad7e-4d22-b2da-949347136a3e"},"vehicle_type_id":"4","last_reported":1750396315,"current_range_meters":16800,"station_id":"ce4bhhh2rcd13ifvqfk0","pricing_plan_id":"cebpf4jnsgd1na2vs0mg"},{"bike_id":"dc540ba2-fb63-45eb-b83a-1826fb3d30b7","system_id":"levelo_inurba_marseille","lat":43.24615,"lon":5.39264,"is_reserved":false,"is_disabled":false,"rental_uris":{"android":"levelo://app?vid=dc540ba2-fb63-45eb-b83a-1826fb3d30b7","ios":"levelo://app?vid=dc540ba2-fb63-45eb-b83a-1826fb3d30b7"},"vehicle_type_id":"4","last_reported":1750396315,"current_range_meters":17200,"station_id":"","pricing_plan_id":"cebpf4jnsgd1na2vs0mg"},{"bike_id":"f11089ff-5afe-47ee-9742-e6213b978cc8","system_id":"levelo_inurba_marseille","lat":43.30287,"lon":5.39255,"is_reserved":false,"is_disabled":false,"rental_uris":{"android":"levelo://app?vid=f11089ff-5afe-47ee-9742-e6213b978cc8","ios":"levelo://app?vid=f11089ff-5afe-47ee-9742-e6213b978cc8"},"vehicle_type_id":"4","last_reported":1750396315,"current_range_meters":17200,"station_id":"ce4bgkh2rcd13ifvqbk0","pricing_plan_id":"cebpf4jnsgd1na2vs0mg"},{"bike_id":"8ef11a45-504d-45b0-a2b5-97fef9594218","system_id":"levelo_inurba_marseille","lat":43.295539,"lon":5.38147,"is_reserved":false,"is_disabled":false,"rental_uris":{"android":"levelo://app?vid=8ef11a45-504d-45b0-a2b5-97fef9594218","ios":"levelo://app?vid=8ef11a45-504d-45b0-a2b5-97fef9594218"},"vehicle_type_id":"4","last_reported":1750396315,"current_range_meters":17200,"station_id":"ce4bgl12rcd13ifvqbo0","pricing_plan_id":"cebpf4jnsgd1na2vs0mg"},{"bike_id":"13d80fba-4e77-4199-b0f1-9160fd62944c","system_id":"levelo_inurba_marseille","lat":43.24675,"lon":5.38145,"is_reserved":false,"is_disabled":false,"rental_uris":{"android":"levelo://app?vid=13d80fba-4e77-4199-b0f1-9160fd62944c","ios":"levelo://app?vid=13d80fba-4e77-4199-b0f1-9160fd62944c"},"vehicle_type_id":"4","last_reported":1750396315,"current_range_meters":17200,"station_id":"ce4bhih2rcd13ifvqfr0","pricing_plan_id":"cebpf4jnsgd1na2vs0mg"},{"bike_id":"664c8cc7-359e-42c4-8c8d-2cdd200922fd","system_id":"levelo_inurba_marseille","lat":43.240701,"lon":5.377601,"is_reserved":false,"is_disabled":false,"rental_uris":{"android":"levelo://app?vid=664c8cc7-359e-42c4-8c8d-2cdd200922fd","ios":"levelo://app?vid=664c8cc7-359e-42c4-8c8d-2cdd200922fd"},"vehicle_type_id":"4","last_reported":1750396315,"current_range_meters":17200,"station_id":"ce4bhnp2rcd13ifvqgvg","pricing_plan_id":"cebpf4jnsgd1na2vs0mg"},{"bike_id":"e22c0377-1f6d-4faf-b2b3-3701e84eedcf","system_id":"levelo_inurba_marseille","lat":43.2871,"lon":5.39983,"is_reserved":false,"is_disabled":false,"rental_uris":{"android":"levelo://app?vid=e22c0377-1f6d-4faf-b2b3-3701e84eedcf","ios":"levelo://app?vid=e22c0377-1f6d-4faf-b2b3-3701e84eedcf"},"vehicle_type_id":"4","last_reported":1750396315,"current_range_meters":17200,"station_id":"ce4bho92rcd13ifvqh3g","pricing_plan_id":"cebpf4jnsgd1na2vs0mg"},{"bike_id":"d40af265-11b5-43a6-9bb6-f910f57901ba","system_id":"levelo_inurba_marseille","lat":43.32917,"lon":5.38015,"is_reserved":false,"is_disabled":false,"rental_uris":{"android":"levelo://app?vid=d40af265-11b5-43a6-9bb6-f910f57901ba","ios":"levelo://app?vid=d40af265-11b5-43a6-9bb6-f910f57901ba"},"vehicle_type_id":"4","last_reported":1750396315,"current_range_meters":17600,"station_id":"","pricing_plan_id":"cebpf4jnsgd1na2vs0mg"},{"bike_id":"b999c313-d6eb-46a2-b611-aedbb042c63f","system_id":"levelo_inurba_marseille","lat":43.28118,"lon":5.44064,"is_reserved":false,"is_disabled":false,"rental_uris":{"android":"levelo://app?vid=b999c313-d6eb-46a2-b611-aedbb042c63f","ios":"levelo://app?vid=b999c313-d6eb-46a2-b611-aedbb042c63f"},"vehicle_type_id":"4","last_reported":1750396315,"current_range_meters":17600,"station_id":"","pricing_plan_id":"cebpf4jnsgd1na2vs0mg"},{"bike_id":"8e0cab98-7fd9-4048-a5d5-42e156688643","system_id":"levelo_inurba_marseille","lat":43.28723,"lon":5.3996,"is_reserved":false,"is_disabled":false,"rental_uris":{"android":"levelo://app?vid=8e0cab98-7fd9-4048-a5d5-42e156688643","ios":"levelo://app?vid=8e0cab98-7fd9-4048-a5d5-42e156688643"},"vehicle_type_id":"4","last_reported":1750396315,"current_range_meters":17600,"station_id":"ce4bho92rcd13ifvqh3g","pricing_plan_id":"cebpf4jnsgd1na2vs0mg"},{"bike_id":"e904481c-c075-4235-ab4b-c7d3ddbe3194","system_id":"levelo_inurba_marseille","lat":43.293304,"lon":5.370808,"is_reserved":false,"is_disabled":false,"rental_uris":{"android":"levelo://app?vid=e904481c-c075-4235-ab4b-c7d3ddbe3194","ios":"levelo://app?vid=e904481c-c075-4235-ab4b-c7d3ddbe3194"},"vehicle_type_id":"4","last_reported":1750396315,"current_range_meters":18000,"station_id":"","pricing_plan_id":"cebpf4jnsgd1na2vs0mg"},{"bike_id":"a22aa312-0025-4f42-88e2-b1e95e79340f","system_id":"levelo_inurba_marseille","lat":43.31693,"lon":5.384138,"is_reserved":false,"is_disabled":false,"rental_uris":{"android":"levelo://app?vid=a22aa312-0025-4f42-88e2-b1e95e79340f","ios":"levelo://app?vid=a22aa312-0025-4f42-88e2-b1e95e79340f"},"vehicle_type_id":"4","last_reported":1750396315,"current_range_meters":18000,"station_id":"","pricing_plan_id":"cebpf4jnsgd1na2vs0mg"},{"bike_id":"37997bb4-2eac-4f61-a5ce-ce36e4df276f","system_id":"levelo_inurba_marseille","lat":43.30529,"lon":5.38428,"is_reserved":false,"is_disabled":false,"rental_uris":{"android":"levelo://app?vid=37997bb4-2eac-4f61-a5ce-ce36e4df276f","ios":"levelo://app?vid=37997bb4-2eac-4f61-a5ce-ce36e4df276f"},"vehicle_type_id":"4","last_reported":1750396315,"current_range_meters":18000,"station_id":"ce4bgg92rcd13ifvqb30","pricing_plan_id":"cebpf4jnsgd1na2vs0mg"},{"bike_id":"6e5afbe5-82db-49b7-86a1-299dde7a3986","system_id":"levelo_inurba_marseille","lat":43.30303,"lon":5.36894,"is_reserved":false,"is_disabled":false,"rental_uris":{"android":"levelo://app?vid=6e5afbe5-82db-49b7-86a1-299dde7a3986","ios":"levelo://app?vid=6e5afbe5-82db-49b7-86a1-299dde7a3986"},"vehicle_type_id":"4","last_reported":1750396315,"current_range_meters":18000,"station_id":"ce4bgqh2rcd13ifvqc5g","pricing_plan_id":"cebpf4jnsgd1na2vs0mg"},{"bike_id":"bbdc68e1-95df-4ad7-9808-032632d7ec0d","system_id":"levelo_inurba_marseille","lat":43.28715,"lon":5.3738,"is_reserved":false,"is_disabled":false,"rental_uris":{"android":"levelo://app?vid=bbdc68e1-95df-4ad7-9808-032632d7ec0d","ios":"levelo://app?vid=bbdc68e1-95df-4ad7-9808-032632d7ec0d"},"vehicle_type_id":"4","last_reported":1750396315,"current_range_meters":18000,"station_id":"ce4bh3p2rcd13ifvqdq0","pricing_plan_id":"cebpf4jnsgd1na2vs0mg"},{"bike_id":"bd27fe72-6fbc-453f-8b77-bee10ab3b13c","system_id":"levelo_inurba_marseille","lat":43.2952,"lon":5.4233,"is_reserved":false,"is_disabled":false,"rental_uris":{"android":"levelo://app?vid=bd27fe72-6fbc-453f-8b77-bee10ab3b13c","ios":"levelo://app?vid=bd27fe72-6fbc-453f-8b77-bee10ab3b13c"},"vehicle_type_id":"4","last_reported":1750396315,"current_range_meters":18000,"station_id":"ce4bhph2rcd13ifvqhdg","pricing_plan_id":"cebpf4jnsgd1na2vs0mg"},{"bike_id":"86ee09af-7fe2-4c93-8a5f-82ada7fd10ee","system_id":"levelo_inurba_marseille","lat":43.31005,"lon":5.37938,"is_reserved":false,"is_disabled":false,"rental_uris":{"android":"levelo://app?vid=86ee09af-7fe2-4c93-8a5f-82ada7fd10ee","ios":"levelo://app?vid=86ee09af-7fe2-4c93-8a5f-82ada7fd10ee"},"vehicle_type_id":"4","last_reported":1750396315,"current_range_meters":18800,"station_id":"","pricing_plan_id":"cebpf4jnsgd1na2vs0mg"},{"bike_id":"04e6c675-cf73-4733-ad92-003e7bd5ccf1","system_id":"levelo_inurba_marseille","lat":43.30466,"lon":5.37894,"is_reserved":false,"is_disabled":false,"rental_uris":{"android":"levelo://app?vid=04e6c675-cf73-4733-ad92-003e7bd5ccf1","ios":"levelo://app?vid=04e6c675-cf73-4733-ad92-003e7bd5ccf1"},"vehicle_type_id":"4","last_reported":1750396315,"current_range_meters":18800,"station_id":"ce4bgup2rcd13ifvqcn0","pricing_plan_id":"cebpf4jnsgd1na2vs0mg"},{"bike_id":"7d211d91-f85a-4fc7-8633-4337ab7a3224","system_id":"levelo_inurba_marseille","lat":43.30906,"lon":5.39135,"is_reserved":false,"is_disabled":false,"rental_uris":{"android":"levelo://app?vid=7d211d91-f85a-4fc7-8633-4337ab7a3224","ios":"levelo://app?vid=7d211d91-f85a-4fc7-8633-4337ab7a3224"},"vehicle_type_id":"4","last_reported":1750396315,"current_range_meters":18800,"station_id":"ce4bgup2rcd13ifvqco0","pricing_plan_id":"cebpf4jnsgd1na2vs0mg"},{"bike_id":"9fa3e785-e49f-4038-b61f-8432b87a1b85","system_id":"levelo_inurba_marseille","lat":43.28846,"lon":5.39337,"is_reserved":false,"is_disabled":false,"rental_uris":{"android":"levelo://app?vid=9fa3e785-e49f-4038-b61f-8432b87a1b85","ios":"levelo://app?vid=9fa3e785-e49f-4038-b61f-8432b87a1b85"},"vehicle_type_id":"4","last_reported":1750396315,"current_range_meters":18800,"station_id":"ce4bh2p2rcd13ifvqdi0","pricing_plan_id":"cebpf4jnsgd1na2vs0mg"},{"bike_id":"287debf9-2cb5-4f57-9fe5-4aa18bced087","system_id":"levelo_inurba_marseille","lat":43.27953,"lon":5.38724,"is_reserved":false,"is_disabled":false,"rental_uris":{"android":"levelo://app?vid=287debf9-2cb5-4f57-9fe5-4aa18bced087","ios":"levelo://app?vid=287debf9-2cb5-4f57-9fe5-4aa18bced087"},"vehicle_type_id":"4","last_reported":1750396315,"current_range_meters":18800,"station_id":"ce4bhg12rcd13ifvqf80","pricing_plan_id":"cebpf4jnsgd1na2vs0mg"},{"bike_id":"204afd8f-d13a-468d-a59c-e2db9671fff1","system_id":"levelo_inurba_marseille","lat":43.244082,"lon":5.371114,"is_reserved":false,"is_disabled":false,"rental_uris":{"android":"levelo://app?vid=204afd8f-d13a-468d-a59c-e2db9671fff1","ios":"levelo://app?vid=204afd8f-d13a-468d-a59c-e2db9671fff1"},"vehicle_type_id":"4","last_reported":1750396315,"current_range_meters":18800,"station_id":"ce4bhhh2rcd13ifvqfk0","pricing_plan_id":"cebpf4jnsgd1na2vs0mg"},{"bike_id":"bca70ab2-0e13-4bba-a4c5-f9392914cf1f","system_id":"levelo_inurba_marseille","lat":43.31072,"lon":5.38358,"is_reserved":false,"is_disabled":false,"rental_uris":{"android":"levelo://app?vid=bca70ab2-0e13-4bba-a4c5-f9392914cf1f","ios":"levelo://app?vid=bca70ab2-0e13-4bba-a4c5-f9392914cf1f"},"vehicle_type_id":"4","last_reported":1750396315,"current_range_meters":19200,"station_id":"ce4bgv92rcd13ifvqcr0","pricing_plan_id":"cebpf4jnsgd1na2vs0mg"},{"bike_id":"776d88ff-9cda-4562-a9fc-7dc7b7291436","system_id":"levelo_inurba_marseille","lat":43.30121,"lon":5.39893,"is_reserved":false,"is_disabled":false,"rental_uris":{"android":"levelo://app?vid=776d88ff-9cda-4562-a9fc-7dc7b7291436","ios":"levelo://app?vid=776d88ff-9cda-4562-a9fc-7dc7b7291436"},"vehicle_type_id":"4","last_reported":1750396315,"current_range_meters":19200,"station_id":"ce4bh0h2rcd13ifvqd40","pricing_plan_id":"cebpf4jnsgd1na2vs0mg"},{"bike_id":"8a4acffc-062f-4c8b-83b2-25a1b268919a","system_id":"levelo_inurba_marseille","lat":43.29875,"lon":5.3973,"is_reserved":false,"is_disabled":false,"rental_uris":{"android":"levelo://app?vid=8a4acffc-062f-4c8b-83b2-25a1b268919a","ios":"levelo://app?vid=8a4acffc-062f-4c8b-83b2-25a1b268919a"},"vehicle_type_id":"4","last_reported":1750396315,"current_range_meters":19200,"station_id":"ce4bh0h2rcd13ifvqd50","pricing_plan_id":"cebpf4jnsgd1na2vs0mg"},{"bike_id":"742925de-b5af-4a6c-a280-a5e39a9d4d8d","system_id":"levelo_inurba_marseille","lat":43.28553,"lon":5.3949,"is_reserved":false,"is_disabled":false,"rental_uris":{"android":"levelo://app?vid=742925de-b5af-4a6c-a280-a5e39a9d4d8d","ios":"levelo://app?vid=742925de-b5af-4a6c-a280-a5e39a9d4d8d"},"vehicle_type_id":"4","last_reported":1750396315,"current_range_meters":19200,"station_id":"ce4bh292rcd13ifvqdg0","pricing_plan_id":"cebpf4jnsgd1na2vs0mg"},{"bike_id":"a9f7e5b6-c3b9-477a-9dd1-4ff223f734c0","system_id":"levelo_inurba_marseille","lat":43.298948,"lon":5.436647,"is_reserved":false,"is_disabled":false,"rental_uris":{"android":"levelo://app?vid=a9f7e5b6-c3b9-477a-9dd1-4ff223f734c0","ios":"levelo://app?vid=a9f7e5b6-c3b9-477a-9dd1-4ff223f734c0"},"vehicle_type_id":"4","last_reported":1750396315,"current_range_meters":19200,"station_id":"ce4bhpp2rcd13ifvqhfg","pricing_plan_id":"cebpf4jnsgd1na2vs0mg"},{"bike_id":"584bf8b8-5da7-4909-96ad-5a643d3bf26a","system_id":"levelo_inurba_marseille","lat":43.30472,"lon":5.37886,"is_reserved":false,"is_disabled":false,"rental_uris":{"android":"levelo://app?vid=584bf8b8-5da7-4909-96ad-5a643d3bf26a","ios":"levelo://app?vid=584bf8b8-5da7-4909-96ad-5a643d3bf26a"},"vehicle_type_id":"4","last_reported":1750396315,"current_range_meters":19600,"station_id":"ce4bgup2rcd13ifvqcn0","pricing_plan_id":"cebpf4jnsgd1na2vs0mg"},{"bike_id":"9b58279c-bff8-46cd-a8cb-1d57b1345f88","system_id":"levelo_inurba_marseille","lat":43.292819,"lon":5.401289,"is_reserved":false,"is_disabled":false,"rental_uris":{"android":"levelo://app?vid=9b58279c-bff8-46cd-a8cb-1d57b1345f88","ios":"levelo://app?vid=9b58279c-bff8-46cd-a8cb-1d57b1345f88"},"vehicle_type_id":"4","last_reported":1750396315,"current_range_meters":19600,"station_id":"ce4bh312rcd13ifvqdk0","pricing_plan_id":"cebpf4jnsgd1na2vs0mg"},{"bike_id":"3dc34059-5029-4361-8524-3f8a355223f6","system_id":"levelo_inurba_marseille","lat":43.24686,"lon":5.38161,"is_reserved":false,"is_disabled":false,"rental_uris":{"android":"levelo://app?vid=3dc34059-5029-4361-8524-3f8a355223f6","ios":"levelo://app?vid=3dc34059-5029-4361-8524-3f8a355223f6"},"vehicle_type_id":"4","last_reported":1750396315,"current_range_meters":19600,"station_id":"ce4bhih2rcd13ifvqfr0","pricing_plan_id":"cebpf4jnsgd1na2vs0mg"},{"bike_id":"b5b647ee-0ae2-4c9a-9736-00457dad72b3","system_id":"levelo_inurba_marseille","lat":43.25585,"lon":5.3823,"is_reserved":false,"is_disabled":false,"rental_uris":{"android":"levelo://app?vid=b5b647ee-0ae2-4c9a-9736-00457dad72b3","ios":"levelo://app?vid=b5b647ee-0ae2-4c9a-9736-00457dad72b3"},"vehicle_type_id":"4","last_reported":1750396315,"current_range_meters":19600,"station_id":"ce4bhih2rcd13ifvqfs0","pricing_plan_id":"cebpf4jnsgd1na2vs0mg"},{"bike_id":"a4ff1886-948f-489c-b8f8-527cff5591b8","system_id":"levelo_inurba_marseille","lat":43.29599,"lon":5.381,"is_reserved":false,"is_disabled":false,"rental_uris":{"android":"levelo://app?vid=a4ff1886-948f-489c-b8f8-527cff5591b8","ios":"levelo://app?vid=a4ff1886-948f-489c-b8f8-527cff5591b8"},"vehicle_type_id":"4","last_reported":1750396315,"current_range_meters":20000,"station_id":"","pricing_plan_id":"cebpf4jnsgd1na2vs0mg"},{"bike_id":"1156d75e-857c-45d9-8a3d-5c2eccfc4617","system_id":"levelo_inurba_marseille","lat":43.30598,"lon":5.37214,"is_reserved":false,"is_disabled":false,"rental_uris":{"android":"levelo://app?vid=1156d75e-857c-45d9-8a3d-5c2eccfc4617","ios":"levelo://app?vid=1156d75e-857c-45d9-8a3d-5c2eccfc4617"},"vehicle_type_id":"4","last_reported":1750396315,"current_range_meters":20000,"station_id":"ce4bgqh2rcd13ifvqc4g","pricing_plan_id":"cebpf4jnsgd1na2vs0mg"},{"bike_id":"b309198c-67c9-4e05-9ea4-0f15d6236394","system_id":"levelo_inurba_marseille","lat":43.29432,"lon":5.39756,"is_reserved":false,"is_disabled":false,"rental_uris":{"android":"levelo://app?vid=b309198c-67c9-4e05-9ea4-0f15d6236394","ios":"levelo://app?vid=b309198c-67c9-4e05-9ea4-0f15d6236394"},"vehicle_type_id":"4","last_reported":1750396315,"current_range_meters":20000,"station_id":"ce4bh3h2rcd13ifvqdo0","pricing_plan_id":"cebpf4jnsgd1na2vs0mg"},{"bike_id":"ebd468cf-6662-4fa9-87c4-1c37973b61c9","system_id":"levelo_inurba_marseille","lat":43.29571,"lon":5.39983,"is_reserved":false,"is_disabled":false,"rental_uris":{"android":"levelo://app?vid=ebd468cf-6662-4fa9-87c4-1c37973b61c9","ios":"levelo://app?vid=ebd468cf-6662-4fa9-87c4-1c37973b61c9"},"vehicle_type_id":"4","last_reported":1750396315,"current_range_meters":20400,"station_id":"","pricing_plan_id":"cebpf4jnsgd1na2vs0mg"},{"bike_id":"f345bf8f-d9c7-4e6e-aab8-542c80f51b8b","system_id":"levelo_inurba_marseille","lat":43.27877,"lon":5.39616,"is_reserved":false,"is_disabled":false,"rental_uris":{"android":"levelo://app?vid=f345bf8f-d9c7-4e6e-aab8-542c80f51b8b","ios":"levelo://app?vid=f345bf8f-d9c7-4e6e-aab8-542c80f51b8b"},"vehicle_type_id":"4","last_reported":1750396315,"current_range_meters":20400,"station_id":"ce4bhf92rcd13ifvqf40","pricing_plan_id":"cebpf4jnsgd1na2vs0mg"},{"bike_id":"2d50ff45-3046-40df-b784-ee274c648ea0","system_id":"levelo_inurba_marseille","lat":43.3203,"lon":5.40817,"is_reserved":false,"is_disabled":false,"rental_uris":{"android":"levelo://app?vid=2d50ff45-3046-40df-b784-ee274c648ea0","ios":"levelo://app?vid=2d50ff45-3046-40df-b784-ee274c648ea0"},"vehicle_type_id":"4","last_reported":1750396315,"current_range_meters":20800,"station_id":"","pricing_plan_id":"cebpf4jnsgd1na2vs0mg"},{"bike_id":"b5f968cf-b6f4-4bcc-95c4-f7c05b0cbd5c","system_id":"levelo_inurba_marseille","lat":43.30926,"lon":5.40159,"is_reserved":false,"is_disabled":false,"rental_uris":{"android":"levelo://app?vid=b5f968cf-b6f4-4bcc-95c4-f7c05b0cbd5c","ios":"levelo://app?vid=b5f968cf-b6f4-4bcc-95c4-f7c05b0cbd5c"},"vehicle_type_id":"4","last_reported":1750396315,"current_range_meters":20800,"station_id":"ce4bgvp2rcd13ifvqct0","pricing_plan_id":"cebpf4jnsgd1na2vs0mg"},{"bike_id":"4737a889-70e0-45c7-bfae-ac8a3e181732","system_id":"levelo_inurba_marseille","lat":43.29877,"lon":5.39718,"is_reserved":false,"is_disabled":false,"rental_uris":{"android":"levelo://app?vid=4737a889-70e0-45c7-bfae-ac8a3e181732","ios":"levelo://app?vid=4737a889-70e0-45c7-bfae-ac8a3e181732"},"vehicle_type_id":"4","last_reported":1750396315,"current_range_meters":20800,"station_id":"ce4bh0h2rcd13ifvqd50","pricing_plan_id":"cebpf4jnsgd1na2vs0mg"},{"bike_id":"c0986f18-b70c-4bc1-be70-edac1f0e8f52","system_id":"levelo_inurba_marseille","lat":43.28862,"lon":5.39315,"is_reserved":false,"is_disabled":false,"rental_uris":{"android":"levelo://app?vid=c0986f18-b70c-4bc1-be70-edac1f0e8f52","ios":"levelo://app?vid=c0986f18-b70c-4bc1-be70-edac1f0e8f52"},"vehicle_type_id":"4","last_reported":1750396315,"current_range_meters":20800,"station_id":"ce4bh2p2rcd13ifvqdi0","pricing_plan_id":"cebpf4jnsgd1na2vs0mg"},{"bike_id":"870c0e41-4f8f-4255-8033-a12fb7a131b1","system_id":"levelo_inurba_marseille","lat":43.289316,"lon":5.366398,"is_reserved":false,"is_disabled":false,"rental_uris":{"android":"levelo://app?vid=870c0e41-4f8f-4255-8033-a12fb7a131b1","ios":"levelo://app?vid=870c0e41-4f8f-4255-8033-a12fb7a131b1"},"vehicle_type_id":"4","last_reported":1750396315,"current_range_meters":20800,"station_id":"ce4bhap2rcd13ifvqek0","pricing_plan_id":"cebpf4jnsgd1na2vs0mg"},{"bike_id":"2d0be418-df35-4b24-a85a-4d1d62e06170","system_id":"levelo_inurba_marseille","lat":43.26797,"lon":5.39385,"is_reserved":false,"is_disabled":false,"rental_uris":{"android":"levelo://app?vid=2d0be418-df35-4b24-a85a-4d1d62e06170","ios":"levelo://app?vid=2d0be418-df35-4b24-a85a-4d1d62e06170"},"vehicle_type_id":"4","last_reported":1750396315,"current_range_meters":20800,"station_id":"ce4bhh12rcd13ifvqfg0","pricing_plan_id":"cebpf4jnsgd1na2vs0mg"},{"bike_id":"21ae0a45-6d1a-45cf-8a2c-bc0061c0ebf9","system_id":"levelo_inurba_marseille","lat":43.27996,"lon":5.41662,"is_reserved":false,"is_disabled":false,"rental_uris":{"android":"levelo://app?vid=21ae0a45-6d1a-45cf-8a2c-bc0061c0ebf9","ios":"levelo://app?vid=21ae0a45-6d1a-45cf-8a2c-bc0061c0ebf9"},"vehicle_type_id":"4","last_reported":1750396315,"current_range_meters":20800,"station_id":"ce4bho12rcd13ifvqh1g","pricing_plan_id":"cebpf4jnsgd1na2vs0mg"},{"bike_id":"5187990f-0e38-4183-960c-3c6c679fb2e8","system_id":"levelo_inurba_marseille","lat":43.21191,"lon":5.35068,"is_reserved":false,"is_disabled":false,"rental_uris":{"android":"levelo://app?vid=5187990f-0e38-4183-960c-3c6c679fb2e8","ios":"levelo://app?vid=5187990f-0e38-4183-960c-3c6c679fb2e8"},"vehicle_type_id":"4","last_reported":1750396315,"current_range_meters":20800,"station_id":"st_cvj6sg6p6f1abm77japg","pricing_plan_id":"cebpf4jnsgd1na2vs0mg"},{"bike_id":"07457f23-62c4-4b53-99d8-44f374338b1b","system_id":"levelo_inurba_marseille","lat":43.30162,"lon":5.38069,"is_reserved":false,"is_disabled":false,"rental_uris":{"android":"levelo://app?vid=07457f23-62c4-4b53-99d8-44f374338b1b","ios":"levelo://app?vid=07457f23-62c4-4b53-99d8-44f374338b1b"},"vehicle_type_id":"4","last_reported":1750396315,"current_range_meters":21600,"station_id":"ce4bgjp2rcd13ifvqbh0","pricing_plan_id":"cebpf4jnsgd1na2vs0mg"},{"bike_id":"63c12ab5-dbb7-4854-9217-ba0deca49cf5","system_id":"levelo_inurba_marseille","lat":43.30145,"lon":5.38082,"is_reserved":false,"is_disabled":false,"rental_uris":{"android":"levelo://app?vid=63c12ab5-dbb7-4854-9217-ba0deca49cf5","ios":"levelo://app?vid=63c12ab5-dbb7-4854-9217-ba0deca49cf5"},"vehicle_type_id":"4","last_reported":1750396315,"current_range_meters":22000,"station_id":"ce4bgjp2rcd13ifvqbh0","pricing_plan_id":"cebpf4jnsgd1na2vs0mg"},{"bike_id":"5372f3b6-6ea3-4de9-8ebf-676c62eef8e2","system_id":"levelo_inurba_marseille","lat":43.21191,"lon":5.35069,"is_reserved":false,"is_disabled":false,"rental_uris":{"android":"levelo://app?vid=5372f3b6-6ea3-4de9-8ebf-676c62eef8e2","ios":"levelo://app?vid=5372f3b6-6ea3-4de9-8ebf-676c62eef8e2"},"vehicle_type_id":"4","last_reported":1750396315,"current_range_meters":22000,"station_id":"st_cvj6sg6p6f1abm77japg","pricing_plan_id":"cebpf4jnsgd1na2vs0mg"},{"bike_id":"5da4e83b-8697-4c2d-ab54-ded034bb60b7","system_id":"levelo_inurba_marseille","lat":43.29727,"lon":5.458072,"is_reserved":false,"is_disabled":false,"rental_uris":{"android":"levelo://app?vid=5da4e83b-8697-4c2d-ab54-ded034bb60b7","ios":"levelo://app?vid=5da4e83b-8697-4c2d-ab54-ded034bb60b7"},"vehicle_type_id":"4","last_reported":1750396315,"current_range_meters":22400,"station_id":"","pricing_plan_id":"cebpf4jnsgd1na2vs0mg"},{"bike_id":"f20d9be8-f65a-4615-a334-097d875818ce","system_id":"levelo_inurba_marseille","lat":43.28904,"lon":5.37288,"is_reserved":false,"is_disabled":false,"rental_uris":{"android":"levelo://app?vid=f20d9be8-f65a-4615-a334-097d875818ce","ios":"levelo://app?vid=f20d9be8-f65a-4615-a334-097d875818ce"},"vehicle_type_id":"4","last_reported":1750396315,"current_range_meters":22400,"station_id":"","pricing_plan_id":"cebpf4jnsgd1na2vs0mg"},{"bike_id":"63c3c43a-f293-48cd-ac49-2fdaadcf75e2","system_id":"levelo_inurba_marseille","lat":43.331445,"lon":5.376235,"is_reserved":false,"is_disabled":false,"rental_uris":{"android":"levelo://app?vid=63c3c43a-f293-48cd-ac49-2fdaadcf75e2","ios":"levelo://app?vid=63c3c43a-f293-48cd-ac49-2fdaadcf75e2"},"vehicle_type_id":"4","last_reported":1750396315,"current_range_meters":22400,"station_id":"","pricing_plan_id":"cebpf4jnsgd1na2vs0mg"},{"bike_id":"ddfba78a-46f5-4571-8ca1-aae564654e6e","system_id":"levelo_inurba_marseille","lat":43.29516,"lon":5.39398,"is_reserved":false,"is_disabled":false,"rental_uris":{"android":"levelo://app?vid=ddfba78a-46f5-4571-8ca1-aae564654e6e","ios":"levelo://app?vid=ddfba78a-46f5-4571-8ca1-aae564654e6e"},"vehicle_type_id":"4","last_reported":1750396315,"current_range_meters":22400,"station_id":"ce4bh292rcd13ifvqdf0","pricing_plan_id":"cebpf4jnsgd1na2vs0mg"},{"bike_id":"125d521f-d0b2-4f4e-ae90-e8f87f0591e6","system_id":"levelo_inurba_marseille","lat":43.29002,"lon":5.35613,"is_reserved":false,"is_disabled":false,"rental_uris":{"android":"levelo://app?vid=125d521f-d0b2-4f4e-ae90-e8f87f0591e6","ios":"levelo://app?vid=125d521f-d0b2-4f4e-ae90-e8f87f0591e6"},"vehicle_type_id":"4","last_reported":1750396315,"current_range_meters":22400,"station_id":"ce4bhb92rcd13ifvqen0","pricing_plan_id":"cebpf4jnsgd1na2vs0mg"},{"bike_id":"5fe179c5-17f5-4d6f-abc1-1e3c9662bd7c","system_id":"levelo_inurba_marseille","lat":43.27054,"lon":5.40256,"is_reserved":false,"is_disabled":false,"rental_uris":{"android":"levelo://app?vid=5fe179c5-17f5-4d6f-abc1-1e3c9662bd7c","ios":"levelo://app?vid=5fe179c5-17f5-4d6f-abc1-1e3c9662bd7c"},"vehicle_type_id":"4","last_reported":1750396315,"current_range_meters":22400,"station_id":"ce4bhk92rcd13ifvqgc0","pricing_plan_id":"cebpf4jnsgd1na2vs0mg"},{"bike_id":"1c4a3c9d-5ced-4357-a51d-2da84d1dad25","system_id":"levelo_inurba_marseille","lat":43.337444,"lon":5.374475,"is_reserved":false,"is_disabled":false,"rental_uris":{"android":"levelo://app?vid=1c4a3c9d-5ced-4357-a51d-2da84d1dad25","ios":"levelo://app?vid=1c4a3c9d-5ced-4357-a51d-2da84d1dad25"},"vehicle_type_id":"4","last_reported":1750396315,"current_range_meters":22800,"station_id":"","pricing_plan_id":"cebpf4jnsgd1na2vs0mg"},{"bike_id":"a6b0b430-0398-474d-a5dc-a7d5e967381b","system_id":"levelo_inurba_marseille","lat":43.31476,"lon":5.37262,"is_reserved":false,"is_disabled":false,"rental_uris":{"android":"levelo://app?vid=a6b0b430-0398-474d-a5dc-a7d5e967381b","ios":"levelo://app?vid=a6b0b430-0398-474d-a5dc-a7d5e967381b"},"vehicle_type_id":"4","last_reported":1750396315,"current_range_meters":22800,"station_id":"ce4bgt12rcd13ifvqcd0","pricing_plan_id":"cebpf4jnsgd1na2vs0mg"},{"bike_id":"b72fd846-f3fb-492f-9559-b3d1d51e0553","system_id":"levelo_inurba_marseille","lat":43.29282,"lon":5.40114,"is_reserved":false,"is_disabled":false,"rental_uris":{"android":"levelo://app?vid=b72fd846-f3fb-492f-9559-b3d1d51e0553","ios":"levelo://app?vid=b72fd846-f3fb-492f-9559-b3d1d51e0553"},"vehicle_type_id":"4","last_reported":1750396315,"current_range_meters":22800,"station_id":"ce4bh312rcd13ifvqdk0","pricing_plan_id":"cebpf4jnsgd1na2vs0mg"},{"bike_id":"39d217ff-560b-4961-a376-b829457a5788","system_id":"levelo_inurba_marseille","lat":43.28495,"lon":5.38553,"is_reserved":false,"is_disabled":false,"rental_uris":{"android":"levelo://app?vid=39d217ff-560b-4961-a376-b829457a5788","ios":"levelo://app?vid=39d217ff-560b-4961-a376-b829457a5788"},"vehicle_type_id":"4","last_reported":1750396315,"current_range_meters":22800,"station_id":"ce4bh8p2rcd13ifvqeb0","pricing_plan_id":"cebpf4jnsgd1na2vs0mg"},{"bike_id":"49af64f0-946a-4125-a526-b41adca68e75","system_id":"levelo_inurba_marseille","lat":43.28146,"lon":5.42645,"is_reserved":false,"is_disabled":false,"rental_uris":{"android":"levelo://app?vid=49af64f0-946a-4125-a526-b41adca68e75","ios":"levelo://app?vid=49af64f0-946a-4125-a526-b41adca68e75"},"vehicle_type_id":"4","last_reported":1750396315,"current_range_meters":22800,"station_id":"ce4bhnh2rcd13ifvqgug","pricing_plan_id":"cebpf4jnsgd1na2vs0mg"},{"bike_id":"d83ed28e-5612-4d1d-8614-579c1b80d6f7","system_id":"levelo_inurba_marseille","lat":43.28733,"lon":5.39965,"is_reserved":false,"is_disabled":false,"rental_uris":{"android":"levelo://app?vid=d83ed28e-5612-4d1d-8614-579c1b80d6f7","ios":"levelo://app?vid=d83ed28e-5612-4d1d-8614-579c1b80d6f7"},"vehicle_type_id":"4","last_reported":1750396315,"current_range_meters":22800,"station_id":"ce4bho92rcd13ifvqh3g","pricing_plan_id":"cebpf4jnsgd1na2vs0mg"},{"bike_id":"bcfd2f42-7435-487e-9833-3418faffdd26","system_id":"levelo_inurba_marseille","lat":43.320528,"lon":5.41543,"is_reserved":false,"is_disabled":false,"rental_uris":{"android":"levelo://app?vid=bcfd2f42-7435-487e-9833-3418faffdd26","ios":"levelo://app?vid=bcfd2f42-7435-487e-9833-3418faffdd26"},"vehicle_type_id":"4","last_reported":1750396315,"current_range_meters":23200,"station_id":"","pricing_plan_id":"cebpf4jnsgd1na2vs0mg"},{"bike_id":"8de1d32b-0a61-49a0-b203-268617003f6b","system_id":"levelo_inurba_marseille","lat":43.30144,"lon":5.38106,"is_reserved":false,"is_disabled":false,"rental_uris":{"android":"levelo://app?vid=8de1d32b-0a61-49a0-b203-268617003f6b","ios":"levelo://app?vid=8de1d32b-0a61-49a0-b203-268617003f6b"},"vehicle_type_id":"4","last_reported":1750396315,"current_range_meters":23200,"station_id":"ce4bgjp2rcd13ifvqbh0","pricing_plan_id":"cebpf4jnsgd1na2vs0mg"},{"bike_id":"9b8ea49e-0385-47ed-a71b-fc3860ebf9cd","system_id":"levelo_inurba_marseille","lat":43.30139,"lon":5.38078,"is_reserved":false,"is_disabled":false,"rental_uris":{"android":"levelo://app?vid=9b8ea49e-0385-47ed-a71b-fc3860ebf9cd","ios":"levelo://app?vid=9b8ea49e-0385-47ed-a71b-fc3860ebf9cd"},"vehicle_type_id":"4","last_reported":1750396315,"current_range_meters":23200,"station_id":"ce4bgjp2rcd13ifvqbh0","pricing_plan_id":"cebpf4jnsgd1na2vs0mg"},{"bike_id":"befff253-2c5f-4736-8f3b-fc0f1a7fb7bb","system_id":"levelo_inurba_marseille","lat":43.29872,"lon":5.39727,"is_reserved":false,"is_disabled":false,"rental_uris":{"android":"levelo://app?vid=befff253-2c5f-4736-8f3b-fc0f1a7fb7bb","ios":"levelo://app?vid=befff253-2c5f-4736-8f3b-fc0f1a7fb7bb"},"vehicle_type_id":"4","last_reported":1750396315,"current_range_meters":23200,"station_id":"ce4bh0h2rcd13ifvqd50","pricing_plan_id":"cebpf4jnsgd1na2vs0mg"},{"bike_id":"0c152455-a17a-47a3-84b4-d1528e52a35e","system_id":"levelo_inurba_marseille","lat":43.30644,"lon":5.40072,"is_reserved":false,"is_disabled":false,"rental_uris":{"android":"levelo://app?vid=0c152455-a17a-47a3-84b4-d1528e52a35e","ios":"levelo://app?vid=0c152455-a17a-47a3-84b4-d1528e52a35e"},"vehicle_type_id":"4","last_reported":1750396315,"current_range_meters":23200,"station_id":"ce4bh112rcd13ifvqda0","pricing_plan_id":"cebpf4jnsgd1na2vs0mg"},{"bike_id":"7c88f3f2-29dc-4683-9456-c47fe45a0cc8","system_id":"levelo_inurba_marseille","lat":43.306471,"lon":5.400794,"is_reserved":false,"is_disabled":false,"rental_uris":{"android":"levelo://app?vid=7c88f3f2-29dc-4683-9456-c47fe45a0cc8","ios":"levelo://app?vid=7c88f3f2-29dc-4683-9456-c47fe45a0cc8"},"vehicle_type_id":"4","last_reported":1750396315,"current_range_meters":24000,"station_id":"ce4bh112rcd13ifvqda0","pricing_plan_id":"cebpf4jnsgd1na2vs0mg"},{"bike_id":"974087aa-1864-4eb4-8bc8-e1e1409feb5f","system_id":"levelo_inurba_marseille","lat":43.295134,"lon":5.39402,"is_reserved":false,"is_disabled":false,"rental_uris":{"android":"levelo://app?vid=974087aa-1864-4eb4-8bc8-e1e1409feb5f","ios":"levelo://app?vid=974087aa-1864-4eb4-8bc8-e1e1409feb5f"},"vehicle_type_id":"4","last_reported":1750396315,"current_range_meters":24000,"station_id":"ce4bh292rcd13ifvqdf0","pricing_plan_id":"cebpf4jnsgd1na2vs0mg"},{"bike_id":"9c5c890d-fe7c-492c-a90c-1a41f02843ab","system_id":"levelo_inurba_marseille","lat":43.24075,"lon":5.37769,"is_reserved":false,"is_disabled":false,"rental_uris":{"android":"levelo://app?vid=9c5c890d-fe7c-492c-a90c-1a41f02843ab","ios":"levelo://app?vid=9c5c890d-fe7c-492c-a90c-1a41f02843ab"},"vehicle_type_id":"4","last_reported":1750396315,"current_range_meters":24000,"station_id":"ce4bhnp2rcd13ifvqgvg","pricing_plan_id":"cebpf4jnsgd1na2vs0mg"},{"bike_id":"e6d83cde-f620-4a59-a22d-3b9e708111d4","system_id":"levelo_inurba_marseille","lat":43.31983,"lon":5.38155,"is_reserved":false,"is_disabled":false,"rental_uris":{"android":"levelo://app?vid=e6d83cde-f620-4a59-a22d-3b9e708111d4","ios":"levelo://app?vid=e6d83cde-f620-4a59-a22d-3b9e708111d4"},"vehicle_type_id":"4","last_reported":1750396315,"current_range_meters":24000,"station_id":"ce4bhr12rcd13ifvqhpg","pricing_plan_id":"cebpf4jnsgd1na2vs0mg"},{"bike_id":"36af150c-13b2-4082-9942-7c0b4408b3a9","system_id":"levelo_inurba_marseille","lat":43.30289,"lon":5.39218,"is_reserved":false,"is_disabled":false,"rental_uris":{"android":"levelo://app?vid=36af150c-13b2-4082-9942-7c0b4408b3a9","ios":"levelo://app?vid=36af150c-13b2-4082-9942-7c0b4408b3a9"},"vehicle_type_id":"4","last_reported":1750396315,"current_range_meters":24400,"station_id":"ce4bgkh2rcd13ifvqbk0","pricing_plan_id":"cebpf4jnsgd1na2vs0mg"},{"bike_id":"06465a48-f1b0-4327-8746-0f31e20d2a1f","system_id":"levelo_inurba_marseille","lat":43.31481,"lon":5.37298,"is_reserved":false,"is_disabled":false,"rental_uris":{"android":"levelo://app?vid=06465a48-f1b0-4327-8746-0f31e20d2a1f","ios":"levelo://app?vid=06465a48-f1b0-4327-8746-0f31e20d2a1f"},"vehicle_type_id":"4","last_reported":1750396315,"current_range_meters":24400,"station_id":"ce4bgt12rcd13ifvqcd0","pricing_plan_id":"cebpf4jnsgd1na2vs0mg"},{"bike_id":"191679bb-8ba6-41df-a208-e452d6c532c3","system_id":"levelo_inurba_marseille","lat":43.31376,"lon":5.38499,"is_reserved":false,"is_disabled":false,"rental_uris":{"android":"levelo://app?vid=191679bb-8ba6-41df-a208-e452d6c532c3","ios":"levelo://app?vid=191679bb-8ba6-41df-a208-e452d6c532c3"},"vehicle_type_id":"4","last_reported":1750396315,"current_range_meters":24400,"station_id":"ce4bgt92rcd13ifvqcf0","pricing_plan_id":"cebpf4jnsgd1na2vs0mg"},{"bike_id":"9f83bdd0-e6f1-4822-b643-b3e3f2c75ee0","system_id":"levelo_inurba_marseille","lat":43.30477,"lon":5.37892,"is_reserved":false,"is_disabled":false,"rental_uris":{"android":"levelo://app?vid=9f83bdd0-e6f1-4822-b643-b3e3f2c75ee0","ios":"levelo://app?vid=9f83bdd0-e6f1-4822-b643-b3e3f2c75ee0"},"vehicle_type_id":"4","last_reported":1750396315,"current_range_meters":24400,"station_id":"ce4bgup2rcd13ifvqcn0","pricing_plan_id":"cebpf4jnsgd1na2vs0mg"},{"bike_id":"118a005f-9968-4830-a4bf-bac0ab3f4722","system_id":"levelo_inurba_marseille","lat":43.30929,"lon":5.40154,"is_reserved":false,"is_disabled":false,"rental_uris":{"android":"levelo://app?vid=118a005f-9968-4830-a4bf-bac0ab3f4722","ios":"levelo://app?vid=118a005f-9968-4830-a4bf-bac0ab3f4722"},"vehicle_type_id":"4","last_reported":1750396315,"current_range_meters":24400,"station_id":"ce4bgvp2rcd13ifvqct0","pricing_plan_id":"cebpf4jnsgd1na2vs0mg"},{"bike_id":"9a5a13c2-6024-4072-a304-ebcc88ab261f","system_id":"levelo_inurba_marseille","lat":43.3013,"lon":5.39863,"is_reserved":false,"is_disabled":false,"rental_uris":{"android":"levelo://app?vid=9a5a13c2-6024-4072-a304-ebcc88ab261f","ios":"levelo://app?vid=9a5a13c2-6024-4072-a304-ebcc88ab261f"},"vehicle_type_id":"4","last_reported":1750396315,"current_range_meters":24400,"station_id":"ce4bh0h2rcd13ifvqd40","pricing_plan_id":"cebpf4jnsgd1na2vs0mg"},{"bike_id":"1070464c-efd1-47cb-91db-8c9b25f82d05","system_id":"levelo_inurba_marseille","lat":43.28475,"lon":5.35862,"is_reserved":false,"is_disabled":false,"rental_uris":{"android":"levelo://app?vid=1070464c-efd1-47cb-91db-8c9b25f82d05","ios":"levelo://app?vid=1070464c-efd1-47cb-91db-8c9b25f82d05"},"vehicle_type_id":"4","last_reported":1750396315,"current_range_meters":24400,"station_id":"ce4bhah2rcd13ifvqei0","pricing_plan_id":"cebpf4jnsgd1na2vs0mg"},{"bike_id":"7a1f72ed-667b-4e96-a855-3c4352333dd2","system_id":"levelo_inurba_marseille","lat":43.287097,"lon":5.399691,"is_reserved":false,"is_disabled":false,"rental_uris":{"android":"levelo://app?vid=7a1f72ed-667b-4e96-a855-3c4352333dd2","ios":"levelo://app?vid=7a1f72ed-667b-4e96-a855-3c4352333dd2"},"vehicle_type_id":"4","last_reported":1750396315,"current_range_meters":24400,"station_id":"ce4bho92rcd13ifvqh3g","pricing_plan_id":"cebpf4jnsgd1na2vs0mg"},{"bike_id":"9748dc12-f2dc-423b-ab3f-ed528ddf2a2d","system_id":"levelo_inurba_marseille","lat":43.287055,"lon":5.399835,"is_reserved":false,"is_disabled":false,"rental_uris":{"android":"levelo://app?vid=9748dc12-f2dc-423b-ab3f-ed528ddf2a2d","ios":"levelo://app?vid=9748dc12-f2dc-423b-ab3f-ed528ddf2a2d"},"vehicle_type_id":"4","last_reported":1750396315,"current_range_meters":24400,"station_id":"ce4bho92rcd13ifvqh3g","pricing_plan_id":"cebpf4jnsgd1na2vs0mg"},{"bike_id":"465dbc95-d1a2-4ee8-8eff-6c29680958a8","system_id":"levelo_inurba_marseille","lat":43.31067,"lon":5.3835,"is_reserved":false,"is_disabled":false,"rental_uris":{"android":"levelo://app?vid=465dbc95-d1a2-4ee8-8eff-6c29680958a8","ios":"levelo://app?vid=465dbc95-d1a2-4ee8-8eff-6c29680958a8"},"vehicle_type_id":"4","last_reported":1750396315,"current_range_meters":24800,"station_id":"ce4bgv92rcd13ifvqcr0","pricing_plan_id":"cebpf4jnsgd1na2vs0mg"},{"bike_id":"56b0e85b-bfa7-4976-9876-35018a0e942b","system_id":"levelo_inurba_marseille","lat":43.29281,"lon":5.40142,"is_reserved":false,"is_disabled":false,"rental_uris":{"android":"levelo://app?vid=56b0e85b-bfa7-4976-9876-35018a0e942b","ios":"levelo://app?vid=56b0e85b-bfa7-4976-9876-35018a0e942b"},"vehicle_type_id":"4","last_reported":1750396315,"current_range_meters":24800,"station_id":"ce4bh312rcd13ifvqdk0","pricing_plan_id":"cebpf4jnsgd1na2vs0mg"},{"bike_id":"7a3618fd-66fd-45b1-ab81-b681298fd414","system_id":"levelo_inurba_marseille","lat":43.23143,"lon":5.43707,"is_reserved":false,"is_disabled":false,"rental_uris":{"android":"levelo://app?vid=7a3618fd-66fd-45b1-ab81-b681298fd414","ios":"levelo://app?vid=7a3618fd-66fd-45b1-ab81-b681298fd414"},"vehicle_type_id":"4","last_reported":1750396315,"current_range_meters":24800,"station_id":"ce4bhmp2rcd13ifvqgog","pricing_plan_id":"cebpf4jnsgd1na2vs0mg"},{"bike_id":"cfce5cc1-175e-419f-ad97-8d12c3f760ec","system_id":"levelo_inurba_marseille","lat":43.23194,"lon":5.3998,"is_reserved":false,"is_disabled":false,"rental_uris":{"android":"levelo://app?vid=cfce5cc1-175e-419f-ad97-8d12c3f760ec","ios":"levelo://app?vid=cfce5cc1-175e-419f-ad97-8d12c3f760ec"},"vehicle_type_id":"4","last_reported":1750396315,"current_range_meters":24800,"station_id":"ce4bhn12rcd13ifvqgqg","pricing_plan_id":"cebpf4jnsgd1na2vs0mg"},{"bike_id":"5f0bc1c3-8791-403b-8f93-4b273c859ac8","system_id":"levelo_inurba_marseille","lat":43.28445,"lon":5.39195,"is_reserved":false,"is_disabled":false,"rental_uris":{"android":"levelo://app?vid=5f0bc1c3-8791-403b-8f93-4b273c859ac8","ios":"levelo://app?vid=5f0bc1c3-8791-403b-8f93-4b273c859ac8"},"vehicle_type_id":"4","last_reported":1750396315,"current_range_meters":24800,"station_id":"ce4bhoh2rcd13ifvqh5g","pricing_plan_id":"cebpf4jnsgd1na2vs0mg"},{"bike_id":"7370e5db-1c0e-43e8-89d5-0371a5392456","system_id":"levelo_inurba_marseille","lat":43.308029,"lon":5.435249,"is_reserved":false,"is_disabled":false,"rental_uris":{"android":"levelo://app?vid=7370e5db-1c0e-43e8-89d5-0371a5392456","ios":"levelo://app?vid=7370e5db-1c0e-43e8-89d5-0371a5392456"},"vehicle_type_id":"4","last_reported":1750396315,"current_range_meters":24800,"station_id":"ce4bhph2rcd13ifvqheg","pricing_plan_id":"cebpf4jnsgd1na2vs0mg"},{"bike_id":"3a79fb9d-09b5-4033-8870-f2e5df3b1686","system_id":"levelo_inurba_marseille","lat":43.22935,"lon":5.35381,"is_reserved":false,"is_disabled":false,"rental_uris":{"android":"levelo://app?vid=3a79fb9d-09b5-4033-8870-f2e5df3b1686","ios":"levelo://app?vid=3a79fb9d-09b5-4033-8870-f2e5df3b1686"},"vehicle_type_id":"4","last_reported":1750396315,"current_range_meters":24800,"station_id":"cpo3532slgdg3j2ikp40","pricing_plan_id":"cebpf4jnsgd1na2vs0mg"},{"bike_id":"e3d43540-3933-41c0-be98-62d35b180a01","system_id":"levelo_inurba_marseille","lat":43.308908,"lon":5.371873,"is_reserved":false,"is_disabled":false,"rental_uris":{"android":"levelo://app?vid=e3d43540-3933-41c0-be98-62d35b180a01","ios":"levelo://app?vid=e3d43540-3933-41c0-be98-62d35b180a01"},"vehicle_type_id":"4","last_reported":1750396315,"current_range_meters":25200,"station_id":"ce4bguh2rcd13ifvqckg","pricing_plan_id":"cebpf4jnsgd1na2vs0mg"},{"bike_id":"d1b5f39d-6a1b-4f6d-ad9b-f859238e2375","system_id":"levelo_inurba_marseille","lat":43.28356,"lon":5.38106,"is_reserved":false,"is_disabled":false,"rental_uris":{"android":"levelo://app?vid=d1b5f39d-6a1b-4f6d-ad9b-f859238e2375","ios":"levelo://app?vid=d1b5f39d-6a1b-4f6d-ad9b-f859238e2375"},"vehicle_type_id":"4","last_reported":1750396315,"current_range_meters":25200,"station_id":"ce4bh412rcd13ifvqdr0","pricing_plan_id":"cebpf4jnsgd1na2vs0mg"},{"bike_id":"628003e2-e941-423e-ab6f-e6adbea939ad","system_id":"levelo_inurba_marseille","lat":43.30309,"lon":5.392057,"is_reserved":false,"is_disabled":false,"rental_uris":{"android":"levelo://app?vid=628003e2-e941-423e-ab6f-e6adbea939ad","ios":"levelo://app?vid=628003e2-e941-423e-ab6f-e6adbea939ad"},"vehicle_type_id":"4","last_reported":1750396315,"current_range_meters":25600,"station_id":"ce4bgkh2rcd13ifvqbk0","pricing_plan_id":"cebpf4jnsgd1na2vs0mg"},{"bike_id":"77c89df4-a05f-49b7-a451-84c50d8671b9","system_id":"levelo_inurba_marseille","lat":43.2952,"lon":5.39403,"is_reserved":false,"is_disabled":false,"rental_uris":{"android":"levelo://app?vid=77c89df4-a05f-49b7-a451-84c50d8671b9","ios":"levelo://app?vid=77c89df4-a05f-49b7-a451-84c50d8671b9"},"vehicle_type_id":"4","last_reported":1750396315,"current_range_meters":25600,"station_id":"ce4bh292rcd13ifvqdf0","pricing_plan_id":"cebpf4jnsgd1na2vs0mg"},{"bike_id":"73246eb8-95d5-4fb2-93d3-5ab10e98df92","system_id":"levelo_inurba_marseille","lat":43.290503,"lon":5.399561,"is_reserved":false,"is_disabled":false,"rental_uris":{"android":"levelo://app?vid=73246eb8-95d5-4fb2-93d3-5ab10e98df92","ios":"levelo://app?vid=73246eb8-95d5-4fb2-93d3-5ab10e98df92"},"vehicle_type_id":"4","last_reported":1750396315,"current_range_meters":25600,"station_id":"ce4bh392rcd13ifvqdm0","pricing_plan_id":"cebpf4jnsgd1na2vs0mg"},{"bike_id":"3fadfa4f-936f-47ab-8cff-fa1b62ec16ed","system_id":"levelo_inurba_marseille","lat":43.25883,"lon":5.40849,"is_reserved":false,"is_disabled":false,"rental_uris":{"android":"levelo://app?vid=3fadfa4f-936f-47ab-8cff-fa1b62ec16ed","ios":"levelo://app?vid=3fadfa4f-936f-47ab-8cff-fa1b62ec16ed"},"vehicle_type_id":"4","last_reported":1750396315,"current_range_meters":25600,"station_id":"ce4bhm92rcd13ifvqglg","pricing_plan_id":"cebpf4jnsgd1na2vs0mg"},{"bike_id":"b430f4c0-ba25-408c-a85a-ffa446306dae","system_id":"levelo_inurba_marseille","lat":43.3019,"lon":5.38072,"is_reserved":false,"is_disabled":false,"rental_uris":{"android":"levelo://app?vid=b430f4c0-ba25-408c-a85a-ffa446306dae","ios":"levelo://app?vid=b430f4c0-ba25-408c-a85a-ffa446306dae"},"vehicle_type_id":"4","last_reported":1750396315,"current_range_meters":26000,"station_id":"","pricing_plan_id":"cebpf4jnsgd1na2vs0mg"},{"bike_id":"77062088-3ac1-476f-b557-b06b88b8fc71","system_id":"levelo_inurba_marseille","lat":43.29875,"lon":5.39732,"is_reserved":false,"is_disabled":false,"rental_uris":{"android":"levelo://app?vid=77062088-3ac1-476f-b557-b06b88b8fc71","ios":"levelo://app?vid=77062088-3ac1-476f-b557-b06b88b8fc71"},"vehicle_type_id":"4","last_reported":1750396315,"current_range_meters":26000,"station_id":"ce4bh0h2rcd13ifvqd50","pricing_plan_id":"cebpf4jnsgd1na2vs0mg"},{"bike_id":"73c4deeb-6b6b-4f63-9c15-9849ac93f522","system_id":"levelo_inurba_marseille","lat":43.28935,"lon":5.39623,"is_reserved":false,"is_disabled":false,"rental_uris":{"android":"levelo://app?vid=73c4deeb-6b6b-4f63-9c15-9849ac93f522","ios":"levelo://app?vid=73c4deeb-6b6b-4f63-9c15-9849ac93f522"},"vehicle_type_id":"4","last_reported":1750396315,"current_range_meters":26000,"station_id":"ce4bh3h2rcd13ifvqdn0","pricing_plan_id":"cebpf4jnsgd1na2vs0mg"},{"bike_id":"1752c061-d38d-40f9-877c-c37c925bfa06","system_id":"levelo_inurba_marseille","lat":43.24676,"lon":5.3815,"is_reserved":false,"is_disabled":false,"rental_uris":{"android":"levelo://app?vid=1752c061-d38d-40f9-877c-c37c925bfa06","ios":"levelo://app?vid=1752c061-d38d-40f9-877c-c37c925bfa06"},"vehicle_type_id":"4","last_reported":1750396315,"current_range_meters":26000,"station_id":"ce4bhih2rcd13ifvqfr0","pricing_plan_id":"cebpf4jnsgd1na2vs0mg"},{"bike_id":"c2a84b1a-13ca-42bd-9a00-51f2b3642d4a","system_id":"levelo_inurba_marseille","lat":43.3041,"lon":5.41291,"is_reserved":false,"is_disabled":false,"rental_uris":{"android":"levelo://app?vid=c2a84b1a-13ca-42bd-9a00-51f2b3642d4a","ios":"levelo://app?vid=c2a84b1a-13ca-42bd-9a00-51f2b3642d4a"},"vehicle_type_id":"4","last_reported":1750396315,"current_range_meters":26000,"station_id":"ce4bhop2rcd13ifvqh8g","pricing_plan_id":"cebpf4jnsgd1na2vs0mg"},{"bike_id":"c6cbae16-3ce5-4d77-8942-2ad6d6b3c555","system_id":"levelo_inurba_marseille","lat":43.29447,"lon":5.38115,"is_reserved":false,"is_disabled":false,"rental_uris":{"android":"levelo://app?vid=c6cbae16-3ce5-4d77-8942-2ad6d6b3c555","ios":"levelo://app?vid=c6cbae16-3ce5-4d77-8942-2ad6d6b3c555"},"vehicle_type_id":"4","last_reported":1750396315,"current_range_meters":26800,"station_id":"","pricing_plan_id":"cebpf4jnsgd1na2vs0mg"},{"bike_id":"ae5fbb3f-0df3-4d0b-9c75-c696aa16165f","system_id":"levelo_inurba_marseille","lat":43.279448,"lon":5.410545,"is_reserved":false,"is_disabled":false,"rental_uris":{"android":"levelo://app?vid=ae5fbb3f-0df3-4d0b-9c75-c696aa16165f","ios":"levelo://app?vid=ae5fbb3f-0df3-4d0b-9c75-c696aa16165f"},"vehicle_type_id":"4","last_reported":1750396315,"current_range_meters":26800,"station_id":"ce4bhnp2rcd13ifvqh0g","pricing_plan_id":"cebpf4jnsgd1na2vs0mg"},{"bike_id":"2282fe61-75b7-4689-b028-980fe51ce594","system_id":"levelo_inurba_marseille","lat":43.30145,"lon":5.38769,"is_reserved":false,"is_disabled":false,"rental_uris":{"android":"levelo://app?vid=2282fe61-75b7-4689-b028-980fe51ce594","ios":"levelo://app?vid=2282fe61-75b7-4689-b028-980fe51ce594"},"vehicle_type_id":"4","last_reported":1750396315,"current_range_meters":27200,"station_id":"ce4bghh2rcd13ifvqb60","pricing_plan_id":"cebpf4jnsgd1na2vs0mg"},{"bike_id":"45efa925-b09d-4df2-8ed3-eb8facf678b6","system_id":"levelo_inurba_marseille","lat":43.30146,"lon":5.380622,"is_reserved":false,"is_disabled":false,"rental_uris":{"android":"levelo://app?vid=45efa925-b09d-4df2-8ed3-eb8facf678b6","ios":"levelo://app?vid=45efa925-b09d-4df2-8ed3-eb8facf678b6"},"vehicle_type_id":"4","last_reported":1750396315,"current_range_meters":27200,"station_id":"ce4bgjp2rcd13ifvqbh0","pricing_plan_id":"cebpf4jnsgd1na2vs0mg"},{"bike_id":"a2014700-c594-40d7-bea8-f8ed9f8188fe","system_id":"levelo_inurba_marseille","lat":43.30932,"lon":5.40148,"is_reserved":false,"is_disabled":false,"rental_uris":{"android":"levelo://app?vid=a2014700-c594-40d7-bea8-f8ed9f8188fe","ios":"levelo://app?vid=a2014700-c594-40d7-bea8-f8ed9f8188fe"},"vehicle_type_id":"4","last_reported":1750396315,"current_range_meters":27200,"station_id":"ce4bgvp2rcd13ifvqct0","pricing_plan_id":"cebpf4jnsgd1na2vs0mg"},{"bike_id":"dd7c249a-9292-4f9b-b45e-b16e40f4ad92","system_id":"levelo_inurba_marseille","lat":43.295352,"lon":5.393975,"is_reserved":false,"is_disabled":false,"rental_uris":{"android":"levelo://app?vid=dd7c249a-9292-4f9b-b45e-b16e40f4ad92","ios":"levelo://app?vid=dd7c249a-9292-4f9b-b45e-b16e40f4ad92"},"vehicle_type_id":"4","last_reported":1750396315,"current_range_meters":27200,"station_id":"ce4bh292rcd13ifvqdf0","pricing_plan_id":"cebpf4jnsgd1na2vs0mg"},{"bike_id":"0ac4d25e-018a-401c-9f6f-92ae236b24a6","system_id":"levelo_inurba_marseille","lat":43.27989,"lon":5.40017,"is_reserved":false,"is_disabled":false,"rental_uris":{"android":"levelo://app?vid=0ac4d25e-018a-401c-9f6f-92ae236b24a6","ios":"levelo://app?vid=0ac4d25e-018a-401c-9f6f-92ae236b24a6"},"vehicle_type_id":"4","last_reported":1750396315,"current_range_meters":27200,"station_id":"ce4bho92rcd13ifvqh4g","pricing_plan_id":"cebpf4jnsgd1na2vs0mg"},{"bike_id":"2dc37154-7eb8-4251-aa63-dde65a5c123c","system_id":"levelo_inurba_marseille","lat":43.292545,"lon":5.37616,"is_reserved":false,"is_disabled":false,"rental_uris":{"android":"levelo://app?vid=2dc37154-7eb8-4251-aa63-dde65a5c123c","ios":"levelo://app?vid=2dc37154-7eb8-4251-aa63-dde65a5c123c"},"vehicle_type_id":"4","last_reported":1750396315,"current_range_meters":27600,"station_id":"","pricing_plan_id":"cebpf4jnsgd1na2vs0mg"},{"bike_id":"5e333b78-bf48-41a3-840f-ef380dac7acb","system_id":"levelo_inurba_marseille","lat":43.30181,"lon":5.38072,"is_reserved":false,"is_disabled":false,"rental_uris":{"android":"levelo://app?vid=5e333b78-bf48-41a3-840f-ef380dac7acb","ios":"levelo://app?vid=5e333b78-bf48-41a3-840f-ef380dac7acb"},"vehicle_type_id":"4","last_reported":1750396315,"current_range_meters":27600,"station_id":"ce4bgjp2rcd13ifvqbh0","pricing_plan_id":"cebpf4jnsgd1na2vs0mg"},{"bike_id":"bd476318-d822-4bc7-9ec4-f6e195eb9d48","system_id":"levelo_inurba_marseille","lat":43.30147,"lon":5.38087,"is_reserved":false,"is_disabled":false,"rental_uris":{"android":"levelo://app?vid=bd476318-d822-4bc7-9ec4-f6e195eb9d48","ios":"levelo://app?vid=bd476318-d822-4bc7-9ec4-f6e195eb9d48"},"vehicle_type_id":"4","last_reported":1750396315,"current_range_meters":27600,"station_id":"ce4bgjp2rcd13ifvqbh0","pricing_plan_id":"cebpf4jnsgd1na2vs0mg"},{"bike_id":"d63a501e-2782-450e-a197-c8128555ed02","system_id":"levelo_inurba_marseille","lat":43.306,"lon":5.37216,"is_reserved":false,"is_disabled":false,"rental_uris":{"android":"levelo://app?vid=d63a501e-2782-450e-a197-c8128555ed02","ios":"levelo://app?vid=d63a501e-2782-450e-a197-c8128555ed02"},"vehicle_type_id":"4","last_reported":1750396315,"current_range_meters":27600,"station_id":"ce4bgqh2rcd13ifvqc4g","pricing_plan_id":"cebpf4jnsgd1na2vs0mg"},{"bike_id":"0d8b9c98-f139-4bfc-9ae0-540f2c429492","system_id":"levelo_inurba_marseille","lat":43.294894,"lon":5.375996,"is_reserved":false,"is_disabled":false,"rental_uris":{"android":"levelo://app?vid=0d8b9c98-f139-4bfc-9ae0-540f2c429492","ios":"levelo://app?vid=0d8b9c98-f139-4bfc-9ae0-540f2c429492"},"vehicle_type_id":"4","last_reported":1750396315,"current_range_meters":27600,"station_id":"ce4bh9p2rcd13ifvqed0","pricing_plan_id":"cebpf4jnsgd1na2vs0mg"},{"bike_id":"c773791a-fd97-4f1b-bd5a-a9ae11c1a000","system_id":"levelo_inurba_marseille","lat":43.27925,"lon":5.396,"is_reserved":false,"is_disabled":false,"rental_uris":{"android":"levelo://app?vid=c773791a-fd97-4f1b-bd5a-a9ae11c1a000","ios":"levelo://app?vid=c773791a-fd97-4f1b-bd5a-a9ae11c1a000"},"vehicle_type_id":"4","last_reported":1750396315,"current_range_meters":27600,"station_id":"ce4bhf92rcd13ifvqf40","pricing_plan_id":"cebpf4jnsgd1na2vs0mg"},{"bike_id":"2686b361-51cd-48ec-ba78-6128ef9a59f0","system_id":"levelo_inurba_marseille","lat":43.25922,"lon":5.4088,"is_reserved":false,"is_disabled":false,"rental_uris":{"android":"levelo://app?vid=2686b361-51cd-48ec-ba78-6128ef9a59f0","ios":"levelo://app?vid=2686b361-51cd-48ec-ba78-6128ef9a59f0"},"vehicle_type_id":"4","last_reported":1750396315,"current_range_meters":27600,"station_id":"ce4bhm92rcd13ifvqglg","pricing_plan_id":"cebpf4jnsgd1na2vs0mg"},{"bike_id":"5b02c03c-9144-4164-acb4-928202f16273","system_id":"levelo_inurba_marseille","lat":43.27946,"lon":5.41033,"is_reserved":false,"is_disabled":false,"rental_uris":{"android":"levelo://app?vid=5b02c03c-9144-4164-acb4-928202f16273","ios":"levelo://app?vid=5b02c03c-9144-4164-acb4-928202f16273"},"vehicle_type_id":"4","last_reported":1750396315,"current_range_meters":27600,"station_id":"ce4bhnp2rcd13ifvqh0g","pricing_plan_id":"cebpf4jnsgd1na2vs0mg"},{"bike_id":"397c1d5a-90a1-484f-bcf1-171099d7724d","system_id":"levelo_inurba_marseille","lat":43.2456,"lon":5.40211,"is_reserved":false,"is_disabled":false,"rental_uris":{"android":"levelo://app?vid=397c1d5a-90a1-484f-bcf1-171099d7724d","ios":"levelo://app?vid=397c1d5a-90a1-484f-bcf1-171099d7724d"},"vehicle_type_id":"4","last_reported":1750396315,"current_range_meters":28000,"station_id":"","pricing_plan_id":"cebpf4jnsgd1na2vs0mg"},{"bike_id":"83db7c65-ea96-4a09-b5fd-1fe561f12d32","system_id":"levelo_inurba_marseille","lat":43.29873,"lon":5.39717,"is_reserved":false,"is_disabled":false,"rental_uris":{"android":"levelo://app?vid=83db7c65-ea96-4a09-b5fd-1fe561f12d32","ios":"levelo://app?vid=83db7c65-ea96-4a09-b5fd-1fe561f12d32"},"vehicle_type_id":"4","last_reported":1750396315,"current_range_meters":28000,"station_id":"ce4bh0h2rcd13ifvqd50","pricing_plan_id":"cebpf4jnsgd1na2vs0mg"},{"bike_id":"727ad39d-0d2a-47a9-9d52-3c0467b376cd","system_id":"levelo_inurba_marseille","lat":43.29279,"lon":5.40114,"is_reserved":false,"is_disabled":false,"rental_uris":{"android":"levelo://app?vid=727ad39d-0d2a-47a9-9d52-3c0467b376cd","ios":"levelo://app?vid=727ad39d-0d2a-47a9-9d52-3c0467b376cd"},"vehicle_type_id":"4","last_reported":1750396315,"current_range_meters":28000,"station_id":"ce4bh312rcd13ifvqdk0","pricing_plan_id":"cebpf4jnsgd1na2vs0mg"},{"bike_id":"3426469e-4cc0-443f-9fb5-0a8a317d10ae","system_id":"levelo_inurba_marseille","lat":43.28111,"lon":5.37834,"is_reserved":false,"is_disabled":false,"rental_uris":{"android":"levelo://app?vid=3426469e-4cc0-443f-9fb5-0a8a317d10ae","ios":"levelo://app?vid=3426469e-4cc0-443f-9fb5-0a8a317d10ae"},"vehicle_type_id":"4","last_reported":1750396315,"current_range_meters":28000,"station_id":"ce4bha12rcd13ifvqee0","pricing_plan_id":"cebpf4jnsgd1na2vs0mg"},{"bike_id":"55adf72e-00b6-4ad1-a746-4c58d7b1cbd4","system_id":"levelo_inurba_marseille","lat":43.31708,"lon":5.43706,"is_reserved":false,"is_disabled":false,"rental_uris":{"android":"levelo://app?vid=55adf72e-00b6-4ad1-a746-4c58d7b1cbd4","ios":"levelo://app?vid=55adf72e-00b6-4ad1-a746-4c58d7b1cbd4"},"vehicle_type_id":"4","last_reported":1750396315,"current_range_meters":28000,"station_id":"ce4bhp92rcd13ifvqhcg","pricing_plan_id":"cebpf4jnsgd1na2vs0mg"},