{"last_updated":1687129579,"ttl":30,"version":"2.2","data":{"bikes":[{"bike_id":"c579cd28-6ce2-4362-8391-740fa74ceac5","system_id":"levelo_inurba_marseille","lat":43.313391,"lon":5.36706,"is_reserved":false,"is_disabled":false,"rental_uris":{"android":"levelo://app?vid=c579cd28-6ce2-4362-8391-740fa74ceac5","ios":"levelo://app?vid=c579cd28-6ce2-4362-8391-740fa74ceac5"},"vehicle_type_id":"4","last_reported":1687129580,"current_range_meters":20000,"station_id":"ce4bgr92rcd13ifvqc6g","pricing_plan_id":"free"},{"bike_id":"cda6e1c4-d0c4-4303-9901-2c3b18988c08","system_id":"levelo_inurba_marseille","lat":43.312239,"lon":5.368562,"is_reserved":false,"is_disabled":false,"rental_uris":{"android":"levelo://app?vid=cda6e1c4-d0c4-4303-9901-2c3b18988c08","ios":"levelo://app?vid=cda6e1c4-d0c4-4303-9901-2c3b18988c08"},"vehicle_type_id":"4","last_reported":1687129580,"current_range_meters":30000,"station_id":"ce4bgl92rcd13ifvqbq0","pricing_plan_id":"free"},{"bike_id":"782097f9-9434-4d2e-b2d0-f6c9828acf42","system_id":"levelo_inurba_marseille","lat":43.31491,"lon":5.37298,"is_reserved":false,"is_disabled":false,"rental_uris":{"android":"levelo://app?vid=782097f9-9434-4d2e-b2d0-f6c9828acf42","ios":"levelo://app?vid=782097f9-9434-4d2e-b2d0-f6c9828acf42"},"vehicle_type_id":"4","last_reported":1687129580,"current_range_meters":17200,"station_id":"ce4bgt12rcd13ifvqcd0","pricing_plan_id":"free"},{"bike_id":"fff1a752-a0c3-4f30-b86b-9510f7ec9a1b","system_id":"levelo_inurba_marseille","lat":43.31486,"lon":5.37303,"is_reserved":false,"is_disabled":false,"rental_uris":{"android":"levelo://app?vid=fff1a752-a0c3-4f30-b86b-9510f7ec9a1b","ios":"levelo://app?vid=fff1a752-a0c3-4f30-b86b-9510f7ec9a1b"},"vehicle_type_id":"4","last_reported":1687129580,"current_range_meters":4000,"station_id":"ce4bgt12rcd13ifvqcd0","pricing_plan_id":"free"},{"bike_id":"9c010ccd-71df-4eb6-916b-68947abfa074","system_id":"levelo_inurba_marseille","lat":43.314811,"lon":5.373103,"is_reserved":false,"is_disabled":false,"rental_uris":{"android":"levelo://app?vid=9c010ccd-71df-4eb6-916b-68947abfa074","ios":"levelo://app?vid=9c010ccd-71df-4eb6-916b-68947abfa074"},"vehicle_type_id":"4","last_reported":1687129580,"current_range_meters":29600,"station_id":"ce4bgt12rcd13ifvqcd0","pricing_plan_id":"free"},{"bike_id":"6f594dca-0fa1-4377-ab34-494fedae58f6","system_id":"levelo_inurba_marseille","lat":43.30537,"lon":5.367345,"is_reserved":false,"is_disabled":false,"rental_uris":{"android":"levelo://app?vid=6f594dca-0fa1-4377-ab34-494fedae58f6","ios":"levelo://app?vid=6f594dca-0fa1-4377-ab34-494fedae58f6"},"vehicle_type_id":"4","last_reported":1687129580,"current_range_meters":31200,"station_id":"ce4bgrp2rcd13ifvqc9g","pricing_plan_id":"free"},{"bike_id":"191de81f-de13-49aa-8109-ae779b9d1558","system_id":"levelo_inurba_marseille","lat":43.305714,"lon":5.365633,"is_reserved":false,"is_disabled":false,"rental_uris":{"android":"levelo://app?vid=191de81f-de13-49aa-8109-ae779b9d1558","ios":"levelo://app?vid=191de81f-de13-49aa-8109-ae779b9d1558"},"vehicle_type_id":"4","last_reported":1687129580,"current_range_meters":31200,"station_id":"ce4bgs12rcd13ifvqcag","pricing_plan_id":"free"},{"bike_id":"99bccd45-8b5d-4c82-904c-d741ee6c6530","system_id":"levelo_inurba_marseille","lat":43.305989,"lon":5.37225,"is_reserved":false,"is_disabled":false,"rental_uris":{"android":"levelo://app?vid=99bccd45-8b5d-4c82-904c-d741ee6c6530","ios":"levelo://app?vid=99bccd45-8b5d-4c82-904c-d741ee6c6530"},"vehicle_type_id":"4","last_reported":1687129580,"current_range_meters":16400,"station_id":"ce4bgqh2rcd13ifvqc4g","pricing_plan_id":"free"},{"bike_id":"47e6996c-d18a-483c-be14-bb4789c5a5d0","system_id":"levelo_inurba_marseille","lat":43.305989,"lon":5.37225,"is_reserved":false,"is_disabled":false,"rental_uris":{"android":"levelo://app?vid=47e6996c-d18a-483c-be14-bb4789c5a5d0","ios":"levelo://app?vid=47e6996c-d18a-483c-be14-bb4789c5a5d0"},"vehicle_type_id":"4","last_reported":1687129580,"current_range_meters":26000,"station_id":"ce4bgqh2rcd13ifvqc4g","pricing_plan_id":"free"},{"bike_id":"fbbdf9f6-ee78-4a9b-8dbd-68df23d3159a","system_id":"levelo_inurba_marseille","lat":43.305989,"lon":5.37225,"is_reserved":false,"is_disabled":false,"rental_uris":{"android":"levelo://app?vid=fbbdf9f6-ee78-4a9b-8dbd-68df23d3159a","ios":"levelo://app?vid=fbbdf9f6-ee78-4a9b-8dbd-68df23d3159a"},"vehicle_type_id":"4","last_reported":1687129580,"current_range_meters":12000,"station_id":"ce4bgqh2rcd13ifvqc4g","pricing_plan_id":"free"},{"bike_id":"d6d95a10-4f91-49e7-8dcf-ad0a702eeeb4","system_id":"levelo_inurba_marseille","lat":43.305989,"lon":5.37225,"is_reserved":false,"is_disabled":false,"rental_uris":{"android":"levelo://app?vid=d6d95a10-4f91-49e7-8dcf-ad0a702eeeb4","ios":"levelo://app?vid=d6d95a10-4f91-49e7-8dcf-ad0a702eeeb4"},"vehicle_type_id":"4","last_reported":1687129580,"current_range_meters":25600,"station_id":"ce4bgqh2rcd13ifvqc4g","pricing_plan_id":"free"},{"bike_id":"14156c24-c8c8-4f46-8ca8-64611fe1e34d","system_id":"levelo_inurba_marseille","lat":43.305989,"lon":5.37225,"is_reserved":false,"is_disabled":false,"rental_uris":{"android":"levelo://app?vid=14156c24-c8c8-4f46-8ca8-64611fe1e34d","ios":"levelo://app?vid=14156c24-c8c8-4f46-8ca8-64611fe1e34d"},"vehicle_type_id":"4","last_reported":1687129580,"current_range_meters":21600,"station_id":"ce4bgqh2rcd13ifvqc4g","pricing_plan_id":"free"},{"bike_id":"0ed3a6fa-7a08-42a5-b766-3b15fdcea44b","system_id":"levelo_inurba_marseille","lat":43.311131,"lon":5.377651,"is_reserved":false,"is_disabled":false,"rental_uris":{"android":"levelo://app?vid=0ed3a6fa-7a08-42a5-b766-3b15fdcea44b","ios":"levelo://app?vid=0ed3a6fa-7a08-42a5-b766-3b15fdcea44b"},"vehicle_type_id":"4","last_reported":1687129580,"current_range_meters":31200,"station_id":"ce4bgt92rcd13ifvqcg0","pricing_plan_id":"free"},{"bike_id":"38d96d2c-86ec-4e14-8601-9862d726f6c4","system_id":"levelo_inurba_marseille","lat":43.31123,"lon":5.37767,"is_reserved":false,"is_disabled":false,"rental_uris":{"android":"levelo://app?vid=38d96d2c-86ec-4e14-8601-9862d726f6c4","ios":"levelo://app?vid=38d96d2c-86ec-4e14-8601-9862d726f6c4"},"vehicle_type_id":"4","last_reported":1687129580,"current_range_meters":0,"station_id":"ce4bgt92rcd13ifvqcg0","pricing_plan_id":"free"},{"bike_id":"612ae939-a332-4e78-8447-93e3e426d025","system_id":"levelo_inurba_marseille","lat":43.31121,"lon":5.37773,"is_reserved":false,"is_disabled":false,"rental_uris":{"android":"levelo://app?vid=612ae939-a332-4e78-8447-93e3e426d025","ios":"levelo://app?vid=612ae939-a332-4e78-8447-93e3e426d025"},"vehicle_type_id":"4","last_reported":1687129580,"current_range_meters":31200,"station_id":"ce4bgt92rcd13ifvqcg0","pricing_plan_id":"free"},{"bike_id":"e1453fe6-cf26-4275-a503-1b1bdf83fcfd","system_id":"levelo_inurba_marseille","lat":43.311131,"lon":5.377651,"is_reserved":false,"is_disabled":false,"rental_uris":{"android":"levelo://app?vid=e1453fe6-cf26-4275-a503-1b1bdf83fcfd","ios":"levelo://app?vid=e1453fe6-cf26-4275-a503-1b1bdf83fcfd"},"vehicle_type_id":"4","last_reported":1687129580,"current_range_meters":25200,"station_id":"ce4bgt92rcd13ifvqcg0","pricing_plan_id":"free"},{"bike_id":"4424f651-13ad-4b34-b9fb-7087dec7bd04","system_id":"levelo_inurba_marseille","lat":43.317075,"lon":5.377367,"is_reserved":false,"is_disabled":false,"rental_uris":{"android":"levelo://app?vid=4424f651-13ad-4b34-b9fb-7087dec7bd04","ios":"levelo://app?vid=4424f651-13ad-4b34-b9fb-7087dec7bd04"},"vehicle_type_id":"4","last_reported":1687129580,"current_range_meters":30000,"station_id":"ce4bgth2rcd13ifvqch0","pricing_plan_id":"free"},{"bike_id":"2424216c-0462-4ad0-b127-d0366c91b61c","system_id":"levelo_inurba_marseille","lat":43.31745,"lon":5.37809,"is_reserved":false,"is_disabled":false,"rental_uris":{"android":"levelo://app?vid=2424216c-0462-4ad0-b127-d0366c91b61c","ios":"levelo://app?vid=2424216c-0462-4ad0-b127-d0366c91b61c"},"vehicle_type_id":"4","last_reported":1687129580,"current_range_meters":26400,"station_id":"","pricing_plan_id":"free"},{"bike_id":"502767a0-18e7-454c-a6d8-8f7fedbe0d99","system_id":"levelo_inurba_marseille","lat":43.30968,"lon":5.37926,"is_reserved":false,"is_disabled":false,"rental_uris":{"android":"levelo://app?vid=502767a0-18e7-454c-a6d8-8f7fedbe0d99","ios":"levelo://app?vid=502767a0-18e7-454c-a6d8-8f7fedbe0d99"},"vehicle_type_id":"4","last_reported":1687129580,"current_range_meters":26000,"station_id":"","pricing_plan_id":"free"},{"bike_id":"ace46086-22e0-47cc-90c2-91943afa8e38","system_id":"levelo_inurba_marseille","lat":43.303046,"lon":5.368981,"is_reserved":false,"is_disabled":false,"rental_uris":{"android":"levelo://app?vid=ace46086-22e0-47cc-90c2-91943afa8e38","ios":"levelo://app?vid=ace46086-22e0-47cc-90c2-91943afa8e38"},"vehicle_type_id":"4","last_reported":1687129580,"current_range_meters":31200,"station_id":"ce4bgqh2rcd13ifvqc5g","pricing_plan_id":"free"},{"bike_id":"fc87152f-0e3b-4aad-8608-cf4fcdb3a723","system_id":"levelo_inurba_marseille","lat":43.303046,"lon":5.368981,"is_reserved":false,"is_disabled":false,"rental_uris":{"android":"levelo://app?vid=fc87152f-0e3b-4aad-8608-cf4fcdb3a723","ios":"levelo://app?vid=fc87152f-0e3b-4aad-8608-cf4fcdb3a723"},"vehicle_type_id":"4","last_reported":1687129580,"current_range_meters":23600,"station_id":"ce4bgqh2rcd13ifvqc5g","pricing_plan_id":"free"},{"bike_id":"63918507-586c-4cd9-b0d1-769a5de82696","system_id":"levelo_inurba_marseille","lat":43.303046,"lon":5.368981,"is_reserved":false,"is_disabled":false,"rental_uris":{"android":"levelo://app?vid=63918507-586c-4cd9-b0d1-769a5de82696","ios":"levelo://app?vid=63918507-586c-4cd9-b0d1-769a5de82696"},"vehicle_type_id":"4","last_reported":1687129580,"current_range_meters":0,"station_id":"ce4bgqh2rcd13ifvqc5g","pricing_plan_id":"free"},{"bike_id":"768fc332-2057-468d-9ab9-0ed9d636dacd","system_id":"levelo_inurba_marseille","lat":43.301939,"lon":5.366286,"is_reserved":false,"is_disabled":false,"rental_uris":{"android":"levelo://app?vid=768fc332-2057-468d-9ab9-0ed9d636dacd","ios":"levelo://app?vid=768fc332-2057-468d-9ab9-0ed9d636dacd"},"vehicle_type_id":"4","last_reported":1687129580,"current_range_meters":19200,"station_id":"ce4bgrh2rcd13ifvqc8g","pricing_plan_id":"free"},{"bike_id":"49a7f0d9-a735-4d48-be3f-0fc21ff0eec7","system_id":"levelo_inurba_marseille","lat":43.301939,"lon":5.366286,"is_reserved":false,"is_disabled":false,"rental_uris":{"android":"levelo://app?vid=49a7f0d9-a735-4d48-be3f-0fc21ff0eec7","ios":"levelo://app?vid=49a7f0d9-a735-4d48-be3f-0fc21ff0eec7"},"vehicle_type_id":"4","last_reported":1687129580,"current_range_meters":6800,"station_id":"ce4bgrh2rcd13ifvqc8g","pricing_plan_id":"free"},{"bike_id":"88a5ed08-0ca3-4502-9b71-74eebe842222","system_id":"levelo_inurba_marseille","lat":43.301939,"lon":5.366286,"is_reserved":false,"is_disabled":false,"rental_uris":{"android":"levelo://app?vid=88a5ed08-0ca3-4502-9b71-74eebe842222","ios":"levelo://app?vid=88a5ed08-0ca3-4502-9b71-74eebe842222"},"vehicle_type_id":"4","last_reported":1687129580,"current_range_meters":12800,"station_id":"ce4bgrh2rcd13ifvqc8g","pricing_plan_id":"free"},{"bike_id":"8eac0eaa-8f2a-4c56-a22f-4cc6b891e4d8","system_id":"levelo_inurba_marseille","lat":43.308012,"lon":5.381511,"is_reserved":false,"is_disabled":false,"rental_uris":{"android":"levelo://app?vid=8eac0eaa-8f2a-4c56-a22f-4cc6b891e4d8","ios":"levelo://app?vid=8eac0eaa-8f2a-4c56-a22f-4cc6b891e4d8"},"vehicle_type_id":"4","last_reported":1687129580,"current_range_meters":6000,"station_id":"ce4bgt12rcd13ifvqce0","pricing_plan_id":"free"},{"bike_id":"199b9545-dfea-422e-a4f8-2731fbbfdefe","system_id":"levelo_inurba_marseille","lat":43.308012,"lon":5.381511,"is_reserved":false,"is_disabled":false,"rental_uris":{"android":"levelo://app?vid=199b9545-dfea-422e-a4f8-2731fbbfdefe","ios":"levelo://app?vid=199b9545-dfea-422e-a4f8-2731fbbfdefe"},"vehicle_type_id":"4","last_reported":1687129580,"current_range_meters":9600,"station_id":"ce4bgt12rcd13ifvqce0","pricing_plan_id":"free"},{"bike_id":"ae33307b-fcd5-479b-9ae1-9002ed226c6e","system_id":"levelo_inurba_marseille","lat":43.308012,"lon":5.381511,"is_reserved":false,"is_disabled":false,"rental_uris":{"android":"levelo://app?vid=ae33307b-fcd5-479b-9ae1-9002ed226c6e","ios":"levelo://app?vid=ae33307b-fcd5-479b-9ae1-9002ed226c6e"},"vehicle_type_id":"4","last_reported":1687129580,"current_range_meters":28000,"station_id":"ce4bgt12rcd13ifvqce0","pricing_plan_id":"free"},{"bike_id":"9fa312fe-1fee-4498-b79f-0788ede51bc8","system_id":"levelo_inurba_marseille","lat":43.308012,"lon":5.381511,"is_reserved":false,"is_disabled":false,"rental_uris":{"android":"levelo://app?vid=9fa312fe-1fee-4498-b79f-0788ede51bc8","ios":"levelo://app?vid=9fa312fe-1fee-4498-b79f-0788ede51bc8"},"vehicle_type_id":"4","last_reported":1687129580,"current_range_meters":24800,"station_id":"ce4bgt12rcd13ifvqce0","pricing_plan_id":"free"},{"bike_id":"43fc693e-f2a9-4aec-8fd9-d094bb02cb70","system_id":"levelo_inurba_marseille","lat":43.304606,"lon":5.379026,"is_reserved":false,"is_disabled":false,"rental_uris":{"android":"levelo://app?vid=43fc693e-f2a9-4aec-8fd9-d094bb02cb70","ios":"levelo://app?vid=43fc693e-f2a9-4aec-8fd9-d094bb02cb70"},"vehicle_type_id":"4","last_reported":1687129580,"current_range_meters":16000,"station_id":"ce4bgup2rcd13ifvqcn0","pricing_plan_id":"free"},{"bike_id":"76e7ec4e-4955-4482-bcc3-fa40f69fd63a","system_id":"levelo_inurba_marseille","lat":43.302784,"lon":5.377158,"is_reserved":false,"is_disabled":false,"rental_uris":{"android":"levelo://app?vid=76e7ec4e-4955-4482-bcc3-fa40f69fd63a","ios":"levelo://app?vid=76e7ec4e-4955-4482-bcc3-fa40f69fd63a"},"vehicle_type_id":"4","last_reported":1687129580,"current_range_meters":31200,"station_id":"ce4bguh2rcd13ifvqcj0","pricing_plan_id":"free"},{"bike_id":"d3c6793c-3fc9-48a2-a65d-a368b95852db","system_id":"levelo_inurba_marseille","lat":43.302784,"lon":5.377158,"is_reserved":false,"is_disabled":false,"rental_uris":{"android":"levelo://app?vid=d3c6793c-3fc9-48a2-a65d-a368b95852db","ios":"levelo://app?vid=d3c6793c-3fc9-48a2-a65d-a368b95852db"},"vehicle_type_id":"4","last_reported":1687129580,"current_range_meters":31200,"station_id":"ce4bguh2rcd13ifvqcj0","pricing_plan_id":"free"},{"bike_id":"1daafdf2-b720-472b-9a64-378e7ec618cb","system_id":"levelo_inurba_marseille","lat":43.302784,"lon":5.377158,"is_reserved":false,"is_disabled":false,"rental_uris":{"android":"levelo://app?vid=1daafdf2-b720-472b-9a64-378e7ec618cb","ios":"levelo://app?vid=1daafdf2-b720-472b-9a64-378e7ec618cb"},"vehicle_type_id":"4","last_reported":1687129580,"current_range_meters":29600,"station_id":"ce4bguh2rcd13ifvqcj0","pricing_plan_id":"free"},{"bike_id":"f30986f0-7f86-45ac-9765-06d6cb3c783c","system_id":"levelo_inurba_marseille","lat":43.302784,"lon":5.377158,"is_reserved":false,"is_disabled":false,"rental_uris":{"android":"levelo://app?vid=f30986f0-7f86-45ac-9765-06d6cb3c783c","ios":"levelo://app?vid=f30986f0-7f86-45ac-9765-06d6cb3c783c"},"vehicle_type_id":"4","last_reported":1687129580,"current_range_meters":31200,"station_id":"ce4bguh2rcd13ifvqcj0","pricing_plan_id":"free"},{"bike_id":"5c3741bf-f187-43b7-920c-01d7863e401e","system_id":"levelo_inurba_marseille","lat":43.30146,"lon":5.37414,"is_reserved":false,"is_disabled":false,"rental_uris":{"android":"levelo://app?vid=5c3741bf-f187-43b7-920c-01d7863e401e","ios":"levelo://app?vid=5c3741bf-f187-43b7-920c-01d7863e401e"},"vehicle_type_id":"4","last_reported":1687129580,"current_range_meters":31200,"station_id":"ce4bgs92rcd13ifvqcc0","pricing_plan_id":"free"},{"bike_id":"35122efc-e55e-459e-bff3-8c95771d6de5","system_id":"levelo_inurba_marseille","lat":43.3014,"lon":5.37414,"is_reserved":false,"is_disabled":false,"rental_uris":{"android":"levelo://app?vid=35122efc-e55e-459e-bff3-8c95771d6de5","ios":"levelo://app?vid=35122efc-e55e-459e-bff3-8c95771d6de5"},"vehicle_type_id":"4","last_reported":1687129580,"current_range_meters":31200,"station_id":"ce4bgs92rcd13ifvqcc0","pricing_plan_id":"free"},{"bike_id":"5c9eecb4-0262-4e4c-92f0-80adc6e03893","system_id":"levelo_inurba_marseille","lat":43.319935,"lon":5.381699,"is_reserved":false,"is_disabled":false,"rental_uris":{"android":"levelo://app?vid=5c9eecb4-0262-4e4c-92f0-80adc6e03893","ios":"levelo://app?vid=5c9eecb4-0262-4e4c-92f0-80adc6e03893"},"vehicle_type_id":"4","last_reported":1687129580,"current_range_meters":13200,"station_id":"ce4bhr12rcd13ifvqhpg","pricing_plan_id":"free"},{"bike_id":"abb15d38-9ee6-4113-8939-36cef9e63da7","system_id":"levelo_inurba_marseille","lat":43.319935,"lon":5.381699,"is_reserved":false,"is_disabled":false,"rental_uris":{"android":"levelo://app?vid=abb15d38-9ee6-4113-8939-36cef9e63da7","ios":"levelo://app?vid=abb15d38-9ee6-4113-8939-36cef9e63da7"},"vehicle_type_id":"4","last_reported":1687129580,"current_range_meters":5600,"station_id":"ce4bhr12rcd13ifvqhpg","pricing_plan_id":"free"},{"bike_id":"4f861f33-07f1-4fa8-9f28-eb3be314e697","system_id":"levelo_inurba_marseille","lat":43.319935,"lon":5.381699,"is_reserved":false,"is_disabled":false,"rental_uris":{"android":"levelo://app?vid=4f861f33-07f1-4fa8-9f28-eb3be314e697","ios":"levelo://app?vid=4f861f33-07f1-4fa8-9f28-eb3be314e697"},"vehicle_type_id":"4","last_reported":1687129580,"current_range_meters":20400,"station_id":"ce4bhr12rcd13ifvqhpg","pricing_plan_id":"free"},{"bike_id":"2255ca2e-ae7f-4125-a151-9b6121c03059","system_id":"levelo_inurba_marseille","lat":43.313571,"lon":5.384829,"is_reserved":false,"is_disabled":false,"rental_uris":{"android":"levelo://app?vid=2255ca2e-ae7f-4125-a151-9b6121c03059","ios":"levelo://app?vid=2255ca2e-ae7f-4125-a151-9b6121c03059"},"vehicle_type_id":"4","last_reported":1687129580,"current_range_meters":30000,"station_id":"ce4bgt92rcd13ifvqcf0","pricing_plan_id":"free"},{"bike_id":"54c4cd93-4f19-4287-b17c-af99a21d6bf6","system_id":"levelo_inurba_marseille","lat":43.313571,"lon":5.384829,"is_reserved":false,"is_disabled":false,"rental_uris":{"android":"levelo://app?vid=54c4cd93-4f19-4287-b17c-af99a21d6bf6","ios":"levelo://app?vid=54c4cd93-4f19-4287-b17c-af99a21d6bf6"},"vehicle_type_id":"4","last_reported":1687129580,"current_range_meters":25600,"station_id":"ce4bgt92rcd13ifvqcf0","pricing_plan_id":"free"},{"bike_id":"94ef9b91-9a73-4a36-9ad7-e6ce59db45a8","system_id":"levelo_inurba_marseille","lat":43.313571,"lon":5.384829,"is_reserved":false,"is_disabled":false,"rental_uris":{"android":"levelo://app?vid=94ef9b91-9a73-4a36-9ad7-e6ce59db45a8","ios":"levelo://app?vid=94ef9b91-9a73-4a36-9ad7-e6ce59db45a8"},"vehicle_type_id":"4","last_reported":1687129580,"current_range_meters":20800,"station_id":"ce4bgt92rcd13ifvqcf0","pricing_plan_id":"free"},{"bike_id":"ce6824bb-555d-41f6-bbc0-49968aeb414e","system_id":"levelo_inurba_marseille","lat":43.299222,"lon":5.365554,"is_reserved":false,"is_disabled":false,"rental_uris":{"android":"levelo://app?vid=ce6824bb-555d-41f6-bbc0-49968aeb414e","ios":"levelo://app?vid=ce6824bb-555d-41f6-bbc0-49968aeb414e"},"vehicle_type_id":"4","last_reported":1687129580,"current_range_meters":2800,"station_id":"ce4bgm92rcd13ifvqbr0","pricing_plan_id":"free"},{"bike_id":"58ecd13f-ae78-466a-bfd8-fc717d3d03c0","system_id":"levelo_inurba_marseille","lat":43.302759,"lon":5.400793,"is_reserved":false,"is_disabled":false,"rental_uris":{"android":"levelo://app?vid=58ecd13f-ae78-466a-bfd8-fc717d3d03c0","ios":"levelo://app?vid=58ecd13f-ae78-466a-bfd8-fc717d3d03c0"},"vehicle_type_id":"4","last_reported":1687129580,"current_range_meters":11600,"station_id":"ce4bgvh2rcd13ifvqcs0","pricing_plan_id":"free"},{"bike_id":"77decb69-e203-463b-832d-ee6e7345d3c5","system_id":"levelo_inurba_marseille","lat":43.305364,"lon":5.384119,"is_reserved":false,"is_disabled":false,"rental_uris":{"android":"levelo://app?vid=77decb69-e203-463b-832d-ee6e7345d3c5","ios":"levelo://app?vid=77decb69-e203-463b-832d-ee6e7345d3c5"},"vehicle_type_id":"4","last_reported":1687129580,"current_range_meters":17200,"station_id":"ce4bgg92rcd13ifvqb30","pricing_plan_id":"free"},{"bike_id":"e10061db-19ae-41e9-8c02-733319eda0fe","system_id":"levelo_inurba_marseille","lat":43.305364,"lon":5.384119,"is_reserved":false,"is_disabled":false,"rental_uris":{"android":"levelo://app?vid=e10061db-19ae-41e9-8c02-733319eda0fe","ios":"levelo://app?vid=e10061db-19ae-41e9-8c02-733319eda0fe"},"vehicle_type_id":"4","last_reported":1687129580,"current_range_meters":25600,"station_id":"ce4bgg92rcd13ifvqb30","pricing_plan_id":"free"},{"bike_id":"91da8c02-2805-46fb-9dfc-59e6faf170ba","system_id":"levelo_inurba_marseille","lat":43.298433,"lon":5.362774,"is_reserved":false,"is_disabled":false,"rental_uris":{"android":"levelo://app?vid=91da8c02-2805-46fb-9dfc-59e6faf170ba","ios":"levelo://app?vid=91da8c02-2805-46fb-9dfc-59e6faf170ba"},"vehicle_type_id":"4","last_reported":1687129580,"current_range_meters":25600,"station_id":"ce4bgpp2rcd13ifvqc3g","pricing_plan_id":"free"},{"bike_id":"aae09e38-c8e1-4b5a-b25b-873d580b0cf1","system_id":"levelo_inurba_marseille","lat":43.298433,"lon":5.362774,"is_reserved":false,"is_disabled":false,"rental_uris":{"android":"levelo://app?vid=aae09e38-c8e1-4b5a-b25b-873d580b0cf1","ios":"levelo://app?vid=aae09e38-c8e1-4b5a-b25b-873d580b0cf1"},"vehicle_type_id":"4","last_reported":1687129580,"current_range_meters":800,"station_id":"ce4bgpp2rcd13ifvqc3g","pricing_plan_id":"free"},{"bike_id":"00abe58a-7989-40f4-bf2d-076efc7505b3","system_id":"levelo_inurba_marseille","lat":43.31171,"lon":5.38707,"is_reserved":false,"is_disabled":false,"rental_uris":{"android":"levelo://app?vid=00abe58a-7989-40f4-bf2d-076efc7505b3","ios":"levelo://app?vid=00abe58a-7989-40f4-bf2d-076efc7505b3"},"vehicle_type_id":"4","last_reported":1687129580,"current_range_meters":31200,"station_id":"ce4bgv12rcd13ifvqcp0","pricing_plan_id":"free"},{"bike_id":"a54d45d8-7ccc-4b4a-8034-c656383b27dc","system_id":"levelo_inurba_marseille","lat":43.31168,"lon":5.38715,"is_reserved":false,"is_disabled":false,"rental_uris":{"android":"levelo://app?vid=a54d45d8-7ccc-4b4a-8034-c656383b27dc","ios":"levelo://app?vid=a54d45d8-7ccc-4b4a-8034-c656383b27dc"},"vehicle_type_id":"4","last_reported":1687129580,"current_range_meters":25200,"station_id":"ce4bgv12rcd13ifvqcp0","pricing_plan_id":"free"},{"bike_id":"26fb3d9e-349e-4452-aa18-e14e4d4ee6ec","system_id":"levelo_inurba_marseille","lat":43.311722,"lon":5.387247,"is_reserved":false,"is_disabled":false,"rental_uris":{"android":"levelo://app?vid=26fb3d9e-349e-4452-aa18-e14e4d4ee6ec","ios":"levelo://app?vid=26fb3d9e-349e-4452-aa18-e14e4d4ee6ec"},"vehicle_type_id":"4","last_reported":1687129580,"current_range_meters":17600,"station_id":"ce4bgv12rcd13ifvqcp0","pricing_plan_id":"free"},{"bike_id":"a18869f0-6d32-4e7f-9bb4-d1773baeef3c","system_id":"levelo_inurba_marseille","lat":43.31166,"lon":5.38717,"is_reserved":false,"is_disabled":false,"rental_uris":{"android":"levelo://app?vid=a18869f0-6d32-4e7f-9bb4-d1773baeef3c","ios":"levelo://app?vid=a18869f0-6d32-4e7f-9bb4-d1773baeef3c"},"vehicle_type_id":"4","last_reported":1687129580,"current_range_meters":26800,"station_id":"ce4bgv12rcd13ifvqcp0","pricing_plan_id":"free"},{"bike_id":"319bf623-6c8b-40e9-aa78-d23cedb63ee2","system_id":"levelo_inurba_marseille","lat":43.299243,"lon":5.37481,"is_reserved":false,"is_disabled":false,"rental_uris":{"android":"levelo://app?vid=319bf623-6c8b-40e9-aa78-d23cedb63ee2","ios":"levelo://app?vid=319bf623-6c8b-40e9-aa78-d23cedb63ee2"},"vehicle_type_id":"4","last_reported":1687129580,"current_range_meters":13600,"station_id":"ce4bgjh2rcd13ifvqbg0","pricing_plan_id":"free"},{"bike_id":"40251fb6-e2d0-4b5d-b2df-ae489de72ccf","system_id":"levelo_inurba_marseille","lat":43.311699,"lon":5.387185,"is_reserved":false,"is_disabled":false,"rental_uris":{"android":"levelo://app?vid=40251fb6-e2d0-4b5d-b2df-ae489de72ccf","ios":"levelo://app?vid=40251fb6-e2d0-4b5d-b2df-ae489de72ccf"},"vehicle_type_id":"4","last_reported":1687129580,"current_range_meters":19200,"station_id":"ce4bgv12rcd13ifvqcp0","pricing_plan_id":"free"},{"bike_id":"6d5ccf33-759a-4c7a-af82-9f67388b4177","system_id":"levelo_inurba_marseille","lat":43.32825,"lon":5.36683,"is_reserved":false,"is_disabled":false,"rental_uris":{"android":"levelo://app?vid=6d5ccf33-759a-4c7a-af82-9f67388b4177","ios":"levelo://app?vid=6d5ccf33-759a-4c7a-af82-9f67388b4177"},"vehicle_type_id":"4","last_reported":1687129580,"current_range_meters":28800,"station_id":"ce4bhs92rcd13ifvqi0g","pricing_plan_id":"free"},{"bike_id":"69bf5c29-7e5d-45c7-b1b2-514d42707ee7","system_id":"levelo_inurba_marseille","lat":43.32825,"lon":5.36682,"is_reserved":false,"is_disabled":false,"rental_uris":{"android":"levelo://app?vid=69bf5c29-7e5d-45c7-b1b2-514d42707ee7","ios":"levelo://app?vid=69bf5c29-7e5d-45c7-b1b2-514d42707ee7"},"vehicle_type_id":"4","last_reported":1687129580,"current_range_meters":28800,"station_id":"ce4bhs92rcd13ifvqi0g","pricing_plan_id":"free"},{"bike_id":"27e857a0-6074-435d-85c0-7fc3761f1cbb","system_id":"levelo_inurba_marseille","lat":43.32826,"lon":5.36677,"is_reserved":false,"is_disabled":false,"rental_uris":{"android":"levelo://app?vid=27e857a0-6074-435d-85c0-7fc3761f1cbb","ios":"levelo://app?vid=27e857a0-6074-435d-85c0-7fc3761f1cbb"},"vehicle_type_id":"4","last_reported":1687129580,"current_range_meters":28400,"station_id":"ce4bhs92rcd13ifvqi0g","pricing_plan_id":"free"},{"bike_id":"c4c82479-60a6-4390-8970-3229e3eebb9c","system_id":"levelo_inurba_marseille","lat":43.32827,"lon":5.36686,"is_reserved":false,"is_disabled":false,"rental_uris":{"android":"levelo://app?vid=c4c82479-60a6-4390-8970-3229e3eebb9c","ios":"levelo://app?vid=c4c82479-60a6-4390-8970-3229e3eebb9c"},"vehicle_type_id":"4","last_reported":1687129580,"current_range_meters":17200,"station_id":"ce4bhs92rcd13ifvqi0g","pricing_plan_id":"free"},{"bike_id":"78911849-321a-41c5-b67b-eefecdab885b","system_id":"levelo_inurba_marseille","lat":43.32829,"lon":5.36696,"is_reserved":false,"is_disabled":false,"rental_uris":{"android":"levelo://app?vid=78911849-321a-41c5-b67b-eefecdab885b","ios":"levelo://app?vid=78911849-321a-41c5-b67b-eefecdab885b"},"vehicle_type_id":"4","last_reported":1687129580,"current_range_meters":3600,"station_id":"ce4bhs92rcd13ifvqi0g","pricing_plan_id":"free"},{"bike_id":"731cce5d-c725-402d-b941-54910a08f036","system_id":"levelo_inurba_marseille","lat":43.32829,"lon":5.36688,"is_reserved":false,"is_disabled":false,"rental_uris":{"android":"levelo://app?vid=731cce5d-c725-402d-b941-54910a08f036","ios":"levelo://app?vid=731cce5d-c725-402d-b941-54910a08f036"},"vehicle_type_id":"4","last_reported":1687129580,"current_range_meters":28400,"station_id":"ce4bhs92rcd13ifvqi0g","pricing_plan_id":"free"},{"bike_id":"9e60ff88-fe04-4b70-9af4-05a83fe316c7","system_id":"levelo_inurba_marseille","lat":43.32834,"lon":5.36681,"is_reserved":false,"is_disabled":false,"rental_uris":{"android":"levelo://app?vid=9e60ff88-fe04-4b70-9af4-05a83fe316c7","ios":"levelo://app?vid=9e60ff88-fe04-4b70-9af4-05a83fe316c7"},"vehicle_type_id":"4","last_reported":1687129580,"current_range_meters":26800,"station_id":"ce4bhs92rcd13ifvqi0g","pricing_plan_id":"free"},{"bike_id":"176f4894-d7fc-460e-aa5d-7c8c1e206dc3","system_id":"levelo_inurba_marseille","lat":43.297163,"lon":5.365866,"is_reserved":false,"is_disabled":false,"rental_uris":{"android":"levelo://app?vid=176f4894-d7fc-460e-aa5d-7c8c1e206dc3","ios":"levelo://app?vid=176f4894-d7fc-460e-aa5d-7c8c1e206dc3"},"vehicle_type_id":"4","last_reported":1687129580,"current_range_meters":8800,"station_id":"ce4bgn12rcd13ifvqbt0","pricing_plan_id":"free"},{"bike_id":"a001fc12-e88f-4cef-80cf-4aa00128ef3c","system_id":"levelo_inurba_marseille","lat":43.311722,"lon":5.387247,"is_reserved":false,"is_disabled":false,"rental_uris":{"android":"levelo://app?vid=a001fc12-e88f-4cef-80cf-4aa00128ef3c","ios":"levelo://app?vid=a001fc12-e88f-4cef-80cf-4aa00128ef3c"},"vehicle_type_id":"4","last_reported":1687129580,"current_range_meters":30000,"station_id":"ce4bgv12rcd13ifvqcp0","pricing_plan_id":"free"},{"bike_id":"88d0330c-5bb0-4a19-9b65-d4683b42e015","system_id":"levelo_inurba_marseille","lat":43.29683,"lon":5.36046,"is_reserved":false,"is_disabled":false,"rental_uris":{"android":"levelo://app?vid=88d0330c-5bb0-4a19-9b65-d4683b42e015","ios":"levelo://app?vid=88d0330c-5bb0-4a19-9b65-d4683b42e015"},"vehicle_type_id":"4","last_reported":1687129580,"current_range_meters":1200,"station_id":"","pricing_plan_id":"free"},{"bike_id":"884ed042-7406-48a1-9784-5b56d0ddaa05","system_id":"levelo_inurba_marseille","lat":43.296131,"lon":5.370791,"is_reserved":false,"is_disabled":false,"rental_uris":{"android":"levelo://app?vid=884ed042-7406-48a1-9784-5b56d0ddaa05","ios":"levelo://app?vid=884ed042-7406-48a1-9784-5b56d0ddaa05"},"vehicle_type_id":"4","last_reported":1687129580,"current_range_meters":28000,"station_id":"ce4bgnh2rcd13ifvqc0g","pricing_plan_id":"free"},{"bike_id":"a2d8af68-4719-4941-b59f-bdf367b0ae45","system_id":"levelo_inurba_marseille","lat":43.296131,"lon":5.370791,"is_reserved":false,"is_disabled":false,"rental_uris":{"android":"levelo://app?vid=a2d8af68-4719-4941-b59f-bdf367b0ae45","ios":"levelo://app?vid=a2d8af68-4719-4941-b59f-bdf367b0ae45"},"vehicle_type_id":"4","last_reported":1687129580,"current_range_meters":24800,"station_id":"ce4bgnh2rcd13ifvqc0g","pricing_plan_id":"free"},{"bike_id":"c5d7044c-af0d-4939-b89b-fc3166cba1b8","system_id":"levelo_inurba_marseille","lat":43.29573,"lon":5.367355,"is_reserved":false,"is_disabled":false,"rental_uris":{"android":"levelo://app?vid=c5d7044c-af0d-4939-b89b-fc3166cba1b8","ios":"levelo://app?vid=c5d7044c-af0d-4939-b89b-fc3166cba1b8"},"vehicle_type_id":"4","last_reported":1687129580,"current_range_meters":30400,"station_id":"ce4bgph2rcd13ifvqc2g","pricing_plan_id":"free"},{"bike_id":"24f41ca5-b432-4feb-a0c8-a15026b97306","system_id":"levelo_inurba_marseille","lat":43.296131,"lon":5.370773,"is_reserved":false,"is_disabled":false,"rental_uris":{"android":"levelo://app?vid=24f41ca5-b432-4feb-a0c8-a15026b97306","ios":"levelo://app?vid=24f41ca5-b432-4feb-a0c8-a15026b97306"},"vehicle_type_id":"4","last_reported":1687129580,"current_range_meters":10400,"station_id":"ce4bgnh2rcd13ifvqc0g","pricing_plan_id":"free"},{"bike_id":"e27e8011-54fa-44f4-878e-ece7c0d1a5e4","system_id":"levelo_inurba_marseille","lat":43.29573,"lon":5.367355,"is_reserved":false,"is_disabled":false,"rental_uris":{"android":"levelo://app?vid=e27e8011-54fa-44f4-878e-ece7c0d1a5e4","ios":"levelo://app?vid=e27e8011-54fa-44f4-878e-ece7c0d1a5e4"},"vehicle_type_id":"4","last_reported":1687129580,"current_range_meters":25600,"station_id":"ce4bgph2rcd13ifvqc2g","pricing_plan_id":"free"},{"bike_id":"9f38b8b7-42db-4ef0-b1de-495cbd1d70e2","system_id":"levelo_inurba_marseille","lat":43.296921,"lon":5.376579,"is_reserved":false,"is_disabled":false,"rental_uris":{"android":"levelo://app?vid=9f38b8b7-42db-4ef0-b1de-495cbd1d70e2","ios":"levelo://app?vid=9f38b8b7-42db-4ef0-b1de-495cbd1d70e2"},"vehicle_type_id":"4","last_reported":1687129580,"current_range_meters":31200,"station_id":"ce4bgkh2rcd13ifvqbl0","pricing_plan_id":"free"},{"bike_id":"216fb444-b3ed-492e-9599-7a5e306c98a2","system_id":"levelo_inurba_marseille","lat":43.309589,"lon":5.390258,"is_reserved":false,"is_disabled":false,"rental_uris":{"android":"levelo://app?vid=216fb444-b3ed-492e-9599-7a5e306c98a2","ios":"levelo://app?vid=216fb444-b3ed-492e-9599-7a5e306c98a2"},"vehicle_type_id":"4","last_reported":1687129580,"current_range_meters":29600,"station_id":"ce4bgup2rcd13ifvqco0","pricing_plan_id":"free"},{"bike_id":"2f4ffc9a-a396-4289-8339-052543e2ed97","system_id":"levelo_inurba_marseille","lat":43.29902,"lon":5.38152,"is_reserved":false,"is_disabled":false,"rental_uris":{"android":"levelo://app?vid=2f4ffc9a-a396-4289-8339-052543e2ed97","ios":"levelo://app?vid=2f4ffc9a-a396-4289-8339-052543e2ed97"},"vehicle_type_id":"4","last_reported":1687129580,"current_range_meters":0,"station_id":"ce4bgj12rcd13ifvqbc0","pricing_plan_id":"free"},{"bike_id":"28e8a6eb-40a0-4725-aeca-f3cf6a52fd33","system_id":"levelo_inurba_marseille","lat":43.317557,"lon":5.390173,"is_reserved":false,"is_disabled":false,"rental_uris":{"android":"levelo://app?vid=28e8a6eb-40a0-4725-aeca-f3cf6a52fd33","ios":"levelo://app?vid=28e8a6eb-40a0-4725-aeca-f3cf6a52fd33"},"vehicle_type_id":"4","last_reported":1687129580,"current_range_meters":10800,"station_id":"ce4bhqp2rcd13ifvqhng","pricing_plan_id":"free"},{"bike_id":"9055fb76-2d8e-4d12-8b12-6495ee760c5f","system_id":"levelo_inurba_marseille","lat":43.30436,"lon":5.38881,"is_reserved":false,"is_disabled":false,"rental_uris":{"android":"levelo://app?vid=9055fb76-2d8e-4d12-8b12-6495ee760c5f","ios":"levelo://app?vid=9055fb76-2d8e-4d12-8b12-6495ee760c5f"},"vehicle_type_id":"4","last_reported":1687129580,"current_range_meters":14000,"station_id":"ce4bgk12rcd13ifvqbi0","pricing_plan_id":"free"},{"bike_id":"2b530860-7440-4e44-9a24-de613bf580ad","system_id":"levelo_inurba_marseille","lat":43.304278,"lon":5.388868,"is_reserved":false,"is_disabled":false,"rental_uris":{"android":"levelo://app?vid=2b530860-7440-4e44-9a24-de613bf580ad","ios":"levelo://app?vid=2b530860-7440-4e44-9a24-de613bf580ad"},"vehicle_type_id":"4","last_reported":1687129580,"current_range_meters":18000,"station_id":"ce4bgk12rcd13ifvqbi0","pricing_plan_id":"free"},{"bike_id":"0aad11ca-a293-41f2-a0d5-a6a0e2f16969","system_id":"levelo_inurba_marseille","lat":43.30429,"lon":5.3888,"is_reserved":false,"is_disabled":false,"rental_uris":{"android":"levelo://app?vid=0aad11ca-a293-41f2-a0d5-a6a0e2f16969","ios":"levelo://app?vid=0aad11ca-a293-41f2-a0d5-a6a0e2f16969"},"vehicle_type_id":"4","last_reported":1687129580,"current_range_meters":7600,"station_id":"ce4bgk12rcd13ifvqbi0","pricing_plan_id":"free"},{"bike_id":"aef92fb3-0041-46b5-91ee-51cfb75a7587","system_id":"levelo_inurba_marseille","lat":43.30429,"lon":5.3888,"is_reserved":false,"is_disabled":false,"rental_uris":{"android":"levelo://app?vid=aef92fb3-0041-46b5-91ee-51cfb75a7587","ios":"levelo://app?vid=aef92fb3-0041-46b5-91ee-51cfb75a7587"},"vehicle_type_id":"4","last_reported":1687129580,"current_range_meters":31200,"station_id":"ce4bgk12rcd13ifvqbi0","pricing_plan_id":"free"},{"bike_id":"a690f3c6-9702-4888-8eb9-51a8caa1a384","system_id":"levelo_inurba_marseille","lat":43.304278,"lon":5.388868,"is_reserved":false,"is_disabled":false,"rental_uris":{"android":"levelo://app?vid=a690f3c6-9702-4888-8eb9-51a8caa1a384","ios":"levelo://app?vid=a690f3c6-9702-4888-8eb9-51a8caa1a384"},"vehicle_type_id":"4","last_reported":1687129580,"current_range_meters":24000,"station_id":"ce4bgk12rcd13ifvqbi0","pricing_plan_id":"free"},{"bike_id":"250c8a96-8498-4211-b8f3-1b00a8d1fbaf","system_id":"levelo_inurba_marseille","lat":43.296477,"lon":5.37768,"is_reserved":false,"is_disabled":false,"rental_uris":{"android":"levelo://app?vid=250c8a96-8498-4211-b8f3-1b00a8d1fbaf","ios":"levelo://app?vid=250c8a96-8498-4211-b8f3-1b00a8d1fbaf"},"vehicle_type_id":"4","last_reported":1687129580,"current_range_meters":11200,"station_id":"","pricing_plan_id":"free"},{"bike_id":"ca99a41d-7686-4842-9b6c-4b55138fe98f","system_id":"levelo_inurba_marseille","lat":43.29566,"lon":5.37521,"is_reserved":false,"is_disabled":false,"rental_uris":{"android":"levelo://app?vid=ca99a41d-7686-4842-9b6c-4b55138fe98f","ios":"levelo://app?vid=ca99a41d-7686-4842-9b6c-4b55138fe98f"},"vehicle_type_id":"4","last_reported":1687129580,"current_range_meters":31200,"station_id":"ce4bgh92rcd13ifvqb50","pricing_plan_id":"free"},{"bike_id":"3a967961-2a51-4080-8123-f68bfe84538d","system_id":"levelo_inurba_marseille","lat":43.296263,"lon":5.377094,"is_reserved":false,"is_disabled":false,"rental_uris":{"android":"levelo://app?vid=3a967961-2a51-4080-8123-f68bfe84538d","ios":"levelo://app?vid=3a967961-2a51-4080-8123-f68bfe84538d"},"vehicle_type_id":"4","last_reported":1687129580,"current_range_meters":28800,"station_id":"ce4bgi92rcd13ifvqb90","pricing_plan_id":"free"},{"bike_id":"bb335696-9086-470f-9c5f-1244bc2e0b8f","system_id":"levelo_inurba_marseille","lat":43.299717,"lon":5.384845,"is_reserved":false,"is_disabled":false,"rental_uris":{"android":"levelo://app?vid=bb335696-9086-470f-9c5f-1244bc2e0b8f","ios":"levelo://app?vid=bb335696-9086-470f-9c5f-1244bc2e0b8f"},"vehicle_type_id":"4","last_reported":1687129580,"current_range_meters":30800,"station_id":"ce4bgj92rcd13ifvqbd0","pricing_plan_id":"free"},{"bike_id":"eb56f040-d7e3-440c-9d05-82afe187dd21","system_id":"levelo_inurba_marseille","lat":43.29971,"lon":5.3849,"is_reserved":false,"is_disabled":false,"rental_uris":{"android":"levelo://app?vid=eb56f040-d7e3-440c-9d05-82afe187dd21","ios":"levelo://app?vid=eb56f040-d7e3-440c-9d05-82afe187dd21"},"vehicle_type_id":"4","last_reported":1687129580,"current_range_meters":30800,"station_id":"ce4bgj92rcd13ifvqbd0","pricing_plan_id":"free"},{"bike_id":"37d845e9-3c8f-4eb1-bf92-0a9f519c8ecb","system_id":"levelo_inurba_marseille","lat":43.32367,"lon":5.388836,"is_reserved":false,"is_disabled":false,"rental_uris":{"android":"levelo://app?vid=37d845e9-3c8f-4eb1-bf92-0a9f519c8ecb","ios":"levelo://app?vid=37d845e9-3c8f-4eb1-bf92-0a9f519c8ecb"},"vehicle_type_id":"4","last_reported":1687129580,"current_range_meters":18000,"station_id":"ce4bhqp2rcd13ifvqhog","pricing_plan_id":"free"},{"bike_id":"0100a688-6eac-43d0-bf90-97c080a6e462","system_id":"levelo_inurba_marseille","lat":43.32367,"lon":5.388836,"is_reserved":false,"is_disabled":false,"rental_uris":{"android":"levelo://app?vid=0100a688-6eac-43d0-bf90-97c080a6e462","ios":"levelo://app?vid=0100a688-6eac-43d0-bf90-97c080a6e462"},"vehicle_type_id":"4","last_reported":1687129580,"current_range_meters":15200,"station_id":"ce4bhqp2rcd13ifvqhog","pricing_plan_id":"free"},{"bike_id":"9ff5e686-c760-4fee-b5de-d5d0394be428","system_id":"levelo_inurba_marseille","lat":43.32367,"lon":5.388836,"is_reserved":false,"is_disabled":false,"rental_uris":{"android":"levelo://app?vid=9ff5e686-c760-4fee-b5de-d5d0394be428","ios":"levelo://app?vid=9ff5e686-c760-4fee-b5de-d5d0394be428"},"vehicle_type_id":"4","last_reported":1687129580,"current_range_meters":10000,"station_id":"ce4bhqp2rcd13ifvqhog","pricing_plan_id":"free"},{"bike_id":"64bf5995-e1cd-400c-b4dd-97956e1f681e","system_id":"levelo_inurba_marseille","lat":43.32367,"lon":5.388836,"is_reserved":false,"is_disabled":false,"rental_uris":{"android":"levelo://app?vid=64bf5995-e1cd-400c-b4dd-97956e1f681e","ios":"levelo://app?vid=64bf5995-e1cd-400c-b4dd-97956e1f681e"},"vehicle_type_id":"4","last_reported":1687129580,"current_range_meters":7600,"station_id":"ce4bhqp2rcd13ifvqhog","pricing_plan_id":"free"},{"bike_id":"d852f6e7-92f3-42a5-90b9-92d33ffa9a5c","system_id":"levelo_inurba_marseille","lat":43.32367,"lon":5.388836,"is_reserved":false,"is_disabled":false,"rental_uris":{"android":"levelo://app?vid=d852f6e7-92f3-42a5-90b9-92d33ffa9a5c","ios":"levelo://app?vid=d852f6e7-92f3-42a5-90b9-92d33ffa9a5c"},"vehicle_type_id":"4","last_reported":1687129580,"current_range_meters":14400,"station_id":"ce4bhqp2rcd13ifvqhog","pricing_plan_id":"free"},{"bike_id":"c25bbca6-334a-48c9-b2aa-c69eb97c9d81","system_id":"levelo_inurba_marseille","lat":43.32367,"lon":5.388836,"is_reserved":false,"is_disabled":false,"rental_uris":{"android":"levelo://app?vid=c25bbca6-334a-48c9-b2aa-c69eb97c9d81","ios":"levelo://app?vid=c25bbca6-334a-48c9-b2aa-c69eb97c9d81"},"vehicle_type_id":"4","last_reported":1687129580,"current_range_meters":28000,"station_id":"ce4bhqp2rcd13ifvqhog","pricing_plan_id":"free"},{"bike_id":"5c9c2d69-fbd6-4a5b-bcd8-0918511987ec","system_id":"levelo_inurba_marseille","lat":43.30212,"lon":5.38983,"is_reserved":false,"is_disabled":false,"rental_uris":{"android":"levelo://app?vid=5c9c2d69-fbd6-4a5b-bcd8-0918511987ec","ios":"levelo://app?vid=5c9c2d69-fbd6-4a5b-bcd8-0918511987ec"},"vehicle_type_id":"4","last_reported":1687129580,"current_range_meters":21200,"station_id":"","pricing_plan_id":"free"},{"bike_id":"50c6b16a-a581-4486-a79b-0bb2828ef218","system_id":"levelo_inurba_marseille","lat":43.292749,"lon":5.368398,"is_reserved":false,"is_disabled":false,"rental_uris":{"android":"levelo://app?vid=50c6b16a-a581-4486-a79b-0bb2828ef218","ios":"levelo://app?vid=50c6b16a-a581-4486-a79b-0bb2828ef218"},"vehicle_type_id":"4","last_reported":1687129580,"current_range_meters":31200,"station_id":"ce4bhbp2rcd13ifvqesg","pricing_plan_id":"free"},{"bike_id":"4486e74e-1e0b-4deb-9462-a1a3fd740926","system_id":"levelo_inurba_marseille","lat":43.29275,"lon":5.36839,"is_reserved":false,"is_disabled":false,"rental_uris":{"android":"levelo://app?vid=4486e74e-1e0b-4deb-9462-a1a3fd740926","ios":"levelo://app?vid=4486e74e-1e0b-4deb-9462-a1a3fd740926"},"vehicle_type_id":"4","last_reported":1687129580,"current_range_meters":30000,"station_id":"ce4bhbp2rcd13ifvqesg","pricing_plan_id":"free"},{"bike_id":"4d537006-7341-449e-a615-8468b2ec73a8","system_id":"levelo_inurba_marseille","lat":43.29275,"lon":5.3684,"is_reserved":false,"is_disabled":false,"rental_uris":{"android":"levelo://app?vid=4d537006-7341-449e-a615-8468b2ec73a8","ios":"levelo://app?vid=4d537006-7341-449e-a615-8468b2ec73a8"},"vehicle_type_id":"4","last_reported":1687129580,"current_range_meters":30800,"station_id":"ce4bhbp2rcd13ifvqesg","pricing_plan_id":"free"},{"bike_id":"8e97e258-dd3f-472c-888e-e51362a8a9c8","system_id":"levelo_inurba_marseille","lat":43.292749,"lon":5.368398,"is_reserved":false,"is_disabled":false,"rental_uris":{"android":"levelo://app?vid=8e97e258-dd3f-472c-888e-e51362a8a9c8","ios":"levelo://app?vid=8e97e258-dd3f-472c-888e-e51362a8a9c8"},"vehicle_type_id":"4","last_reported":1687129580,"current_range_meters":31600,"station_id":"ce4bhbp2rcd13ifvqesg","pricing_plan_id":"free"},{"bike_id":"ffb2eda2-9505-4658-ac80-0887b2e5a1ff","system_id":"levelo_inurba_marseille","lat":43.292749,"lon":5.368398,"is_reserved":false,"is_disabled":false,"rental_uris":{"android":"levelo://app?vid=ffb2eda2-9505-4658-ac80-0887b2e5a1ff","ios":"levelo://app?vid=ffb2eda2-9505-4658-ac80-0887b2e5a1ff"},"vehicle_type_id":"4","last_reported":1687129580,"current_range_meters":14400,"station_id":"ce4bhbp2rcd13ifvqesg","pricing_plan_id":"free"},{"bike_id":"a4ded9c5-a526-4c4f-ac6e-61fb22154aeb","system_id":"levelo_inurba_marseille","lat":43.29264,"lon":5.36838,"is_reserved":false,"is_disabled":false,"rental_uris":{"android":"levelo://app?vid=a4ded9c5-a526-4c4f-ac6e-61fb22154aeb","ios":"levelo://app?vid=a4ded9c5-a526-4c4f-ac6e-61fb22154aeb"},"vehicle_type_id":"4","last_reported":1687129580,"current_range_meters":31600,"station_id":"ce4bhbp2rcd13ifvqesg","pricing_plan_id":"free"},{"bike_id":"9019e8f1-60d2-4909-a933-186029a9b0e1","system_id":"levelo_inurba_marseille","lat":43.301374,"lon":5.3904,"is_reserved":false,"is_disabled":false,"rental_uris":{"android":"levelo://app?vid=9019e8f1-60d2-4909-a933-186029a9b0e1","ios":"levelo://app?vid=9019e8f1-60d2-4909-a933-186029a9b0e1"},"vehicle_type_id":"4","last_reported":1687129580,"current_range_meters":17600,"station_id":"ce4bhgh2rcd13ifvqfa0","pricing_plan_id":"free"},{"bike_id":"0f9e7a89-9d8f-4f73-99eb-f368fba3d8a9","system_id":"levelo_inurba_marseille","lat":43.305994,"lon":5.393687,"is_reserved":false,"is_disabled":false,"rental_uris":{"android":"levelo://app?vid=0f9e7a89-9d8f-4f73-99eb-f368fba3d8a9","ios":"levelo://app?vid=0f9e7a89-9d8f-4f73-99eb-f368fba3d8a9"},"vehicle_type_id":"4","last_reported":1687129580,"current_range_meters":21200,"station_id":"ce4bh0p2rcd13ifvqd80","pricing_plan_id":"free"},{"bike_id":"1b58b38e-240f-48f1-beed-e4ba6b17b95f","system_id":"levelo_inurba_marseille","lat":43.305994,"lon":5.393687,"is_reserved":false,"is_disabled":false,"rental_uris":{"android":"levelo://app?vid=1b58b38e-240f-48f1-beed-e4ba6b17b95f","ios":"levelo://app?vid=1b58b38e-240f-48f1-beed-e4ba6b17b95f"},"vehicle_type_id":"4","last_reported":1687129580,"current_range_meters":3200,"station_id":"ce4bh0p2rcd13ifvqd80","pricing_plan_id":"free"},{"bike_id":"5cd39362-48f6-4555-8363-2ac971881ec8","system_id":"levelo_inurba_marseille","lat":43.302992,"lon":5.392136,"is_reserved":false,"is_disabled":false,"rental_uris":{"android":"levelo://app?vid=5cd39362-48f6-4555-8363-2ac971881ec8","ios":"levelo://app?vid=5cd39362-48f6-4555-8363-2ac971881ec8"},"vehicle_type_id":"4","last_reported":1687129580,"current_range_meters":29600,"station_id":"ce4bgkh2rcd13ifvqbk0","pricing_plan_id":"free"},{"bike_id":"cd2f7f62-15c3-4306-8214-7a3fdead9135","system_id":"levelo_inurba_marseille","lat":43.302992,"lon":5.392136,"is_reserved":false,"is_disabled":false,"rental_uris":{"android":"levelo://app?vid=cd2f7f62-15c3-4306-8214-7a3fdead9135","ios":"levelo://app?vid=cd2f7f62-15c3-4306-8214-7a3fdead9135"},"vehicle_type_id":"4","last_reported":1687129580,"current_range_meters":27600,"station_id":"ce4bgkh2rcd13ifvqbk0","pricing_plan_id":"free"},{"bike_id":"45f25c22-755f-4f80-a6b5-4605dade26e4","system_id":"levelo_inurba_marseille","lat":43.302992,"lon":5.392136,"is_reserved":false,"is_disabled":false,"rental_uris":{"android":"levelo://app?vid=45f25c22-755f-4f80-a6b5-4605dade26e4","ios":"levelo://app?vid=45f25c22-755f-4f80-a6b5-4605dade26e4"},"vehicle_type_id":"4","last_reported":1687129580,"current_range_meters":13200,"station_id":"ce4bgkh2rcd13ifvqbk0","pricing_plan_id":"free"},{"bike_id":"296431dc-0e5d-4ce9-8e5e-2209647c4d2e","system_id":"levelo_inurba_marseille","lat":43.2936,"lon":5.37835,"is_reserved":false,"is_disabled":false,"rental_uris":{"android":"levelo://app?vid=296431dc-0e5d-4ce9-8e5e-2209647c4d2e","ios":"levelo://app?vid=296431dc-0e5d-4ce9-8e5e-2209647c4d2e"},"vehicle_type_id":"4","last_reported":1687129580,"current_range_meters":16000,"station_id":"ce4bgjh2rcd13ifvqbf0","pricing_plan_id":"free"},{"bike_id":"eaf9320f-08d0-412e-9001-ad5d233332ce","system_id":"levelo_inurba_marseille","lat":43.30085,"lon":5.390856,"is_reserved":false,"is_disabled":false,"rental_uris":{"android":"levelo://app?vid=eaf9320f-08d0-412e-9001-ad5d233332ce","ios":"levelo://app?vid=eaf9320f-08d0-412e-9001-ad5d233332ce"},"vehicle_type_id":"4","last_reported":1687129580,"current_range_meters":30000,"station_id":"ce4bh192rcd13ifvqdb0","pricing_plan_id":"free"},{"bike_id":"ef3a4ba8-2bf8-42e3-9420-16136fb749a0","system_id":"levelo_inurba_marseille","lat":43.300852,"lon":5.390859,"is_reserved":false,"is_disabled":false,"rental_uris":{"android":"levelo://app?vid=ef3a4ba8-2bf8-42e3-9420-16136fb749a0","ios":"levelo://app?vid=ef3a4ba8-2bf8-42e3-9420-16136fb749a0"},"vehicle_type_id":"4","last_reported":1687129580,"current_range_meters":25200,"station_id":"ce4bh192rcd13ifvqdb0","pricing_plan_id":"free"},{"bike_id":"c40d2f6a-9a3c-4d8d-ac76-4c297512856c","system_id":"levelo_inurba_marseille","lat":43.300852,"lon":5.390859,"is_reserved":false,"is_disabled":false,"rental_uris":{"android":"levelo://app?vid=c40d2f6a-9a3c-4d8d-ac76-4c297512856c","ios":"levelo://app?vid=c40d2f6a-9a3c-4d8d-ac76-4c297512856c"},"vehicle_type_id":"4","last_reported":1687129580,"current_range_meters":31600,"station_id":"ce4bh192rcd13ifvqdb0","pricing_plan_id":"free"},{"bike_id":"02401813-cfd7-45a7-a153-0e9255cc48d1","system_id":"levelo_inurba_marseille","lat":43.300852,"lon":5.390859,"is_reserved":false,"is_disabled":false,"rental_uris":{"android":"levelo://app?vid=02401813-cfd7-45a7-a153-0e9255cc48d1","ios":"levelo://app?vid=02401813-cfd7-45a7-a153-0e9255cc48d1"},"vehicle_type_id":"4","last_reported":1687129580,"current_range_meters":26800,"station_id":"ce4bh192rcd13ifvqdb0","pricing_plan_id":"free"},{"bike_id":"f566c84e-7972-4f76-9d0f-b6c764ecb224","system_id":"levelo_inurba_marseille","lat":43.30103,"lon":5.39076,"is_reserved":false,"is_disabled":false,"rental_uris":{"android":"levelo://app?vid=f566c84e-7972-4f76-9d0f-b6c764ecb224","ios":"levelo://app?vid=f566c84e-7972-4f76-9d0f-b6c764ecb224"},"vehicle_type_id":"4","last_reported":1687129580,"current_range_meters":30800,"station_id":"ce4bh192rcd13ifvqdb0","pricing_plan_id":"free"},{"bike_id":"c0818495-d4c6-4d12-ad92-f8d981e1a031","system_id":"levelo_inurba_marseille","lat":43.300852,"lon":5.390859,"is_reserved":false,"is_disabled":false,"rental_uris":{"android":"levelo://app?vid=c0818495-d4c6-4d12-ad92-f8d981e1a031","ios":"levelo://app?vid=c0818495-d4c6-4d12-ad92-f8d981e1a031"},"vehicle_type_id":"4","last_reported":1687129580,"current_range_meters":18800,"station_id":"ce4bh192rcd13ifvqdb0","pricing_plan_id":"free"},{"bike_id":"4e7eb53a-175b-4075-9545-88ae7fd21a33","system_id":"levelo_inurba_marseille","lat":43.30085,"lon":5.390856,"is_reserved":false,"is_disabled":false,"rental_uris":{"android":"levelo://app?vid=4e7eb53a-175b-4075-9545-88ae7fd21a33","ios":"levelo://app?vid=4e7eb53a-175b-4075-9545-88ae7fd21a33"},"vehicle_type_id":"4","last_reported":1687129580,"current_range_meters":29200,"station_id":"ce4bh192rcd13ifvqdb0","pricing_plan_id":"free"},{"bike_id":"bf98c3f1-2cf4-4863-b6fc-1df2b5837e42","system_id":"levelo_inurba_marseille","lat":43.32689,"lon":5.38831,"is_reserved":false,"is_disabled":false,"rental_uris":{"android":"levelo://app?vid=bf98c3f1-2cf4-4863-b6fc-1df2b5837e42","ios":"levelo://app?vid=bf98c3f1-2cf4-4863-b6fc-1df2b5837e42"},"vehicle_type_id":"4","last_reported":1687129580,"current_range_meters":17200,"station_id":"","pricing_plan_id":"free"},{"bike_id":"0c6470f8-d2dd-48e8-b10a-6f84692d9d86","system_id":"levelo_inurba_marseille","lat":43.30399,"lon":5.39337,"is_reserved":false,"is_disabled":false,"rental_uris":{"android":"levelo://app?vid=0c6470f8-d2dd-48e8-b10a-6f84692d9d86","ios":"levelo://app?vid=0c6470f8-d2dd-48e8-b10a-6f84692d9d86"},"vehicle_type_id":"4","last_reported":1687129580,"current_range_meters":10400,"station_id":"","pricing_plan_id":"free"},{"bike_id":"de108613-76ad-4371-ae1b-3e18354851d8","system_id":"levelo_inurba_marseille","lat":43.298764,"lon":5.388973,"is_reserved":false,"is_disabled":false,"rental_uris":{"android":"levelo://app?vid=de108613-76ad-4371-ae1b-3e18354851d8","ios":"levelo://app?vid=de108613-76ad-4371-ae1b-3e18354851d8"},"vehicle_type_id":"4","last_reported":1687129580,"current_range_meters":29200,"station_id":"ce4bh392rcd13ifvqdl0","pricing_plan_id":"free"},{"bike_id":"3c6da382-aa58-45cb-96da-320ddd52cfe2","system_id":"levelo_inurba_marseille","lat":43.298764,"lon":5.388973,"is_reserved":false,"is_disabled":false,"rental_uris":{"android":"levelo://app?vid=3c6da382-aa58-45cb-96da-320ddd52cfe2","ios":"levelo://app?vid=3c6da382-aa58-45cb-96da-320ddd52cfe2"},"vehicle_type_id":"4","last_reported":1687129580,"current_range_meters":22000,"station_id":"ce4bh392rcd13ifvqdl0","pricing_plan_id":"free"},{"bike_id":"71a76f18-1818-4937-985c-15ce0eb0fb48","system_id":"levelo_inurba_marseille","lat":43.298764,"lon":5.388973,"is_reserved":false,"is_disabled":false,"rental_uris":{"android":"levelo://app?vid=71a76f18-1818-4937-985c-15ce0eb0fb48","ios":"levelo://app?vid=71a76f18-1818-4937-985c-15ce0eb0fb48"},"vehicle_type_id":"4","last_reported":1687129580,"current_range_meters":7200,"station_id":"ce4bh392rcd13ifvqdl0","pricing_plan_id":"free"},{"bike_id":"313e9307-45da-44e1-ac4f-23150195e0b3","system_id":"levelo_inurba_marseille","lat":43.298764,"lon":5.388973,"is_reserved":false,"is_disabled":false,"rental_uris":{"android":"levelo://app?vid=313e9307-45da-44e1-ac4f-23150195e0b3","ios":"levelo://app?vid=313e9307-45da-44e1-ac4f-23150195e0b3"},"vehicle_type_id":"4","last_reported":1687129580,"current_range_meters":12000,"station_id":"ce4bh392rcd13ifvqdl0","pricing_plan_id":"free"},{"bike_id":"f99e9929-8072-4af1-bf79-5cf6bf4bfb6c","system_id":"levelo_inurba_marseille","lat":43.298764,"lon":5.388973,"is_reserved":false,"is_disabled":false,"rental_uris":{"android":"levelo://app?vid=f99e9929-8072-4af1-bf79-5cf6bf4bfb6c","ios":"levelo://app?vid=f99e9929-8072-4af1-bf79-5cf6bf4bfb6c"},"vehicle_type_id":"4","last_reported":1687129580,"current_range_meters":22800,"station_id":"ce4bh392rcd13ifvqdl0","pricing_plan_id":"free"},{"bike_id":"2f58d735-5305-4fee-a21a-a1d9d3a9a68d","system_id":"levelo_inurba_marseille","lat":43.298764,"lon":5.388973,"is_reserved":false,"is_disabled":false,"rental_uris":{"android":"levelo://app?vid=2f58d735-5305-4fee-a21a-a1d9d3a9a68d","ios":"levelo://app?vid=2f58d735-5305-4fee-a21a-a1d9d3a9a68d"},"vehicle_type_id":"4","last_reported":1687129580,"current_range_meters":8400,"station_id":"ce4bh392rcd13ifvqdl0","pricing_plan_id":"free"},{"bike_id":"bf58b19c-1ce5-4b18-9b43-f98882f13702","system_id":"levelo_inurba_marseille","lat":43.29875,"lon":5.38914,"is_reserved":false,"is_disabled":false,"rental_uris":{"android":"levelo://app?vid=bf58b19c-1ce5-4b18-9b43-f98882f13702","ios":"levelo://app?vid=bf58b19c-1ce5-4b18-9b43-f98882f13702"},"vehicle_type_id":"4","last_reported":1687129580,"current_range_meters":22000,"station_id":"ce4bh392rcd13ifvqdl0","pricing_plan_id":"free"},{"bike_id":"dc0eff01-1075-4ec4-9850-15108aef13d9","system_id":"levelo_inurba_marseille","lat":43.298764,"lon":5.388973,"is_reserved":false,"is_disabled":false,"rental_uris":{"android":"levelo://app?vid=dc0eff01-1075-4ec4-9850-15108aef13d9","ios":"levelo://app?vid=dc0eff01-1075-4ec4-9850-15108aef13d9"},"vehicle_type_id":"4","last_reported":1687129580,"current_range_meters":19600,"station_id":"ce4bh392rcd13ifvqdl0","pricing_plan_id":"free"},{"bike_id":"b82419e8-1db5-4f11-9caf-d00fff04d9f9","system_id":"levelo_inurba_marseille","lat":43.309038,"lon":5.396546,"is_reserved":false,"is_disabled":false,"rental_uris":{"android":"levelo://app?vid=b82419e8-1db5-4f11-9caf-d00fff04d9f9","ios":"levelo://app?vid=b82419e8-1db5-4f11-9caf-d00fff04d9f9"},"vehicle_type_id":"4","last_reported":1687129580,"current_range_meters":800,"station_id":"ce4bh012rcd13ifvqcv0","pricing_plan_id":"free"},{"bike_id":"915bcf72-ec55-4ea2-afb4-1fc09a4c88f7","system_id":"levelo_inurba_marseille","lat":43.309038,"lon":5.396546,"is_reserved":false,"is_disabled":false,"rental_uris":{"android":"levelo://app?vid=915bcf72-ec55-4ea2-afb4-1fc09a4c88f7","ios":"levelo://app?vid=915bcf72-ec55-4ea2-afb4-1fc09a4c88f7"},"vehicle_type_id":"4","last_reported":1687129580,"current_range_meters":4400,"station_id":"ce4bh012rcd13ifvqcv0","pricing_plan_id":"free"},{"bike_id":"d598a5a7-2c23-4c57-bdf9-72ab96cb7db2","system_id":"levelo_inurba_marseille","lat":43.291994,"lon":5.357886,"is_reserved":false,"is_disabled":false,"rental_uris":{"android":"levelo://app?vid=d598a5a7-2c23-4c57-bdf9-72ab96cb7db2","ios":"levelo://app?vid=d598a5a7-2c23-4c57-bdf9-72ab96cb7db2"},"vehicle_type_id":"4","last_reported":1687129580,"current_range_meters":31200,"station_id":"ce4bhb12rcd13ifvqel0","pricing_plan_id":"free"},{"bike_id":"ea413654-fc39-4260-aa32-4beb87fb56d1","system_id":"levelo_inurba_marseille","lat":43.313291,"lon":5.396838,"is_reserved":false,"is_disabled":false,"rental_uris":{"android":"levelo://app?vid=ea413654-fc39-4260-aa32-4beb87fb56d1","ios":"levelo://app?vid=ea413654-fc39-4260-aa32-4beb87fb56d1"},"vehicle_type_id":"4","last_reported":1687129580,"current_range_meters":16400,"station_id":"ce4bgvp2rcd13ifvqcu0","pricing_plan_id":"free"},{"bike_id":"27ff1faf-c357-439a-8654-98173f2e9ffd","system_id":"levelo_inurba_marseille","lat":43.29201,"lon":5.35772,"is_reserved":false,"is_disabled":false,"rental_uris":{"android":"levelo://app?vid=27ff1faf-c357-439a-8654-98173f2e9ffd","ios":"levelo://app?vid=27ff1faf-c357-439a-8654-98173f2e9ffd"},"vehicle_type_id":"4","last_reported":1687129580,"current_range_meters":31200,"station_id":"ce4bhb12rcd13ifvqel0","pricing_plan_id":"free"},{"bike_id":"744c215c-ceca-4b2d-84c5-ba444d9b7d86","system_id":"levelo_inurba_marseille","lat":43.313291,"lon":5.396838,"is_reserved":false,"is_disabled":false,"rental_uris":{"android":"levelo://app?vid=744c215c-ceca-4b2d-84c5-ba444d9b7d86","ios":"levelo://app?vid=744c215c-ceca-4b2d-84c5-ba444d9b7d86"},"vehicle_type_id":"4","last_reported":1687129580,"current_range_meters":1200,"station_id":"ce4bgvp2rcd13ifvqcu0","pricing_plan_id":"free"},{"bike_id":"9c1458c4-b639-4a86-9a81-ea49cd674f04","system_id":"levelo_inurba_marseille","lat":43.313291,"lon":5.396838,"is_reserved":false,"is_disabled":false,"rental_uris":{"android":"levelo://app?vid=9c1458c4-b639-4a86-9a81-ea49cd674f04","ios":"levelo://app?vid=9c1458c4-b639-4a86-9a81-ea49cd674f04"},"vehicle_type_id":"4","last_reported":1687129580,"current_range_meters":25200,"station_id":"ce4bgvp2rcd13ifvqcu0","pricing_plan_id":"free"},{"bike_id":"6199cfac-86e0-4c58-9bc6-f36f45e72daf","system_id":"levelo_inurba_marseille","lat":43.313291,"lon":5.396838,"is_reserved":false,"is_disabled":false,"rental_uris":{"android":"levelo://app?vid=6199cfac-86e0-4c58-9bc6-f36f45e72daf","ios":"levelo://app?vid=6199cfac-86e0-4c58-9bc6-f36f45e72daf"},"vehicle_type_id":"4","last_reported":1687129580,"current_range_meters":6400,"station_id":"ce4bgvp2rcd13ifvqcu0","pricing_plan_id":"free"},{"bike_id":"4118b929-43d8-4ac3-bc91-8e1770bbe076","system_id":"levelo_inurba_marseille","lat":43.29189,"lon":5.35791,"is_reserved":false,"is_disabled":false,"rental_uris":{"android":"levelo://app?vid=4118b929-43d8-4ac3-bc91-8e1770bbe076","ios":"levelo://app?vid=4118b929-43d8-4ac3-bc91-8e1770bbe076"},"vehicle_type_id":"4","last_reported":1687129580,"current_range_meters":31200,"station_id":"ce4bhb12rcd13ifvqel0","pricing_plan_id":"free"},{"bike_id":"32b7c34e-f5d2-4ccf-8e71-62fb2dd0223f","system_id":"levelo_inurba_marseille","lat":43.309038,"lon":5.396546,"is_reserved":false,"is_disabled":false,"rental_uris":{"android":"levelo://app?vid=32b7c34e-f5d2-4ccf-8e71-62fb2dd0223f","ios":"levelo://app?vid=32b7c34e-f5d2-4ccf-8e71-62fb2dd0223f"},"vehicle_type_id":"4","last_reported":1687129580,"current_range_meters":25600,"station_id":"ce4bh012rcd13ifvqcv0","pricing_plan_id":"free"},{"bike_id":"fbb9e2bc-bff7-4176-9db0-63a00928a8e4","system_id":"levelo_inurba_marseille","lat":43.29529,"lon":5.385581,"is_reserved":false,"is_disabled":false,"rental_uris":{"android":"levelo://app?vid=fbb9e2bc-bff7-4176-9db0-63a00928a8e4","ios":"levelo://app?vid=fbb9e2bc-bff7-4176-9db0-63a00928a8e4"},"vehicle_type_id":"4","last_reported":1687129580,"current_range_meters":28400,"station_id":"ce4bgih2rcd13ifvqba0","pricing_plan_id":"free"},{"bike_id":"db039db1-65ac-4308-9096-9e4ba964ddac","system_id":"levelo_inurba_marseille","lat":43.29529,"lon":5.385581,"is_reserved":false,"is_disabled":false,"rental_uris":{"android":"levelo://app?vid=db039db1-65ac-4308-9096-9e4ba964ddac","ios":"levelo://app?vid=db039db1-65ac-4308-9096-9e4ba964ddac"},"vehicle_type_id":"4","last_reported":1687129580,"current_range_meters":6000,"station_id":"ce4bgih2rcd13ifvqba0","pricing_plan_id":"free"},{"bike_id":"f90825ef-b2cc-4750-97eb-6f2da5f9dfa8","system_id":"levelo_inurba_marseille","lat":43.29185,"lon":5.35727,"is_reserved":false,"is_disabled":false,"rental_uris":{"android":"levelo://app?vid=f90825ef-b2cc-4750-97eb-6f2da5f9dfa8","ios":"levelo://app?vid=f90825ef-b2cc-4750-97eb-6f2da5f9dfa8"},"vehicle_type_id":"4","last_reported":1687129580,"current_range_meters":22000,"station_id":"","pricing_plan_id":"free"},{"bike_id":"d6f9a610-827f-4f29-9c0c-48257b87ef34","system_id":"levelo_inurba_marseille","lat":43.29529,"lon":5.385581,"is_reserved":false,"is_disabled":false,"rental_uris":{"android":"levelo://app?vid=d6f9a610-827f-4f29-9c0c-48257b87ef34","ios":"levelo://app?vid=d6f9a610-827f-4f29-9c0c-48257b87ef34"},"vehicle_type_id":"4","last_reported":1687129580,"current_range_meters":4800,"station_id":"ce4bgih2rcd13ifvqba0","pricing_plan_id":"free"},{"bike_id":"2204eaf6-232a-4266-a455-3930707d94ce","system_id":"levelo_inurba_marseille","lat":43.29529,"lon":5.385581,"is_reserved":false,"is_disabled":false,"rental_uris":{"android":"levelo://app?vid=2204eaf6-232a-4266-a455-3930707d94ce","ios":"levelo://app?vid=2204eaf6-232a-4266-a455-3930707d94ce"},"vehicle_type_id":"4","last_reported":1687129580,"current_range_meters":27200,"station_id":"ce4bgih2rcd13ifvqba0","pricing_plan_id":"free"},{"bike_id":"7efa5b47-9784-46b2-8315-9b15ff29c52d","system_id":"levelo_inurba_marseille","lat":43.29529,"lon":5.385581,"is_reserved":false,"is_disabled":false,"rental_uris":{"android":"levelo://app?vid=7efa5b47-9784-46b2-8315-9b15ff29c52d","ios":"levelo://app?vid=7efa5b47-9784-46b2-8315-9b15ff29c52d"},"vehicle_type_id":"4","last_reported":1687129580,"current_range_meters":24400,"station_id":"ce4bgih2rcd13ifvqba0","pricing_plan_id":"free"},{"bike_id":"cfd819df-bae9-4337-9367-2d0c3e60aadc","system_id":"levelo_inurba_marseille","lat":43.290779,"lon":5.371482,"is_reserved":false,"is_disabled":false,"rental_uris":{"android":"levelo://app?vid=cfd819df-bae9-4337-9367-2d0c3e60aadc","ios":"levelo://app?vid=cfd819df-bae9-4337-9367-2d0c3e60aadc"},"vehicle_type_id":"4","last_reported":1687129580,"current_range_meters":28400,"station_id":"ce4bh5p2rcd13ifvqe4g","pricing_plan_id":"free"},{"bike_id":"6edc281d-b85f-4bf0-b424-f7d3c81a63c9","system_id":"levelo_inurba_marseille","lat":43.29065,"lon":5.37153,"is_reserved":false,"is_disabled":false,"rental_uris":{"android":"levelo://app?vid=6edc281d-b85f-4bf0-b424-f7d3c81a63c9","ios":"levelo://app?vid=6edc281d-b85f-4bf0-b424-f7d3c81a63c9"},"vehicle_type_id":"4","last_reported":1687129580,"current_range_meters":31200,"station_id":"ce4bh5p2rcd13ifvqe4g","pricing_plan_id":"free"},{"bike_id":"194217e3-db30-418a-8bd7-aedd37e823c5","system_id":"levelo_inurba_marseille","lat":43.302008,"lon":5.394694,"is_reserved":false,"is_disabled":false,"rental_uris":{"android":"levelo://app?vid=194217e3-db30-418a-8bd7-aedd37e823c5","ios":"levelo://app?vid=194217e3-db30-418a-8bd7-aedd37e823c5"},"vehicle_type_id":"4","last_reported":1687129580,"current_range_meters":24800,"station_id":"ce4bh0p2rcd13ifvqd70","pricing_plan_id":"free"},{"bike_id":"ca63bfe8-9877-4811-adc5-3f0e7ebc9715","system_id":"levelo_inurba_marseille","lat":43.290631,"lon":5.359244,"is_reserved":false,"is_disabled":false,"rental_uris":{"android":"levelo://app?vid=ca63bfe8-9877-4811-adc5-3f0e7ebc9715","ios":"levelo://app?vid=ca63bfe8-9877-4811-adc5-3f0e7ebc9715"},"vehicle_type_id":"4","last_reported":1687129580,"current_range_meters":25600,"station_id":"ce4bha92rcd13ifvqeg0","pricing_plan_id":"free"},{"bike_id":"89d611fd-611a-4549-9f29-09f73e324d69","system_id":"levelo_inurba_marseille","lat":43.290624,"lon":5.359245,"is_reserved":false,"is_disabled":false,"rental_uris":{"android":"levelo://app?vid=89d611fd-611a-4549-9f29-09f73e324d69","ios":"levelo://app?vid=89d611fd-611a-4549-9f29-09f73e324d69"},"vehicle_type_id":"4","last_reported":1687129580,"current_range_meters":29200,"station_id":"ce4bha92rcd13ifvqeg0","pricing_plan_id":"free"},{"bike_id":"d97c918d-11dc-4031-9eb4-bab3d56e5436","system_id":"levelo_inurba_marseille","lat":43.290624,"lon":5.359245,"is_reserved":false,"is_disabled":false,"rental_uris":{"android":"levelo://app?vid=d97c918d-11dc-4031-9eb4-bab3d56e5436","ios":"levelo://app?vid=d97c918d-11dc-4031-9eb4-bab3d56e5436"},"vehicle_type_id":"4","last_reported":1687129580,"current_range_meters":31200,"station_id":"ce4bha92rcd13ifvqeg0","pricing_plan_id":"free"},{"bike_id":"8f2a0428-3847-44af-b58b-6f2b146225cb","system_id":"levelo_inurba_marseille","lat":43.290631,"lon":5.359244,"is_reserved":false,"is_disabled":false,"rental_uris":{"android":"levelo://app?vid=8f2a0428-3847-44af-b58b-6f2b146225cb","ios":"levelo://app?vid=8f2a0428-3847-44af-b58b-6f2b146225cb"},"vehicle_type_id":"4","last_reported":1687129580,"current_range_meters":18800,"station_id":"ce4bha92rcd13ifvqeg0","pricing_plan_id":"free"},{"bike_id":"5cd7f59a-29eb-442e-8d13-6d81b59dcb5d","system_id":"levelo_inurba_marseille","lat":43.294153,"lon":5.386305,"is_reserved":false,"is_disabled":false,"rental_uris":{"android":"levelo://app?vid=5cd7f59a-29eb-442e-8d13-6d81b59dcb5d","ios":"levelo://app?vid=5cd7f59a-29eb-442e-8d13-6d81b59dcb5d"},"vehicle_type_id":"4","last_reported":1687129580,"current_range_meters":12000,"station_id":"ce4bh2h2rcd13ifvqdh0","pricing_plan_id":"free"},{"bike_id":"1d3b7a87-e65a-463e-89ef-143dca56d2b3","system_id":"levelo_inurba_marseille","lat":43.294162,"lon":5.386292,"is_reserved":false,"is_disabled":false,"rental_uris":{"android":"levelo://app?vid=1d3b7a87-e65a-463e-89ef-143dca56d2b3","ios":"levelo://app?vid=1d3b7a87-e65a-463e-89ef-143dca56d2b3"},"vehicle_type_id":"4","last_reported":1687129580,"current_range_meters":16400,"station_id":"ce4bh2h2rcd13ifvqdh0","pricing_plan_id":"free"},{"bike_id":"1bd9a516-bac2-4b1d-84ff-04287a768a71","system_id":"levelo_inurba_marseille","lat":43.28946,"lon":5.36619,"is_reserved":false,"is_disabled":false,"rental_uris":{"android":"levelo://app?vid=1bd9a516-bac2-4b1d-84ff-04287a768a71","ios":"levelo://app?vid=1bd9a516-bac2-4b1d-84ff-04287a768a71"},"vehicle_type_id":"4","last_reported":1687129580,"current_range_meters":30000,"station_id":"ce4bhap2rcd13ifvqek0","pricing_plan_id":"free"},{"bike_id":"a6698733-23c2-423e-a820-900e26a7b3d1","system_id":"levelo_inurba_marseille","lat":43.289184,"lon":5.366408,"is_reserved":false,"is_disabled":false,"rental_uris":{"android":"levelo://app?vid=a6698733-23c2-423e-a820-900e26a7b3d1","ios":"levelo://app?vid=a6698733-23c2-423e-a820-900e26a7b3d1"},"vehicle_type_id":"4","last_reported":1687129580,"current_range_meters":27200,"station_id":"ce4bhap2rcd13ifvqek0","pricing_plan_id":"free"},{"bike_id":"4427a18a-94e6-4de1-8ed4-fe747958f834","system_id":"levelo_inurba_marseille","lat":43.289468,"lon":5.363719,"is_reserved":false,"is_disabled":false,"rental_uris":{"android":"levelo://app?vid=4427a18a-94e6-4de1-8ed4-fe747958f834","ios":"levelo://app?vid=4427a18a-94e6-4de1-8ed4-fe747958f834"},"vehicle_type_id":"4","last_reported":1687129580,"current_range_meters":27600,"station_id":"ce4bhc92rcd13ifvqetg","pricing_plan_id":"free"},{"bike_id":"38eb09af-7166-42b9-865e-84246929498f","system_id":"levelo_inurba_marseille","lat":43.2927,"lon":5.38431,"is_reserved":false,"is_disabled":false,"rental_uris":{"android":"levelo://app?vid=38eb09af-7166-42b9-865e-84246929498f","ios":"levelo://app?vid=38eb09af-7166-42b9-865e-84246929498f"},"vehicle_type_id":"4","last_reported":1687129580,"current_range_meters":31200,"station_id":"ce4bh692rcd13ifvqea0","pricing_plan_id":"free"},{"bike_id":"c938d7da-c79a-4c6d-90ce-e2b0ed9bef08","system_id":"levelo_inurba_marseille","lat":43.29268,"lon":5.38435,"is_reserved":false,"is_disabled":false,"rental_uris":{"android":"levelo://app?vid=c938d7da-c79a-4c6d-90ce-e2b0ed9bef08","ios":"levelo://app?vid=c938d7da-c79a-4c6d-90ce-e2b0ed9bef08"},"vehicle_type_id":"4","last_reported":1687129580,"current_range_meters":22400,"station_id":"ce4bh692rcd13ifvqea0","pricing_plan_id":"free"},{"bike_id":"ed6f9b36-8513-46a7-ba95-35a94b59635e","system_id":"levelo_inurba_marseille","lat":43.292642,"lon":5.384254,"is_reserved":false,"is_disabled":false,"rental_uris":{"android":"levelo://app?vid=ed6f9b36-8513-46a7-ba95-35a94b59635e","ios":"levelo://app?vid=ed6f9b36-8513-46a7-ba95-35a94b59635e"},"vehicle_type_id":"4","last_reported":1687129580,"current_range_meters":18400,"station_id":"ce4bh692rcd13ifvqea0","pricing_plan_id":"free"},{"bike_id":"91e454ec-6031-4a68-94a1-55191f634a66","system_id":"levelo_inurba_marseille","lat":43.304274,"lon":5.397513,"is_reserved":false,"is_disabled":false,"rental_uris":{"android":"levelo://app?vid=91e454ec-6031-4a68-94a1-55191f634a66","ios":"levelo://app?vid=91e454ec-6031-4a68-94a1-55191f634a66"},"vehicle_type_id":"4","last_reported":1687129580,"current_range_meters":24400,"station_id":"ce4bh092rcd13ifvqd20","pricing_plan_id":"free"},{"bike_id":"087fefa5-24e7-42b9-ab9e-4cf642dac6d5","system_id":"levelo_inurba_marseille","lat":43.304274,"lon":5.397513,"is_reserved":false,"is_disabled":false,"rental_uris":{"android":"levelo://app?vid=087fefa5-24e7-42b9-ab9e-4cf642dac6d5","ios":"levelo://app?vid=087fefa5-24e7-42b9-ab9e-4cf642dac6d5"},"vehicle_type_id":"4","last_reported":1687129580,"current_range_meters":27600,"station_id":"ce4bh092rcd13ifvqd20","pricing_plan_id":"free"},{"bike_id":"28147565-b24d-486c-9f6f-e539413c8027","system_id":"levelo_inurba_marseille","lat":43.304274,"lon":5.397513,"is_reserved":false,"is_disabled":false,"rental_uris":{"android":"levelo://app?vid=28147565-b24d-486c-9f6f-e539413c8027","ios":"levelo://app?vid=28147565-b24d-486c-9f6f-e539413c8027"},"vehicle_type_id":"4","last_reported":1687129580,"current_range_meters":13600,"station_id":"ce4bh092rcd13ifvqd20","pricing_plan_id":"free"},{"bike_id":"e25ee598-7238-4304-9305-a540eca54ba1","system_id":"levelo_inurba_marseille","lat":43.304296,"lon":5.397513,"is_reserved":false,"is_disabled":false,"rental_uris":{"android":"levelo://app?vid=e25ee598-7238-4304-9305-a540eca54ba1","ios":"levelo://app?vid=e25ee598-7238-4304-9305-a540eca54ba1"},"vehicle_type_id":"4","last_reported":1687129580,"current_range_meters":19600,"station_id":"ce4bh092rcd13ifvqd20","pricing_plan_id":"free"},{"bike_id":"c9d6c6cf-50bc-4d44-9c79-63dd9b78bed0","system_id":"levelo_inurba_marseille","lat":43.304274,"lon":5.397513,"is_reserved":false,"is_disabled":false,"rental_uris":{"android":"levelo://app?vid=c9d6c6cf-50bc-4d44-9c79-63dd9b78bed0","ios":"levelo://app?vid=c9d6c6cf-50bc-4d44-9c79-63dd9b78bed0"},"vehicle_type_id":"4","last_reported":1687129580,"current_range_meters":10400,"station_id":"ce4bh092rcd13ifvqd20","pricing_plan_id":"free"},{"bike_id":"fdfe151c-d7f7-47e0-b8c5-2b1e4c78766e","system_id":"levelo_inurba_marseille","lat":43.29001,"lon":5.35612,"is_reserved":false,"is_disabled":false,"rental_uris":{"android":"levelo://app?vid=fdfe151c-d7f7-47e0-b8c5-2b1e4c78766e","ios":"levelo://app?vid=fdfe151c-d7f7-47e0-b8c5-2b1e4c78766e"},"vehicle_type_id":"4","last_reported":1687129580,"current_range_meters":31200,"station_id":"ce4bhb92rcd13ifvqen0","pricing_plan_id":"free"},{"bike_id":"5a25565f-601b-4369-92b1-ff276fe552b6","system_id":"levelo_inurba_marseille","lat":43.29102,"lon":5.38143,"is_reserved":false,"is_disabled":false,"rental_uris":{"android":"levelo://app?vid=5a25565f-601b-4369-92b1-ff276fe552b6","ios":"levelo://app?vid=5a25565f-601b-4369-92b1-ff276fe552b6"},"vehicle_type_id":"4","last_reported":1687129580,"current_range_meters":30800,"station_id":"ce4bh512rcd13ifvqe2g","pricing_plan_id":"free"},{"bike_id":"7570d4a4-21d2-4ec5-905a-08df029835c7","system_id":"levelo_inurba_marseille","lat":43.29099,"lon":5.38136,"is_reserved":false,"is_disabled":false,"rental_uris":{"android":"levelo://app?vid=7570d4a4-21d2-4ec5-905a-08df029835c7","ios":"levelo://app?vid=7570d4a4-21d2-4ec5-905a-08df029835c7"},"vehicle_type_id":"4","last_reported":1687129580,"current_range_meters":28800,"station_id":"ce4bh512rcd13ifvqe2g","pricing_plan_id":"free"},{"bike_id":"b2879593-322f-463e-8414-13bba393022a","system_id":"levelo_inurba_marseille","lat":43.297815,"lon":5.393548,"is_reserved":false,"is_disabled":false,"rental_uris":{"android":"levelo://app?vid=b2879593-322f-463e-8414-13bba393022a","ios":"levelo://app?vid=b2879593-322f-463e-8414-13bba393022a"},"vehicle_type_id":"4","last_reported":1687129580,"current_range_meters":19600,"station_id":"chh1huq6cuj3fo74tm60","pricing_plan_id":"free"},{"bike_id":"1882add5-da88-4ed5-b842-288ec6f6885a","system_id":"levelo_inurba_marseille","lat":43.289743,"lon":5.378304,"is_reserved":false,"is_disabled":false,"rental_uris":{"android":"levelo://app?vid=1882add5-da88-4ed5-b842-288ec6f6885a","ios":"levelo://app?vid=1882add5-da88-4ed5-b842-288ec6f6885a"},"vehicle_type_id":"4","last_reported":1687129580,"current_range_meters":12000,"station_id":"ce4bh9p2rcd13ifvqed0","pricing_plan_id":"free"},{"bike_id":"cb787d84-7d69-46fc-9769-3f1ec5266e06","system_id":"levelo_inurba_marseille","lat":43.297815,"lon":5.393548,"is_reserved":false,"is_disabled":false,"rental_uris":{"android":"levelo://app?vid=cb787d84-7d69-46fc-9769-3f1ec5266e06","ios":"levelo://app?vid=cb787d84-7d69-46fc-9769-3f1ec5266e06"},"vehicle_type_id":"4","last_reported":1687129580,"current_range_meters":25600,"station_id":"chh1huq6cuj3fo74tm60","pricing_plan_id":"free"},{"bike_id":"b9b44b37-7edf-4ab6-8685-17eb58a26dbc","system_id":"levelo_inurba_marseille","lat":43.295169,"lon":5.390426,"is_reserved":false,"is_disabled":false,"rental_uris":{"android":"levelo://app?vid=b9b44b37-7edf-4ab6-8685-17eb58a26dbc","ios":"levelo://app?vid=b9b44b37-7edf-4ab6-8685-17eb58a26dbc"},"vehicle_type_id":"4","last_reported":1687129580,"current_range_meters":31200,"station_id":"ce4bh3p2rcd13ifvqdp0","pricing_plan_id":"free"},{"bike_id":"6f2a483b-f8b0-4530-b4ad-172bdd79f5b7","system_id":"levelo_inurba_marseille","lat":43.2952,"lon":5.39036,"is_reserved":false,"is_disabled":false,"rental_uris":{"android":"levelo://app?vid=6f2a483b-f8b0-4530-b4ad-172bdd79f5b7","ios":"levelo://app?vid=6f2a483b-f8b0-4530-b4ad-172bdd79f5b7"},"vehicle_type_id":"4","last_reported":1687129580,"current_range_meters":14800,"station_id":"ce4bh3p2rcd13ifvqdp0","pricing_plan_id":"free"},{"bike_id":"9ccc3260-d5e5-4967-b722-428412fa7546","system_id":"levelo_inurba_marseille","lat":43.29521,"lon":5.39044,"is_reserved":false,"is_disabled":false,"rental_uris":{"android":"levelo://app?vid=9ccc3260-d5e5-4967-b722-428412fa7546","ios":"levelo://app?vid=9ccc3260-d5e5-4967-b722-428412fa7546"},"vehicle_type_id":"4","last_reported":1687129580,"current_range_meters":28800,"station_id":"ce4bh3p2rcd13ifvqdp0","pricing_plan_id":"free"},{"bike_id":"26f3e3e5-11f1-49d5-b959-40434791e558","system_id":"levelo_inurba_marseille","lat":43.2901,"lon":5.381269,"is_reserved":false,"is_disabled":false,"rental_uris":{"android":"levelo://app?vid=26f3e3e5-11f1-49d5-b959-40434791e558","ios":"levelo://app?vid=26f3e3e5-11f1-49d5-b959-40434791e558"},"vehicle_type_id":"4","last_reported":1687129580,"current_range_meters":28400,"station_id":"ce4bh4p2rcd13ifvqe1g","pricing_plan_id":"free"},{"bike_id":"7badc410-e7b8-45f9-80cd-f6ea04ee8abe","system_id":"levelo_inurba_marseille","lat":43.28856,"lon":5.358371,"is_reserved":false,"is_disabled":false,"rental_uris":{"android":"levelo://app?vid=7badc410-e7b8-45f9-80cd-f6ea04ee8abe","ios":"levelo://app?vid=7badc410-e7b8-45f9-80cd-f6ea04ee8abe"},"vehicle_type_id":"4","last_reported":1687129580,"current_range_meters":4800,"station_id":"ce4bhb12rcd13ifvqem0","pricing_plan_id":"free"},{"bike_id":"5d43e059-5eda-41cf-ba23-2ec3dbde65c1","system_id":"levelo_inurba_marseille","lat":43.28856,"lon":5.358371,"is_reserved":false,"is_disabled":false,"rental_uris":{"android":"levelo://app?vid=5d43e059-5eda-41cf-ba23-2ec3dbde65c1","ios":"levelo://app?vid=5d43e059-5eda-41cf-ba23-2ec3dbde65c1"},"vehicle_type_id":"4","last_reported":1687129580,"current_range_meters":9200,"station_id":"ce4bhb12rcd13ifvqem0","pricing_plan_id":"free"},{"bike_id":"ea2891c3-2e4a-4ff3-87ed-dfe4bef4ac52","system_id":"levelo_inurba_marseille","lat":43.28856,"lon":5.358371,"is_reserved":false,"is_disabled":false,"rental_uris":{"android":"levelo://app?vid=ea2891c3-2e4a-4ff3-87ed-dfe4bef4ac52","ios":"levelo://app?vid=ea2891c3-2e4a-4ff3-87ed-dfe4bef4ac52"},"vehicle_type_id":"4","last_reported":1687129580,"current_range_meters":11200,"station_id":"ce4bhb12rcd13ifvqem0","pricing_plan_id":"free"},{"bike_id":"425568bc-331e-4230-b8a8-0c17a04d1cec","system_id":"levelo_inurba_marseille","lat":43.28856,"lon":5.358371,"is_reserved":false,"is_disabled":false,"rental_uris":{"android":"levelo://app?vid=425568bc-331e-4230-b8a8-0c17a04d1cec","ios":"levelo://app?vid=425568bc-331e-4230-b8a8-0c17a04d1cec"},"vehicle_type_id":"4","last_reported":1687129580,"current_range_meters":31200,"station_id":"ce4bhb12rcd13ifvqem0","pricing_plan_id":"free"},{"bike_id":"b267138b-d513-4e57-b806-18fa7eb0ed0a","system_id":"levelo_inurba_marseille","lat":43.28856,"lon":5.358371,"is_reserved":false,"is_disabled":false,"rental_uris":{"android":"levelo://app?vid=b267138b-d513-4e57-b806-18fa7eb0ed0a","ios":"levelo://app?vid=b267138b-d513-4e57-b806-18fa7eb0ed0a"},"vehicle_type_id":"4","last_reported":1687129580,"current_range_meters":13200,"station_id":"ce4bhb12rcd13ifvqem0","pricing_plan_id":"free"},{"bike_id":"cbf85b53-9c02-4930-b0db-6a58ba23aa47","system_id":"levelo_inurba_marseille","lat":43.30648,"lon":5.40057,"is_reserved":false,"is_disabled":false,"rental_uris":{"android":"levelo://app?vid=cbf85b53-9c02-4930-b0db-6a58ba23aa47","ios":"levelo://app?vid=cbf85b53-9c02-4930-b0db-6a58ba23aa47"},"vehicle_type_id":"4","last_reported":1687129580,"current_range_meters":2800,"station_id":"","pricing_plan_id":"free"},{"bike_id":"3524aba2-de2f-4ef4-8939-05801f8f100a","system_id":"levelo_inurba_marseille","lat":43.30644,"lon":5.40064,"is_reserved":false,"is_disabled":false,"rental_uris":{"android":"levelo://app?vid=3524aba2-de2f-4ef4-8939-05801f8f100a","ios":"levelo://app?vid=3524aba2-de2f-4ef4-8939-05801f8f100a"},"vehicle_type_id":"4","last_reported":1687129580,"current_range_meters":12800,"station_id":"","pricing_plan_id":"free"},{"bike_id":"2d476d93-328d-4dd2-876e-4ec798ebadb3","system_id":"levelo_inurba_marseille","lat":43.309371,"lon":5.401449,"is_reserved":false,"is_disabled":false,"rental_uris":{"android":"levelo://app?vid=2d476d93-328d-4dd2-876e-4ec798ebadb3","ios":"levelo://app?vid=2d476d93-328d-4dd2-876e-4ec798ebadb3"},"vehicle_type_id":"4","last_reported":1687129580,"current_range_meters":2800,"station_id":"ce4bgvp2rcd13ifvqct0","pricing_plan_id":"free"},{"bike_id":"50eca23c-1a34-4bcc-a54e-1738014a05bb","system_id":"levelo_inurba_marseille","lat":43.309371,"lon":5.401449,"is_reserved":false,"is_disabled":false,"rental_uris":{"android":"levelo://app?vid=50eca23c-1a34-4bcc-a54e-1738014a05bb","ios":"levelo://app?vid=50eca23c-1a34-4bcc-a54e-1738014a05bb"},"vehicle_type_id":"4","last_reported":1687129580,"current_range_meters":26400,"station_id":"ce4bgvp2rcd13ifvqct0","pricing_plan_id":"free"},{"bike_id":"7397650f-39d3-438c-ac58-cf41e68c9386","system_id":"levelo_inurba_marseille","lat":43.3064,"lon":5.40065,"is_reserved":false,"is_disabled":false,"rental_uris":{"android":"levelo://app?vid=7397650f-39d3-438c-ac58-cf41e68c9386","ios":"levelo://app?vid=7397650f-39d3-438c-ac58-cf41e68c9386"},"vehicle_type_id":"4","last_reported":1687129580,"current_range_meters":0,"station_id":"","pricing_plan_id":"free"},{"bike_id":"41a8749b-6d93-4d1b-8e52-c5f60f65ae7c","system_id":"levelo_inurba_marseille","lat":43.33752,"lon":5.37443,"is_reserved":false,"is_disabled":false,"rental_uris":{"android":"levelo://app?vid=41a8749b-6d93-4d1b-8e52-c5f60f65ae7c","ios":"levelo://app?vid=41a8749b-6d93-4d1b-8e52-c5f60f65ae7c"},"vehicle_type_id":"4","last_reported":1687129580,"current_range_meters":25200,"station_id":"","pricing_plan_id":"free"},{"bike_id":"03dc7bc4-0651-47b3-9419-e601814ec75b","system_id":"levelo_inurba_marseille","lat":43.30647,"lon":5.40072,"is_reserved":false,"is_disabled":false,"rental_uris":{"android":"levelo://app?vid=03dc7bc4-0651-47b3-9419-e601814ec75b","ios":"levelo://app?vid=03dc7bc4-0651-47b3-9419-e601814ec75b"},"vehicle_type_id":"4","last_reported":1687129580,"current_range_meters":22000,"station_id":"ce4bh112rcd13ifvqda0","pricing_plan_id":"free"},{"bike_id":"e9dca547-42ba-4d28-93d5-aece827ff329","system_id":"levelo_inurba_marseille","lat":43.30641,"lon":5.40077,"is_reserved":false,"is_disabled":false,"rental_uris":{"android":"levelo://app?vid=e9dca547-42ba-4d28-93d5-aece827ff329","ios":"levelo://app?vid=e9dca547-42ba-4d28-93d5-aece827ff329"},"vehicle_type_id":"4","last_reported":1687129580,"current_range_meters":8800,"station_id":"ce4bh112rcd13ifvqda0","pricing_plan_id":"free"},{"bike_id":"a47ed742-21c9-4f54-ad39-8c71bf2b52d7","system_id":"levelo_inurba_marseille","lat":43.301117,"lon":5.398795,"is_reserved":false,"is_disabled":false,"rental_uris":{"android":"levelo://app?vid=a47ed742-21c9-4f54-ad39-8c71bf2b52d7","ios":"levelo://app?vid=a47ed742-21c9-4f54-ad39-8c71bf2b52d7"},"vehicle_type_id":"4","last_reported":1687129580,"current_range_meters":15200,"station_id":"ce4bh0h2rcd13ifvqd40","pricing_plan_id":"free"},{"bike_id":"4f7bb7f8-fd52-4323-8c30-6e7598d4b7d6","system_id":"levelo_inurba_marseille","lat":43.301117,"lon":5.398795,"is_reserved":false,"is_disabled":false,"rental_uris":{"android":"levelo://app?vid=4f7bb7f8-fd52-4323-8c30-6e7598d4b7d6","ios":"levelo://app?vid=4f7bb7f8-fd52-4323-8c30-6e7598d4b7d6"},"vehicle_type_id":"4","last_reported":1687129580,"current_range_meters":15200,"station_id":"ce4bh0h2rcd13ifvqd40","pricing_plan_id":"free"},{"bike_id":"bfa3d14e-aac3-49f9-9efb-e7c149f3b661","system_id":"levelo_inurba_marseille","lat":43.30121,"lon":5.39863,"is_reserved":false,"is_disabled":false,"rental_uris":{"android":"levelo://app?vid=bfa3d14e-aac3-49f9-9efb-e7c149f3b661","ios":"levelo://app?vid=bfa3d14e-aac3-49f9-9efb-e7c149f3b661"},"vehicle_type_id":"4","last_reported":1687129580,"current_range_meters":0,"station_id":"","pricing_plan_id":"free"},{"bike_id":"2e495cab-1af4-49bf-882c-5bdbd135a45e","system_id":"levelo_inurba_marseille","lat":43.298681,"lon":5.397225,"is_reserved":false,"is_disabled":false,"rental_uris":{"android":"levelo://app?vid=2e495cab-1af4-49bf-882c-5bdbd135a45e","ios":"levelo://app?vid=2e495cab-1af4-49bf-882c-5bdbd135a45e"},"vehicle_type_id":"4","last_reported":1687129580,"current_range_meters":18800,"station_id":"ce4bh0h2rcd13ifvqd50","pricing_plan_id":"free"},{"bike_id":"6419555d-a5fa-4e58-8ffc-653801ae2719","system_id":"levelo_inurba_marseille","lat":43.28711,"lon":5.37393,"is_reserved":false,"is_disabled":false,"rental_uris":{"android":"levelo://app?vid=6419555d-a5fa-4e58-8ffc-653801ae2719","ios":"levelo://app?vid=6419555d-a5fa-4e58-8ffc-653801ae2719"},"vehicle_type_id":"4","last_reported":1687129580,"current_range_meters":31200,"station_id":"ce4bh3p2rcd13ifvqdq0","pricing_plan_id":"free"},{"bike_id":"673e0a45-cfc0-4a8d-a416-36266a6c300b","system_id":"levelo_inurba_marseille","lat":43.298681,"lon":5.397225,"is_reserved":false,"is_disabled":false,"rental_uris":{"android":"levelo://app?vid=673e0a45-cfc0-4a8d-a416-36266a6c300b","ios":"levelo://app?vid=673e0a45-cfc0-4a8d-a416-36266a6c300b"},"vehicle_type_id":"4","last_reported":1687129580,"current_range_meters":5200,"station_id":"ce4bh0h2rcd13ifvqd50","pricing_plan_id":"free"},{"bike_id":"b1ec9fc6-3537-4ac5-89f4-7f17f371f056","system_id":"levelo_inurba_marseille","lat":43.28703,"lon":5.37388,"is_reserved":false,"is_disabled":false,"rental_uris":{"android":"levelo://app?vid=b1ec9fc6-3537-4ac5-89f4-7f17f371f056","ios":"levelo://app?vid=b1ec9fc6-3537-4ac5-89f4-7f17f371f056"},"vehicle_type_id":"4","last_reported":1687129580,"current_range_meters":26800,"station_id":"ce4bh3p2rcd13ifvqdq0","pricing_plan_id":"free"},{"bike_id":"c38cdeef-88c8-40ec-848a-b7eff2c38546","system_id":"levelo_inurba_marseille","lat":43.286591,"lon":5.363346,"is_reserved":false,"is_disabled":false,"rental_uris":{"android":"levelo://app?vid=c38cdeef-88c8-40ec-848a-b7eff2c38546","ios":"levelo://app?vid=c38cdeef-88c8-40ec-848a-b7eff2c38546"},"vehicle_type_id":"4","last_reported":1687129580,"current_range_meters":30400,"station_id":"ce4bhah2rcd13ifvqej0","pricing_plan_id":"free"},{"bike_id":"0e6acab3-cfe9-477b-9b25-e6a01e48363e","system_id":"levelo_inurba_marseille","lat":43.28701,"lon":5.37392,"is_reserved":false,"is_disabled":false,"rental_uris":{"android":"levelo://app?vid=0e6acab3-cfe9-477b-9b25-e6a01e48363e","ios":"levelo://app?vid=0e6acab3-cfe9-477b-9b25-e6a01e48363e"},"vehicle_type_id":"4","last_reported":1687129580,"current_range_meters":31200,"station_id":"ce4bh3p2rcd13ifvqdq0","pricing_plan_id":"free"},{"bike_id":"d262aa38-4783-4c1c-a59a-5764628ea97b","system_id":"levelo_inurba_marseille","lat":43.28701,"lon":5.37393,"is_reserved":false,"is_disabled":false,"rental_uris":{"android":"levelo://app?vid=d262aa38-4783-4c1c-a59a-5764628ea97b","ios":"levelo://app?vid=d262aa38-4783-4c1c-a59a-5764628ea97b"},"vehicle_type_id":"4","last_reported":1687129580,"current_range_meters":31200,"station_id":"ce4bh3p2rcd13ifvqdq0","pricing_plan_id":"free"},{"bike_id":"4d905b1c-2994-4256-9b3f-e986b4d96428","system_id":"levelo_inurba_marseille","lat":43.286591,"lon":5.363346,"is_reserved":false,"is_disabled":false,"rental_uris":{"android":"levelo://app?vid=4d905b1c-2994-4256-9b3f-e986b4d96428","ios":"levelo://app?vid=4d905b1c-2994-4256-9b3f-e986b4d96428"},"vehicle_type_id":"4","last_reported":1687129580,"current_range_meters":22400,"station_id":"ce4bhah2rcd13ifvqej0","pricing_plan_id":"free"},{"bike_id":"faf802b8-daaf-4e03-8d43-d803412aad68","system_id":"levelo_inurba_marseille","lat":43.286962,"lon":5.373844,"is_reserved":false,"is_disabled":false,"rental_uris":{"android":"levelo://app?vid=faf802b8-daaf-4e03-8d43-d803412aad68","ios":"levelo://app?vid=faf802b8-daaf-4e03-8d43-d803412aad68"},"vehicle_type_id":"4","last_reported":1687129580,"current_range_meters":31200,"station_id":"","pricing_plan_id":"free"},{"bike_id":"93679b84-4d79-4558-a1ee-f84205a8ea5f","system_id":"levelo_inurba_marseille","lat":43.286948,"lon":5.373754,"is_reserved":false,"is_disabled":false,"rental_uris":{"android":"levelo://app?vid=93679b84-4d79-4558-a1ee-f84205a8ea5f","ios":"levelo://app?vid=93679b84-4d79-4558-a1ee-f84205a8ea5f"},"vehicle_type_id":"4","last_reported":1687129580,"current_range_meters":28000,"station_id":"ce4bh3p2rcd13ifvqdq0","pricing_plan_id":"free"},{"bike_id":"4990af2e-1302-48a0-9b1b-f5ddaa6f1560","system_id":"levelo_inurba_marseille","lat":43.295196,"lon":5.39397,"is_reserved":false,"is_disabled":false,"rental_uris":{"android":"levelo://app?vid=4990af2e-1302-48a0-9b1b-f5ddaa6f1560","ios":"levelo://app?vid=4990af2e-1302-48a0-9b1b-f5ddaa6f1560"},"vehicle_type_id":"4","last_reported":1687129580,"current_range_meters":19600,"station_id":"ce4bh292rcd13ifvqdf0","pricing_plan_id":"free"},{"bike_id":"b745c08b-51b6-4522-ae41-7889b197ad7e","system_id":"levelo_inurba_marseille","lat":43.286593,"lon":5.363346,"is_reserved":false,"is_disabled":false,"rental_uris":{"android":"levelo://app?vid=b745c08b-51b6-4522-ae41-7889b197ad7e","ios":"levelo://app?vid=b745c08b-51b6-4522-ae41-7889b197ad7e"},"vehicle_type_id":"4","last_reported":1687129580,"current_range_meters":30400,"station_id":"ce4bhah2rcd13ifvqej0","pricing_plan_id":"free"},{"bike_id":"2e554465-ed21-4c12-b59a-8689d03eac3d","system_id":"levelo_inurba_marseille","lat":43.295196,"lon":5.39397,"is_reserved":false,"is_disabled":false,"rental_uris":{"android":"levelo://app?vid=2e554465-ed21-4c12-b59a-8689d03eac3d","ios":"levelo://app?vid=2e554465-ed21-4c12-b59a-8689d03eac3d"},"vehicle_type_id":"4","last_reported":1687129580,"current_range_meters":4400,"station_id":"ce4bh292rcd13ifvqdf0","pricing_plan_id":"free"},{"bike_id":"2836a377-c092-4a53-88be-7a880ae7d14d","system_id":"levelo_inurba_marseille","lat":43.295196,"lon":5.39397,"is_reserved":false,"is_disabled":false,"rental_uris":{"android":"levelo://app?vid=2836a377-c092-4a53-88be-7a880ae7d14d","ios":"levelo://app?vid=2836a377-c092-4a53-88be-7a880ae7d14d"},"vehicle_type_id":"4","last_reported":1687129580,"current_range_meters":6800,"station_id":"ce4bh292rcd13ifvqdf0","pricing_plan_id":"free"},{"bike_id":"d6c00486-9f3e-4191-ae6c-5c4d3d3a2932","system_id":"levelo_inurba_marseille","lat":43.290345,"lon":5.38646,"is_reserved":false,"is_disabled":false,"rental_uris":{"android":"levelo://app?vid=d6c00486-9f3e-4191-ae6c-5c4d3d3a2932","ios":"levelo://app?vid=d6c00486-9f3e-4191-ae6c-5c4d3d3a2932"},"vehicle_type_id":"4","last_reported":1687129580,"current_range_meters":14000,"station_id":"ce4bh4p2rcd13ifvqe0g","pricing_plan_id":"free"},{"bike_id":"5786743d-ea3e-4cbf-bdf8-8afe5714d4a5","system_id":"levelo_inurba_marseille","lat":43.290345,"lon":5.38646,"is_reserved":false,"is_disabled":false,"rental_uris":{"android":"levelo://app?vid=5786743d-ea3e-4cbf-bdf8-8afe5714d4a5","ios":"levelo://app?vid=5786743d-ea3e-4cbf-bdf8-8afe5714d4a5"},"vehicle_type_id":"4","last_reported":1687129580,"current_range_meters":24000,"station_id":"ce4bh4p2rcd13ifvqe0g","pricing_plan_id":"free"},{"bike_id":"187493bc-1e05-4f9c-8025-c718f28553c7","system_id":"levelo_inurba_marseille","lat":43.302759,"lon":5.400793,"is_reserved":false,"is_disabled":false,"rental_uris":{"android":"levelo://app?vid=187493bc-1e05-4f9c-8025-c718f28553c7","ios":"levelo://app?vid=187493bc-1e05-4f9c-8025-c718f28553c7"},"vehicle_type_id":"4","last_reported":1687129580,"current_range_meters":4800,"station_id":"ce4bgvh2rcd13ifvqcs0","pricing_plan_id":"free"},{"bike_id":"aa8881bf-04df-4b91-b0ef-309cc8100a1f","system_id":"levelo_inurba_marseille","lat":43.287184,"lon":5.37937,"is_reserved":false,"is_disabled":false,"rental_uris":{"android":"levelo://app?vid=aa8881bf-04df-4b91-b0ef-309cc8100a1f","ios":"levelo://app?vid=aa8881bf-04df-4b91-b0ef-309cc8100a1f"},"vehicle_type_id":"4","last_reported":1687129580,"current_range_meters":26000,"station_id":"ce4bh9p2rcd13ifvqec0","pricing_plan_id":"free"},{"bike_id":"180ba63a-5efa-4855-8d38-31ab3c721341","system_id":"levelo_inurba_marseille","lat":43.286039,"lon":5.370679,"is_reserved":false,"is_disabled":false,"rental_uris":{"android":"levelo://app?vid=180ba63a-5efa-4855-8d38-31ab3c721341","ios":"levelo://app?vid=180ba63a-5efa-4855-8d38-31ab3c721341"},"vehicle_type_id":"4","last_reported":1687129580,"current_range_meters":16000,"station_id":"ce4bht12rcd13ifvqi60","pricing_plan_id":"free"},{"bike_id":"c68f5399-aaf0-40e1-b636-b2672cdc9ea5","system_id":"levelo_inurba_marseille","lat":43.286039,"lon":5.370681,"is_reserved":false,"is_disabled":false,"rental_uris":{"android":"levelo://app?vid=c68f5399-aaf0-40e1-b636-b2672cdc9ea5","ios":"levelo://app?vid=c68f5399-aaf0-40e1-b636-b2672cdc9ea5"},"vehicle_type_id":"4","last_reported":1687129580,"current_range_meters":18800,"station_id":"ce4bht12rcd13ifvqi60","pricing_plan_id":"free"},{"bike_id":"23cf671e-0d35-462f-bfea-c457a38ebf6e","system_id":"levelo_inurba_marseille","lat":43.287185,"lon":5.379373,"is_reserved":false,"is_disabled":false,"rental_uris":{"android":"levelo://app?vid=23cf671e-0d35-462f-bfea-c457a38ebf6e","ios":"levelo://app?vid=23cf671e-0d35-462f-bfea-c457a38ebf6e"},"vehicle_type_id":"4","last_reported":1687129580,"current_range_meters":28000,"station_id":"ce4bh9p2rcd13ifvqec0","pricing_plan_id":"free"},{"bike_id":"a44d6401-70d0-4382-82af-b1b0b13b5beb","system_id":"levelo_inurba_marseille","lat":43.287185,"lon":5.379373,"is_reserved":false,"is_disabled":false,"rental_uris":{"android":"levelo://app?vid=a44d6401-70d0-4382-82af-b1b0b13b5beb","ios":"levelo://app?vid=a44d6401-70d0-4382-82af-b1b0b13b5beb"},"vehicle_type_id":"4","last_reported":1687129580,"current_range_meters":21600,"station_id":"ce4bh9p2rcd13ifvqec0","pricing_plan_id":"free"},{"bike_id":"d5732bc6-8589-4e3d-b51e-8cb9391e0358","system_id":"levelo_inurba_marseille","lat":43.316517,"lon":5.404375,"is_reserved":false,"is_disabled":false,"rental_uris":{"android":"levelo://app?vid=d5732bc6-8589-4e3d-b51e-8cb9391e0358","ios":"levelo://app?vid=d5732bc6-8589-4e3d-b51e-8cb9391e0358"},"vehicle_type_id":"4","last_reported":1687129580,"current_range_meters":31200,"station_id":"ce4bh012rcd13ifvqd00","pricing_plan_id":"free"},{"bike_id":"36b3e68b-3432-4dca-a726-03cc1d1def05","system_id":"levelo_inurba_marseille","lat":43.316517,"lon":5.404375,"is_reserved":false,"is_disabled":false,"rental_uris":{"android":"levelo://app?vid=36b3e68b-3432-4dca-a726-03cc1d1def05","ios":"levelo://app?vid=36b3e68b-3432-4dca-a726-03cc1d1def05"},"vehicle_type_id":"4","last_reported":1687129580,"current_range_meters":10800,"station_id":"ce4bh012rcd13ifvqd00","pricing_plan_id":"free"},{"bike_id":"c13a445b-5671-4ef3-bfe0-20da1040eda7","system_id":"levelo_inurba_marseille","lat":43.316517,"lon":5.404375,"is_reserved":false,"is_disabled":false,"rental_uris":{"android":"levelo://app?vid=c13a445b-5671-4ef3-bfe0-20da1040eda7","ios":"levelo://app?vid=c13a445b-5671-4ef3-bfe0-20da1040eda7"},"vehicle_type_id":"4","last_reported":1687129580,"current_range_meters":16800,"station_id":"ce4bh012rcd13ifvqd00","pricing_plan_id":"free"},{"bike_id":"125b205e-fb1a-4fa4-b869-739ee7ab2002","system_id":"levelo_inurba_marseille","lat":43.316517,"lon":5.404375,"is_reserved":false,"is_disabled":false,"rental_uris":{"android":"levelo://app?vid=125b205e-fb1a-4fa4-b869-739ee7ab2002","ios":"levelo://app?vid=125b205e-fb1a-4fa4-b869-739ee7ab2002"},"vehicle_type_id":"4","last_reported":1687129580,"current_range_meters":17600,"station_id":"ce4bh012rcd13ifvqd00","pricing_plan_id":"free"},{"bike_id":"88ea5aa4-bcf0-4dca-a336-6a1e1b6a4ebc","system_id":"levelo_inurba_marseille","lat":43.316517,"lon":5.404375,"is_reserved":false,"is_disabled":false,"rental_uris":{"android":"levelo://app?vid=88ea5aa4-bcf0-4dca-a336-6a1e1b6a4ebc","ios":"levelo://app?vid=88ea5aa4-bcf0-4dca-a336-6a1e1b6a4ebc"},"vehicle_type_id":"4","last_reported":1687129580,"current_range_meters":26000,"station_id":"ce4bh012rcd13ifvqd00","pricing_plan_id":"free"},{"bike_id":"b7e731f4-887b-46ed-ae73-86e7bcffbcb7","system_id":"levelo_inurba_marseille","lat":43.31648,"lon":5.40432,"is_reserved":false,"is_disabled":false,"rental_uris":{"android":"levelo://app?vid=b7e731f4-887b-46ed-ae73-86e7bcffbcb7","ios":"levelo://app?vid=b7e731f4-887b-46ed-ae73-86e7bcffbcb7"},"vehicle_type_id":"4","last_reported":1687129580,"current_range_meters":31200,"station_id":"ce4bh012rcd13ifvqd00","pricing_plan_id":"free"},{"bike_id":"e0a63683-8694-4db9-82de-94a64980e610","system_id":"levelo_inurba_marseille","lat":43.316517,"lon":5.404375,"is_reserved":false,"is_disabled":false,"rental_uris":{"android":"levelo://app?vid=e0a63683-8694-4db9-82de-94a64980e610","ios":"levelo://app?vid=e0a63683-8694-4db9-82de-94a64980e610"},"vehicle_type_id":"4","last_reported":1687129580,"current_range_meters":24000,"station_id":"ce4bh012rcd13ifvqd00","pricing_plan_id":"free"},{"bike_id":"6ba32a33-7a5d-40f3-875b-a7bf01d4ea1a","system_id":"levelo_inurba_marseille","lat":43.316517,"lon":5.404375,"is_reserved":false,"is_disabled":false,"rental_uris":{"android":"levelo://app?vid=6ba32a33-7a5d-40f3-875b-a7bf01d4ea1a","ios":"levelo://app?vid=6ba32a33-7a5d-40f3-875b-a7bf01d4ea1a"},"vehicle_type_id":"4","last_reported":1687129580,"current_range_meters":31200,"station_id":"ce4bh012rcd13ifvqd00","pricing_plan_id":"free"},{"bike_id":"febe90af-2f0f-4951-9847-9156667fb275","system_id":"levelo_inurba_marseille","lat":43.316517,"lon":5.404375,"is_reserved":false,"is_disabled":false,"rental_uris":{"android":"levelo://app?vid=febe90af-2f0f-4951-9847-9156667fb275","ios":"levelo://app?vid=febe90af-2f0f-4951-9847-9156667fb275"},"vehicle_type_id":"4","last_reported":1687129580,"current_range_meters":31200,"station_id":"ce4bh012rcd13ifvqd00","pricing_plan_id":"free"},{"bike_id":"6347912e-b36e-419b-af72-4f713fa75d59","system_id":"levelo_inurba_marseille","lat":43.316517,"lon":5.404375,"is_reserved":false,"is_disabled":false,"rental_uris":{"android":"levelo://app?vid=6347912e-b36e-419b-af72-4f713fa75d59","ios":"levelo://app?vid=6347912e-b36e-419b-af72-4f713fa75d59"},"vehicle_type_id":"4","last_reported":1687129580,"current_range_meters":31200,"station_id":"ce4bh012rcd13ifvqd00","pricing_plan_id":"free"},{"bike_id":"483ad9eb-796c-4ee4-b221-564c60b1b90c","system_id":"levelo_inurba_marseille","lat":43.29913,"lon":5.40065,"is_reserved":false,"is_disabled":false,"rental_uris":{"android":"levelo://app?vid=483ad9eb-796c-4ee4-b221-564c60b1b90c","ios":"levelo://app?vid=483ad9eb-796c-4ee4-b221-564c60b1b90c"},"vehicle_type_id":"4","last_reported":1687129580,"current_range_meters":15200,"station_id":"","pricing_plan_id":"free"},{"bike_id":"86a5dd33-bb14-4a8d-9e7e-e669d1faeda1","system_id":"levelo_inurba_marseille","lat":43.291994,"lon":5.392907,"is_reserved":false,"is_disabled":false,"rental_uris":{"android":"levelo://app?vid=86a5dd33-bb14-4a8d-9e7e-e669d1faeda1","ios":"levelo://app?vid=86a5dd33-bb14-4a8d-9e7e-e669d1faeda1"},"vehicle_type_id":"4","last_reported":1687129580,"current_range_meters":25600,"station_id":"ce4bh192rcd13ifvqdd0","pricing_plan_id":"free"},{"bike_id":"31e1f181-7b04-4e60-9c5f-09b84accd525","system_id":"levelo_inurba_marseille","lat":43.291994,"lon":5.392907,"is_reserved":false,"is_disabled":false,"rental_uris":{"android":"levelo://app?vid=31e1f181-7b04-4e60-9c5f-09b84accd525","ios":"levelo://app?vid=31e1f181-7b04-4e60-9c5f-09b84accd525"},"vehicle_type_id":"4","last_reported":1687129580,"current_range_meters":14400,"station_id":"ce4bh192rcd13ifvqdd0","pricing_plan_id":"free"},{"bike_id":"28a6e9f0-25b6-4de5-af7e-719f6d0165c5","system_id":"levelo_inurba_marseille","lat":43.291994,"lon":5.392907,"is_reserved":false,"is_disabled":false,"rental_uris":{"android":"levelo://app?vid=28a6e9f0-25b6-4de5-af7e-719f6d0165c5","ios":"levelo://app?vid=28a6e9f0-25b6-4de5-af7e-719f6d0165c5"},"vehicle_type_id":"4","last_reported":1687129580,"current_range_meters":20000,"station_id":"ce4bh192rcd13ifvqdd0","pricing_plan_id":"free"},{"bike_id":"833e5453-5a0a-44eb-b0d9-239321b10938","system_id":"levelo_inurba_marseille","lat":43.291994,"lon":5.392907,"is_reserved":false,"is_disabled":false,"rental_uris":{"android":"levelo://app?vid=833e5453-5a0a-44eb-b0d9-239321b10938","ios":"levelo://app?vid=833e5453-5a0a-44eb-b0d9-239321b10938"},"vehicle_type_id":"4","last_reported":1687129580,"current_range_meters":14800,"station_id":"ce4bh192rcd13ifvqdd0","pricing_plan_id":"free"},{"bike_id":"2b380462-1017-417a-94c4-86f5efe13d70","system_id":"levelo_inurba_marseille","lat":43.291994,"lon":5.392907,"is_reserved":false,"is_disabled":false,"rental_uris":{"android":"levelo://app?vid=2b380462-1017-417a-94c4-86f5efe13d70","ios":"levelo://app?vid=2b380462-1017-417a-94c4-86f5efe13d70"},"vehicle_type_id":"4","last_reported":1687129580,"current_range_meters":31200,"station_id":"ce4bh192rcd13ifvqdd0","pricing_plan_id":"free"},{"bike_id":"e0e13e6e-1530-4675-ad76-5583a2c007a7","system_id":"levelo_inurba_marseille","lat":43.29529,"lon":5.385581,"is_reserved":false,"is_disabled":false,"rental_uris":{"android":"levelo://app?vid=e0e13e6e-1530-4675-ad76-5583a2c007a7","ios":"levelo://app?vid=e0e13e6e-1530-4675-ad76-5583a2c007a7"},"vehicle_type_id":"4","last_reported":1687129580,"current_range_meters":18400,"station_id":"ce4bgih2rcd13ifvqba0","pricing_plan_id":"free"},{"bike_id":"5e0c89a6-95b8-45e3-a625-be34ab51eede","system_id":"levelo_inurba_marseille","lat":43.284534,"lon":5.358662,"is_reserved":false,"is_disabled":false,"rental_uris":{"android":"levelo://app?vid=5e0c89a6-95b8-45e3-a625-be34ab51eede","ios":"levelo://app?vid=5e0c89a6-95b8-45e3-a625-be34ab51eede"},"vehicle_type_id":"4","last_reported":1687129580,"current_range_meters":5200,"station_id":"ce4bhah2rcd13ifvqei0","pricing_plan_id":"free"},{"bike_id":"20015d68-ebc0-4ef6-b96b-cd7055d037e5","system_id":"levelo_inurba_marseille","lat":43.284534,"lon":5.358662,"is_reserved":false,"is_disabled":false,"rental_uris":{"android":"levelo://app?vid=20015d68-ebc0-4ef6-b96b-cd7055d037e5","ios":"levelo://app?vid=20015d68-ebc0-4ef6-b96b-cd7055d037e5"},"vehicle_type_id":"4","last_reported":1687129580,"current_range_meters":31200,"station_id":"ce4bhah2rcd13ifvqei0","pricing_plan_id":"free"},{"bike_id":"1d9fb367-d523-4684-8fdb-34eb7234c36e","system_id":"levelo_inurba_marseille","lat":43.284534,"lon":5.358662,"is_reserved":false,"is_disabled":false,"rental_uris":{"android":"levelo://app?vid=1d9fb367-d523-4684-8fdb-34eb7234c36e","ios":"levelo://app?vid=1d9fb367-d523-4684-8fdb-34eb7234c36e"},"vehicle_type_id":"4","last_reported":1687129580,"current_range_meters":16800,"station_id":"ce4bhah2rcd13ifvqei0","pricing_plan_id":"free"},{"bike_id":"dd1774f0-ce1e-44f3-94ef-21ddb21305d6","system_id":"levelo_inurba_marseille","lat":43.284534,"lon":5.358662,"is_reserved":false,"is_disabled":false,"rental_uris":{"android":"levelo://app?vid=dd1774f0-ce1e-44f3-94ef-21ddb21305d6","ios":"levelo://app?vid=dd1774f0-ce1e-44f3-94ef-21ddb21305d6"},"vehicle_type_id":"4","last_reported":1687129580,"current_range_meters":6000,"station_id":"ce4bhah2rcd13ifvqei0","pricing_plan_id":"free"},{"bike_id":"cfb74004-faba-4031-b764-a6184595f83a","system_id":"levelo_inurba_marseille","lat":43.284534,"lon":5.358662,"is_reserved":false,"is_disabled":false,"rental_uris":{"android":"levelo://app?vid=cfb74004-faba-4031-b764-a6184595f83a","ios":"levelo://app?vid=cfb74004-faba-4031-b764-a6184595f83a"},"vehicle_type_id":"4","last_reported":1687129580,"current_range_meters":4400,"station_id":"ce4bhah2rcd13ifvqei0","pricing_plan_id":"free"},{"bike_id":"68a5f972-63ea-45b6-9d89-79381f0cf4d4","system_id":"levelo_inurba_marseille","lat":43.294314,"lon":5.397498,"is_reserved":false,"is_disabled":false,"rental_uris":{"android":"levelo://app?vid=68a5f972-63ea-45b6-9d89-79381f0cf4d4","ios":"levelo://app?vid=68a5f972-63ea-45b6-9d89-79381f0cf4d4"},