{"last_updated":1678259234,"ttl":30,"version":"2.2","data":{"bikes":[{"bike_id":"9005cdeb-2df3-47eb-9e36-63e07a266714","system_id":"levelo_inurba_marseille","lat":43.312267,"lon":5.368513,"is_reserved":false,"is_disabled":false,"rental_uris":{"android":"levelo://app?vid=9005cdeb-2df3-47eb-9e36-63e07a266714","ios":"levelo://app?vid=9005cdeb-2df3-47eb-9e36-63e07a266714"},"vehicle_type_id":"4","last_reported":1678259235,"current_range_meters":0,"station_id":"ce4bgl92rcd13ifvqbq0","pricing_plan_id":"free"},{"bike_id":"2b326eff-49e6-418e-b733-85d0665a7fd9","system_id":"levelo_inurba_marseille","lat":43.309002,"lon":5.368493,"is_reserved":false,"is_disabled":false,"rental_uris":{"android":"levelo://app?vid=2b326eff-49e6-418e-b733-85d0665a7fd9","ios":"levelo://app?vid=2b326eff-49e6-418e-b733-85d0665a7fd9"},"vehicle_type_id":"4","last_reported":1678259235,"current_range_meters":10400,"station_id":"ce4bgn92rcd13ifvqbvg","pricing_plan_id":"free"},{"bike_id":"fd74cae4-1c3b-4592-aad2-a568785561f4","system_id":"levelo_inurba_marseille","lat":43.314853,"lon":5.373022,"is_reserved":false,"is_disabled":false,"rental_uris":{"android":"levelo://app?vid=fd74cae4-1c3b-4592-aad2-a568785561f4","ios":"levelo://app?vid=fd74cae4-1c3b-4592-aad2-a568785561f4"},"vehicle_type_id":"4","last_reported":1678259235,"current_range_meters":0,"station_id":"ce4bgt12rcd13ifvqcd0","pricing_plan_id":"free"},{"bike_id":"0e3ddbd1-200c-4435-abe3-48ab91128348","system_id":"levelo_inurba_marseille","lat":43.30893,"lon":5.371954,"is_reserved":false,"is_disabled":false,"rental_uris":{"android":"levelo://app?vid=0e3ddbd1-200c-4435-abe3-48ab91128348","ios":"levelo://app?vid=0e3ddbd1-200c-4435-abe3-48ab91128348"},"vehicle_type_id":"4","last_reported":1678259235,"current_range_meters":0,"station_id":"","pricing_plan_id":"free"},{"bike_id":"57c3f61e-4865-41dc-8988-edec48e778fd","system_id":"levelo_inurba_marseille","lat":43.308911,"lon":5.371954,"is_reserved":false,"is_disabled":false,"rental_uris":{"android":"levelo://app?vid=57c3f61e-4865-41dc-8988-edec48e778fd","ios":"levelo://app?vid=57c3f61e-4865-41dc-8988-edec48e778fd"},"vehicle_type_id":"4","last_reported":1678259235,"current_range_meters":0,"station_id":"","pricing_plan_id":"free"},{"bike_id":"5a5ddea6-8518-42ee-8b02-357b1eb84cb3","system_id":"levelo_inurba_marseille","lat":43.30585,"lon":5.371018,"is_reserved":false,"is_disabled":false,"rental_uris":{"android":"levelo://app?vid=5a5ddea6-8518-42ee-8b02-357b1eb84cb3","ios":"levelo://app?vid=5a5ddea6-8518-42ee-8b02-357b1eb84cb3"},"vehicle_type_id":"4","last_reported":1678259235,"current_range_meters":0,"station_id":"","pricing_plan_id":"free"},{"bike_id":"6ecb0b62-6a12-448d-97c1-6ae92ecfa0c3","system_id":"levelo_inurba_marseille","lat":43.30604,"lon":5.372442,"is_reserved":false,"is_disabled":false,"rental_uris":{"android":"levelo://app?vid=6ecb0b62-6a12-448d-97c1-6ae92ecfa0c3","ios":"levelo://app?vid=6ecb0b62-6a12-448d-97c1-6ae92ecfa0c3"},"vehicle_type_id":"4","last_reported":1678259235,"current_range_meters":0,"station_id":"ce4bgqh2rcd13ifvqc4g","pricing_plan_id":"free"},{"bike_id":"e071bda8-87fe-485a-87b0-a8a98eaa7833","system_id":"levelo_inurba_marseille","lat":43.317006,"lon":5.377701,"is_reserved":false,"is_disabled":false,"rental_uris":{"android":"levelo://app?vid=e071bda8-87fe-485a-87b0-a8a98eaa7833","ios":"levelo://app?vid=e071bda8-87fe-485a-87b0-a8a98eaa7833"},"vehicle_type_id":"4","last_reported":1678259235,"current_range_meters":12800,"station_id":"","pricing_plan_id":"free"},{"bike_id":"9f6d1cf8-960a-42f2-b4c6-3e5c0c2a998a","system_id":"levelo_inurba_marseille","lat":43.32017,"lon":5.37694,"is_reserved":false,"is_disabled":false,"rental_uris":{"android":"levelo://app?vid=9f6d1cf8-960a-42f2-b4c6-3e5c0c2a998a","ios":"levelo://app?vid=9f6d1cf8-960a-42f2-b4c6-3e5c0c2a998a"},"vehicle_type_id":"4","last_reported":1678259235,"current_range_meters":0,"station_id":"","pricing_plan_id":"free"},{"bike_id":"a6a8fdbc-51d1-4b60-b68e-bccc1452c191","system_id":"levelo_inurba_marseille","lat":43.308012,"lon":5.381511,"is_reserved":false,"is_disabled":false,"rental_uris":{"android":"levelo://app?vid=a6a8fdbc-51d1-4b60-b68e-bccc1452c191","ios":"levelo://app?vid=a6a8fdbc-51d1-4b60-b68e-bccc1452c191"},"vehicle_type_id":"4","last_reported":1678259235,"current_range_meters":31600,"station_id":"ce4bgt12rcd13ifvqce0","pricing_plan_id":"free"},{"bike_id":"28a3acdb-df7c-47b7-9acf-e2b9b9619c65","system_id":"levelo_inurba_marseille","lat":43.308012,"lon":5.381511,"is_reserved":false,"is_disabled":false,"rental_uris":{"android":"levelo://app?vid=28a3acdb-df7c-47b7-9acf-e2b9b9619c65","ios":"levelo://app?vid=28a3acdb-df7c-47b7-9acf-e2b9b9619c65"},"vehicle_type_id":"4","last_reported":1678259235,"current_range_meters":30400,"station_id":"ce4bgt12rcd13ifvqce0","pricing_plan_id":"free"},{"bike_id":"aa0d199a-84ea-4cdc-8177-fcff05bba119","system_id":"levelo_inurba_marseille","lat":43.308012,"lon":5.381511,"is_reserved":false,"is_disabled":false,"rental_uris":{"android":"levelo://app?vid=aa0d199a-84ea-4cdc-8177-fcff05bba119","ios":"levelo://app?vid=aa0d199a-84ea-4cdc-8177-fcff05bba119"},"vehicle_type_id":"4","last_reported":1678259235,"current_range_meters":28800,"station_id":"ce4bgt12rcd13ifvqce0","pricing_plan_id":"free"},{"bike_id":"0d9a2e71-04ed-4b30-af71-a77bef85031b","system_id":"levelo_inurba_marseille","lat":43.308031,"lon":5.381457,"is_reserved":false,"is_disabled":false,"rental_uris":{"android":"levelo://app?vid=0d9a2e71-04ed-4b30-af71-a77bef85031b","ios":"levelo://app?vid=0d9a2e71-04ed-4b30-af71-a77bef85031b"},"vehicle_type_id":"4","last_reported":1678259235,"current_range_meters":31600,"station_id":"ce4bgt12rcd13ifvqce0","pricing_plan_id":"free"},{"bike_id":"aefe1e85-987b-40be-bda1-1aed95534a21","system_id":"levelo_inurba_marseille","lat":43.308012,"lon":5.381511,"is_reserved":false,"is_disabled":false,"rental_uris":{"android":"levelo://app?vid=aefe1e85-987b-40be-bda1-1aed95534a21","ios":"levelo://app?vid=aefe1e85-987b-40be-bda1-1aed95534a21"},"vehicle_type_id":"4","last_reported":1678259235,"current_range_meters":31600,"station_id":"ce4bgt12rcd13ifvqce0","pricing_plan_id":"free"},{"bike_id":"f4d57d18-744d-4fe4-b039-90fd80a37824","system_id":"levelo_inurba_marseille","lat":43.308012,"lon":5.381511,"is_reserved":false,"is_disabled":false,"rental_uris":{"android":"levelo://app?vid=f4d57d18-744d-4fe4-b039-90fd80a37824","ios":"levelo://app?vid=f4d57d18-744d-4fe4-b039-90fd80a37824"},"vehicle_type_id":"4","last_reported":1678259235,"current_range_meters":31600,"station_id":"ce4bgt12rcd13ifvqce0","pricing_plan_id":"free"},{"bike_id":"b73e3604-c3a3-4aec-9881-3e13d4cfc669","system_id":"levelo_inurba_marseille","lat":43.308012,"lon":5.381511,"is_reserved":false,"is_disabled":false,"rental_uris":{"android":"levelo://app?vid=b73e3604-c3a3-4aec-9881-3e13d4cfc669","ios":"levelo://app?vid=b73e3604-c3a3-4aec-9881-3e13d4cfc669"},"vehicle_type_id":"4","last_reported":1678259235,"current_range_meters":30400,"station_id":"ce4bgt12rcd13ifvqce0","pricing_plan_id":"free"},{"bike_id":"508e15ff-c4e4-4e09-bf4e-6b1511b35f57","system_id":"levelo_inurba_marseille","lat":43.308012,"lon":5.381511,"is_reserved":false,"is_disabled":false,"rental_uris":{"android":"levelo://app?vid=508e15ff-c4e4-4e09-bf4e-6b1511b35f57","ios":"levelo://app?vid=508e15ff-c4e4-4e09-bf4e-6b1511b35f57"},"vehicle_type_id":"4","last_reported":1678259235,"current_range_meters":21200,"station_id":"ce4bgt12rcd13ifvqce0","pricing_plan_id":"free"},{"bike_id":"ce4995f9-73c5-4c7d-88ae-1cda72214eb8","system_id":"levelo_inurba_marseille","lat":43.308012,"lon":5.381511,"is_reserved":false,"is_disabled":false,"rental_uris":{"android":"levelo://app?vid=ce4995f9-73c5-4c7d-88ae-1cda72214eb8","ios":"levelo://app?vid=ce4995f9-73c5-4c7d-88ae-1cda72214eb8"},"vehicle_type_id":"4","last_reported":1678259235,"current_range_meters":13200,"station_id":"ce4bgt12rcd13ifvqce0","pricing_plan_id":"free"},{"bike_id":"8ad9a362-1a04-4ab6-8b37-95dfaaaa64a6","system_id":"levelo_inurba_marseille","lat":43.30802,"lon":5.38152,"is_reserved":false,"is_disabled":false,"rental_uris":{"android":"levelo://app?vid=8ad9a362-1a04-4ab6-8b37-95dfaaaa64a6","ios":"levelo://app?vid=8ad9a362-1a04-4ab6-8b37-95dfaaaa64a6"},"vehicle_type_id":"4","last_reported":1678259235,"current_range_meters":30800,"station_id":"","pricing_plan_id":"free"},{"bike_id":"ed352e3b-27be-49e3-84f7-0099ff61e811","system_id":"levelo_inurba_marseille","lat":43.308012,"lon":5.381511,"is_reserved":false,"is_disabled":false,"rental_uris":{"android":"levelo://app?vid=ed352e3b-27be-49e3-84f7-0099ff61e811","ios":"levelo://app?vid=ed352e3b-27be-49e3-84f7-0099ff61e811"},"vehicle_type_id":"4","last_reported":1678259235,"current_range_meters":21600,"station_id":"ce4bgt12rcd13ifvqce0","pricing_plan_id":"free"},{"bike_id":"0eea6735-5180-4945-9341-9d96acac5eec","system_id":"levelo_inurba_marseille","lat":43.308012,"lon":5.381511,"is_reserved":false,"is_disabled":false,"rental_uris":{"android":"levelo://app?vid=0eea6735-5180-4945-9341-9d96acac5eec","ios":"levelo://app?vid=0eea6735-5180-4945-9341-9d96acac5eec"},"vehicle_type_id":"4","last_reported":1678259235,"current_range_meters":30800,"station_id":"ce4bgt12rcd13ifvqce0","pricing_plan_id":"free"},{"bike_id":"8ab1f5ce-25f9-44f6-940d-96c49e422ad3","system_id":"levelo_inurba_marseille","lat":43.304606,"lon":5.379026,"is_reserved":false,"is_disabled":false,"rental_uris":{"android":"levelo://app?vid=8ab1f5ce-25f9-44f6-940d-96c49e422ad3","ios":"levelo://app?vid=8ab1f5ce-25f9-44f6-940d-96c49e422ad3"},"vehicle_type_id":"4","last_reported":1678259235,"current_range_meters":32000,"station_id":"ce4bgup2rcd13ifvqcn0","pricing_plan_id":"free"},{"bike_id":"c1b17b3c-f957-40a6-add0-37a0f1db9728","system_id":"levelo_inurba_marseille","lat":43.304606,"lon":5.379026,"is_reserved":false,"is_disabled":false,"rental_uris":{"android":"levelo://app?vid=c1b17b3c-f957-40a6-add0-37a0f1db9728","ios":"levelo://app?vid=c1b17b3c-f957-40a6-add0-37a0f1db9728"},"vehicle_type_id":"4","last_reported":1678259235,"current_range_meters":22000,"station_id":"ce4bgup2rcd13ifvqcn0","pricing_plan_id":"free"},{"bike_id":"80ac2269-380e-46a8-8105-b30e205bac15","system_id":"levelo_inurba_marseille","lat":43.304606,"lon":5.379026,"is_reserved":false,"is_disabled":false,"rental_uris":{"android":"levelo://app?vid=80ac2269-380e-46a8-8105-b30e205bac15","ios":"levelo://app?vid=80ac2269-380e-46a8-8105-b30e205bac15"},"vehicle_type_id":"4","last_reported":1678259235,"current_range_meters":26400,"station_id":"ce4bgup2rcd13ifvqcn0","pricing_plan_id":"free"},{"bike_id":"8b60f4f8-dbf6-4116-93f2-8bca4059cb3f","system_id":"levelo_inurba_marseille","lat":43.304606,"lon":5.379026,"is_reserved":false,"is_disabled":false,"rental_uris":{"android":"levelo://app?vid=8b60f4f8-dbf6-4116-93f2-8bca4059cb3f","ios":"levelo://app?vid=8b60f4f8-dbf6-4116-93f2-8bca4059cb3f"},"vehicle_type_id":"4","last_reported":1678259235,"current_range_meters":31600,"station_id":"ce4bgup2rcd13ifvqcn0","pricing_plan_id":"free"},{"bike_id":"0888424b-3e9c-4f8b-a1b3-225dcbb30f7d","system_id":"levelo_inurba_marseille","lat":43.304606,"lon":5.379026,"is_reserved":false,"is_disabled":false,"rental_uris":{"android":"levelo://app?vid=0888424b-3e9c-4f8b-a1b3-225dcbb30f7d","ios":"levelo://app?vid=0888424b-3e9c-4f8b-a1b3-225dcbb30f7d"},"vehicle_type_id":"4","last_reported":1678259235,"current_range_meters":32000,"station_id":"ce4bgup2rcd13ifvqcn0","pricing_plan_id":"free"},{"bike_id":"93200bde-61ba-4635-9299-d3a68248cb81","system_id":"levelo_inurba_marseille","lat":43.304606,"lon":5.379026,"is_reserved":false,"is_disabled":false,"rental_uris":{"android":"levelo://app?vid=93200bde-61ba-4635-9299-d3a68248cb81","ios":"levelo://app?vid=93200bde-61ba-4635-9299-d3a68248cb81"},"vehicle_type_id":"4","last_reported":1678259235,"current_range_meters":23600,"station_id":"ce4bgup2rcd13ifvqcn0","pricing_plan_id":"free"},{"bike_id":"42b583ca-fb44-4c8f-9b9d-e01115e4e241","system_id":"levelo_inurba_marseille","lat":43.304606,"lon":5.379026,"is_reserved":false,"is_disabled":false,"rental_uris":{"android":"levelo://app?vid=42b583ca-fb44-4c8f-9b9d-e01115e4e241","ios":"levelo://app?vid=42b583ca-fb44-4c8f-9b9d-e01115e4e241"},"vehicle_type_id":"4","last_reported":1678259235,"current_range_meters":28800,"station_id":"ce4bgup2rcd13ifvqcn0","pricing_plan_id":"free"},{"bike_id":"ee9ed0c5-3f9e-48be-8a1e-f2adc38cdba6","system_id":"levelo_inurba_marseille","lat":43.304606,"lon":5.379026,"is_reserved":false,"is_disabled":false,"rental_uris":{"android":"levelo://app?vid=ee9ed0c5-3f9e-48be-8a1e-f2adc38cdba6","ios":"levelo://app?vid=ee9ed0c5-3f9e-48be-8a1e-f2adc38cdba6"},"vehicle_type_id":"4","last_reported":1678259235,"current_range_meters":24000,"station_id":"ce4bgup2rcd13ifvqcn0","pricing_plan_id":"free"},{"bike_id":"1b25f3ae-06fb-4dc8-b59c-9041921415f1","system_id":"levelo_inurba_marseille","lat":43.304606,"lon":5.379026,"is_reserved":false,"is_disabled":false,"rental_uris":{"android":"levelo://app?vid=1b25f3ae-06fb-4dc8-b59c-9041921415f1","ios":"levelo://app?vid=1b25f3ae-06fb-4dc8-b59c-9041921415f1"},"vehicle_type_id":"4","last_reported":1678259235,"current_range_meters":19600,"station_id":"ce4bgup2rcd13ifvqcn0","pricing_plan_id":"free"},{"bike_id":"2bbc48c7-4172-4f5e-90e1-220c2fba835d","system_id":"levelo_inurba_marseille","lat":43.304606,"lon":5.379026,"is_reserved":false,"is_disabled":false,"rental_uris":{"android":"levelo://app?vid=2bbc48c7-4172-4f5e-90e1-220c2fba835d","ios":"levelo://app?vid=2bbc48c7-4172-4f5e-90e1-220c2fba835d"},"vehicle_type_id":"4","last_reported":1678259235,"current_range_meters":30800,"station_id":"ce4bgup2rcd13ifvqcn0","pricing_plan_id":"free"},{"bike_id":"06c43df2-1a42-434d-9a7a-1d240e75ba13","system_id":"levelo_inurba_marseille","lat":43.304607,"lon":5.379052,"is_reserved":false,"is_disabled":false,"rental_uris":{"android":"levelo://app?vid=06c43df2-1a42-434d-9a7a-1d240e75ba13","ios":"levelo://app?vid=06c43df2-1a42-434d-9a7a-1d240e75ba13"},"vehicle_type_id":"4","last_reported":1678259235,"current_range_meters":26800,"station_id":"","pricing_plan_id":"free"},{"bike_id":"ad9efead-e27e-45ce-886d-d68d29505626","system_id":"levelo_inurba_marseille","lat":43.304606,"lon":5.379026,"is_reserved":false,"is_disabled":false,"rental_uris":{"android":"levelo://app?vid=ad9efead-e27e-45ce-886d-d68d29505626","ios":"levelo://app?vid=ad9efead-e27e-45ce-886d-d68d29505626"},"vehicle_type_id":"4","last_reported":1678259235,"current_range_meters":8800,"station_id":"ce4bgup2rcd13ifvqcn0","pricing_plan_id":"free"},{"bike_id":"c4fa4eb3-676e-4991-9964-618f75364425","system_id":"levelo_inurba_marseille","lat":43.304606,"lon":5.379026,"is_reserved":false,"is_disabled":false,"rental_uris":{"android":"levelo://app?vid=c4fa4eb3-676e-4991-9964-618f75364425","ios":"levelo://app?vid=c4fa4eb3-676e-4991-9964-618f75364425"},"vehicle_type_id":"4","last_reported":1678259235,"current_range_meters":12000,"station_id":"ce4bgup2rcd13ifvqcn0","pricing_plan_id":"free"},{"bike_id":"85f1d5aa-94df-4fb6-9fee-4d5c81b51f46","system_id":"levelo_inurba_marseille","lat":43.304606,"lon":5.379026,"is_reserved":false,"is_disabled":false,"rental_uris":{"android":"levelo://app?vid=85f1d5aa-94df-4fb6-9fee-4d5c81b51f46","ios":"levelo://app?vid=85f1d5aa-94df-4fb6-9fee-4d5c81b51f46"},"vehicle_type_id":"4","last_reported":1678259235,"current_range_meters":23200,"station_id":"ce4bgup2rcd13ifvqcn0","pricing_plan_id":"free"},{"bike_id":"066fc5a1-a024-4496-93bf-0f9f7eb075c8","system_id":"levelo_inurba_marseille","lat":43.304606,"lon":5.379026,"is_reserved":false,"is_disabled":false,"rental_uris":{"android":"levelo://app?vid=066fc5a1-a024-4496-93bf-0f9f7eb075c8","ios":"levelo://app?vid=066fc5a1-a024-4496-93bf-0f9f7eb075c8"},"vehicle_type_id":"4","last_reported":1678259235,"current_range_meters":23200,"station_id":"ce4bgup2rcd13ifvqcn0","pricing_plan_id":"free"},{"bike_id":"186e8041-0f81-4757-9977-8638962c0ad5","system_id":"levelo_inurba_marseille","lat":43.301376,"lon":5.374189,"is_reserved":false,"is_disabled":false,"rental_uris":{"android":"levelo://app?vid=186e8041-0f81-4757-9977-8638962c0ad5","ios":"levelo://app?vid=186e8041-0f81-4757-9977-8638962c0ad5"},"vehicle_type_id":"4","last_reported":1678259235,"current_range_meters":0,"station_id":"ce4bgs92rcd13ifvqcc0","pricing_plan_id":"free"},{"bike_id":"1e1a0874-62e2-4710-9532-09e4dfa2b984","system_id":"levelo_inurba_marseille","lat":43.311722,"lon":5.387247,"is_reserved":false,"is_disabled":false,"rental_uris":{"android":"levelo://app?vid=1e1a0874-62e2-4710-9532-09e4dfa2b984","ios":"levelo://app?vid=1e1a0874-62e2-4710-9532-09e4dfa2b984"},"vehicle_type_id":"4","last_reported":1678259235,"current_range_meters":0,"station_id":"ce4bgv12rcd13ifvqcp0","pricing_plan_id":"free"},{"bike_id":"c398fe01-621f-4ffc-8904-88ad9b6407fe","system_id":"levelo_inurba_marseille","lat":43.305364,"lon":5.384119,"is_reserved":false,"is_disabled":false,"rental_uris":{"android":"levelo://app?vid=c398fe01-621f-4ffc-8904-88ad9b6407fe","ios":"levelo://app?vid=c398fe01-621f-4ffc-8904-88ad9b6407fe"},"vehicle_type_id":"4","last_reported":1678259235,"current_range_meters":26800,"station_id":"ce4bgg92rcd13ifvqb30","pricing_plan_id":"free"},{"bike_id":"4b076bdf-6a78-4680-ba59-da1e07951dd5","system_id":"levelo_inurba_marseille","lat":43.305364,"lon":5.384119,"is_reserved":false,"is_disabled":false,"rental_uris":{"android":"levelo://app?vid=4b076bdf-6a78-4680-ba59-da1e07951dd5","ios":"levelo://app?vid=4b076bdf-6a78-4680-ba59-da1e07951dd5"},"vehicle_type_id":"4","last_reported":1678259235,"current_range_meters":6000,"station_id":"ce4bgg92rcd13ifvqb30","pricing_plan_id":"free"},{"bike_id":"ef619bdd-680a-4ecd-87a0-709f56373e2a","system_id":"levelo_inurba_marseille","lat":43.305364,"lon":5.384119,"is_reserved":false,"is_disabled":false,"rental_uris":{"android":"levelo://app?vid=ef619bdd-680a-4ecd-87a0-709f56373e2a","ios":"levelo://app?vid=ef619bdd-680a-4ecd-87a0-709f56373e2a"},"vehicle_type_id":"4","last_reported":1678259235,"current_range_meters":4400,"station_id":"ce4bgg92rcd13ifvqb30","pricing_plan_id":"free"},{"bike_id":"fbdc9dfe-7440-43a9-a5fb-0610d39c414f","system_id":"levelo_inurba_marseille","lat":43.305364,"lon":5.384119,"is_reserved":false,"is_disabled":false,"rental_uris":{"android":"levelo://app?vid=fbdc9dfe-7440-43a9-a5fb-0610d39c414f","ios":"levelo://app?vid=fbdc9dfe-7440-43a9-a5fb-0610d39c414f"},"vehicle_type_id":"4","last_reported":1678259235,"current_range_meters":18800,"station_id":"ce4bgg92rcd13ifvqb30","pricing_plan_id":"free"},{"bike_id":"20b75cca-d15c-43d6-8497-eb8cd32a07ae","system_id":"levelo_inurba_marseille","lat":43.311722,"lon":5.387247,"is_reserved":false,"is_disabled":false,"rental_uris":{"android":"levelo://app?vid=20b75cca-d15c-43d6-8497-eb8cd32a07ae","ios":"levelo://app?vid=20b75cca-d15c-43d6-8497-eb8cd32a07ae"},"vehicle_type_id":"4","last_reported":1678259235,"current_range_meters":26400,"station_id":"ce4bgv12rcd13ifvqcp0","pricing_plan_id":"free"},{"bike_id":"e554fe19-0dd7-4786-a1ea-5e84d79718e6","system_id":"levelo_inurba_marseille","lat":43.328371,"lon":5.366912,"is_reserved":false,"is_disabled":false,"rental_uris":{"android":"levelo://app?vid=e554fe19-0dd7-4786-a1ea-5e84d79718e6","ios":"levelo://app?vid=e554fe19-0dd7-4786-a1ea-5e84d79718e6"},"vehicle_type_id":"4","last_reported":1678259235,"current_range_meters":13600,"station_id":"ce4bhs92rcd13ifvqi0g","pricing_plan_id":"free"},{"bike_id":"fecff2ac-e1e0-4344-9547-5c342d3412da","system_id":"levelo_inurba_marseille","lat":43.328371,"lon":5.366912,"is_reserved":false,"is_disabled":false,"rental_uris":{"android":"levelo://app?vid=fecff2ac-e1e0-4344-9547-5c342d3412da","ios":"levelo://app?vid=fecff2ac-e1e0-4344-9547-5c342d3412da"},"vehicle_type_id":"4","last_reported":1678259235,"current_range_meters":26000,"station_id":"ce4bhs92rcd13ifvqi0g","pricing_plan_id":"free"},{"bike_id":"5ef59c72-905c-4c73-9834-87a3086b515a","system_id":"levelo_inurba_marseille","lat":43.328371,"lon":5.366912,"is_reserved":false,"is_disabled":false,"rental_uris":{"android":"levelo://app?vid=5ef59c72-905c-4c73-9834-87a3086b515a","ios":"levelo://app?vid=5ef59c72-905c-4c73-9834-87a3086b515a"},"vehicle_type_id":"4","last_reported":1678259235,"current_range_meters":4800,"station_id":"ce4bhs92rcd13ifvqi0g","pricing_plan_id":"free"},{"bike_id":"132eff77-e993-49ca-8b9a-078bf2ac8979","system_id":"levelo_inurba_marseille","lat":43.32831,"lon":5.36676,"is_reserved":false,"is_disabled":false,"rental_uris":{"android":"levelo://app?vid=132eff77-e993-49ca-8b9a-078bf2ac8979","ios":"levelo://app?vid=132eff77-e993-49ca-8b9a-078bf2ac8979"},"vehicle_type_id":"4","last_reported":1678259235,"current_range_meters":13600,"station_id":"ce4bhs92rcd13ifvqi0g","pricing_plan_id":"free"},{"bike_id":"36d4f49c-720f-4fa0-b108-908cdf3c0741","system_id":"levelo_inurba_marseille","lat":43.32833,"lon":5.366833,"is_reserved":false,"is_disabled":false,"rental_uris":{"android":"levelo://app?vid=36d4f49c-720f-4fa0-b108-908cdf3c0741","ios":"levelo://app?vid=36d4f49c-720f-4fa0-b108-908cdf3c0741"},"vehicle_type_id":"4","last_reported":1678259235,"current_range_meters":2800,"station_id":"ce4bhs92rcd13ifvqi0g","pricing_plan_id":"free"},{"bike_id":"cc44b73e-1fde-4e04-9674-6f985d934bf1","system_id":"levelo_inurba_marseille","lat":43.328371,"lon":5.366912,"is_reserved":false,"is_disabled":false,"rental_uris":{"android":"levelo://app?vid=cc44b73e-1fde-4e04-9674-6f985d934bf1","ios":"levelo://app?vid=cc44b73e-1fde-4e04-9674-6f985d934bf1"},"vehicle_type_id":"4","last_reported":1678259235,"current_range_meters":5200,"station_id":"ce4bhs92rcd13ifvqi0g","pricing_plan_id":"free"},{"bike_id":"37a046a1-0248-456e-b0b9-01ed438c217d","system_id":"levelo_inurba_marseille","lat":43.32419,"lon":5.38375,"is_reserved":false,"is_disabled":false,"rental_uris":{"android":"levelo://app?vid=37a046a1-0248-456e-b0b9-01ed438c217d","ios":"levelo://app?vid=37a046a1-0248-456e-b0b9-01ed438c217d"},"vehicle_type_id":"4","last_reported":1678259235,"current_range_meters":8000,"station_id":"","pricing_plan_id":"free"},{"bike_id":"a8dbf954-ffac-46df-acb1-938b359bb135","system_id":"levelo_inurba_marseille","lat":43.296131,"lon":5.370791,"is_reserved":false,"is_disabled":false,"rental_uris":{"android":"levelo://app?vid=a8dbf954-ffac-46df-acb1-938b359bb135","ios":"levelo://app?vid=a8dbf954-ffac-46df-acb1-938b359bb135"},"vehicle_type_id":"4","last_reported":1678259235,"current_range_meters":31600,"station_id":"ce4bgnh2rcd13ifvqc0g","pricing_plan_id":"free"},{"bike_id":"d26828fd-4f2e-4474-803c-5bc92c59d501","system_id":"levelo_inurba_marseille","lat":43.296131,"lon":5.370791,"is_reserved":false,"is_disabled":false,"rental_uris":{"android":"levelo://app?vid=d26828fd-4f2e-4474-803c-5bc92c59d501","ios":"levelo://app?vid=d26828fd-4f2e-4474-803c-5bc92c59d501"},"vehicle_type_id":"4","last_reported":1678259235,"current_range_meters":14800,"station_id":"ce4bgnh2rcd13ifvqc0g","pricing_plan_id":"free"},{"bike_id":"403970a6-e62b-4833-8555-59f57cdf1e6e","system_id":"levelo_inurba_marseille","lat":43.29573,"lon":5.367355,"is_reserved":false,"is_disabled":false,"rental_uris":{"android":"levelo://app?vid=403970a6-e62b-4833-8555-59f57cdf1e6e","ios":"levelo://app?vid=403970a6-e62b-4833-8555-59f57cdf1e6e"},"vehicle_type_id":"4","last_reported":1678259235,"current_range_meters":30400,"station_id":"ce4bgph2rcd13ifvqc2g","pricing_plan_id":"free"},{"bike_id":"14ed558f-4071-4a10-8a4a-a3a64b6f2aed","system_id":"levelo_inurba_marseille","lat":43.296131,"lon":5.370791,"is_reserved":false,"is_disabled":false,"rental_uris":{"android":"levelo://app?vid=14ed558f-4071-4a10-8a4a-a3a64b6f2aed","ios":"levelo://app?vid=14ed558f-4071-4a10-8a4a-a3a64b6f2aed"},"vehicle_type_id":"4","last_reported":1678259235,"current_range_meters":800,"station_id":"ce4bgnh2rcd13ifvqc0g","pricing_plan_id":"free"},{"bike_id":"39c2ebba-40ee-46cd-a7ac-4f2fcfc2c27d","system_id":"levelo_inurba_marseille","lat":43.296131,"lon":5.370791,"is_reserved":false,"is_disabled":false,"rental_uris":{"android":"levelo://app?vid=39c2ebba-40ee-46cd-a7ac-4f2fcfc2c27d","ios":"levelo://app?vid=39c2ebba-40ee-46cd-a7ac-4f2fcfc2c27d"},"vehicle_type_id":"4","last_reported":1678259235,"current_range_meters":31600,"station_id":"ce4bgnh2rcd13ifvqc0g","pricing_plan_id":"free"},{"bike_id":"b610e074-7207-4fc9-b5b6-7063d69d4fd9","system_id":"levelo_inurba_marseille","lat":43.296131,"lon":5.370791,"is_reserved":false,"is_disabled":false,"rental_uris":{"android":"levelo://app?vid=b610e074-7207-4fc9-b5b6-7063d69d4fd9","ios":"levelo://app?vid=b610e074-7207-4fc9-b5b6-7063d69d4fd9"},"vehicle_type_id":"4","last_reported":1678259235,"current_range_meters":30400,"station_id":"ce4bgnh2rcd13ifvqc0g","pricing_plan_id":"free"},{"bike_id":"648cc3a7-0d16-43db-8881-64467d87e477","system_id":"levelo_inurba_marseille","lat":43.296131,"lon":5.370791,"is_reserved":false,"is_disabled":false,"rental_uris":{"android":"levelo://app?vid=648cc3a7-0d16-43db-8881-64467d87e477","ios":"levelo://app?vid=648cc3a7-0d16-43db-8881-64467d87e477"},"vehicle_type_id":"4","last_reported":1678259235,"current_range_meters":30800,"station_id":"ce4bgnh2rcd13ifvqc0g","pricing_plan_id":"free"},{"bike_id":"775c3e75-fb5b-4de4-841a-f6fd766dc097","system_id":"levelo_inurba_marseille","lat":43.296131,"lon":5.370791,"is_reserved":false,"is_disabled":false,"rental_uris":{"android":"levelo://app?vid=775c3e75-fb5b-4de4-841a-f6fd766dc097","ios":"levelo://app?vid=775c3e75-fb5b-4de4-841a-f6fd766dc097"},"vehicle_type_id":"4","last_reported":1678259235,"current_range_meters":26000,"station_id":"ce4bgnh2rcd13ifvqc0g","pricing_plan_id":"free"},{"bike_id":"031b1698-d4ac-45f5-939e-053a14d0bc82","system_id":"levelo_inurba_marseille","lat":43.29573,"lon":5.367355,"is_reserved":false,"is_disabled":false,"rental_uris":{"android":"levelo://app?vid=031b1698-d4ac-45f5-939e-053a14d0bc82","ios":"levelo://app?vid=031b1698-d4ac-45f5-939e-053a14d0bc82"},"vehicle_type_id":"4","last_reported":1678259235,"current_range_meters":30400,"station_id":"ce4bgph2rcd13ifvqc2g","pricing_plan_id":"free"},{"bike_id":"ad7a215c-6df4-4144-90e5-80417c1496fb","system_id":"levelo_inurba_marseille","lat":43.29573,"lon":5.367355,"is_reserved":false,"is_disabled":false,"rental_uris":{"android":"levelo://app?vid=ad7a215c-6df4-4144-90e5-80417c1496fb","ios":"levelo://app?vid=ad7a215c-6df4-4144-90e5-80417c1496fb"},"vehicle_type_id":"4","last_reported":1678259235,"current_range_meters":30000,"station_id":"ce4bgph2rcd13ifvqc2g","pricing_plan_id":"free"},{"bike_id":"861f606d-297f-4715-a683-ce58277565b6","system_id":"levelo_inurba_marseille","lat":43.29573,"lon":5.367355,"is_reserved":false,"is_disabled":false,"rental_uris":{"android":"levelo://app?vid=861f606d-297f-4715-a683-ce58277565b6","ios":"levelo://app?vid=861f606d-297f-4715-a683-ce58277565b6"},"vehicle_type_id":"4","last_reported":1678259235,"current_range_meters":30000,"station_id":"ce4bgph2rcd13ifvqc2g","pricing_plan_id":"free"},{"bike_id":"e259a067-bf9a-4951-ac43-417eb390667b","system_id":"levelo_inurba_marseille","lat":43.29573,"lon":5.367355,"is_reserved":false,"is_disabled":false,"rental_uris":{"android":"levelo://app?vid=e259a067-bf9a-4951-ac43-417eb390667b","ios":"levelo://app?vid=e259a067-bf9a-4951-ac43-417eb390667b"},"vehicle_type_id":"4","last_reported":1678259235,"current_range_meters":31200,"station_id":"ce4bgph2rcd13ifvqc2g","pricing_plan_id":"free"},{"bike_id":"3e060bc2-b0ad-48ed-82c8-5330e30dcbff","system_id":"levelo_inurba_marseille","lat":43.29573,"lon":5.367355,"is_reserved":false,"is_disabled":false,"rental_uris":{"android":"levelo://app?vid=3e060bc2-b0ad-48ed-82c8-5330e30dcbff","ios":"levelo://app?vid=3e060bc2-b0ad-48ed-82c8-5330e30dcbff"},"vehicle_type_id":"4","last_reported":1678259235,"current_range_meters":31600,"station_id":"ce4bgph2rcd13ifvqc2g","pricing_plan_id":"free"},{"bike_id":"9557221c-5098-4262-b216-8f6feb9bb354","system_id":"levelo_inurba_marseille","lat":43.29573,"lon":5.367355,"is_reserved":false,"is_disabled":false,"rental_uris":{"android":"levelo://app?vid=9557221c-5098-4262-b216-8f6feb9bb354","ios":"levelo://app?vid=9557221c-5098-4262-b216-8f6feb9bb354"},"vehicle_type_id":"4","last_reported":1678259235,"current_range_meters":30800,"station_id":"ce4bgph2rcd13ifvqc2g","pricing_plan_id":"free"},{"bike_id":"6b8c5b5a-d4f3-4c05-a360-42d4e06c0f08","system_id":"levelo_inurba_marseille","lat":43.296131,"lon":5.370791,"is_reserved":false,"is_disabled":false,"rental_uris":{"android":"levelo://app?vid=6b8c5b5a-d4f3-4c05-a360-42d4e06c0f08","ios":"levelo://app?vid=6b8c5b5a-d4f3-4c05-a360-42d4e06c0f08"},"vehicle_type_id":"4","last_reported":1678259235,"current_range_meters":30400,"station_id":"ce4bgnh2rcd13ifvqc0g","pricing_plan_id":"free"},{"bike_id":"c74240cb-4a63-4b47-a7c6-6b47e7badf59","system_id":"levelo_inurba_marseille","lat":43.29573,"lon":5.367355,"is_reserved":false,"is_disabled":false,"rental_uris":{"android":"levelo://app?vid=c74240cb-4a63-4b47-a7c6-6b47e7badf59","ios":"levelo://app?vid=c74240cb-4a63-4b47-a7c6-6b47e7badf59"},"vehicle_type_id":"4","last_reported":1678259235,"current_range_meters":28400,"station_id":"ce4bgph2rcd13ifvqc2g","pricing_plan_id":"free"},{"bike_id":"156b2949-ed84-4428-9997-65ccd29221b4","system_id":"levelo_inurba_marseille","lat":43.29573,"lon":5.367355,"is_reserved":false,"is_disabled":false,"rental_uris":{"android":"levelo://app?vid=156b2949-ed84-4428-9997-65ccd29221b4","ios":"levelo://app?vid=156b2949-ed84-4428-9997-65ccd29221b4"},"vehicle_type_id":"4","last_reported":1678259235,"current_range_meters":29600,"station_id":"ce4bgph2rcd13ifvqc2g","pricing_plan_id":"free"},{"bike_id":"3b1709a3-6495-426d-8d4e-95837e82686a","system_id":"levelo_inurba_marseille","lat":43.29573,"lon":5.367355,"is_reserved":false,"is_disabled":false,"rental_uris":{"android":"levelo://app?vid=3b1709a3-6495-426d-8d4e-95837e82686a","ios":"levelo://app?vid=3b1709a3-6495-426d-8d4e-95837e82686a"},"vehicle_type_id":"4","last_reported":1678259235,"current_range_meters":30000,"station_id":"ce4bgph2rcd13ifvqc2g","pricing_plan_id":"free"},{"bike_id":"ddf26907-2a89-40d6-95d5-cef89e9f3f21","system_id":"levelo_inurba_marseille","lat":43.317104,"lon":5.436818,"is_reserved":false,"is_disabled":false,"rental_uris":{"android":"levelo://app?vid=ddf26907-2a89-40d6-95d5-cef89e9f3f21","ios":"levelo://app?vid=ddf26907-2a89-40d6-95d5-cef89e9f3f21"},"vehicle_type_id":"4","last_reported":1678259235,"current_range_meters":29200,"station_id":"ce4bhp92rcd13ifvqhcg","pricing_plan_id":"free"},{"bike_id":"4b83e291-bccb-4765-b009-3b886a137620","system_id":"levelo_inurba_marseille","lat":43.309589,"lon":5.390258,"is_reserved":false,"is_disabled":false,"rental_uris":{"android":"levelo://app?vid=4b83e291-bccb-4765-b009-3b886a137620","ios":"levelo://app?vid=4b83e291-bccb-4765-b009-3b886a137620"},"vehicle_type_id":"4","last_reported":1678259235,"current_range_meters":18400,"station_id":"ce4bgup2rcd13ifvqco0","pricing_plan_id":"free"},{"bike_id":"67a10e07-86e0-4d44-82c5-95d698083678","system_id":"levelo_inurba_marseille","lat":43.317557,"lon":5.390173,"is_reserved":false,"is_disabled":false,"rental_uris":{"android":"levelo://app?vid=67a10e07-86e0-4d44-82c5-95d698083678","ios":"levelo://app?vid=67a10e07-86e0-4d44-82c5-95d698083678"},"vehicle_type_id":"4","last_reported":1678259235,"current_range_meters":28000,"station_id":"ce4bhqp2rcd13ifvqhng","pricing_plan_id":"free"},{"bike_id":"bcd844af-cd22-4a5d-993c-ac8725a0346b","system_id":"levelo_inurba_marseille","lat":43.31757,"lon":5.39011,"is_reserved":false,"is_disabled":false,"rental_uris":{"android":"levelo://app?vid=bcd844af-cd22-4a5d-993c-ac8725a0346b","ios":"levelo://app?vid=bcd844af-cd22-4a5d-993c-ac8725a0346b"},"vehicle_type_id":"4","last_reported":1678259235,"current_range_meters":11200,"station_id":"","pricing_plan_id":"free"},{"bike_id":"ee7a7380-4dc7-4c87-94d1-e80c7d03be27","system_id":"levelo_inurba_marseille","lat":43.317793,"lon":5.39052,"is_reserved":false,"is_disabled":false,"rental_uris":{"android":"levelo://app?vid=ee7a7380-4dc7-4c87-94d1-e80c7d03be27","ios":"levelo://app?vid=ee7a7380-4dc7-4c87-94d1-e80c7d03be27"},"vehicle_type_id":"4","last_reported":1678259235,"current_range_meters":0,"station_id":"","pricing_plan_id":"free"},{"bike_id":"84f96c27-9c98-46eb-8ef5-4f10b1d235f5","system_id":"levelo_inurba_marseille","lat":43.304464,"lon":5.388831,"is_reserved":false,"is_disabled":false,"rental_uris":{"android":"levelo://app?vid=84f96c27-9c98-46eb-8ef5-4f10b1d235f5","ios":"levelo://app?vid=84f96c27-9c98-46eb-8ef5-4f10b1d235f5"},"vehicle_type_id":"4","last_reported":1678259235,"current_range_meters":10400,"station_id":"ce4bgk12rcd13ifvqbi0","pricing_plan_id":"free"},{"bike_id":"4790c711-b392-4e0c-8c2f-2dbe27bb9e24","system_id":"levelo_inurba_marseille","lat":43.298037,"lon":5.381066,"is_reserved":false,"is_disabled":false,"rental_uris":{"android":"levelo://app?vid=4790c711-b392-4e0c-8c2f-2dbe27bb9e24","ios":"levelo://app?vid=4790c711-b392-4e0c-8c2f-2dbe27bb9e24"},"vehicle_type_id":"4","last_reported":1678259235,"current_range_meters":3600,"station_id":"ce4bgip2rcd13ifvqbb0","pricing_plan_id":"free"},{"bike_id":"4eb6e295-2d91-4789-9fcf-51e92cff5c3e","system_id":"levelo_inurba_marseille","lat":43.295748,"lon":5.37522,"is_reserved":false,"is_disabled":false,"rental_uris":{"android":"levelo://app?vid=4eb6e295-2d91-4789-9fcf-51e92cff5c3e","ios":"levelo://app?vid=4eb6e295-2d91-4789-9fcf-51e92cff5c3e"},"vehicle_type_id":"4","last_reported":1678259235,"current_range_meters":10800,"station_id":"ce4bgh92rcd13ifvqb50","pricing_plan_id":"free"},{"bike_id":"7db24049-c5bb-49f2-b971-c018976dbc17","system_id":"levelo_inurba_marseille","lat":43.295748,"lon":5.37522,"is_reserved":false,"is_disabled":false,"rental_uris":{"android":"levelo://app?vid=7db24049-c5bb-49f2-b971-c018976dbc17","ios":"levelo://app?vid=7db24049-c5bb-49f2-b971-c018976dbc17"},"vehicle_type_id":"4","last_reported":1678259235,"current_range_meters":5600,"station_id":"ce4bgh92rcd13ifvqb50","pricing_plan_id":"free"},{"bike_id":"f14e6263-f6b2-4cd6-9b4b-37c4fb3ea509","system_id":"levelo_inurba_marseille","lat":43.304061,"lon":5.38895,"is_reserved":false,"is_disabled":false,"rental_uris":{"android":"levelo://app?vid=f14e6263-f6b2-4cd6-9b4b-37c4fb3ea509","ios":"levelo://app?vid=f14e6263-f6b2-4cd6-9b4b-37c4fb3ea509"},"vehicle_type_id":"4","last_reported":1678259235,"current_range_meters":7200,"station_id":"","pricing_plan_id":"free"},{"bike_id":"8295ccfb-c5c0-4148-beec-cff100513b74","system_id":"levelo_inurba_marseille","lat":43.296122,"lon":5.377267,"is_reserved":false,"is_disabled":false,"rental_uris":{"android":"levelo://app?vid=8295ccfb-c5c0-4148-beec-cff100513b74","ios":"levelo://app?vid=8295ccfb-c5c0-4148-beec-cff100513b74"},"vehicle_type_id":"4","last_reported":1678259235,"current_range_meters":0,"station_id":"","pricing_plan_id":"free"},{"bike_id":"ff85dae9-a452-4ac4-b10b-c8ffb26b8d0b","system_id":"levelo_inurba_marseille","lat":43.29881,"lon":5.38456,"is_reserved":false,"is_disabled":false,"rental_uris":{"android":"levelo://app?vid=ff85dae9-a452-4ac4-b10b-c8ffb26b8d0b","ios":"levelo://app?vid=ff85dae9-a452-4ac4-b10b-c8ffb26b8d0b"},"vehicle_type_id":"4","last_reported":1678259235,"current_range_meters":29600,"station_id":"","pricing_plan_id":"free"},{"bike_id":"c19519f0-1de8-4ada-8b55-f694afbd3089","system_id":"levelo_inurba_marseille","lat":43.32367,"lon":5.38869,"is_reserved":false,"is_disabled":false,"rental_uris":{"android":"levelo://app?vid=c19519f0-1de8-4ada-8b55-f694afbd3089","ios":"levelo://app?vid=c19519f0-1de8-4ada-8b55-f694afbd3089"},"vehicle_type_id":"4","last_reported":1678259235,"current_range_meters":16400,"station_id":"ce4bhqp2rcd13ifvqhog","pricing_plan_id":"free"},{"bike_id":"9f8a3e07-b19c-4d8d-8cf6-b5561388c8c2","system_id":"levelo_inurba_marseille","lat":43.323644,"lon":5.388736,"is_reserved":false,"is_disabled":false,"rental_uris":{"android":"levelo://app?vid=9f8a3e07-b19c-4d8d-8cf6-b5561388c8c2","ios":"levelo://app?vid=9f8a3e07-b19c-4d8d-8cf6-b5561388c8c2"},"vehicle_type_id":"4","last_reported":1678259235,"current_range_meters":26400,"station_id":"ce4bhqp2rcd13ifvqhog","pricing_plan_id":"free"},{"bike_id":"4877fb94-466b-4b82-8abf-052fb1b945ca","system_id":"levelo_inurba_marseille","lat":43.32367,"lon":5.388836,"is_reserved":false,"is_disabled":false,"rental_uris":{"android":"levelo://app?vid=4877fb94-466b-4b82-8abf-052fb1b945ca","ios":"levelo://app?vid=4877fb94-466b-4b82-8abf-052fb1b945ca"},"vehicle_type_id":"4","last_reported":1678259235,"current_range_meters":29200,"station_id":"ce4bhqp2rcd13ifvqhog","pricing_plan_id":"free"},{"bike_id":"f139dfc0-568f-4f88-9272-22fc58a95d42","system_id":"levelo_inurba_marseille","lat":43.32364,"lon":5.38884,"is_reserved":false,"is_disabled":false,"rental_uris":{"android":"levelo://app?vid=f139dfc0-568f-4f88-9272-22fc58a95d42","ios":"levelo://app?vid=f139dfc0-568f-4f88-9272-22fc58a95d42"},"vehicle_type_id":"4","last_reported":1678259235,"current_range_meters":27200,"station_id":"","pricing_plan_id":"free"},{"bike_id":"875c2b0b-1c1c-4dd5-b6df-1c330bb2e1bf","system_id":"levelo_inurba_marseille","lat":43.32367,"lon":5.388836,"is_reserved":false,"is_disabled":false,"rental_uris":{"android":"levelo://app?vid=875c2b0b-1c1c-4dd5-b6df-1c330bb2e1bf","ios":"levelo://app?vid=875c2b0b-1c1c-4dd5-b6df-1c330bb2e1bf"},"vehicle_type_id":"4","last_reported":1678259235,"current_range_meters":3200,"station_id":"ce4bhqp2rcd13ifvqhog","pricing_plan_id":"free"},{"bike_id":"ad0d5357-84c7-4d35-884d-f90f0b2ff88d","system_id":"levelo_inurba_marseille","lat":43.305994,"lon":5.393687,"is_reserved":false,"is_disabled":false,"rental_uris":{"android":"levelo://app?vid=ad0d5357-84c7-4d35-884d-f90f0b2ff88d","ios":"levelo://app?vid=ad0d5357-84c7-4d35-884d-f90f0b2ff88d"},"vehicle_type_id":"4","last_reported":1678259235,"current_range_meters":8000,"station_id":"ce4bh0p2rcd13ifvqd80","pricing_plan_id":"free"},{"bike_id":"b87d0bcc-a897-4a75-be55-5c0de98d37b7","system_id":"levelo_inurba_marseille","lat":43.305994,"lon":5.393687,"is_reserved":false,"is_disabled":false,"rental_uris":{"android":"levelo://app?vid=b87d0bcc-a897-4a75-be55-5c0de98d37b7","ios":"levelo://app?vid=b87d0bcc-a897-4a75-be55-5c0de98d37b7"},"vehicle_type_id":"4","last_reported":1678259235,"current_range_meters":16400,"station_id":"ce4bh0p2rcd13ifvqd80","pricing_plan_id":"free"},{"bike_id":"f8df059d-6940-4d9b-ae02-a1f78144a8db","system_id":"levelo_inurba_marseille","lat":43.293008,"lon":5.374577,"is_reserved":false,"is_disabled":false,"rental_uris":{"android":"levelo://app?vid=f8df059d-6940-4d9b-ae02-a1f78144a8db","ios":"levelo://app?vid=f8df059d-6940-4d9b-ae02-a1f78144a8db"},"vehicle_type_id":"4","last_reported":1678259235,"current_range_meters":0,"station_id":"ce4bgi12rcd13ifvqb70","pricing_plan_id":"free"},{"bike_id":"241b7eb8-c2ed-4e3a-ad2a-bc1cffcc57c9","system_id":"levelo_inurba_marseille","lat":43.305994,"lon":5.393687,"is_reserved":false,"is_disabled":false,"rental_uris":{"android":"levelo://app?vid=241b7eb8-c2ed-4e3a-ad2a-bc1cffcc57c9","ios":"levelo://app?vid=241b7eb8-c2ed-4e3a-ad2a-bc1cffcc57c9"},"vehicle_type_id":"4","last_reported":1678259235,"current_range_meters":0,"station_id":"ce4bh0p2rcd13ifvqd80","pricing_plan_id":"free"},{"bike_id":"00c59dcd-bdf9-4e83-a4a5-d5e72ca27df3","system_id":"levelo_inurba_marseille","lat":43.305994,"lon":5.393687,"is_reserved":false,"is_disabled":false,"rental_uris":{"android":"levelo://app?vid=00c59dcd-bdf9-4e83-a4a5-d5e72ca27df3","ios":"levelo://app?vid=00c59dcd-bdf9-4e83-a4a5-d5e72ca27df3"},"vehicle_type_id":"4","last_reported":1678259235,"current_range_meters":20000,"station_id":"ce4bh0p2rcd13ifvqd80","pricing_plan_id":"free"},{"bike_id":"33c8ea7f-506e-4b61-9e56-79cd01a33f39","system_id":"levelo_inurba_marseille","lat":43.305994,"lon":5.393687,"is_reserved":false,"is_disabled":false,"rental_uris":{"android":"levelo://app?vid=33c8ea7f-506e-4b61-9e56-79cd01a33f39","ios":"levelo://app?vid=33c8ea7f-506e-4b61-9e56-79cd01a33f39"},"vehicle_type_id":"4","last_reported":1678259235,"current_range_meters":2400,"station_id":"ce4bh0p2rcd13ifvqd80","pricing_plan_id":"free"},{"bike_id":"c61c1668-5f18-4e6d-9025-6db773583640","system_id":"levelo_inurba_marseille","lat":43.305994,"lon":5.393687,"is_reserved":false,"is_disabled":false,"rental_uris":{"android":"levelo://app?vid=c61c1668-5f18-4e6d-9025-6db773583640","ios":"levelo://app?vid=c61c1668-5f18-4e6d-9025-6db773583640"},"vehicle_type_id":"4","last_reported":1678259235,"current_range_meters":0,"station_id":"ce4bh0p2rcd13ifvqd80","pricing_plan_id":"free"},{"bike_id":"d67c0c0d-fabc-4f69-95b2-f95e4f2a5df2","system_id":"levelo_inurba_marseille","lat":43.305994,"lon":5.393687,"is_reserved":false,"is_disabled":false,"rental_uris":{"android":"levelo://app?vid=d67c0c0d-fabc-4f69-95b2-f95e4f2a5df2","ios":"levelo://app?vid=d67c0c0d-fabc-4f69-95b2-f95e4f2a5df2"},"vehicle_type_id":"4","last_reported":1678259235,"current_range_meters":26800,"station_id":"ce4bh0p2rcd13ifvqd80","pricing_plan_id":"free"},{"bike_id":"ec73f916-954a-4d89-a4c6-319f6363ac85","system_id":"levelo_inurba_marseille","lat":43.305994,"lon":5.393687,"is_reserved":false,"is_disabled":false,"rental_uris":{"android":"levelo://app?vid=ec73f916-954a-4d89-a4c6-319f6363ac85","ios":"levelo://app?vid=ec73f916-954a-4d89-a4c6-319f6363ac85"},"vehicle_type_id":"4","last_reported":1678259235,"current_range_meters":21200,"station_id":"ce4bh0p2rcd13ifvqd80","pricing_plan_id":"free"},{"bike_id":"e8fe6236-3ae1-411f-9d29-3cd68eb06abe","system_id":"levelo_inurba_marseille","lat":43.305994,"lon":5.393687,"is_reserved":false,"is_disabled":false,"rental_uris":{"android":"levelo://app?vid=e8fe6236-3ae1-411f-9d29-3cd68eb06abe","ios":"levelo://app?vid=e8fe6236-3ae1-411f-9d29-3cd68eb06abe"},"vehicle_type_id":"4","last_reported":1678259235,"current_range_meters":24800,"station_id":"ce4bh0p2rcd13ifvqd80","pricing_plan_id":"free"},{"bike_id":"0bd3a21c-9d63-4a19-b52e-87ade32003c9","system_id":"levelo_inurba_marseille","lat":43.305994,"lon":5.393687,"is_reserved":false,"is_disabled":false,"rental_uris":{"android":"levelo://app?vid=0bd3a21c-9d63-4a19-b52e-87ade32003c9","ios":"levelo://app?vid=0bd3a21c-9d63-4a19-b52e-87ade32003c9"},"vehicle_type_id":"4","last_reported":1678259235,"current_range_meters":26400,"station_id":"ce4bh0p2rcd13ifvqd80","pricing_plan_id":"free"},{"bike_id":"eb710547-56de-4d69-b39f-f2b86c93c62c","system_id":"levelo_inurba_marseille","lat":43.305994,"lon":5.393687,"is_reserved":false,"is_disabled":false,"rental_uris":{"android":"levelo://app?vid=eb710547-56de-4d69-b39f-f2b86c93c62c","ios":"levelo://app?vid=eb710547-56de-4d69-b39f-f2b86c93c62c"},"vehicle_type_id":"4","last_reported":1678259235,"current_range_meters":14400,"station_id":"ce4bh0p2rcd13ifvqd80","pricing_plan_id":"free"},{"bike_id":"eda9e02a-8ad6-4d7f-8ec1-24e79f5ec9ca","system_id":"levelo_inurba_marseille","lat":43.305994,"lon":5.393687,"is_reserved":false,"is_disabled":false,"rental_uris":{"android":"levelo://app?vid=eda9e02a-8ad6-4d7f-8ec1-24e79f5ec9ca","ios":"levelo://app?vid=eda9e02a-8ad6-4d7f-8ec1-24e79f5ec9ca"},"vehicle_type_id":"4","last_reported":1678259235,"current_range_meters":5200,"station_id":"ce4bh0p2rcd13ifvqd80","pricing_plan_id":"free"},{"bike_id":"05ebc7cd-c253-4727-bd7a-1093151271ac","system_id":"levelo_inurba_marseille","lat":43.305994,"lon":5.393687,"is_reserved":false,"is_disabled":false,"rental_uris":{"android":"levelo://app?vid=05ebc7cd-c253-4727-bd7a-1093151271ac","ios":"levelo://app?vid=05ebc7cd-c253-4727-bd7a-1093151271ac"},"vehicle_type_id":"4","last_reported":1678259235,"current_range_meters":27200,"station_id":"ce4bh0p2rcd13ifvqd80","pricing_plan_id":"free"},{"bike_id":"038b63ed-318a-47fa-8b7e-7a7fbbf494f0","system_id":"levelo_inurba_marseille","lat":43.305994,"lon":5.393687,"is_reserved":false,"is_disabled":false,"rental_uris":{"android":"levelo://app?vid=038b63ed-318a-47fa-8b7e-7a7fbbf494f0","ios":"levelo://app?vid=038b63ed-318a-47fa-8b7e-7a7fbbf494f0"},"vehicle_type_id":"4","last_reported":1678259235,"current_range_meters":8400,"station_id":"ce4bh0p2rcd13ifvqd80","pricing_plan_id":"free"},{"bike_id":"3df8ce6a-bb80-4457-b368-6cb7d4d6700c","system_id":"levelo_inurba_marseille","lat":43.305994,"lon":5.393687,"is_reserved":false,"is_disabled":false,"rental_uris":{"android":"levelo://app?vid=3df8ce6a-bb80-4457-b368-6cb7d4d6700c","ios":"levelo://app?vid=3df8ce6a-bb80-4457-b368-6cb7d4d6700c"},"vehicle_type_id":"4","last_reported":1678259235,"current_range_meters":26000,"station_id":"ce4bh0p2rcd13ifvqd80","pricing_plan_id":"free"},{"bike_id":"8229b197-816f-40c0-a98b-bd64186b69ce","system_id":"levelo_inurba_marseille","lat":43.292311,"lon":5.360731,"is_reserved":false,"is_disabled":false,"rental_uris":{"android":"levelo://app?vid=8229b197-816f-40c0-a98b-bd64186b69ce","ios":"levelo://app?vid=8229b197-816f-40c0-a98b-bd64186b69ce"},"vehicle_type_id":"4","last_reported":1678259235,"current_range_meters":4000,"station_id":"ce4bhbh2rcd13ifvqeqg","pricing_plan_id":"free"},{"bike_id":"7bcac998-a120-4ba6-9bf6-db328ba1149a","system_id":"levelo_inurba_marseille","lat":43.292311,"lon":5.360731,"is_reserved":false,"is_disabled":false,"rental_uris":{"android":"levelo://app?vid=7bcac998-a120-4ba6-9bf6-db328ba1149a","ios":"levelo://app?vid=7bcac998-a120-4ba6-9bf6-db328ba1149a"},"vehicle_type_id":"4","last_reported":1678259235,"current_range_meters":4000,"station_id":"ce4bhbh2rcd13ifvqeqg","pricing_plan_id":"free"},{"bike_id":"9c85efcd-7874-402f-b90b-76dd530aae87","system_id":"levelo_inurba_marseille","lat":43.292311,"lon":5.360731,"is_reserved":false,"is_disabled":false,"rental_uris":{"android":"levelo://app?vid=9c85efcd-7874-402f-b90b-76dd530aae87","ios":"levelo://app?vid=9c85efcd-7874-402f-b90b-76dd530aae87"},"vehicle_type_id":"4","last_reported":1678259235,"current_range_meters":17200,"station_id":"ce4bhbh2rcd13ifvqeqg","pricing_plan_id":"free"},{"bike_id":"9d62ae58-e69a-4137-a787-16d244ed9eef","system_id":"levelo_inurba_marseille","lat":43.29213,"lon":5.36051,"is_reserved":false,"is_disabled":false,"rental_uris":{"android":"levelo://app?vid=9d62ae58-e69a-4137-a787-16d244ed9eef","ios":"levelo://app?vid=9d62ae58-e69a-4137-a787-16d244ed9eef"},"vehicle_type_id":"4","last_reported":1678259235,"current_range_meters":18000,"station_id":"ce4bhbh2rcd13ifvqeqg","pricing_plan_id":"free"},{"bike_id":"460e451b-f36d-4263-9c70-09b84ab8c994","system_id":"levelo_inurba_marseille","lat":43.313291,"lon":5.396838,"is_reserved":false,"is_disabled":false,"rental_uris":{"android":"levelo://app?vid=460e451b-f36d-4263-9c70-09b84ab8c994","ios":"levelo://app?vid=460e451b-f36d-4263-9c70-09b84ab8c994"},"vehicle_type_id":"4","last_reported":1678259235,"current_range_meters":15200,"station_id":"ce4bgvp2rcd13ifvqcu0","pricing_plan_id":"free"},{"bike_id":"350a44f6-c759-490f-9df6-5a14a7621d3a","system_id":"levelo_inurba_marseille","lat":43.31329,"lon":5.39693,"is_reserved":false,"is_disabled":false,"rental_uris":{"android":"levelo://app?vid=350a44f6-c759-490f-9df6-5a14a7621d3a","ios":"levelo://app?vid=350a44f6-c759-490f-9df6-5a14a7621d3a"},"vehicle_type_id":"4","last_reported":1678259235,"current_range_meters":24400,"station_id":"","pricing_plan_id":"free"},{"bike_id":"94841641-ef14-423a-8550-577250c9fc0e","system_id":"levelo_inurba_marseille","lat":43.313291,"lon":5.396838,"is_reserved":false,"is_disabled":false,"rental_uris":{"android":"levelo://app?vid=94841641-ef14-423a-8550-577250c9fc0e","ios":"levelo://app?vid=94841641-ef14-423a-8550-577250c9fc0e"},"vehicle_type_id":"4","last_reported":1678259235,"current_range_meters":27600,"station_id":"ce4bgvp2rcd13ifvqcu0","pricing_plan_id":"free"},{"bike_id":"222af8ab-5c98-4cf3-b958-77a7fdc4dd54","system_id":"levelo_inurba_marseille","lat":43.290624,"lon":5.359245,"is_reserved":false,"is_disabled":false,"rental_uris":{"android":"levelo://app?vid=222af8ab-5c98-4cf3-b958-77a7fdc4dd54","ios":"levelo://app?vid=222af8ab-5c98-4cf3-b958-77a7fdc4dd54"},"vehicle_type_id":"4","last_reported":1678259235,"current_range_meters":9200,"station_id":"ce4bha92rcd13ifvqeg0","pricing_plan_id":"free"},{"bike_id":"5515adbb-c5d0-4465-997c-1dc89b1eaaab","system_id":"levelo_inurba_marseille","lat":43.290624,"lon":5.359245,"is_reserved":false,"is_disabled":false,"rental_uris":{"android":"levelo://app?vid=5515adbb-c5d0-4465-997c-1dc89b1eaaab","ios":"levelo://app?vid=5515adbb-c5d0-4465-997c-1dc89b1eaaab"},"vehicle_type_id":"4","last_reported":1678259235,"current_range_meters":0,"station_id":"ce4bha92rcd13ifvqeg0","pricing_plan_id":"free"},{"bike_id":"3cb5dc6f-6ac9-4150-af16-da3d56cadbbd","system_id":"levelo_inurba_marseille","lat":43.290678,"lon":5.357555,"is_reserved":false,"is_disabled":false,"rental_uris":{"android":"levelo://app?vid=3cb5dc6f-6ac9-4150-af16-da3d56cadbbd","ios":"levelo://app?vid=3cb5dc6f-6ac9-4150-af16-da3d56cadbbd"},"vehicle_type_id":"4","last_reported":1678259235,"current_range_meters":3600,"station_id":"","pricing_plan_id":"free"},{"bike_id":"a92c8c61-ea2a-4160-a26c-8fad8ef95a68","system_id":"levelo_inurba_marseille","lat":43.29259,"lon":5.384424,"is_reserved":false,"is_disabled":false,"rental_uris":{"android":"levelo://app?vid=a92c8c61-ea2a-4160-a26c-8fad8ef95a68","ios":"levelo://app?vid=a92c8c61-ea2a-4160-a26c-8fad8ef95a68"},"vehicle_type_id":"4","last_reported":1678259235,"current_range_meters":0,"station_id":"ce4bh692rcd13ifvqea0","pricing_plan_id":"free"},{"bike_id":"d5bb2861-73f1-4de7-9991-f445dac3ca7c","system_id":"levelo_inurba_marseille","lat":43.29004,"lon":5.35609,"is_reserved":false,"is_disabled":false,"rental_uris":{"android":"levelo://app?vid=d5bb2861-73f1-4de7-9991-f445dac3ca7c","ios":"levelo://app?vid=d5bb2861-73f1-4de7-9991-f445dac3ca7c"},"vehicle_type_id":"4","last_reported":1678259235,"current_range_meters":0,"station_id":"ce4bhb92rcd13ifvqen0","pricing_plan_id":"free"},{"bike_id":"d532fdcc-dc43-4798-b1a4-d0376798637b","system_id":"levelo_inurba_marseille","lat":43.28999,"lon":5.35615,"is_reserved":false,"is_disabled":false,"rental_uris":{"android":"levelo://app?vid=d532fdcc-dc43-4798-b1a4-d0376798637b","ios":"levelo://app?vid=d532fdcc-dc43-4798-b1a4-d0376798637b"},"vehicle_type_id":"4","last_reported":1678259235,"current_range_meters":5200,"station_id":"ce4bhb92rcd13ifvqen0","pricing_plan_id":"free"},{"bike_id":"716e4a83-a99d-4436-8f08-9e957f5c69f2","system_id":"levelo_inurba_marseille","lat":43.30386,"lon":5.397817,"is_reserved":false,"is_disabled":false,"rental_uris":{"android":"levelo://app?vid=716e4a83-a99d-4436-8f08-9e957f5c69f2","ios":"levelo://app?vid=716e4a83-a99d-4436-8f08-9e957f5c69f2"},"vehicle_type_id":"4","last_reported":1678259235,"current_range_meters":0,"station_id":"","pricing_plan_id":"free"},{"bike_id":"6786ba71-ea2c-4487-8efc-103360dd00d5","system_id":"levelo_inurba_marseille","lat":43.290967,"lon":5.381361,"is_reserved":false,"is_disabled":false,"rental_uris":{"android":"levelo://app?vid=6786ba71-ea2c-4487-8efc-103360dd00d5","ios":"levelo://app?vid=6786ba71-ea2c-4487-8efc-103360dd00d5"},"vehicle_type_id":"4","last_reported":1678259235,"current_range_meters":24800,"station_id":"","pricing_plan_id":"free"},{"bike_id":"b3990595-57d9-4dee-98d1-f69136ea4f20","system_id":"levelo_inurba_marseille","lat":43.290922,"lon":5.381299,"is_reserved":false,"is_disabled":false,"rental_uris":{"android":"levelo://app?vid=b3990595-57d9-4dee-98d1-f69136ea4f20","ios":"levelo://app?vid=b3990595-57d9-4dee-98d1-f69136ea4f20"},"vehicle_type_id":"4","last_reported":1678259235,"current_range_meters":0,"station_id":"ce4bh512rcd13ifvqe2g","pricing_plan_id":"free"},{"bike_id":"ca4c576a-9f31-451d-a711-0a5a082fdd47","system_id":"levelo_inurba_marseille","lat":43.289741,"lon":5.378306,"is_reserved":false,"is_disabled":false,"rental_uris":{"android":"levelo://app?vid=ca4c576a-9f31-451d-a711-0a5a082fdd47","ios":"levelo://app?vid=ca4c576a-9f31-451d-a711-0a5a082fdd47"},"vehicle_type_id":"4","last_reported":1678259235,"current_range_meters":29600,"station_id":"ce4bh9p2rcd13ifvqed0","pricing_plan_id":"free"},{"bike_id":"5af39b8b-82f9-4757-a10a-7689797f52be","system_id":"levelo_inurba_marseille","lat":43.28866,"lon":5.35882,"is_reserved":false,"is_disabled":false,"rental_uris":{"android":"levelo://app?vid=5af39b8b-82f9-4757-a10a-7689797f52be","ios":"levelo://app?vid=5af39b8b-82f9-4757-a10a-7689797f52be"},"vehicle_type_id":"4","last_reported":1678259235,"current_range_meters":0,"station_id":"","pricing_plan_id":"free"},{"bike_id":"157d4c5e-5e38-45a6-a314-9a6fa2833b6e","system_id":"levelo_inurba_marseille","lat":43.337486,"lon":5.374754,"is_reserved":false,"is_disabled":false,"rental_uris":{"android":"levelo://app?vid=157d4c5e-5e38-45a6-a314-9a6fa2833b6e","ios":"levelo://app?vid=157d4c5e-5e38-45a6-a314-9a6fa2833b6e"},"vehicle_type_id":"4","last_reported":1678259235,"current_range_meters":0,"station_id":"","pricing_plan_id":"free"},{"bike_id":"88dea83d-415e-4551-a945-5e790d83b89f","system_id":"levelo_inurba_marseille","lat":43.301117,"lon":5.398795,"is_reserved":false,"is_disabled":false,"rental_uris":{"android":"levelo://app?vid=88dea83d-415e-4551-a945-5e790d83b89f","ios":"levelo://app?vid=88dea83d-415e-4551-a945-5e790d83b89f"},"vehicle_type_id":"4","last_reported":1678259235,"current_range_meters":19600,"station_id":"ce4bh0h2rcd13ifvqd40","pricing_plan_id":"free"},{"bike_id":"98f2d392-5478-4958-ae4a-bdcc1382077d","system_id":"levelo_inurba_marseille","lat":43.29036,"lon":5.3864,"is_reserved":false,"is_disabled":false,"rental_uris":{"android":"levelo://app?vid=98f2d392-5478-4958-ae4a-bdcc1382077d","ios":"levelo://app?vid=98f2d392-5478-4958-ae4a-bdcc1382077d"},"vehicle_type_id":"4","last_reported":1678259235,"current_range_meters":18400,"station_id":"","pricing_plan_id":"free"},{"bike_id":"e6f6011d-c553-472a-b8fe-96e75925bce2","system_id":"levelo_inurba_marseille","lat":43.29029,"lon":5.38639,"is_reserved":false,"is_disabled":false,"rental_uris":{"android":"levelo://app?vid=e6f6011d-c553-472a-b8fe-96e75925bce2","ios":"levelo://app?vid=e6f6011d-c553-472a-b8fe-96e75925bce2"},"vehicle_type_id":"4","last_reported":1678259235,"current_range_meters":20800,"station_id":"","pricing_plan_id":"free"},{"bike_id":"f8894315-779f-486e-9c80-8c8f9e1d3ba4","system_id":"levelo_inurba_marseille","lat":43.287184,"lon":5.37937,"is_reserved":false,"is_disabled":false,"rental_uris":{"android":"levelo://app?vid=f8894315-779f-486e-9c80-8c8f9e1d3ba4","ios":"levelo://app?vid=f8894315-779f-486e-9c80-8c8f9e1d3ba4"},"vehicle_type_id":"4","last_reported":1678259235,"current_range_meters":400,"station_id":"ce4bh9p2rcd13ifvqec0","pricing_plan_id":"free"},{"bike_id":"d131682c-a17e-408f-9b25-3d48affcff19","system_id":"levelo_inurba_marseille","lat":43.287184,"lon":5.37937,"is_reserved":false,"is_disabled":false,"rental_uris":{"android":"levelo://app?vid=d131682c-a17e-408f-9b25-3d48affcff19","ios":"levelo://app?vid=d131682c-a17e-408f-9b25-3d48affcff19"},"vehicle_type_id":"4","last_reported":1678259235,"current_range_meters":31600,"station_id":"ce4bh9p2rcd13ifvqec0","pricing_plan_id":"free"},{"bike_id":"6092b797-8735-4073-b723-e097ac07db69","system_id":"levelo_inurba_marseille","lat":43.287115,"lon":5.379191,"is_reserved":false,"is_disabled":false,"rental_uris":{"android":"levelo://app?vid=6092b797-8735-4073-b723-e097ac07db69","ios":"levelo://app?vid=6092b797-8735-4073-b723-e097ac07db69"},"vehicle_type_id":"4","last_reported":1678259235,"current_range_meters":0,"station_id":"","pricing_plan_id":"free"},{"bike_id":"51b9c753-5fea-4b4b-94b3-1517a85eed96","system_id":"levelo_inurba_marseille","lat":43.287184,"lon":5.37937,"is_reserved":false,"is_disabled":false,"rental_uris":{"android":"levelo://app?vid=51b9c753-5fea-4b4b-94b3-1517a85eed96","ios":"levelo://app?vid=51b9c753-5fea-4b4b-94b3-1517a85eed96"},"vehicle_type_id":"4","last_reported":1678259235,"current_range_meters":30000,"station_id":"ce4bh9p2rcd13ifvqec0","pricing_plan_id":"free"},{"bike_id":"a890b07c-9aa6-4269-affc-34b6eec5b56a","system_id":"levelo_inurba_marseille","lat":43.287184,"lon":5.37937,"is_reserved":false,"is_disabled":false,"rental_uris":{"android":"levelo://app?vid=a890b07c-9aa6-4269-affc-34b6eec5b56a","ios":"levelo://app?vid=a890b07c-9aa6-4269-affc-34b6eec5b56a"},"vehicle_type_id":"4","last_reported":1678259235,"current_range_meters":28000,"station_id":"ce4bh9p2rcd13ifvqec0","pricing_plan_id":"free"},{"bike_id":"d226fd50-17a4-47db-b57f-bee4192bdda5","system_id":"levelo_inurba_marseille","lat":43.3165,"lon":5.404318,"is_reserved":false,"is_disabled":false,"rental_uris":{"android":"levelo://app?vid=d226fd50-17a4-47db-b57f-bee4192bdda5","ios":"levelo://app?vid=d226fd50-17a4-47db-b57f-bee4192bdda5"},"vehicle_type_id":"4","last_reported":1678259235,"current_range_meters":0,"station_id":"ce4bh012rcd13ifvqd00","pricing_plan_id":"free"},{"bike_id":"ec48ee8b-d84c-4502-95f2-b3c1a18fc0ba","system_id":"levelo_inurba_marseille","lat":43.316517,"lon":5.404375,"is_reserved":false,"is_disabled":false,"rental_uris":{"android":"levelo://app?vid=ec48ee8b-d84c-4502-95f2-b3c1a18fc0ba","ios":"levelo://app?vid=ec48ee8b-d84c-4502-95f2-b3c1a18fc0ba"},"vehicle_type_id":"4","last_reported":1678259235,"current_range_meters":21200,"station_id":"ce4bh012rcd13ifvqd00","pricing_plan_id":"free"},{"bike_id":"3ec128d0-98ab-45bd-9a26-a9d2a905d892","system_id":"levelo_inurba_marseille","lat":43.31638,"lon":5.40435,"is_reserved":false,"is_disabled":false,"rental_uris":{"android":"levelo://app?vid=3ec128d0-98ab-45bd-9a26-a9d2a905d892","ios":"levelo://app?vid=3ec128d0-98ab-45bd-9a26-a9d2a905d892"},"vehicle_type_id":"4","last_reported":1678259235,"current_range_meters":30000,"station_id":"ce4bh012rcd13ifvqd00","pricing_plan_id":"free"},{"bike_id":"055352d2-d2f7-4daa-80b7-12ade4346929","system_id":"levelo_inurba_marseille","lat":43.3164,"lon":5.404351,"is_reserved":false,"is_disabled":false,"rental_uris":{"android":"levelo://app?vid=055352d2-d2f7-4daa-80b7-12ade4346929","ios":"levelo://app?vid=055352d2-d2f7-4daa-80b7-12ade4346929"},"vehicle_type_id":"4","last_reported":1678259235,"current_range_meters":30400,"station_id":"","pricing_plan_id":"free"},{"bike_id":"f8107d2c-c2d5-448b-96a6-ef2e1b05346e","system_id":"levelo_inurba_marseille","lat":43.316517,"lon":5.404375,"is_reserved":false,"is_disabled":false,"rental_uris":{"android":"levelo://app?vid=f8107d2c-c2d5-448b-96a6-ef2e1b05346e","ios":"levelo://app?vid=f8107d2c-c2d5-448b-96a6-ef2e1b05346e"},"vehicle_type_id":"4","last_reported":1678259235,"current_range_meters":24000,"station_id":"ce4bh012rcd13ifvqd00","pricing_plan_id":"free"},{"bike_id":"6588e522-9372-4917-83ad-dca7a4419c99","system_id":"levelo_inurba_marseille","lat":43.316517,"lon":5.404375,"is_reserved":false,"is_disabled":false,"rental_uris":{"android":"levelo://app?vid=6588e522-9372-4917-83ad-dca7a4419c99","ios":"levelo://app?vid=6588e522-9372-4917-83ad-dca7a4419c99"},"vehicle_type_id":"4","last_reported":1678259235,"current_range_meters":28800,"station_id":"ce4bh012rcd13ifvqd00","pricing_plan_id":"free"},{"bike_id":"8d20e5ef-ecd1-4f01-bda5-af7a5a45c520","system_id":"levelo_inurba_marseille","lat":43.31645,"lon":5.40437,"is_reserved":false,"is_disabled":false,"rental_uris":{"android":"levelo://app?vid=8d20e5ef-ecd1-4f01-bda5-af7a5a45c520","ios":"levelo://app?vid=8d20e5ef-ecd1-4f01-bda5-af7a5a45c520"},"vehicle_type_id":"4","last_reported":1678259235,"current_range_meters":30000,"station_id":"ce4bh012rcd13ifvqd00","pricing_plan_id":"free"},{"bike_id":"153ae908-81ba-46b7-9a1e-1dce1d7527fd","system_id":"levelo_inurba_marseille","lat":43.316517,"lon":5.404375,"is_reserved":false,"is_disabled":false,"rental_uris":{"android":"levelo://app?vid=153ae908-81ba-46b7-9a1e-1dce1d7527fd","ios":"levelo://app?vid=153ae908-81ba-46b7-9a1e-1dce1d7527fd"},"vehicle_type_id":"4","last_reported":1678259235,"current_range_meters":26800,"station_id":"ce4bh012rcd13ifvqd00","pricing_plan_id":"free"},{"bike_id":"fdefb30a-307d-46de-9cdd-1d692d75b837","system_id":"levelo_inurba_marseille","lat":43.31645,"lon":5.40443,"is_reserved":false,"is_disabled":false,"rental_uris":{"android":"levelo://app?vid=fdefb30a-307d-46de-9cdd-1d692d75b837","ios":"levelo://app?vid=fdefb30a-307d-46de-9cdd-1d692d75b837"},"vehicle_type_id":"4","last_reported":1678259235,"current_range_meters":27200,"station_id":"ce4bh012rcd13ifvqd00","pricing_plan_id":"free"},{"bike_id":"cb96273f-f1db-43fe-92a9-9aef5dae05c3","system_id":"levelo_inurba_marseille","lat":43.316517,"lon":5.404375,"is_reserved":false,"is_disabled":false,"rental_uris":{"android":"levelo://app?vid=cb96273f-f1db-43fe-92a9-9aef5dae05c3","ios":"levelo://app?vid=cb96273f-f1db-43fe-92a9-9aef5dae05c3"},"vehicle_type_id":"4","last_reported":1678259235,"current_range_meters":24800,"station_id":"ce4bh012rcd13ifvqd00","pricing_plan_id":"free"},{"bike_id":"8e119521-6acf-47f5-b582-74be75cf42f7","system_id":"levelo_inurba_marseille","lat":43.333986,"lon":5.392126,"is_reserved":false,"is_disabled":false,"rental_uris":{"android":"levelo://app?vid=8e119521-6acf-47f5-b582-74be75cf42f7","ios":"levelo://app?vid=8e119521-6acf-47f5-b582-74be75cf42f7"},"vehicle_type_id":"4","last_reported":1678259235,"current_range_meters":6400,"station_id":"","pricing_plan_id":"free"},{"bike_id":"23e2f9d2-d862-4b95-b0ec-50e6488cd6ef","system_id":"levelo_inurba_marseille","lat":43.286012,"lon":5.353337,"is_reserved":false,"is_disabled":false,"rental_uris":{"android":"levelo://app?vid=23e2f9d2-d862-4b95-b0ec-50e6488cd6ef","ios":"levelo://app?vid=23e2f9d2-d862-4b95-b0ec-50e6488cd6ef"},"vehicle_type_id":"4","last_reported":1678259235,"current_range_meters":5200,"station_id":"","pricing_plan_id":"free"},{"bike_id":"064734cb-0dd9-4175-8ef8-26ed124bb34d","system_id":"levelo_inurba_marseille","lat":43.284617,"lon":5.35895,"is_reserved":false,"is_disabled":false,"rental_uris":{"android":"levelo://app?vid=064734cb-0dd9-4175-8ef8-26ed124bb34d","ios":"levelo://app?vid=064734cb-0dd9-4175-8ef8-26ed124bb34d"},"vehicle_type_id":"4","last_reported":1678259235,"current_range_meters":400,"station_id":"","pricing_plan_id":"free"},{"bike_id":"a8311d8e-b63b-4f3c-993a-79972200b17e","system_id":"levelo_inurba_marseille","lat":43.295713,"lon":5.399639,"is_reserved":false,"is_disabled":false,"rental_uris":{"android":"levelo://app?vid=a8311d8e-b63b-4f3c-993a-79972200b17e","ios":"levelo://app?vid=a8311d8e-b63b-4f3c-993a-79972200b17e"},"vehicle_type_id":"4","last_reported":1678259235,"current_range_meters":1200,"station_id":"ce4bh312rcd13ifvqdj0","pricing_plan_id":"free"},{"bike_id":"f52c802c-001c-45aa-a86d-ad63b9500581","system_id":"levelo_inurba_marseille","lat":43.286685,"lon":5.386631,"is_reserved":false,"is_disabled":false,"rental_uris":{"android":"levelo://app?vid=f52c802c-001c-45aa-a86d-ad63b9500581","ios":"levelo://app?vid=f52c802c-001c-45aa-a86d-ad63b9500581"},"vehicle_type_id":"4","last_reported":1678259235,"current_range_meters":0,"station_id":"ce4bh492rcd13ifvqdug","pricing_plan_id":"free"},{"bike_id":"759f3aef-523f-4c3b-845c-f4fb1fde921a","system_id":"levelo_inurba_marseille","lat":43.286595,"lon":5.386795,"is_reserved":false,"is_disabled":false,"rental_uris":{"android":"levelo://app?vid=759f3aef-523f-4c3b-845c-f4fb1fde921a","ios":"levelo://app?vid=759f3aef-523f-4c3b-845c-f4fb1fde921a"},"vehicle_type_id":"4","last_reported":1678259235,"current_range_meters":4400,"station_id":"ce4bh492rcd13ifvqdug","pricing_plan_id":"free"},{"bike_id":"51f672f4-e90f-45e2-b1a4-2196828216f3","system_id":"levelo_inurba_marseille","lat":43.32338,"lon":5.40609,"is_reserved":false,"is_disabled":false,"rental_uris":{"android":"levelo://app?vid=51f672f4-e90f-45e2-b1a4-2196828216f3","ios":"levelo://app?vid=51f672f4-e90f-45e2-b1a4-2196828216f3"},"vehicle_type_id":"4","last_reported":1678259235,"current_range_meters":13600,"station_id":"","pricing_plan_id":"free"},{"bike_id":"1a0985e7-8012-4188-a1ab-5d2a657e6e8f","system_id":"levelo_inurba_marseille","lat":43.33723,"lon":5.39173,"is_reserved":false,"is_disabled":false,"rental_uris":{"android":"levelo://app?vid=1a0985e7-8012-4188-a1ab-5d2a657e6e8f","ios":"levelo://app?vid=1a0985e7-8012-4188-a1ab-5d2a657e6e8f"},"vehicle_type_id":"4","last_reported":1678259235,"current_range_meters":19600,"station_id":"ce4bhr92rcd13ifvqhsg","pricing_plan_id":"free"},{"bike_id":"80deefc5-447f-4997-8b8f-20621bb8f8bb","system_id":"levelo_inurba_marseille","lat":43.323415,"lon":5.406128,"is_reserved":false,"is_disabled":false,"rental_uris":{"android":"levelo://app?vid=80deefc5-447f-4997-8b8f-20621bb8f8bb","ios":"levelo://app?vid=80deefc5-447f-4997-8b8f-20621bb8f8bb"},"vehicle_type_id":"4","last_reported":1678259235,"current_range_meters":10400,"station_id":"","pricing_plan_id":"free"},{"bike_id":"55e0ad18-3fef-481d-a972-d4d75ae704ee","system_id":"levelo_inurba_marseille","lat":43.32342,"lon":5.406153,"is_reserved":false,"is_disabled":false,"rental_uris":{"android":"levelo://app?vid=55e0ad18-3fef-481d-a972-d4d75ae704ee","ios":"levelo://app?vid=55e0ad18-3fef-481d-a972-d4d75ae704ee"},"vehicle_type_id":"4","last_reported":1678259235,"current_range_meters":24000,"station_id":"","pricing_plan_id":"free"},{"bike_id":"b633daa5-dd71-4ea0-9043-b6f0b29c3ff6","system_id":"levelo_inurba_marseille","lat":43.32339,"lon":5.40617,"is_reserved":false,"is_disabled":false,"rental_uris":{"android":"levelo://app?vid=b633daa5-dd71-4ea0-9043-b6f0b29c3ff6","ios":"levelo://app?vid=b633daa5-dd71-4ea0-9043-b6f0b29c3ff6"},"vehicle_type_id":"4","last_reported":1678259235,"current_range_meters":8800,"station_id":"","pricing_plan_id":"free"},{"bike_id":"59f59454-8a57-4227-9f94-d58974282b49","system_id":"levelo_inurba_marseille","lat":43.323377,"lon":5.406186,"is_reserved":false,"is_disabled":false,"rental_uris":{"android":"levelo://app?vid=59f59454-8a57-4227-9f94-d58974282b49","ios":"levelo://app?vid=59f59454-8a57-4227-9f94-d58974282b49"},"vehicle_type_id":"4","last_reported":1678259235,"current_range_meters":17200,"station_id":"","pricing_plan_id":"free"},{"bike_id":"ab0feb94-5fb8-4a18-8a28-af999dec1d0f","system_id":"levelo_inurba_marseille","lat":43.33725,"lon":5.39184,"is_reserved":false,"is_disabled":false,"rental_uris":{"android":"levelo://app?vid=ab0feb94-5fb8-4a18-8a28-af999dec1d0f","ios":"levelo://app?vid=ab0feb94-5fb8-4a18-8a28-af999dec1d0f"},"vehicle_type_id":"4","last_reported":1678259235,"current_range_meters":26000,"station_id":"ce4bhr92rcd13ifvqhsg","pricing_plan_id":"free"},{"bike_id":"d466e6a7-11a3-49a3-b6d5-38acc44e2457","system_id":"levelo_inurba_marseille","lat":43.323376,"lon":5.406201,"is_reserved":false,"is_disabled":false,"rental_uris":{"android":"levelo://app?vid=d466e6a7-11a3-49a3-b6d5-38acc44e2457","ios":"levelo://app?vid=d466e6a7-11a3-49a3-b6d5-38acc44e2457"},"vehicle_type_id":"4","last_reported":1678259235,"current_range_meters":6000,"station_id":"","pricing_plan_id":"free"},{"bike_id":"0984a3a5-e7ec-436d-89c2-1f41475d970a","system_id":"levelo_inurba_marseille","lat":43.32338,"lon":5.40621,"is_reserved":false,"is_disabled":false,"rental_uris":{"android":"levelo://app?vid=0984a3a5-e7ec-436d-89c2-1f41475d970a","ios":"levelo://app?vid=0984a3a5-e7ec-436d-89c2-1f41475d970a"},"vehicle_type_id":"4","last_reported":1678259235,"current_range_meters":19200,"station_id":"","pricing_plan_id":"free"},{"bike_id":"049dad72-6330-444a-8c59-496aca383226","system_id":"levelo_inurba_marseille","lat":43.33728,"lon":5.391825,"is_reserved":false,"is_disabled":false,"rental_uris":{"android":"levelo://app?vid=049dad72-6330-444a-8c59-496aca383226","ios":"levelo://app?vid=049dad72-6330-444a-8c59-496aca383226"},"vehicle_type_id":"4","last_reported":1678259235,"current_range_meters":28000,"station_id":"ce4bhr92rcd13ifvqhsg","pricing_plan_id":"free"},{"bike_id":"ca19565d-b39d-42a2-aa01-5e3fa46c41f6","system_id":"levelo_inurba_marseille","lat":43.337168,"lon":5.391825,"is_reserved":false,"is_disabled":false,"rental_uris":{"android":"levelo://app?vid=ca19565d-b39d-42a2-aa01-5e3fa46c41f6","ios":"levelo://app?vid=ca19565d-b39d-42a2-aa01-5e3fa46c41f6"},"vehicle_type_id":"4","last_reported":1678259235,"current_range_meters":400,"station_id":"ce4bhr92rcd13ifvqhsg","pricing_plan_id":"free"},{"bike_id":"de4a8079-ad6c-46ae-8e7f-a059f09ed22a","system_id":"levelo_inurba_marseille","lat":43.337168,"lon":5.391825,"is_reserved":false,"is_disabled":false,"rental_uris":{"android":"levelo://app?vid=de4a8079-ad6c-46ae-8e7f-a059f09ed22a","ios":"levelo://app?vid=de4a8079-ad6c-46ae-8e7f-a059f09ed22a"},"vehicle_type_id":"4","last_reported":1678259235,"current_range_meters":22800,"station_id":"ce4bhr92rcd13ifvqhsg","pricing_plan_id":"free"},{"bike_id":"c4dbf44f-b2f6-4712-bc48-ad2c8fae7753","system_id":"levelo_inurba_marseille","lat":43.337272,"lon":5.391937,"is_reserved":false,"is_disabled":false,"rental_uris":{"android":"levelo://app?vid=c4dbf44f-b2f6-4712-bc48-ad2c8fae7753","ios":"levelo://app?vid=c4dbf44f-b2f6-4712-bc48-ad2c8fae7753"},"vehicle_type_id":"4","last_reported":1678259235,"current_range_meters":18400,"station_id":"ce4bhr92rcd13ifvqhsg","pricing_plan_id":"free"},{"bike_id":"13dc18c9-b16e-4d91-bbf1-5c9a45bf00c2","system_id":"levelo_inurba_marseille","lat":43.325243,"lon":5.414326,"is_reserved":false,"is_disabled":false,"rental_uris":{"android":"levelo://app?vid=13dc18c9-b16e-4d91-bbf1-5c9a45bf00c2","ios":"levelo://app?vid=13dc18c9-b16e-4d91-bbf1-5c9a45bf00c2"},"vehicle_type_id":"4","last_reported":1678259235,"current_range_meters":400,"station_id":"ce4bhq12rcd13ifvqhhg","pricing_plan_id":"free"},{"bike_id":"650332ca-9159-4682-accd-8fcdf450c2b3","system_id":"levelo_inurba_marseille","lat":43.284807,"lon":5.384296,"is_reserved":false,"is_disabled":false,"rental_uris":{"android":"levelo://app?vid=650332ca-9159-4682-accd-8fcdf450c2b3","ios":"levelo://app?vid=650332ca-9159-4682-accd-8fcdf450c2b3"},"vehicle_type_id":"4","last_reported":1678259235,"current_range_meters":0,"station_id":"ce4bh512rcd13ifvqe3g","pricing_plan_id":"free"},{"bike_id":"20e13530-71c9-4887-8050-f381405a32fc","system_id":"levelo_inurba_marseille","lat":43.288497,"lon":5.393089,"is_reserved":false,"is_disabled":false,"rental_uris":{"android":"levelo://app?vid=20e13530-71c9-4887-8050-f381405a32fc","ios":"levelo://app?vid=20e13530-71c9-4887-8050-f381405a32fc"},"vehicle_type_id":"4","last_reported":1678259235,"current_range_meters":22000,"station_id":"ce4bh2p2rcd13ifvqdi0","pricing_plan_id":"free"},{"bike_id":"ebaf559b-24a3-4012-973c-af1c5bb6213c","system_id":"levelo_inurba_marseille","lat":43.282083,"lon":5.377062,"is_reserved":false,"is_disabled":false,"rental_uris":{"android":"levelo://app?vid=ebaf559b-24a3-4012-973c-af1c5bb6213c","ios":"levelo://app?vid=ebaf559b-24a3-4012-973c-af1c5bb6213c"},"vehicle_type_id":"4","last_reported":1678259235,"current_range_meters":0,"station_id":"","pricing_plan_id":"free"},{"bike_id":"3dbbfc21-584f-4185-8a96-57d44b6777f4","system_id":"levelo_inurba_marseille","lat":43.289363,"lon":5.396322,"is_reserved":false,"is_disabled":false,"rental_uris":{"android":"levelo://app?vid=3dbbfc21-584f-4185-8a96-57d44b6777f4","ios":"levelo://app?vid=3dbbfc21-584f-4185-8a96-57d44b6777f4"},"vehicle_type_id":"4","last_reported":1678259235,"current_range_meters":24800,"station_id":"ce4bh3h2rcd13ifvqdn0","pricing_plan_id":"free"},{"bike_id":"92ea7b66-c957-4abe-9533-53f2045618af","system_id":"levelo_inurba_marseille","lat":43.28351,"lon":5.38611,"is_reserved":false,"is_disabled":false,"rental_uris":{"android":"levelo://app?vid=92ea7b66-c957-4abe-9533-53f2045618af","ios":"levelo://app?vid=92ea7b66-c957-4abe-9533-53f2045618af"},"vehicle_type_id":"4","last_reported":1678259235,"current_range_meters":12800,"station_id":"","pricing_plan_id":"free"},{"bike_id":"92c1a66a-495d-4147-8366-7f2854d4ba5e","system_id":"levelo_inurba_marseille","lat":43.280373,"lon":5.369453,"is_reserved":false,"is_disabled":false,"rental_uris":{"android":"levelo://app?vid=92c1a66a-495d-4147-8366-7f2854d4ba5e","ios":"levelo://app?vid=92c1a66a-495d-4147-8366-7f2854d4ba5e"},"vehicle_type_id":"4","last_reported":1678259235,"current_range_meters":0,"station_id":"ce4bha12rcd13ifvqef0","pricing_plan_id":"free"},{"bike_id":"ca187cd8-85d4-4dc1-8ab1-a80345a3a443","system_id":"levelo_inurba_marseille","lat":43.280353,"lon":5.369426,"is_reserved":false,"is_disabled":false,"rental_uris":{"android":"levelo://app?vid=ca187cd8-85d4-4dc1-8ab1-a80345a3a443","ios":"levelo://app?vid=ca187cd8-85d4-4dc1-8ab1-a80345a3a443"},"vehicle_type_id":"4","last_reported":1678259235,"current_range_meters":11200,"station_id":"ce4bha12rcd13ifvqef0","pricing_plan_id":"free"},{"bike_id":"e4b3ac76-a113-4bdf-9ef3-037ec032ad31","system_id":"levelo_inurba_marseille","lat":43.28035,"lon":5.36947,"is_reserved":false,"is_disabled":false,"rental_uris":{"android":"levelo://app?vid=e4b3ac76-a113-4bdf-9ef3-037ec032ad31","ios":"levelo://app?vid=e4b3ac76-a113-4bdf-9ef3-037ec032ad31"},"vehicle_type_id":"4","last_reported":1678259235,"current_range_meters":7200,"station_id":"ce4bha12rcd13ifvqef0","pricing_plan_id":"free"},{"bike_id":"d64d2e88-0ff5-4497-bf27-de5bad5c52d1","system_id":"levelo_inurba_marseille","lat":43.280336,"lon":5.369486,"is_reserved":false,"is_disabled":false,"rental_uris":{"android":"levelo://app?vid=d64d2e88-0ff5-4497-bf27-de5bad5c52d1","ios":"levelo://app?vid=d64d2e88-0ff5-4497-bf27-de5bad5c52d1"},"vehicle_type_id":"4","last_reported":1678259235,"current_range_meters":12000,"station_id":"ce4bha12rcd13ifvqef0","pricing_plan_id":"free"},{"bike_id":"ab493cd2-f341-4304-932c-dadd436736de","system_id":"levelo_inurba_marseille","lat":43.280315,"lon":5.369468,"is_reserved":false,"is_disabled":false,"rental_uris":{"android":"levelo://app?vid=ab493cd2-f341-4304-932c-dadd436736de","ios":"levelo://app?vid=ab493cd2-f341-4304-932c-dadd436736de"},"vehicle_type_id":"4","last_reported":1678259235,"current_range_meters":0,"station_id":"","pricing_plan_id":"free"},{"bike_id":"3cde1a94-9ebe-4f48-a699-16772c4827de","system_id":"levelo_inurba_marseille","lat":43.281044,"lon":5.378308,"is_reserved":false,"is_disabled":false,"rental_uris":{"android":"levelo://app?vid=3cde1a94-9ebe-4f48-a699-16772c4827de","ios":"levelo://app?vid=3cde1a94-9ebe-4f48-a699-16772c4827de"},"vehicle_type_id":"4","last_reported":1678259235,"current_range_meters":1600,"station_id":"ce4bha12rcd13ifvqee0","pricing_plan_id":"free"},{"bike_id":"53bfb4e0-83f6-4360-b99a-eacdcf82d6d9","system_id":"levelo_inurba_marseille","lat":43.281044,"lon":5.378308,"is_reserved":false,"is_disabled":false,"rental_uris":{"android":"levelo://app?vid=53bfb4e0-83f6-4360-b99a-eacdcf82d6d9","ios":"levelo://app?vid=53bfb4e0-83f6-4360-b99a-eacdcf82d6d9"},"vehicle_type_id":"4","last_reported":1678259235,"current_range_meters":27600,"station_id":"ce4bha12rcd13ifvqee0","pricing_plan_id":"free"},{"bike_id":"abe2cd4b-dbae-4069-b035-7a765a30f287","system_id":"levelo_inurba_marseille","lat":43.33076,"lon":5.40572,"is_reserved":false,"is_disabled":false,"rental_uris":{"android":"levelo://app?vid=abe2cd4b-dbae-4069-b035-7a765a30f287","ios":"levelo://app?vid=abe2cd4b-dbae-4069-b035-7a765a30f287"},"vehicle_type_id":"4","last_reported":1678259235,"current_range_meters":7600,"station_id":"","pricing_plan_id":"free"},{"bike_id":"e5d2baf6-e26e-45c5-a166-26270df24340","system_id":"levelo_inurba_marseille","lat":43.28712,"lon":5.399952,"is_reserved":false,"is_disabled":false,"rental_uris":{"android":"levelo://app?vid=e5d2baf6-e26e-45c5-a166-26270df24340","ios":"levelo://app?vid=e5d2baf6-e26e-45c5-a166-26270df24340"},"vehicle_type_id":"4","last_reported":1678259235,"current_range_meters":0,"station_id":"ce4bho92rcd13ifvqh3g","pricing_plan_id":"free"},{"bike_id":"8f86add7-ec07-4b99-ae5c-20f3ee34baef","system_id":"levelo_inurba_marseille","lat":43.299579,"lon":5.413255,"is_reserved":false,"is_disabled":false,"rental_uris":{"android":"levelo://app?vid=8f86add7-ec07-4b99-ae5c-20f3ee34baef","ios":"levelo://app?vid=8f86add7-ec07-4b99-ae5c-20f3ee34baef"},"vehicle_type_id":"4","last_reported":1678259235,"current_range_meters":29600,"station_id":"ce4bhp12rcd13ifvqh9g","pricing_plan_id":"free"},{"bike_id":"79fd10a0-fa87-422a-90fa-0e4682984bf0","system_id":"levelo_inurba_marseille","lat":43.320045,"lon":5.415048,"is_reserved":false,"is_disabled":false,"rental_uris":{"android":"levelo://app?vid=79fd10a0-fa87-422a-90fa-0e4682984bf0","ios":"levelo://app?vid=79fd10a0-fa87-422a-90fa-0e4682984bf0"},"vehicle_type_id":"4","last_reported":1678259235,"current_range_meters":0,"station_id":"ce4bhq92rcd13ifvqhkg","pricing_plan_id":"free"},{"bike_id":"d77a3a84-3910-48a4-b44f-bfa2e6f2bb1f","system_id":"levelo_inurba_marseille","lat":43.299579,"lon":5.413255,"is_reserved":false,"is_disabled":false,"rental_uris":{"android":"levelo://app?vid=d77a3a84-3910-48a4-b44f-bfa2e6f2bb1f","ios":"levelo://app?vid=d77a3a84-3910-48a4-b44f-bfa2e6f2bb1f"},"vehicle_type_id":"4","last_reported":1678259235,"current_range_meters":24000,"station_id":"ce4bhp12rcd13ifvqh9g","pricing_plan_id":"free"},{"bike_id":"f8dd7bfa-eda0-4252-8ba1-e7fe84691cc2","system_id":"levelo_inurba_marseille","lat":43.299579,"lon":5.413255,"is_reserved":false,"is_disabled":false,"rental_uris":{"android":"levelo://app?vid=f8dd7bfa-eda0-4252-8ba1-e7fe84691cc2","ios":"levelo://app?vid=f8dd7bfa-eda0-4252-8ba1-e7fe84691cc2"},"vehicle_type_id":"4","last_reported":1678259235,"current_range_meters":28000,"station_id":"ce4bhp12rcd13ifvqh9g","pricing_plan_id":"free"},{"bike_id":"3b7cb5f2-b298-4e16-8620-b05435f94fd8","system_id":"levelo_inurba_marseille","lat":43.320045,"lon":5.415048,"is_reserved":false,"is_disabled":false,"rental_uris":{"android":"levelo://app?vid=3b7cb5f2-b298-4e16-8620-b05435f94fd8","ios":"levelo://app?vid=3b7cb5f2-b298-4e16-8620-b05435f94fd8"},"vehicle_type_id":"4","last_reported":1678259235,"current_range_meters":4400,"station_id":"ce4bhq92rcd13ifvqhkg","pricing_plan_id":"free"},{"bike_id":"9a8a7261-4a5b-4e01-afdb-6c38a0a4090b","system_id":"levelo_inurba_marseille","lat":43.320507,"lon":5.41555,"is_reserved":false,"is_disabled":false,"rental_uris":{"android":"levelo://app?vid=9a8a7261-4a5b-4e01-afdb-6c38a0a4090b","ios":"levelo://app?vid=9a8a7261-4a5b-4e01-afdb-6c38a0a4090b"},"vehicle_type_id":"4","last_reported":1678259235,"current_range_meters":13600,"station_id":"","pricing_plan_id":"free"},{"bike_id":"757add7e-28ea-465b-8da9-2d71561c32df","system_id":"levelo_inurba_marseille","lat":43.283502,"lon":5.386471,"is_reserved":false,"is_disabled":false,"rental_uris":{"android":"levelo://app?vid=757add7e-28ea-465b-8da9-2d71561c32df","ios":"levelo://app?vid=757add7e-28ea-465b-8da9-2d71561c32df"},"vehicle_type_id":"4","last_reported":1678259235,"current_range_meters":23600,"station_id":"ce4bh492rcd13ifvqdvg","pricing_plan_id":"free"},{"bike_id":"775a6db6-e19c-4739-8f8b-45feaf2c4963","system_id":"levelo_inurba_marseille","lat":43.320045,"lon":5.415048,"is_reserved":false,"is_disabled":false,"rental_uris":{"android":"levelo://app?vid=775a6db6-e19c-4739-8f8b-45feaf2c4963","ios":"levelo://app?vid=775a6db6-e19c-4739-8f8b-45feaf2c4963"},"vehicle_type_id":"4","last_reported":1678259235,"current_range_meters":0,"station_id":"ce4bhq92rcd13ifvqhkg","pricing_plan_id":"free"},{"bike_id":"197df58e-9c72-4f0a-8d44-8f494a5d6034","system_id":"levelo_inurba_marseille","lat":43.292687,"lon":5.408972,"is_reserved":false,"is_disabled":false,"rental_uris":{"android":"levelo://app?vid=197df58e-9c72-4f0a-8d44-8f494a5d6034","ios":"levelo://app?vid=197df58e-9c72-4f0a-8d44-8f494a5d6034"},"vehicle_type_id":"4","last_reported":1678259235,"current_range_meters":14400,"station_id":"ce4bh192rcd13ifvqdc0","pricing_plan_id":"free"},{"bike_id":"68ed780a-433c-4e2a-860c-dfcd4dc85886","system_id":"levelo_inurba_marseille","lat":43.325233,"lon":5.414318,"is_reserved":false,"is_disabled":false,"rental_uris":{"android":"levelo://app?vid=68ed780a-433c-4e2a-860c-dfcd4dc85886","ios":"levelo://app?vid=68ed780a-433c-4e2a-860c-dfcd4dc85886"},"vehicle_type_id":"4","last_reported":1678259235,"current_range_meters":0,"station_id":"ce4bhq12rcd13ifvqhhg","pricing_plan_id":"free"},{"bike_id":"22f90917-96d6-4469-92be-5ef13d548605","system_id":"levelo_inurba_marseille","lat":43.325233,"lon":5.414318,"is_reserved":false,"is_disabled":false,"rental_uris":{"android":"levelo://app?vid=22f90917-96d6-4469-92be-5ef13d548605","ios":"levelo://app?vid=22f90917-96d6-4469-92be-5ef13d548605"},"vehicle_type_id":"4","last_reported":1678259235,"current_range_meters":24000,"station_id":"ce4bhq12rcd13ifvqhhg","pricing_plan_id":"free"},{"bike_id":"719acd74-5108-4faa-9b49-2c7a180cff2a","system_id":"levelo_inurba_marseille","lat":43.325233,"lon":5.414318,"is_reserved":false,"is_disabled":false,"rental_uris":{"android":"levelo://app?vid=719acd74-5108-4faa-9b49-2c7a180cff2a","ios":"levelo://app?vid=719acd74-5108-4faa-9b49-2c7a180cff2a"},"vehicle_type_id":"4","last_reported":1678259235,"current_range_meters":6000,"station_id":"ce4bhq12rcd13ifvqhhg","pricing_plan_id":"free"},{"bike_id":"7347aeb1-4447-4186-b6d2-11b10daf62c8","system_id":"levelo_inurba_marseille","lat":43.325243,"lon":5.414326,"is_reserved":false,"is_disabled":false,"rental_uris":{"android":"levelo://app?vid=7347aeb1-4447-4186-b6d2-11b10daf62c8","ios":"levelo://app?vid=7347aeb1-4447-4186-b6d2-11b10daf62c8"},"vehicle_type_id":"4","last_reported":1678259235,"current_range_meters":22000,"station_id":"ce4bhq12rcd13ifvqhhg","pricing_plan_id":"free"},{"bike_id":"d7535234-833c-409d-9d91-d3d1098bd88c","system_id":"levelo_inurba_marseille","lat":43.325243,"lon":5.414326,"is_reserved":false,"is_disabled":false,"rental_uris":{"android":"levelo://app?vid=d7535234-833c-409d-9d91-d3d1098bd88c","ios":"levelo://app?vid=d7535234-833c-409d-9d91-d3d1098bd88c"},"vehicle_type_id":"4","last_reported":1678259235,"current_range_meters":29200,"station_id":"ce4bhq12rcd13ifvqhhg","pricing_plan_id":"free"},{"bike_id":"2e3ca9a4-3670-455d-b96b-18278bd4f56b","system_id":"levelo_inurba_marseille","lat":43.27618,"lon":5.361009,"is_reserved":false,"is_disabled":false,"rental_uris":{"android":"levelo://app?vid=2e3ca9a4-3670-455d-b96b-18278bd4f56b","ios":"levelo://app?vid=2e3ca9a4-3670-455d-b96b-18278bd4f56b"},"vehicle_type_id":"4","last_reported":1678259235,"current_range_meters":14400,"station_id":"ce4bgj92rcd13ifvqbe0","pricing_plan_id":"free"},{"bike_id":"d502d524-040a-49d7-9a5e-3220773d7f72","system_id":"levelo_inurba_marseille","lat":43.325243,"lon":5.414326,"is_reserved":false,"is_disabled":false,"rental_uris":{"android":"levelo://app?vid=d502d524-040a-49d7-9a5e-3220773d7f72","ios":"levelo://app?vid=d502d524-040a-49d7-9a5e-3220773d7f72"},"vehicle_type_id":"4","last_reported":1678259235,"current_range_meters":6800,"station_id":"ce4bhq12rcd13ifvqhhg","pricing_plan_id":"free"},{"bike_id":"af646519-a84c-49f8-a05a-53103be85a11","system_id":"levelo_inurba_marseille","lat":43.325233,"lon":5.414318,"is_reserved":false,"is_disabled":false,"rental_uris":{"android":"levelo://app?vid=af646519-a84c-49f8-a05a-53103be85a11","ios":"levelo://app?vid=af646519-a84c-49f8-a05a-53103be85a11"},"vehicle_type_id":"4","last_reported":1678259235,"current_range_meters":27600,"station_id":"ce4bhq12rcd13ifvqhhg","pricing_plan_id":"free"},{"bike_id":"e1f3f74d-4c05-49f0-8f45-d2b1c3309e43","system_id":"levelo_inurba_marseille","lat":43.27618,"lon":5.361009,"is_reserved":false,"is_disabled":false,"rental_uris":{"android":"levelo://app?vid=e1f3f74d-4c05-49f0-8f45-d2b1c3309e43","ios":"levelo://app?vid=e1f3f74d-4c05-49f0-8f45-d2b1c3309e43"},"vehicle_type_id":"4","last_reported":1678259235,"current_range_meters":16000,"station_id":"ce4bgj92rcd13ifvqbe0","pricing_plan_id":"free"},{"bike_id":"60c94c2c-ed8a-4f69-b34d-530c27e96725","system_id":"levelo_inurba_marseille","lat":43.325243,"lon":5.414326,"is_reserved":false,"is_disabled":false,"rental_uris":{"android":"levelo://app?vid=60c94c2c-ed8a-4f69-b34d-530c27e96725","ios":"levelo://app?vid=60c94c2c-ed8a-4f69-b34d-530c27e96725"},"vehicle_type_id":"4","last_reported":1678259235,"current_range_meters":32000,"station_id":"ce4bhq12rcd13ifvqhhg","pricing_plan_id":"free"},{"bike_id":"d9afddd3-4631-473c-b6c2-ac6f73b9adfc","system_id":"levelo_inurba_marseille","lat":43.325233,"lon":5.414318,"is_reserved":false,"is_disabled":false,"rental_uris":{"android":"levelo://app?vid=d9afddd3-4631-473c-b6c2-ac6f73b9adfc","ios":"levelo://app?vid=d9afddd3-4631-473c-b6c2-ac6f73b9adfc"},"vehicle_type_id":"4","last_reported":1678259235,"current_range_meters":32000,"station_id":"ce4bhq12rcd13ifvqhhg","pricing_plan_id":"free"},{"bike_id":"090e2b45-a915-470d-a12a-c03f58057613","system_id":"levelo_inurba_marseille","lat":43.27615,"lon":5.36118,"is_reserved":false,"is_disabled":false,"rental_uris":{"android":"levelo://app?vid=090e2b45-a915-470d-a12a-c03f58057613","ios":"levelo://app?vid=090e2b45-a915-470d-a12a-c03f58057613"},"vehicle_type_id":"4","last_reported":1678259235,"current_range_meters":14000,"station_id":"","pricing_plan_id":"free"},{"bike_id":"340d66e8-bda1-48b8-b9e2-90cd8e482b59","system_id":"levelo_inurba_marseille","lat":43.27611,"lon":5.36114,"is_reserved":false,"is_disabled":false,"rental_uris":{"android":"levelo://app?vid=340d66e8-bda1-48b8-b9e2-90cd8e482b59","ios":"levelo://app?vid=340d66e8-bda1-48b8-b9e2-90cd8e482b59"},"vehicle_type_id":"4","last_reported":1678259235,"current_range_meters":7600,"station_id":"ce4bgj92rcd13ifvqbe0","pricing_plan_id":"free"},{"bike_id":"88eedc7b-dd58-4b8f-abc9-020d11215194","system_id":"levelo_inurba_marseille","lat":43.273815,"lon":5.362533,"is_reserved":false,"is_disabled":false,"rental_uris":{"android":"levelo://app?vid=88eedc7b-dd58-4b8f-abc9-020d11215194","ios":"levelo://app?vid=88eedc7b-dd58-4b8f-abc9-020d11215194"},"vehicle_type_id":"4","last_reported":1678259235,"current_range_meters":10400,"station_id":"","pricing_plan_id":"free"},{"bike_id":"31a15b17-a18a-4c11-9514-617fc48edbb4","system_id":"levelo_inurba_marseille","lat":43.27381,"lon":5.36256,"is_reserved":false,"is_disabled":false,"rental_uris":{"android":"levelo://app?vid=31a15b17-a18a-4c11-9514-617fc48edbb4","ios":"levelo://app?vid=31a15b17-a18a-4c11-9514-617fc48edbb4"},"vehicle_type_id":"4","last_reported":1678259235,"current_range_meters":0,"station_id":"ce4bhbh2rcd13ifvqeo0","pricing_plan_id":"free"},{"bike_id":"b03fccc6-1ee5-4c06-89f9-3511e34de4b9","system_id":"levelo_inurba_marseille","lat":43.33612,"lon":5.410321,"is_reserved":false,"is_disabled":false,"rental_uris":{"android":"levelo://app?vid=b03fccc6-1ee5-4c06-89f9-3511e34de4b9","ios":"levelo://app?vid=b03fccc6-1ee5-4c06-89f9-3511e34de4b9"},"vehicle_type_id":"4","last_reported":1678259235,"current_range_meters":4000,"station_id":"ce4bhqh2rcd13ifvqhmg","pricing_plan_id":"free"},{"bike_id":"d4b79244-b631-47cc-89da-2f4dd3e2f847","system_id":"levelo_inurba_marseille","lat":43.273797,"lon":5.362563,"is_reserved":false,"is_disabled":false,"rental_uris":{"android":"levelo://app?vid=d4b79244-b631-47cc-89da-2f4dd3e2f847","ios":"levelo://app?vid=d4b79244-b631-47cc-89da-2f4dd3e2f847"},"vehicle_type_id":"4","last_reported":1678259235,"current_range_meters":28000,"station_id":"","pricing_plan_id":"free"},{"bike_id":"7c7b727f-4ee4-4cb4-a988-de186dfebbc3","system_id":"levelo_inurba_marseille","lat":43.273613,"lon":5.362705,"is_reserved":false,"is_disabled":false,"rental_uris":{"android":"levelo://app?vid=7c7b727f-4ee4-4cb4-a988-de186dfebbc3","ios":"levelo://app?vid=7c7b727f-4ee4-4cb4-a988-de186dfebbc3"},"vehicle_type_id":"4","last_reported":1678259235,"current_range_meters":22400,"station_id":"ce4bhbh2rcd13ifvqeo0","pricing_plan_id":"free"},{"bike_id":"60dc63fd-421b-4bcb-a99a-6eda3d500837","system_id":"levelo_inurba_marseille","lat":43.33612,"lon":5.410321,"is_reserved":false,"is_disabled":false,"rental_uris":{"android":"levelo://app?vid=60dc63fd-421b-4bcb-a99a-6eda3d500837","ios":"levelo://app?vid=60dc63fd-421b-4bcb-a99a-6eda3d500837"},"vehicle_type_id":"4","last_reported":1678259235,"current_range_meters":8000,"station_id":"ce4bhqh2rcd13ifvqhmg","pricing_plan_id":"free"},{"bike_id":"f0f8af8e-b37c-4577-a443-480fc48243c0","system_id":"levelo_inurba_marseille","lat":43.33612,"lon":5.410321,"is_reserved":false,"is_disabled":false,"rental_uris":{"android":"levelo://app?vid=f0f8af8e-b37c-4577-a443-480fc48243c0","ios":"levelo://app?vid=f0f8af8e-b37c-4577-a443-480fc48243c0"},"vehicle_type_id":"4","last_reported":1678259235,"current_range_meters":12000,"station_id":"ce4bhqh2rcd13ifvqhmg","pricing_plan_id":"free"},{"bike_id":"d495b16e-adfe-43c0-9fa9-b90d7a6a68af","system_id":"levelo_inurba_marseille","lat":43.33612,"lon":5.410321,"is_reserved":false,"is_disabled":false,"rental_uris":{"android":"levelo://app?vid=d495b16e-adfe-43c0-9fa9-b90d7a6a68af","ios":"levelo://app?vid=d495b16e-adfe-43c0-9fa9-b90d7a6a68af"},"vehicle_type_id":"4","last_reported":1678259235,"current_range_meters":2000,"station_id":"ce4bhqh2rcd13ifvqhmg","pricing_plan_id":"free"},{"bike_id":"1259016e-2a08-433a-a0f5-821b5f536859","system_id":"levelo_inurba_marseille","lat":43.33612,"lon":5.410321,"is_reserved":false,"is_disabled":false,"rental_uris":{"android":"levelo://app?vid=1259016e-2a08-433a-a0f5-821b5f536859","ios":"levelo://app?vid=1259016e-2a08-433a-a0f5-821b5f536859"},"vehicle_type_id":"4","last_reported":1678259235,"current_range_meters":22000,"station_id":"ce4bhqh2rcd13ifvqhmg","pricing_plan_id":"free"},{"bike_id":"d269768d-ec87-42da-a4ff-0bb5b596c66c","system_id":"levelo_inurba_marseille","lat":43.3361,"lon":5.41029,"is_reserved":false,"is_disabled":false,"rental_uris":{"android":"levelo://app?vid=d269768d-ec87-42da-a4ff-0bb5b596c66c","ios":"levelo://app?vid=d269768d-ec87-42da-a4ff-0bb5b596c66c"},"vehicle_type_id":"4","last_reported":1678259235,"current_range_meters":12000,"station_id":"","pricing_plan_id":"free"},{"bike_id":"8410146e-bbca-4603-b549-3495e7115207","system_id":"levelo_inurba_marseille","lat":43.317121,"lon":5.423936,"is_reserved":false,"is_disabled":false,"rental_uris":{"android":"levelo://app?vid=8410146e-bbca-4603-b549-3495e7115207","ios":"levelo://app?vid=8410146e-bbca-4603-b549-3495e7115207"},"vehicle_type_id":"4","last_reported":1678259235,"current_range_meters":28400,"station_id":"ce4bhp92rcd13ifvqhbg","pricing_plan_id":"free"},{"bike_id":"91eaa121-f6fc-429c-927e-5f02f4f485a9","system_id":"levelo_inurba_marseille","lat":43.317121,"lon":5.423936,"is_reserved":false,"is_disabled":false,"rental_uris":{"android":"levelo://app?vid=91eaa121-f6fc-429c-927e-5f02f4f485a9","ios":"levelo://app?vid=91eaa121-f6fc-429c-927e-5f02f4f485a9"},"vehicle_type_id":"4","last_reported":1678259235,"current_range_meters":22400,"station_id":"ce4bhp92rcd13ifvqhbg","pricing_plan_id":"free"},{"bike_id":"fd1ec68a-7d41-4d7d-8ede-cb52b0dacd1f","system_id":"levelo_inurba_marseille","lat":43.330172,"lon":5.419092,"is_reserved":false,"is_disabled":false,"rental_uris":{"android":"levelo://app?vid=fd1ec68a-7d41-4d7d-8ede-cb52b0dacd1f","ios":"levelo://app?vid=fd1ec68a-7d41-4d7d-8ede-cb52b0dacd1f"},"vehicle_type_id":"4","last_reported":1678259235,"current_range_meters":0,"station_id":"","pricing_plan_id":"free"},{"bike_id":"e9c5949a-ede5-44c0-9df0-6ffe877b98fb","system_id":"levelo_inurba_marseille","lat":43.31092,"lon":5.42427,"is_reserved":false,"is_disabled":false,"rental_uris":{"android":"levelo://app?vid=e9c5949a-ede5-44c0-9df0-6ffe877b98fb","ios":"levelo://app?vid=e9c5949a-ede5-44c0-9df0-6ffe877b98fb"},"vehicle_type_id":"4","last_reported":1678259235,"current_range_meters":23600,"station_id":"ce4bhp92rcd13ifvqhag","pricing_plan_id":"free"},{"bike_id":"d66d215f-4be2-463f-813a-4c41d0a10b20","system_id":"levelo_inurba_marseille","lat":43.317121,"lon":5.423936,"is_reserved":false,"is_disabled":false,"rental_uris":{"android":"levelo://app?vid=d66d215f-4be2-463f-813a-4c41d0a10b20","ios":"levelo://app?vid=d66d215f-4be2-463f-813a-4c41d0a10b20"},"vehicle_type_id":"4","last_reported":1678259235,"current_range_meters":31600,"station_id":"ce4bhp92rcd13ifvqhbg","pricing_plan_id":"free"},{"bike_id":"4cba71a6-8c0c-49e8-ada6-4e1721bebb00","system_id":"levelo_inurba_marseille","lat":43.317121,"lon":5.423936,"is_reserved":false,"is_disabled":false,"rental_uris":{"android":"levelo://app?vid=4cba71a6-8c0c-49e8-ada6-4e1721bebb00","ios":"levelo://app?vid=4cba71a6-8c0c-49e8-ada6-4e1721bebb00"},"vehicle_type_id":"4","last_reported":1678259235,"current_range_meters":25200,"station_id":"ce4bhp92rcd13ifvqhbg","pricing_plan_id":"free"},{"bike_id":"ba25d3fc-5a08-48e3-b4e0-999837d33296","system_id":"levelo_inurba_marseille","lat":43.317121,"lon":5.423936,"is_reserved":false,"is_disabled":false,"rental_uris":{"android":"levelo://app?vid=ba25d3fc-5a08-48e3-b4e0-999837d33296","ios":"levelo://app?vid=ba25d3fc-5a08-48e3-b4e0-999837d33296"},"vehicle_type_id":"4","last_reported":1678259235,"current_range_meters":28400,"station_id":"ce4bhp92rcd13ifvqhbg","pricing_plan_id":"free"},{"bike_id":"db282da2-e413-416b-bd70-3e5de802a418","system_id":"levelo_inurba_marseille","lat":43.2778,"lon":5.39899,"is_reserved":false,"is_disabled":false,"rental_uris":{"android":"levelo://app?vid=db282da2-e413-416b-bd70-3e5de802a418","ios":"levelo://app?vid=db282da2-e413-416b-bd70-3e5de802a418"},"vehicle_type_id":"4","last_reported":1678259235,"current_range_meters":24800,"station_id":"ce4bgvp2rcd13ifvqcu0","pricing_plan_id":"free"},{"bike_id":"bb4ee4c1-67a6-431f-86ad-77050c1954ea","system_id":"levelo_inurba_marseille","lat":43.273222,"lon":5.39099,"is_reserved":false,"is_disabled":false,"rental_uris":{"android":"levelo://app?vid=bb4ee4c1-67a6-431f-86ad-77050c1954ea","ios":"levelo://app?vid=bb4ee4c1-67a6-431f-86ad-77050c1954ea"},"vehicle_type_id":"4","last_reported":1678259235,"current_range_meters":0,"station_id":"","pricing_plan_id":"free"},{"bike_id":"4321e25f-456e-41af-9f89-78ad8e2fc066","system_id":"levelo_inurba_marseille","lat":43.304096,"lon":5.425385,"is_reserved":false,"is_disabled":false,"rental_uris":{"android":"levelo://app?vid=4321e25f-456e-41af-9f89-78ad8e2fc066","ios":"levelo://app?vid=4321e25f-456e-41af-9f89-78ad8e2fc066"},"vehicle_type_id":"4","last_reported":1678259235,"current_range_meters":24000,"station_id":"ce4bhoh2rcd13ifvqh6g","pricing_plan_id":"free"},{"bike_id":"bc2d6a3d-3f29-4fd1-b65d-efdafa9c08c0","system_id":"levelo_inurba_marseille","lat":43.304096,"lon":5.425385,"is_reserved":false,"is_disabled":false,"rental_uris":{"android":"levelo://app?vid=bc2d6a3d-3f29-4fd1-b65d-efdafa9c08c0","ios":"levelo://app?vid=bc2d6a3d-3f29-4fd1-b65d-efdafa9c08c0"},"vehicle_type_id":"4","last_reported":1678259235,"current_range_meters":16400,"station_id":"ce4bhoh2rcd13ifvqh6g","pricing_plan_id":"free"},{"bike_id":"deb467c2-ffdb-486b-84ad-69d00a23860f","system_id":"levelo_inurba_marseille","lat":43.304212,"lon":5.425682,"is_reserved":false,"is_disabled":false,"rental_uris":{"android":"levelo://app?vid=deb467c2-ffdb-486b-84ad-69d00a23860f","ios":"levelo://app?vid=deb467c2-ffdb-486b-84ad-69d00a23860f"},"vehicle_type_id":"4","last_reported":1678259235,"current_range_meters":17600,"station_id":"","pricing_plan_id":"free"},{"bike_id":"14cbee55-2e29-42bf-911a-f4fa030ef986","system_id":"levelo_inurba_marseille","lat":43.295523,"lon":5.422926,"is_reserved":false,"is_disabled":false,"rental_uris":{"android":"levelo://app?vid=14cbee55-2e29-42bf-911a-f4fa030ef986","ios":"levelo://app?vid=14cbee55-2e29-42bf-911a-f4fa030ef986"},"vehicle_type_id":"4","last_reported":1678259235,"current_range_meters":28000,"station_id":"ce4bhph2rcd13ifvqhdg","pricing_plan_id":"free"},{"bike_id":"fb32d776-6131-4317-b360-0d7bd3c43f57","system_id":"levelo_inurba_marseille","lat":43.29555,"lon":5.42292,"is_reserved":false,"is_disabled":false,"rental_uris":{"android":"levelo://app?vid=fb32d776-6131-4317-b360-0d7bd3c43f57","ios":"levelo://app?vid=fb32d776-6131-4317-b360-0d7bd3c43f57"},"vehicle_type_id":"4","last_reported":1678259235,"current_range_meters":18400,"station_id":"ce4bhph2rcd13ifvqhdg","pricing_plan_id":"free"},{"bike_id":"9fae2e36-5976-4e5e-815d-7f8a66752348","system_id":"levelo_inurba_marseille","lat":43.26952,"lon":5.38632,"is_reserved":false,"is_disabled":false,"rental_uris":{"android":"levelo://app?vid=9fae2e36-5976-4e5e-815d-7f8a66752348","ios":"levelo://app?vid=9fae2e36-5976-4e5e-815d-7f8a66752348"},"vehicle_type_id":"4","last_reported":1678259235,"current_range_meters":0,"station_id":"ce4bhh92rcd13ifvqfh0","pricing_plan_id":"free"},{"bike_id":"e570bbbb-e853-4e3d-a0ed-6200bb3c363d","system_id":"levelo_inurba_marseille","lat":43.269319,"lon":5.389397,"is_reserved":false,"is_disabled":false,"rental_uris":{"android":"levelo://app?vid=e570bbbb-e853-4e3d-a0ed-6200bb3c363d","ios":"levelo://app?vid=e570bbbb-e853-4e3d-a0ed-6200bb3c363d"},"vehicle_type_id":"4","last_reported":1678259235,"current_range_meters":31200,"station_id":"ce4bhhh2rcd13ifvqfl0","pricing_plan_id":"free"},{"bike_id":"6addd717-c191-43ed-a44a-2f0d67ea95c7","system_id":"levelo_inurba_marseille","lat":43.338761,"lon":5.420658,"is_reserved":false,"is_disabled":false,"rental_uris":{"android":"levelo://app?vid=6addd717-c191-43ed-a44a-2f0d67ea95c7","ios":"levelo://app?vid=6addd717-c191-43ed-a44a-2f0d67ea95c7"},"vehicle_type_id":"4","last_reported":1678259235,"current_range_meters":0,"station_id":"","pricing_plan_id":"free"},{"bike_id":"f32e0eb5-ec8b-4771-8362-aa32a77c73ab","system_id":"levelo_inurba_marseille","lat":43.26681,"lon":5.382694,"is_reserved":false,"is_disabled":false,"rental_uris":{"android":"levelo://app?vid=f32e0eb5-ec8b-4771-8362-aa32a77c73ab","ios":"levelo://app?vid=f32e0eb5-ec8b-4771-8362-aa32a77c73ab"},"vehicle_type_id":"4","last_reported":1678259235,"current_range_meters":28000,"station_id":"ce4bhg92rcd13ifvqf90","pricing_plan_id":"free"},{"bike_id":"8f1d66d3-2152-4b93-b0d9-7b45b4ff34c6","system_id":"levelo_inurba_marseille","lat":43.26681,"lon":5.382694,"is_reserved":false,"is_disabled":false,"rental_uris":{"android":"levelo://app?vid=8f1d66d3-2152-4b93-b0d9-7b45b4ff34c6","ios":"levelo://app?vid=8f1d66d3-2152-4b93-b0d9-7b45b4ff34c6"},"vehicle_type_id":"4","last_reported":1678259235,"current_range_meters":31200,"station_id":"ce4bhg92rcd13ifvqf90","pricing_plan_id":"free"},{"bike_id":"b74b0996-afc0-41b3-afea-b71136c1f42e","system_id":"levelo_inurba_marseille","lat":43.26681,"lon":5.382694,"is_reserved":false,"is_disabled":false,"rental_uris":{"android":"levelo://app?vid=b74b0996-afc0-41b3-afea-b71136c1f42e","ios":"levelo://app?vid=b74b0996-afc0-41b3-afea-b71136c1f42e"},"vehicle_type_id":"4","last_reported":1678259235,"current_range_meters":25200,"station_id":"ce4bhg92rcd13ifvqf90","pricing_plan_id":"free"},{"bike_id":"16f3b21c-bed2-48d8-ab4f-af912be7421a","system_id":"levelo_inurba_marseille","lat":43.279964,"lon":5.416627,"is_reserved":false,"is_disabled":false,"rental_uris":{"android":"levelo://app?vid=16f3b21c-bed2-48d8-ab4f-af912be7421a","ios":"levelo://app?vid=16f3b21c-bed2-48d8-ab4f-af912be7421a"},"vehicle_type_id":"4","last_reported":1678259235,"current_range_meters":0,"station_id":"","pricing_plan_id":"free"},{"bike_id":"b4a5fa7f-002c-4bbf-9b09-abfee2f3507b","system_id":"levelo_inurba_marseille","lat":43.284929,"lon":5.422229,"is_reserved":false,"is_disabled":false,"rental_uris":{"android":"levelo://app?vid=b4a5fa7f-002c-4bbf-9b09-abfee2f3507b","ios":"levelo://app?vid=b4a5fa7f-002c-4bbf-9b09-abfee2f3507b"},"vehicle_type_id":"4","last_reported":1678259235,"current_range_meters":0,"station_id":"","pricing_plan_id":"free"},{"bike_id":"22f9fca2-0235-4e4b-a875-aae83fea6ed3","system_id":"levelo_inurba_marseille","lat":43.267966,"lon":5.393976,"is_reserved":false,"is_disabled":false,"rental_uris":{"android":"levelo://app?vid=22f9fca2-0235-4e4b-a875-aae83fea6ed3","ios":"levelo://app?vid=22f9fca2-0235-4e4b-a875-aae83fea6ed3"},"vehicle_type_id":"4","last_reported":1678259235,"current_range_meters":0,"station_id":"ce4bhh12rcd13ifvqfg0","pricing_plan_id":"free"},{"bike_id":"90e89ccd-738c-46a8-8552-dfa4854a78ff","system_id":"levelo_inurba_marseille","lat":43.308051,"lon":5.43527,"is_reserved":false,"is_disabled":false,"rental_uris":{"android":"levelo://app?vid=90e89ccd-738c-46a8-8552-dfa4854a78ff","ios":"levelo://app?vid=90e89ccd-738c-46a8-8552-dfa4854a78ff"},"vehicle_type_id":"4","last_reported":1678259235,"current_range_meters":26000,"station_id":"ce4bhph2rcd13ifvqheg","pricing_plan_id":"free"},