{"last_updated":1687982881,"ttl":30,"version":"2.2","data":{"bikes":[{"bike_id":"e8ea209d-5ffe-416e-a500-0596670f4838","system_id":"levelo_inurba_marseille","lat":43.312239,"lon":5.368562,"is_reserved":false,"is_disabled":false,"rental_uris":{"android":"levelo://app?vid=e8ea209d-5ffe-416e-a500-0596670f4838","ios":"levelo://app?vid=e8ea209d-5ffe-416e-a500-0596670f4838"},"vehicle_type_id":"4","last_reported":1687982881,"current_range_meters":16800,"station_id":"ce4bgl92rcd13ifvqbq0","pricing_plan_id":"free"},{"bike_id":"666c1415-28e9-4944-87f5-29a628446c75","system_id":"levelo_inurba_marseille","lat":43.312239,"lon":5.368562,"is_reserved":false,"is_disabled":false,"rental_uris":{"android":"levelo://app?vid=666c1415-28e9-4944-87f5-29a628446c75","ios":"levelo://app?vid=666c1415-28e9-4944-87f5-29a628446c75"},"vehicle_type_id":"4","last_reported":1687982881,"current_range_meters":31200,"station_id":"ce4bgl92rcd13ifvqbq0","pricing_plan_id":"free"},{"bike_id":"b47242af-9788-438a-baf0-002a9a09b0fb","system_id":"levelo_inurba_marseille","lat":43.314811,"lon":5.373103,"is_reserved":false,"is_disabled":false,"rental_uris":{"android":"levelo://app?vid=b47242af-9788-438a-baf0-002a9a09b0fb","ios":"levelo://app?vid=b47242af-9788-438a-baf0-002a9a09b0fb"},"vehicle_type_id":"4","last_reported":1687982881,"current_range_meters":0,"station_id":"ce4bgt12rcd13ifvqcd0","pricing_plan_id":"free"},{"bike_id":"a85ccae9-3446-4cb1-b108-4d59f3541d0f","system_id":"levelo_inurba_marseille","lat":43.31498,"lon":5.37305,"is_reserved":false,"is_disabled":false,"rental_uris":{"android":"levelo://app?vid=a85ccae9-3446-4cb1-b108-4d59f3541d0f","ios":"levelo://app?vid=a85ccae9-3446-4cb1-b108-4d59f3541d0f"},"vehicle_type_id":"4","last_reported":1687982881,"current_range_meters":20400,"station_id":"ce4bgt12rcd13ifvqcd0","pricing_plan_id":"free"},{"bike_id":"826f7ca7-b029-4d3b-af60-7075566ddcbd","system_id":"levelo_inurba_marseille","lat":43.305989,"lon":5.37225,"is_reserved":false,"is_disabled":false,"rental_uris":{"android":"levelo://app?vid=826f7ca7-b029-4d3b-af60-7075566ddcbd","ios":"levelo://app?vid=826f7ca7-b029-4d3b-af60-7075566ddcbd"},"vehicle_type_id":"4","last_reported":1687982881,"current_range_meters":7200,"station_id":"ce4bgqh2rcd13ifvqc4g","pricing_plan_id":"free"},{"bike_id":"ddaf1801-b153-4d90-b63e-af4f7d9b9af3","system_id":"levelo_inurba_marseille","lat":43.315289,"lon":5.380349,"is_reserved":false,"is_disabled":false,"rental_uris":{"android":"levelo://app?vid=ddaf1801-b153-4d90-b63e-af4f7d9b9af3","ios":"levelo://app?vid=ddaf1801-b153-4d90-b63e-af4f7d9b9af3"},"vehicle_type_id":"4","last_reported":1687982881,"current_range_meters":27200,"station_id":"ce4bhsp2rcd13ifvqi50","pricing_plan_id":"free"},{"bike_id":"c9f7237a-1d4b-4aaf-a0eb-25a39b32afdd","system_id":"levelo_inurba_marseille","lat":43.301939,"lon":5.366286,"is_reserved":false,"is_disabled":false,"rental_uris":{"android":"levelo://app?vid=c9f7237a-1d4b-4aaf-a0eb-25a39b32afdd","ios":"levelo://app?vid=c9f7237a-1d4b-4aaf-a0eb-25a39b32afdd"},"vehicle_type_id":"4","last_reported":1687982881,"current_range_meters":0,"station_id":"ce4bgrh2rcd13ifvqc8g","pricing_plan_id":"free"},{"bike_id":"781f2694-5ee6-4efc-9eca-f15c13ae5d25","system_id":"levelo_inurba_marseille","lat":43.302784,"lon":5.377158,"is_reserved":false,"is_disabled":false,"rental_uris":{"android":"levelo://app?vid=781f2694-5ee6-4efc-9eca-f15c13ae5d25","ios":"levelo://app?vid=781f2694-5ee6-4efc-9eca-f15c13ae5d25"},"vehicle_type_id":"4","last_reported":1687982881,"current_range_meters":2000,"station_id":"ce4bguh2rcd13ifvqcj0","pricing_plan_id":"free"},{"bike_id":"7043d29c-9857-4293-af6f-871ced6ffaab","system_id":"levelo_inurba_marseille","lat":43.30141,"lon":5.37415,"is_reserved":false,"is_disabled":false,"rental_uris":{"android":"levelo://app?vid=7043d29c-9857-4293-af6f-871ced6ffaab","ios":"levelo://app?vid=7043d29c-9857-4293-af6f-871ced6ffaab"},"vehicle_type_id":"4","last_reported":1687982881,"current_range_meters":23200,"station_id":"ce4bgs92rcd13ifvqcc0","pricing_plan_id":"free"},{"bike_id":"daecebfc-eba8-4c84-9d2b-25a48f8955bd","system_id":"levelo_inurba_marseille","lat":43.3014,"lon":5.37418,"is_reserved":false,"is_disabled":false,"rental_uris":{"android":"levelo://app?vid=daecebfc-eba8-4c84-9d2b-25a48f8955bd","ios":"levelo://app?vid=daecebfc-eba8-4c84-9d2b-25a48f8955bd"},"vehicle_type_id":"4","last_reported":1687982881,"current_range_meters":8400,"station_id":"ce4bgs92rcd13ifvqcc0","pricing_plan_id":"free"},{"bike_id":"a782912a-4d03-4852-97d5-146616213f31","system_id":"levelo_inurba_marseille","lat":43.302784,"lon":5.377158,"is_reserved":false,"is_disabled":false,"rental_uris":{"android":"levelo://app?vid=a782912a-4d03-4852-97d5-146616213f31","ios":"levelo://app?vid=a782912a-4d03-4852-97d5-146616213f31"},"vehicle_type_id":"4","last_reported":1687982881,"current_range_meters":29200,"station_id":"ce4bguh2rcd13ifvqcj0","pricing_plan_id":"free"},{"bike_id":"f8c18d93-457f-419c-a999-1294a8c4abd8","system_id":"levelo_inurba_marseille","lat":43.299222,"lon":5.365554,"is_reserved":false,"is_disabled":false,"rental_uris":{"android":"levelo://app?vid=f8c18d93-457f-419c-a999-1294a8c4abd8","ios":"levelo://app?vid=f8c18d93-457f-419c-a999-1294a8c4abd8"},"vehicle_type_id":"4","last_reported":1687982881,"current_range_meters":8800,"station_id":"ce4bgm92rcd13ifvqbr0","pricing_plan_id":"free"},{"bike_id":"1afdc674-4cbf-4f9c-82a4-dcdd6f847d31","system_id":"levelo_inurba_marseille","lat":43.305364,"lon":5.384119,"is_reserved":false,"is_disabled":false,"rental_uris":{"android":"levelo://app?vid=1afdc674-4cbf-4f9c-82a4-dcdd6f847d31","ios":"levelo://app?vid=1afdc674-4cbf-4f9c-82a4-dcdd6f847d31"},"vehicle_type_id":"4","last_reported":1687982881,"current_range_meters":17200,"station_id":"ce4bgg92rcd13ifvqb30","pricing_plan_id":"free"},{"bike_id":"673b7885-0b25-43ec-8402-cbefecdf753d","system_id":"levelo_inurba_marseille","lat":43.298433,"lon":5.362774,"is_reserved":false,"is_disabled":false,"rental_uris":{"android":"levelo://app?vid=673b7885-0b25-43ec-8402-cbefecdf753d","ios":"levelo://app?vid=673b7885-0b25-43ec-8402-cbefecdf753d"},"vehicle_type_id":"4","last_reported":1687982881,"current_range_meters":19600,"station_id":"ce4bgpp2rcd13ifvqc3g","pricing_plan_id":"free"},{"bike_id":"41935205-08bf-4bb4-a2ea-f2df7ff5de88","system_id":"levelo_inurba_marseille","lat":43.305364,"lon":5.384119,"is_reserved":false,"is_disabled":false,"rental_uris":{"android":"levelo://app?vid=41935205-08bf-4bb4-a2ea-f2df7ff5de88","ios":"levelo://app?vid=41935205-08bf-4bb4-a2ea-f2df7ff5de88"},"vehicle_type_id":"4","last_reported":1687982881,"current_range_meters":17600,"station_id":"ce4bgg92rcd13ifvqb30","pricing_plan_id":"free"},{"bike_id":"afcec4a0-8c1d-462d-828f-7bced88ba65c","system_id":"levelo_inurba_marseille","lat":43.298433,"lon":5.362774,"is_reserved":false,"is_disabled":false,"rental_uris":{"android":"levelo://app?vid=afcec4a0-8c1d-462d-828f-7bced88ba65c","ios":"levelo://app?vid=afcec4a0-8c1d-462d-828f-7bced88ba65c"},"vehicle_type_id":"4","last_reported":1687982881,"current_range_meters":30400,"station_id":"ce4bgpp2rcd13ifvqc3g","pricing_plan_id":"free"},{"bike_id":"d5c13ace-85fe-47f7-adea-13d0ae7bc4b2","system_id":"levelo_inurba_marseille","lat":43.305364,"lon":5.384119,"is_reserved":false,"is_disabled":false,"rental_uris":{"android":"levelo://app?vid=d5c13ace-85fe-47f7-adea-13d0ae7bc4b2","ios":"levelo://app?vid=d5c13ace-85fe-47f7-adea-13d0ae7bc4b2"},"vehicle_type_id":"4","last_reported":1687982881,"current_range_meters":16400,"station_id":"ce4bgg92rcd13ifvqb30","pricing_plan_id":"free"},{"bike_id":"413da333-c018-4e7b-b025-828e342ac8bb","system_id":"levelo_inurba_marseille","lat":43.298433,"lon":5.362774,"is_reserved":false,"is_disabled":false,"rental_uris":{"android":"levelo://app?vid=413da333-c018-4e7b-b025-828e342ac8bb","ios":"levelo://app?vid=413da333-c018-4e7b-b025-828e342ac8bb"},"vehicle_type_id":"4","last_reported":1687982881,"current_range_meters":0,"station_id":"ce4bgpp2rcd13ifvqc3g","pricing_plan_id":"free"},{"bike_id":"4a13380d-3388-4271-b9a1-94d2ab1bec69","system_id":"levelo_inurba_marseille","lat":43.298433,"lon":5.362774,"is_reserved":false,"is_disabled":false,"rental_uris":{"android":"levelo://app?vid=4a13380d-3388-4271-b9a1-94d2ab1bec69","ios":"levelo://app?vid=4a13380d-3388-4271-b9a1-94d2ab1bec69"},"vehicle_type_id":"4","last_reported":1687982881,"current_range_meters":24400,"station_id":"ce4bgpp2rcd13ifvqc3g","pricing_plan_id":"free"},{"bike_id":"e0d0291c-ec75-41db-a9f0-126642f983d8","system_id":"levelo_inurba_marseille","lat":43.29843,"lon":5.36267,"is_reserved":false,"is_disabled":false,"rental_uris":{"android":"levelo://app?vid=e0d0291c-ec75-41db-a9f0-126642f983d8","ios":"levelo://app?vid=e0d0291c-ec75-41db-a9f0-126642f983d8"},"vehicle_type_id":"4","last_reported":1687982881,"current_range_meters":15600,"station_id":"ce4bgpp2rcd13ifvqc3g","pricing_plan_id":"free"},{"bike_id":"0bd798ff-f9de-41c0-b39f-1c23ff58795b","system_id":"levelo_inurba_marseille","lat":43.29841,"lon":5.36264,"is_reserved":false,"is_disabled":false,"rental_uris":{"android":"levelo://app?vid=0bd798ff-f9de-41c0-b39f-1c23ff58795b","ios":"levelo://app?vid=0bd798ff-f9de-41c0-b39f-1c23ff58795b"},"vehicle_type_id":"4","last_reported":1687982881,"current_range_meters":4400,"station_id":"ce4bgpp2rcd13ifvqc3g","pricing_plan_id":"free"},{"bike_id":"ffb24939-c01e-43fb-9a7e-48251abac925","system_id":"levelo_inurba_marseille","lat":43.311722,"lon":5.387247,"is_reserved":false,"is_disabled":false,"rental_uris":{"android":"levelo://app?vid=ffb24939-c01e-43fb-9a7e-48251abac925","ios":"levelo://app?vid=ffb24939-c01e-43fb-9a7e-48251abac925"},"vehicle_type_id":"4","last_reported":1687982881,"current_range_meters":5600,"station_id":"ce4bgv12rcd13ifvqcp0","pricing_plan_id":"free"},{"bike_id":"789d17c1-5e4a-47c8-8579-e7e32b5f77ea","system_id":"levelo_inurba_marseille","lat":43.311722,"lon":5.387247,"is_reserved":false,"is_disabled":false,"rental_uris":{"android":"levelo://app?vid=789d17c1-5e4a-47c8-8579-e7e32b5f77ea","ios":"levelo://app?vid=789d17c1-5e4a-47c8-8579-e7e32b5f77ea"},"vehicle_type_id":"4","last_reported":1687982881,"current_range_meters":12400,"station_id":"ce4bgv12rcd13ifvqcp0","pricing_plan_id":"free"},{"bike_id":"7c098f19-bbc5-4f21-9f5f-590190b5b7d1","system_id":"levelo_inurba_marseille","lat":43.311722,"lon":5.387247,"is_reserved":false,"is_disabled":false,"rental_uris":{"android":"levelo://app?vid=7c098f19-bbc5-4f21-9f5f-590190b5b7d1","ios":"levelo://app?vid=7c098f19-bbc5-4f21-9f5f-590190b5b7d1"},"vehicle_type_id":"4","last_reported":1687982881,"current_range_meters":6400,"station_id":"ce4bgv12rcd13ifvqcp0","pricing_plan_id":"free"},{"bike_id":"b4ed7cdd-2317-41af-b030-bef9f1f5ba7a","system_id":"levelo_inurba_marseille","lat":43.311722,"lon":5.387247,"is_reserved":false,"is_disabled":false,"rental_uris":{"android":"levelo://app?vid=b4ed7cdd-2317-41af-b030-bef9f1f5ba7a","ios":"levelo://app?vid=b4ed7cdd-2317-41af-b030-bef9f1f5ba7a"},"vehicle_type_id":"4","last_reported":1687982881,"current_range_meters":28000,"station_id":"ce4bgv12rcd13ifvqcp0","pricing_plan_id":"free"},{"bike_id":"f552bc11-4563-4f5e-9ee7-f09fd37f2d7b","system_id":"levelo_inurba_marseille","lat":43.299243,"lon":5.37481,"is_reserved":false,"is_disabled":false,"rental_uris":{"android":"levelo://app?vid=f552bc11-4563-4f5e-9ee7-f09fd37f2d7b","ios":"levelo://app?vid=f552bc11-4563-4f5e-9ee7-f09fd37f2d7b"},"vehicle_type_id":"4","last_reported":1687982881,"current_range_meters":7600,"station_id":"ce4bgjh2rcd13ifvqbg0","pricing_plan_id":"free"},{"bike_id":"373a1eaa-eac3-475f-acf7-f8b60349e28e","system_id":"levelo_inurba_marseille","lat":43.311722,"lon":5.387247,"is_reserved":false,"is_disabled":false,"rental_uris":{"android":"levelo://app?vid=373a1eaa-eac3-475f-acf7-f8b60349e28e","ios":"levelo://app?vid=373a1eaa-eac3-475f-acf7-f8b60349e28e"},"vehicle_type_id":"4","last_reported":1687982881,"current_range_meters":23600,"station_id":"ce4bgv12rcd13ifvqcp0","pricing_plan_id":"free"},{"bike_id":"1acd8146-33c8-4f91-ba37-de96e801bf02","system_id":"levelo_inurba_marseille","lat":43.311722,"lon":5.387247,"is_reserved":false,"is_disabled":false,"rental_uris":{"android":"levelo://app?vid=1acd8146-33c8-4f91-ba37-de96e801bf02","ios":"levelo://app?vid=1acd8146-33c8-4f91-ba37-de96e801bf02"},"vehicle_type_id":"4","last_reported":1687982881,"current_range_meters":5600,"station_id":"ce4bgv12rcd13ifvqcp0","pricing_plan_id":"free"},{"bike_id":"30161033-b0a7-4d39-b636-379273433cf7","system_id":"levelo_inurba_marseille","lat":43.299243,"lon":5.374807,"is_reserved":false,"is_disabled":false,"rental_uris":{"android":"levelo://app?vid=30161033-b0a7-4d39-b636-379273433cf7","ios":"levelo://app?vid=30161033-b0a7-4d39-b636-379273433cf7"},"vehicle_type_id":"4","last_reported":1687982881,"current_range_meters":20400,"station_id":"ce4bgjh2rcd13ifvqbg0","pricing_plan_id":"free"},{"bike_id":"86b9fb7f-a2c3-4082-9faa-7e3f901f5c30","system_id":"levelo_inurba_marseille","lat":43.328371,"lon":5.366909,"is_reserved":false,"is_disabled":false,"rental_uris":{"android":"levelo://app?vid=86b9fb7f-a2c3-4082-9faa-7e3f901f5c30","ios":"levelo://app?vid=86b9fb7f-a2c3-4082-9faa-7e3f901f5c30"},"vehicle_type_id":"4","last_reported":1687982881,"current_range_meters":19200,"station_id":"ce4bhs92rcd13ifvqi0g","pricing_plan_id":"free"},{"bike_id":"07fc5e4e-23c0-4e7f-baff-848452f6a527","system_id":"levelo_inurba_marseille","lat":43.32825,"lon":5.36695,"is_reserved":false,"is_disabled":false,"rental_uris":{"android":"levelo://app?vid=07fc5e4e-23c0-4e7f-baff-848452f6a527","ios":"levelo://app?vid=07fc5e4e-23c0-4e7f-baff-848452f6a527"},"vehicle_type_id":"4","last_reported":1687982881,"current_range_meters":21600,"station_id":"ce4bhs92rcd13ifvqi0g","pricing_plan_id":"free"},{"bike_id":"6582f173-7b2c-4a42-844c-19148b9fbe1b","system_id":"levelo_inurba_marseille","lat":43.328371,"lon":5.366909,"is_reserved":false,"is_disabled":false,"rental_uris":{"android":"levelo://app?vid=6582f173-7b2c-4a42-844c-19148b9fbe1b","ios":"levelo://app?vid=6582f173-7b2c-4a42-844c-19148b9fbe1b"},"vehicle_type_id":"4","last_reported":1687982881,"current_range_meters":17600,"station_id":"ce4bhs92rcd13ifvqi0g","pricing_plan_id":"free"},{"bike_id":"74960633-2b88-4c2f-a74e-024991efb4ba","system_id":"levelo_inurba_marseille","lat":43.328371,"lon":5.366909,"is_reserved":false,"is_disabled":false,"rental_uris":{"android":"levelo://app?vid=74960633-2b88-4c2f-a74e-024991efb4ba","ios":"levelo://app?vid=74960633-2b88-4c2f-a74e-024991efb4ba"},"vehicle_type_id":"4","last_reported":1687982881,"current_range_meters":22800,"station_id":"ce4bhs92rcd13ifvqi0g","pricing_plan_id":"free"},{"bike_id":"aba24cac-9149-4a7e-be6a-f15d19b76734","system_id":"levelo_inurba_marseille","lat":43.3283,"lon":5.36692,"is_reserved":false,"is_disabled":false,"rental_uris":{"android":"levelo://app?vid=aba24cac-9149-4a7e-be6a-f15d19b76734","ios":"levelo://app?vid=aba24cac-9149-4a7e-be6a-f15d19b76734"},"vehicle_type_id":"4","last_reported":1687982881,"current_range_meters":800,"station_id":"ce4bhs92rcd13ifvqi0g","pricing_plan_id":"free"},{"bike_id":"4ad0820a-b4f0-4687-9297-85e68595ea74","system_id":"levelo_inurba_marseille","lat":43.328371,"lon":5.366909,"is_reserved":false,"is_disabled":false,"rental_uris":{"android":"levelo://app?vid=4ad0820a-b4f0-4687-9297-85e68595ea74","ios":"levelo://app?vid=4ad0820a-b4f0-4687-9297-85e68595ea74"},"vehicle_type_id":"4","last_reported":1687982881,"current_range_meters":15200,"station_id":"ce4bhs92rcd13ifvqi0g","pricing_plan_id":"free"},{"bike_id":"f6a4e009-83ee-4884-8d05-5714a9f59f73","system_id":"levelo_inurba_marseille","lat":43.32832,"lon":5.366974,"is_reserved":false,"is_disabled":false,"rental_uris":{"android":"levelo://app?vid=f6a4e009-83ee-4884-8d05-5714a9f59f73","ios":"levelo://app?vid=f6a4e009-83ee-4884-8d05-5714a9f59f73"},"vehicle_type_id":"4","last_reported":1687982881,"current_range_meters":4800,"station_id":"ce4bhs92rcd13ifvqi0g","pricing_plan_id":"free"},{"bike_id":"52c17931-f235-4280-a010-fb1d15e44b39","system_id":"levelo_inurba_marseille","lat":43.32832,"lon":5.3668,"is_reserved":false,"is_disabled":false,"rental_uris":{"android":"levelo://app?vid=52c17931-f235-4280-a010-fb1d15e44b39","ios":"levelo://app?vid=52c17931-f235-4280-a010-fb1d15e44b39"},"vehicle_type_id":"4","last_reported":1687982881,"current_range_meters":28000,"station_id":"ce4bhs92rcd13ifvqi0g","pricing_plan_id":"free"},{"bike_id":"5ee3206d-ca9e-4e81-9c86-a0bb0cbdcd9d","system_id":"levelo_inurba_marseille","lat":43.297163,"lon":5.365866,"is_reserved":false,"is_disabled":false,"rental_uris":{"android":"levelo://app?vid=5ee3206d-ca9e-4e81-9c86-a0bb0cbdcd9d","ios":"levelo://app?vid=5ee3206d-ca9e-4e81-9c86-a0bb0cbdcd9d"},"vehicle_type_id":"4","last_reported":1687982881,"current_range_meters":29200,"station_id":"ce4bgn12rcd13ifvqbt0","pricing_plan_id":"free"},{"bike_id":"8d98417a-cbe4-4269-8bc9-598373a7d5de","system_id":"levelo_inurba_marseille","lat":43.32867,"lon":5.363,"is_reserved":false,"is_disabled":false,"rental_uris":{"android":"levelo://app?vid=8d98417a-cbe4-4269-8bc9-598373a7d5de","ios":"levelo://app?vid=8d98417a-cbe4-4269-8bc9-598373a7d5de"},"vehicle_type_id":"4","last_reported":1687982881,"current_range_meters":1600,"station_id":"","pricing_plan_id":"free"},{"bike_id":"f3cd781e-ed5e-4114-ac29-7a31a7cef3fd","system_id":"levelo_inurba_marseille","lat":43.296131,"lon":5.370773,"is_reserved":false,"is_disabled":false,"rental_uris":{"android":"levelo://app?vid=f3cd781e-ed5e-4114-ac29-7a31a7cef3fd","ios":"levelo://app?vid=f3cd781e-ed5e-4114-ac29-7a31a7cef3fd"},"vehicle_type_id":"4","last_reported":1687982881,"current_range_meters":2800,"station_id":"ce4bgnh2rcd13ifvqc0g","pricing_plan_id":"free"},{"bike_id":"894f6cdc-5a4c-402a-9b30-13bfc3e69a4f","system_id":"levelo_inurba_marseille","lat":43.296039,"lon":5.371563,"is_reserved":false,"is_disabled":false,"rental_uris":{"android":"levelo://app?vid=894f6cdc-5a4c-402a-9b30-13bfc3e69a4f","ios":"levelo://app?vid=894f6cdc-5a4c-402a-9b30-13bfc3e69a4f"},"vehicle_type_id":"4","last_reported":1687982881,"current_range_meters":8800,"station_id":"","pricing_plan_id":"free"},{"bike_id":"59ca778f-b191-4ba5-aa5f-2b47f8f1cdd0","system_id":"levelo_inurba_marseille","lat":43.299028,"lon":5.381509,"is_reserved":false,"is_disabled":false,"rental_uris":{"android":"levelo://app?vid=59ca778f-b191-4ba5-aa5f-2b47f8f1cdd0","ios":"levelo://app?vid=59ca778f-b191-4ba5-aa5f-2b47f8f1cdd0"},"vehicle_type_id":"4","last_reported":1687982881,"current_range_meters":31200,"station_id":"ce4bgj12rcd13ifvqbc0","pricing_plan_id":"free"},{"bike_id":"4002d0b5-f3be-4568-87c1-0b154c2bbf31","system_id":"levelo_inurba_marseille","lat":43.299028,"lon":5.381509,"is_reserved":false,"is_disabled":false,"rental_uris":{"android":"levelo://app?vid=4002d0b5-f3be-4568-87c1-0b154c2bbf31","ios":"levelo://app?vid=4002d0b5-f3be-4568-87c1-0b154c2bbf31"},"vehicle_type_id":"4","last_reported":1687982881,"current_range_meters":3600,"station_id":"ce4bgj12rcd13ifvqbc0","pricing_plan_id":"free"},{"bike_id":"f66140d8-b6d1-4661-ad3b-6d04551fa01e","system_id":"levelo_inurba_marseille","lat":43.299028,"lon":5.381509,"is_reserved":false,"is_disabled":false,"rental_uris":{"android":"levelo://app?vid=f66140d8-b6d1-4661-ad3b-6d04551fa01e","ios":"levelo://app?vid=f66140d8-b6d1-4661-ad3b-6d04551fa01e"},"vehicle_type_id":"4","last_reported":1687982881,"current_range_meters":4000,"station_id":"ce4bgj12rcd13ifvqbc0","pricing_plan_id":"free"},{"bike_id":"bf1e798c-c8a8-4f51-9091-a54c02d4544b","system_id":"levelo_inurba_marseille","lat":43.309589,"lon":5.390258,"is_reserved":false,"is_disabled":false,"rental_uris":{"android":"levelo://app?vid=bf1e798c-c8a8-4f51-9091-a54c02d4544b","ios":"levelo://app?vid=bf1e798c-c8a8-4f51-9091-a54c02d4544b"},"vehicle_type_id":"4","last_reported":1687982881,"current_range_meters":0,"station_id":"ce4bgup2rcd13ifvqco0","pricing_plan_id":"free"},{"bike_id":"aa7666b1-f636-4796-b20e-0434ebb94ca6","system_id":"levelo_inurba_marseille","lat":43.309589,"lon":5.390258,"is_reserved":false,"is_disabled":false,"rental_uris":{"android":"levelo://app?vid=aa7666b1-f636-4796-b20e-0434ebb94ca6","ios":"levelo://app?vid=aa7666b1-f636-4796-b20e-0434ebb94ca6"},"vehicle_type_id":"4","last_reported":1687982881,"current_range_meters":22400,"station_id":"ce4bgup2rcd13ifvqco0","pricing_plan_id":"free"},{"bike_id":"1abfe572-1321-4fda-b0bc-86bf8f7064d4","system_id":"levelo_inurba_marseille","lat":43.290995,"lon":5.381361,"is_reserved":false,"is_disabled":false,"rental_uris":{"android":"levelo://app?vid=1abfe572-1321-4fda-b0bc-86bf8f7064d4","ios":"levelo://app?vid=1abfe572-1321-4fda-b0bc-86bf8f7064d4"},"vehicle_type_id":"4","last_reported":1687982881,"current_range_meters":5200,"station_id":"ce4bh512rcd13ifvqe2g","pricing_plan_id":"free"},{"bike_id":"87fe7ecc-58f3-4d60-a392-44f44f76d63a","system_id":"levelo_inurba_marseille","lat":43.317557,"lon":5.390173,"is_reserved":false,"is_disabled":false,"rental_uris":{"android":"levelo://app?vid=87fe7ecc-58f3-4d60-a392-44f44f76d63a","ios":"levelo://app?vid=87fe7ecc-58f3-4d60-a392-44f44f76d63a"},"vehicle_type_id":"4","last_reported":1687982881,"current_range_meters":23200,"station_id":"ce4bhqp2rcd13ifvqhng","pricing_plan_id":"free"},{"bike_id":"6e697468-4b87-48f1-bb0e-7028d9af6005","system_id":"levelo_inurba_marseille","lat":43.317557,"lon":5.390173,"is_reserved":false,"is_disabled":false,"rental_uris":{"android":"levelo://app?vid=6e697468-4b87-48f1-bb0e-7028d9af6005","ios":"levelo://app?vid=6e697468-4b87-48f1-bb0e-7028d9af6005"},"vehicle_type_id":"4","last_reported":1687982881,"current_range_meters":10000,"station_id":"ce4bhqp2rcd13ifvqhng","pricing_plan_id":"free"},{"bike_id":"a23ece68-c8bc-4030-a075-93a16187a3f8","system_id":"levelo_inurba_marseille","lat":43.317557,"lon":5.390173,"is_reserved":false,"is_disabled":false,"rental_uris":{"android":"levelo://app?vid=a23ece68-c8bc-4030-a075-93a16187a3f8","ios":"levelo://app?vid=a23ece68-c8bc-4030-a075-93a16187a3f8"},"vehicle_type_id":"4","last_reported":1687982881,"current_range_meters":5600,"station_id":"ce4bhqp2rcd13ifvqhng","pricing_plan_id":"free"},{"bike_id":"d8962691-8297-4c68-abb7-fe030e507a5a","system_id":"levelo_inurba_marseille","lat":43.317557,"lon":5.390173,"is_reserved":false,"is_disabled":false,"rental_uris":{"android":"levelo://app?vid=d8962691-8297-4c68-abb7-fe030e507a5a","ios":"levelo://app?vid=d8962691-8297-4c68-abb7-fe030e507a5a"},"vehicle_type_id":"4","last_reported":1687982881,"current_range_meters":26000,"station_id":"ce4bhqp2rcd13ifvqhng","pricing_plan_id":"free"},{"bike_id":"85dc18e1-dedd-449e-a51c-90ae514b182b","system_id":"levelo_inurba_marseille","lat":43.317557,"lon":5.390173,"is_reserved":false,"is_disabled":false,"rental_uris":{"android":"levelo://app?vid=85dc18e1-dedd-449e-a51c-90ae514b182b","ios":"levelo://app?vid=85dc18e1-dedd-449e-a51c-90ae514b182b"},"vehicle_type_id":"4","last_reported":1687982881,"current_range_meters":26000,"station_id":"ce4bhqp2rcd13ifvqhng","pricing_plan_id":"free"},{"bike_id":"b1cbe3ee-0992-48a9-8e7b-c2c8982a09fe","system_id":"levelo_inurba_marseille","lat":43.29794,"lon":5.38109,"is_reserved":false,"is_disabled":false,"rental_uris":{"android":"levelo://app?vid=b1cbe3ee-0992-48a9-8e7b-c2c8982a09fe","ios":"levelo://app?vid=b1cbe3ee-0992-48a9-8e7b-c2c8982a09fe"},"vehicle_type_id":"4","last_reported":1687982881,"current_range_meters":0,"station_id":"ce4bgip2rcd13ifvqbb0","pricing_plan_id":"free"},{"bike_id":"f331066a-08be-4476-9779-f7ea1cf8c2f1","system_id":"levelo_inurba_marseille","lat":43.296277,"lon":5.377108,"is_reserved":false,"is_disabled":false,"rental_uris":{"android":"levelo://app?vid=f331066a-08be-4476-9779-f7ea1cf8c2f1","ios":"levelo://app?vid=f331066a-08be-4476-9779-f7ea1cf8c2f1"},"vehicle_type_id":"4","last_reported":1687982881,"current_range_meters":400,"station_id":"ce4bgi92rcd13ifvqb90","pricing_plan_id":"free"},{"bike_id":"14d4581e-c414-4a34-a1d3-12281fcaa3ff","system_id":"levelo_inurba_marseille","lat":43.299707,"lon":5.384859,"is_reserved":false,"is_disabled":false,"rental_uris":{"android":"levelo://app?vid=14d4581e-c414-4a34-a1d3-12281fcaa3ff","ios":"levelo://app?vid=14d4581e-c414-4a34-a1d3-12281fcaa3ff"},"vehicle_type_id":"4","last_reported":1687982881,"current_range_meters":0,"station_id":"ce4bgj92rcd13ifvqbd0","pricing_plan_id":"free"},{"bike_id":"7b71ae74-1626-4757-9d9b-05dfaa153a79","system_id":"levelo_inurba_marseille","lat":43.299717,"lon":5.384845,"is_reserved":false,"is_disabled":false,"rental_uris":{"android":"levelo://app?vid=7b71ae74-1626-4757-9d9b-05dfaa153a79","ios":"levelo://app?vid=7b71ae74-1626-4757-9d9b-05dfaa153a79"},"vehicle_type_id":"4","last_reported":1687982881,"current_range_meters":6400,"station_id":"ce4bgj92rcd13ifvqbd0","pricing_plan_id":"free"},{"bike_id":"6047a7c6-8c97-46b2-8fe1-2c9b8980c374","system_id":"levelo_inurba_marseille","lat":43.32367,"lon":5.388836,"is_reserved":false,"is_disabled":false,"rental_uris":{"android":"levelo://app?vid=6047a7c6-8c97-46b2-8fe1-2c9b8980c374","ios":"levelo://app?vid=6047a7c6-8c97-46b2-8fe1-2c9b8980c374"},"vehicle_type_id":"4","last_reported":1687982881,"current_range_meters":4000,"station_id":"ce4bhqp2rcd13ifvqhog","pricing_plan_id":"free"},{"bike_id":"4b4e611d-1b21-4fe6-a41f-8225e3e3ac40","system_id":"levelo_inurba_marseille","lat":43.32367,"lon":5.388836,"is_reserved":false,"is_disabled":false,"rental_uris":{"android":"levelo://app?vid=4b4e611d-1b21-4fe6-a41f-8225e3e3ac40","ios":"levelo://app?vid=4b4e611d-1b21-4fe6-a41f-8225e3e3ac40"},"vehicle_type_id":"4","last_reported":1687982881,"current_range_meters":400,"station_id":"ce4bhqp2rcd13ifvqhog","pricing_plan_id":"free"},{"bike_id":"3b460742-8001-4680-8942-abbbe8bfcb64","system_id":"levelo_inurba_marseille","lat":43.32367,"lon":5.388836,"is_reserved":false,"is_disabled":false,"rental_uris":{"android":"levelo://app?vid=3b460742-8001-4680-8942-abbbe8bfcb64","ios":"levelo://app?vid=3b460742-8001-4680-8942-abbbe8bfcb64"},"vehicle_type_id":"4","last_reported":1687982881,"current_range_meters":24800,"station_id":"ce4bhqp2rcd13ifvqhog","pricing_plan_id":"free"},{"bike_id":"eb5d817d-b48a-410f-b93c-98bafcec3519","system_id":"levelo_inurba_marseille","lat":43.32367,"lon":5.388836,"is_reserved":false,"is_disabled":false,"rental_uris":{"android":"levelo://app?vid=eb5d817d-b48a-410f-b93c-98bafcec3519","ios":"levelo://app?vid=eb5d817d-b48a-410f-b93c-98bafcec3519"},"vehicle_type_id":"4","last_reported":1687982881,"current_range_meters":18000,"station_id":"ce4bhqp2rcd13ifvqhog","pricing_plan_id":"free"},{"bike_id":"dc198606-a22d-4666-8f25-25f1597c7a6b","system_id":"levelo_inurba_marseille","lat":43.32367,"lon":5.388836,"is_reserved":false,"is_disabled":false,"rental_uris":{"android":"levelo://app?vid=dc198606-a22d-4666-8f25-25f1597c7a6b","ios":"levelo://app?vid=dc198606-a22d-4666-8f25-25f1597c7a6b"},"vehicle_type_id":"4","last_reported":1687982881,"current_range_meters":14800,"station_id":"ce4bhqp2rcd13ifvqhog","pricing_plan_id":"free"},{"bike_id":"dfb50179-c345-41ab-a383-532269ec033a","system_id":"levelo_inurba_marseille","lat":43.32367,"lon":5.388836,"is_reserved":false,"is_disabled":false,"rental_uris":{"android":"levelo://app?vid=dfb50179-c345-41ab-a383-532269ec033a","ios":"levelo://app?vid=dfb50179-c345-41ab-a383-532269ec033a"},"vehicle_type_id":"4","last_reported":1687982881,"current_range_meters":13200,"station_id":"ce4bhqp2rcd13ifvqhog","pricing_plan_id":"free"},{"bike_id":"c737b305-2f9e-411a-b1ca-26b0f745d0f2","system_id":"levelo_inurba_marseille","lat":43.33191,"lon":5.36162,"is_reserved":false,"is_disabled":false,"rental_uris":{"android":"levelo://app?vid=c737b305-2f9e-411a-b1ca-26b0f745d0f2","ios":"levelo://app?vid=c737b305-2f9e-411a-b1ca-26b0f745d0f2"},"vehicle_type_id":"4","last_reported":1687982881,"current_range_meters":9600,"station_id":"","pricing_plan_id":"free"},{"bike_id":"4b195e4d-4065-465f-bc06-309d0e20093e","system_id":"levelo_inurba_marseille","lat":43.292749,"lon":5.368402,"is_reserved":false,"is_disabled":false,"rental_uris":{"android":"levelo://app?vid=4b195e4d-4065-465f-bc06-309d0e20093e","ios":"levelo://app?vid=4b195e4d-4065-465f-bc06-309d0e20093e"},"vehicle_type_id":"4","last_reported":1687982881,"current_range_meters":0,"station_id":"ce4bhbp2rcd13ifvqesg","pricing_plan_id":"free"},{"bike_id":"df764034-05f6-49f0-b813-0dc7c010031e","system_id":"levelo_inurba_marseille","lat":43.290345,"lon":5.38646,"is_reserved":false,"is_disabled":false,"rental_uris":{"android":"levelo://app?vid=df764034-05f6-49f0-b813-0dc7c010031e","ios":"levelo://app?vid=df764034-05f6-49f0-b813-0dc7c010031e"},"vehicle_type_id":"4","last_reported":1687982881,"current_range_meters":0,"station_id":"ce4bh4p2rcd13ifvqe0g","pricing_plan_id":"free"},{"bike_id":"c8e96b45-04c0-46aa-b017-de1ced1ff5bd","system_id":"levelo_inurba_marseille","lat":43.292642,"lon":5.384254,"is_reserved":false,"is_disabled":false,"rental_uris":{"android":"levelo://app?vid=c8e96b45-04c0-46aa-b017-de1ced1ff5bd","ios":"levelo://app?vid=c8e96b45-04c0-46aa-b017-de1ced1ff5bd"},"vehicle_type_id":"4","last_reported":1687982881,"current_range_meters":8000,"station_id":"ce4bh692rcd13ifvqea0","pricing_plan_id":"free"},{"bike_id":"68d67710-fea9-40d7-a2e3-06c0772cef97","system_id":"levelo_inurba_marseille","lat":43.293009,"lon":5.374584,"is_reserved":false,"is_disabled":false,"rental_uris":{"android":"levelo://app?vid=68d67710-fea9-40d7-a2e3-06c0772cef97","ios":"levelo://app?vid=68d67710-fea9-40d7-a2e3-06c0772cef97"},"vehicle_type_id":"4","last_reported":1687982881,"current_range_meters":2400,"station_id":"ce4bgi12rcd13ifvqb70","pricing_plan_id":"free"},{"bike_id":"339c7dbd-4117-44db-a176-8a41b3ffb4ae","system_id":"levelo_inurba_marseille","lat":43.305994,"lon":5.393687,"is_reserved":false,"is_disabled":false,"rental_uris":{"android":"levelo://app?vid=339c7dbd-4117-44db-a176-8a41b3ffb4ae","ios":"levelo://app?vid=339c7dbd-4117-44db-a176-8a41b3ffb4ae"},"vehicle_type_id":"4","last_reported":1687982881,"current_range_meters":15200,"station_id":"ce4bh0p2rcd13ifvqd80","pricing_plan_id":"free"},{"bike_id":"8d51d0b6-f19f-4a43-a316-eb24da0e3cc5","system_id":"levelo_inurba_marseille","lat":43.302992,"lon":5.392136,"is_reserved":false,"is_disabled":false,"rental_uris":{"android":"levelo://app?vid=8d51d0b6-f19f-4a43-a316-eb24da0e3cc5","ios":"levelo://app?vid=8d51d0b6-f19f-4a43-a316-eb24da0e3cc5"},"vehicle_type_id":"4","last_reported":1687982881,"current_range_meters":0,"station_id":"ce4bgkh2rcd13ifvqbk0","pricing_plan_id":"free"},{"bike_id":"5635a6f1-a1c9-4ba0-808e-b729cf6fe51a","system_id":"levelo_inurba_marseille","lat":43.303002,"lon":5.392142,"is_reserved":false,"is_disabled":false,"rental_uris":{"android":"levelo://app?vid=5635a6f1-a1c9-4ba0-808e-b729cf6fe51a","ios":"levelo://app?vid=5635a6f1-a1c9-4ba0-808e-b729cf6fe51a"},"vehicle_type_id":"4","last_reported":1687982881,"current_range_meters":0,"station_id":"ce4bgkh2rcd13ifvqbk0","pricing_plan_id":"free"},{"bike_id":"7a2b08ea-691f-42ca-b215-2ce19ffcedb2","system_id":"levelo_inurba_marseille","lat":43.303002,"lon":5.392142,"is_reserved":false,"is_disabled":false,"rental_uris":{"android":"levelo://app?vid=7a2b08ea-691f-42ca-b215-2ce19ffcedb2","ios":"levelo://app?vid=7a2b08ea-691f-42ca-b215-2ce19ffcedb2"},"vehicle_type_id":"4","last_reported":1687982881,"current_range_meters":400,"station_id":"ce4bgkh2rcd13ifvqbk0","pricing_plan_id":"free"},{"bike_id":"1f60f9f8-e9ee-48cb-bd64-0a97bb4d44ad","system_id":"levelo_inurba_marseille","lat":43.30305,"lon":5.39214,"is_reserved":false,"is_disabled":false,"rental_uris":{"android":"levelo://app?vid=1f60f9f8-e9ee-48cb-bd64-0a97bb4d44ad","ios":"levelo://app?vid=1f60f9f8-e9ee-48cb-bd64-0a97bb4d44ad"},"vehicle_type_id":"4","last_reported":1687982881,"current_range_meters":4800,"station_id":"ce4bgkh2rcd13ifvqbk0","pricing_plan_id":"free"},{"bike_id":"8ff36aa3-b619-46ad-9347-45dc1d287ff7","system_id":"levelo_inurba_marseille","lat":43.30299,"lon":5.39211,"is_reserved":false,"is_disabled":false,"rental_uris":{"android":"levelo://app?vid=8ff36aa3-b619-46ad-9347-45dc1d287ff7","ios":"levelo://app?vid=8ff36aa3-b619-46ad-9347-45dc1d287ff7"},"vehicle_type_id":"4","last_reported":1687982881,"current_range_meters":27600,"station_id":"ce4bgkh2rcd13ifvqbk0","pricing_plan_id":"free"},{"bike_id":"28f5b3a3-38bd-42e5-a409-b771acf7f4d8","system_id":"levelo_inurba_marseille","lat":43.303002,"lon":5.392142,"is_reserved":false,"is_disabled":false,"rental_uris":{"android":"levelo://app?vid=28f5b3a3-38bd-42e5-a409-b771acf7f4d8","ios":"levelo://app?vid=28f5b3a3-38bd-42e5-a409-b771acf7f4d8"},"vehicle_type_id":"4","last_reported":1687982881,"current_range_meters":18000,"station_id":"ce4bgkh2rcd13ifvqbk0","pricing_plan_id":"free"},{"bike_id":"1c7270a1-d2b4-41f0-9dd6-ee99ab4dfa9f","system_id":"levelo_inurba_marseille","lat":43.298764,"lon":5.388973,"is_reserved":false,"is_disabled":false,"rental_uris":{"android":"levelo://app?vid=1c7270a1-d2b4-41f0-9dd6-ee99ab4dfa9f","ios":"levelo://app?vid=1c7270a1-d2b4-41f0-9dd6-ee99ab4dfa9f"},"vehicle_type_id":"4","last_reported":1687982881,"current_range_meters":17600,"station_id":"ce4bh392rcd13ifvqdl0","pricing_plan_id":"free"},{"bike_id":"cbcda51b-3de2-401c-b2cf-9e525d33414d","system_id":"levelo_inurba_marseille","lat":43.29881,"lon":5.38911,"is_reserved":false,"is_disabled":false,"rental_uris":{"android":"levelo://app?vid=cbcda51b-3de2-401c-b2cf-9e525d33414d","ios":"levelo://app?vid=cbcda51b-3de2-401c-b2cf-9e525d33414d"},"vehicle_type_id":"4","last_reported":1687982881,"current_range_meters":0,"station_id":"ce4bh392rcd13ifvqdl0","pricing_plan_id":"free"},{"bike_id":"219e70b5-f8ce-4f1b-8d9b-3e954ddbe9c2","system_id":"levelo_inurba_marseille","lat":43.30888,"lon":5.3963,"is_reserved":false,"is_disabled":false,"rental_uris":{"android":"levelo://app?vid=219e70b5-f8ce-4f1b-8d9b-3e954ddbe9c2","ios":"levelo://app?vid=219e70b5-f8ce-4f1b-8d9b-3e954ddbe9c2"},"vehicle_type_id":"4","last_reported":1687982881,"current_range_meters":0,"station_id":"ce4bh012rcd13ifvqcv0","pricing_plan_id":"free"},{"bike_id":"f77ecad7-f123-4c0a-bf68-57befe5e94b6","system_id":"levelo_inurba_marseille","lat":43.309038,"lon":5.396546,"is_reserved":false,"is_disabled":false,"rental_uris":{"android":"levelo://app?vid=f77ecad7-f123-4c0a-bf68-57befe5e94b6","ios":"levelo://app?vid=f77ecad7-f123-4c0a-bf68-57befe5e94b6"},"vehicle_type_id":"4","last_reported":1687982881,"current_range_meters":10000,"station_id":"ce4bh012rcd13ifvqcv0","pricing_plan_id":"free"},{"bike_id":"32619e63-ef17-4ad1-adde-eadaf014f053","system_id":"levelo_inurba_marseille","lat":43.31327,"lon":5.39689,"is_reserved":false,"is_disabled":false,"rental_uris":{"android":"levelo://app?vid=32619e63-ef17-4ad1-adde-eadaf014f053","ios":"levelo://app?vid=32619e63-ef17-4ad1-adde-eadaf014f053"},"vehicle_type_id":"4","last_reported":1687982881,"current_range_meters":3600,"station_id":"ce4bgvp2rcd13ifvqcu0","pricing_plan_id":"free"},{"bike_id":"3488bca4-9c87-4b3e-8597-fc289ad66beb","system_id":"levelo_inurba_marseille","lat":43.31326,"lon":5.39693,"is_reserved":false,"is_disabled":false,"rental_uris":{"android":"levelo://app?vid=3488bca4-9c87-4b3e-8597-fc289ad66beb","ios":"levelo://app?vid=3488bca4-9c87-4b3e-8597-fc289ad66beb"},"vehicle_type_id":"4","last_reported":1687982881,"current_range_meters":11200,"station_id":"ce4bgvp2rcd13ifvqcu0","pricing_plan_id":"free"},{"bike_id":"e5801eb7-0e6e-47e0-a784-1de2d639640f","system_id":"levelo_inurba_marseille","lat":43.3133,"lon":5.39695,"is_reserved":false,"is_disabled":false,"rental_uris":{"android":"levelo://app?vid=e5801eb7-0e6e-47e0-a784-1de2d639640f","ios":"levelo://app?vid=e5801eb7-0e6e-47e0-a784-1de2d639640f"},"vehicle_type_id":"4","last_reported":1687982881,"current_range_meters":9200,"station_id":"ce4bgvp2rcd13ifvqcu0","pricing_plan_id":"free"},{"bike_id":"ea969a68-4e21-47ee-b610-c1550e135a0e","system_id":"levelo_inurba_marseille","lat":43.309038,"lon":5.396546,"is_reserved":false,"is_disabled":false,"rental_uris":{"android":"levelo://app?vid=ea969a68-4e21-47ee-b610-c1550e135a0e","ios":"levelo://app?vid=ea969a68-4e21-47ee-b610-c1550e135a0e"},"vehicle_type_id":"4","last_reported":1687982881,"current_range_meters":3200,"station_id":"ce4bh012rcd13ifvqcv0","pricing_plan_id":"free"},{"bike_id":"136a2fbd-b1be-4310-b35d-fd144945f2ea","system_id":"levelo_inurba_marseille","lat":43.3088,"lon":5.39656,"is_reserved":false,"is_disabled":false,"rental_uris":{"android":"levelo://app?vid=136a2fbd-b1be-4310-b35d-fd144945f2ea","ios":"levelo://app?vid=136a2fbd-b1be-4310-b35d-fd144945f2ea"},"vehicle_type_id":"4","last_reported":1687982881,"current_range_meters":6000,"station_id":"","pricing_plan_id":"free"},{"bike_id":"11374fb6-132a-47f7-9b40-9c31f6b08005","system_id":"levelo_inurba_marseille","lat":43.29529,"lon":5.385581,"is_reserved":false,"is_disabled":false,"rental_uris":{"android":"levelo://app?vid=11374fb6-132a-47f7-9b40-9c31f6b08005","ios":"levelo://app?vid=11374fb6-132a-47f7-9b40-9c31f6b08005"},"vehicle_type_id":"4","last_reported":1687982881,"current_range_meters":20800,"station_id":"ce4bgih2rcd13ifvqba0","pricing_plan_id":"free"},{"bike_id":"be9db66e-1d54-4576-93ad-1a2867893570","system_id":"levelo_inurba_marseille","lat":43.29535,"lon":5.3855,"is_reserved":false,"is_disabled":false,"rental_uris":{"android":"levelo://app?vid=be9db66e-1d54-4576-93ad-1a2867893570","ios":"levelo://app?vid=be9db66e-1d54-4576-93ad-1a2867893570"},"vehicle_type_id":"4","last_reported":1687982881,"current_range_meters":2800,"station_id":"ce4bgih2rcd13ifvqba0","pricing_plan_id":"free"},{"bike_id":"a57239f3-682b-4a0a-9e9d-3dd721ed4a0e","system_id":"levelo_inurba_marseille","lat":43.29529,"lon":5.385581,"is_reserved":false,"is_disabled":false,"rental_uris":{"android":"levelo://app?vid=a57239f3-682b-4a0a-9e9d-3dd721ed4a0e","ios":"levelo://app?vid=a57239f3-682b-4a0a-9e9d-3dd721ed4a0e"},"vehicle_type_id":"4","last_reported":1687982881,"current_range_meters":24000,"station_id":"ce4bgih2rcd13ifvqba0","pricing_plan_id":"free"},{"bike_id":"a68c6e28-d5c4-4f62-b3f5-2566ebfc22e1","system_id":"levelo_inurba_marseille","lat":43.29529,"lon":5.385581,"is_reserved":false,"is_disabled":false,"rental_uris":{"android":"levelo://app?vid=a68c6e28-d5c4-4f62-b3f5-2566ebfc22e1","ios":"levelo://app?vid=a68c6e28-d5c4-4f62-b3f5-2566ebfc22e1"},"vehicle_type_id":"4","last_reported":1687982881,"current_range_meters":6800,"station_id":"ce4bgih2rcd13ifvqba0","pricing_plan_id":"free"},{"bike_id":"81360b51-69eb-452c-b5bb-b5f69555b2a3","system_id":"levelo_inurba_marseille","lat":43.290779,"lon":5.371482,"is_reserved":false,"is_disabled":false,"rental_uris":{"android":"levelo://app?vid=81360b51-69eb-452c-b5bb-b5f69555b2a3","ios":"levelo://app?vid=81360b51-69eb-452c-b5bb-b5f69555b2a3"},"vehicle_type_id":"4","last_reported":1687982881,"current_range_meters":26800,"station_id":"ce4bh5p2rcd13ifvqe4g","pricing_plan_id":"free"},{"bike_id":"c0c71055-3ad0-4fa3-95ba-c119a40a4b1a","system_id":"levelo_inurba_marseille","lat":43.30607,"lon":5.3965,"is_reserved":false,"is_disabled":false,"rental_uris":{"android":"levelo://app?vid=c0c71055-3ad0-4fa3-95ba-c119a40a4b1a","ios":"levelo://app?vid=c0c71055-3ad0-4fa3-95ba-c119a40a4b1a"},"vehicle_type_id":"4","last_reported":1687982881,"current_range_meters":1200,"station_id":"","pricing_plan_id":"free"},{"bike_id":"1fac613e-b538-4a5d-a1b4-dae698aeac49","system_id":"levelo_inurba_marseille","lat":43.29529,"lon":5.385581,"is_reserved":false,"is_disabled":false,"rental_uris":{"android":"levelo://app?vid=1fac613e-b538-4a5d-a1b4-dae698aeac49","ios":"levelo://app?vid=1fac613e-b538-4a5d-a1b4-dae698aeac49"},"vehicle_type_id":"4","last_reported":1687982881,"current_range_meters":15600,"station_id":"ce4bgih2rcd13ifvqba0","pricing_plan_id":"free"},{"bike_id":"50a19d9f-c03e-4368-8185-4d4dd23ce838","system_id":"levelo_inurba_marseille","lat":43.294153,"lon":5.386305,"is_reserved":false,"is_disabled":false,"rental_uris":{"android":"levelo://app?vid=50a19d9f-c03e-4368-8185-4d4dd23ce838","ios":"levelo://app?vid=50a19d9f-c03e-4368-8185-4d4dd23ce838"},"vehicle_type_id":"4","last_reported":1687982881,"current_range_meters":21200,"station_id":"ce4bh2h2rcd13ifvqdh0","pricing_plan_id":"free"},{"bike_id":"2c65f253-4d3c-469d-afbc-e6eb47f9c41e","system_id":"levelo_inurba_marseille","lat":43.294153,"lon":5.386305,"is_reserved":false,"is_disabled":false,"rental_uris":{"android":"levelo://app?vid=2c65f253-4d3c-469d-afbc-e6eb47f9c41e","ios":"levelo://app?vid=2c65f253-4d3c-469d-afbc-e6eb47f9c41e"},"vehicle_type_id":"4","last_reported":1687982881,"current_range_meters":8000,"station_id":"ce4bh2h2rcd13ifvqdh0","pricing_plan_id":"free"},{"bike_id":"13508a29-37fa-44fd-ba21-e94929b2e797","system_id":"levelo_inurba_marseille","lat":43.294162,"lon":5.386292,"is_reserved":false,"is_disabled":false,"rental_uris":{"android":"levelo://app?vid=13508a29-37fa-44fd-ba21-e94929b2e797","ios":"levelo://app?vid=13508a29-37fa-44fd-ba21-e94929b2e797"},"vehicle_type_id":"4","last_reported":1687982881,"current_range_meters":28000,"station_id":"ce4bh2h2rcd13ifvqdh0","pricing_plan_id":"free"},{"bike_id":"3aebefdb-d7c0-423b-a328-f9e4a92ab91e","system_id":"levelo_inurba_marseille","lat":43.29036,"lon":5.37571,"is_reserved":false,"is_disabled":false,"rental_uris":{"android":"levelo://app?vid=3aebefdb-d7c0-423b-a328-f9e4a92ab91e","ios":"levelo://app?vid=3aebefdb-d7c0-423b-a328-f9e4a92ab91e"},"vehicle_type_id":"4","last_reported":1687982881,"current_range_meters":4800,"station_id":"ce4bh692rcd13ifvqe90","pricing_plan_id":"free"},{"bike_id":"6867df42-30dd-4825-b7fe-404564247748","system_id":"levelo_inurba_marseille","lat":43.294174,"lon":5.386231,"is_reserved":false,"is_disabled":false,"rental_uris":{"android":"levelo://app?vid=6867df42-30dd-4825-b7fe-404564247748","ios":"levelo://app?vid=6867df42-30dd-4825-b7fe-404564247748"},"vehicle_type_id":"4","last_reported":1687982881,"current_range_meters":9600,"station_id":"","pricing_plan_id":"free"},{"bike_id":"399ef6b6-bd49-40a3-a085-0dfa050cfb9f","system_id":"levelo_inurba_marseille","lat":43.29411,"lon":5.38614,"is_reserved":false,"is_disabled":false,"rental_uris":{"android":"levelo://app?vid=399ef6b6-bd49-40a3-a085-0dfa050cfb9f","ios":"levelo://app?vid=399ef6b6-bd49-40a3-a085-0dfa050cfb9f"},"vehicle_type_id":"4","last_reported":1687982881,"current_range_meters":2800,"station_id":"","pricing_plan_id":"free"},{"bike_id":"4ec3b7b6-4ac3-41ae-949c-268857a59da7","system_id":"levelo_inurba_marseille","lat":43.28939,"lon":5.36626,"is_reserved":false,"is_disabled":false,"rental_uris":{"android":"levelo://app?vid=4ec3b7b6-4ac3-41ae-949c-268857a59da7","ios":"levelo://app?vid=4ec3b7b6-4ac3-41ae-949c-268857a59da7"},"vehicle_type_id":"4","last_reported":1687982881,"current_range_meters":30400,"station_id":"ce4bhap2rcd13ifvqek0","pricing_plan_id":"free"},{"bike_id":"534288ba-db95-4c9a-afde-40d035053d1e","system_id":"levelo_inurba_marseille","lat":43.289468,"lon":5.363719,"is_reserved":false,"is_disabled":false,"rental_uris":{"android":"levelo://app?vid=534288ba-db95-4c9a-afde-40d035053d1e","ios":"levelo://app?vid=534288ba-db95-4c9a-afde-40d035053d1e"},"vehicle_type_id":"4","last_reported":1687982881,"current_range_meters":26400,"station_id":"ce4bhc92rcd13ifvqetg","pricing_plan_id":"free"},{"bike_id":"fcb07381-13ac-4bcd-a381-837ea5c0f6ae","system_id":"levelo_inurba_marseille","lat":43.29402,"lon":5.38648,"is_reserved":false,"is_disabled":false,"rental_uris":{"android":"levelo://app?vid=fcb07381-13ac-4bcd-a381-837ea5c0f6ae","ios":"levelo://app?vid=fcb07381-13ac-4bcd-a381-837ea5c0f6ae"},"vehicle_type_id":"4","last_reported":1687982881,"current_range_meters":2800,"station_id":"ce4bh2h2rcd13ifvqdh0","pricing_plan_id":"free"},{"bike_id":"a37cafa9-e00a-4b11-b821-d77007fefa2c","system_id":"levelo_inurba_marseille","lat":43.289184,"lon":5.366408,"is_reserved":false,"is_disabled":false,"rental_uris":{"android":"levelo://app?vid=a37cafa9-e00a-4b11-b821-d77007fefa2c","ios":"levelo://app?vid=a37cafa9-e00a-4b11-b821-d77007fefa2c"},"vehicle_type_id":"4","last_reported":1687982881,"current_range_meters":7600,"station_id":"ce4bhap2rcd13ifvqek0","pricing_plan_id":"free"},{"bike_id":"734c8577-8587-482f-b5ab-6b03a1187f9d","system_id":"levelo_inurba_marseille","lat":43.292642,"lon":5.384254,"is_reserved":false,"is_disabled":false,"rental_uris":{"android":"levelo://app?vid=734c8577-8587-482f-b5ab-6b03a1187f9d","ios":"levelo://app?vid=734c8577-8587-482f-b5ab-6b03a1187f9d"},"vehicle_type_id":"4","last_reported":1687982881,"current_range_meters":17600,"station_id":"ce4bh692rcd13ifvqea0","pricing_plan_id":"free"},{"bike_id":"ce1b3c0a-2965-461d-8940-4405c16a7d19","system_id":"levelo_inurba_marseille","lat":43.29264,"lon":5.38446,"is_reserved":false,"is_disabled":false,"rental_uris":{"android":"levelo://app?vid=ce1b3c0a-2965-461d-8940-4405c16a7d19","ios":"levelo://app?vid=ce1b3c0a-2965-461d-8940-4405c16a7d19"},"vehicle_type_id":"4","last_reported":1687982881,"current_range_meters":0,"station_id":"ce4bh692rcd13ifvqea0","pricing_plan_id":"free"},{"bike_id":"1086e891-2b00-42e7-be5c-c4af0732abbe","system_id":"levelo_inurba_marseille","lat":43.292642,"lon":5.384254,"is_reserved":false,"is_disabled":false,"rental_uris":{"android":"levelo://app?vid=1086e891-2b00-42e7-be5c-c4af0732abbe","ios":"levelo://app?vid=1086e891-2b00-42e7-be5c-c4af0732abbe"},"vehicle_type_id":"4","last_reported":1687982881,"current_range_meters":5600,"station_id":"ce4bh692rcd13ifvqea0","pricing_plan_id":"free"},{"bike_id":"98a66c15-e112-4037-8800-08627a655de6","system_id":"levelo_inurba_marseille","lat":43.29213,"lon":5.38367,"is_reserved":false,"is_disabled":false,"rental_uris":{"android":"levelo://app?vid=98a66c15-e112-4037-8800-08627a655de6","ios":"levelo://app?vid=98a66c15-e112-4037-8800-08627a655de6"},"vehicle_type_id":"4","last_reported":1687982881,"current_range_meters":23200,"station_id":"","pricing_plan_id":"free"},{"bike_id":"dc41910d-322a-450c-ae26-da6783f4c6d8","system_id":"levelo_inurba_marseille","lat":43.33044,"lon":5.38915,"is_reserved":false,"is_disabled":false,"rental_uris":{"android":"levelo://app?vid=dc41910d-322a-450c-ae26-da6783f4c6d8","ios":"levelo://app?vid=dc41910d-322a-450c-ae26-da6783f4c6d8"},"vehicle_type_id":"4","last_reported":1687982881,"current_range_meters":22800,"station_id":"ce4bhr92rcd13ifvqhrg","pricing_plan_id":"free"},{"bike_id":"f791cd7c-b8f7-43c1-93df-17bc665123c7","system_id":"levelo_inurba_marseille","lat":43.33042,"lon":5.3892,"is_reserved":false,"is_disabled":false,"rental_uris":{"android":"levelo://app?vid=f791cd7c-b8f7-43c1-93df-17bc665123c7","ios":"levelo://app?vid=f791cd7c-b8f7-43c1-93df-17bc665123c7"},"vehicle_type_id":"4","last_reported":1687982881,"current_range_meters":24400,"station_id":"ce4bhr92rcd13ifvqhrg","pricing_plan_id":"free"},{"bike_id":"56e56a8f-6758-414d-8770-da800265c565","system_id":"levelo_inurba_marseille","lat":43.3304,"lon":5.38923,"is_reserved":false,"is_disabled":false,"rental_uris":{"android":"levelo://app?vid=56e56a8f-6758-414d-8770-da800265c565","ios":"levelo://app?vid=56e56a8f-6758-414d-8770-da800265c565"},"vehicle_type_id":"4","last_reported":1687982881,"current_range_meters":5200,"station_id":"ce4bhr92rcd13ifvqhrg","pricing_plan_id":"free"},{"bike_id":"1deec734-5210-439e-b390-725ec2f70134","system_id":"levelo_inurba_marseille","lat":43.33041,"lon":5.38922,"is_reserved":false,"is_disabled":false,"rental_uris":{"android":"levelo://app?vid=1deec734-5210-439e-b390-725ec2f70134","ios":"levelo://app?vid=1deec734-5210-439e-b390-725ec2f70134"},"vehicle_type_id":"4","last_reported":1687982881,"current_range_meters":19200,"station_id":"ce4bhr92rcd13ifvqhrg","pricing_plan_id":"free"},{"bike_id":"857e5190-aaf2-4ea0-8ae9-629d142b934d","system_id":"levelo_inurba_marseille","lat":43.33045,"lon":5.3892,"is_reserved":false,"is_disabled":false,"rental_uris":{"android":"levelo://app?vid=857e5190-aaf2-4ea0-8ae9-629d142b934d","ios":"levelo://app?vid=857e5190-aaf2-4ea0-8ae9-629d142b934d"},"vehicle_type_id":"4","last_reported":1687982881,"current_range_meters":0,"station_id":"ce4bhr92rcd13ifvqhrg","pricing_plan_id":"free"},{"bike_id":"07b70507-7d28-41b4-a405-5b85f43b8717","system_id":"levelo_inurba_marseille","lat":43.297815,"lon":5.393548,"is_reserved":false,"is_disabled":false,"rental_uris":{"android":"levelo://app?vid=07b70507-7d28-41b4-a405-5b85f43b8717","ios":"levelo://app?vid=07b70507-7d28-41b4-a405-5b85f43b8717"},"vehicle_type_id":"4","last_reported":1687982881,"current_range_meters":11200,"station_id":"chh1huq6cuj3fo74tm60","pricing_plan_id":"free"},{"bike_id":"28b12b67-04eb-416a-a0a9-9dfd365c9ae5","system_id":"levelo_inurba_marseille","lat":43.295169,"lon":5.390426,"is_reserved":false,"is_disabled":false,"rental_uris":{"android":"levelo://app?vid=28b12b67-04eb-416a-a0a9-9dfd365c9ae5","ios":"levelo://app?vid=28b12b67-04eb-416a-a0a9-9dfd365c9ae5"},"vehicle_type_id":"4","last_reported":1687982881,"current_range_meters":12800,"station_id":"ce4bh3p2rcd13ifvqdp0","pricing_plan_id":"free"},{"bike_id":"971058df-9db3-4725-869e-e75357f1f8b8","system_id":"levelo_inurba_marseille","lat":43.29031,"lon":5.38131,"is_reserved":false,"is_disabled":false,"rental_uris":{"android":"levelo://app?vid=971058df-9db3-4725-869e-e75357f1f8b8","ios":"levelo://app?vid=971058df-9db3-4725-869e-e75357f1f8b8"},"vehicle_type_id":"4","last_reported":1687982881,"current_range_meters":24800,"station_id":"ce4bh4p2rcd13ifvqe1g","pricing_plan_id":"free"},{"bike_id":"456bdd59-e1e3-47ca-ab7b-a2fc66ac76b2","system_id":"levelo_inurba_marseille","lat":43.2901,"lon":5.381269,"is_reserved":false,"is_disabled":false,"rental_uris":{"android":"levelo://app?vid=456bdd59-e1e3-47ca-ab7b-a2fc66ac76b2","ios":"levelo://app?vid=456bdd59-e1e3-47ca-ab7b-a2fc66ac76b2"},"vehicle_type_id":"4","last_reported":1687982881,"current_range_meters":23200,"station_id":"ce4bh4p2rcd13ifvqe1g","pricing_plan_id":"free"},{"bike_id":"50b8466b-a135-4300-99f4-c7e01c430717","system_id":"levelo_inurba_marseille","lat":43.2901,"lon":5.381269,"is_reserved":false,"is_disabled":false,"rental_uris":{"android":"levelo://app?vid=50b8466b-a135-4300-99f4-c7e01c430717","ios":"levelo://app?vid=50b8466b-a135-4300-99f4-c7e01c430717"},"vehicle_type_id":"4","last_reported":1687982881,"current_range_meters":21600,"station_id":"ce4bh4p2rcd13ifvqe1g","pricing_plan_id":"free"},{"bike_id":"50cefbd7-3630-4b9d-9048-251e5dac1068","system_id":"levelo_inurba_marseille","lat":43.29027,"lon":5.38141,"is_reserved":false,"is_disabled":false,"rental_uris":{"android":"levelo://app?vid=50cefbd7-3630-4b9d-9048-251e5dac1068","ios":"levelo://app?vid=50cefbd7-3630-4b9d-9048-251e5dac1068"},"vehicle_type_id":"4","last_reported":1687982881,"current_range_meters":12800,"station_id":"ce4bh4p2rcd13ifvqe1g","pricing_plan_id":"free"},{"bike_id":"1f14f89c-2a13-483f-98c3-bca6706c8ae0","system_id":"levelo_inurba_marseille","lat":43.29027,"lon":5.38149,"is_reserved":false,"is_disabled":false,"rental_uris":{"android":"levelo://app?vid=1f14f89c-2a13-483f-98c3-bca6706c8ae0","ios":"levelo://app?vid=1f14f89c-2a13-483f-98c3-bca6706c8ae0"},"vehicle_type_id":"4","last_reported":1687982881,"current_range_meters":30000,"station_id":"ce4bh4p2rcd13ifvqe1g","pricing_plan_id":"free"},{"bike_id":"1f6e6e1d-2f18-4da0-bed6-5efa23db4bba","system_id":"levelo_inurba_marseille","lat":43.28856,"lon":5.358371,"is_reserved":false,"is_disabled":false,"rental_uris":{"android":"levelo://app?vid=1f6e6e1d-2f18-4da0-bed6-5efa23db4bba","ios":"levelo://app?vid=1f6e6e1d-2f18-4da0-bed6-5efa23db4bba"},"vehicle_type_id":"4","last_reported":1687982881,"current_range_meters":6800,"station_id":"ce4bhb12rcd13ifvqem0","pricing_plan_id":"free"},{"bike_id":"9d71bb97-dbfe-480c-b358-94ba9ea1c7a9","system_id":"levelo_inurba_marseille","lat":43.28856,"lon":5.358371,"is_reserved":false,"is_disabled":false,"rental_uris":{"android":"levelo://app?vid=9d71bb97-dbfe-480c-b358-94ba9ea1c7a9","ios":"levelo://app?vid=9d71bb97-dbfe-480c-b358-94ba9ea1c7a9"},"vehicle_type_id":"4","last_reported":1687982881,"current_range_meters":16000,"station_id":"ce4bhb12rcd13ifvqem0","pricing_plan_id":"free"},{"bike_id":"e16088f9-9ae8-4033-8c32-a7daf3d71f7f","system_id":"levelo_inurba_marseille","lat":43.28856,"lon":5.358371,"is_reserved":false,"is_disabled":false,"rental_uris":{"android":"levelo://app?vid=e16088f9-9ae8-4033-8c32-a7daf3d71f7f","ios":"levelo://app?vid=e16088f9-9ae8-4033-8c32-a7daf3d71f7f"},"vehicle_type_id":"4","last_reported":1687982881,"current_range_meters":3600,"station_id":"ce4bhb12rcd13ifvqem0","pricing_plan_id":"free"},{"bike_id":"e3968ccf-f29a-44b7-b524-de3f92bc5097","system_id":"levelo_inurba_marseille","lat":43.309371,"lon":5.401449,"is_reserved":false,"is_disabled":false,"rental_uris":{"android":"levelo://app?vid=e3968ccf-f29a-44b7-b524-de3f92bc5097","ios":"levelo://app?vid=e3968ccf-f29a-44b7-b524-de3f92bc5097"},"vehicle_type_id":"4","last_reported":1687982881,"current_range_meters":22800,"station_id":"ce4bgvp2rcd13ifvqct0","pricing_plan_id":"free"},{"bike_id":"001fff55-0cfe-42bd-971e-29dc4e340b0b","system_id":"levelo_inurba_marseille","lat":43.337447,"lon":5.374727,"is_reserved":false,"is_disabled":false,"rental_uris":{"android":"levelo://app?vid=001fff55-0cfe-42bd-971e-29dc4e340b0b","ios":"levelo://app?vid=001fff55-0cfe-42bd-971e-29dc4e340b0b"},"vehicle_type_id":"4","last_reported":1687982881,"current_range_meters":10000,"station_id":"","pricing_plan_id":"free"},{"bike_id":"b152602a-aaa7-4eed-93ba-89050d9c58ba","system_id":"levelo_inurba_marseille","lat":43.3067,"lon":5.40078,"is_reserved":false,"is_disabled":false,"rental_uris":{"android":"levelo://app?vid=b152602a-aaa7-4eed-93ba-89050d9c58ba","ios":"levelo://app?vid=b152602a-aaa7-4eed-93ba-89050d9c58ba"},"vehicle_type_id":"4","last_reported":1687982881,"current_range_meters":22400,"station_id":"","pricing_plan_id":"free"},{"bike_id":"50addb93-59ca-464f-9bd3-af34b1190966","system_id":"levelo_inurba_marseille","lat":43.33755,"lon":5.37436,"is_reserved":false,"is_disabled":false,"rental_uris":{"android":"levelo://app?vid=50addb93-59ca-464f-9bd3-af34b1190966","ios":"levelo://app?vid=50addb93-59ca-464f-9bd3-af34b1190966"},"vehicle_type_id":"4","last_reported":1687982881,"current_range_meters":31200,"station_id":"","pricing_plan_id":"free"},{"bike_id":"476cd57c-2e9c-4f0d-a086-f93a7e3396f6","system_id":"levelo_inurba_marseille","lat":43.337516,"lon":5.374747,"is_reserved":false,"is_disabled":false,"rental_uris":{"android":"levelo://app?vid=476cd57c-2e9c-4f0d-a086-f93a7e3396f6","ios":"levelo://app?vid=476cd57c-2e9c-4f0d-a086-f93a7e3396f6"},"vehicle_type_id":"4","last_reported":1687982881,"current_range_meters":27200,"station_id":"","pricing_plan_id":"free"},{"bike_id":"444e67d6-d7c8-4639-988e-30e869d0f110","system_id":"levelo_inurba_marseille","lat":43.301117,"lon":5.398795,"is_reserved":false,"is_disabled":false,"rental_uris":{"android":"levelo://app?vid=444e67d6-d7c8-4639-988e-30e869d0f110","ios":"levelo://app?vid=444e67d6-d7c8-4639-988e-30e869d0f110"},"vehicle_type_id":"4","last_reported":1687982881,"current_range_meters":14800,"station_id":"ce4bh0h2rcd13ifvqd40","pricing_plan_id":"free"},{"bike_id":"41393e42-0d23-419b-a0c5-b48f82f13fb5","system_id":"levelo_inurba_marseille","lat":43.29874,"lon":5.3973,"is_reserved":false,"is_disabled":false,"rental_uris":{"android":"levelo://app?vid=41393e42-0d23-419b-a0c5-b48f82f13fb5","ios":"levelo://app?vid=41393e42-0d23-419b-a0c5-b48f82f13fb5"},"vehicle_type_id":"4","last_reported":1687982881,"current_range_meters":30000,"station_id":"ce4bh0h2rcd13ifvqd50","pricing_plan_id":"free"},{"bike_id":"4aa4dc29-37a8-42a1-b104-d22623798aa3","system_id":"levelo_inurba_marseille","lat":43.286961,"lon":5.373785,"is_reserved":false,"is_disabled":false,"rental_uris":{"android":"levelo://app?vid=4aa4dc29-37a8-42a1-b104-d22623798aa3","ios":"levelo://app?vid=4aa4dc29-37a8-42a1-b104-d22623798aa3"},"vehicle_type_id":"4","last_reported":1687982881,"current_range_meters":4400,"station_id":"ce4bh3p2rcd13ifvqdq0","pricing_plan_id":"free"},{"bike_id":"e468aeeb-76bf-41df-b108-1584e4e449df","system_id":"levelo_inurba_marseille","lat":43.29865,"lon":5.39732,"is_reserved":false,"is_disabled":false,"rental_uris":{"android":"levelo://app?vid=e468aeeb-76bf-41df-b108-1584e4e449df","ios":"levelo://app?vid=e468aeeb-76bf-41df-b108-1584e4e449df"},"vehicle_type_id":"4","last_reported":1687982881,"current_range_meters":10800,"station_id":"ce4bh0h2rcd13ifvqd50","pricing_plan_id":"free"},{"bike_id":"003e1769-ec07-4da8-96f0-19c51cca44e4","system_id":"levelo_inurba_marseille","lat":43.298681,"lon":5.397225,"is_reserved":false,"is_disabled":false,"rental_uris":{"android":"levelo://app?vid=003e1769-ec07-4da8-96f0-19c51cca44e4","ios":"levelo://app?vid=003e1769-ec07-4da8-96f0-19c51cca44e4"},"vehicle_type_id":"4","last_reported":1687982881,"current_range_meters":9200,"station_id":"ce4bh0h2rcd13ifvqd50","pricing_plan_id":"free"},{"bike_id":"c45d345a-721e-4d49-a27b-3bf3fe27eb91","system_id":"levelo_inurba_marseille","lat":43.298681,"lon":5.397225,"is_reserved":false,"is_disabled":false,"rental_uris":{"android":"levelo://app?vid=c45d345a-721e-4d49-a27b-3bf3fe27eb91","ios":"levelo://app?vid=c45d345a-721e-4d49-a27b-3bf3fe27eb91"},"vehicle_type_id":"4","last_reported":1687982881,"current_range_meters":2800,"station_id":"ce4bh0h2rcd13ifvqd50","pricing_plan_id":"free"},{"bike_id":"d9a0dc27-6092-4cee-8d6b-5702ae248893","system_id":"levelo_inurba_marseille","lat":43.298681,"lon":5.397225,"is_reserved":false,"is_disabled":false,"rental_uris":{"android":"levelo://app?vid=d9a0dc27-6092-4cee-8d6b-5702ae248893","ios":"levelo://app?vid=d9a0dc27-6092-4cee-8d6b-5702ae248893"},"vehicle_type_id":"4","last_reported":1687982881,"current_range_meters":2400,"station_id":"ce4bh0h2rcd13ifvqd50","pricing_plan_id":"free"},{"bike_id":"e222fccb-0c3b-47f4-9f26-7e7a973e7b30","system_id":"levelo_inurba_marseille","lat":43.286591,"lon":5.363346,"is_reserved":false,"is_disabled":false,"rental_uris":{"android":"levelo://app?vid=e222fccb-0c3b-47f4-9f26-7e7a973e7b30","ios":"levelo://app?vid=e222fccb-0c3b-47f4-9f26-7e7a973e7b30"},"vehicle_type_id":"4","last_reported":1687982881,"current_range_meters":25600,"station_id":"ce4bhah2rcd13ifvqej0","pricing_plan_id":"free"},{"bike_id":"687dafef-568b-4b74-875a-e14be55fc9f3","system_id":"levelo_inurba_marseille","lat":43.286591,"lon":5.363346,"is_reserved":false,"is_disabled":false,"rental_uris":{"android":"levelo://app?vid=687dafef-568b-4b74-875a-e14be55fc9f3","ios":"levelo://app?vid=687dafef-568b-4b74-875a-e14be55fc9f3"},"vehicle_type_id":"4","last_reported":1687982881,"current_range_meters":25200,"station_id":"ce4bhah2rcd13ifvqej0","pricing_plan_id":"free"},{"bike_id":"5ecd6bca-076f-44cc-8cc1-78665134b26d","system_id":"levelo_inurba_marseille","lat":43.286593,"lon":5.363346,"is_reserved":false,"is_disabled":false,"rental_uris":{"android":"levelo://app?vid=5ecd6bca-076f-44cc-8cc1-78665134b26d","ios":"levelo://app?vid=5ecd6bca-076f-44cc-8cc1-78665134b26d"},"vehicle_type_id":"4","last_reported":1687982881,"current_range_meters":28800,"station_id":"ce4bhah2rcd13ifvqej0","pricing_plan_id":"free"},{"bike_id":"0a7d6704-7639-4bc0-a00f-3b1617acdc68","system_id":"levelo_inurba_marseille","lat":43.286961,"lon":5.373785,"is_reserved":false,"is_disabled":false,"rental_uris":{"android":"levelo://app?vid=0a7d6704-7639-4bc0-a00f-3b1617acdc68","ios":"levelo://app?vid=0a7d6704-7639-4bc0-a00f-3b1617acdc68"},"vehicle_type_id":"4","last_reported":1687982881,"current_range_meters":10800,"station_id":"ce4bh3p2rcd13ifvqdq0","pricing_plan_id":"free"},{"bike_id":"8c8135dd-ce85-4b5c-9525-b154ab3423cf","system_id":"levelo_inurba_marseille","lat":43.286593,"lon":5.363346,"is_reserved":false,"is_disabled":false,"rental_uris":{"android":"levelo://app?vid=8c8135dd-ce85-4b5c-9525-b154ab3423cf","ios":"levelo://app?vid=8c8135dd-ce85-4b5c-9525-b154ab3423cf"},"vehicle_type_id":"4","last_reported":1687982881,"current_range_meters":30000,"station_id":"ce4bhah2rcd13ifvqej0","pricing_plan_id":"free"},{"bike_id":"08b67ce5-87d5-405b-ba2b-df23136ec86d","system_id":"levelo_inurba_marseille","lat":43.286961,"lon":5.373785,"is_reserved":false,"is_disabled":false,"rental_uris":{"android":"levelo://app?vid=08b67ce5-87d5-405b-ba2b-df23136ec86d","ios":"levelo://app?vid=08b67ce5-87d5-405b-ba2b-df23136ec86d"},"vehicle_type_id":"4","last_reported":1687982881,"current_range_meters":1200,"station_id":"ce4bh3p2rcd13ifvqdq0","pricing_plan_id":"free"},{"bike_id":"c1e02b62-7c40-4d1f-8d03-d1a4425b77bb","system_id":"levelo_inurba_marseille","lat":43.290345,"lon":5.38646,"is_reserved":false,"is_disabled":false,"rental_uris":{"android":"levelo://app?vid=c1e02b62-7c40-4d1f-8d03-d1a4425b77bb","ios":"levelo://app?vid=c1e02b62-7c40-4d1f-8d03-d1a4425b77bb"},"vehicle_type_id":"4","last_reported":1687982881,"current_range_meters":6800,"station_id":"ce4bh4p2rcd13ifvqe0g","pricing_plan_id":"free"},{"bike_id":"a136991c-26a8-44ec-9275-da7b90864cef","system_id":"levelo_inurba_marseille","lat":43.29035,"lon":5.38633,"is_reserved":false,"is_disabled":false,"rental_uris":{"android":"levelo://app?vid=a136991c-26a8-44ec-9275-da7b90864cef","ios":"levelo://app?vid=a136991c-26a8-44ec-9275-da7b90864cef"},"vehicle_type_id":"4","last_reported":1687982881,"current_range_meters":0,"station_id":"","pricing_plan_id":"free"},{"bike_id":"5c84551a-2ad2-4472-a34b-3e6712bc273c","system_id":"levelo_inurba_marseille","lat":43.290345,"lon":5.38646,"is_reserved":false,"is_disabled":false,"rental_uris":{"android":"levelo://app?vid=5c84551a-2ad2-4472-a34b-3e6712bc273c","ios":"levelo://app?vid=5c84551a-2ad2-4472-a34b-3e6712bc273c"},"vehicle_type_id":"4","last_reported":1687982881,"current_range_meters":15600,"station_id":"ce4bh4p2rcd13ifvqe0g","pricing_plan_id":"free"},{"bike_id":"dc6e7afb-3d52-417b-870b-772a8a61c122","system_id":"levelo_inurba_marseille","lat":43.30256,"lon":5.40056,"is_reserved":false,"is_disabled":false,"rental_uris":{"android":"levelo://app?vid=dc6e7afb-3d52-417b-870b-772a8a61c122","ios":"levelo://app?vid=dc6e7afb-3d52-417b-870b-772a8a61c122"},"vehicle_type_id":"4","last_reported":1687982881,"current_range_meters":8800,"station_id":"","pricing_plan_id":"free"},{"bike_id":"d4064a10-78a5-4a44-bf81-a9e2b80eb845","system_id":"levelo_inurba_marseille","lat":43.30249,"lon":5.400568,"is_reserved":false,"is_disabled":false,"rental_uris":{"android":"levelo://app?vid=d4064a10-78a5-4a44-bf81-a9e2b80eb845","ios":"levelo://app?vid=d4064a10-78a5-4a44-bf81-a9e2b80eb845"},"vehicle_type_id":"4","last_reported":1687982881,"current_range_meters":12800,"station_id":"","pricing_plan_id":"free"},{"bike_id":"77e336d8-17d0-48af-9c22-1c0d2fceb64b","system_id":"levelo_inurba_marseille","lat":43.302593,"lon":5.400656,"is_reserved":false,"is_disabled":false,"rental_uris":{"android":"levelo://app?vid=77e336d8-17d0-48af-9c22-1c0d2fceb64b","ios":"levelo://app?vid=77e336d8-17d0-48af-9c22-1c0d2fceb64b"},"vehicle_type_id":"4","last_reported":1687982881,"current_range_meters":26400,"station_id":"ce4bgvh2rcd13ifvqcs0","pricing_plan_id":"free"},{"bike_id":"6b7258d8-ff95-4fc8-8652-9df74c5343d6","system_id":"levelo_inurba_marseille","lat":43.290336,"lon":5.386425,"is_reserved":false,"is_disabled":false,"rental_uris":{"android":"levelo://app?vid=6b7258d8-ff95-4fc8-8652-9df74c5343d6","ios":"levelo://app?vid=6b7258d8-ff95-4fc8-8652-9df74c5343d6"},"vehicle_type_id":"4","last_reported":1687982881,"current_range_meters":1200,"station_id":"ce4bh4p2rcd13ifvqe0g","pricing_plan_id":"free"},{"bike_id":"2f06fbd7-cadd-4309-a7d3-c487c50cf72b","system_id":"levelo_inurba_marseille","lat":43.302759,"lon":5.400793,"is_reserved":false,"is_disabled":false,"rental_uris":{"android":"levelo://app?vid=2f06fbd7-cadd-4309-a7d3-c487c50cf72b","ios":"levelo://app?vid=2f06fbd7-cadd-4309-a7d3-c487c50cf72b"},"vehicle_type_id":"4","last_reported":1687982881,"current_range_meters":30800,"station_id":"ce4bgvh2rcd13ifvqcs0","pricing_plan_id":"free"},{"bike_id":"ba7eaf05-a6a9-458a-a6d7-b39970a840a0","system_id":"levelo_inurba_marseille","lat":43.30257,"lon":5.40076,"is_reserved":false,"is_disabled":false,"rental_uris":{"android":"levelo://app?vid=ba7eaf05-a6a9-458a-a6d7-b39970a840a0","ios":"levelo://app?vid=ba7eaf05-a6a9-458a-a6d7-b39970a840a0"},"vehicle_type_id":"4","last_reported":1687982881,"current_range_meters":31200,"station_id":"ce4bgvh2rcd13ifvqcs0","pricing_plan_id":"free"},{"bike_id":"7ead98cf-0b1b-461e-960d-23bdc79dd39f","system_id":"levelo_inurba_marseille","lat":43.287184,"lon":5.37937,"is_reserved":false,"is_disabled":false,"rental_uris":{"android":"levelo://app?vid=7ead98cf-0b1b-461e-960d-23bdc79dd39f","ios":"levelo://app?vid=7ead98cf-0b1b-461e-960d-23bdc79dd39f"},"vehicle_type_id":"4","last_reported":1687982881,"current_range_meters":18000,"station_id":"ce4bh9p2rcd13ifvqec0","pricing_plan_id":"free"},{"bike_id":"269508f0-4ff0-41bb-ba1f-151f49b7063e","system_id":"levelo_inurba_marseille","lat":43.287184,"lon":5.37937,"is_reserved":false,"is_disabled":false,"rental_uris":{"android":"levelo://app?vid=269508f0-4ff0-41bb-ba1f-151f49b7063e","ios":"levelo://app?vid=269508f0-4ff0-41bb-ba1f-151f49b7063e"},"vehicle_type_id":"4","last_reported":1687982881,"current_range_meters":8400,"station_id":"ce4bh9p2rcd13ifvqec0","pricing_plan_id":"free"},{"bike_id":"040dfbac-5b91-4e1e-9b5a-e22369294da5","system_id":"levelo_inurba_marseille","lat":43.287184,"lon":5.37937,"is_reserved":false,"is_disabled":false,"rental_uris":{"android":"levelo://app?vid=040dfbac-5b91-4e1e-9b5a-e22369294da5","ios":"levelo://app?vid=040dfbac-5b91-4e1e-9b5a-e22369294da5"},"vehicle_type_id":"4","last_reported":1687982881,"current_range_meters":18400,"station_id":"ce4bh9p2rcd13ifvqec0","pricing_plan_id":"free"},{"bike_id":"d69fed3a-efe9-46fb-b1dc-1240b8978d3e","system_id":"levelo_inurba_marseille","lat":43.31645,"lon":5.40437,"is_reserved":false,"is_disabled":false,"rental_uris":{"android":"levelo://app?vid=d69fed3a-efe9-46fb-b1dc-1240b8978d3e","ios":"levelo://app?vid=d69fed3a-efe9-46fb-b1dc-1240b8978d3e"},"vehicle_type_id":"4","last_reported":1687982881,"current_range_meters":24800,"station_id":"ce4bh012rcd13ifvqd00","pricing_plan_id":"free"},{"bike_id":"a1061082-72cd-4df6-ab2e-ad89367acf22","system_id":"levelo_inurba_marseille","lat":43.291994,"lon":5.392907,"is_reserved":false,"is_disabled":false,"rental_uris":{"android":"levelo://app?vid=a1061082-72cd-4df6-ab2e-ad89367acf22","ios":"levelo://app?vid=a1061082-72cd-4df6-ab2e-ad89367acf22"},"vehicle_type_id":"4","last_reported":1687982881,"current_range_meters":17200,"station_id":"ce4bh192rcd13ifvqdd0","pricing_plan_id":"free"},{"bike_id":"57f6521a-e698-4854-a1e2-f3b35368000a","system_id":"levelo_inurba_marseille","lat":43.291994,"lon":5.392907,"is_reserved":false,"is_disabled":false,"rental_uris":{"android":"levelo://app?vid=57f6521a-e698-4854-a1e2-f3b35368000a","ios":"levelo://app?vid=57f6521a-e698-4854-a1e2-f3b35368000a"},"vehicle_type_id":"4","last_reported":1687982881,"current_range_meters":16000,"station_id":"ce4bh192rcd13ifvqdd0","pricing_plan_id":"free"},{"bike_id":"1b2ad83f-b611-4549-82fd-794c216ef3ce","system_id":"levelo_inurba_marseille","lat":43.284534,"lon":5.358662,"is_reserved":false,"is_disabled":false,"rental_uris":{"android":"levelo://app?vid=1b2ad83f-b611-4549-82fd-794c216ef3ce","ios":"levelo://app?vid=1b2ad83f-b611-4549-82fd-794c216ef3ce"},"vehicle_type_id":"4","last_reported":1687982881,"current_range_meters":24000,"station_id":"ce4bhah2rcd13ifvqei0","pricing_plan_id":"free"},{"bike_id":"60dbe04e-6d93-43f7-89ae-8b64bfa37f0a","system_id":"levelo_inurba_marseille","lat":43.284534,"lon":5.358662,"is_reserved":false,"is_disabled":false,"rental_uris":{"android":"levelo://app?vid=60dbe04e-6d93-43f7-89ae-8b64bfa37f0a","ios":"levelo://app?vid=60dbe04e-6d93-43f7-89ae-8b64bfa37f0a"},"vehicle_type_id":"4","last_reported":1687982881,"current_range_meters":26800,"station_id":"ce4bhah2rcd13ifvqei0","pricing_plan_id":"free"},{"bike_id":"88db13ea-5490-44aa-8897-ef1369086b8a","system_id":"levelo_inurba_marseille","lat":43.284534,"lon":5.358662,"is_reserved":false,"is_disabled":false,"rental_uris":{"android":"levelo://app?vid=88db13ea-5490-44aa-8897-ef1369086b8a","ios":"levelo://app?vid=88db13ea-5490-44aa-8897-ef1369086b8a"},"vehicle_type_id":"4","last_reported":1687982881,"current_range_meters":4800,"station_id":"ce4bhah2rcd13ifvqei0","pricing_plan_id":"free"},{"bike_id":"f50ae5bf-278f-48ef-b838-f4623a38d353","system_id":"levelo_inurba_marseille","lat":43.286212,"lon":5.351099,"is_reserved":false,"is_disabled":false,"rental_uris":{"android":"levelo://app?vid=f50ae5bf-278f-48ef-b838-f4623a38d353","ios":"levelo://app?vid=f50ae5bf-278f-48ef-b838-f4623a38d353"},"vehicle_type_id":"4","last_reported":1687982881,"current_range_meters":15600,"station_id":"","pricing_plan_id":"free"},{"bike_id":"51a1c203-2aed-4c7d-907b-9b081745b596","system_id":"levelo_inurba_marseille","lat":43.283998,"lon":5.375062,"is_reserved":false,"is_disabled":false,"rental_uris":{"android":"levelo://app?vid=51a1c203-2aed-4c7d-907b-9b081745b596","ios":"levelo://app?vid=51a1c203-2aed-4c7d-907b-9b081745b596"},"vehicle_type_id":"4","last_reported":1687982881,"current_range_meters":14000,"station_id":"ce4bh412rcd13ifvqds0","pricing_plan_id":"free"},{"bike_id":"d44f6bf6-f61e-4733-bcf8-8b78bf17b877","system_id":"levelo_inurba_marseille","lat":43.283998,"lon":5.375062,"is_reserved":false,"is_disabled":false,"rental_uris":{"android":"levelo://app?vid=d44f6bf6-f61e-4733-bcf8-8b78bf17b877","ios":"levelo://app?vid=d44f6bf6-f61e-4733-bcf8-8b78bf17b877"},"vehicle_type_id":"4","last_reported":1687982881,"current_range_meters":29200,"station_id":"ce4bh412rcd13ifvqds0","pricing_plan_id":"free"},{"bike_id":"a9dbbbf5-cd27-45c6-a4bc-40cc1a49cd95","system_id":"levelo_inurba_marseille","lat":43.295713,"lon":5.399639,"is_reserved":false,"is_disabled":false,"rental_uris":{"android":"levelo://app?vid=a9dbbbf5-cd27-45c6-a4bc-40cc1a49cd95","ios":"levelo://app?vid=a9dbbbf5-cd27-45c6-a4bc-40cc1a49cd95"},"vehicle_type_id":"4","last_reported":1687982881,"current_range_meters":12400,"station_id":"ce4bh312rcd13ifvqdj0","pricing_plan_id":"free"},{"bike_id":"7bdb1a49-04e1-4892-ad18-cc0bc090761f","system_id":"levelo_inurba_marseille","lat":43.283998,"lon":5.375062,"is_reserved":false,"is_disabled":false,"rental_uris":{"android":"levelo://app?vid=7bdb1a49-04e1-4892-ad18-cc0bc090761f","ios":"levelo://app?vid=7bdb1a49-04e1-4892-ad18-cc0bc090761f"},"vehicle_type_id":"4","last_reported":1687982881,"current_range_meters":1200,"station_id":"ce4bh412rcd13ifvqds0","pricing_plan_id":"free"},{"bike_id":"c54b965a-096a-4716-86b7-199807376945","system_id":"levelo_inurba_marseille","lat":43.283998,"lon":5.375062,"is_reserved":false,"is_disabled":false,"rental_uris":{"android":"levelo://app?vid=c54b965a-096a-4716-86b7-199807376945","ios":"levelo://app?vid=c54b965a-096a-4716-86b7-199807376945"},"vehicle_type_id":"4","last_reported":1687982881,"current_range_meters":3200,"station_id":"ce4bh412rcd13ifvqds0","pricing_plan_id":"free"},{"bike_id":"c5b20fde-29eb-44f6-bb56-190b617e3bdc","system_id":"levelo_inurba_marseille","lat":43.28671,"lon":5.38653,"is_reserved":false,"is_disabled":false,"rental_uris":{"android":"levelo://app?vid=c5b20fde-29eb-44f6-bb56-190b617e3bdc","ios":"levelo://app?vid=c5b20fde-29eb-44f6-bb56-190b617e3bdc"},"vehicle_type_id":"4","last_reported":1687982881,"current_range_meters":15600,"station_id":"ce4bh492rcd13ifvqdug","pricing_plan_id":"free"},{"bike_id":"45dcd791-db29-4841-a8c0-ac3296090289","system_id":"levelo_inurba_marseille","lat":43.28666,"lon":5.38662,"is_reserved":false,"is_disabled":false,"rental_uris":{"android":"levelo://app?vid=45dcd791-db29-4841-a8c0-ac3296090289","ios":"levelo://app?vid=45dcd791-db29-4841-a8c0-ac3296090289"},"vehicle_type_id":"4","last_reported":1687982881,"current_range_meters":27200,"station_id":"ce4bh492rcd13ifvqdug","pricing_plan_id":"free"},{"bike_id":"93933256-072b-495b-af61-110f7c01eccc","system_id":"levelo_inurba_marseille","lat":43.28666,"lon":5.38668,"is_reserved":false,"is_disabled":false,"rental_uris":{"android":"levelo://app?vid=93933256-072b-495b-af61-110f7c01eccc","ios":"levelo://app?vid=93933256-072b-495b-af61-110f7c01eccc"},"vehicle_type_id":"4","last_reported":1687982881,"current_range_meters":20000,"station_id":"ce4bh492rcd13ifvqdug","pricing_plan_id":"free"},{"bike_id":"89984c56-3300-4c3a-bac6-c86178b6dcac","system_id":"levelo_inurba_marseille","lat":43.287428,"lon":5.389267,"is_reserved":false,"is_disabled":false,"rental_uris":{"android":"levelo://app?vid=89984c56-3300-4c3a-bac6-c86178b6dcac","ios":"levelo://app?vid=89984c56-3300-4c3a-bac6-c86178b6dcac"},"vehicle_type_id":"4","last_reported":1687982881,"current_range_meters":18800,"station_id":"","pricing_plan_id":"free"},{"bike_id":"b4c950db-352f-4a1a-8e3c-c05101a6dad0","system_id":"levelo_inurba_marseille","lat":43.28817,"lon":5.39136,"is_reserved":false,"is_disabled":false,"rental_uris":{"android":"levelo://app?vid=b4c950db-352f-4a1a-8e3c-c05101a6dad0","ios":"levelo://app?vid=b4c950db-352f-4a1a-8e3c-c05101a6dad0"},"vehicle_type_id":"4","last_reported":1687982881,"current_range_meters":31200,"station_id":"","pricing_plan_id":"free"},{"bike_id":"7188f8bb-0211-4599-8f00-5e69cedd52dc","system_id":"levelo_inurba_marseille","lat":43.32339,"lon":5.40615,"is_reserved":false,"is_disabled":false,"rental_uris":{"android":"levelo://app?vid=7188f8bb-0211-4599-8f00-5e69cedd52dc","ios":"levelo://app?vid=7188f8bb-0211-4599-8f00-5e69cedd52dc"},"vehicle_type_id":"4","last_reported":1687982881,"current_range_meters":30400,"station_id":"ce4bhq92rcd13ifvqhjg","pricing_plan_id":"free"},{"bike_id":"3cdba368-bd0f-41d2-aabf-f64748cd8efd","system_id":"levelo_inurba_marseille","lat":43.323464,"lon":5.406297,"is_reserved":false,"is_disabled":false,"rental_uris":{"android":"levelo://app?vid=3cdba368-bd0f-41d2-aabf-f64748cd8efd","ios":"levelo://app?vid=3cdba368-bd0f-41d2-aabf-f64748cd8efd"},"vehicle_type_id":"4","last_reported":1687982881,"current_range_meters":31200,"station_id":"ce4bhq92rcd13ifvqhjg","pricing_plan_id":"free"},{"bike_id":"61a9a255-2f32-4469-bb9a-81d857dcfb5e","system_id":"levelo_inurba_marseille","lat":43.323464,"lon":5.406297,"is_reserved":false,"is_disabled":false,"rental_uris":{"android":"levelo://app?vid=61a9a255-2f32-4469-bb9a-81d857dcfb5e","ios":"levelo://app?vid=61a9a255-2f32-4469-bb9a-81d857dcfb5e"},"vehicle_type_id":"4","last_reported":1687982881,"current_range_meters":31200,"station_id":"ce4bhq92rcd13ifvqhjg","pricing_plan_id":"free"},{"bike_id":"99d4aa44-1f4d-40e2-b49b-3758c1f84c63","system_id":"levelo_inurba_marseille","lat":43.32338,"lon":5.40624,"is_reserved":false,"is_disabled":false,"rental_uris":{"android":"levelo://app?vid=99d4aa44-1f4d-40e2-b49b-3758c1f84c63","ios":"levelo://app?vid=99d4aa44-1f4d-40e2-b49b-3758c1f84c63"},"vehicle_type_id":"4","last_reported":1687982881,"current_range_meters":11600,"station_id":"ce4bhq92rcd13ifvqhjg","pricing_plan_id":"free"},{"bike_id":"60f30575-f9c1-465d-bc70-e5407a435c7a","system_id":"levelo_inurba_marseille","lat":43.288501,"lon":5.393087,"is_reserved":false,"is_disabled":false,"rental_uris":{"android":"levelo://app?vid=60f30575-f9c1-465d-bc70-e5407a435c7a","ios":"levelo://app?vid=60f30575-f9c1-465d-bc70-e5407a435c7a"},"vehicle_type_id":"4","last_reported":1687982881,"current_range_meters":24800,"station_id":"ce4bh2p2rcd13ifvqdi0","pricing_plan_id":"free"},{"bike_id":"33b9a69c-3387-4033-ba58-6ad7edff1807","system_id":"levelo_inurba_marseille","lat":43.288501,"lon":5.393087,"is_reserved":false,"is_disabled":false,"rental_uris":{"android":"levelo://app?vid=33b9a69c-3387-4033-ba58-6ad7edff1807","ios":"levelo://app?vid=33b9a69c-3387-4033-ba58-6ad7edff1807"},"vehicle_type_id":"4","last_reported":1687982881,"current_range_meters":31200,"station_id":"ce4bh2p2rcd13ifvqdi0","pricing_plan_id":"free"},{"bike_id":"f36e012f-67c8-4805-aab8-cd1816d86d9a","system_id":"levelo_inurba_marseille","lat":43.283498,"lon":5.380948,"is_reserved":false,"is_disabled":false,"rental_uris":{"android":"levelo://app?vid=f36e012f-67c8-4805-aab8-cd1816d86d9a","ios":"levelo://app?vid=f36e012f-67c8-4805-aab8-cd1816d86d9a"},"vehicle_type_id":"4","last_reported":1687982881,"current_range_meters":31200,"station_id":"ce4bh412rcd13ifvqdr0","pricing_plan_id":"free"},{"bike_id":"0c5a8bf9-9213-40b3-85a7-9026e5521020","system_id":"levelo_inurba_marseille","lat":43.283498,"lon":5.380948,"is_reserved":false,"is_disabled":false,"rental_uris":{"android":"levelo://app?vid=0c5a8bf9-9213-40b3-85a7-9026e5521020","ios":"levelo://app?vid=0c5a8bf9-9213-40b3-85a7-9026e5521020"},"vehicle_type_id":"4","last_reported":1687982881,"current_range_meters":6400,"station_id":"ce4bh412rcd13ifvqdr0","pricing_plan_id":"free"},{"bike_id":"d2b736df-646f-4bbd-8e01-25e5c94febea","system_id":"levelo_inurba_marseille","lat":43.28394,"lon":5.38514,"is_reserved":false,"is_disabled":false,"rental_uris":{"android":"levelo://app?vid=d2b736df-646f-4bbd-8e01-25e5c94febea","ios":"levelo://app?vid=d2b736df-646f-4bbd-8e01-25e5c94febea"},"vehicle_type_id":"4","last_reported":1687982881,"current_range_meters":0,"station_id":"","pricing_plan_id":"free"},{"bike_id":"fabdd713-02cb-40fe-8d0f-315db13115eb","system_id":"levelo_inurba_marseille","lat":43.28039,"lon":5.369297,"is_reserved":false,"is_disabled":false,"rental_uris":{"android":"levelo://app?vid=fabdd713-02cb-40fe-8d0f-315db13115eb","ios":"levelo://app?vid=fabdd713-02cb-40fe-8d0f-315db13115eb"},"vehicle_type_id":"4","last_reported":1687982881,"current_range_meters":14400,"station_id":"ce4bha12rcd13ifvqef0","pricing_plan_id":"free"},{"bike_id":"fa4ef0f4-9368-46f0-ab23-af455734f786","system_id":"levelo_inurba_marseille","lat":43.28039,"lon":5.369297,"is_reserved":false,"is_disabled":false,"rental_uris":{"android":"levelo://app?vid=fa4ef0f4-9368-46f0-ab23-af455734f786","ios":"levelo://app?vid=fa4ef0f4-9368-46f0-ab23-af455734f786"},"vehicle_type_id":"4","last_reported":1687982881,"current_range_meters":2800,"station_id":"ce4bha12rcd13ifvqef0","pricing_plan_id":"free"},{"bike_id":"59c7b21d-640f-4532-a87c-ed0d32b6d205","system_id":"levelo_inurba_marseille","lat":43.280382,"lon":5.369291,"is_reserved":false,"is_disabled":false,"rental_uris":{"android":"levelo://app?vid=59c7b21d-640f-4532-a87c-ed0d32b6d205","ios":"levelo://app?vid=59c7b21d-640f-4532-a87c-ed0d32b6d205"},"vehicle_type_id":"4","last_reported":1687982881,"current_range_meters":19600,"station_id":"ce4bha12rcd13ifvqef0","pricing_plan_id":"free"},{"bike_id":"3b03b23b-e177-4712-9239-5caad8aabfda","system_id":"levelo_inurba_marseille","lat":43.280382,"lon":5.369291,"is_reserved":false,"is_disabled":false,"rental_uris":{"android":"levelo://app?vid=3b03b23b-e177-4712-9239-5caad8aabfda","ios":"levelo://app?vid=3b03b23b-e177-4712-9239-5caad8aabfda"},"vehicle_type_id":"4","last_reported":1687982881,"current_range_meters":0,"station_id":"ce4bha12rcd13ifvqef0","pricing_plan_id":"free"},{"bike_id":"b8b9556e-d3a0-4baa-a33c-189963161131","system_id":"levelo_inurba_marseille","lat":43.280382,"lon":5.369291,"is_reserved":false,"is_disabled":false,"rental_uris":{"android":"levelo://app?vid=b8b9556e-d3a0-4baa-a33c-189963161131","ios":"levelo://app?vid=b8b9556e-d3a0-4baa-a33c-189963161131"},"vehicle_type_id":"4","last_reported":1687982881,"current_range_meters":31200,"station_id":"ce4bha12rcd13ifvqef0","pricing_plan_id":"free"},{"bike_id":"c704ad06-3e92-44a4-b022-9c690e9af64f","system_id":"levelo_inurba_marseille","lat":43.28109,"lon":5.37829,"is_reserved":false,"is_disabled":false,"rental_uris":{"android":"levelo://app?vid=c704ad06-3e92-44a4-b022-9c690e9af64f","ios":"levelo://app?vid=c704ad06-3e92-44a4-b022-9c690e9af64f"},"vehicle_type_id":"4","last_reported":1687982881,"current_range_meters":19600,"station_id":"","pricing_plan_id":"free"},{"bike_id":"7d7f2264-5ae6-4b41-8800-f9bf32d7bff3","system_id":"levelo_inurba_marseille","lat":43.28105,"lon":5.3783,"is_reserved":false,"is_disabled":false,"rental_uris":{"android":"levelo://app?vid=7d7f2264-5ae6-4b41-8800-f9bf32d7bff3","ios":"levelo://app?vid=7d7f2264-5ae6-4b41-8800-f9bf32d7bff3"},"vehicle_type_id":"4","last_reported":1687982881,"current_range_meters":22400,"station_id":"ce4bha12rcd13ifvqee0","pricing_plan_id":"free"},{"bike_id":"b7de3cb1-2460-4068-80b0-62af363492a8","system_id":"levelo_inurba_marseille","lat":43.28104,"lon":5.37832,"is_reserved":false,"is_disabled":false,"rental_uris":{"android":"levelo://app?vid=b7de3cb1-2460-4068-80b0-62af363492a8","ios":"levelo://app?vid=b7de3cb1-2460-4068-80b0-62af363492a8"},"vehicle_type_id":"4","last_reported":1687982881,"current_range_meters":13600,"station_id":"","pricing_plan_id":"free"},{"bike_id":"bd89f1e1-609b-4a3a-8feb-21376f7477d8","system_id":"levelo_inurba_marseille","lat":43.28103,"lon":5.37833,"is_reserved":false,"is_disabled":false,"rental_uris":{"android":"levelo://app?vid=bd89f1e1-609b-4a3a-8feb-21376f7477d8","ios":"levelo://app?vid=bd89f1e1-609b-4a3a-8feb-21376f7477d8"},"vehicle_type_id":"4","last_reported":1687982881,"current_range_meters":4000,"station_id":"","pricing_plan_id":"free"},{"bike_id":"48ab4c71-005c-4e51-bcd5-f71003ff37ad","system_id":"levelo_inurba_marseille","lat":43.28099,"lon":5.37832,"is_reserved":false,"is_disabled":false,"rental_uris":{"android":"levelo://app?vid=48ab4c71-005c-4e51-bcd5-f71003ff37ad","ios":"levelo://app?vid=48ab4c71-005c-4e51-bcd5-f71003ff37ad"},"vehicle_type_id":"4","last_reported":1687982881,"current_range_meters":0,"station_id":"","pricing_plan_id":"free"},{"bike_id":"c8e6ce45-f2b5-4772-a564-3c2039eea91a","system_id":"levelo_inurba_marseille","lat":43.33077,"lon":5.40566,"is_reserved":false,"is_disabled":false,"rental_uris":{"android":"levelo://app?vid=c8e6ce45-f2b5-4772-a564-3c2039eea91a","ios":"levelo://app?vid=c8e6ce45-f2b5-4772-a564-3c2039eea91a"},"vehicle_type_id":"4","last_reported":1687982881,"current_range_meters":1200,"station_id":"","pricing_plan_id":"free"},{"bike_id":"33066033-4b6b-4d57-8001-ba9e3be99e26","system_id":"levelo_inurba_marseille","lat":43.33075,"lon":5.40569,"is_reserved":false,"is_disabled":false,"rental_uris":{"android":"levelo://app?vid=33066033-4b6b-4d57-8001-ba9e3be99e26","ios":"levelo://app?vid=33066033-4b6b-4d57-8001-ba9e3be99e26"},"vehicle_type_id":"4","last_reported":1687982881,"current_range_meters":24000,"station_id":"","pricing_plan_id":"free"},{"bike_id":"dea081cf-1e4c-4d3d-9140-fa54305c6ab9","system_id":"levelo_inurba_marseille","lat":43.284462,"lon":5.392121,"is_reserved":false,"is_disabled":false,"rental_uris":{"android":"levelo://app?vid=dea081cf-1e4c-4d3d-9140-fa54305c6ab9","ios":"levelo://app?vid=dea081cf-1e4c-4d3d-9140-fa54305c6ab9"},"vehicle_type_id":"4","last_reported":1687982881,"current_range_meters":18800,"station_id":"ce4bhoh2rcd13ifvqh5g","pricing_plan_id":"free"},{"bike_id":"92d0d094-55e7-4858-9fa6-645924d3f85b","system_id":"levelo_inurba_marseille","lat":43.285742,"lon":5.395004,"is_reserved":false,"is_disabled":false,"rental_uris":{"android":"levelo://app?vid=92d0d094-55e7-4858-9fa6-645924d3f85b","ios":"levelo://app?vid=92d0d094-55e7-4858-9fa6-645924d3f85b"},"vehicle_type_id":"4","last_reported":1687982881,"current_range_meters":0,"station_id":"ce4bh292rcd13ifvqdg0","pricing_plan_id":"free"},{"bike_id":"96c22520-7500-4782-8292-c9926b188f84","system_id":"levelo_inurba_marseille","lat":43.28573,"lon":5.394992,"is_reserved":false,"is_disabled":false,"rental_uris":{"android":"levelo://app?vid=96c22520-7500-4782-8292-c9926b188f84","ios":"levelo://app?vid=96c22520-7500-4782-8292-c9926b188f84"},"vehicle_type_id":"4","last_reported":1687982881,"current_range_meters":0,"station_id":"ce4bh292rcd13ifvqdg0","pricing_plan_id":"free"},{"bike_id":"94cd5cee-81d7-4ad5-a0b7-988b3afd962f","system_id":"levelo_inurba_marseille","lat":43.32659,"lon":5.40989,"is_reserved":false,"is_disabled":false,"rental_uris":{"android":"levelo://app?vid=94cd5cee-81d7-4ad5-a0b7-988b3afd962f","ios":"levelo://app?vid=94cd5cee-81d7-4ad5-a0b7-988b3afd962f"},"vehicle_type_id":"4","last_reported":1687982881,"current_range_meters":24400,"station_id":"ce4bhpp2rcd13ifvqhgg","pricing_plan_id":"free"},{"bike_id":"75449481-f82f-4483-b7a3-84ee0f611873","system_id":"levelo_inurba_marseille","lat":43.326605,"lon":5.409903,"is_reserved":false,"is_disabled":false,"rental_uris":{"android":"levelo://app?vid=75449481-f82f-4483-b7a3-84ee0f611873","ios":"levelo://app?vid=75449481-f82f-4483-b7a3-84ee0f611873"},"vehicle_type_id":"4","last_reported":1687982881,"current_range_meters":23600,"station_id":"ce4bhpp2rcd13ifvqhgg","pricing_plan_id":"free"},{"bike_id":"30ea16c7-20c4-46b9-b78d-6f1da17beb48","system_id":"levelo_inurba_marseille","lat":43.326605,"lon":5.409903,"is_reserved":false,"is_disabled":false,"rental_uris":{"android":"levelo://app?vid=30ea16c7-20c4-46b9-b78d-6f1da17beb48","ios":"levelo://app?vid=30ea16c7-20c4-46b9-b78d-6f1da17beb48"},"vehicle_type_id":"4","last_reported":1687982881,"current_range_meters":22000,"station_id":"ce4bhpp2rcd13ifvqhgg","pricing_plan_id":"free"},{"bike_id":"0c9eee73-532e-4f1f-8b23-5a0693e22298","system_id":"levelo_inurba_marseille","lat":43.326605,"lon":5.409903,"is_reserved":false,"is_disabled":false,"rental_uris":{"android":"levelo://app?vid=0c9eee73-532e-4f1f-8b23-5a0693e22298","ios":"levelo://app?vid=0c9eee73-532e-4f1f-8b23-5a0693e22298"},"vehicle_type_id":"4","last_reported":1687982881,"current_range_meters":26400,"station_id":"ce4bhpp2rcd13ifvqhgg","pricing_plan_id":"free"},{"bike_id":"09b0019c-6caa-4fb3-b6fb-07f8ca86d600","system_id":"levelo_inurba_marseille","lat":43.304188,"lon":5.412904,"is_reserved":false,"is_disabled":false,"rental_uris":{"android":"levelo://app?vid=09b0019c-6caa-4fb3-b6fb-07f8ca86d600","ios":"levelo://app?vid=09b0019c-6caa-4fb3-b6fb-07f8ca86d600"},"vehicle_type_id":"4","last_reported":1687982881,"current_range_meters":10000,"station_id":"ce4bhop2rcd13ifvqh8g","pricing_plan_id":"free"},{"bike_id":"0090abfb-16e8-4f29-8d7b-c84b137e9e84","system_id":"levelo_inurba_marseille","lat":43.304188,"lon":5.412904,"is_reserved":false,"is_disabled":false,"rental_uris":{"android":"levelo://app?vid=0090abfb-16e8-4f29-8d7b-c84b137e9e84","ios":"levelo://app?vid=0090abfb-16e8-4f29-8d7b-c84b137e9e84"},"vehicle_type_id":"4","last_reported":1687982881,"current_range_meters":31200,"station_id":"ce4bhop2rcd13ifvqh8g","pricing_plan_id":"free"},{"bike_id":"d121dca8-2596-4f85-a2a1-3d6410e5eda4","system_id":"levelo_inurba_marseille","lat":43.3321,"lon":5.40684,"is_reserved":false,"is_disabled":false,"rental_uris":{"android":"levelo://app?vid=d121dca8-2596-4f85-a2a1-3d6410e5eda4","ios":"levelo://app?vid=d121dca8-2596-4f85-a2a1-3d6410e5eda4"},"vehicle_type_id":"4","last_reported":1687982881,"current_range_meters":24400,"station_id":"","pricing_plan_id":"free"},{"bike_id":"50fd953c-9754-45f4-aec7-ae52bb9eb6fe","system_id":"levelo_inurba_marseille","lat":43.287154,"lon":5.399979,"is_reserved":false,"is_disabled":false,"rental_uris":{"android":"levelo://app?vid=50fd953c-9754-45f4-aec7-ae52bb9eb6fe","ios":"levelo://app?vid=50fd953c-9754-45f4-aec7-ae52bb9eb6fe"},"vehicle_type_id":"4","last_reported":1687982881,"current_range_meters":31200,"station_id":"ce4bho92rcd13ifvqh3g","pricing_plan_id":"free"},{"bike_id":"7301dada-4d22-4397-ad2c-aed3ff548389","system_id":"levelo_inurba_marseille","lat":43.279087,"lon":5.380114,"is_reserved":false,"is_disabled":false,"rental_uris":{"android":"levelo://app?vid=7301dada-4d22-4397-ad2c-aed3ff548389","ios":"levelo://app?vid=7301dada-4d22-4397-ad2c-aed3ff548389"},"vehicle_type_id":"4","last_reported":1687982881,"current_range_meters":7600,"station_id":"ce4bhf92rcd13ifvqf50","pricing_plan_id":"free"},{"bike_id":"044e59ae-1df2-4781-8676-5601c47c252b","system_id":"levelo_inurba_marseille","lat":43.28705,"lon":5.39995,"is_reserved":false,"is_disabled":false,"rental_uris":{"android":"levelo://app?vid=044e59ae-1df2-4781-8676-5601c47c252b","ios":"levelo://app?vid=044e59ae-1df2-4781-8676-5601c47c252b"},"vehicle_type_id":"4","last_reported":1687982881,"current_range_meters":6800,"station_id":"ce4bho92rcd13ifvqh3g","pricing_plan_id":"free"},{"bike_id":"6a3ea2b5-8b46-48c9-9e84-e624bc40e38a","system_id":"levelo_inurba_marseille","lat":43.32031,"lon":5.41552,"is_reserved":false,"is_disabled":false,"rental_uris":{"android":"levelo://app?vid=6a3ea2b5-8b46-48c9-9e84-e624bc40e38a","ios":"levelo://app?vid=6a3ea2b5-8b46-48c9-9e84-e624bc40e38a"},"vehicle_type_id":"4","last_reported":1687982881,"current_range_meters":17200,"station_id":"ce4bhq92rcd13ifvqhkg","pricing_plan_id":"free"},{"bike_id":"404644e8-15d1-44c1-8baf-f974c7115303","system_id":"levelo_inurba_marseille","lat":43.279742,"lon":5.38744,"is_reserved":false,"is_disabled":false,"rental_uris":{"android":"levelo://app?vid=404644e8-15d1-44c1-8baf-f974c7115303","ios":"levelo://app?vid=404644e8-15d1-44c1-8baf-f974c7115303"},"vehicle_type_id":"4","last_reported":1687982881,"current_range_meters":22800,"station_id":"ce4bhg12rcd13ifvqf80","pricing_plan_id":"free"},{"bike_id":"e9c2d1ce-f06e-4d72-a0da-5c5108934f47","system_id":"levelo_inurba_marseille","lat":43.320045,"lon":5.415046,"is_reserved":false,"is_disabled":false,"rental_uris":{"android":"levelo://app?vid=e9c2d1ce-f06e-4d72-a0da-5c5108934f47","ios":"levelo://app?vid=e9c2d1ce-f06e-4d72-a0da-5c5108934f47"},"vehicle_type_id":"4","last_reported":1687982881,"current_range_meters":24400,"station_id":"ce4bhq92rcd13ifvqhkg","pricing_plan_id":"free"},{"bike_id":"8fa55dbe-7e77-4ea4-b1c8-3536c1a1c076","system_id":"levelo_inurba_marseille","lat":43.279742,"lon":5.38744,"is_reserved":false,"is_disabled":false,"rental_uris":{"android":"levelo://app?vid=8fa55dbe-7e77-4ea4-b1c8-3536c1a1c076","ios":"levelo://app?vid=8fa55dbe-7e77-4ea4-b1c8-3536c1a1c076"},"vehicle_type_id":"4","last_reported":1687982881,"current_range_meters":14800,"station_id":"ce4bhg12rcd13ifvqf80","pricing_plan_id":"free"},{"bike_id":"b6672802-599e-47de-b8bc-a8f36a7a7e08","system_id":"levelo_inurba_marseille","lat":43.279742,"lon":5.38744,"is_reserved":false,"is_disabled":false,"rental_uris":{"android":"levelo://app?vid=b6672802-599e-47de-b8bc-a8f36a7a7e08","ios":"levelo://app?vid=b6672802-599e-47de-b8bc-a8f36a7a7e08"},"vehicle_type_id":"4","last_reported":1687982881,"current_range_meters":2400,"station_id":"ce4bhg12rcd13ifvqf80","pricing_plan_id":"free"},{"bike_id":"010303de-9f53-47c9-8014-4eeafc88e3fa","system_id":"levelo_inurba_marseille","lat":43.32045,"lon":5.41552,"is_reserved":false,"is_disabled":false,"rental_uris":{"android":"levelo://app?vid=010303de-9f53-47c9-8014-4eeafc88e3fa","ios":"levelo://app?vid=010303de-9f53-47c9-8014-4eeafc88e3fa"},"vehicle_type_id":"4","last_reported":1687982881,"current_range_meters":31200,"station_id":"ce4bhq92rcd13ifvqhkg","pricing_plan_id":"free"},{"bike_id":"bbc84b7a-b2e6-48ed-97ab-1532e69745aa","system_id":"levelo_inurba_marseille","lat":43.32044,"lon":5.41557,"is_reserved":false,"is_disabled":false,"rental_uris":{"android":"levelo://app?vid=bbc84b7a-b2e6-48ed-97ab-1532e69745aa","ios":"levelo://app?vid=bbc84b7a-b2e6-48ed-97ab-1532e69745aa"},"vehicle_type_id":"4","last_reported":1687982881,"current_range_meters":8000,"station_id":"ce4bhq92rcd13ifvqhkg","pricing_plan_id":"free"},{"bike_id":"4daeec85-67bd-46d8-8a62-42ebd573b814","system_id":"levelo_inurba_marseille","lat":43.279742,"lon":5.38744,"is_reserved":false,"is_disabled":false,"rental_uris":{"android":"levelo://app?vid=4daeec85-67bd-46d8-8a62-42ebd573b814","ios":"levelo://app?vid=4daeec85-67bd-46d8-8a62-42ebd573b814"},"vehicle_type_id":"4","last_reported":1687982881,"current_range_meters":1200,"station_id":"ce4bhg12rcd13ifvqf80","pricing_plan_id":"free"},{"bike_id":"082baac0-8000-484a-b611-f3fdd6875231","system_id":"levelo_inurba_marseille","lat":43.2797,"lon":5.38753,"is_reserved":false,"is_disabled":false,"rental_uris":{"android":"levelo://app?vid=082baac0-8000-484a-b611-f3fdd6875231","ios":"levelo://app?vid=082baac0-8000-484a-b611-f3fdd6875231"},"vehicle_type_id":"4","last_reported":1687982881,"current_range_meters":19600,"station_id":"ce4bhg12rcd13ifvqf80","pricing_plan_id":"free"},{"bike_id":"6bd2a702-2094-4ad0-8b41-6afbbd934ce2","system_id":"levelo_inurba_marseille","lat":43.29256,"lon":5.40894,"is_reserved":false,"is_disabled":false,"rental_uris":{"android":"levelo://app?vid=6bd2a702-2094-4ad0-8b41-6afbbd934ce2","ios":"levelo://app?vid=6bd2a702-2094-4ad0-8b41-6afbbd934ce2"},"vehicle_type_id":"4","last_reported":1687982881,"current_range_meters":2800,"station_id":"ce4bh192rcd13ifvqdc0","pricing_plan_id":"free"},{"bike_id":"528912a9-44e3-4db1-83ad-2a8880568f61","system_id":"levelo_inurba_marseille","lat":43.292569,"lon":5.409107,"is_reserved":false,"is_disabled":false,"rental_uris":{"android":"levelo://app?vid=528912a9-44e3-4db1-83ad-2a8880568f61","ios":"levelo://app?vid=528912a9-44e3-4db1-83ad-2a8880568f61"},"vehicle_type_id":"4","last_reported":1687982881,"current_range_meters":16800,"station_id":"ce4bh192rcd13ifvqdc0","pricing_plan_id":"free"},{"bike_id":"7d7569a9-e6cb-49ec-9272-219f13f90408","system_id":"levelo_inurba_marseille","lat":43.292571,"lon":5.409107,"is_reserved":false,"is_disabled":false,"rental_uris":{"android":"levelo://app?vid=7d7569a9-e6cb-49ec-9272-219f13f90408","ios":"levelo://app?vid=7d7569a9-e6cb-49ec-9272-219f13f90408"},"vehicle_type_id":"4","last_reported":1687982881,"current_range_meters":18400,"station_id":"ce4bh192rcd13ifvqdc0","pricing_plan_id":"free"},{"bike_id":"c1dff5e9-d77f-445b-9404-8e4e287f7a3c","system_id":"levelo_inurba_marseille","lat":43.280784,"lon":5.396622,"is_reserved":false,"is_disabled":false,"rental_uris":{"android":"levelo://app?vid=c1dff5e9-d77f-445b-9404-8e4e287f7a3c","ios":"levelo://app?vid=c1dff5e9-d77f-445b-9404-8e4e287f7a3c"},"vehicle_type_id":"4","last_reported":1687982881,"current_range_meters":6000,"station_id":"ce4bho12rcd13ifvqh2g","pricing_plan_id":"free"},{"bike_id":"7a60f436-ca94-49c7-83b9-edf1f83883fe","system_id":"levelo_inurba_marseille","lat":43.280784,"lon":5.396622,"is_reserved":false,"is_disabled":false,"rental_uris":{"android":"levelo://app?vid=7a60f436-ca94-49c7-83b9-edf1f83883fe","ios":"levelo://app?vid=7a60f436-ca94-49c7-83b9-edf1f83883fe"},"vehicle_type_id":"4","last_reported":1687982881,"current_range_meters":3200,"station_id":"ce4bho12rcd13ifvqh2g","pricing_plan_id":"free"},{"bike_id":"38978f5d-cefe-4356-b9a4-ef88e9ea96a3","system_id":"levelo_inurba_marseille","lat":43.303837,"lon":5.418724,"is_reserved":false,"is_disabled":false,"rental_uris":{"android":"levelo://app?vid=38978f5d-cefe-4356-b9a4-ef88e9ea96a3","ios":"levelo://app?vid=38978f5d-cefe-4356-b9a4-ef88e9ea96a3"},"vehicle_type_id":"4","last_reported":1687982881,"current_range_meters":24000,"station_id":"ce4bhop2rcd13ifvqh7g","pricing_plan_id":"free"},{"bike_id":"594665e2-a41d-4ba8-9e51-a9b94e636b59","system_id":"levelo_inurba_marseille","lat":43.303837,"lon":5.418724,"is_reserved":false,"is_disabled":false,"rental_uris":{"android":"levelo://app?vid=594665e2-a41d-4ba8-9e51-a9b94e636b59","ios":"levelo://app?vid=594665e2-a41d-4ba8-9e51-a9b94e636b59"},"vehicle_type_id":"4","last_reported":1687982881,"current_range_meters":25200,"station_id":"ce4bhop2rcd13ifvqh7g","pricing_plan_id":"free"},{"bike_id":"45250884-8106-49db-a1f9-d37e266cfae9","system_id":"levelo_inurba_marseille","lat":43.278399,"lon":5.392139,"is_reserved":false,"is_disabled":false,"rental_uris":{"android":"levelo://app?vid=45250884-8106-49db-a1f9-d37e266cfae9","ios":"levelo://app?vid=45250884-8106-49db-a1f9-d37e266cfae9"},"vehicle_type_id":"4","last_reported":1687982881,"current_range_meters":11600,"station_id":"ce4bhjp2rcd13ifvqga0","pricing_plan_id":"free"},{"bike_id":"133b55ae-239e-4c72-b1b9-17b21167b83a","system_id":"levelo_inurba_marseille","lat":43.278399,"lon":5.392139,"is_reserved":false,"is_disabled":false,"rental_uris":{"android":"levelo://app?vid=133b55ae-239e-4c72-b1b9-17b21167b83a","ios":"levelo://app?vid=133b55ae-239e-4c72-b1b9-17b21167b83a"},"vehicle_type_id":"4","last_reported":1687982881,"current_range_meters":25600,"station_id":"ce4bhjp2rcd13ifvqga0","pricing_plan_id":"free"},{"bike_id":"a4123127-5bef-4104-b222-1533a6b1ac28","system_id":"levelo_inurba_marseille","lat":43.278399,"lon":5.392139,"is_reserved":false,"is_disabled":false,"rental_uris":{"android":"levelo://app?vid=a4123127-5bef-4104-b222-1533a6b1ac28","ios":"levelo://app?vid=a4123127-5bef-4104-b222-1533a6b1ac28"},"vehicle_type_id":"4","last_reported":1687982881,"current_range_meters":20800,"station_id":"ce4bhjp2rcd13ifvqga0","pricing_plan_id":"free"},{"bike_id":"63c945e2-ce0c-4ae8-8925-4729cf8dc136","system_id":"levelo_inurba_marseille","lat":43.278399,"lon":5.392139,"is_reserved":false,"is_disabled":false,"rental_uris":{"android":"levelo://app?vid=63c945e2-ce0c-4ae8-8925-4729cf8dc136","ios":"levelo://app?vid=63c945e2-ce0c-4ae8-8925-4729cf8dc136"},"vehicle_type_id":"4","last_reported":1687982881,"current_range_meters":18400,"station_id":"ce4bhjp2rcd13ifvqga0","pricing_plan_id":"free"},{"bike_id":"39872439-624e-4395-bcbb-d9671b616e68","system_id":"levelo_inurba_marseille","lat":43.278399,"lon":5.392139,"is_reserved":false,"is_disabled":false,"rental_uris":{"android":"levelo://app?vid=39872439-624e-4395-bcbb-d9671b616e68","ios":"levelo://app?vid=39872439-624e-4395-bcbb-d9671b616e68"},"vehicle_type_id":"4","last_reported":1687982881,"current_range_meters":29600,"station_id":"ce4bhjp2rcd13ifvqga0","pricing_plan_id":"free"},{"bike_id":"adf26b57-d9c9-48b4-a5ee-45f9e9b52f18","system_id":"levelo_inurba_marseille","lat":43.275625,"lon":5.384392,"is_reserved":false,"is_disabled":false,"rental_uris":{"android":"levelo://app?vid=adf26b57-d9c9-48b4-a5ee-45f9e9b52f18","ios":"levelo://app?vid=adf26b57-d9c9-48b4-a5ee-45f9e9b52f18"},"vehicle_type_id":"4","last_reported":1687982881,"current_range_meters":6800,"station_id":"ce4bhh92rcd13ifvqfi0","pricing_plan_id":"free"},{"bike_id":"b1c671a1-e97b-41b7-9f22-29ba7a082702","system_id":"levelo_inurba_marseille","lat":43.336134,"lon":5.410341,"is_reserved":false,"is_disabled":false,"rental_uris":{"android":"levelo://app?vid=b1c671a1-e97b-41b7-9f22-29ba7a082702","ios":"levelo://app?vid=b1c671a1-e97b-41b7-9f22-29ba7a082702"},"vehicle_type_id":"4","last_reported":1687982881,"current_range_meters":31200,"station_id":"ce4bhqh2rcd13ifvqhmg","pricing_plan_id":"free"},{"bike_id":"8bdfecce-ddb7-481a-b1ed-62f98c618409","system_id":"levelo_inurba_marseille","lat":43.33601,"lon":5.41032,"is_reserved":false,"is_disabled":false,"rental_uris":{"android":"levelo://app?vid=8bdfecce-ddb7-481a-b1ed-62f98c618409","ios":"levelo://app?vid=8bdfecce-ddb7-481a-b1ed-62f98c618409"},"vehicle_type_id":"4","last_reported":1687982881,"current_range_meters":28400,"station_id":"ce4bhqh2rcd13ifvqhmg","pricing_plan_id":"free"},{"bike_id":"623c8894-8215-47a1-a05c-a1939d4aa766","system_id":"levelo_inurba_marseille","lat":43.33613,"lon":5.41022,"is_reserved":false,"is_disabled":false,"rental_uris":{"android":"levelo://app?vid=623c8894-8215-47a1-a05c-a1939d4aa766","ios":"levelo://app?vid=623c8894-8215-47a1-a05c-a1939d4aa766"},"vehicle_type_id":"4","last_reported":1687982881,"current_range_meters":30800,"station_id":"ce4bhqh2rcd13ifvqhmg","pricing_plan_id":"free"},{"bike_id":"d16a5057-335c-4f77-856e-44973c141fd2","system_id":"levelo_inurba_marseille","lat":43.33611,"lon":5.41026,"is_reserved":false,"is_disabled":false,"rental_uris":{"android":"levelo://app?vid=d16a5057-335c-4f77-856e-44973c141fd2","ios":"levelo://app?vid=d16a5057-335c-4f77-856e-44973c141fd2"},"vehicle_type_id":"4","last_reported":1687982881,"current_range_meters":8400,"station_id":"ce4bhqh2rcd13ifvqhmg","pricing_plan_id":"free"},{"bike_id":"ac1bc89d-414d-4e6c-8f7a-859a695a64ab","system_id":"levelo_inurba_marseille","lat":43.336134,"lon":5.410341,"is_reserved":false,"is_disabled":false,"rental_uris":{"android":"levelo://app?vid=ac1bc89d-414d-4e6c-8f7a-859a695a64ab","ios":"levelo://app?vid=ac1bc89d-414d-4e6c-8f7a-859a695a64ab"},"vehicle_type_id":"4","last_reported":1687982881,"current_range_meters":16400,"station_id":"ce4bhqh2rcd13ifvqhmg","pricing_plan_id":"free"},