{"last_updated":1747998543,"ttl":60,"version":"2.2","data":{"bikes":[{"bike_id":"c0b9fd4f-e181-46ce-b0bf-f5119973334f","system_id":"levelo_inurba_marseille","lat":43.33771,"lon":5.37424,"is_reserved":false,"is_disabled":true,"rental_uris":{"android":"levelo://app?vid=c0b9fd4f-e181-46ce-b0bf-f5119973334f","ios":"levelo://app?vid=c0b9fd4f-e181-46ce-b0bf-f5119973334f"},"vehicle_type_id":"4","last_reported":1747998544,"current_range_meters":0,"station_id":"","pricing_plan_id":"cebpf4jnsgd1na2vs0mg"},{"bike_id":"67269190-6b09-4655-98fb-2b96adacf705","system_id":"levelo_inurba_marseille","lat":43.30879,"lon":5.37293,"is_reserved":false,"is_disabled":true,"rental_uris":{"android":"levelo://app?vid=67269190-6b09-4655-98fb-2b96adacf705","ios":"levelo://app?vid=67269190-6b09-4655-98fb-2b96adacf705"},"vehicle_type_id":"4","last_reported":1747998544,"current_range_meters":0,"station_id":"","pricing_plan_id":"cebpf4jnsgd1na2vs0mg"},{"bike_id":"d4150556-b601-4cc0-b77e-49c2d38938cf","system_id":"levelo_inurba_marseille","lat":43.28861,"lon":5.455,"is_reserved":false,"is_disabled":true,"rental_uris":{"android":"levelo://app?vid=d4150556-b601-4cc0-b77e-49c2d38938cf","ios":"levelo://app?vid=d4150556-b601-4cc0-b77e-49c2d38938cf"},"vehicle_type_id":"4","last_reported":1747998544,"current_range_meters":0,"station_id":"","pricing_plan_id":"cebpf4jnsgd1na2vs0mg"},{"bike_id":"e8162579-a5ad-485f-ad83-fec8a2ebe7e1","system_id":"levelo_inurba_marseille","lat":43.26832,"lon":5.39105,"is_reserved":false,"is_disabled":true,"rental_uris":{"android":"levelo://app?vid=e8162579-a5ad-485f-ad83-fec8a2ebe7e1","ios":"levelo://app?vid=e8162579-a5ad-485f-ad83-fec8a2ebe7e1"},"vehicle_type_id":"4","last_reported":1747998544,"current_range_meters":0,"station_id":"","pricing_plan_id":"cebpf4jnsgd1na2vs0mg"},{"bike_id":"70c5c5ad-5e66-4a49-9450-c4d67d96b788","system_id":"levelo_inurba_marseille","lat":43.27107,"lon":5.42734,"is_reserved":false,"is_disabled":true,"rental_uris":{"android":"levelo://app?vid=70c5c5ad-5e66-4a49-9450-c4d67d96b788","ios":"levelo://app?vid=70c5c5ad-5e66-4a49-9450-c4d67d96b788"},"vehicle_type_id":"4","last_reported":1747998544,"current_range_meters":0,"station_id":"","pricing_plan_id":"cebpf4jnsgd1na2vs0mg"},{"bike_id":"a9d86a3e-ff61-4b3c-b1d6-cb137b96f17c","system_id":"levelo_inurba_marseille","lat":43.28881,"lon":5.430333,"is_reserved":false,"is_disabled":true,"rental_uris":{"android":"levelo://app?vid=a9d86a3e-ff61-4b3c-b1d6-cb137b96f17c","ios":"levelo://app?vid=a9d86a3e-ff61-4b3c-b1d6-cb137b96f17c"},"vehicle_type_id":"4","last_reported":1747998544,"current_range_meters":0,"station_id":"","pricing_plan_id":"cebpf4jnsgd1na2vs0mg"},{"bike_id":"15dcdbbd-a41e-43eb-9ed6-26ec15ce7a50","system_id":"levelo_inurba_marseille","lat":43.21414,"lon":5.34119,"is_reserved":false,"is_disabled":true,"rental_uris":{"android":"levelo://app?vid=15dcdbbd-a41e-43eb-9ed6-26ec15ce7a50","ios":"levelo://app?vid=15dcdbbd-a41e-43eb-9ed6-26ec15ce7a50"},"vehicle_type_id":"4","last_reported":1747998544,"current_range_meters":0,"station_id":"","pricing_plan_id":"cebpf4jnsgd1na2vs0mg"},{"bike_id":"e9dd3aa4-b5e7-4480-926d-d7f537719bfa","system_id":"levelo_inurba_marseille","lat":43.230331,"lon":5.401847,"is_reserved":false,"is_disabled":true,"rental_uris":{"android":"levelo://app?vid=e9dd3aa4-b5e7-4480-926d-d7f537719bfa","ios":"levelo://app?vid=e9dd3aa4-b5e7-4480-926d-d7f537719bfa"},"vehicle_type_id":"4","last_reported":1747998544,"current_range_meters":0,"station_id":"","pricing_plan_id":"cebpf4jnsgd1na2vs0mg"},{"bike_id":"14603e41-b2dd-4757-a53c-2e366aa4f983","system_id":"levelo_inurba_marseille","lat":43.26999,"lon":5.42822,"is_reserved":false,"is_disabled":true,"rental_uris":{"android":"levelo://app?vid=14603e41-b2dd-4757-a53c-2e366aa4f983","ios":"levelo://app?vid=14603e41-b2dd-4757-a53c-2e366aa4f983"},"vehicle_type_id":"4","last_reported":1747998544,"current_range_meters":0,"station_id":"","pricing_plan_id":"cebpf4jnsgd1na2vs0mg"},{"bike_id":"6295ee76-3b48-4489-8b13-f2330fdffb0e","system_id":"levelo_inurba_marseille","lat":43.29578,"lon":5.36736,"is_reserved":false,"is_disabled":false,"rental_uris":{"android":"levelo://app?vid=6295ee76-3b48-4489-8b13-f2330fdffb0e","ios":"levelo://app?vid=6295ee76-3b48-4489-8b13-f2330fdffb0e"},"vehicle_type_id":"4","last_reported":1747998544,"current_range_meters":0,"station_id":"ce4bgph2rcd13ifvqc2g","pricing_plan_id":"cebpf4jnsgd1na2vs0mg"},{"bike_id":"cf4a560b-3be3-4806-beb4-dd5fad1bf043","system_id":"levelo_inurba_marseille","lat":43.2836,"lon":5.38101,"is_reserved":false,"is_disabled":true,"rental_uris":{"android":"levelo://app?vid=cf4a560b-3be3-4806-beb4-dd5fad1bf043","ios":"levelo://app?vid=cf4a560b-3be3-4806-beb4-dd5fad1bf043"},"vehicle_type_id":"4","last_reported":1747998544,"current_range_meters":0,"station_id":"ce4bh412rcd13ifvqdr0","pricing_plan_id":"cebpf4jnsgd1na2vs0mg"},{"bike_id":"4c98b109-01f3-4666-9fc6-24782a48fe17","system_id":"levelo_inurba_marseille","lat":43.28112,"lon":5.37832,"is_reserved":false,"is_disabled":true,"rental_uris":{"android":"levelo://app?vid=4c98b109-01f3-4666-9fc6-24782a48fe17","ios":"levelo://app?vid=4c98b109-01f3-4666-9fc6-24782a48fe17"},"vehicle_type_id":"4","last_reported":1747998544,"current_range_meters":0,"station_id":"ce4bha12rcd13ifvqee0","pricing_plan_id":"cebpf4jnsgd1na2vs0mg"},{"bike_id":"9fb7c035-4204-415d-b7b6-af35291faf32","system_id":"levelo_inurba_marseille","lat":43.26555,"lon":5.37285,"is_reserved":false,"is_disabled":true,"rental_uris":{"android":"levelo://app?vid=9fb7c035-4204-415d-b7b6-af35291faf32","ios":"levelo://app?vid=9fb7c035-4204-415d-b7b6-af35291faf32"},"vehicle_type_id":"4","last_reported":1747998544,"current_range_meters":0,"station_id":"ce4bhg12rcd13ifvqf70","pricing_plan_id":"cebpf4jnsgd1na2vs0mg"},{"bike_id":"10304f99-93f8-4efa-a133-3dc8bac7e22b","system_id":"levelo_inurba_marseille","lat":43.27327,"lon":5.39081,"is_reserved":false,"is_disabled":true,"rental_uris":{"android":"levelo://app?vid=10304f99-93f8-4efa-a133-3dc8bac7e22b","ios":"levelo://app?vid=10304f99-93f8-4efa-a133-3dc8bac7e22b"},"vehicle_type_id":"4","last_reported":1747998544,"current_range_meters":0,"station_id":"ce4bhgp2rcd13ifvqfe0","pricing_plan_id":"cebpf4jnsgd1na2vs0mg"},{"bike_id":"8962fe06-194f-4faf-aabf-b0267872ecce","system_id":"levelo_inurba_marseille","lat":43.272097,"lon":5.391754,"is_reserved":false,"is_disabled":true,"rental_uris":{"android":"levelo://app?vid=8962fe06-194f-4faf-aabf-b0267872ecce","ios":"levelo://app?vid=8962fe06-194f-4faf-aabf-b0267872ecce"},"vehicle_type_id":"4","last_reported":1747998544,"current_range_meters":0,"station_id":"ce4bhhp2rcd13ifvqfm0","pricing_plan_id":"cebpf4jnsgd1na2vs0mg"},{"bike_id":"492956e4-2923-4017-9609-93278c5458b2","system_id":"levelo_inurba_marseille","lat":43.29555,"lon":5.42287,"is_reserved":false,"is_disabled":true,"rental_uris":{"android":"levelo://app?vid=492956e4-2923-4017-9609-93278c5458b2","ios":"levelo://app?vid=492956e4-2923-4017-9609-93278c5458b2"},"vehicle_type_id":"4","last_reported":1747998544,"current_range_meters":0,"station_id":"ce4bhph2rcd13ifvqhdg","pricing_plan_id":"cebpf4jnsgd1na2vs0mg"},{"bike_id":"e7eedaff-4449-4078-9ada-491b96507758","system_id":"levelo_inurba_marseille","lat":43.32338,"lon":5.40618,"is_reserved":false,"is_disabled":true,"rental_uris":{"android":"levelo://app?vid=e7eedaff-4449-4078-9ada-491b96507758","ios":"levelo://app?vid=e7eedaff-4449-4078-9ada-491b96507758"},"vehicle_type_id":"4","last_reported":1747998544,"current_range_meters":0,"station_id":"ce4bhq92rcd13ifvqhjg","pricing_plan_id":"cebpf4jnsgd1na2vs0mg"},{"bike_id":"ca1c1ddd-a3be-430a-ae7e-7003fcb65b90","system_id":"levelo_inurba_marseille","lat":43.301305,"lon":5.398622,"is_reserved":false,"is_disabled":true,"rental_uris":{"android":"levelo://app?vid=ca1c1ddd-a3be-430a-ae7e-7003fcb65b90","ios":"levelo://app?vid=ca1c1ddd-a3be-430a-ae7e-7003fcb65b90"},"vehicle_type_id":"4","last_reported":1747998544,"current_range_meters":400,"station_id":"ce4bh0h2rcd13ifvqd40","pricing_plan_id":"cebpf4jnsgd1na2vs0mg"},{"bike_id":"ae6ec46d-ce10-404e-872d-00f8c99513a0","system_id":"levelo_inurba_marseille","lat":43.29027,"lon":5.38644,"is_reserved":false,"is_disabled":true,"rental_uris":{"android":"levelo://app?vid=ae6ec46d-ce10-404e-872d-00f8c99513a0","ios":"levelo://app?vid=ae6ec46d-ce10-404e-872d-00f8c99513a0"},"vehicle_type_id":"4","last_reported":1747998544,"current_range_meters":400,"station_id":"ce4bh4p2rcd13ifvqe0g","pricing_plan_id":"cebpf4jnsgd1na2vs0mg"},{"bike_id":"45b63126-4671-4233-b91e-eee371829ac0","system_id":"levelo_inurba_marseille","lat":43.28267,"lon":5.35064,"is_reserved":false,"is_disabled":true,"rental_uris":{"android":"levelo://app?vid=45b63126-4671-4233-b91e-eee371829ac0","ios":"levelo://app?vid=45b63126-4671-4233-b91e-eee371829ac0"},"vehicle_type_id":"4","last_reported":1747998544,"current_range_meters":400,"station_id":"ce4bhbp2rcd13ifvqerg","pricing_plan_id":"cebpf4jnsgd1na2vs0mg"},{"bike_id":"fac6c45d-de3f-4fd5-b36c-dfd5bf19f1a2","system_id":"levelo_inurba_marseille","lat":43.25496,"lon":5.37651,"is_reserved":false,"is_disabled":true,"rental_uris":{"android":"levelo://app?vid=fac6c45d-de3f-4fd5-b36c-dfd5bf19f1a2","ios":"levelo://app?vid=fac6c45d-de3f-4fd5-b36c-dfd5bf19f1a2"},"vehicle_type_id":"4","last_reported":1747998544,"current_range_meters":400,"station_id":"ce4bhh12rcd13ifvqff0","pricing_plan_id":"cebpf4jnsgd1na2vs0mg"},{"bike_id":"6b3492a8-0070-4f74-a7cc-3005f294bdd8","system_id":"levelo_inurba_marseille","lat":43.23196,"lon":5.35553,"is_reserved":false,"is_disabled":true,"rental_uris":{"android":"levelo://app?vid=6b3492a8-0070-4f74-a7cc-3005f294bdd8","ios":"levelo://app?vid=6b3492a8-0070-4f74-a7cc-3005f294bdd8"},"vehicle_type_id":"4","last_reported":1747998544,"current_range_meters":400,"station_id":"ce4bhu92rcd13ifvqi70","pricing_plan_id":"cebpf4jnsgd1na2vs0mg"},{"bike_id":"53016e33-5f69-4dfe-ab23-d7185fb05d4b","system_id":"levelo_inurba_marseille","lat":43.29913,"lon":5.37485,"is_reserved":false,"is_disabled":true,"rental_uris":{"android":"levelo://app?vid=53016e33-5f69-4dfe-ab23-d7185fb05d4b","ios":"levelo://app?vid=53016e33-5f69-4dfe-ab23-d7185fb05d4b"},"vehicle_type_id":"4","last_reported":1747998544,"current_range_meters":1600,"station_id":"ce4bgjh2rcd13ifvqbg0","pricing_plan_id":"cebpf4jnsgd1na2vs0mg"},{"bike_id":"228e8767-2ce8-4ac9-9a7a-8bfa7f916c11","system_id":"levelo_inurba_marseille","lat":43.29707,"lon":5.36619,"is_reserved":false,"is_disabled":true,"rental_uris":{"android":"levelo://app?vid=228e8767-2ce8-4ac9-9a7a-8bfa7f916c11","ios":"levelo://app?vid=228e8767-2ce8-4ac9-9a7a-8bfa7f916c11"},"vehicle_type_id":"4","last_reported":1747998544,"current_range_meters":1600,"station_id":"ce4bgn12rcd13ifvqbt0","pricing_plan_id":"cebpf4jnsgd1na2vs0mg"},{"bike_id":"838db9d6-87ba-4ff3-a713-2b1c7d507615","system_id":"levelo_inurba_marseille","lat":43.28033,"lon":5.36936,"is_reserved":false,"is_disabled":true,"rental_uris":{"android":"levelo://app?vid=838db9d6-87ba-4ff3-a713-2b1c7d507615","ios":"levelo://app?vid=838db9d6-87ba-4ff3-a713-2b1c7d507615"},"vehicle_type_id":"4","last_reported":1747998544,"current_range_meters":1600,"station_id":"ce4bha12rcd13ifvqef0","pricing_plan_id":"cebpf4jnsgd1na2vs0mg"},{"bike_id":"22aba8f5-722e-4f76-a541-b54c7adb732f","system_id":"levelo_inurba_marseille","lat":43.28461,"lon":5.35884,"is_reserved":false,"is_disabled":true,"rental_uris":{"android":"levelo://app?vid=22aba8f5-722e-4f76-a541-b54c7adb732f","ios":"levelo://app?vid=22aba8f5-722e-4f76-a541-b54c7adb732f"},"vehicle_type_id":"4","last_reported":1747998544,"current_range_meters":1600,"station_id":"ce4bhah2rcd13ifvqei0","pricing_plan_id":"cebpf4jnsgd1na2vs0mg"},{"bike_id":"6327a881-80ee-49c7-ba72-7542452a047e","system_id":"levelo_inurba_marseille","lat":43.27305,"lon":5.3907,"is_reserved":false,"is_disabled":true,"rental_uris":{"android":"levelo://app?vid=6327a881-80ee-49c7-ba72-7542452a047e","ios":"levelo://app?vid=6327a881-80ee-49c7-ba72-7542452a047e"},"vehicle_type_id":"4","last_reported":1747998544,"current_range_meters":1600,"station_id":"ce4bhgp2rcd13ifvqfe0","pricing_plan_id":"cebpf4jnsgd1na2vs0mg"},{"bike_id":"24c98ff7-aa8b-4ab5-a466-2eb0cc81772c","system_id":"levelo_inurba_marseille","lat":43.33725,"lon":5.39198,"is_reserved":false,"is_disabled":true,"rental_uris":{"android":"levelo://app?vid=24c98ff7-aa8b-4ab5-a466-2eb0cc81772c","ios":"levelo://app?vid=24c98ff7-aa8b-4ab5-a466-2eb0cc81772c"},"vehicle_type_id":"4","last_reported":1747998544,"current_range_meters":1600,"station_id":"ce4bhr92rcd13ifvqhsg","pricing_plan_id":"cebpf4jnsgd1na2vs0mg"},{"bike_id":"c60c5dc0-73b2-46e2-afd1-dd4e9e9b832b","system_id":"levelo_inurba_marseille","lat":43.309313,"lon":5.401418,"is_reserved":false,"is_disabled":true,"rental_uris":{"android":"levelo://app?vid=c60c5dc0-73b2-46e2-afd1-dd4e9e9b832b","ios":"levelo://app?vid=c60c5dc0-73b2-46e2-afd1-dd4e9e9b832b"},"vehicle_type_id":"4","last_reported":1747998544,"current_range_meters":2000,"station_id":"ce4bgvp2rcd13ifvqct0","pricing_plan_id":"cebpf4jnsgd1na2vs0mg"},{"bike_id":"d1731c56-7957-4eac-a26e-06dce58958f6","system_id":"levelo_inurba_marseille","lat":43.32341,"lon":5.40607,"is_reserved":false,"is_disabled":true,"rental_uris":{"android":"levelo://app?vid=d1731c56-7957-4eac-a26e-06dce58958f6","ios":"levelo://app?vid=d1731c56-7957-4eac-a26e-06dce58958f6"},"vehicle_type_id":"4","last_reported":1747998544,"current_range_meters":2000,"station_id":"ce4bhq92rcd13ifvqhjg","pricing_plan_id":"cebpf4jnsgd1na2vs0mg"},{"bike_id":"967c23d0-4a6d-4675-8354-6492bde55476","system_id":"levelo_inurba_marseille","lat":43.31352,"lon":5.397109,"is_reserved":false,"is_disabled":true,"rental_uris":{"android":"levelo://app?vid=967c23d0-4a6d-4675-8354-6492bde55476","ios":"levelo://app?vid=967c23d0-4a6d-4675-8354-6492bde55476"},"vehicle_type_id":"4","last_reported":1747998544,"current_range_meters":2800,"station_id":"ce4bgvp2rcd13ifvqcu0","pricing_plan_id":"cebpf4jnsgd1na2vs0mg"},{"bike_id":"6483cba7-f7d6-4c3b-a6fa-79fd8a5c0a45","system_id":"levelo_inurba_marseille","lat":43.29229,"lon":5.36057,"is_reserved":false,"is_disabled":false,"rental_uris":{"android":"levelo://app?vid=6483cba7-f7d6-4c3b-a6fa-79fd8a5c0a45","ios":"levelo://app?vid=6483cba7-f7d6-4c3b-a6fa-79fd8a5c0a45"},"vehicle_type_id":"4","last_reported":1747998544,"current_range_meters":2800,"station_id":"ce4bhbh2rcd13ifvqeqg","pricing_plan_id":"cebpf4jnsgd1na2vs0mg"},{"bike_id":"2827ef28-0e2e-44ad-a881-0f5a8a0f4025","system_id":"levelo_inurba_marseille","lat":43.23146,"lon":5.43708,"is_reserved":false,"is_disabled":false,"rental_uris":{"android":"levelo://app?vid=2827ef28-0e2e-44ad-a881-0f5a8a0f4025","ios":"levelo://app?vid=2827ef28-0e2e-44ad-a881-0f5a8a0f4025"},"vehicle_type_id":"4","last_reported":1747998544,"current_range_meters":2800,"station_id":"ce4bhmp2rcd13ifvqgog","pricing_plan_id":"cebpf4jnsgd1na2vs0mg"},{"bike_id":"c9720038-f202-4f57-8bd6-a1cdde386bd5","system_id":"levelo_inurba_marseille","lat":43.28417,"lon":5.34976,"is_reserved":false,"is_disabled":false,"rental_uris":{"android":"levelo://app?vid=c9720038-f202-4f57-8bd6-a1cdde386bd5","ios":"levelo://app?vid=c9720038-f202-4f57-8bd6-a1cdde386bd5"},"vehicle_type_id":"4","last_reported":1747998544,"current_range_meters":3200,"station_id":"ce4bhbh2rcd13ifvqepg","pricing_plan_id":"cebpf4jnsgd1na2vs0mg"},{"bike_id":"e32438b3-8b57-4a03-84dd-a0084ba254fd","system_id":"levelo_inurba_marseille","lat":43.29188,"lon":5.39317,"is_reserved":false,"is_disabled":false,"rental_uris":{"android":"levelo://app?vid=e32438b3-8b57-4a03-84dd-a0084ba254fd","ios":"levelo://app?vid=e32438b3-8b57-4a03-84dd-a0084ba254fd"},"vehicle_type_id":"4","last_reported":1747998544,"current_range_meters":3600,"station_id":"ce4bh192rcd13ifvqdd0","pricing_plan_id":"cebpf4jnsgd1na2vs0mg"},{"bike_id":"9cd603d6-9960-4cd9-be43-bf66f35cacec","system_id":"levelo_inurba_marseille","lat":43.297089,"lon":5.376957,"is_reserved":false,"is_disabled":false,"rental_uris":{"android":"levelo://app?vid=9cd603d6-9960-4cd9-be43-bf66f35cacec","ios":"levelo://app?vid=9cd603d6-9960-4cd9-be43-bf66f35cacec"},"vehicle_type_id":"4","last_reported":1747998544,"current_range_meters":4000,"station_id":"ce4bgkh2rcd13ifvqbl0","pricing_plan_id":"cebpf4jnsgd1na2vs0mg"},{"bike_id":"06e1c7d2-189f-4819-8fce-d5764f2dad01","system_id":"levelo_inurba_marseille","lat":43.290969,"lon":5.381111,"is_reserved":false,"is_disabled":false,"rental_uris":{"android":"levelo://app?vid=06e1c7d2-189f-4819-8fce-d5764f2dad01","ios":"levelo://app?vid=06e1c7d2-189f-4819-8fce-d5764f2dad01"},"vehicle_type_id":"4","last_reported":1747998544,"current_range_meters":4000,"station_id":"ce4bh512rcd13ifvqe2g","pricing_plan_id":"cebpf4jnsgd1na2vs0mg"},{"bike_id":"f33c3d56-0b47-471b-b7de-145766bf6d7d","system_id":"levelo_inurba_marseille","lat":43.28461,"lon":5.3589,"is_reserved":false,"is_disabled":false,"rental_uris":{"android":"levelo://app?vid=f33c3d56-0b47-471b-b7de-145766bf6d7d","ios":"levelo://app?vid=f33c3d56-0b47-471b-b7de-145766bf6d7d"},"vehicle_type_id":"4","last_reported":1747998544,"current_range_meters":4000,"station_id":"ce4bhah2rcd13ifvqei0","pricing_plan_id":"cebpf4jnsgd1na2vs0mg"},{"bike_id":"490cfea9-fbaf-4353-81f0-ee1052d69c71","system_id":"levelo_inurba_marseille","lat":43.254869,"lon":5.376491,"is_reserved":false,"is_disabled":false,"rental_uris":{"android":"levelo://app?vid=490cfea9-fbaf-4353-81f0-ee1052d69c71","ios":"levelo://app?vid=490cfea9-fbaf-4353-81f0-ee1052d69c71"},"vehicle_type_id":"4","last_reported":1747998544,"current_range_meters":4000,"station_id":"ce4bhh12rcd13ifvqff0","pricing_plan_id":"cebpf4jnsgd1na2vs0mg"},{"bike_id":"7f374a0c-9ab4-412c-a8dd-1f59fe7a5317","system_id":"levelo_inurba_marseille","lat":43.25584,"lon":5.38219,"is_reserved":false,"is_disabled":false,"rental_uris":{"android":"levelo://app?vid=7f374a0c-9ab4-412c-a8dd-1f59fe7a5317","ios":"levelo://app?vid=7f374a0c-9ab4-412c-a8dd-1f59fe7a5317"},"vehicle_type_id":"4","last_reported":1747998544,"current_range_meters":4000,"station_id":"ce4bhih2rcd13ifvqfs0","pricing_plan_id":"cebpf4jnsgd1na2vs0mg"},{"bike_id":"538b5bcb-78f1-4045-8835-bbcbb4f3e58f","system_id":"levelo_inurba_marseille","lat":43.22929,"lon":5.35367,"is_reserved":false,"is_disabled":false,"rental_uris":{"android":"levelo://app?vid=538b5bcb-78f1-4045-8835-bbcbb4f3e58f","ios":"levelo://app?vid=538b5bcb-78f1-4045-8835-bbcbb4f3e58f"},"vehicle_type_id":"4","last_reported":1747998544,"current_range_meters":4000,"station_id":"cpo3532slgdg3j2ikp40","pricing_plan_id":"cebpf4jnsgd1na2vs0mg"},{"bike_id":"814bd639-8427-41ed-bd66-748285c0c9c4","system_id":"levelo_inurba_marseille","lat":43.29257,"lon":5.38438,"is_reserved":false,"is_disabled":false,"rental_uris":{"android":"levelo://app?vid=814bd639-8427-41ed-bd66-748285c0c9c4","ios":"levelo://app?vid=814bd639-8427-41ed-bd66-748285c0c9c4"},"vehicle_type_id":"4","last_reported":1747998544,"current_range_meters":4400,"station_id":"ce4bh692rcd13ifvqea0","pricing_plan_id":"cebpf4jnsgd1na2vs0mg"},{"bike_id":"c3c7ae58-40dc-49fe-91c8-045c830c98b8","system_id":"levelo_inurba_marseille","lat":43.31789,"lon":5.44938,"is_reserved":false,"is_disabled":false,"rental_uris":{"android":"levelo://app?vid=c3c7ae58-40dc-49fe-91c8-045c830c98b8","ios":"levelo://app?vid=c3c7ae58-40dc-49fe-91c8-045c830c98b8"},"vehicle_type_id":"4","last_reported":1747998544,"current_range_meters":4800,"station_id":"","pricing_plan_id":"cebpf4jnsgd1na2vs0mg"},{"bike_id":"3fe3d6c4-138a-47df-b6b4-e6f19e8f7d46","system_id":"levelo_inurba_marseille","lat":43.21404,"lon":5.34125,"is_reserved":false,"is_disabled":false,"rental_uris":{"android":"levelo://app?vid=3fe3d6c4-138a-47df-b6b4-e6f19e8f7d46","ios":"levelo://app?vid=3fe3d6c4-138a-47df-b6b4-e6f19e8f7d46"},"vehicle_type_id":"4","last_reported":1747998544,"current_range_meters":4800,"station_id":"","pricing_plan_id":"cebpf4jnsgd1na2vs0mg"},{"bike_id":"d3f9bf3a-e176-4ca2-837e-a36686e05227","system_id":"levelo_inurba_marseille","lat":43.25721,"lon":5.41104,"is_reserved":false,"is_disabled":false,"rental_uris":{"android":"levelo://app?vid=d3f9bf3a-e176-4ca2-837e-a36686e05227","ios":"levelo://app?vid=d3f9bf3a-e176-4ca2-837e-a36686e05227"},"vehicle_type_id":"4","last_reported":1747998544,"current_range_meters":4800,"station_id":"ce4bhkp2rcd13ifvqgd0","pricing_plan_id":"cebpf4jnsgd1na2vs0mg"},{"bike_id":"e0685d5f-a05b-42e5-9d20-a836aa36f035","system_id":"levelo_inurba_marseille","lat":43.24179,"lon":5.3972,"is_reserved":false,"is_disabled":false,"rental_uris":{"android":"levelo://app?vid=e0685d5f-a05b-42e5-9d20-a836aa36f035","ios":"levelo://app?vid=e0685d5f-a05b-42e5-9d20-a836aa36f035"},"vehicle_type_id":"4","last_reported":1747998544,"current_range_meters":4800,"station_id":"ce4bhn12rcd13ifvqgpg","pricing_plan_id":"cebpf4jnsgd1na2vs0mg"},{"bike_id":"9e266565-60d6-4b2b-9ac8-7a118a974149","system_id":"levelo_inurba_marseille","lat":43.26569,"lon":5.39012,"is_reserved":false,"is_disabled":false,"rental_uris":{"android":"levelo://app?vid=9e266565-60d6-4b2b-9ac8-7a118a974149","ios":"levelo://app?vid=9e266565-60d6-4b2b-9ac8-7a118a974149"},"vehicle_type_id":"4","last_reported":1747998544,"current_range_meters":5600,"station_id":"","pricing_plan_id":"cebpf4jnsgd1na2vs0mg"},{"bike_id":"3fe1c154-104e-4a50-9585-b523501730a3","system_id":"levelo_inurba_marseille","lat":43.301422,"lon":5.374303,"is_reserved":false,"is_disabled":false,"rental_uris":{"android":"levelo://app?vid=3fe1c154-104e-4a50-9585-b523501730a3","ios":"levelo://app?vid=3fe1c154-104e-4a50-9585-b523501730a3"},"vehicle_type_id":"4","last_reported":1747998544,"current_range_meters":6000,"station_id":"","pricing_plan_id":"cebpf4jnsgd1na2vs0mg"},{"bike_id":"ad4d8099-03a6-43ca-966f-189fb83ff678","system_id":"levelo_inurba_marseille","lat":43.3126,"lon":5.37405,"is_reserved":false,"is_disabled":false,"rental_uris":{"android":"levelo://app?vid=ad4d8099-03a6-43ca-966f-189fb83ff678","ios":"levelo://app?vid=ad4d8099-03a6-43ca-966f-189fb83ff678"},"vehicle_type_id":"4","last_reported":1747998544,"current_range_meters":6000,"station_id":"","pricing_plan_id":"cebpf4jnsgd1na2vs0mg"},{"bike_id":"f9fb40c0-1fcd-48cb-8e26-3f2dc0fb2451","system_id":"levelo_inurba_marseille","lat":43.33751,"lon":5.37509,"is_reserved":false,"is_disabled":false,"rental_uris":{"android":"levelo://app?vid=f9fb40c0-1fcd-48cb-8e26-3f2dc0fb2451","ios":"levelo://app?vid=f9fb40c0-1fcd-48cb-8e26-3f2dc0fb2451"},"vehicle_type_id":"4","last_reported":1747998544,"current_range_meters":6000,"station_id":"","pricing_plan_id":"cebpf4jnsgd1na2vs0mg"},{"bike_id":"0b8c5c0c-fdf0-4cbc-b86a-04fc6bba9a2d","system_id":"levelo_inurba_marseille","lat":43.32109,"lon":5.36777,"is_reserved":false,"is_disabled":false,"rental_uris":{"android":"levelo://app?vid=0b8c5c0c-fdf0-4cbc-b86a-04fc6bba9a2d","ios":"levelo://app?vid=0b8c5c0c-fdf0-4cbc-b86a-04fc6bba9a2d"},"vehicle_type_id":"4","last_reported":1747998544,"current_range_meters":6000,"station_id":"ce4bhrh2rcd13ifvqhug","pricing_plan_id":"cebpf4jnsgd1na2vs0mg"},{"bike_id":"cd2b9d97-3676-4c83-8e3b-aa4857457d9a","system_id":"levelo_inurba_marseille","lat":43.31498,"lon":5.37037,"is_reserved":false,"is_disabled":false,"rental_uris":{"android":"levelo://app?vid=cd2b9d97-3676-4c83-8e3b-aa4857457d9a","ios":"levelo://app?vid=cd2b9d97-3676-4c83-8e3b-aa4857457d9a"},"vehicle_type_id":"4","last_reported":1747998544,"current_range_meters":6400,"station_id":"","pricing_plan_id":"cebpf4jnsgd1na2vs0mg"},{"bike_id":"c9446bf7-fe27-42cd-aeba-4cc38e620388","system_id":"levelo_inurba_marseille","lat":43.30549,"lon":5.36556,"is_reserved":false,"is_disabled":false,"rental_uris":{"android":"levelo://app?vid=c9446bf7-fe27-42cd-aeba-4cc38e620388","ios":"levelo://app?vid=c9446bf7-fe27-42cd-aeba-4cc38e620388"},"vehicle_type_id":"4","last_reported":1747998544,"current_range_meters":6400,"station_id":"ce4bgs12rcd13ifvqcag","pricing_plan_id":"cebpf4jnsgd1na2vs0mg"},{"bike_id":"440684f2-1091-402a-b0ad-0f87f700bc71","system_id":"levelo_inurba_marseille","lat":43.255,"lon":5.37649,"is_reserved":false,"is_disabled":false,"rental_uris":{"android":"levelo://app?vid=440684f2-1091-402a-b0ad-0f87f700bc71","ios":"levelo://app?vid=440684f2-1091-402a-b0ad-0f87f700bc71"},"vehicle_type_id":"4","last_reported":1747998544,"current_range_meters":6400,"station_id":"ce4bhh12rcd13ifvqff0","pricing_plan_id":"cebpf4jnsgd1na2vs0mg"},{"bike_id":"f3b193c1-b725-4a32-88d9-2782bd2c91f7","system_id":"levelo_inurba_marseille","lat":43.24387,"lon":5.37063,"is_reserved":false,"is_disabled":false,"rental_uris":{"android":"levelo://app?vid=f3b193c1-b725-4a32-88d9-2782bd2c91f7","ios":"levelo://app?vid=f3b193c1-b725-4a32-88d9-2782bd2c91f7"},"vehicle_type_id":"4","last_reported":1747998544,"current_range_meters":6400,"station_id":"ce4bhhh2rcd13ifvqfk0","pricing_plan_id":"cebpf4jnsgd1na2vs0mg"},{"bike_id":"27653dcd-dec9-4f13-b172-8968c20c1725","system_id":"levelo_inurba_marseille","lat":43.23844,"lon":5.43086,"is_reserved":false,"is_disabled":false,"rental_uris":{"android":"levelo://app?vid=27653dcd-dec9-4f13-b172-8968c20c1725","ios":"levelo://app?vid=27653dcd-dec9-4f13-b172-8968c20c1725"},"vehicle_type_id":"4","last_reported":1747998544,"current_range_meters":6800,"station_id":"","pricing_plan_id":"cebpf4jnsgd1na2vs0mg"},{"bike_id":"1dca60cb-cd6a-41d2-9372-1c498ff8b617","system_id":"levelo_inurba_marseille","lat":43.30585,"lon":5.37271,"is_reserved":false,"is_disabled":false,"rental_uris":{"android":"levelo://app?vid=1dca60cb-cd6a-41d2-9372-1c498ff8b617","ios":"levelo://app?vid=1dca60cb-cd6a-41d2-9372-1c498ff8b617"},"vehicle_type_id":"4","last_reported":1747998544,"current_range_meters":6800,"station_id":"ce4bgqh2rcd13ifvqc4g","pricing_plan_id":"cebpf4jnsgd1na2vs0mg"},{"bike_id":"cce5117a-f7e1-470d-bd7b-da1aa8d022c6","system_id":"levelo_inurba_marseille","lat":43.25115,"lon":5.40323,"is_reserved":false,"is_disabled":false,"rental_uris":{"android":"levelo://app?vid=cce5117a-f7e1-470d-bd7b-da1aa8d022c6","ios":"levelo://app?vid=cce5117a-f7e1-470d-bd7b-da1aa8d022c6"},"vehicle_type_id":"4","last_reported":1747998544,"current_range_meters":6800,"station_id":"ce4bhlh2rcd13ifvqgig","pricing_plan_id":"cebpf4jnsgd1na2vs0mg"},{"bike_id":"6a85369f-636f-4448-91f6-e3994a0fb52b","system_id":"levelo_inurba_marseille","lat":43.27748,"lon":5.38685,"is_reserved":false,"is_disabled":false,"rental_uris":{"android":"levelo://app?vid=6a85369f-636f-4448-91f6-e3994a0fb52b","ios":"levelo://app?vid=6a85369f-636f-4448-91f6-e3994a0fb52b"},"vehicle_type_id":"4","last_reported":1747998544,"current_range_meters":7200,"station_id":"","pricing_plan_id":"cebpf4jnsgd1na2vs0mg"},{"bike_id":"9b40caf6-2e32-440b-8645-98bf8c4de126","system_id":"levelo_inurba_marseille","lat":43.30972,"lon":5.38406,"is_reserved":false,"is_disabled":false,"rental_uris":{"android":"levelo://app?vid=9b40caf6-2e32-440b-8645-98bf8c4de126","ios":"levelo://app?vid=9b40caf6-2e32-440b-8645-98bf8c4de126"},"vehicle_type_id":"4","last_reported":1747998544,"current_range_meters":7200,"station_id":"","pricing_plan_id":"cebpf4jnsgd1na2vs0mg"},{"bike_id":"20d4c44a-7e96-49e4-a342-98942effd3ae","system_id":"levelo_inurba_marseille","lat":43.309588,"lon":5.390414,"is_reserved":false,"is_disabled":false,"rental_uris":{"android":"levelo://app?vid=20d4c44a-7e96-49e4-a342-98942effd3ae","ios":"levelo://app?vid=20d4c44a-7e96-49e4-a342-98942effd3ae"},"vehicle_type_id":"4","last_reported":1747998544,"current_range_meters":7200,"station_id":"ce4bgup2rcd13ifvqco0","pricing_plan_id":"cebpf4jnsgd1na2vs0mg"},{"bike_id":"895fec85-4848-4820-b938-243da6ee2367","system_id":"levelo_inurba_marseille","lat":43.304598,"lon":5.379112,"is_reserved":false,"is_disabled":false,"rental_uris":{"android":"levelo://app?vid=895fec85-4848-4820-b938-243da6ee2367","ios":"levelo://app?vid=895fec85-4848-4820-b938-243da6ee2367"},"vehicle_type_id":"4","last_reported":1747998544,"current_range_meters":7200,"station_id":"ce4bhs12rcd13ifvqhvg","pricing_plan_id":"cebpf4jnsgd1na2vs0mg"},{"bike_id":"fb32fffd-63a2-4c1d-8525-9daa9aa3ebff","system_id":"levelo_inurba_marseille","lat":43.21183,"lon":5.35069,"is_reserved":false,"is_disabled":false,"rental_uris":{"android":"levelo://app?vid=fb32fffd-63a2-4c1d-8525-9daa9aa3ebff","ios":"levelo://app?vid=fb32fffd-63a2-4c1d-8525-9daa9aa3ebff"},"vehicle_type_id":"4","last_reported":1747998544,"current_range_meters":7200,"station_id":"st_cvj6sg6p6f1abm77japg","pricing_plan_id":"cebpf4jnsgd1na2vs0mg"},{"bike_id":"31110881-d64f-45f8-9810-bbf84a002836","system_id":"levelo_inurba_marseille","lat":43.28329,"lon":5.46138,"is_reserved":false,"is_disabled":false,"rental_uris":{"android":"levelo://app?vid=31110881-d64f-45f8-9810-bbf84a002836","ios":"levelo://app?vid=31110881-d64f-45f8-9810-bbf84a002836"},"vehicle_type_id":"4","last_reported":1747998544,"current_range_meters":8000,"station_id":"","pricing_plan_id":"cebpf4jnsgd1na2vs0mg"},{"bike_id":"4b043e01-a5de-42bf-a94a-514363515081","system_id":"levelo_inurba_marseille","lat":43.25126,"lon":5.40332,"is_reserved":false,"is_disabled":false,"rental_uris":{"android":"levelo://app?vid=4b043e01-a5de-42bf-a94a-514363515081","ios":"levelo://app?vid=4b043e01-a5de-42bf-a94a-514363515081"},"vehicle_type_id":"4","last_reported":1747998544,"current_range_meters":8000,"station_id":"","pricing_plan_id":"cebpf4jnsgd1na2vs0mg"},{"bike_id":"4e41cc1c-469f-412b-bc2c-c14bbfe28485","system_id":"levelo_inurba_marseille","lat":43.29798,"lon":5.381,"is_reserved":false,"is_disabled":false,"rental_uris":{"android":"levelo://app?vid=4e41cc1c-469f-412b-bc2c-c14bbfe28485","ios":"levelo://app?vid=4e41cc1c-469f-412b-bc2c-c14bbfe28485"},"vehicle_type_id":"4","last_reported":1747998544,"current_range_meters":8000,"station_id":"ce4bgip2rcd13ifvqbb0","pricing_plan_id":"cebpf4jnsgd1na2vs0mg"},{"bike_id":"ade65251-3f09-4851-b002-e2e16c7c6aee","system_id":"levelo_inurba_marseille","lat":43.29697,"lon":5.3659,"is_reserved":false,"is_disabled":false,"rental_uris":{"android":"levelo://app?vid=ade65251-3f09-4851-b002-e2e16c7c6aee","ios":"levelo://app?vid=ade65251-3f09-4851-b002-e2e16c7c6aee"},"vehicle_type_id":"4","last_reported":1747998544,"current_range_meters":8000,"station_id":"ce4bgn12rcd13ifvqbt0","pricing_plan_id":"cebpf4jnsgd1na2vs0mg"},{"bike_id":"77436b97-c4e1-4f2c-b25d-4ade62c1aaf3","system_id":"levelo_inurba_marseille","lat":43.29274,"lon":5.3684,"is_reserved":false,"is_disabled":false,"rental_uris":{"android":"levelo://app?vid=77436b97-c4e1-4f2c-b25d-4ade62c1aaf3","ios":"levelo://app?vid=77436b97-c4e1-4f2c-b25d-4ade62c1aaf3"},"vehicle_type_id":"4","last_reported":1747998544,"current_range_meters":8000,"station_id":"ce4bhbp2rcd13ifvqesg","pricing_plan_id":"cebpf4jnsgd1na2vs0mg"},{"bike_id":"9f77cae3-9ee4-4f8d-9508-03dd93c77bb6","system_id":"levelo_inurba_marseille","lat":43.25926,"lon":5.40924,"is_reserved":false,"is_disabled":false,"rental_uris":{"android":"levelo://app?vid=9f77cae3-9ee4-4f8d-9508-03dd93c77bb6","ios":"levelo://app?vid=9f77cae3-9ee4-4f8d-9508-03dd93c77bb6"},"vehicle_type_id":"4","last_reported":1747998544,"current_range_meters":8000,"station_id":"ce4bhm92rcd13ifvqglg","pricing_plan_id":"cebpf4jnsgd1na2vs0mg"},{"bike_id":"7dfdfdc8-9c79-46b6-9a4b-924773b53f29","system_id":"levelo_inurba_marseille","lat":43.268701,"lon":5.391635,"is_reserved":false,"is_disabled":false,"rental_uris":{"android":"levelo://app?vid=7dfdfdc8-9c79-46b6-9a4b-924773b53f29","ios":"levelo://app?vid=7dfdfdc8-9c79-46b6-9a4b-924773b53f29"},"vehicle_type_id":"4","last_reported":1747998544,"current_range_meters":8400,"station_id":"","pricing_plan_id":"cebpf4jnsgd1na2vs0mg"},{"bike_id":"950cad50-4e47-43b4-ba8e-d97ac6386634","system_id":"levelo_inurba_marseille","lat":43.25563,"lon":5.38251,"is_reserved":false,"is_disabled":false,"rental_uris":{"android":"levelo://app?vid=950cad50-4e47-43b4-ba8e-d97ac6386634","ios":"levelo://app?vid=950cad50-4e47-43b4-ba8e-d97ac6386634"},"vehicle_type_id":"4","last_reported":1747998544,"current_range_meters":8400,"station_id":"","pricing_plan_id":"cebpf4jnsgd1na2vs0mg"},{"bike_id":"2b757d5e-301a-40f8-b415-3914c74406b8","system_id":"levelo_inurba_marseille","lat":43.30141,"lon":5.38074,"is_reserved":false,"is_disabled":false,"rental_uris":{"android":"levelo://app?vid=2b757d5e-301a-40f8-b415-3914c74406b8","ios":"levelo://app?vid=2b757d5e-301a-40f8-b415-3914c74406b8"},"vehicle_type_id":"4","last_reported":1747998544,"current_range_meters":8400,"station_id":"ce4bgjp2rcd13ifvqbh0","pricing_plan_id":"cebpf4jnsgd1na2vs0mg"},{"bike_id":"3221b51e-aba8-4ba0-a33f-b1b810117690","system_id":"levelo_inurba_marseille","lat":43.291261,"lon":5.382963,"is_reserved":false,"is_disabled":false,"rental_uris":{"android":"levelo://app?vid=3221b51e-aba8-4ba0-a33f-b1b810117690","ios":"levelo://app?vid=3221b51e-aba8-4ba0-a33f-b1b810117690"},"vehicle_type_id":"4","last_reported":1747998544,"current_range_meters":8800,"station_id":"","pricing_plan_id":"cebpf4jnsgd1na2vs0mg"},{"bike_id":"3b032f4f-765e-430e-9cce-6070466df04c","system_id":"levelo_inurba_marseille","lat":43.30459,"lon":5.37898,"is_reserved":false,"is_disabled":false,"rental_uris":{"android":"levelo://app?vid=3b032f4f-765e-430e-9cce-6070466df04c","ios":"levelo://app?vid=3b032f4f-765e-430e-9cce-6070466df04c"},"vehicle_type_id":"4","last_reported":1747998544,"current_range_meters":8800,"station_id":"ce4bgup2rcd13ifvqcn0","pricing_plan_id":"cebpf4jnsgd1na2vs0mg"},{"bike_id":"5ca85341-f538-44d6-8c41-92dd75907c4a","system_id":"levelo_inurba_marseille","lat":43.28932,"lon":5.38405,"is_reserved":false,"is_disabled":false,"rental_uris":{"android":"levelo://app?vid=5ca85341-f538-44d6-8c41-92dd75907c4a","ios":"levelo://app?vid=5ca85341-f538-44d6-8c41-92dd75907c4a"},"vehicle_type_id":"4","last_reported":1747998544,"current_range_meters":8800,"station_id":"ce4bh612rcd13ifvqe6g","pricing_plan_id":"cebpf4jnsgd1na2vs0mg"},{"bike_id":"55b790a0-213a-4336-bea1-d8f7753bff20","system_id":"levelo_inurba_marseille","lat":43.261903,"lon":5.374493,"is_reserved":false,"is_disabled":false,"rental_uris":{"android":"levelo://app?vid=55b790a0-213a-4336-bea1-d8f7753bff20","ios":"levelo://app?vid=55b790a0-213a-4336-bea1-d8f7753bff20"},"vehicle_type_id":"4","last_reported":1747998544,"current_range_meters":8800,"station_id":"ce4bhgp2rcd13ifvqfc0","pricing_plan_id":"cebpf4jnsgd1na2vs0mg"},{"bike_id":"c2ea5a9c-8fd7-40ac-8515-427466010d70","system_id":"levelo_inurba_marseille","lat":43.321107,"lon":5.36772,"is_reserved":false,"is_disabled":false,"rental_uris":{"android":"levelo://app?vid=c2ea5a9c-8fd7-40ac-8515-427466010d70","ios":"levelo://app?vid=c2ea5a9c-8fd7-40ac-8515-427466010d70"},"vehicle_type_id":"4","last_reported":1747998544,"current_range_meters":8800,"station_id":"ce4bhrh2rcd13ifvqhug","pricing_plan_id":"cebpf4jnsgd1na2vs0mg"},{"bike_id":"e4562ad1-0a39-4300-91ec-1f0dc2c1ff97","system_id":"levelo_inurba_marseille","lat":43.32487,"lon":5.36543,"is_reserved":false,"is_disabled":false,"rental_uris":{"android":"levelo://app?vid=e4562ad1-0a39-4300-91ec-1f0dc2c1ff97","ios":"levelo://app?vid=e4562ad1-0a39-4300-91ec-1f0dc2c1ff97"},"vehicle_type_id":"4","last_reported":1747998544,"current_range_meters":8800,"station_id":"ce4bhs12rcd13ifvqhvg","pricing_plan_id":"cebpf4jnsgd1na2vs0mg"},{"bike_id":"a3896e9a-b111-4a5e-9fba-9fce87836ccc","system_id":"levelo_inurba_marseille","lat":43.255807,"lon":5.382217,"is_reserved":false,"is_disabled":false,"rental_uris":{"android":"levelo://app?vid=a3896e9a-b111-4a5e-9fba-9fce87836ccc","ios":"levelo://app?vid=a3896e9a-b111-4a5e-9fba-9fce87836ccc"},"vehicle_type_id":"4","last_reported":1747998544,"current_range_meters":9200,"station_id":"ce4bhih2rcd13ifvqfs0","pricing_plan_id":"cebpf4jnsgd1na2vs0mg"},{"bike_id":"885ca37f-6f09-4c92-a702-808b643fd403","system_id":"levelo_inurba_marseille","lat":43.28152,"lon":5.42645,"is_reserved":false,"is_disabled":false,"rental_uris":{"android":"levelo://app?vid=885ca37f-6f09-4c92-a702-808b643fd403","ios":"levelo://app?vid=885ca37f-6f09-4c92-a702-808b643fd403"},"vehicle_type_id":"4","last_reported":1747998544,"current_range_meters":9200,"station_id":"ce4bhnh2rcd13ifvqgug","pricing_plan_id":"cebpf4jnsgd1na2vs0mg"},{"bike_id":"4e8fa508-b328-4cf6-af3c-1336267fe6b6","system_id":"levelo_inurba_marseille","lat":43.324838,"lon":5.365603,"is_reserved":false,"is_disabled":false,"rental_uris":{"android":"levelo://app?vid=4e8fa508-b328-4cf6-af3c-1336267fe6b6","ios":"levelo://app?vid=4e8fa508-b328-4cf6-af3c-1336267fe6b6"},"vehicle_type_id":"4","last_reported":1747998544,"current_range_meters":9200,"station_id":"ce4bhs12rcd13ifvqhvg","pricing_plan_id":"cebpf4jnsgd1na2vs0mg"},{"bike_id":"14feda73-7baf-4b64-8ae9-79f4fe7d4a5f","system_id":"levelo_inurba_marseille","lat":43.323724,"lon":5.367613,"is_reserved":false,"is_disabled":false,"rental_uris":{"android":"levelo://app?vid=14feda73-7baf-4b64-8ae9-79f4fe7d4a5f","ios":"levelo://app?vid=14feda73-7baf-4b64-8ae9-79f4fe7d4a5f"},"vehicle_type_id":"4","last_reported":1747998544,"current_range_meters":9200,"station_id":"ce4bhsh2rcd13ifvqi2g","pricing_plan_id":"cebpf4jnsgd1na2vs0mg"},{"bike_id":"17148125-4448-4240-822a-f14c1ff6daf2","system_id":"levelo_inurba_marseille","lat":43.30542,"lon":5.36541,"is_reserved":false,"is_disabled":false,"rental_uris":{"android":"levelo://app?vid=17148125-4448-4240-822a-f14c1ff6daf2","ios":"levelo://app?vid=17148125-4448-4240-822a-f14c1ff6daf2"},"vehicle_type_id":"4","last_reported":1747998544,"current_range_meters":9600,"station_id":"ce4bgs12rcd13ifvqcag","pricing_plan_id":"cebpf4jnsgd1na2vs0mg"},{"bike_id":"b40170ee-9f3c-48c8-a388-0a6c1126e404","system_id":"levelo_inurba_marseille","lat":43.30543,"lon":5.36552,"is_reserved":false,"is_disabled":false,"rental_uris":{"android":"levelo://app?vid=b40170ee-9f3c-48c8-a388-0a6c1126e404","ios":"levelo://app?vid=b40170ee-9f3c-48c8-a388-0a6c1126e404"},"vehicle_type_id":"4","last_reported":1747998544,"current_range_meters":9600,"station_id":"ce4bgs12rcd13ifvqcag","pricing_plan_id":"cebpf4jnsgd1na2vs0mg"},{"bike_id":"037bedfe-0b72-4771-9964-356ea53cc8fa","system_id":"levelo_inurba_marseille","lat":43.26684,"lon":5.38276,"is_reserved":false,"is_disabled":false,"rental_uris":{"android":"levelo://app?vid=037bedfe-0b72-4771-9964-356ea53cc8fa","ios":"levelo://app?vid=037bedfe-0b72-4771-9964-356ea53cc8fa"},"vehicle_type_id":"4","last_reported":1747998544,"current_range_meters":9600,"station_id":"ce4bhg92rcd13ifvqf90","pricing_plan_id":"cebpf4jnsgd1na2vs0mg"},{"bike_id":"682e8c54-3f77-4582-937b-7490f31456f6","system_id":"levelo_inurba_marseille","lat":43.25866,"lon":5.39904,"is_reserved":false,"is_disabled":false,"rental_uris":{"android":"levelo://app?vid=682e8c54-3f77-4582-937b-7490f31456f6","ios":"levelo://app?vid=682e8c54-3f77-4582-937b-7490f31456f6"},"vehicle_type_id":"4","last_reported":1747998544,"current_range_meters":9600,"station_id":"ce4bhl92rcd13ifvqghg","pricing_plan_id":"cebpf4jnsgd1na2vs0mg"},{"bike_id":"a82c83d9-6473-4785-ab8e-2c36f99b35be","system_id":"levelo_inurba_marseille","lat":43.2808,"lon":5.39661,"is_reserved":false,"is_disabled":false,"rental_uris":{"android":"levelo://app?vid=a82c83d9-6473-4785-ab8e-2c36f99b35be","ios":"levelo://app?vid=a82c83d9-6473-4785-ab8e-2c36f99b35be"},"vehicle_type_id":"4","last_reported":1747998544,"current_range_meters":9600,"station_id":"ce4bho12rcd13ifvqh2g","pricing_plan_id":"cebpf4jnsgd1na2vs0mg"},{"bike_id":"2d5f7454-a4a6-4e8b-9495-8d6b94c61ba5","system_id":"levelo_inurba_marseille","lat":43.22927,"lon":5.35373,"is_reserved":false,"is_disabled":false,"rental_uris":{"android":"levelo://app?vid=2d5f7454-a4a6-4e8b-9495-8d6b94c61ba5","ios":"levelo://app?vid=2d5f7454-a4a6-4e8b-9495-8d6b94c61ba5"},"vehicle_type_id":"4","last_reported":1747998544,"current_range_meters":9600,"station_id":"cpo3532slgdg3j2ikp40","pricing_plan_id":"cebpf4jnsgd1na2vs0mg"},{"bike_id":"2c87c810-7a38-4e57-b8f4-53b1ff151be1","system_id":"levelo_inurba_marseille","lat":43.28529,"lon":5.39162,"is_reserved":false,"is_disabled":false,"rental_uris":{"android":"levelo://app?vid=2c87c810-7a38-4e57-b8f4-53b1ff151be1","ios":"levelo://app?vid=2c87c810-7a38-4e57-b8f4-53b1ff151be1"},"vehicle_type_id":"4","last_reported":1747998544,"current_range_meters":10000,"station_id":"","pricing_plan_id":"cebpf4jnsgd1na2vs0mg"},{"bike_id":"b5af5f86-f6ab-4a3a-a5fa-efb0141ee615","system_id":"levelo_inurba_marseille","lat":43.29264,"lon":5.37614,"is_reserved":false,"is_disabled":false,"rental_uris":{"android":"levelo://app?vid=b5af5f86-f6ab-4a3a-a5fa-efb0141ee615","ios":"levelo://app?vid=b5af5f86-f6ab-4a3a-a5fa-efb0141ee615"},"vehicle_type_id":"4","last_reported":1747998544,"current_range_meters":10000,"station_id":"ce4bgi12rcd13ifvqb80","pricing_plan_id":"cebpf4jnsgd1na2vs0mg"},{"bike_id":"abbfee28-2619-4387-add8-b6bb832c85d3","system_id":"levelo_inurba_marseille","lat":43.30536,"lon":5.36545,"is_reserved":false,"is_disabled":false,"rental_uris":{"android":"levelo://app?vid=abbfee28-2619-4387-add8-b6bb832c85d3","ios":"levelo://app?vid=abbfee28-2619-4387-add8-b6bb832c85d3"},"vehicle_type_id":"4","last_reported":1747998544,"current_range_meters":10000,"station_id":"ce4bgs12rcd13ifvqcag","pricing_plan_id":"cebpf4jnsgd1na2vs0mg"},{"bike_id":"c8aa5cf6-19f2-4fd6-a4ec-f7d8dbbd7073","system_id":"levelo_inurba_marseille","lat":43.26057,"lon":5.394,"is_reserved":false,"is_disabled":false,"rental_uris":{"android":"levelo://app?vid=c8aa5cf6-19f2-4fd6-a4ec-f7d8dbbd7073","ios":"levelo://app?vid=c8aa5cf6-19f2-4fd6-a4ec-f7d8dbbd7073"},"vehicle_type_id":"4","last_reported":1747998544,"current_range_meters":10000,"station_id":"ce4bhh92rcd13ifvqfj0","pricing_plan_id":"cebpf4jnsgd1na2vs0mg"},{"bike_id":"18ca849a-bab9-472d-80e2-f3856fcd9684","system_id":"levelo_inurba_marseille","lat":43.2396,"lon":5.36639,"is_reserved":false,"is_disabled":false,"rental_uris":{"android":"levelo://app?vid=18ca849a-bab9-472d-80e2-f3856fcd9684","ios":"levelo://app?vid=18ca849a-bab9-472d-80e2-f3856fcd9684"},"vehicle_type_id":"4","last_reported":1747998544,"current_range_meters":10000,"station_id":"ce4bhi12rcd13ifvqfp0","pricing_plan_id":"cebpf4jnsgd1na2vs0mg"},{"bike_id":"e3e19b90-9823-4b53-b8a7-4c599b3176c2","system_id":"levelo_inurba_marseille","lat":43.25101,"lon":5.40336,"is_reserved":false,"is_disabled":false,"rental_uris":{"android":"levelo://app?vid=e3e19b90-9823-4b53-b8a7-4c599b3176c2","ios":"levelo://app?vid=e3e19b90-9823-4b53-b8a7-4c599b3176c2"},"vehicle_type_id":"4","last_reported":1747998544,"current_range_meters":10000,"station_id":"ce4bhlh2rcd13ifvqgig","pricing_plan_id":"cebpf4jnsgd1na2vs0mg"},{"bike_id":"6e0ef299-0936-4911-b177-862cab14ae70","system_id":"levelo_inurba_marseille","lat":43.23134,"lon":5.43729,"is_reserved":false,"is_disabled":false,"rental_uris":{"android":"levelo://app?vid=6e0ef299-0936-4911-b177-862cab14ae70","ios":"levelo://app?vid=6e0ef299-0936-4911-b177-862cab14ae70"},"vehicle_type_id":"4","last_reported":1747998544,"current_range_meters":10000,"station_id":"ce4bhmp2rcd13ifvqgog","pricing_plan_id":"cebpf4jnsgd1na2vs0mg"},{"bike_id":"9cc3b2c4-aaa5-413e-83b0-9dbc767b9540","system_id":"levelo_inurba_marseille","lat":43.21179,"lon":5.3506,"is_reserved":false,"is_disabled":false,"rental_uris":{"android":"levelo://app?vid=9cc3b2c4-aaa5-413e-83b0-9dbc767b9540","ios":"levelo://app?vid=9cc3b2c4-aaa5-413e-83b0-9dbc767b9540"},"vehicle_type_id":"4","last_reported":1747998544,"current_range_meters":10000,"station_id":"st_cvj6sg6p6f1abm77japg","pricing_plan_id":"cebpf4jnsgd1na2vs0mg"},{"bike_id":"823489db-94be-42d5-80e9-6488cc04baee","system_id":"levelo_inurba_marseille","lat":43.21767,"lon":5.34559,"is_reserved":false,"is_disabled":false,"rental_uris":{"android":"levelo://app?vid=823489db-94be-42d5-80e9-6488cc04baee","ios":"levelo://app?vid=823489db-94be-42d5-80e9-6488cc04baee"},"vehicle_type_id":"4","last_reported":1747998544,"current_range_meters":10800,"station_id":"","pricing_plan_id":"cebpf4jnsgd1na2vs0mg"},{"bike_id":"96f41721-3863-430e-9fa4-b2cfe983e031","system_id":"levelo_inurba_marseille","lat":43.292572,"lon":5.376284,"is_reserved":false,"is_disabled":false,"rental_uris":{"android":"levelo://app?vid=96f41721-3863-430e-9fa4-b2cfe983e031","ios":"levelo://app?vid=96f41721-3863-430e-9fa4-b2cfe983e031"},"vehicle_type_id":"4","last_reported":1747998544,"current_range_meters":10800,"station_id":"","pricing_plan_id":"cebpf4jnsgd1na2vs0mg"},{"bike_id":"8a2869f8-bb83-400f-bef4-cf881d47478b","system_id":"levelo_inurba_marseille","lat":43.29023,"lon":5.38644,"is_reserved":false,"is_disabled":false,"rental_uris":{"android":"levelo://app?vid=8a2869f8-bb83-400f-bef4-cf881d47478b","ios":"levelo://app?vid=8a2869f8-bb83-400f-bef4-cf881d47478b"},"vehicle_type_id":"4","last_reported":1747998544,"current_range_meters":10800,"station_id":"ce4bh4p2rcd13ifvqe0g","pricing_plan_id":"cebpf4jnsgd1na2vs0mg"},{"bike_id":"23d143d1-3ad0-448c-a704-752010e19e0b","system_id":"levelo_inurba_marseille","lat":43.25496,"lon":5.376433,"is_reserved":false,"is_disabled":false,"rental_uris":{"android":"levelo://app?vid=23d143d1-3ad0-448c-a704-752010e19e0b","ios":"levelo://app?vid=23d143d1-3ad0-448c-a704-752010e19e0b"},"vehicle_type_id":"4","last_reported":1747998544,"current_range_meters":10800,"station_id":"ce4bhh12rcd13ifvqff0","pricing_plan_id":"cebpf4jnsgd1na2vs0mg"},{"bike_id":"c37129d0-9692-488b-9c5e-6be3674ee8e7","system_id":"levelo_inurba_marseille","lat":43.23962,"lon":5.36628,"is_reserved":false,"is_disabled":false,"rental_uris":{"android":"levelo://app?vid=c37129d0-9692-488b-9c5e-6be3674ee8e7","ios":"levelo://app?vid=c37129d0-9692-488b-9c5e-6be3674ee8e7"},"vehicle_type_id":"4","last_reported":1747998544,"current_range_meters":10800,"station_id":"ce4bhi12rcd13ifvqfp0","pricing_plan_id":"cebpf4jnsgd1na2vs0mg"},{"bike_id":"65656944-1e6a-4a01-b032-6226003cf675","system_id":"levelo_inurba_marseille","lat":43.24178,"lon":5.3973,"is_reserved":false,"is_disabled":false,"rental_uris":{"android":"levelo://app?vid=65656944-1e6a-4a01-b032-6226003cf675","ios":"levelo://app?vid=65656944-1e6a-4a01-b032-6226003cf675"},"vehicle_type_id":"4","last_reported":1747998544,"current_range_meters":10800,"station_id":"ce4bhn12rcd13ifvqgpg","pricing_plan_id":"cebpf4jnsgd1na2vs0mg"},{"bike_id":"ce2a8ae6-af53-4d21-b1e1-9857f78edb86","system_id":"levelo_inurba_marseille","lat":43.29301,"lon":5.37457,"is_reserved":false,"is_disabled":false,"rental_uris":{"android":"levelo://app?vid=ce2a8ae6-af53-4d21-b1e1-9857f78edb86","ios":"levelo://app?vid=ce2a8ae6-af53-4d21-b1e1-9857f78edb86"},"vehicle_type_id":"4","last_reported":1747998544,"current_range_meters":11200,"station_id":"ce4bgi12rcd13ifvqb70","pricing_plan_id":"cebpf4jnsgd1na2vs0mg"},{"bike_id":"47b19548-af6c-4f0a-bc07-269771583c07","system_id":"levelo_inurba_marseille","lat":43.30138,"lon":5.37427,"is_reserved":false,"is_disabled":false,"rental_uris":{"android":"levelo://app?vid=47b19548-af6c-4f0a-bc07-269771583c07","ios":"levelo://app?vid=47b19548-af6c-4f0a-bc07-269771583c07"},"vehicle_type_id":"4","last_reported":1747998544,"current_range_meters":11200,"station_id":"ce4bgs92rcd13ifvqcc0","pricing_plan_id":"cebpf4jnsgd1na2vs0mg"},{"bike_id":"b10ac5d1-6efc-430f-85f2-f9d8c2f9009f","system_id":"levelo_inurba_marseille","lat":43.28247,"lon":5.3506,"is_reserved":false,"is_disabled":false,"rental_uris":{"android":"levelo://app?vid=b10ac5d1-6efc-430f-85f2-f9d8c2f9009f","ios":"levelo://app?vid=b10ac5d1-6efc-430f-85f2-f9d8c2f9009f"},"vehicle_type_id":"4","last_reported":1747998544,"current_range_meters":11200,"station_id":"ce4bhbp2rcd13ifvqerg","pricing_plan_id":"cebpf4jnsgd1na2vs0mg"},{"bike_id":"1f8f2cf8-e258-4b66-9b66-66da44b9c55c","system_id":"levelo_inurba_marseille","lat":43.30989,"lon":5.40222,"is_reserved":false,"is_disabled":false,"rental_uris":{"android":"levelo://app?vid=1f8f2cf8-e258-4b66-9b66-66da44b9c55c","ios":"levelo://app?vid=1f8f2cf8-e258-4b66-9b66-66da44b9c55c"},"vehicle_type_id":"4","last_reported":1747998544,"current_range_meters":11600,"station_id":"","pricing_plan_id":"cebpf4jnsgd1na2vs0mg"},{"bike_id":"08020adf-7f8f-431f-879f-49bba6e0f33a","system_id":"levelo_inurba_marseille","lat":43.29295,"lon":5.37464,"is_reserved":false,"is_disabled":false,"rental_uris":{"android":"levelo://app?vid=08020adf-7f8f-431f-879f-49bba6e0f33a","ios":"levelo://app?vid=08020adf-7f8f-431f-879f-49bba6e0f33a"},"vehicle_type_id":"4","last_reported":1747998544,"current_range_meters":11600,"station_id":"ce4bgi12rcd13ifvqb70","pricing_plan_id":"cebpf4jnsgd1na2vs0mg"},{"bike_id":"6ef5a447-d75f-4af4-b8fa-43730d32ad16","system_id":"levelo_inurba_marseille","lat":43.30551,"lon":5.36702,"is_reserved":false,"is_disabled":false,"rental_uris":{"android":"levelo://app?vid=6ef5a447-d75f-4af4-b8fa-43730d32ad16","ios":"levelo://app?vid=6ef5a447-d75f-4af4-b8fa-43730d32ad16"},"vehicle_type_id":"4","last_reported":1747998544,"current_range_meters":11600,"station_id":"ce4bgrp2rcd13ifvqc9g","pricing_plan_id":"cebpf4jnsgd1na2vs0mg"},{"bike_id":"a56f933a-6d33-441e-abac-b9879f45853e","system_id":"levelo_inurba_marseille","lat":43.30463,"lon":5.37912,"is_reserved":false,"is_disabled":false,"rental_uris":{"android":"levelo://app?vid=a56f933a-6d33-441e-abac-b9879f45853e","ios":"levelo://app?vid=a56f933a-6d33-441e-abac-b9879f45853e"},"vehicle_type_id":"4","last_reported":1747998544,"current_range_meters":11600,"station_id":"ce4bgup2rcd13ifvqcn0","pricing_plan_id":"cebpf4jnsgd1na2vs0mg"},{"bike_id":"7a174cf0-49bb-442b-9787-ed977ba34ca4","system_id":"levelo_inurba_marseille","lat":43.241665,"lon":5.397362,"is_reserved":false,"is_disabled":false,"rental_uris":{"android":"levelo://app?vid=7a174cf0-49bb-442b-9787-ed977ba34ca4","ios":"levelo://app?vid=7a174cf0-49bb-442b-9787-ed977ba34ca4"},"vehicle_type_id":"4","last_reported":1747998544,"current_range_meters":11600,"station_id":"ce4bhn12rcd13ifvqgpg","pricing_plan_id":"cebpf4jnsgd1na2vs0mg"},{"bike_id":"d1a2317d-fe32-49cc-ad6b-695de6601388","system_id":"levelo_inurba_marseille","lat":43.21186,"lon":5.35065,"is_reserved":false,"is_disabled":false,"rental_uris":{"android":"levelo://app?vid=d1a2317d-fe32-49cc-ad6b-695de6601388","ios":"levelo://app?vid=d1a2317d-fe32-49cc-ad6b-695de6601388"},"vehicle_type_id":"4","last_reported":1747998544,"current_range_meters":11600,"station_id":"st_cvj6sg6p6f1abm77japg","pricing_plan_id":"cebpf4jnsgd1na2vs0mg"},{"bike_id":"3224c4e6-7fc9-4073-98b7-a76486ce735f","system_id":"levelo_inurba_marseille","lat":43.29307,"lon":5.37459,"is_reserved":false,"is_disabled":false,"rental_uris":{"android":"levelo://app?vid=3224c4e6-7fc9-4073-98b7-a76486ce735f","ios":"levelo://app?vid=3224c4e6-7fc9-4073-98b7-a76486ce735f"},"vehicle_type_id":"4","last_reported":1747998544,"current_range_meters":12000,"station_id":"ce4bgi12rcd13ifvqb70","pricing_plan_id":"cebpf4jnsgd1na2vs0mg"},{"bike_id":"71ea0f0f-2135-4a73-8489-3737f01edf94","system_id":"levelo_inurba_marseille","lat":43.26796,"lon":5.39425,"is_reserved":false,"is_disabled":false,"rental_uris":{"android":"levelo://app?vid=71ea0f0f-2135-4a73-8489-3737f01edf94","ios":"levelo://app?vid=71ea0f0f-2135-4a73-8489-3737f01edf94"},"vehicle_type_id":"4","last_reported":1747998544,"current_range_meters":12000,"station_id":"ce4bhh12rcd13ifvqfg0","pricing_plan_id":"cebpf4jnsgd1na2vs0mg"},{"bike_id":"febd3845-ce06-4fa5-b257-0369c4ccdc89","system_id":"levelo_inurba_marseille","lat":43.25581,"lon":5.38222,"is_reserved":false,"is_disabled":false,"rental_uris":{"android":"levelo://app?vid=febd3845-ce06-4fa5-b257-0369c4ccdc89","ios":"levelo://app?vid=febd3845-ce06-4fa5-b257-0369c4ccdc89"},"vehicle_type_id":"4","last_reported":1747998544,"current_range_meters":12000,"station_id":"ce4bhih2rcd13ifvqfs0","pricing_plan_id":"cebpf4jnsgd1na2vs0mg"},{"bike_id":"061401d2-b818-4856-9295-dcb6a81a5623","system_id":"levelo_inurba_marseille","lat":43.23178,"lon":5.39983,"is_reserved":false,"is_disabled":false,"rental_uris":{"android":"levelo://app?vid=061401d2-b818-4856-9295-dcb6a81a5623","ios":"levelo://app?vid=061401d2-b818-4856-9295-dcb6a81a5623"},"vehicle_type_id":"4","last_reported":1747998544,"current_range_meters":12000,"station_id":"ce4bhn12rcd13ifvqgqg","pricing_plan_id":"cebpf4jnsgd1na2vs0mg"},{"bike_id":"82966a86-31ab-4ead-84cc-5d2249f62041","system_id":"levelo_inurba_marseille","lat":43.23176,"lon":5.39992,"is_reserved":false,"is_disabled":false,"rental_uris":{"android":"levelo://app?vid=82966a86-31ab-4ead-84cc-5d2249f62041","ios":"levelo://app?vid=82966a86-31ab-4ead-84cc-5d2249f62041"},"vehicle_type_id":"4","last_reported":1747998544,"current_range_meters":12000,"station_id":"ce4bhn12rcd13ifvqgqg","pricing_plan_id":"cebpf4jnsgd1na2vs0mg"},{"bike_id":"6dde22b3-be2c-4353-838d-05c85608e4d3","system_id":"levelo_inurba_marseille","lat":43.323626,"lon":5.367543,"is_reserved":false,"is_disabled":false,"rental_uris":{"android":"levelo://app?vid=6dde22b3-be2c-4353-838d-05c85608e4d3","ios":"levelo://app?vid=6dde22b3-be2c-4353-838d-05c85608e4d3"},"vehicle_type_id":"4","last_reported":1747998544,"current_range_meters":12000,"station_id":"ce4bhsh2rcd13ifvqi2g","pricing_plan_id":"cebpf4jnsgd1na2vs0mg"},{"bike_id":"ca6e9c93-0d92-4299-a33a-b6224bc297cc","system_id":"levelo_inurba_marseille","lat":43.29542,"lon":5.36529,"is_reserved":false,"is_disabled":false,"rental_uris":{"android":"levelo://app?vid=ca6e9c93-0d92-4299-a33a-b6224bc297cc","ios":"levelo://app?vid=ca6e9c93-0d92-4299-a33a-b6224bc297cc"},"vehicle_type_id":"4","last_reported":1747998544,"current_range_meters":12400,"station_id":"","pricing_plan_id":"cebpf4jnsgd1na2vs0mg"},{"bike_id":"76b0c297-9fee-41ca-95f6-35567cb7f4d9","system_id":"levelo_inurba_marseille","lat":43.292665,"lon":5.37639,"is_reserved":false,"is_disabled":false,"rental_uris":{"android":"levelo://app?vid=76b0c297-9fee-41ca-95f6-35567cb7f4d9","ios":"levelo://app?vid=76b0c297-9fee-41ca-95f6-35567cb7f4d9"},"vehicle_type_id":"4","last_reported":1747998544,"current_range_meters":12400,"station_id":"","pricing_plan_id":"cebpf4jnsgd1na2vs0mg"},{"bike_id":"039940a7-ebfa-4454-80af-864b8c900317","system_id":"levelo_inurba_marseille","lat":43.29563,"lon":5.3752,"is_reserved":false,"is_disabled":false,"rental_uris":{"android":"levelo://app?vid=039940a7-ebfa-4454-80af-864b8c900317","ios":"levelo://app?vid=039940a7-ebfa-4454-80af-864b8c900317"},"vehicle_type_id":"4","last_reported":1747998544,"current_range_meters":12400,"station_id":"ce4bgh92rcd13ifvqb50","pricing_plan_id":"cebpf4jnsgd1na2vs0mg"},{"bike_id":"11ab7114-65db-4263-995c-dec6e6e2e931","system_id":"levelo_inurba_marseille","lat":43.30142,"lon":5.38782,"is_reserved":false,"is_disabled":false,"rental_uris":{"android":"levelo://app?vid=11ab7114-65db-4263-995c-dec6e6e2e931","ios":"levelo://app?vid=11ab7114-65db-4263-995c-dec6e6e2e931"},"vehicle_type_id":"4","last_reported":1747998544,"current_range_meters":12400,"station_id":"ce4bghh2rcd13ifvqb60","pricing_plan_id":"cebpf4jnsgd1na2vs0mg"},{"bike_id":"868cbb19-a526-4d52-82d0-ae920123d8a9","system_id":"levelo_inurba_marseille","lat":43.28416,"lon":5.34974,"is_reserved":false,"is_disabled":false,"rental_uris":{"android":"levelo://app?vid=868cbb19-a526-4d52-82d0-ae920123d8a9","ios":"levelo://app?vid=868cbb19-a526-4d52-82d0-ae920123d8a9"},"vehicle_type_id":"4","last_reported":1747998544,"current_range_meters":12400,"station_id":"ce4bhbh2rcd13ifvqepg","pricing_plan_id":"cebpf4jnsgd1na2vs0mg"},{"bike_id":"3386311c-b302-4c9c-84a5-af77c0875286","system_id":"levelo_inurba_marseille","lat":43.2827,"lon":5.35082,"is_reserved":false,"is_disabled":false,"rental_uris":{"android":"levelo://app?vid=3386311c-b302-4c9c-84a5-af77c0875286","ios":"levelo://app?vid=3386311c-b302-4c9c-84a5-af77c0875286"},"vehicle_type_id":"4","last_reported":1747998544,"current_range_meters":12400,"station_id":"ce4bhbp2rcd13ifvqerg","pricing_plan_id":"cebpf4jnsgd1na2vs0mg"},{"bike_id":"95ac9ede-3aed-455e-85f9-3257e162872b","system_id":"levelo_inurba_marseille","lat":43.27964,"lon":5.38666,"is_reserved":false,"is_disabled":false,"rental_uris":{"android":"levelo://app?vid=95ac9ede-3aed-455e-85f9-3257e162872b","ios":"levelo://app?vid=95ac9ede-3aed-455e-85f9-3257e162872b"},"vehicle_type_id":"4","last_reported":1747998544,"current_range_meters":12400,"station_id":"ce4bhg12rcd13ifvqf80","pricing_plan_id":"cebpf4jnsgd1na2vs0mg"},{"bike_id":"8f5ad702-5ff8-41ee-b034-3d5a2428c0c5","system_id":"levelo_inurba_marseille","lat":43.251133,"lon":5.403296,"is_reserved":false,"is_disabled":false,"rental_uris":{"android":"levelo://app?vid=8f5ad702-5ff8-41ee-b034-3d5a2428c0c5","ios":"levelo://app?vid=8f5ad702-5ff8-41ee-b034-3d5a2428c0c5"},"vehicle_type_id":"4","last_reported":1747998544,"current_range_meters":12400,"station_id":"ce4bhlh2rcd13ifvqgig","pricing_plan_id":"cebpf4jnsgd1na2vs0mg"},{"bike_id":"7efeaff6-1d82-4fca-9052-bf5ac5b2e8b5","system_id":"levelo_inurba_marseille","lat":43.27952,"lon":5.41031,"is_reserved":false,"is_disabled":false,"rental_uris":{"android":"levelo://app?vid=7efeaff6-1d82-4fca-9052-bf5ac5b2e8b5","ios":"levelo://app?vid=7efeaff6-1d82-4fca-9052-bf5ac5b2e8b5"},"vehicle_type_id":"4","last_reported":1747998544,"current_range_meters":12400,"station_id":"ce4bhnp2rcd13ifvqh0g","pricing_plan_id":"cebpf4jnsgd1na2vs0mg"},{"bike_id":"bc4da63c-27a5-4b82-a540-bf2dba2cc343","system_id":"levelo_inurba_marseille","lat":43.337235,"lon":5.391865,"is_reserved":false,"is_disabled":false,"rental_uris":{"android":"levelo://app?vid=bc4da63c-27a5-4b82-a540-bf2dba2cc343","ios":"levelo://app?vid=bc4da63c-27a5-4b82-a540-bf2dba2cc343"},"vehicle_type_id":"4","last_reported":1747998544,"current_range_meters":12400,"station_id":"ce4bhr92rcd13ifvqhsg","pricing_plan_id":"cebpf4jnsgd1na2vs0mg"},{"bike_id":"1e164eaf-2ffb-4814-9442-b43f6b5c9f80","system_id":"levelo_inurba_marseille","lat":43.24175,"lon":5.36376,"is_reserved":false,"is_disabled":false,"rental_uris":{"android":"levelo://app?vid=1e164eaf-2ffb-4814-9442-b43f6b5c9f80","ios":"levelo://app?vid=1e164eaf-2ffb-4814-9442-b43f6b5c9f80"},"vehicle_type_id":"4","last_reported":1747998544,"current_range_meters":12400,"station_id":"cpo36qri1sfpv3e86is0","pricing_plan_id":"cebpf4jnsgd1na2vs0mg"},{"bike_id":"68cb02b6-69c4-4374-9328-2ff2b0b835cf","system_id":"levelo_inurba_marseille","lat":43.29369,"lon":5.37829,"is_reserved":false,"is_disabled":false,"rental_uris":{"android":"levelo://app?vid=68cb02b6-69c4-4374-9328-2ff2b0b835cf","ios":"levelo://app?vid=68cb02b6-69c4-4374-9328-2ff2b0b835cf"},"vehicle_type_id":"4","last_reported":1747998544,"current_range_meters":12800,"station_id":"ce4bgjh2rcd13ifvqbf0","pricing_plan_id":"cebpf4jnsgd1na2vs0mg"},{"bike_id":"670eb2ec-477a-4b2d-a309-d90e8964fea5","system_id":"levelo_inurba_marseille","lat":43.28277,"lon":5.35057,"is_reserved":false,"is_disabled":false,"rental_uris":{"android":"levelo://app?vid=670eb2ec-477a-4b2d-a309-d90e8964fea5","ios":"levelo://app?vid=670eb2ec-477a-4b2d-a309-d90e8964fea5"},"vehicle_type_id":"4","last_reported":1747998544,"current_range_meters":12800,"station_id":"ce4bhbp2rcd13ifvqerg","pricing_plan_id":"cebpf4jnsgd1na2vs0mg"},{"bike_id":"89778c94-d504-4022-be4c-e2b0377e3b06","system_id":"levelo_inurba_marseille","lat":43.26032,"lon":5.37548,"is_reserved":false,"is_disabled":false,"rental_uris":{"android":"levelo://app?vid=89778c94-d504-4022-be4c-e2b0377e3b06","ios":"levelo://app?vid=89778c94-d504-4022-be4c-e2b0377e3b06"},"vehicle_type_id":"4","last_reported":1747998544,"current_range_meters":12800,"station_id":"ce4bhgh2rcd13ifvqfa0","pricing_plan_id":"cebpf4jnsgd1na2vs0mg"},{"bike_id":"2e5a3eeb-3cc2-4b20-bda5-b9f3c4014c62","system_id":"levelo_inurba_marseille","lat":43.260525,"lon":5.394025,"is_reserved":false,"is_disabled":false,"rental_uris":{"android":"levelo://app?vid=2e5a3eeb-3cc2-4b20-bda5-b9f3c4014c62","ios":"levelo://app?vid=2e5a3eeb-3cc2-4b20-bda5-b9f3c4014c62"},"vehicle_type_id":"4","last_reported":1747998544,"current_range_meters":12800,"station_id":"ce4bhh92rcd13ifvqfj0","pricing_plan_id":"cebpf4jnsgd1na2vs0mg"},{"bike_id":"90195549-5044-4ff9-b8b3-cc76e17d5663","system_id":"levelo_inurba_marseille","lat":43.26064,"lon":5.39395,"is_reserved":false,"is_disabled":false,"rental_uris":{"android":"levelo://app?vid=90195549-5044-4ff9-b8b3-cc76e17d5663","ios":"levelo://app?vid=90195549-5044-4ff9-b8b3-cc76e17d5663"},"vehicle_type_id":"4","last_reported":1747998544,"current_range_meters":12800,"station_id":"ce4bhh92rcd13ifvqfj0","pricing_plan_id":"cebpf4jnsgd1na2vs0mg"},{"bike_id":"725a6e01-d6bf-4855-8435-d01c02dfca15","system_id":"levelo_inurba_marseille","lat":43.246516,"lon":5.388955,"is_reserved":false,"is_disabled":false,"rental_uris":{"android":"levelo://app?vid=725a6e01-d6bf-4855-8435-d01c02dfca15","ios":"levelo://app?vid=725a6e01-d6bf-4855-8435-d01c02dfca15"},"vehicle_type_id":"4","last_reported":1747998544,"current_range_meters":12800,"station_id":"ce4bhlh2rcd13ifvqgig","pricing_plan_id":"cebpf4jnsgd1na2vs0mg"},{"bike_id":"2ea50577-1176-467c-8d1f-ce07d6571fb8","system_id":"levelo_inurba_marseille","lat":43.23187,"lon":5.35557,"is_reserved":false,"is_disabled":false,"rental_uris":{"android":"levelo://app?vid=2ea50577-1176-467c-8d1f-ce07d6571fb8","ios":"levelo://app?vid=2ea50577-1176-467c-8d1f-ce07d6571fb8"},"vehicle_type_id":"4","last_reported":1747998544,"current_range_meters":12800,"station_id":"ce4bhu92rcd13ifvqi70","pricing_plan_id":"cebpf4jnsgd1na2vs0mg"},{"bike_id":"9ffce623-64a0-4190-8f01-af8e1cc5846e","system_id":"levelo_inurba_marseille","lat":43.30543,"lon":5.36538,"is_reserved":false,"is_disabled":false,"rental_uris":{"android":"levelo://app?vid=9ffce623-64a0-4190-8f01-af8e1cc5846e","ios":"levelo://app?vid=9ffce623-64a0-4190-8f01-af8e1cc5846e"},"vehicle_type_id":"4","last_reported":1747998544,"current_range_meters":13600,"station_id":"ce4bgs12rcd13ifvqcag","pricing_plan_id":"cebpf4jnsgd1na2vs0mg"},{"bike_id":"0dd164a1-617d-44bc-9174-53f63a1e2093","system_id":"levelo_inurba_marseille","lat":43.29037,"lon":5.39968,"is_reserved":false,"is_disabled":false,"rental_uris":{"android":"levelo://app?vid=0dd164a1-617d-44bc-9174-53f63a1e2093","ios":"levelo://app?vid=0dd164a1-617d-44bc-9174-53f63a1e2093"},"vehicle_type_id":"4","last_reported":1747998544,"current_range_meters":13600,"station_id":"ce4bh392rcd13ifvqdm0","pricing_plan_id":"cebpf4jnsgd1na2vs0mg"},{"bike_id":"a57eebf2-e2ad-49b0-91ce-6d23232fff60","system_id":"levelo_inurba_marseille","lat":43.28265,"lon":5.35068,"is_reserved":false,"is_disabled":false,"rental_uris":{"android":"levelo://app?vid=a57eebf2-e2ad-49b0-91ce-6d23232fff60","ios":"levelo://app?vid=a57eebf2-e2ad-49b0-91ce-6d23232fff60"},"vehicle_type_id":"4","last_reported":1747998544,"current_range_meters":13600,"station_id":"ce4bhbp2rcd13ifvqerg","pricing_plan_id":"cebpf4jnsgd1na2vs0mg"},{"bike_id":"51d7e9e2-d9b2-4a0d-9003-5e749118f3bc","system_id":"levelo_inurba_marseille","lat":43.231491,"lon":5.437154,"is_reserved":false,"is_disabled":false,"rental_uris":{"android":"levelo://app?vid=51d7e9e2-d9b2-4a0d-9003-5e749118f3bc","ios":"levelo://app?vid=51d7e9e2-d9b2-4a0d-9003-5e749118f3bc"},"vehicle_type_id":"4","last_reported":1747998544,"current_range_meters":13600,"station_id":"ce4bhmp2rcd13ifvqgog","pricing_plan_id":"cebpf4jnsgd1na2vs0mg"},{"bike_id":"a737b60e-5b8e-4e66-8dae-c8c2ff30f27c","system_id":"levelo_inurba_marseille","lat":43.30593,"lon":5.37218,"is_reserved":false,"is_disabled":false,"rental_uris":{"android":"levelo://app?vid=a737b60e-5b8e-4e66-8dae-c8c2ff30f27c","ios":"levelo://app?vid=a737b60e-5b8e-4e66-8dae-c8c2ff30f27c"},"vehicle_type_id":"4","last_reported":1747998544,"current_range_meters":14000,"station_id":"ce4bgqh2rcd13ifvqc4g","pricing_plan_id":"cebpf4jnsgd1na2vs0mg"},{"bike_id":"e85710d8-0451-4310-9d43-3629429d8bc9","system_id":"levelo_inurba_marseille","lat":43.309016,"lon":5.368553,"is_reserved":false,"is_disabled":false,"rental_uris":{"android":"levelo://app?vid=e85710d8-0451-4310-9d43-3629429d8bc9","ios":"levelo://app?vid=e85710d8-0451-4310-9d43-3629429d8bc9"},"vehicle_type_id":"4","last_reported":1747998544,"current_range_meters":14400,"station_id":"ce4bgn92rcd13ifvqbvg","pricing_plan_id":"cebpf4jnsgd1na2vs0mg"},{"bike_id":"c7cca0d5-de6d-4370-9dc0-97cf13150fcd","system_id":"levelo_inurba_marseille","lat":43.2954,"lon":5.39416,"is_reserved":false,"is_disabled":false,"rental_uris":{"android":"levelo://app?vid=c7cca0d5-de6d-4370-9dc0-97cf13150fcd","ios":"levelo://app?vid=c7cca0d5-de6d-4370-9dc0-97cf13150fcd"},"vehicle_type_id":"4","last_reported":1747998544,"current_range_meters":14400,"station_id":"ce4bh292rcd13ifvqdf0","pricing_plan_id":"cebpf4jnsgd1na2vs0mg"},{"bike_id":"f84e7850-4e38-4a2f-8058-4b5888bcc49b","system_id":"levelo_inurba_marseille","lat":43.32095,"lon":5.36763,"is_reserved":false,"is_disabled":false,"rental_uris":{"android":"levelo://app?vid=f84e7850-4e38-4a2f-8058-4b5888bcc49b","ios":"levelo://app?vid=f84e7850-4e38-4a2f-8058-4b5888bcc49b"},"vehicle_type_id":"4","last_reported":1747998544,"current_range_meters":14400,"station_id":"ce4bhrh2rcd13ifvqhug","pricing_plan_id":"cebpf4jnsgd1na2vs0mg"},{"bike_id":"9796f6d6-ff5f-443e-aac7-9f488cffaa26","system_id":"levelo_inurba_marseille","lat":43.30185,"lon":5.36635,"is_reserved":false,"is_disabled":false,"rental_uris":{"android":"levelo://app?vid=9796f6d6-ff5f-443e-aac7-9f488cffaa26","ios":"levelo://app?vid=9796f6d6-ff5f-443e-aac7-9f488cffaa26"},"vehicle_type_id":"4","last_reported":1747998544,"current_range_meters":14800,"station_id":"ce4bgrh2rcd13ifvqc8g","pricing_plan_id":"cebpf4jnsgd1na2vs0mg"},{"bike_id":"86d86d5c-a707-4dc7-a907-684a6f421c13","system_id":"levelo_inurba_marseille","lat":43.29515,"lon":5.394,"is_reserved":false,"is_disabled":false,"rental_uris":{"android":"levelo://app?vid=86d86d5c-a707-4dc7-a907-684a6f421c13","ios":"levelo://app?vid=86d86d5c-a707-4dc7-a907-684a6f421c13"},"vehicle_type_id":"4","last_reported":1747998544,"current_range_meters":14800,"station_id":"ce4bh292rcd13ifvqdf0","pricing_plan_id":"cebpf4jnsgd1na2vs0mg"},{"bike_id":"575c6c59-e9be-4a89-b174-eaa2761e1d1a","system_id":"levelo_inurba_marseille","lat":43.290319,"lon":5.386516,"is_reserved":false,"is_disabled":false,"rental_uris":{"android":"levelo://app?vid=575c6c59-e9be-4a89-b174-eaa2761e1d1a","ios":"levelo://app?vid=575c6c59-e9be-4a89-b174-eaa2761e1d1a"},"vehicle_type_id":"4","last_reported":1747998544,"current_range_meters":14800,"station_id":"ce4bh4p2rcd13ifvqe0g","pricing_plan_id":"cebpf4jnsgd1na2vs0mg"},{"bike_id":"24d9a7d3-ce12-48b2-836c-467cf8c19763","system_id":"levelo_inurba_marseille","lat":43.27943,"lon":5.410441,"is_reserved":false,"is_disabled":false,"rental_uris":{"android":"levelo://app?vid=24d9a7d3-ce12-48b2-836c-467cf8c19763","ios":"levelo://app?vid=24d9a7d3-ce12-48b2-836c-467cf8c19763"},"vehicle_type_id":"4","last_reported":1747998544,"current_range_meters":14800,"station_id":"ce4bhnp2rcd13ifvqh0g","pricing_plan_id":"cebpf4jnsgd1na2vs0mg"},{"bike_id":"03c27706-dafc-4e44-b173-3742dda15e11","system_id":"levelo_inurba_marseille","lat":43.231935,"lon":5.355489,"is_reserved":false,"is_disabled":false,"rental_uris":{"android":"levelo://app?vid=03c27706-dafc-4e44-b173-3742dda15e11","ios":"levelo://app?vid=03c27706-dafc-4e44-b173-3742dda15e11"},"vehicle_type_id":"4","last_reported":1747998544,"current_range_meters":14800,"station_id":"ce4bhu92rcd13ifvqi70","pricing_plan_id":"cebpf4jnsgd1na2vs0mg"},{"bike_id":"0c4daf59-7395-44b9-86d1-01f9aa2990b6","system_id":"levelo_inurba_marseille","lat":43.24169,"lon":5.36393,"is_reserved":false,"is_disabled":false,"rental_uris":{"android":"levelo://app?vid=0c4daf59-7395-44b9-86d1-01f9aa2990b6","ios":"levelo://app?vid=0c4daf59-7395-44b9-86d1-01f9aa2990b6"},"vehicle_type_id":"4","last_reported":1747998544,"current_range_meters":14800,"station_id":"cpo36qri1sfpv3e86is0","pricing_plan_id":"cebpf4jnsgd1na2vs0mg"},{"bike_id":"f9b8de3e-f216-4a97-a31c-9c85d23db479","system_id":"levelo_inurba_marseille","lat":43.286197,"lon":5.351157,"is_reserved":false,"is_disabled":false,"rental_uris":{"android":"levelo://app?vid=f9b8de3e-f216-4a97-a31c-9c85d23db479","ios":"levelo://app?vid=f9b8de3e-f216-4a97-a31c-9c85d23db479"},"vehicle_type_id":"4","last_reported":1747998544,"current_range_meters":15200,"station_id":"ce4bhch2rcd13ifvqeug","pricing_plan_id":"cebpf4jnsgd1na2vs0mg"},{"bike_id":"1a7b409e-f787-4792-ae89-7ef41984e471","system_id":"levelo_inurba_marseille","lat":43.2499,"lon":5.38939,"is_reserved":false,"is_disabled":false,"rental_uris":{"android":"levelo://app?vid=1a7b409e-f787-4792-ae89-7ef41984e471","ios":"levelo://app?vid=1a7b409e-f787-4792-ae89-7ef41984e471"},"vehicle_type_id":"4","last_reported":1747998544,"current_range_meters":15200,"station_id":"ce4bhgp2rcd13ifvqfd0","pricing_plan_id":"cebpf4jnsgd1na2vs0mg"},{"bike_id":"54635c45-83d3-4db4-bf65-d3c5f6360af8","system_id":"levelo_inurba_marseille","lat":43.23151,"lon":5.43711,"is_reserved":false,"is_disabled":false,"rental_uris":{"android":"levelo://app?vid=54635c45-83d3-4db4-bf65-d3c5f6360af8","ios":"levelo://app?vid=54635c45-83d3-4db4-bf65-d3c5f6360af8"},"vehicle_type_id":"4","last_reported":1747998544,"current_range_meters":15200,"station_id":"ce4bhmp2rcd13ifvqgog","pricing_plan_id":"cebpf4jnsgd1na2vs0mg"},{"bike_id":"32f497d3-afa3-46f3-b000-f2a34dcb03b9","system_id":"levelo_inurba_marseille","lat":43.27811,"lon":5.40712,"is_reserved":false,"is_disabled":false,"rental_uris":{"android":"levelo://app?vid=32f497d3-afa3-46f3-b000-f2a34dcb03b9","ios":"levelo://app?vid=32f497d3-afa3-46f3-b000-f2a34dcb03b9"},"vehicle_type_id":"4","last_reported":1747998544,"current_range_meters":15200,"station_id":"ce4bhnh2rcd13ifvqgtg","pricing_plan_id":"cebpf4jnsgd1na2vs0mg"},{"bike_id":"c68068cb-1e46-45e9-a477-328abce92844","system_id":"levelo_inurba_marseille","lat":43.21749,"lon":5.34604,"is_reserved":false,"is_disabled":false,"rental_uris":{"android":"levelo://app?vid=c68068cb-1e46-45e9-a477-328abce92844","ios":"levelo://app?vid=c68068cb-1e46-45e9-a477-328abce92844"},"vehicle_type_id":"4","last_reported":1747998544,"current_range_meters":16000,"station_id":"","pricing_plan_id":"cebpf4jnsgd1na2vs0mg"},{"bike_id":"6dabdc28-1516-4526-a634-0d1125235cd1","system_id":"levelo_inurba_marseille","lat":43.21753,"lon":5.34599,"is_reserved":false,"is_disabled":false,"rental_uris":{"android":"levelo://app?vid=6dabdc28-1516-4526-a634-0d1125235cd1","ios":"levelo://app?vid=6dabdc28-1516-4526-a634-0d1125235cd1"},"vehicle_type_id":"4","last_reported":1747998544,"current_range_meters":16000,"station_id":"","pricing_plan_id":"cebpf4jnsgd1na2vs0mg"},{"bike_id":"ba217224-804b-409b-8848-4c080cd8b48a","system_id":"levelo_inurba_marseille","lat":43.29513,"lon":5.39401,"is_reserved":false,"is_disabled":false,"rental_uris":{"android":"levelo://app?vid=ba217224-804b-409b-8848-4c080cd8b48a","ios":"levelo://app?vid=ba217224-804b-409b-8848-4c080cd8b48a"},"vehicle_type_id":"4","last_reported":1747998544,"current_range_meters":16000,"station_id":"ce4bh292rcd13ifvqdf0","pricing_plan_id":"cebpf4jnsgd1na2vs0mg"},{"bike_id":"dc0ccc40-a4ff-4be9-ba1f-ee4d6be09ca5","system_id":"levelo_inurba_marseille","lat":43.2573,"lon":5.41094,"is_reserved":false,"is_disabled":false,"rental_uris":{"android":"levelo://app?vid=dc0ccc40-a4ff-4be9-ba1f-ee4d6be09ca5","ios":"levelo://app?vid=dc0ccc40-a4ff-4be9-ba1f-ee4d6be09ca5"},"vehicle_type_id":"4","last_reported":1747998544,"current_range_meters":16000,"station_id":"ce4bhkp2rcd13ifvqgd0","pricing_plan_id":"cebpf4jnsgd1na2vs0mg"},{"bike_id":"9c5786ab-f880-4811-a809-ca4758267ae9","system_id":"levelo_inurba_marseille","lat":43.32484,"lon":5.36579,"is_reserved":false,"is_disabled":false,"rental_uris":{"android":"levelo://app?vid=9c5786ab-f880-4811-a809-ca4758267ae9","ios":"levelo://app?vid=9c5786ab-f880-4811-a809-ca4758267ae9"},"vehicle_type_id":"4","last_reported":1747998544,"current_range_meters":16000,"station_id":"ce4bhs12rcd13ifvqhvg","pricing_plan_id":"cebpf4jnsgd1na2vs0mg"},{"bike_id":"a0fc5246-82f4-47a9-894c-ddb6bd8d8f60","system_id":"levelo_inurba_marseille","lat":43.23192,"lon":5.35551,"is_reserved":false,"is_disabled":false,"rental_uris":{"android":"levelo://app?vid=a0fc5246-82f4-47a9-894c-ddb6bd8d8f60","ios":"levelo://app?vid=a0fc5246-82f4-47a9-894c-ddb6bd8d8f60"},"vehicle_type_id":"4","last_reported":1747998544,"current_range_meters":16000,"station_id":"ce4bhu92rcd13ifvqi70","pricing_plan_id":"cebpf4jnsgd1na2vs0mg"},{"bike_id":"fc8c72ad-ca61-42c6-ae90-f61b57e45328","system_id":"levelo_inurba_marseille","lat":43.279009,"lon":5.418562,"is_reserved":false,"is_disabled":false,"rental_uris":{"android":"levelo://app?vid=fc8c72ad-ca61-42c6-ae90-f61b57e45328","ios":"levelo://app?vid=fc8c72ad-ca61-42c6-ae90-f61b57e45328"},"vehicle_type_id":"4","last_reported":1747998544,"current_range_meters":16400,"station_id":"","pricing_plan_id":"cebpf4jnsgd1na2vs0mg"},{"bike_id":"75e91607-f093-41b1-947a-69b62fe724b6","system_id":"levelo_inurba_marseille","lat":43.34687,"lon":5.34543,"is_reserved":false,"is_disabled":false,"rental_uris":{"android":"levelo://app?vid=75e91607-f093-41b1-947a-69b62fe724b6","ios":"levelo://app?vid=75e91607-f093-41b1-947a-69b62fe724b6"},"vehicle_type_id":"4","last_reported":1747998544,"current_range_meters":16400,"station_id":"","pricing_plan_id":"cebpf4jnsgd1na2vs0mg"},{"bike_id":"ece8c91e-c2a0-45ca-b6f3-9d5202de3ac1","system_id":"levelo_inurba_marseille","lat":43.2435,"lon":5.36964,"is_reserved":false,"is_disabled":false,"rental_uris":{"android":"levelo://app?vid=ece8c91e-c2a0-45ca-b6f3-9d5202de3ac1","ios":"levelo://app?vid=ece8c91e-c2a0-45ca-b6f3-9d5202de3ac1"},"vehicle_type_id":"4","last_reported":1747998544,"current_range_meters":16400,"station_id":"","pricing_plan_id":"cebpf4jnsgd1na2vs0mg"},{"bike_id":"6e5a158f-7f1d-4312-9977-ede4602769a5","system_id":"levelo_inurba_marseille","lat":43.28227,"lon":5.39066,"is_reserved":false,"is_disabled":false,"rental_uris":{"android":"levelo://app?vid=6e5a158f-7f1d-4312-9977-ede4602769a5","ios":"levelo://app?vid=6e5a158f-7f1d-4312-9977-ede4602769a5"},"vehicle_type_id":"4","last_reported":1747998544,"current_range_meters":16400,"station_id":"","pricing_plan_id":"cebpf4jnsgd1na2vs0mg"},{"bike_id":"b9542e40-5fd7-4f0b-9870-3632264c2ee9","system_id":"levelo_inurba_marseille","lat":43.29508,"lon":5.39398,"is_reserved":false,"is_disabled":false,"rental_uris":{"android":"levelo://app?vid=b9542e40-5fd7-4f0b-9870-3632264c2ee9","ios":"levelo://app?vid=b9542e40-5fd7-4f0b-9870-3632264c2ee9"},"vehicle_type_id":"4","last_reported":1747998544,"current_range_meters":16400,"station_id":"ce4bh292rcd13ifvqdf0","pricing_plan_id":"cebpf4jnsgd1na2vs0mg"},{"bike_id":"01c0716b-8957-4246-bdf6-67b363ea8382","system_id":"levelo_inurba_marseille","lat":43.28615,"lon":5.3511,"is_reserved":false,"is_disabled":false,"rental_uris":{"android":"levelo://app?vid=01c0716b-8957-4246-bdf6-67b363ea8382","ios":"levelo://app?vid=01c0716b-8957-4246-bdf6-67b363ea8382"},"vehicle_type_id":"4","last_reported":1747998544,"current_range_meters":16400,"station_id":"ce4bhch2rcd13ifvqeug","pricing_plan_id":"cebpf4jnsgd1na2vs0mg"},{"bike_id":"01e09790-234a-4c0f-85e6-b033b224dd39","system_id":"levelo_inurba_marseille","lat":43.25872,"lon":5.39887,"is_reserved":false,"is_disabled":false,"rental_uris":{"android":"levelo://app?vid=01e09790-234a-4c0f-85e6-b033b224dd39","ios":"levelo://app?vid=01e09790-234a-4c0f-85e6-b033b224dd39"},"vehicle_type_id":"4","last_reported":1747998544,"current_range_meters":16400,"station_id":"ce4bhl92rcd13ifvqghg","pricing_plan_id":"cebpf4jnsgd1na2vs0mg"},{"bike_id":"d09ef814-804c-4f6c-975b-f6b57cc87572","system_id":"levelo_inurba_marseille","lat":43.23147,"lon":5.43722,"is_reserved":false,"is_disabled":false,"rental_uris":{"android":"levelo://app?vid=d09ef814-804c-4f6c-975b-f6b57cc87572","ios":"levelo://app?vid=d09ef814-804c-4f6c-975b-f6b57cc87572"},"vehicle_type_id":"4","last_reported":1747998544,"current_range_meters":16400,"station_id":"ce4bhmp2rcd13ifvqgog","pricing_plan_id":"cebpf4jnsgd1na2vs0mg"},{"bike_id":"92075b5d-c1dc-4502-b2ed-499f9c755c22","system_id":"levelo_inurba_marseille","lat":43.23156,"lon":5.43703,"is_reserved":false,"is_disabled":false,"rental_uris":{"android":"levelo://app?vid=92075b5d-c1dc-4502-b2ed-499f9c755c22","ios":"levelo://app?vid=92075b5d-c1dc-4502-b2ed-499f9c755c22"},"vehicle_type_id":"4","last_reported":1747998544,"current_range_meters":16400,"station_id":"ce4bhmp2rcd13ifvqgog","pricing_plan_id":"cebpf4jnsgd1na2vs0mg"},{"bike_id":"8bf531c8-63c9-4599-a836-ffb8cfe6db01","system_id":"levelo_inurba_marseille","lat":43.2417,"lon":5.36385,"is_reserved":false,"is_disabled":false,"rental_uris":{"android":"levelo://app?vid=8bf531c8-63c9-4599-a836-ffb8cfe6db01","ios":"levelo://app?vid=8bf531c8-63c9-4599-a836-ffb8cfe6db01"},"vehicle_type_id":"4","last_reported":1747998544,"current_range_meters":16400,"station_id":"cpo36qri1sfpv3e86is0","pricing_plan_id":"cebpf4jnsgd1na2vs0mg"},{"bike_id":"5c33bfaf-e0d6-44f0-b527-26252b957e78","system_id":"levelo_inurba_marseille","lat":43.29576,"lon":5.37471,"is_reserved":false,"is_disabled":false,"rental_uris":{"android":"levelo://app?vid=5c33bfaf-e0d6-44f0-b527-26252b957e78","ios":"levelo://app?vid=5c33bfaf-e0d6-44f0-b527-26252b957e78"},"vehicle_type_id":"4","last_reported":1747998544,"current_range_meters":16800,"station_id":"ce4bgh92rcd13ifvqb50","pricing_plan_id":"cebpf4jnsgd1na2vs0mg"},{"bike_id":"cf2a0757-a304-4e45-9878-79d60b35dfbb","system_id":"levelo_inurba_marseille","lat":43.31349,"lon":5.36696,"is_reserved":false,"is_disabled":false,"rental_uris":{"android":"levelo://app?vid=cf2a0757-a304-4e45-9878-79d60b35dfbb","ios":"levelo://app?vid=cf2a0757-a304-4e45-9878-79d60b35dfbb"},"vehicle_type_id":"4","last_reported":1747998544,"current_range_meters":16800,"station_id":"ce4bgr92rcd13ifvqc6g","pricing_plan_id":"cebpf4jnsgd1na2vs0mg"},{"bike_id":"1510456d-ce49-4733-92ea-265455060da5","system_id":"levelo_inurba_marseille","lat":43.3054,"lon":5.36536,"is_reserved":false,"is_disabled":false,"rental_uris":{"android":"levelo://app?vid=1510456d-ce49-4733-92ea-265455060da5","ios":"levelo://app?vid=1510456d-ce49-4733-92ea-265455060da5"},"vehicle_type_id":"4","last_reported":1747998544,"current_range_meters":16800,"station_id":"ce4bgs12rcd13ifvqcag","pricing_plan_id":"cebpf4jnsgd1na2vs0mg"},{"bike_id":"20965ed6-b37d-429e-922a-6df2b53f10c6","system_id":"levelo_inurba_marseille","lat":43.30471,"lon":5.37918,"is_reserved":false,"is_disabled":false,"rental_uris":{"android":"levelo://app?vid=20965ed6-b37d-429e-922a-6df2b53f10c6","ios":"levelo://app?vid=20965ed6-b37d-429e-922a-6df2b53f10c6"},"vehicle_type_id":"4","last_reported":1747998544,"current_range_meters":16800,"station_id":"ce4bgup2rcd13ifvqcn0","pricing_plan_id":"cebpf4jnsgd1na2vs0mg"},{"bike_id":"e54c297a-853a-4b92-94dc-30a561d2e83e","system_id":"levelo_inurba_marseille","lat":43.28096,"lon":5.37836,"is_reserved":false,"is_disabled":false,"rental_uris":{"android":"levelo://app?vid=e54c297a-853a-4b92-94dc-30a561d2e83e","ios":"levelo://app?vid=e54c297a-853a-4b92-94dc-30a561d2e83e"},"vehicle_type_id":"4","last_reported":1747998544,"current_range_meters":16800,"station_id":"ce4bha12rcd13ifvqee0","pricing_plan_id":"cebpf4jnsgd1na2vs0mg"},{"bike_id":"6cdaa2c4-795a-455e-b918-9304a611ff74","system_id":"levelo_inurba_marseille","lat":43.24654,"lon":5.38892,"is_reserved":false,"is_disabled":false,"rental_uris":{"android":"levelo://app?vid=6cdaa2c4-795a-455e-b918-9304a611ff74","ios":"levelo://app?vid=6cdaa2c4-795a-455e-b918-9304a611ff74"},"vehicle_type_id":"4","last_reported":1747998544,"current_range_meters":16800,"station_id":"ce4bhg12rcd13ifvqf60","pricing_plan_id":"cebpf4jnsgd1na2vs0mg"},{"bike_id":"556a803e-2c03-4960-9832-fc0d73f26d16","system_id":"levelo_inurba_marseille","lat":43.26571,"lon":5.37289,"is_reserved":false,"is_disabled":false,"rental_uris":{"android":"levelo://app?vid=556a803e-2c03-4960-9832-fc0d73f26d16","ios":"levelo://app?vid=556a803e-2c03-4960-9832-fc0d73f26d16"},"vehicle_type_id":"4","last_reported":1747998544,"current_range_meters":16800,"station_id":"ce4bhg12rcd13ifvqf70","pricing_plan_id":"cebpf4jnsgd1na2vs0mg"},{"bike_id":"49d992e5-f4fb-48ee-b4e8-ac3730b98c01","system_id":"levelo_inurba_marseille","lat":43.26555,"lon":5.37286,"is_reserved":false,"is_disabled":false,"rental_uris":{"android":"levelo://app?vid=49d992e5-f4fb-48ee-b4e8-ac3730b98c01","ios":"levelo://app?vid=49d992e5-f4fb-48ee-b4e8-ac3730b98c01"},"vehicle_type_id":"4","last_reported":1747998544,"current_range_meters":16800,"station_id":"ce4bhg12rcd13ifvqf70","pricing_plan_id":"cebpf4jnsgd1na2vs0mg"},{"bike_id":"5bbcb9e9-f69c-4582-ac88-b772a174cea6","system_id":"levelo_inurba_marseille","lat":43.26023,"lon":5.37554,"is_reserved":false,"is_disabled":false,"rental_uris":{"android":"levelo://app?vid=5bbcb9e9-f69c-4582-ac88-b772a174cea6","ios":"levelo://app?vid=5bbcb9e9-f69c-4582-ac88-b772a174cea6"},"vehicle_type_id":"4","last_reported":1747998544,"current_range_meters":16800,"station_id":"ce4bhgh2rcd13ifvqfa0","pricing_plan_id":"cebpf4jnsgd1na2vs0mg"},{"bike_id":"639f6288-23a6-4da8-93f7-5ff82b96226a","system_id":"levelo_inurba_marseille","lat":43.25128,"lon":5.40321,"is_reserved":false,"is_disabled":false,"rental_uris":{"android":"levelo://app?vid=639f6288-23a6-4da8-93f7-5ff82b96226a","ios":"levelo://app?vid=639f6288-23a6-4da8-93f7-5ff82b96226a"},"vehicle_type_id":"4","last_reported":1747998544,"current_range_meters":16800,"station_id":"ce4bhlh2rcd13ifvqgig","pricing_plan_id":"cebpf4jnsgd1na2vs0mg"},{"bike_id":"758d3014-2d3a-4bd1-9c7a-a9270d276c91","system_id":"levelo_inurba_marseille","lat":43.21194,"lon":5.3507,"is_reserved":false,"is_disabled":false,"rental_uris":{"android":"levelo://app?vid=758d3014-2d3a-4bd1-9c7a-a9270d276c91","ios":"levelo://app?vid=758d3014-2d3a-4bd1-9c7a-a9270d276c91"},"vehicle_type_id":"4","last_reported":1747998544,"current_range_meters":16800,"station_id":"st_cvj6sg6p6f1abm77japg","pricing_plan_id":"cebpf4jnsgd1na2vs0mg"},{"bike_id":"77d64eb6-c1e3-4441-a001-956ce2f857af","system_id":"levelo_inurba_marseille","lat":43.30561,"lon":5.37192,"is_reserved":false,"is_disabled":false,"rental_uris":{"android":"levelo://app?vid=77d64eb6-c1e3-4441-a001-956ce2f857af","ios":"levelo://app?vid=77d64eb6-c1e3-4441-a001-956ce2f857af"},"vehicle_type_id":"4","last_reported":1747998544,"current_range_meters":17200,"station_id":"","pricing_plan_id":"cebpf4jnsgd1na2vs0mg"},{"bike_id":"d502a9fb-e8d3-4df5-aeef-a806c8fd7412","system_id":"levelo_inurba_marseille","lat":43.313529,"lon":5.367074,"is_reserved":false,"is_disabled":false,"rental_uris":{"android":"levelo://app?vid=d502a9fb-e8d3-4df5-aeef-a806c8fd7412","ios":"levelo://app?vid=d502a9fb-e8d3-4df5-aeef-a806c8fd7412"},"vehicle_type_id":"4","last_reported":1747998544,"current_range_meters":17200,"station_id":"ce4bgr92rcd13ifvqc6g","pricing_plan_id":"cebpf4jnsgd1na2vs0mg"},{"bike_id":"641e3ba4-6c7d-4480-b0e9-c35d43e56319","system_id":"levelo_inurba_marseille","lat":43.29971,"lon":5.37184,"is_reserved":false,"is_disabled":false,"rental_uris":{"android":"levelo://app?vid=641e3ba4-6c7d-4480-b0e9-c35d43e56319","ios":"levelo://app?vid=641e3ba4-6c7d-4480-b0e9-c35d43e56319"},"vehicle_type_id":"4","last_reported":1747998544,"current_range_meters":17200,"station_id":"ce4bgr92rcd13ifvqc7g","pricing_plan_id":"cebpf4jnsgd1na2vs0mg"},{"bike_id":"a9baee0d-165f-4d18-9f8e-f569c67d43ea","system_id":"levelo_inurba_marseille","lat":43.303245,"lon":5.404356,"is_reserved":false,"is_disabled":false,"rental_uris":{"android":"levelo://app?vid=a9baee0d-165f-4d18-9f8e-f569c67d43ea","ios":"levelo://app?vid=a9baee0d-165f-4d18-9f8e-f569c67d43ea"},"vehicle_type_id":"4","last_reported":1747998544,"current_range_meters":17200,"station_id":"ce4bh012rcd13ifvqd10","pricing_plan_id":"cebpf4jnsgd1na2vs0mg"},{"bike_id":"2d8ec8ea-859c-43ea-b4ab-4c4859961601","system_id":"levelo_inurba_marseille","lat":43.28269,"lon":5.35056,"is_reserved":false,"is_disabled":false,"rental_uris":{"android":"levelo://app?vid=2d8ec8ea-859c-43ea-b4ab-4c4859961601","ios":"levelo://app?vid=2d8ec8ea-859c-43ea-b4ab-4c4859961601"},"vehicle_type_id":"4","last_reported":1747998544,"current_range_meters":17200,"station_id":"ce4bhbp2rcd13ifvqerg","pricing_plan_id":"cebpf4jnsgd1na2vs0mg"},{"bike_id":"ec81dc1b-d94a-4d1c-b460-4a686b848ec0","system_id":"levelo_inurba_marseille","lat":43.26682,"lon":5.38264,"is_reserved":false,"is_disabled":false,"rental_uris":{"android":"levelo://app?vid=ec81dc1b-d94a-4d1c-b460-4a686b848ec0","ios":"levelo://app?vid=ec81dc1b-d94a-4d1c-b460-4a686b848ec0"},"vehicle_type_id":"4","last_reported":1747998544,"current_range_meters":17200,"station_id":"ce4bhg92rcd13ifvqf90","pricing_plan_id":"cebpf4jnsgd1na2vs0mg"},{"bike_id":"74a76304-1ebc-4270-938f-6a5511561c46","system_id":"levelo_inurba_marseille","lat":43.27939,"lon":5.41038,"is_reserved":false,"is_disabled":false,"rental_uris":{"android":"levelo://app?vid=74a76304-1ebc-4270-938f-6a5511561c46","ios":"levelo://app?vid=74a76304-1ebc-4270-938f-6a5511561c46"},"vehicle_type_id":"4","last_reported":1747998544,"current_range_meters":17200,"station_id":"ce4bhnp2rcd13ifvqh0g","pricing_plan_id":"cebpf4jnsgd1na2vs0mg"},{"bike_id":"1c960faf-d0f3-4e63-9b21-e35f107e1861","system_id":"levelo_inurba_marseille","lat":43.23962,"lon":5.36631,"is_reserved":false,"is_disabled":false,"rental_uris":{"android":"levelo://app?vid=1c960faf-d0f3-4e63-9b21-e35f107e1861","ios":"levelo://app?vid=1c960faf-d0f3-4e63-9b21-e35f107e1861"},"vehicle_type_id":"4","last_reported":1747998544,"current_range_meters":17600,"station_id":"","pricing_plan_id":"cebpf4jnsgd1na2vs0mg"},{"bike_id":"92477819-086f-43f5-94e8-aa45bf11ec37","system_id":"levelo_inurba_marseille","lat":43.29101,"lon":5.3811,"is_reserved":false,"is_disabled":false,"rental_uris":{"android":"levelo://app?vid=92477819-086f-43f5-94e8-aa45bf11ec37","ios":"levelo://app?vid=92477819-086f-43f5-94e8-aa45bf11ec37"},"vehicle_type_id":"4","last_reported":1747998544,"current_range_meters":17600,"station_id":"ce4bh512rcd13ifvqe2g","pricing_plan_id":"cebpf4jnsgd1na2vs0mg"},{"bike_id":"319d6256-dd1c-4b86-98e2-3b32cb08f299","system_id":"levelo_inurba_marseille","lat":43.30948,"lon":5.36833,"is_reserved":false,"is_disabled":false,"rental_uris":{"android":"levelo://app?vid=319d6256-dd1c-4b86-98e2-3b32cb08f299","ios":"levelo://app?vid=319d6256-dd1c-4b86-98e2-3b32cb08f299"},"vehicle_type_id":"4","last_reported":1747998544,"current_range_meters":18000,"station_id":"ce4bgn92rcd13ifvqbvg","pricing_plan_id":"cebpf4jnsgd1na2vs0mg"},{"bike_id":"814bc89d-c8ec-439a-9178-f989ffd4a073","system_id":"levelo_inurba_marseille","lat":43.28264,"lon":5.35071,"is_reserved":false,"is_disabled":false,"rental_uris":{"android":"levelo://app?vid=814bc89d-c8ec-439a-9178-f989ffd4a073","ios":"levelo://app?vid=814bc89d-c8ec-439a-9178-f989ffd4a073"},"vehicle_type_id":"4","last_reported":1747998544,"current_range_meters":18000,"station_id":"ce4bhbp2rcd13ifvqerg","pricing_plan_id":"cebpf4jnsgd1na2vs0mg"},{"bike_id":"4d8bcea3-5402-40b6-b5d8-2706ca69d34e","system_id":"levelo_inurba_marseille","lat":43.26219,"lon":5.37435,"is_reserved":false,"is_disabled":false,"rental_uris":{"android":"levelo://app?vid=4d8bcea3-5402-40b6-b5d8-2706ca69d34e","ios":"levelo://app?vid=4d8bcea3-5402-40b6-b5d8-2706ca69d34e"},"vehicle_type_id":"4","last_reported":1747998544,"current_range_meters":18000,"station_id":"ce4bhgp2rcd13ifvqfc0","pricing_plan_id":"cebpf4jnsgd1na2vs0mg"},{"bike_id":"6b94a67a-5e89-4e2c-b0c2-4deaaacfc927","system_id":"levelo_inurba_marseille","lat":43.26795,"lon":5.39406,"is_reserved":false,"is_disabled":false,"rental_uris":{"android":"levelo://app?vid=6b94a67a-5e89-4e2c-b0c2-4deaaacfc927","ios":"levelo://app?vid=6b94a67a-5e89-4e2c-b0c2-4deaaacfc927"},"vehicle_type_id":"4","last_reported":1747998544,"current_range_meters":18000,"station_id":"ce4bhh12rcd13ifvqfg0","pricing_plan_id":"cebpf4jnsgd1na2vs0mg"},{"bike_id":"1409e492-82db-40f1-8084-469964946757","system_id":"levelo_inurba_marseille","lat":43.231506,"lon":5.437168,"is_reserved":false,"is_disabled":false,"rental_uris":{"android":"levelo://app?vid=1409e492-82db-40f1-8084-469964946757","ios":"levelo://app?vid=1409e492-82db-40f1-8084-469964946757"},"vehicle_type_id":"4","last_reported":1747998544,"current_range_meters":18000,"station_id":"ce4bhmp2rcd13ifvqgog","pricing_plan_id":"cebpf4jnsgd1na2vs0mg"},{"bike_id":"fdd6678a-46ba-4191-a6a8-2e5954c7f96b","system_id":"levelo_inurba_marseille","lat":43.307991,"lon":5.435248,"is_reserved":false,"is_disabled":false,"rental_uris":{"android":"levelo://app?vid=fdd6678a-46ba-4191-a6a8-2e5954c7f96b","ios":"levelo://app?vid=fdd6678a-46ba-4191-a6a8-2e5954c7f96b"},"vehicle_type_id":"4","last_reported":1747998544,"current_range_meters":18000,"station_id":"ce4bhph2rcd13ifvqheg","pricing_plan_id":"cebpf4jnsgd1na2vs0mg"},{"bike_id":"8928326c-648b-48ca-ac72-50af7132758b","system_id":"levelo_inurba_marseille","lat":43.229294,"lon":5.353832,"is_reserved":false,"is_disabled":false,"rental_uris":{"android":"levelo://app?vid=8928326c-648b-48ca-ac72-50af7132758b","ios":"levelo://app?vid=8928326c-648b-48ca-ac72-50af7132758b"},"vehicle_type_id":"4","last_reported":1747998544,"current_range_meters":18000,"station_id":"cpo3532slgdg3j2ikp40","pricing_plan_id":"cebpf4jnsgd1na2vs0mg"},{"bike_id":"034ce18b-54c7-419d-bc93-0f5693aec2ed","system_id":"levelo_inurba_marseille","lat":43.22936,"lon":5.35376,"is_reserved":false,"is_disabled":false,"rental_uris":{"android":"levelo://app?vid=034ce18b-54c7-419d-bc93-0f5693aec2ed","ios":"levelo://app?vid=034ce18b-54c7-419d-bc93-0f5693aec2ed"},"vehicle_type_id":"4","last_reported":1747998544,"current_range_meters":18000,"station_id":"cpo3532slgdg3j2ikp40","pricing_plan_id":"cebpf4jnsgd1na2vs0mg"},{"bike_id":"da453a88-f81b-4e0f-9781-5a7f6c1d364c","system_id":"levelo_inurba_marseille","lat":43.337499,"lon":5.374469,"is_reserved":false,"is_disabled":false,"rental_uris":{"android":"levelo://app?vid=da453a88-f81b-4e0f-9781-5a7f6c1d364c","ios":"levelo://app?vid=da453a88-f81b-4e0f-9781-5a7f6c1d364c"},"vehicle_type_id":"4","last_reported":1747998544,"current_range_meters":18800,"station_id":"","pricing_plan_id":"cebpf4jnsgd1na2vs0mg"},{"bike_id":"88ac5a91-56d3-4573-b0f2-5c6bbb7d986b","system_id":"levelo_inurba_marseille","lat":43.26065,"lon":5.39644,"is_reserved":false,"is_disabled":false,"rental_uris":{"android":"levelo://app?vid=88ac5a91-56d3-4573-b0f2-5c6bbb7d986b","ios":"levelo://app?vid=88ac5a91-56d3-4573-b0f2-5c6bbb7d986b"},"vehicle_type_id":"4","last_reported":1747998544,"current_range_meters":18800,"station_id":"","pricing_plan_id":"cebpf4jnsgd1na2vs0mg"},{"bike_id":"009b1f1f-646b-4fea-b6da-273616a3d069","system_id":"levelo_inurba_marseille","lat":43.29251,"lon":5.37608,"is_reserved":false,"is_disabled":false,"rental_uris":{"android":"levelo://app?vid=009b1f1f-646b-4fea-b6da-273616a3d069","ios":"levelo://app?vid=009b1f1f-646b-4fea-b6da-273616a3d069"},"vehicle_type_id":"4","last_reported":1747998544,"current_range_meters":18800,"station_id":"ce4bgi12rcd13ifvqb80","pricing_plan_id":"cebpf4jnsgd1na2vs0mg"},{"bike_id":"9a6535a8-8be5-4dbc-8a9a-b06d6b143302","system_id":"levelo_inurba_marseille","lat":43.2926,"lon":5.37631,"is_reserved":false,"is_disabled":false,"rental_uris":{"android":"levelo://app?vid=9a6535a8-8be5-4dbc-8a9a-b06d6b143302","ios":"levelo://app?vid=9a6535a8-8be5-4dbc-8a9a-b06d6b143302"},"vehicle_type_id":"4","last_reported":1747998544,"current_range_meters":18800,"station_id":"ce4bgi12rcd13ifvqb80","pricing_plan_id":"cebpf4jnsgd1na2vs0mg"},{"bike_id":"30c8d7ac-2975-47c1-a66f-c41f0bb81d06","system_id":"levelo_inurba_marseille","lat":43.29004,"lon":5.35608,"is_reserved":false,"is_disabled":false,"rental_uris":{"android":"levelo://app?vid=30c8d7ac-2975-47c1-a66f-c41f0bb81d06","ios":"levelo://app?vid=30c8d7ac-2975-47c1-a66f-c41f0bb81d06"},"vehicle_type_id":"4","last_reported":1747998544,"current_range_meters":18800,"station_id":"ce4bhb92rcd13ifvqen0","pricing_plan_id":"cebpf4jnsgd1na2vs0mg"},{"bike_id":"f9bd3725-a52f-4288-9bf9-1c3c7bc36a80","system_id":"levelo_inurba_marseille","lat":43.28408,"lon":5.34982,"is_reserved":false,"is_disabled":false,"rental_uris":{"android":"levelo://app?vid=f9bd3725-a52f-4288-9bf9-1c3c7bc36a80","ios":"levelo://app?vid=f9bd3725-a52f-4288-9bf9-1c3c7bc36a80"},"vehicle_type_id":"4","last_reported":1747998544,"current_range_meters":18800,"station_id":"ce4bhbh2rcd13ifvqepg","pricing_plan_id":"cebpf4jnsgd1na2vs0mg"},{"bike_id":"147f8927-4685-42bd-a6c5-e441222c3b69","system_id":"levelo_inurba_marseille","lat":43.266911,"lon":5.382693,"is_reserved":false,"is_disabled":false,"rental_uris":{"android":"levelo://app?vid=147f8927-4685-42bd-a6c5-e441222c3b69","ios":"levelo://app?vid=147f8927-4685-42bd-a6c5-e441222c3b69"},"vehicle_type_id":"4","last_reported":1747998544,"current_range_meters":18800,"station_id":"ce4bhg92rcd13ifvqf90","pricing_plan_id":"cebpf4jnsgd1na2vs0mg"},{"bike_id":"b05f41dc-a506-4517-b95a-1f901c6068db","system_id":"levelo_inurba_marseille","lat":43.24805,"lon":5.3746,"is_reserved":false,"is_disabled":false,"rental_uris":{"android":"levelo://app?vid=b05f41dc-a506-4517-b95a-1f901c6068db","ios":"levelo://app?vid=b05f41dc-a506-4517-b95a-1f901c6068db"},"vehicle_type_id":"4","last_reported":1747998544,"current_range_meters":18800,"station_id":"ce4bhgh2rcd13ifvqfb0","pricing_plan_id":"cebpf4jnsgd1na2vs0mg"},{"bike_id":"5a05fa65-c80f-4680-97c7-b677f6b4a0ff","system_id":"levelo_inurba_marseille","lat":43.255798,"lon":5.382396,"is_reserved":false,"is_disabled":false,"rental_uris":{"android":"levelo://app?vid=5a05fa65-c80f-4680-97c7-b677f6b4a0ff","ios":"levelo://app?vid=5a05fa65-c80f-4680-97c7-b677f6b4a0ff"},"vehicle_type_id":"4","last_reported":1747998544,"current_range_meters":18800,"station_id":"ce4bhih2rcd13ifvqfs0","pricing_plan_id":"cebpf4jnsgd1na2vs0mg"},{"bike_id":"4c2a4c58-d2c6-48c4-a352-dd11fb06beb5","system_id":"levelo_inurba_marseille","lat":43.25121,"lon":5.40307,"is_reserved":false,"is_disabled":false,"rental_uris":{"android":"levelo://app?vid=4c2a4c58-d2c6-48c4-a352-dd11fb06beb5","ios":"levelo://app?vid=4c2a4c58-d2c6-48c4-a352-dd11fb06beb5"},"vehicle_type_id":"4","last_reported":1747998544,"current_range_meters":18800,"station_id":"ce4bhlh2rcd13ifvqgig","pricing_plan_id":"cebpf4jnsgd1na2vs0mg"},{"bike_id":"b92a3c71-9ad6-4da4-9ce8-d6dfcfeae874","system_id":"levelo_inurba_marseille","lat":43.32487,"lon":5.36545,"is_reserved":false,"is_disabled":false,"rental_uris":{"android":"levelo://app?vid=b92a3c71-9ad6-4da4-9ce8-d6dfcfeae874","ios":"levelo://app?vid=b92a3c71-9ad6-4da4-9ce8-d6dfcfeae874"},"vehicle_type_id":"4","last_reported":1747998544,"current_range_meters":18800,"station_id":"ce4bhs12rcd13ifvqhvg","pricing_plan_id":"cebpf4jnsgd1na2vs0mg"},{"bike_id":"246a303d-65ef-49e6-9e50-2e37cf092749","system_id":"levelo_inurba_marseille","lat":43.25295,"lon":5.39222,"is_reserved":false,"is_disabled":false,"rental_uris":{"android":"levelo://app?vid=246a303d-65ef-49e6-9e50-2e37cf092749","ios":"levelo://app?vid=246a303d-65ef-49e6-9e50-2e37cf092749"},"vehicle_type_id":"4","last_reported":1747998544,"current_range_meters":19200,"station_id":"","pricing_plan_id":"cebpf4jnsgd1na2vs0mg"},{"bike_id":"eaa41d7b-2d91-409b-9112-87bf55a1e8de","system_id":"levelo_inurba_marseille","lat":43.30459,"lon":5.37898,"is_reserved":false,"is_disabled":false,"rental_uris":{"android":"levelo://app?vid=eaa41d7b-2d91-409b-9112-87bf55a1e8de","ios":"levelo://app?vid=eaa41d7b-2d91-409b-9112-87bf55a1e8de"},"vehicle_type_id":"4","last_reported":1747998544,"current_range_meters":19200,"station_id":"ce4bgup2rcd13ifvqcn0","pricing_plan_id":"cebpf4jnsgd1na2vs0mg"},{"bike_id":"b364d38e-a2f4-465a-a777-6617fa6d24c7","system_id":"levelo_inurba_marseille","lat":43.29198,"lon":5.358,"is_reserved":false,"is_disabled":false,"rental_uris":{"android":"levelo://app?vid=b364d38e-a2f4-465a-a777-6617fa6d24c7","ios":"levelo://app?vid=b364d38e-a2f4-465a-a777-6617fa6d24c7"},"vehicle_type_id":"4","last_reported":1747998544,"current_range_meters":19200,"station_id":"ce4bhb12rcd13ifvqel0","pricing_plan_id":"cebpf4jnsgd1na2vs0mg"},{"bike_id":"23b9348d-75b5-4eba-ad8f-f241de51118b","system_id":"levelo_inurba_marseille","lat":43.28279,"lon":5.35067,"is_reserved":false,"is_disabled":false,"rental_uris":{"android":"levelo://app?vid=23b9348d-75b5-4eba-ad8f-f241de51118b","ios":"levelo://app?vid=23b9348d-75b5-4eba-ad8f-f241de51118b"},"vehicle_type_id":"4","last_reported":1747998544,"current_range_meters":19200,"station_id":"ce4bhbp2rcd13ifvqerg","pricing_plan_id":"cebpf4jnsgd1na2vs0mg"},{"bike_id":"8de22dab-6896-4af2-bc48-b9af67dce0f3","system_id":"levelo_inurba_marseille","lat":43.27064,"lon":5.40253,"is_reserved":false,"is_disabled":false,"rental_uris":{"android":"levelo://app?vid=8de22dab-6896-4af2-bc48-b9af67dce0f3","ios":"levelo://app?vid=8de22dab-6896-4af2-bc48-b9af67dce0f3"},"vehicle_type_id":"4","last_reported":1747998544,"current_range_meters":19200,"station_id":"ce4bhk92rcd13ifvqgc0","pricing_plan_id":"cebpf4jnsgd1na2vs0mg"},{"bike_id":"953612d1-211b-4a14-b6c1-8616515f4508","system_id":"levelo_inurba_marseille","lat":43.25908,"lon":5.40863,"is_reserved":false,"is_disabled":false,"rental_uris":{"android":"levelo://app?vid=953612d1-211b-4a14-b6c1-8616515f4508","ios":"levelo://app?vid=953612d1-211b-4a14-b6c1-8616515f4508"},"vehicle_type_id":"4","last_reported":1747998544,"current_range_meters":19200,"station_id":"ce4bhm92rcd13ifvqglg","pricing_plan_id":"cebpf4jnsgd1na2vs0mg"},{"bike_id":"17ecf772-3498-4b4c-9902-72820add1de0","system_id":"levelo_inurba_marseille","lat":43.28,"lon":5.40018,"is_reserved":false,"is_disabled":false,"rental_uris":{"android":"levelo://app?vid=17ecf772-3498-4b4c-9902-72820add1de0","ios":"levelo://app?vid=17ecf772-3498-4b4c-9902-72820add1de0"},"vehicle_type_id":"4","last_reported":1747998544,"current_range_meters":19200,"station_id":"ce4bho92rcd13ifvqh4g","pricing_plan_id":"cebpf4jnsgd1na2vs0mg"},{"bike_id":"44ddea2b-2b22-435b-92c2-8c595d90e51a","system_id":"levelo_inurba_marseille","lat":43.22917,"lon":5.35393,"is_reserved":false,"is_disabled":false,"rental_uris":{"android":"levelo://app?vid=44ddea2b-2b22-435b-92c2-8c595d90e51a","ios":"levelo://app?vid=44ddea2b-2b22-435b-92c2-8c595d90e51a"},"vehicle_type_id":"4","last_reported":1747998544,"current_range_meters":19200,"station_id":"cpo3532slgdg3j2ikp40","pricing_plan_id":"cebpf4jnsgd1na2vs0mg"},{"bike_id":"c9d625da-6a59-4310-b500-12ab7608e6e6","system_id":"levelo_inurba_marseille","lat":43.307394,"lon":5.424568,"is_reserved":false,"is_disabled":false,"rental_uris":{"android":"levelo://app?vid=c9d625da-6a59-4310-b500-12ab7608e6e6","ios":"levelo://app?vid=c9d625da-6a59-4310-b500-12ab7608e6e6"},"vehicle_type_id":"4","last_reported":1747998544,"current_range_meters":19200,"station_id":"st_cvj6ca6bvosntc0bfgr0","pricing_plan_id":"cebpf4jnsgd1na2vs0mg"},{"bike_id":"e64c2d3a-c39a-4fd6-a62f-e4c47c78e331","system_id":"levelo_inurba_marseille","lat":43.29298,"lon":5.37452,"is_reserved":false,"is_disabled":false,"rental_uris":{"android":"levelo://app?vid=e64c2d3a-c39a-4fd6-a62f-e4c47c78e331","ios":"levelo://app?vid=e64c2d3a-c39a-4fd6-a62f-e4c47c78e331"},"vehicle_type_id":"4","last_reported":1747998544,"current_range_meters":19600,"station_id":"ce4bgi12rcd13ifvqb70","pricing_plan_id":"cebpf4jnsgd1na2vs0mg"},{"bike_id":"128ed5e3-c355-4918-8c14-3f9e41430e73","system_id":"levelo_inurba_marseille","lat":43.2762,"lon":5.36113,"is_reserved":false,"is_disabled":false,"rental_uris":{"android":"levelo://app?vid=128ed5e3-c355-4918-8c14-3f9e41430e73","ios":"levelo://app?vid=128ed5e3-c355-4918-8c14-3f9e41430e73"},"vehicle_type_id":"4","last_reported":1747998544,"current_range_meters":19600,"station_id":"ce4bgj92rcd13ifvqbe0","pricing_plan_id":"cebpf4jnsgd1na2vs0mg"},{"bike_id":"4bc7857e-0af7-41d3-81f9-3d0c5c7b5a42","system_id":"levelo_inurba_marseille","lat":43.29003,"lon":5.35601,"is_reserved":false,"is_disabled":false,"rental_uris":{"android":"levelo://app?vid=4bc7857e-0af7-41d3-81f9-3d0c5c7b5a42","ios":"levelo://app?vid=4bc7857e-0af7-41d3-81f9-3d0c5c7b5a42"},"vehicle_type_id":"4","last_reported":1747998544,"current_range_meters":19600,"station_id":"ce4bhb92rcd13ifvqen0","pricing_plan_id":"cebpf4jnsgd1na2vs0mg"},{"bike_id":"b81c01df-8186-4cca-a7c5-5a54e92ecd8d","system_id":"levelo_inurba_marseille","lat":43.29004,"lon":5.35604,"is_reserved":false,"is_disabled":false,"rental_uris":{"android":"levelo://app?vid=b81c01df-8186-4cca-a7c5-5a54e92ecd8d","ios":"levelo://app?vid=b81c01df-8186-4cca-a7c5-5a54e92ecd8d"},