{"last_updated":1728029538,"ttl":60,"version":"2.2","data":{"bikes":[{"bike_id":"fcc0dea3-a4f1-4cdd-9155-e6fbe4a49d1b","system_id":"levelo_inurba_marseille","lat":43.28343,"lon":5.38108,"is_reserved":false,"is_disabled":false,"rental_uris":{"android":"levelo://app?vid=fcc0dea3-a4f1-4cdd-9155-e6fbe4a49d1b","ios":"levelo://app?vid=fcc0dea3-a4f1-4cdd-9155-e6fbe4a49d1b"},"vehicle_type_id":"4","last_reported":1728029538,"current_range_meters":26000,"station_id":"ce4bh412rcd13ifvqdr0","pricing_plan_id":"cebpf4jnsgd1na2vs0mg"},{"bike_id":"086b36b2-8fa9-4a21-a966-d0afeb3875cc","system_id":"levelo_inurba_marseille","lat":43.30144,"lon":5.38079,"is_reserved":false,"is_disabled":false,"rental_uris":{"android":"levelo://app?vid=086b36b2-8fa9-4a21-a966-d0afeb3875cc","ios":"levelo://app?vid=086b36b2-8fa9-4a21-a966-d0afeb3875cc"},"vehicle_type_id":"4","last_reported":1728029538,"current_range_meters":36800,"station_id":"ce4bgjp2rcd13ifvqbh0","pricing_plan_id":"cebpf4jnsgd1na2vs0mg"},{"bike_id":"8ca22dee-0f94-4629-af04-8bbe3303795c","system_id":"levelo_inurba_marseille","lat":43.24082,"lon":5.37752,"is_reserved":false,"is_disabled":false,"rental_uris":{"android":"levelo://app?vid=8ca22dee-0f94-4629-af04-8bbe3303795c","ios":"levelo://app?vid=8ca22dee-0f94-4629-af04-8bbe3303795c"},"vehicle_type_id":"4","last_reported":1728029538,"current_range_meters":22000,"station_id":"ce4bhnp2rcd13ifvqgvg","pricing_plan_id":"cebpf4jnsgd1na2vs0mg"},{"bike_id":"c8ca838e-d043-47f7-95df-7d9f1230fae2","system_id":"levelo_inurba_marseille","lat":43.30096,"lon":5.39082,"is_reserved":false,"is_disabled":false,"rental_uris":{"android":"levelo://app?vid=c8ca838e-d043-47f7-95df-7d9f1230fae2","ios":"levelo://app?vid=c8ca838e-d043-47f7-95df-7d9f1230fae2"},"vehicle_type_id":"4","last_reported":1728029538,"current_range_meters":35200,"station_id":"ce4bh192rcd13ifvqdb0","pricing_plan_id":"cebpf4jnsgd1na2vs0mg"},{"bike_id":"75b808a8-3e4e-4929-a3df-3685cc3fd84c","system_id":"levelo_inurba_marseille","lat":43.30457,"lon":5.37901,"is_reserved":false,"is_disabled":false,"rental_uris":{"android":"levelo://app?vid=75b808a8-3e4e-4929-a3df-3685cc3fd84c","ios":"levelo://app?vid=75b808a8-3e4e-4929-a3df-3685cc3fd84c"},"vehicle_type_id":"4","last_reported":1728029538,"current_range_meters":22800,"station_id":"ce4bgup2rcd13ifvqcn0","pricing_plan_id":"cebpf4jnsgd1na2vs0mg"},{"bike_id":"6ccba172-7b90-4c62-a5a9-3dde03fd3a03","system_id":"levelo_inurba_marseille","lat":43.26539,"lon":5.38378,"is_reserved":false,"is_disabled":false,"rental_uris":{"android":"levelo://app?vid=6ccba172-7b90-4c62-a5a9-3dde03fd3a03","ios":"levelo://app?vid=6ccba172-7b90-4c62-a5a9-3dde03fd3a03"},"vehicle_type_id":"4","last_reported":1728029538,"current_range_meters":32400,"station_id":"","pricing_plan_id":"cebpf4jnsgd1na2vs0mg"},{"bike_id":"5f224c47-f907-4282-b816-04fd7246d8d5","system_id":"levelo_inurba_marseille","lat":43.28851,"lon":5.3585,"is_reserved":false,"is_disabled":false,"rental_uris":{"android":"levelo://app?vid=5f224c47-f907-4282-b816-04fd7246d8d5","ios":"levelo://app?vid=5f224c47-f907-4282-b816-04fd7246d8d5"},"vehicle_type_id":"4","last_reported":1728029538,"current_range_meters":20400,"station_id":"ce4bhb12rcd13ifvqem0","pricing_plan_id":"cebpf4jnsgd1na2vs0mg"},{"bike_id":"86398195-9834-4659-b8f5-8139a78118a0","system_id":"levelo_inurba_marseille","lat":43.27487,"lon":5.42461,"is_reserved":false,"is_disabled":false,"rental_uris":{"android":"levelo://app?vid=86398195-9834-4659-b8f5-8139a78118a0","ios":"levelo://app?vid=86398195-9834-4659-b8f5-8139a78118a0"},"vehicle_type_id":"4","last_reported":1728029538,"current_range_meters":22400,"station_id":"ce4bhn92rcd13ifvqgrg","pricing_plan_id":"cebpf4jnsgd1na2vs0mg"},{"bike_id":"bbab2f3f-7ba6-46b5-8f6b-218bc666cfce","system_id":"levelo_inurba_marseille","lat":43.2984,"lon":5.36272,"is_reserved":false,"is_disabled":false,"rental_uris":{"android":"levelo://app?vid=bbab2f3f-7ba6-46b5-8f6b-218bc666cfce","ios":"levelo://app?vid=bbab2f3f-7ba6-46b5-8f6b-218bc666cfce"},"vehicle_type_id":"4","last_reported":1728029538,"current_range_meters":12000,"station_id":"ce4bgpp2rcd13ifvqc3g","pricing_plan_id":"cebpf4jnsgd1na2vs0mg"},{"bike_id":"756088e4-bd38-4606-aa6f-cbbf1461af00","system_id":"levelo_inurba_marseille","lat":43.22929,"lon":5.35376,"is_reserved":false,"is_disabled":false,"rental_uris":{"android":"levelo://app?vid=756088e4-bd38-4606-aa6f-cbbf1461af00","ios":"levelo://app?vid=756088e4-bd38-4606-aa6f-cbbf1461af00"},"vehicle_type_id":"4","last_reported":1728029538,"current_range_meters":13600,"station_id":"cpo3532slgdg3j2ikp40","pricing_plan_id":"cebpf4jnsgd1na2vs0mg"},{"bike_id":"31eee4b6-b264-43c7-b3c9-e5e37e20ecbd","system_id":"levelo_inurba_marseille","lat":43.29573,"lon":5.37538,"is_reserved":false,"is_disabled":false,"rental_uris":{"android":"levelo://app?vid=31eee4b6-b264-43c7-b3c9-e5e37e20ecbd","ios":"levelo://app?vid=31eee4b6-b264-43c7-b3c9-e5e37e20ecbd"},"vehicle_type_id":"4","last_reported":1728029538,"current_range_meters":22000,"station_id":"ce4bgh92rcd13ifvqb50","pricing_plan_id":"cebpf4jnsgd1na2vs0mg"},{"bike_id":"1693ff41-8c99-41ae-8a32-22d707069ab7","system_id":"levelo_inurba_marseille","lat":43.3053,"lon":5.3655,"is_reserved":false,"is_disabled":false,"rental_uris":{"android":"levelo://app?vid=1693ff41-8c99-41ae-8a32-22d707069ab7","ios":"levelo://app?vid=1693ff41-8c99-41ae-8a32-22d707069ab7"},"vehicle_type_id":"4","last_reported":1728029538,"current_range_meters":38800,"station_id":"ce4bgs12rcd13ifvqcag","pricing_plan_id":"cebpf4jnsgd1na2vs0mg"},{"bike_id":"01641f8f-1fc1-46a8-a503-4fd059b2aea2","system_id":"levelo_inurba_marseille","lat":43.28352,"lon":5.38101,"is_reserved":false,"is_disabled":false,"rental_uris":{"android":"levelo://app?vid=01641f8f-1fc1-46a8-a503-4fd059b2aea2","ios":"levelo://app?vid=01641f8f-1fc1-46a8-a503-4fd059b2aea2"},"vehicle_type_id":"4","last_reported":1728029538,"current_range_meters":20800,"station_id":"ce4bh412rcd13ifvqdr0","pricing_plan_id":"cebpf4jnsgd1na2vs0mg"},{"bike_id":"340fd91d-60fb-4d52-ac45-9d54ec866e8f","system_id":"levelo_inurba_marseille","lat":43.31885,"lon":5.40728,"is_reserved":false,"is_disabled":false,"rental_uris":{"android":"levelo://app?vid=340fd91d-60fb-4d52-ac45-9d54ec866e8f","ios":"levelo://app?vid=340fd91d-60fb-4d52-ac45-9d54ec866e8f"},"vehicle_type_id":"4","last_reported":1728029538,"current_range_meters":12800,"station_id":"ce4bhq12rcd13ifvqhig","pricing_plan_id":"cebpf4jnsgd1na2vs0mg"},{"bike_id":"11cd7776-bb42-4e66-9824-05852588abcf","system_id":"levelo_inurba_marseille","lat":43.31357,"lon":5.38492,"is_reserved":false,"is_disabled":false,"rental_uris":{"android":"levelo://app?vid=11cd7776-bb42-4e66-9824-05852588abcf","ios":"levelo://app?vid=11cd7776-bb42-4e66-9824-05852588abcf"},"vehicle_type_id":"4","last_reported":1728029538,"current_range_meters":25200,"station_id":"ce4bgt92rcd13ifvqcf0","pricing_plan_id":"cebpf4jnsgd1na2vs0mg"},{"bike_id":"4bd76817-ccb5-49e3-b292-b597fc400de9","system_id":"levelo_inurba_marseille","lat":43.30307,"lon":5.36893,"is_reserved":false,"is_disabled":false,"rental_uris":{"android":"levelo://app?vid=4bd76817-ccb5-49e3-b292-b597fc400de9","ios":"levelo://app?vid=4bd76817-ccb5-49e3-b292-b597fc400de9"},"vehicle_type_id":"4","last_reported":1728029538,"current_range_meters":18800,"station_id":"ce4bgqh2rcd13ifvqc5g","pricing_plan_id":"cebpf4jnsgd1na2vs0mg"},{"bike_id":"13587175-b312-4cf0-abda-2f049baac68e","system_id":"levelo_inurba_marseille","lat":43.27487,"lon":5.42453,"is_reserved":false,"is_disabled":false,"rental_uris":{"android":"levelo://app?vid=13587175-b312-4cf0-abda-2f049baac68e","ios":"levelo://app?vid=13587175-b312-4cf0-abda-2f049baac68e"},"vehicle_type_id":"4","last_reported":1728029538,"current_range_meters":35600,"station_id":"ce4bhn92rcd13ifvqgrg","pricing_plan_id":"cebpf4jnsgd1na2vs0mg"},{"bike_id":"1df98d1b-733d-49e5-901e-f02f9b77eb98","system_id":"levelo_inurba_marseille","lat":43.24077,"lon":5.37755,"is_reserved":false,"is_disabled":false,"rental_uris":{"android":"levelo://app?vid=1df98d1b-733d-49e5-901e-f02f9b77eb98","ios":"levelo://app?vid=1df98d1b-733d-49e5-901e-f02f9b77eb98"},"vehicle_type_id":"4","last_reported":1728029538,"current_range_meters":19200,"station_id":"ce4bhnp2rcd13ifvqgvg","pricing_plan_id":"cebpf4jnsgd1na2vs0mg"},{"bike_id":"770a8285-9a6c-4c9a-a1aa-f67aa58702fc","system_id":"levelo_inurba_marseille","lat":43.30944,"lon":5.3904,"is_reserved":false,"is_disabled":false,"rental_uris":{"android":"levelo://app?vid=770a8285-9a6c-4c9a-a1aa-f67aa58702fc","ios":"levelo://app?vid=770a8285-9a6c-4c9a-a1aa-f67aa58702fc"},"vehicle_type_id":"4","last_reported":1728029538,"current_range_meters":28800,"station_id":"ce4bgup2rcd13ifvqco0","pricing_plan_id":"cebpf4jnsgd1na2vs0mg"},{"bike_id":"ea7648e6-a16f-4f91-89d0-6b1e7f51963f","system_id":"levelo_inurba_marseille","lat":43.32477,"lon":5.36559,"is_reserved":false,"is_disabled":false,"rental_uris":{"android":"levelo://app?vid=ea7648e6-a16f-4f91-89d0-6b1e7f51963f","ios":"levelo://app?vid=ea7648e6-a16f-4f91-89d0-6b1e7f51963f"},"vehicle_type_id":"4","last_reported":1728029538,"current_range_meters":9200,"station_id":"ce4bhs12rcd13ifvqhvg","pricing_plan_id":"cebpf4jnsgd1na2vs0mg"},{"bike_id":"760f817b-0dcf-43cb-b6ec-2651e65ad3d9","system_id":"levelo_inurba_marseille","lat":43.27488,"lon":5.42455,"is_reserved":false,"is_disabled":false,"rental_uris":{"android":"levelo://app?vid=760f817b-0dcf-43cb-b6ec-2651e65ad3d9","ios":"levelo://app?vid=760f817b-0dcf-43cb-b6ec-2651e65ad3d9"},"vehicle_type_id":"4","last_reported":1728029538,"current_range_meters":34000,"station_id":"ce4bhn92rcd13ifvqgrg","pricing_plan_id":"cebpf4jnsgd1na2vs0mg"},{"bike_id":"a99e0887-fb66-4880-8761-33fdb36b8615","system_id":"levelo_inurba_marseille","lat":43.23185,"lon":5.39994,"is_reserved":false,"is_disabled":false,"rental_uris":{"android":"levelo://app?vid=a99e0887-fb66-4880-8761-33fdb36b8615","ios":"levelo://app?vid=a99e0887-fb66-4880-8761-33fdb36b8615"},"vehicle_type_id":"4","last_reported":1728029538,"current_range_meters":11200,"station_id":"ce4bhn12rcd13ifvqgqg","pricing_plan_id":"cebpf4jnsgd1na2vs0mg"},{"bike_id":"088f4c7d-efac-4048-957c-d65eb00ae2f5","system_id":"levelo_inurba_marseille","lat":43.29609,"lon":5.37717,"is_reserved":false,"is_disabled":false,"rental_uris":{"android":"levelo://app?vid=088f4c7d-efac-4048-957c-d65eb00ae2f5","ios":"levelo://app?vid=088f4c7d-efac-4048-957c-d65eb00ae2f5"},"vehicle_type_id":"4","last_reported":1728029538,"current_range_meters":38800,"station_id":"ce4bgi92rcd13ifvqb90","pricing_plan_id":"cebpf4jnsgd1na2vs0mg"},{"bike_id":"c27083a9-c7b2-4e25-b98d-c2d2bc61ac21","system_id":"levelo_inurba_marseille","lat":43.28721,"lon":5.37936,"is_reserved":false,"is_disabled":false,"rental_uris":{"android":"levelo://app?vid=c27083a9-c7b2-4e25-b98d-c2d2bc61ac21","ios":"levelo://app?vid=c27083a9-c7b2-4e25-b98d-c2d2bc61ac21"},"vehicle_type_id":"4","last_reported":1728029538,"current_range_meters":24800,"station_id":"ce4bh9p2rcd13ifvqec0","pricing_plan_id":"cebpf4jnsgd1na2vs0mg"},{"bike_id":"82cfab68-33d5-4fab-8f3d-dd3eca6bf1e4","system_id":"levelo_inurba_marseille","lat":43.24068,"lon":5.37763,"is_reserved":false,"is_disabled":false,"rental_uris":{"android":"levelo://app?vid=82cfab68-33d5-4fab-8f3d-dd3eca6bf1e4","ios":"levelo://app?vid=82cfab68-33d5-4fab-8f3d-dd3eca6bf1e4"},"vehicle_type_id":"4","last_reported":1728029538,"current_range_meters":26800,"station_id":"ce4bhnp2rcd13ifvqgvg","pricing_plan_id":"cebpf4jnsgd1na2vs0mg"},{"bike_id":"8b087fc3-1bf8-4b86-a5f0-1cd42fe20d67","system_id":"levelo_inurba_marseille","lat":43.30101,"lon":5.39803,"is_reserved":false,"is_disabled":false,"rental_uris":{"android":"levelo://app?vid=8b087fc3-1bf8-4b86-a5f0-1cd42fe20d67","ios":"levelo://app?vid=8b087fc3-1bf8-4b86-a5f0-1cd42fe20d67"},"vehicle_type_id":"4","last_reported":1728029538,"current_range_meters":38800,"station_id":"ce4bh0h2rcd13ifvqd40","pricing_plan_id":"cebpf4jnsgd1na2vs0mg"},{"bike_id":"7582c472-75e6-4550-9778-48903218ca6b","system_id":"levelo_inurba_marseille","lat":43.29609,"lon":5.37724,"is_reserved":false,"is_disabled":false,"rental_uris":{"android":"levelo://app?vid=7582c472-75e6-4550-9778-48903218ca6b","ios":"levelo://app?vid=7582c472-75e6-4550-9778-48903218ca6b"},"vehicle_type_id":"4","last_reported":1728029538,"current_range_meters":28400,"station_id":"ce4bgi92rcd13ifvqb90","pricing_plan_id":"cebpf4jnsgd1na2vs0mg"},{"bike_id":"3a30c928-e0eb-40b6-b4cb-2f81f00ff764","system_id":"levelo_inurba_marseille","lat":43.30315,"lon":5.36886,"is_reserved":false,"is_disabled":false,"rental_uris":{"android":"levelo://app?vid=3a30c928-e0eb-40b6-b4cb-2f81f00ff764","ios":"levelo://app?vid=3a30c928-e0eb-40b6-b4cb-2f81f00ff764"},"vehicle_type_id":"4","last_reported":1728029538,"current_range_meters":10800,"station_id":"ce4bgqh2rcd13ifvqc5g","pricing_plan_id":"cebpf4jnsgd1na2vs0mg"},{"bike_id":"ac261e06-b444-4163-8bb1-84867a0f7890","system_id":"levelo_inurba_marseille","lat":43.32537,"lon":5.41479,"is_reserved":false,"is_disabled":false,"rental_uris":{"android":"levelo://app?vid=ac261e06-b444-4163-8bb1-84867a0f7890","ios":"levelo://app?vid=ac261e06-b444-4163-8bb1-84867a0f7890"},"vehicle_type_id":"4","last_reported":1728029538,"current_range_meters":27600,"station_id":"ce4bhq12rcd13ifvqhhg","pricing_plan_id":"cebpf4jnsgd1na2vs0mg"},{"bike_id":"acc4e4b4-56da-4c80-b40b-07c281731476","system_id":"levelo_inurba_marseille","lat":43.27316,"lon":5.39088,"is_reserved":false,"is_disabled":false,"rental_uris":{"android":"levelo://app?vid=acc4e4b4-56da-4c80-b40b-07c281731476","ios":"levelo://app?vid=acc4e4b4-56da-4c80-b40b-07c281731476"},"vehicle_type_id":"4","last_reported":1728029538,"current_range_meters":34000,"station_id":"ce4bhgp2rcd13ifvqfe0","pricing_plan_id":"cebpf4jnsgd1na2vs0mg"},{"bike_id":"ddaca095-5576-4c67-96f2-938cb5653937","system_id":"levelo_inurba_marseille","lat":43.25823,"lon":5.3942,"is_reserved":false,"is_disabled":false,"rental_uris":{"android":"levelo://app?vid=ddaca095-5576-4c67-96f2-938cb5653937","ios":"levelo://app?vid=ddaca095-5576-4c67-96f2-938cb5653937"},"vehicle_type_id":"4","last_reported":1728029538,"current_range_meters":38800,"station_id":"ce4bhip2rcd13ifvqft0","pricing_plan_id":"cebpf4jnsgd1na2vs0mg"},{"bike_id":"376595a6-e9c3-49fb-8749-2d3ac56acd7a","system_id":"levelo_inurba_marseille","lat":43.293,"lon":5.37176,"is_reserved":false,"is_disabled":false,"rental_uris":{"android":"levelo://app?vid=376595a6-e9c3-49fb-8749-2d3ac56acd7a","ios":"levelo://app?vid=376595a6-e9c3-49fb-8749-2d3ac56acd7a"},"vehicle_type_id":"4","last_reported":1728029538,"current_range_meters":38800,"station_id":"ce4bgh92rcd13ifvqb40","pricing_plan_id":"cebpf4jnsgd1na2vs0mg"},{"bike_id":"bbe16d9f-1398-4ae8-9389-fdd330196eb0","system_id":"levelo_inurba_marseille","lat":43.2842,"lon":5.34987,"is_reserved":false,"is_disabled":false,"rental_uris":{"android":"levelo://app?vid=bbe16d9f-1398-4ae8-9389-fdd330196eb0","ios":"levelo://app?vid=bbe16d9f-1398-4ae8-9389-fdd330196eb0"},"vehicle_type_id":"4","last_reported":1728029538,"current_range_meters":38000,"station_id":"ce4bhbh2rcd13ifvqepg","pricing_plan_id":"cebpf4jnsgd1na2vs0mg"},{"bike_id":"e6b2df58-b4a0-4aec-933d-a62e42f34d34","system_id":"levelo_inurba_marseille","lat":43.33728,"lon":5.39189,"is_reserved":false,"is_disabled":false,"rental_uris":{"android":"levelo://app?vid=e6b2df58-b4a0-4aec-933d-a62e42f34d34","ios":"levelo://app?vid=e6b2df58-b4a0-4aec-933d-a62e42f34d34"},"vehicle_type_id":"4","last_reported":1728029538,"current_range_meters":21600,"station_id":"ce4bhr92rcd13ifvqhsg","pricing_plan_id":"cebpf4jnsgd1na2vs0mg"},{"bike_id":"403b9a65-80d1-462a-86d2-ae897d65bc96","system_id":"levelo_inurba_marseille","lat":43.3015,"lon":5.38082,"is_reserved":false,"is_disabled":false,"rental_uris":{"android":"levelo://app?vid=403b9a65-80d1-462a-86d2-ae897d65bc96","ios":"levelo://app?vid=403b9a65-80d1-462a-86d2-ae897d65bc96"},"vehicle_type_id":"4","last_reported":1728029538,"current_range_meters":6000,"station_id":"ce4bgjp2rcd13ifvqbh0","pricing_plan_id":"cebpf4jnsgd1na2vs0mg"},{"bike_id":"10d70a0a-c463-4885-8424-18970b50178b","system_id":"levelo_inurba_marseille","lat":43.31498,"lon":5.37295,"is_reserved":false,"is_disabled":false,"rental_uris":{"android":"levelo://app?vid=10d70a0a-c463-4885-8424-18970b50178b","ios":"levelo://app?vid=10d70a0a-c463-4885-8424-18970b50178b"},"vehicle_type_id":"4","last_reported":1728029538,"current_range_meters":20400,"station_id":"ce4bgt12rcd13ifvqcd0","pricing_plan_id":"cebpf4jnsgd1na2vs0mg"},{"bike_id":"4e53f353-2443-4140-81f6-56d4a6c2e656","system_id":"levelo_inurba_marseille","lat":43.337444,"lon":5.374475,"is_reserved":false,"is_disabled":false,"rental_uris":{"android":"levelo://app?vid=4e53f353-2443-4140-81f6-56d4a6c2e656","ios":"levelo://app?vid=4e53f353-2443-4140-81f6-56d4a6c2e656"},"vehicle_type_id":"4","last_reported":1728029538,"current_range_meters":17600,"station_id":"","pricing_plan_id":"cebpf4jnsgd1na2vs0mg"},{"bike_id":"2fbb9934-3791-4f88-a703-61185703161b","system_id":"levelo_inurba_marseille","lat":43.30518,"lon":5.3653,"is_reserved":false,"is_disabled":false,"rental_uris":{"android":"levelo://app?vid=2fbb9934-3791-4f88-a703-61185703161b","ios":"levelo://app?vid=2fbb9934-3791-4f88-a703-61185703161b"},"vehicle_type_id":"4","last_reported":1728029538,"current_range_meters":22400,"station_id":"ce4bgs12rcd13ifvqcag","pricing_plan_id":"cebpf4jnsgd1na2vs0mg"},{"bike_id":"5fbd6efa-acb1-48c0-888b-7fdfe32f37ee","system_id":"levelo_inurba_marseille","lat":43.24175,"lon":5.39742,"is_reserved":false,"is_disabled":false,"rental_uris":{"android":"levelo://app?vid=5fbd6efa-acb1-48c0-888b-7fdfe32f37ee","ios":"levelo://app?vid=5fbd6efa-acb1-48c0-888b-7fdfe32f37ee"},"vehicle_type_id":"4","last_reported":1728029538,"current_range_meters":27200,"station_id":"ce4bhn12rcd13ifvqgpg","pricing_plan_id":"cebpf4jnsgd1na2vs0mg"},{"bike_id":"240aabb2-d30a-4816-bf39-1f44da7634a0","system_id":"levelo_inurba_marseille","lat":43.30909,"lon":5.36852,"is_reserved":false,"is_disabled":false,"rental_uris":{"android":"levelo://app?vid=240aabb2-d30a-4816-bf39-1f44da7634a0","ios":"levelo://app?vid=240aabb2-d30a-4816-bf39-1f44da7634a0"},"vehicle_type_id":"4","last_reported":1728029538,"current_range_meters":39200,"station_id":"ce4bgn92rcd13ifvqbvg","pricing_plan_id":"cebpf4jnsgd1na2vs0mg"},{"bike_id":"566a9cf0-f209-4c9f-9e1e-a43a024de395","system_id":"levelo_inurba_marseille","lat":43.27383,"lon":5.36252,"is_reserved":false,"is_disabled":false,"rental_uris":{"android":"levelo://app?vid=566a9cf0-f209-4c9f-9e1e-a43a024de395","ios":"levelo://app?vid=566a9cf0-f209-4c9f-9e1e-a43a024de395"},"vehicle_type_id":"4","last_reported":1728029538,"current_range_meters":26800,"station_id":"ce4bhbh2rcd13ifvqeo0","pricing_plan_id":"cebpf4jnsgd1na2vs0mg"},{"bike_id":"b73551f1-4737-42f3-8efd-5f2fca843848","system_id":"levelo_inurba_marseille","lat":43.298965,"lon":5.436699,"is_reserved":false,"is_disabled":false,"rental_uris":{"android":"levelo://app?vid=b73551f1-4737-42f3-8efd-5f2fca843848","ios":"levelo://app?vid=b73551f1-4737-42f3-8efd-5f2fca843848"},"vehicle_type_id":"4","last_reported":1728029538,"current_range_meters":18800,"station_id":"ce4bhpp2rcd13ifvqhfg","pricing_plan_id":"cebpf4jnsgd1na2vs0mg"},{"bike_id":"62d254ae-f4c1-4d79-9eef-903db0e9510f","system_id":"levelo_inurba_marseille","lat":43.24657,"lon":5.38163,"is_reserved":false,"is_disabled":false,"rental_uris":{"android":"levelo://app?vid=62d254ae-f4c1-4d79-9eef-903db0e9510f","ios":"levelo://app?vid=62d254ae-f4c1-4d79-9eef-903db0e9510f"},"vehicle_type_id":"4","last_reported":1728029538,"current_range_meters":36800,"station_id":"ce4bhih2rcd13ifvqfr0","pricing_plan_id":"cebpf4jnsgd1na2vs0mg"},{"bike_id":"87b82762-d75d-4221-a799-30aa397393ab","system_id":"levelo_inurba_marseille","lat":43.27491,"lon":5.42444,"is_reserved":false,"is_disabled":false,"rental_uris":{"android":"levelo://app?vid=87b82762-d75d-4221-a799-30aa397393ab","ios":"levelo://app?vid=87b82762-d75d-4221-a799-30aa397393ab"},"vehicle_type_id":"4","last_reported":1728029538,"current_range_meters":28000,"station_id":"ce4bhn92rcd13ifvqgrg","pricing_plan_id":"cebpf4jnsgd1na2vs0mg"},{"bike_id":"1d2f50f0-a92b-4cc3-8df7-4e1465139892","system_id":"levelo_inurba_marseille","lat":43.255803,"lon":5.382371,"is_reserved":false,"is_disabled":false,"rental_uris":{"android":"levelo://app?vid=1d2f50f0-a92b-4cc3-8df7-4e1465139892","ios":"levelo://app?vid=1d2f50f0-a92b-4cc3-8df7-4e1465139892"},"vehicle_type_id":"4","last_reported":1728029538,"current_range_meters":38800,"station_id":"ce4bhih2rcd13ifvqfs0","pricing_plan_id":"cebpf4jnsgd1na2vs0mg"},{"bike_id":"6323c3ea-75d7-47ca-8873-1f720d264584","system_id":"levelo_inurba_marseille","lat":43.25499,"lon":5.37653,"is_reserved":false,"is_disabled":false,"rental_uris":{"android":"levelo://app?vid=6323c3ea-75d7-47ca-8873-1f720d264584","ios":"levelo://app?vid=6323c3ea-75d7-47ca-8873-1f720d264584"},"vehicle_type_id":"4","last_reported":1728029538,"current_range_meters":38800,"station_id":"ce4bhh12rcd13ifvqff0","pricing_plan_id":"cebpf4jnsgd1na2vs0mg"},{"bike_id":"8dc0b98d-2559-4a43-b222-e21e2b6b4664","system_id":"levelo_inurba_marseille","lat":43.24661,"lon":5.3816,"is_reserved":false,"is_disabled":false,"rental_uris":{"android":"levelo://app?vid=8dc0b98d-2559-4a43-b222-e21e2b6b4664","ios":"levelo://app?vid=8dc0b98d-2559-4a43-b222-e21e2b6b4664"},"vehicle_type_id":"4","last_reported":1728029538,"current_range_meters":29600,"station_id":"ce4bhih2rcd13ifvqfr0","pricing_plan_id":"cebpf4jnsgd1na2vs0mg"},{"bike_id":"f15749ef-8afe-4d39-89e7-4e320961fb28","system_id":"levelo_inurba_marseille","lat":43.24066,"lon":5.3776,"is_reserved":false,"is_disabled":false,"rental_uris":{"android":"levelo://app?vid=f15749ef-8afe-4d39-89e7-4e320961fb28","ios":"levelo://app?vid=f15749ef-8afe-4d39-89e7-4e320961fb28"},"vehicle_type_id":"4","last_reported":1728029538,"current_range_meters":10800,"station_id":"ce4bhnp2rcd13ifvqgvg","pricing_plan_id":"cebpf4jnsgd1na2vs0mg"},{"bike_id":"86a59fdf-5419-4bd8-a9ed-c91c60731103","system_id":"levelo_inurba_marseille","lat":43.30301,"lon":5.37958,"is_reserved":false,"is_disabled":false,"rental_uris":{"android":"levelo://app?vid=86a59fdf-5419-4bd8-a9ed-c91c60731103","ios":"levelo://app?vid=86a59fdf-5419-4bd8-a9ed-c91c60731103"},"vehicle_type_id":"4","last_reported":1728029538,"current_range_meters":18800,"station_id":"","pricing_plan_id":"cebpf4jnsgd1na2vs0mg"},{"bike_id":"a15df9d2-ff4d-4100-911c-f1e3b67e4ecd","system_id":"levelo_inurba_marseille","lat":43.30909,"lon":5.36848,"is_reserved":false,"is_disabled":false,"rental_uris":{"android":"levelo://app?vid=a15df9d2-ff4d-4100-911c-f1e3b67e4ecd","ios":"levelo://app?vid=a15df9d2-ff4d-4100-911c-f1e3b67e4ecd"},"vehicle_type_id":"4","last_reported":1728029538,"current_range_meters":34000,"station_id":"ce4bgn92rcd13ifvqbvg","pricing_plan_id":"cebpf4jnsgd1na2vs0mg"},{"bike_id":"0f49be9b-dea8-4072-a936-e4af7b56b73f","system_id":"levelo_inurba_marseille","lat":43.26561,"lon":5.39006,"is_reserved":false,"is_disabled":false,"rental_uris":{"android":"levelo://app?vid=0f49be9b-dea8-4072-a936-e4af7b56b73f","ios":"levelo://app?vid=0f49be9b-dea8-4072-a936-e4af7b56b73f"},"vehicle_type_id":"4","last_reported":1728029538,"current_range_meters":27600,"station_id":"ce4bhe12rcd13ifvqf30","pricing_plan_id":"cebpf4jnsgd1na2vs0mg"},{"bike_id":"0d6a03bf-b826-4d03-bb8f-eae1dbb056c8","system_id":"levelo_inurba_marseille","lat":43.25113,"lon":5.40312,"is_reserved":false,"is_disabled":false,"rental_uris":{"android":"levelo://app?vid=0d6a03bf-b826-4d03-bb8f-eae1dbb056c8","ios":"levelo://app?vid=0d6a03bf-b826-4d03-bb8f-eae1dbb056c8"},"vehicle_type_id":"4","last_reported":1728029538,"current_range_meters":34800,"station_id":"ce4bhlh2rcd13ifvqgig","pricing_plan_id":"cebpf4jnsgd1na2vs0mg"},{"bike_id":"e659d4ba-a618-47a8-b57e-bd88c131a0ca","system_id":"levelo_inurba_marseille","lat":43.26936,"lon":5.38911,"is_reserved":false,"is_disabled":false,"rental_uris":{"android":"levelo://app?vid=e659d4ba-a618-47a8-b57e-bd88c131a0ca","ios":"levelo://app?vid=e659d4ba-a618-47a8-b57e-bd88c131a0ca"},"vehicle_type_id":"4","last_reported":1728029538,"current_range_meters":38800,"station_id":"ce4bhhh2rcd13ifvqfl0","pricing_plan_id":"cebpf4jnsgd1na2vs0mg"},{"bike_id":"e0565007-e099-4360-85ee-352bc1a52261","system_id":"levelo_inurba_marseille","lat":43.27488,"lon":5.42455,"is_reserved":false,"is_disabled":false,"rental_uris":{"android":"levelo://app?vid=e0565007-e099-4360-85ee-352bc1a52261","ios":"levelo://app?vid=e0565007-e099-4360-85ee-352bc1a52261"},"vehicle_type_id":"4","last_reported":1728029538,"current_range_meters":20000,"station_id":"ce4bhn92rcd13ifvqgrg","pricing_plan_id":"cebpf4jnsgd1na2vs0mg"},{"bike_id":"b3ff5cba-ed4a-4bf8-b142-b8dde391b8b9","system_id":"levelo_inurba_marseille","lat":43.28102,"lon":5.37837,"is_reserved":false,"is_disabled":false,"rental_uris":{"android":"levelo://app?vid=b3ff5cba-ed4a-4bf8-b142-b8dde391b8b9","ios":"levelo://app?vid=b3ff5cba-ed4a-4bf8-b142-b8dde391b8b9"},"vehicle_type_id":"4","last_reported":1728029538,"current_range_meters":32000,"station_id":"ce4bha12rcd13ifvqee0","pricing_plan_id":"cebpf4jnsgd1na2vs0mg"},{"bike_id":"6c612d46-36b3-4c42-a988-8fe9c456f752","system_id":"levelo_inurba_marseille","lat":43.30467,"lon":5.37893,"is_reserved":false,"is_disabled":false,"rental_uris":{"android":"levelo://app?vid=6c612d46-36b3-4c42-a988-8fe9c456f752","ios":"levelo://app?vid=6c612d46-36b3-4c42-a988-8fe9c456f752"},"vehicle_type_id":"4","last_reported":1728029538,"current_range_meters":28000,"station_id":"ce4bgup2rcd13ifvqcn0","pricing_plan_id":"cebpf4jnsgd1na2vs0mg"},{"bike_id":"dcd727b3-f9c1-4311-b079-85f7e54ffe8d","system_id":"levelo_inurba_marseille","lat":43.24076,"lon":5.37752,"is_reserved":false,"is_disabled":false,"rental_uris":{"android":"levelo://app?vid=dcd727b3-f9c1-4311-b079-85f7e54ffe8d","ios":"levelo://app?vid=dcd727b3-f9c1-4311-b079-85f7e54ffe8d"},"vehicle_type_id":"4","last_reported":1728029538,"current_range_meters":30400,"station_id":"ce4bhnp2rcd13ifvqgvg","pricing_plan_id":"cebpf4jnsgd1na2vs0mg"},{"bike_id":"d07ee1a2-8049-46fd-9baa-b462a77e6391","system_id":"levelo_inurba_marseille","lat":43.30141,"lon":5.3742,"is_reserved":false,"is_disabled":false,"rental_uris":{"android":"levelo://app?vid=d07ee1a2-8049-46fd-9baa-b462a77e6391","ios":"levelo://app?vid=d07ee1a2-8049-46fd-9baa-b462a77e6391"},"vehicle_type_id":"4","last_reported":1728029538,"current_range_meters":3600,"station_id":"ce4bgs92rcd13ifvqcc0","pricing_plan_id":"cebpf4jnsgd1na2vs0mg"},{"bike_id":"2abc33c5-5934-4cf6-a1e5-6f26fe87d8e9","system_id":"levelo_inurba_marseille","lat":43.28614,"lon":5.35093,"is_reserved":false,"is_disabled":false,"rental_uris":{"android":"levelo://app?vid=2abc33c5-5934-4cf6-a1e5-6f26fe87d8e9","ios":"levelo://app?vid=2abc33c5-5934-4cf6-a1e5-6f26fe87d8e9"},"vehicle_type_id":"4","last_reported":1728029538,"current_range_meters":8000,"station_id":"ce4bhch2rcd13ifvqeug","pricing_plan_id":"cebpf4jnsgd1na2vs0mg"},{"bike_id":"0fc7ae8d-9102-4d20-8337-a47ebec4b5f1","system_id":"levelo_inurba_marseille","lat":43.32535,"lon":5.41432,"is_reserved":false,"is_disabled":false,"rental_uris":{"android":"levelo://app?vid=0fc7ae8d-9102-4d20-8337-a47ebec4b5f1","ios":"levelo://app?vid=0fc7ae8d-9102-4d20-8337-a47ebec4b5f1"},"vehicle_type_id":"4","last_reported":1728029538,"current_range_meters":38800,"station_id":"ce4bhq12rcd13ifvqhhg","pricing_plan_id":"cebpf4jnsgd1na2vs0mg"},{"bike_id":"aedd64d5-fae6-4e0c-92d3-529418d21ef0","system_id":"levelo_inurba_marseille","lat":43.29699,"lon":5.37698,"is_reserved":false,"is_disabled":false,"rental_uris":{"android":"levelo://app?vid=aedd64d5-fae6-4e0c-92d3-529418d21ef0","ios":"levelo://app?vid=aedd64d5-fae6-4e0c-92d3-529418d21ef0"},"vehicle_type_id":"4","last_reported":1728029538,"current_range_meters":37600,"station_id":"ce4bgkh2rcd13ifvqbl0","pricing_plan_id":"cebpf4jnsgd1na2vs0mg"},{"bike_id":"eeb96273-081a-4d9d-9b7b-3d86312985be","system_id":"levelo_inurba_marseille","lat":43.29938,"lon":5.36539,"is_reserved":false,"is_disabled":false,"rental_uris":{"android":"levelo://app?vid=eeb96273-081a-4d9d-9b7b-3d86312985be","ios":"levelo://app?vid=eeb96273-081a-4d9d-9b7b-3d86312985be"},"vehicle_type_id":"4","last_reported":1728029538,"current_range_meters":6400,"station_id":"ce4bgm92rcd13ifvqbr0","pricing_plan_id":"cebpf4jnsgd1na2vs0mg"},{"bike_id":"9ae1ee60-dc31-4641-b81c-ed7d70d2769a","system_id":"levelo_inurba_marseille","lat":43.30148,"lon":5.38081,"is_reserved":false,"is_disabled":false,"rental_uris":{"android":"levelo://app?vid=9ae1ee60-dc31-4641-b81c-ed7d70d2769a","ios":"levelo://app?vid=9ae1ee60-dc31-4641-b81c-ed7d70d2769a"},"vehicle_type_id":"4","last_reported":1728029538,"current_range_meters":19600,"station_id":"ce4bgjp2rcd13ifvqbh0","pricing_plan_id":"cebpf4jnsgd1na2vs0mg"},{"bike_id":"970dfa6f-96dd-4258-9aa9-971943a08a16","system_id":"levelo_inurba_marseille","lat":43.32535,"lon":5.41444,"is_reserved":false,"is_disabled":false,"rental_uris":{"android":"levelo://app?vid=970dfa6f-96dd-4258-9aa9-971943a08a16","ios":"levelo://app?vid=970dfa6f-96dd-4258-9aa9-971943a08a16"},"vehicle_type_id":"4","last_reported":1728029538,"current_range_meters":20400,"station_id":"ce4bhq12rcd13ifvqhhg","pricing_plan_id":"cebpf4jnsgd1na2vs0mg"},{"bike_id":"85a60867-0292-479f-99a9-23810b153b98","system_id":"levelo_inurba_marseille","lat":43.27063,"lon":5.42266,"is_reserved":false,"is_disabled":false,"rental_uris":{"android":"levelo://app?vid=85a60867-0292-479f-99a9-23810b153b98","ios":"levelo://app?vid=85a60867-0292-479f-99a9-23810b153b98"},"vehicle_type_id":"4","last_reported":1728029538,"current_range_meters":9200,"station_id":"ce4bhk92rcd13ifvqgb0","pricing_plan_id":"cebpf4jnsgd1na2vs0mg"},{"bike_id":"fa3d6ca4-2f87-4548-92ec-46dd58791c3a","system_id":"levelo_inurba_marseille","lat":43.2315,"lon":5.43716,"is_reserved":false,"is_disabled":false,"rental_uris":{"android":"levelo://app?vid=fa3d6ca4-2f87-4548-92ec-46dd58791c3a","ios":"levelo://app?vid=fa3d6ca4-2f87-4548-92ec-46dd58791c3a"},"vehicle_type_id":"4","last_reported":1728029538,"current_range_meters":8800,"station_id":"ce4bhmp2rcd13ifvqgog","pricing_plan_id":"cebpf4jnsgd1na2vs0mg"},{"bike_id":"5c8970c0-3ceb-465a-9f61-48e90dd5c290","system_id":"levelo_inurba_marseille","lat":43.24991,"lon":5.38926,"is_reserved":false,"is_disabled":false,"rental_uris":{"android":"levelo://app?vid=5c8970c0-3ceb-465a-9f61-48e90dd5c290","ios":"levelo://app?vid=5c8970c0-3ceb-465a-9f61-48e90dd5c290"},"vehicle_type_id":"4","last_reported":1728029538,"current_range_meters":27600,"station_id":"ce4bhgp2rcd13ifvqfd0","pricing_plan_id":"cebpf4jnsgd1na2vs0mg"},{"bike_id":"3cffc19d-4269-4a24-b268-0c5073491c59","system_id":"levelo_inurba_marseille","lat":43.292292,"lon":5.36044,"is_reserved":false,"is_disabled":false,"rental_uris":{"android":"levelo://app?vid=3cffc19d-4269-4a24-b268-0c5073491c59","ios":"levelo://app?vid=3cffc19d-4269-4a24-b268-0c5073491c59"},"vehicle_type_id":"4","last_reported":1728029538,"current_range_meters":32400,"station_id":"ce4bhbh2rcd13ifvqeqg","pricing_plan_id":"cebpf4jnsgd1na2vs0mg"},{"bike_id":"09183c48-4366-4528-8414-00ff55312167","system_id":"levelo_inurba_marseille","lat":43.27422,"lon":5.39398,"is_reserved":false,"is_disabled":false,"rental_uris":{"android":"levelo://app?vid=09183c48-4366-4528-8414-00ff55312167","ios":"levelo://app?vid=09183c48-4366-4528-8414-00ff55312167"},"vehicle_type_id":"4","last_reported":1728029538,"current_range_meters":37600,"station_id":"ce4bhdp2rcd13ifvqf20","pricing_plan_id":"cebpf4jnsgd1na2vs0mg"},{"bike_id":"49a3403f-5a93-443e-8052-24eba6f7e6a3","system_id":"levelo_inurba_marseille","lat":43.30531,"lon":5.36542,"is_reserved":false,"is_disabled":false,"rental_uris":{"android":"levelo://app?vid=49a3403f-5a93-443e-8052-24eba6f7e6a3","ios":"levelo://app?vid=49a3403f-5a93-443e-8052-24eba6f7e6a3"},"vehicle_type_id":"4","last_reported":1728029538,"current_range_meters":36800,"station_id":"ce4bgs12rcd13ifvqcag","pricing_plan_id":"cebpf4jnsgd1na2vs0mg"},{"bike_id":"3320a0c3-f756-4a1a-83c4-a091c4d89b13","system_id":"levelo_inurba_marseille","lat":43.2582,"lon":5.39426,"is_reserved":false,"is_disabled":false,"rental_uris":{"android":"levelo://app?vid=3320a0c3-f756-4a1a-83c4-a091c4d89b13","ios":"levelo://app?vid=3320a0c3-f756-4a1a-83c4-a091c4d89b13"},"vehicle_type_id":"4","last_reported":1728029538,"current_range_meters":36000,"station_id":"ce4bhip2rcd13ifvqft0","pricing_plan_id":"cebpf4jnsgd1na2vs0mg"},{"bike_id":"71a6012d-cbe4-457d-b564-5f3031d94857","system_id":"levelo_inurba_marseille","lat":43.29553,"lon":5.42294,"is_reserved":false,"is_disabled":false,"rental_uris":{"android":"levelo://app?vid=71a6012d-cbe4-457d-b564-5f3031d94857","ios":"levelo://app?vid=71a6012d-cbe4-457d-b564-5f3031d94857"},"vehicle_type_id":"4","last_reported":1728029538,"current_range_meters":32800,"station_id":"ce4bhph2rcd13ifvqhdg","pricing_plan_id":"cebpf4jnsgd1na2vs0mg"},{"bike_id":"12014e5f-9061-4078-ba17-f5b4421eab0c","system_id":"levelo_inurba_marseille","lat":43.231501,"lon":5.437233,"is_reserved":false,"is_disabled":false,"rental_uris":{"android":"levelo://app?vid=12014e5f-9061-4078-ba17-f5b4421eab0c","ios":"levelo://app?vid=12014e5f-9061-4078-ba17-f5b4421eab0c"},"vehicle_type_id":"4","last_reported":1728029538,"current_range_meters":20800,"station_id":"ce4bhmp2rcd13ifvqgog","pricing_plan_id":"cebpf4jnsgd1na2vs0mg"},{"bike_id":"6503ac88-391f-42ec-8983-86d11b5fa257","system_id":"levelo_inurba_marseille","lat":43.28659,"lon":5.36352,"is_reserved":false,"is_disabled":false,"rental_uris":{"android":"levelo://app?vid=6503ac88-391f-42ec-8983-86d11b5fa257","ios":"levelo://app?vid=6503ac88-391f-42ec-8983-86d11b5fa257"},"vehicle_type_id":"4","last_reported":1728029538,"current_range_meters":18800,"station_id":"ce4bhah2rcd13ifvqej0","pricing_plan_id":"cebpf4jnsgd1na2vs0mg"},{"bike_id":"60133598-3403-4260-b670-4e2957166424","system_id":"levelo_inurba_marseille","lat":43.24071,"lon":5.37756,"is_reserved":false,"is_disabled":false,"rental_uris":{"android":"levelo://app?vid=60133598-3403-4260-b670-4e2957166424","ios":"levelo://app?vid=60133598-3403-4260-b670-4e2957166424"},"vehicle_type_id":"4","last_reported":1728029538,"current_range_meters":23200,"station_id":"ce4bhnp2rcd13ifvqgvg","pricing_plan_id":"cebpf4jnsgd1na2vs0mg"},{"bike_id":"2d51471e-4a02-4d68-b5fe-be93001dd639","system_id":"levelo_inurba_marseille","lat":43.29168,"lon":5.37152,"is_reserved":false,"is_disabled":false,"rental_uris":{"android":"levelo://app?vid=2d51471e-4a02-4d68-b5fe-be93001dd639","ios":"levelo://app?vid=2d51471e-4a02-4d68-b5fe-be93001dd639"},"vehicle_type_id":"4","last_reported":1728029538,"current_range_meters":38400,"station_id":"ce4bha92rcd13ifvqeh0","pricing_plan_id":"cebpf4jnsgd1na2vs0mg"},{"bike_id":"b9ec2ea0-2f03-42ef-b8d7-df638da4c795","system_id":"levelo_inurba_marseille","lat":43.309,"lon":5.36858,"is_reserved":false,"is_disabled":false,"rental_uris":{"android":"levelo://app?vid=b9ec2ea0-2f03-42ef-b8d7-df638da4c795","ios":"levelo://app?vid=b9ec2ea0-2f03-42ef-b8d7-df638da4c795"},"vehicle_type_id":"4","last_reported":1728029538,"current_range_meters":38400,"station_id":"ce4bgn92rcd13ifvqbvg","pricing_plan_id":"cebpf4jnsgd1na2vs0mg"},{"bike_id":"781757d6-91df-4aa1-afd2-cfd41967db46","system_id":"levelo_inurba_marseille","lat":43.24996,"lon":5.38923,"is_reserved":false,"is_disabled":false,"rental_uris":{"android":"levelo://app?vid=781757d6-91df-4aa1-afd2-cfd41967db46","ios":"levelo://app?vid=781757d6-91df-4aa1-afd2-cfd41967db46"},"vehicle_type_id":"4","last_reported":1728029538,"current_range_meters":38800,"station_id":"ce4bhgp2rcd13ifvqfd0","pricing_plan_id":"cebpf4jnsgd1na2vs0mg"},{"bike_id":"c2627ec1-534d-464e-bcef-5446cdecf451","system_id":"levelo_inurba_marseille","lat":43.30129,"lon":5.38772,"is_reserved":false,"is_disabled":false,"rental_uris":{"android":"levelo://app?vid=c2627ec1-534d-464e-bcef-5446cdecf451","ios":"levelo://app?vid=c2627ec1-534d-464e-bcef-5446cdecf451"},"vehicle_type_id":"4","last_reported":1728029538,"current_range_meters":25600,"station_id":"ce4bghh2rcd13ifvqb60","pricing_plan_id":"cebpf4jnsgd1na2vs0mg"},{"bike_id":"6e3d8af3-726e-43e4-9ee9-230f2ce8d10b","system_id":"levelo_inurba_marseille","lat":43.26942,"lon":5.386363,"is_reserved":false,"is_disabled":false,"rental_uris":{"android":"levelo://app?vid=6e3d8af3-726e-43e4-9ee9-230f2ce8d10b","ios":"levelo://app?vid=6e3d8af3-726e-43e4-9ee9-230f2ce8d10b"},"vehicle_type_id":"4","last_reported":1728029538,"current_range_meters":36400,"station_id":"ce4bhh92rcd13ifvqfh0","pricing_plan_id":"cebpf4jnsgd1na2vs0mg"},{"bike_id":"d569267f-419a-4d36-a732-0ebbc564ff43","system_id":"levelo_inurba_marseille","lat":43.262087,"lon":5.379192,"is_reserved":false,"is_disabled":false,"rental_uris":{"android":"levelo://app?vid=d569267f-419a-4d36-a732-0ebbc564ff43","ios":"levelo://app?vid=d569267f-419a-4d36-a732-0ebbc564ff43"},"vehicle_type_id":"4","last_reported":1728029538,"current_range_meters":37600,"station_id":"ce4bhjp2rcd13ifvqg90","pricing_plan_id":"cebpf4jnsgd1na2vs0mg"},{"bike_id":"fd872ba7-9877-4e67-9269-d8995abba644","system_id":"levelo_inurba_marseille","lat":43.22936,"lon":5.35379,"is_reserved":false,"is_disabled":false,"rental_uris":{"android":"levelo://app?vid=fd872ba7-9877-4e67-9269-d8995abba644","ios":"levelo://app?vid=fd872ba7-9877-4e67-9269-d8995abba644"},"vehicle_type_id":"4","last_reported":1728029538,"current_range_meters":22000,"station_id":"cpo3532slgdg3j2ikp40","pricing_plan_id":"cebpf4jnsgd1na2vs0mg"},{"bike_id":"2fcabd95-acf2-4bbf-b03c-4279bce42f10","system_id":"levelo_inurba_marseille","lat":43.3047,"lon":5.37891,"is_reserved":false,"is_disabled":false,"rental_uris":{"android":"levelo://app?vid=2fcabd95-acf2-4bbf-b03c-4279bce42f10","ios":"levelo://app?vid=2fcabd95-acf2-4bbf-b03c-4279bce42f10"},"vehicle_type_id":"4","last_reported":1728029538,"current_range_meters":32800,"station_id":"ce4bgup2rcd13ifvqcn0","pricing_plan_id":"cebpf4jnsgd1na2vs0mg"},{"bike_id":"505f199d-fba6-45b4-bb03-4d847a32b72b","system_id":"levelo_inurba_marseille","lat":43.23147,"lon":5.43715,"is_reserved":false,"is_disabled":false,"rental_uris":{"android":"levelo://app?vid=505f199d-fba6-45b4-bb03-4d847a32b72b","ios":"levelo://app?vid=505f199d-fba6-45b4-bb03-4d847a32b72b"},"vehicle_type_id":"4","last_reported":1728029538,"current_range_meters":22000,"station_id":"ce4bhmp2rcd13ifvqgog","pricing_plan_id":"cebpf4jnsgd1na2vs0mg"},{"bike_id":"98d46351-ad09-420a-be1e-88e35528cc18","system_id":"levelo_inurba_marseille","lat":43.27996,"lon":5.40007,"is_reserved":false,"is_disabled":false,"rental_uris":{"android":"levelo://app?vid=98d46351-ad09-420a-be1e-88e35528cc18","ios":"levelo://app?vid=98d46351-ad09-420a-be1e-88e35528cc18"},"vehicle_type_id":"4","last_reported":1728029538,"current_range_meters":35600,"station_id":"ce4bho92rcd13ifvqh4g","pricing_plan_id":"cebpf4jnsgd1na2vs0mg"},{"bike_id":"c1b845b1-b148-48e3-b795-440066e77ead","system_id":"levelo_inurba_marseille","lat":43.30543,"lon":5.36704,"is_reserved":false,"is_disabled":false,"rental_uris":{"android":"levelo://app?vid=c1b845b1-b148-48e3-b795-440066e77ead","ios":"levelo://app?vid=c1b845b1-b148-48e3-b795-440066e77ead"},"vehicle_type_id":"4","last_reported":1728029538,"current_range_meters":38400,"station_id":"ce4bgrp2rcd13ifvqc9g","pricing_plan_id":"cebpf4jnsgd1na2vs0mg"},{"bike_id":"550e08ad-2e16-412d-b9fc-ef72bf5bc2e0","system_id":"levelo_inurba_marseille","lat":43.24662,"lon":5.38162,"is_reserved":false,"is_disabled":false,"rental_uris":{"android":"levelo://app?vid=550e08ad-2e16-412d-b9fc-ef72bf5bc2e0","ios":"levelo://app?vid=550e08ad-2e16-412d-b9fc-ef72bf5bc2e0"},"vehicle_type_id":"4","last_reported":1728029538,"current_range_meters":38800,"station_id":"ce4bhih2rcd13ifvqfr0","pricing_plan_id":"cebpf4jnsgd1na2vs0mg"},{"bike_id":"39d78331-ffb1-4053-a8d1-327bafc76313","system_id":"levelo_inurba_marseille","lat":43.29874,"lon":5.41337,"is_reserved":false,"is_disabled":false,"rental_uris":{"android":"levelo://app?vid=39d78331-ffb1-4053-a8d1-327bafc76313","ios":"levelo://app?vid=39d78331-ffb1-4053-a8d1-327bafc76313"},"vehicle_type_id":"4","last_reported":1728029538,"current_range_meters":18000,"station_id":"","pricing_plan_id":"cebpf4jnsgd1na2vs0mg"},{"bike_id":"2f0e98b8-40e8-49e8-bfb4-ce45e2c6c864","system_id":"levelo_inurba_marseille","lat":43.30156,"lon":5.38082,"is_reserved":false,"is_disabled":false,"rental_uris":{"android":"levelo://app?vid=2f0e98b8-40e8-49e8-bfb4-ce45e2c6c864","ios":"levelo://app?vid=2f0e98b8-40e8-49e8-bfb4-ce45e2c6c864"},"vehicle_type_id":"4","last_reported":1728029538,"current_range_meters":35600,"station_id":"ce4bgjp2rcd13ifvqbh0","pricing_plan_id":"cebpf4jnsgd1na2vs0mg"},{"bike_id":"b1dfe2ea-3738-4edc-8582-6d3008fb75bb","system_id":"levelo_inurba_marseille","lat":43.26944,"lon":5.38646,"is_reserved":false,"is_disabled":false,"rental_uris":{"android":"levelo://app?vid=b1dfe2ea-3738-4edc-8582-6d3008fb75bb","ios":"levelo://app?vid=b1dfe2ea-3738-4edc-8582-6d3008fb75bb"},"vehicle_type_id":"4","last_reported":1728029538,"current_range_meters":36800,"station_id":"ce4bhh92rcd13ifvqfh0","pricing_plan_id":"cebpf4jnsgd1na2vs0mg"},{"bike_id":"d8b6db0b-7f0a-4553-973e-fd7d672619d3","system_id":"levelo_inurba_marseille","lat":43.27823,"lon":5.39211,"is_reserved":false,"is_disabled":false,"rental_uris":{"android":"levelo://app?vid=d8b6db0b-7f0a-4553-973e-fd7d672619d3","ios":"levelo://app?vid=d8b6db0b-7f0a-4553-973e-fd7d672619d3"},"vehicle_type_id":"4","last_reported":1728029538,"current_range_meters":38000,"station_id":"ce4bhjp2rcd13ifvqga0","pricing_plan_id":"cebpf4jnsgd1na2vs0mg"},{"bike_id":"a1a75dcc-0177-4793-8204-4cc529c1df30","system_id":"levelo_inurba_marseille","lat":43.30459,"lon":5.37895,"is_reserved":false,"is_disabled":false,"rental_uris":{"android":"levelo://app?vid=a1a75dcc-0177-4793-8204-4cc529c1df30","ios":"levelo://app?vid=a1a75dcc-0177-4793-8204-4cc529c1df30"},"vehicle_type_id":"4","last_reported":1728029538,"current_range_meters":38800,"station_id":"ce4bgup2rcd13ifvqcn0","pricing_plan_id":"cebpf4jnsgd1na2vs0mg"},{"bike_id":"3c12f06e-bd86-43ae-a5d0-3f6a16b16b13","system_id":"levelo_inurba_marseille","lat":43.29843,"lon":5.36272,"is_reserved":false,"is_disabled":false,"rental_uris":{"android":"levelo://app?vid=3c12f06e-bd86-43ae-a5d0-3f6a16b16b13","ios":"levelo://app?vid=3c12f06e-bd86-43ae-a5d0-3f6a16b16b13"},"vehicle_type_id":"4","last_reported":1728029538,"current_range_meters":16000,"station_id":"ce4bgpp2rcd13ifvqc3g","pricing_plan_id":"cebpf4jnsgd1na2vs0mg"},{"bike_id":"0db499fa-17e0-47aa-8fef-a5357f6cb343","system_id":"levelo_inurba_marseille","lat":43.27306,"lon":5.39077,"is_reserved":false,"is_disabled":false,"rental_uris":{"android":"levelo://app?vid=0db499fa-17e0-47aa-8fef-a5357f6cb343","ios":"levelo://app?vid=0db499fa-17e0-47aa-8fef-a5357f6cb343"},"vehicle_type_id":"4","last_reported":1728029538,"current_range_meters":13600,"station_id":"ce4bhgp2rcd13ifvqfe0","pricing_plan_id":"cebpf4jnsgd1na2vs0mg"},{"bike_id":"1376bf06-1d36-4565-b55e-81626928d1f9","system_id":"levelo_inurba_marseille","lat":43.29729,"lon":5.3768,"is_reserved":false,"is_disabled":false,"rental_uris":{"android":"levelo://app?vid=1376bf06-1d36-4565-b55e-81626928d1f9","ios":"levelo://app?vid=1376bf06-1d36-4565-b55e-81626928d1f9"},"vehicle_type_id":"4","last_reported":1728029538,"current_range_meters":29600,"station_id":"ce4bgkh2rcd13ifvqbl0","pricing_plan_id":"cebpf4jnsgd1na2vs0mg"},{"bike_id":"3905104a-a00e-4c79-8332-b91fe375e5f8","system_id":"levelo_inurba_marseille","lat":43.24065,"lon":5.37742,"is_reserved":false,"is_disabled":false,"rental_uris":{"android":"levelo://app?vid=3905104a-a00e-4c79-8332-b91fe375e5f8","ios":"levelo://app?vid=3905104a-a00e-4c79-8332-b91fe375e5f8"},"vehicle_type_id":"4","last_reported":1728029538,"current_range_meters":36000,"station_id":"ce4bhnp2rcd13ifvqgvg","pricing_plan_id":"cebpf4jnsgd1na2vs0mg"},{"bike_id":"5aeebd5b-a45e-4308-9ba3-ea5f8e4cd415","system_id":"levelo_inurba_marseille","lat":43.29914,"lon":5.38136,"is_reserved":false,"is_disabled":false,"rental_uris":{"android":"levelo://app?vid=5aeebd5b-a45e-4308-9ba3-ea5f8e4cd415","ios":"levelo://app?vid=5aeebd5b-a45e-4308-9ba3-ea5f8e4cd415"},"vehicle_type_id":"4","last_reported":1728029538,"current_range_meters":28400,"station_id":"ce4bgj12rcd13ifvqbc0","pricing_plan_id":"cebpf4jnsgd1na2vs0mg"},{"bike_id":"d2826c66-de88-44b9-a80e-8ce24e8503f8","system_id":"levelo_inurba_marseille","lat":43.31209,"lon":5.3683,"is_reserved":false,"is_disabled":false,"rental_uris":{"android":"levelo://app?vid=d2826c66-de88-44b9-a80e-8ce24e8503f8","ios":"levelo://app?vid=d2826c66-de88-44b9-a80e-8ce24e8503f8"},"vehicle_type_id":"4","last_reported":1728029538,"current_range_meters":39200,"station_id":"ce4bgl92rcd13ifvqbq0","pricing_plan_id":"cebpf4jnsgd1na2vs0mg"},{"bike_id":"7294e7a5-fe2a-4836-a8c1-98e7d7ac261c","system_id":"levelo_inurba_marseille","lat":43.26952,"lon":5.38639,"is_reserved":false,"is_disabled":false,"rental_uris":{"android":"levelo://app?vid=7294e7a5-fe2a-4836-a8c1-98e7d7ac261c","ios":"levelo://app?vid=7294e7a5-fe2a-4836-a8c1-98e7d7ac261c"},"vehicle_type_id":"4","last_reported":1728029538,"current_range_meters":38000,"station_id":"ce4bhh92rcd13ifvqfh0","pricing_plan_id":"cebpf4jnsgd1na2vs0mg"},{"bike_id":"4bfaf556-0766-4001-82f4-2feb6aec5d17","system_id":"levelo_inurba_marseille","lat":43.32228,"lon":5.40641,"is_reserved":false,"is_disabled":false,"rental_uris":{"android":"levelo://app?vid=4bfaf556-0766-4001-82f4-2feb6aec5d17","ios":"levelo://app?vid=4bfaf556-0766-4001-82f4-2feb6aec5d17"},"vehicle_type_id":"4","last_reported":1728029538,"current_range_meters":14400,"station_id":"","pricing_plan_id":"cebpf4jnsgd1na2vs0mg"},{"bike_id":"099628d8-94dc-40d0-ba71-5f27ab632e5b","system_id":"levelo_inurba_marseille","lat":43.29299,"lon":5.37447,"is_reserved":false,"is_disabled":false,"rental_uris":{"android":"levelo://app?vid=099628d8-94dc-40d0-ba71-5f27ab632e5b","ios":"levelo://app?vid=099628d8-94dc-40d0-ba71-5f27ab632e5b"},"vehicle_type_id":"4","last_reported":1728029538,"current_range_meters":7200,"station_id":"ce4bgi12rcd13ifvqb70","pricing_plan_id":"cebpf4jnsgd1na2vs0mg"},{"bike_id":"28b27efa-d23b-4769-8377-06718ac0d18c","system_id":"levelo_inurba_marseille","lat":43.30923,"lon":5.40141,"is_reserved":false,"is_disabled":false,"rental_uris":{"android":"levelo://app?vid=28b27efa-d23b-4769-8377-06718ac0d18c","ios":"levelo://app?vid=28b27efa-d23b-4769-8377-06718ac0d18c"},"vehicle_type_id":"4","last_reported":1728029538,"current_range_meters":22400,"station_id":"ce4bgvp2rcd13ifvqct0","pricing_plan_id":"cebpf4jnsgd1na2vs0mg"},{"bike_id":"47a3293c-1ddd-4454-a41a-80712a0e08c8","system_id":"levelo_inurba_marseille","lat":43.31354,"lon":5.36715,"is_reserved":false,"is_disabled":false,"rental_uris":{"android":"levelo://app?vid=47a3293c-1ddd-4454-a41a-80712a0e08c8","ios":"levelo://app?vid=47a3293c-1ddd-4454-a41a-80712a0e08c8"},"vehicle_type_id":"4","last_reported":1728029538,"current_range_meters":38800,"station_id":"ce4bgr92rcd13ifvqc6g","pricing_plan_id":"cebpf4jnsgd1na2vs0mg"},{"bike_id":"d388ea53-b68b-46d1-8097-c8043378c09e","system_id":"levelo_inurba_marseille","lat":43.30296,"lon":5.36893,"is_reserved":false,"is_disabled":false,"rental_uris":{"android":"levelo://app?vid=d388ea53-b68b-46d1-8097-c8043378c09e","ios":"levelo://app?vid=d388ea53-b68b-46d1-8097-c8043378c09e"},"vehicle_type_id":"4","last_reported":1728029538,"current_range_meters":38400,"station_id":"ce4bgqh2rcd13ifvqc5g","pricing_plan_id":"cebpf4jnsgd1na2vs0mg"},{"bike_id":"4061a425-0fa8-4b85-ba2e-dd23d5b416e9","system_id":"levelo_inurba_marseille","lat":43.28845,"lon":5.35844,"is_reserved":false,"is_disabled":false,"rental_uris":{"android":"levelo://app?vid=4061a425-0fa8-4b85-ba2e-dd23d5b416e9","ios":"levelo://app?vid=4061a425-0fa8-4b85-ba2e-dd23d5b416e9"},"vehicle_type_id":"4","last_reported":1728029538,"current_range_meters":33600,"station_id":"ce4bhb12rcd13ifvqem0","pricing_plan_id":"cebpf4jnsgd1na2vs0mg"},{"bike_id":"43f2900c-6697-4097-baa3-ea663f36dd68","system_id":"levelo_inurba_marseille","lat":43.2984,"lon":5.36265,"is_reserved":false,"is_disabled":false,"rental_uris":{"android":"levelo://app?vid=43f2900c-6697-4097-baa3-ea663f36dd68","ios":"levelo://app?vid=43f2900c-6697-4097-baa3-ea663f36dd68"},"vehicle_type_id":"4","last_reported":1728029538,"current_range_meters":32800,"station_id":"ce4bgpp2rcd13ifvqc3g","pricing_plan_id":"cebpf4jnsgd1na2vs0mg"},{"bike_id":"e70a8dcf-8e87-4e58-9537-4724f90baf56","system_id":"levelo_inurba_marseille","lat":43.299,"lon":5.37471,"is_reserved":false,"is_disabled":false,"rental_uris":{"android":"levelo://app?vid=e70a8dcf-8e87-4e58-9537-4724f90baf56","ios":"levelo://app?vid=e70a8dcf-8e87-4e58-9537-4724f90baf56"},"vehicle_type_id":"4","last_reported":1728029538,"current_range_meters":13600,"station_id":"ce4bgjh2rcd13ifvqbg0","pricing_plan_id":"cebpf4jnsgd1na2vs0mg"},{"bike_id":"b17c1f93-12b4-4bd8-a37d-ebfc559afb8c","system_id":"levelo_inurba_marseille","lat":43.24068,"lon":5.37765,"is_reserved":false,"is_disabled":false,"rental_uris":{"android":"levelo://app?vid=b17c1f93-12b4-4bd8-a37d-ebfc559afb8c","ios":"levelo://app?vid=b17c1f93-12b4-4bd8-a37d-ebfc559afb8c"},"vehicle_type_id":"4","last_reported":1728029538,"current_range_meters":24800,"station_id":"ce4bhnp2rcd13ifvqgvg","pricing_plan_id":"cebpf4jnsgd1na2vs0mg"},{"bike_id":"82bf1695-2088-4d9c-859a-1ac40db53ee2","system_id":"levelo_inurba_marseille","lat":43.27492,"lon":5.42453,"is_reserved":false,"is_disabled":false,"rental_uris":{"android":"levelo://app?vid=82bf1695-2088-4d9c-859a-1ac40db53ee2","ios":"levelo://app?vid=82bf1695-2088-4d9c-859a-1ac40db53ee2"},"vehicle_type_id":"4","last_reported":1728029538,"current_range_meters":30800,"station_id":"ce4bhn92rcd13ifvqgrg","pricing_plan_id":"cebpf4jnsgd1na2vs0mg"},{"bike_id":"16a50fa2-597a-4294-a3d5-c35e56ef70a0","system_id":"levelo_inurba_marseille","lat":43.32538,"lon":5.41426,"is_reserved":false,"is_disabled":false,"rental_uris":{"android":"levelo://app?vid=16a50fa2-597a-4294-a3d5-c35e56ef70a0","ios":"levelo://app?vid=16a50fa2-597a-4294-a3d5-c35e56ef70a0"},"vehicle_type_id":"4","last_reported":1728029538,"current_range_meters":38800,"station_id":"ce4bhq12rcd13ifvqhhg","pricing_plan_id":"cebpf4jnsgd1na2vs0mg"},{"bike_id":"464707c1-fc3e-436a-b1dc-daa35ae81e76","system_id":"levelo_inurba_marseille","lat":43.28145,"lon":5.42641,"is_reserved":false,"is_disabled":false,"rental_uris":{"android":"levelo://app?vid=464707c1-fc3e-436a-b1dc-daa35ae81e76","ios":"levelo://app?vid=464707c1-fc3e-436a-b1dc-daa35ae81e76"},"vehicle_type_id":"4","last_reported":1728029538,"current_range_meters":38800,"station_id":"ce4bhnh2rcd13ifvqgug","pricing_plan_id":"cebpf4jnsgd1na2vs0mg"},{"bike_id":"f8ed13ba-0f92-4c24-a66c-ce1d50a499a4","system_id":"levelo_inurba_marseille","lat":43.30904,"lon":5.36841,"is_reserved":false,"is_disabled":false,"rental_uris":{"android":"levelo://app?vid=f8ed13ba-0f92-4c24-a66c-ce1d50a499a4","ios":"levelo://app?vid=f8ed13ba-0f92-4c24-a66c-ce1d50a499a4"},"vehicle_type_id":"4","last_reported":1728029538,"current_range_meters":16000,"station_id":"ce4bgn92rcd13ifvqbvg","pricing_plan_id":"cebpf4jnsgd1na2vs0mg"},{"bike_id":"53c6fe7a-c5f0-4c29-bdb6-08c6c7db5c71","system_id":"levelo_inurba_marseille","lat":43.32103,"lon":5.36777,"is_reserved":false,"is_disabled":false,"rental_uris":{"android":"levelo://app?vid=53c6fe7a-c5f0-4c29-bdb6-08c6c7db5c71","ios":"levelo://app?vid=53c6fe7a-c5f0-4c29-bdb6-08c6c7db5c71"},"vehicle_type_id":"4","last_reported":1728029538,"current_range_meters":6800,"station_id":"ce4bhrh2rcd13ifvqhug","pricing_plan_id":"cebpf4jnsgd1na2vs0mg"},{"bike_id":"ff79b2f6-0eb5-4f7d-b130-c2d2dfa60a15","system_id":"levelo_inurba_marseille","lat":43.28845,"lon":5.35849,"is_reserved":false,"is_disabled":false,"rental_uris":{"android":"levelo://app?vid=ff79b2f6-0eb5-4f7d-b130-c2d2dfa60a15","ios":"levelo://app?vid=ff79b2f6-0eb5-4f7d-b130-c2d2dfa60a15"},"vehicle_type_id":"4","last_reported":1728029538,"current_range_meters":38800,"station_id":"ce4bhb12rcd13ifvqem0","pricing_plan_id":"cebpf4jnsgd1na2vs0mg"},{"bike_id":"892e7b4f-4577-4e45-8a5f-3e8cfda1c900","system_id":"levelo_inurba_marseille","lat":43.25105,"lon":5.40326,"is_reserved":false,"is_disabled":false,"rental_uris":{"android":"levelo://app?vid=892e7b4f-4577-4e45-8a5f-3e8cfda1c900","ios":"levelo://app?vid=892e7b4f-4577-4e45-8a5f-3e8cfda1c900"},"vehicle_type_id":"4","last_reported":1728029538,"current_range_meters":3200,"station_id":"ce4bhlh2rcd13ifvqgig","pricing_plan_id":"cebpf4jnsgd1na2vs0mg"},{"bike_id":"6ce60676-3f86-4aaa-a5df-572436c32ad4","system_id":"levelo_inurba_marseille","lat":43.23194,"lon":5.35543,"is_reserved":false,"is_disabled":false,"rental_uris":{"android":"levelo://app?vid=6ce60676-3f86-4aaa-a5df-572436c32ad4","ios":"levelo://app?vid=6ce60676-3f86-4aaa-a5df-572436c32ad4"},"vehicle_type_id":"4","last_reported":1728029538,"current_range_meters":16000,"station_id":"ce4bhu92rcd13ifvqi70","pricing_plan_id":"cebpf4jnsgd1na2vs0mg"},{"bike_id":"bb1d45c3-f50a-4ba0-9942-1edc9ffd3ed6","system_id":"levelo_inurba_marseille","lat":43.24991,"lon":5.38922,"is_reserved":false,"is_disabled":false,"rental_uris":{"android":"levelo://app?vid=bb1d45c3-f50a-4ba0-9942-1edc9ffd3ed6","ios":"levelo://app?vid=bb1d45c3-f50a-4ba0-9942-1edc9ffd3ed6"},"vehicle_type_id":"4","last_reported":1728029538,"current_range_meters":36000,"station_id":"ce4bhgp2rcd13ifvqfd0","pricing_plan_id":"cebpf4jnsgd1na2vs0mg"},{"bike_id":"c59a62a2-ad87-4538-8860-42039acb6fe1","system_id":"levelo_inurba_marseille","lat":43.30459,"lon":5.37891,"is_reserved":false,"is_disabled":false,"rental_uris":{"android":"levelo://app?vid=c59a62a2-ad87-4538-8860-42039acb6fe1","ios":"levelo://app?vid=c59a62a2-ad87-4538-8860-42039acb6fe1"},"vehicle_type_id":"4","last_reported":1728029538,"current_range_meters":25600,"station_id":"ce4bgup2rcd13ifvqcn0","pricing_plan_id":"cebpf4jnsgd1na2vs0mg"},{"bike_id":"b05bf219-8af3-4cbc-8a45-bd1b4f876437","system_id":"levelo_inurba_marseille","lat":43.27607,"lon":5.36116,"is_reserved":false,"is_disabled":false,"rental_uris":{"android":"levelo://app?vid=b05bf219-8af3-4cbc-8a45-bd1b4f876437","ios":"levelo://app?vid=b05bf219-8af3-4cbc-8a45-bd1b4f876437"},"vehicle_type_id":"4","last_reported":1728029538,"current_range_meters":28400,"station_id":"ce4bgj92rcd13ifvqbe0","pricing_plan_id":"cebpf4jnsgd1na2vs0mg"},{"bike_id":"5013c09a-3b43-40a8-800f-933c0132f8b8","system_id":"levelo_inurba_marseille","lat":43.2903,"lon":5.37563,"is_reserved":false,"is_disabled":false,"rental_uris":{"android":"levelo://app?vid=5013c09a-3b43-40a8-800f-933c0132f8b8","ios":"levelo://app?vid=5013c09a-3b43-40a8-800f-933c0132f8b8"},"vehicle_type_id":"4","last_reported":1728029538,"current_range_meters":38800,"station_id":"ce4bh692rcd13ifvqe90","pricing_plan_id":"cebpf4jnsgd1na2vs0mg"},{"bike_id":"d7dab494-52e7-4fa4-a3ba-4bbf459b4a6d","system_id":"levelo_inurba_marseille","lat":43.30888,"lon":5.372,"is_reserved":false,"is_disabled":false,"rental_uris":{"android":"levelo://app?vid=d7dab494-52e7-4fa4-a3ba-4bbf459b4a6d","ios":"levelo://app?vid=d7dab494-52e7-4fa4-a3ba-4bbf459b4a6d"},"vehicle_type_id":"4","last_reported":1728029538,"current_range_meters":35600,"station_id":"ce4bguh2rcd13ifvqckg","pricing_plan_id":"cebpf4jnsgd1na2vs0mg"},{"bike_id":"d81a9039-3890-46cf-b84c-e7c3bc778211","system_id":"levelo_inurba_marseille","lat":43.297643,"lon":5.364007,"is_reserved":false,"is_disabled":false,"rental_uris":{"android":"levelo://app?vid=d81a9039-3890-46cf-b84c-e7c3bc778211","ios":"levelo://app?vid=d81a9039-3890-46cf-b84c-e7c3bc778211"},"vehicle_type_id":"4","last_reported":1728029538,"current_range_meters":9600,"station_id":"","pricing_plan_id":"cebpf4jnsgd1na2vs0mg"},{"bike_id":"cc06d840-57c3-4fb9-842f-7fb76dcaefc3","system_id":"levelo_inurba_marseille","lat":43.27489,"lon":5.42455,"is_reserved":false,"is_disabled":false,"rental_uris":{"android":"levelo://app?vid=cc06d840-57c3-4fb9-842f-7fb76dcaefc3","ios":"levelo://app?vid=cc06d840-57c3-4fb9-842f-7fb76dcaefc3"},"vehicle_type_id":"4","last_reported":1728029538,"current_range_meters":10800,"station_id":"ce4bhn92rcd13ifvqgrg","pricing_plan_id":"cebpf4jnsgd1na2vs0mg"},{"bike_id":"e5f0ee72-0a56-476d-bd1c-41ff5dbfe1e5","system_id":"levelo_inurba_marseille","lat":43.31355,"lon":5.3849,"is_reserved":false,"is_disabled":false,"rental_uris":{"android":"levelo://app?vid=e5f0ee72-0a56-476d-bd1c-41ff5dbfe1e5","ios":"levelo://app?vid=e5f0ee72-0a56-476d-bd1c-41ff5dbfe1e5"},"vehicle_type_id":"4","last_reported":1728029538,"current_range_meters":16000,"station_id":"ce4bgt92rcd13ifvqcf0","pricing_plan_id":"cebpf4jnsgd1na2vs0mg"},{"bike_id":"ac491eed-1fef-4832-b4ca-d42b5b54f337","system_id":"levelo_inurba_marseille","lat":43.28414,"lon":5.34985,"is_reserved":false,"is_disabled":false,"rental_uris":{"android":"levelo://app?vid=ac491eed-1fef-4832-b4ca-d42b5b54f337","ios":"levelo://app?vid=ac491eed-1fef-4832-b4ca-d42b5b54f337"},"vehicle_type_id":"4","last_reported":1728029538,"current_range_meters":37600,"station_id":"ce4bhbh2rcd13ifvqepg","pricing_plan_id":"cebpf4jnsgd1na2vs0mg"},{"bike_id":"b951a1eb-1d9e-423d-bd77-1e7c91e606e0","system_id":"levelo_inurba_marseille","lat":43.29911,"lon":5.38514,"is_reserved":false,"is_disabled":false,"rental_uris":{"android":"levelo://app?vid=b951a1eb-1d9e-423d-bd77-1e7c91e606e0","ios":"levelo://app?vid=b951a1eb-1d9e-423d-bd77-1e7c91e606e0"},"vehicle_type_id":"4","last_reported":1728029538,"current_range_meters":17600,"station_id":"","pricing_plan_id":"cebpf4jnsgd1na2vs0mg"},{"bike_id":"ba1ccaa0-24c6-4a3d-bdc7-2772729ac300","system_id":"levelo_inurba_marseille","lat":43.272095,"lon":5.391846,"is_reserved":false,"is_disabled":false,"rental_uris":{"android":"levelo://app?vid=ba1ccaa0-24c6-4a3d-bdc7-2772729ac300","ios":"levelo://app?vid=ba1ccaa0-24c6-4a3d-bdc7-2772729ac300"},"vehicle_type_id":"4","last_reported":1728029538,"current_range_meters":35600,"station_id":"ce4bhhp2rcd13ifvqfm0","pricing_plan_id":"cebpf4jnsgd1na2vs0mg"},{"bike_id":"7fed4edd-fced-4cac-8f5a-8f088e4cd963","system_id":"levelo_inurba_marseille","lat":43.2655,"lon":5.3728,"is_reserved":false,"is_disabled":false,"rental_uris":{"android":"levelo://app?vid=7fed4edd-fced-4cac-8f5a-8f088e4cd963","ios":"levelo://app?vid=7fed4edd-fced-4cac-8f5a-8f088e4cd963"},"vehicle_type_id":"4","last_reported":1728029538,"current_range_meters":2800,"station_id":"ce4bhg12rcd13ifvqf70","pricing_plan_id":"cebpf4jnsgd1na2vs0mg"},{"bike_id":"a6692f1f-5525-4523-bd49-a7c219bc26c1","system_id":"levelo_inurba_marseille","lat":43.26556,"lon":5.37287,"is_reserved":false,"is_disabled":false,"rental_uris":{"android":"levelo://app?vid=a6692f1f-5525-4523-bd49-a7c219bc26c1","ios":"levelo://app?vid=a6692f1f-5525-4523-bd49-a7c219bc26c1"},"vehicle_type_id":"4","last_reported":1728029538,"current_range_meters":34000,"station_id":"ce4bhg12rcd13ifvqf70","pricing_plan_id":"cebpf4jnsgd1na2vs0mg"},{"bike_id":"bc5b6b8b-2f37-4b19-8353-cfb94dcc03bd","system_id":"levelo_inurba_marseille","lat":43.24078,"lon":5.37756,"is_reserved":false,"is_disabled":false,"rental_uris":{"android":"levelo://app?vid=bc5b6b8b-2f37-4b19-8353-cfb94dcc03bd","ios":"levelo://app?vid=bc5b6b8b-2f37-4b19-8353-cfb94dcc03bd"},"vehicle_type_id":"4","last_reported":1728029538,"current_range_meters":32000,"station_id":"ce4bhnp2rcd13ifvqgvg","pricing_plan_id":"cebpf4jnsgd1na2vs0mg"},{"bike_id":"eae44af6-b70b-487c-a92e-e52edcafa9ca","system_id":"levelo_inurba_marseille","lat":43.26199,"lon":5.37917,"is_reserved":false,"is_disabled":false,"rental_uris":{"android":"levelo://app?vid=eae44af6-b70b-487c-a92e-e52edcafa9ca","ios":"levelo://app?vid=eae44af6-b70b-487c-a92e-e52edcafa9ca"},"vehicle_type_id":"4","last_reported":1728029538,"current_range_meters":31200,"station_id":"ce4bhjp2rcd13ifvqg90","pricing_plan_id":"cebpf4jnsgd1na2vs0mg"},{"bike_id":"f28532ab-2844-4c68-acee-baaa073b03fa","system_id":"levelo_inurba_marseille","lat":43.324786,"lon":5.36566,"is_reserved":false,"is_disabled":false,"rental_uris":{"android":"levelo://app?vid=f28532ab-2844-4c68-acee-baaa073b03fa","ios":"levelo://app?vid=f28532ab-2844-4c68-acee-baaa073b03fa"},"vehicle_type_id":"4","last_reported":1728029538,"current_range_meters":38000,"station_id":"ce4bhs12rcd13ifvqhvg","pricing_plan_id":"cebpf4jnsgd1na2vs0mg"},{"bike_id":"9cf16966-a673-431e-b3d0-481a7aae44e9","system_id":"levelo_inurba_marseille","lat":43.28029,"lon":5.36947,"is_reserved":false,"is_disabled":false,"rental_uris":{"android":"levelo://app?vid=9cf16966-a673-431e-b3d0-481a7aae44e9","ios":"levelo://app?vid=9cf16966-a673-431e-b3d0-481a7aae44e9"},"vehicle_type_id":"4","last_reported":1728029538,"current_range_meters":37600,"station_id":"ce4bha12rcd13ifvqef0","pricing_plan_id":"cebpf4jnsgd1na2vs0mg"},{"bike_id":"e6975fa4-8c2d-44a9-bd89-925e626d603d","system_id":"levelo_inurba_marseille","lat":43.30146,"lon":5.38073,"is_reserved":false,"is_disabled":false,"rental_uris":{"android":"levelo://app?vid=e6975fa4-8c2d-44a9-bd89-925e626d603d","ios":"levelo://app?vid=e6975fa4-8c2d-44a9-bd89-925e626d603d"},"vehicle_type_id":"4","last_reported":1728029538,"current_range_meters":25600,"station_id":"ce4bgjp2rcd13ifvqbh0","pricing_plan_id":"cebpf4jnsgd1na2vs0mg"},{"bike_id":"e5c27dcf-3d6e-41a5-8a35-01e9d92ac648","system_id":"levelo_inurba_marseille","lat":43.27487,"lon":5.42452,"is_reserved":false,"is_disabled":false,"rental_uris":{"android":"levelo://app?vid=e5c27dcf-3d6e-41a5-8a35-01e9d92ac648","ios":"levelo://app?vid=e5c27dcf-3d6e-41a5-8a35-01e9d92ac648"},"vehicle_type_id":"4","last_reported":1728029538,"current_range_meters":35200,"station_id":"ce4bhn92rcd13ifvqgrg","pricing_plan_id":"cebpf4jnsgd1na2vs0mg"},{"bike_id":"d602bb9e-b75e-4df7-8d65-c5a2586c9b89","system_id":"levelo_inurba_marseille","lat":43.29847,"lon":5.36284,"is_reserved":false,"is_disabled":false,"rental_uris":{"android":"levelo://app?vid=d602bb9e-b75e-4df7-8d65-c5a2586c9b89","ios":"levelo://app?vid=d602bb9e-b75e-4df7-8d65-c5a2586c9b89"},"vehicle_type_id":"4","last_reported":1728029538,"current_range_meters":28800,"station_id":"ce4bgpp2rcd13ifvqc3g","pricing_plan_id":"cebpf4jnsgd1na2vs0mg"},{"bike_id":"0df22634-8a99-4927-af03-09431c9e9149","system_id":"levelo_inurba_marseille","lat":43.25502,"lon":5.37654,"is_reserved":false,"is_disabled":false,"rental_uris":{"android":"levelo://app?vid=0df22634-8a99-4927-af03-09431c9e9149","ios":"levelo://app?vid=0df22634-8a99-4927-af03-09431c9e9149"},"vehicle_type_id":"4","last_reported":1728029538,"current_range_meters":23200,"station_id":"ce4bhh12rcd13ifvqff0","pricing_plan_id":"cebpf4jnsgd1na2vs0mg"},{"bike_id":"33a8504a-6195-4b59-93ab-7c67bf7f9206","system_id":"levelo_inurba_marseille","lat":43.293088,"lon":5.371807,"is_reserved":false,"is_disabled":false,"rental_uris":{"android":"levelo://app?vid=33a8504a-6195-4b59-93ab-7c67bf7f9206","ios":"levelo://app?vid=33a8504a-6195-4b59-93ab-7c67bf7f9206"},"vehicle_type_id":"4","last_reported":1728029538,"current_range_meters":4000,"station_id":"ce4bgh92rcd13ifvqb40","pricing_plan_id":"cebpf4jnsgd1na2vs0mg"},{"bike_id":"4aa2d78a-2df8-40f1-b44e-a41cc0b2e120","system_id":"levelo_inurba_marseille","lat":43.30536,"lon":5.36701,"is_reserved":false,"is_disabled":false,"rental_uris":{"android":"levelo://app?vid=4aa2d78a-2df8-40f1-b44e-a41cc0b2e120","ios":"levelo://app?vid=4aa2d78a-2df8-40f1-b44e-a41cc0b2e120"},"vehicle_type_id":"4","last_reported":1728029538,"current_range_meters":4400,"station_id":"ce4bgrp2rcd13ifvqc9g","pricing_plan_id":"cebpf4jnsgd1na2vs0mg"},{"bike_id":"2d44c9ee-7d57-4d79-87df-456ca1e6d475","system_id":"levelo_inurba_marseille","lat":43.25496,"lon":5.37649,"is_reserved":false,"is_disabled":false,"rental_uris":{"android":"levelo://app?vid=2d44c9ee-7d57-4d79-87df-456ca1e6d475","ios":"levelo://app?vid=2d44c9ee-7d57-4d79-87df-456ca1e6d475"},"vehicle_type_id":"4","last_reported":1728029538,"current_range_meters":36000,"station_id":"ce4bhh12rcd13ifvqff0","pricing_plan_id":"cebpf4jnsgd1na2vs0mg"},{"bike_id":"de342f46-89a2-4db4-af45-4f39a1a359f2","system_id":"levelo_inurba_marseille","lat":43.33608,"lon":5.4103,"is_reserved":false,"is_disabled":false,"rental_uris":{"android":"levelo://app?vid=de342f46-89a2-4db4-af45-4f39a1a359f2","ios":"levelo://app?vid=de342f46-89a2-4db4-af45-4f39a1a359f2"},"vehicle_type_id":"4","last_reported":1728029538,"current_range_meters":24000,"station_id":"ce4bhqh2rcd13ifvqhmg","pricing_plan_id":"cebpf4jnsgd1na2vs0mg"},{"bike_id":"a4fafd05-5eef-445c-9445-1c0b9ed485cd","system_id":"levelo_inurba_marseille","lat":43.31357,"lon":5.36706,"is_reserved":false,"is_disabled":false,"rental_uris":{"android":"levelo://app?vid=a4fafd05-5eef-445c-9445-1c0b9ed485cd","ios":"levelo://app?vid=a4fafd05-5eef-445c-9445-1c0b9ed485cd"},"vehicle_type_id":"4","last_reported":1728029538,"current_range_meters":32000,"station_id":"ce4bgr92rcd13ifvqc6g","pricing_plan_id":"cebpf4jnsgd1na2vs0mg"},{"bike_id":"0f0865d8-479b-4168-830f-f34426c6f80f","system_id":"levelo_inurba_marseille","lat":43.33725,"lon":5.39178,"is_reserved":false,"is_disabled":false,"rental_uris":{"android":"levelo://app?vid=0f0865d8-479b-4168-830f-f34426c6f80f","ios":"levelo://app?vid=0f0865d8-479b-4168-830f-f34426c6f80f"},"vehicle_type_id":"4","last_reported":1728029538,"current_range_meters":19600,"station_id":"ce4bhr92rcd13ifvqhsg","pricing_plan_id":"cebpf4jnsgd1na2vs0mg"},{"bike_id":"c8e4ff73-620c-4248-92f7-758d5098242c","system_id":"levelo_inurba_marseille","lat":43.22931,"lon":5.35376,"is_reserved":false,"is_disabled":false,"rental_uris":{"android":"levelo://app?vid=c8e4ff73-620c-4248-92f7-758d5098242c","ios":"levelo://app?vid=c8e4ff73-620c-4248-92f7-758d5098242c"},"vehicle_type_id":"4","last_reported":1728029538,"current_range_meters":22800,"station_id":"cpo3532slgdg3j2ikp40","pricing_plan_id":"cebpf4jnsgd1na2vs0mg"},{"bike_id":"3c230d9c-8a51-4831-b7c4-3b2bfa6441ac","system_id":"levelo_inurba_marseille","lat":43.29297,"lon":5.37163,"is_reserved":false,"is_disabled":false,"rental_uris":{"android":"levelo://app?vid=3c230d9c-8a51-4831-b7c4-3b2bfa6441ac","ios":"levelo://app?vid=3c230d9c-8a51-4831-b7c4-3b2bfa6441ac"},"vehicle_type_id":"4","last_reported":1728029538,"current_range_meters":23200,"station_id":"ce4bgh92rcd13ifvqb40","pricing_plan_id":"cebpf4jnsgd1na2vs0mg"},{"bike_id":"d46af598-bf66-4c71-8c75-a3a983cc6550","system_id":"levelo_inurba_marseille","lat":43.27958,"lon":5.38719,"is_reserved":false,"is_disabled":false,"rental_uris":{"android":"levelo://app?vid=d46af598-bf66-4c71-8c75-a3a983cc6550","ios":"levelo://app?vid=d46af598-bf66-4c71-8c75-a3a983cc6550"},"vehicle_type_id":"4","last_reported":1728029538,"current_range_meters":17200,"station_id":"ce4bhg12rcd13ifvqf80","pricing_plan_id":"cebpf4jnsgd1na2vs0mg"},{"bike_id":"583eb2a3-c703-4842-8648-2706b2b88008","system_id":"levelo_inurba_marseille","lat":43.28153,"lon":5.4263,"is_reserved":false,"is_disabled":false,"rental_uris":{"android":"levelo://app?vid=583eb2a3-c703-4842-8648-2706b2b88008","ios":"levelo://app?vid=583eb2a3-c703-4842-8648-2706b2b88008"},"vehicle_type_id":"4","last_reported":1728029538,"current_range_meters":6400,"station_id":"ce4bhnh2rcd13ifvqgug","pricing_plan_id":"cebpf4jnsgd1na2vs0mg"},{"bike_id":"95670219-6e95-4020-aadb-066cc1e56ec4","system_id":"levelo_inurba_marseille","lat":43.29527,"lon":5.38549,"is_reserved":false,"is_disabled":false,"rental_uris":{"android":"levelo://app?vid=95670219-6e95-4020-aadb-066cc1e56ec4","ios":"levelo://app?vid=95670219-6e95-4020-aadb-066cc1e56ec4"},"vehicle_type_id":"4","last_reported":1728029538,"current_range_meters":14400,"station_id":"ce4bgih2rcd13ifvqba0","pricing_plan_id":"cebpf4jnsgd1na2vs0mg"},{"bike_id":"7a967bfb-46f5-4828-98b2-464766affed0","system_id":"levelo_inurba_marseille","lat":43.29173,"lon":5.37155,"is_reserved":false,"is_disabled":false,"rental_uris":{"android":"levelo://app?vid=7a967bfb-46f5-4828-98b2-464766affed0","ios":"levelo://app?vid=7a967bfb-46f5-4828-98b2-464766affed0"},"vehicle_type_id":"4","last_reported":1728029538,"current_range_meters":24800,"station_id":"ce4bha92rcd13ifvqeh0","pricing_plan_id":"cebpf4jnsgd1na2vs0mg"},{"bike_id":"0946268e-451b-4eae-9c53-f76e2b977f3f","system_id":"levelo_inurba_marseille","lat":43.32479,"lon":5.36559,"is_reserved":false,"is_disabled":false,"rental_uris":{"android":"levelo://app?vid=0946268e-451b-4eae-9c53-f76e2b977f3f","ios":"levelo://app?vid=0946268e-451b-4eae-9c53-f76e2b977f3f"},"vehicle_type_id":"4","last_reported":1728029538,"current_range_meters":24800,"station_id":"ce4bhs12rcd13ifvqhvg","pricing_plan_id":"cebpf4jnsgd1na2vs0mg"},{"bike_id":"5e778da9-2d39-4031-8ebb-5990fbc1004d","system_id":"levelo_inurba_marseille","lat":43.283393,"lon":5.380948,"is_reserved":false,"is_disabled":false,"rental_uris":{"android":"levelo://app?vid=5e778da9-2d39-4031-8ebb-5990fbc1004d","ios":"levelo://app?vid=5e778da9-2d39-4031-8ebb-5990fbc1004d"},"vehicle_type_id":"4","last_reported":1728029538,"current_range_meters":9200,"station_id":"ce4bh412rcd13ifvqdr0","pricing_plan_id":"cebpf4jnsgd1na2vs0mg"},{"bike_id":"994ecdbb-fbd6-48ba-9ef6-d5b54b287d9b","system_id":"levelo_inurba_marseille","lat":43.24074,"lon":5.37755,"is_reserved":false,"is_disabled":false,"rental_uris":{"android":"levelo://app?vid=994ecdbb-fbd6-48ba-9ef6-d5b54b287d9b","ios":"levelo://app?vid=994ecdbb-fbd6-48ba-9ef6-d5b54b287d9b"},"vehicle_type_id":"4","last_reported":1728029538,"current_range_meters":12800,"station_id":"ce4bhnp2rcd13ifvqgvg","pricing_plan_id":"cebpf4jnsgd1na2vs0mg"},{"bike_id":"77c59eab-5250-44c4-be86-099c0defe9c4","system_id":"levelo_inurba_marseille","lat":43.337444,"lon":5.374475,"is_reserved":false,"is_disabled":false,"rental_uris":{"android":"levelo://app?vid=77c59eab-5250-44c4-be86-099c0defe9c4","ios":"levelo://app?vid=77c59eab-5250-44c4-be86-099c0defe9c4"},"vehicle_type_id":"4","last_reported":1728029538,"current_range_meters":33600,"station_id":"","pricing_plan_id":"cebpf4jnsgd1na2vs0mg"},{"bike_id":"e052c56b-a9fa-42db-b4d4-f2cf18c3590e","system_id":"levelo_inurba_marseille","lat":43.290131,"lon":5.399838,"is_reserved":false,"is_disabled":false,"rental_uris":{"android":"levelo://app?vid=e052c56b-a9fa-42db-b4d4-f2cf18c3590e","ios":"levelo://app?vid=e052c56b-a9fa-42db-b4d4-f2cf18c3590e"},"vehicle_type_id":"4","last_reported":1728029538,"current_range_meters":38800,"station_id":"cjm6bp8fraef2m0cb0m0","pricing_plan_id":"cebpf4jnsgd1na2vs0mg"},{"bike_id":"415a18a2-1c03-47e6-954d-ae3ff654b9f9","system_id":"levelo_inurba_marseille","lat":43.31334,"lon":5.3674,"is_reserved":false,"is_disabled":false,"rental_uris":{"android":"levelo://app?vid=415a18a2-1c03-47e6-954d-ae3ff654b9f9","ios":"levelo://app?vid=415a18a2-1c03-47e6-954d-ae3ff654b9f9"},"vehicle_type_id":"4","last_reported":1728029538,"current_range_meters":21600,"station_id":"ce4bgr92rcd13ifvqc6g","pricing_plan_id":"cebpf4jnsgd1na2vs0mg"},{"bike_id":"9ea91f6a-6916-466f-a2e3-ae74f9e950f6","system_id":"levelo_inurba_marseille","lat":43.23148,"lon":5.43718,"is_reserved":false,"is_disabled":false,"rental_uris":{"android":"levelo://app?vid=9ea91f6a-6916-466f-a2e3-ae74f9e950f6","ios":"levelo://app?vid=9ea91f6a-6916-466f-a2e3-ae74f9e950f6"},"vehicle_type_id":"4","last_reported":1728029538,"current_range_meters":26000,"station_id":"ce4bhmp2rcd13ifvqgog","pricing_plan_id":"cebpf4jnsgd1na2vs0mg"},{"bike_id":"08bf37c8-07c8-4891-a07a-bdc13d07b259","system_id":"levelo_inurba_marseille","lat":43.30783,"lon":5.38156,"is_reserved":false,"is_disabled":false,"rental_uris":{"android":"levelo://app?vid=08bf37c8-07c8-4891-a07a-bdc13d07b259","ios":"levelo://app?vid=08bf37c8-07c8-4891-a07a-bdc13d07b259"},"vehicle_type_id":"4","last_reported":1728029538,"current_range_meters":32800,"station_id":"ce4bgt12rcd13ifvqce0","pricing_plan_id":"cebpf4jnsgd1na2vs0mg"},{"bike_id":"09648bcd-aff3-4e5d-a358-b65c5d88ce54","system_id":"levelo_inurba_marseille","lat":43.24987,"lon":5.3893,"is_reserved":false,"is_disabled":false,"rental_uris":{"android":"levelo://app?vid=09648bcd-aff3-4e5d-a358-b65c5d88ce54","ios":"levelo://app?vid=09648bcd-aff3-4e5d-a358-b65c5d88ce54"},"vehicle_type_id":"4","last_reported":1728029538,"current_range_meters":35600,"station_id":"ce4bhgp2rcd13ifvqfd0","pricing_plan_id":"cebpf4jnsgd1na2vs0mg"},{"bike_id":"5cdedaec-879e-42be-821c-8b0b30c3f47b","system_id":"levelo_inurba_marseille","lat":43.27615,"lon":5.36106,"is_reserved":false,"is_disabled":false,"rental_uris":{"android":"levelo://app?vid=5cdedaec-879e-42be-821c-8b0b30c3f47b","ios":"levelo://app?vid=5cdedaec-879e-42be-821c-8b0b30c3f47b"},"vehicle_type_id":"4","last_reported":1728029538,"current_range_meters":8000,"station_id":"ce4bgj92rcd13ifvqbe0","pricing_plan_id":"cebpf4jnsgd1na2vs0mg"},{"bike_id":"6fda3d98-ff38-43fa-9461-ae662a718bff","system_id":"levelo_inurba_marseille","lat":43.30942,"lon":5.39029,"is_reserved":false,"is_disabled":false,"rental_uris":{"android":"levelo://app?vid=6fda3d98-ff38-43fa-9461-ae662a718bff","ios":"levelo://app?vid=6fda3d98-ff38-43fa-9461-ae662a718bff"},"vehicle_type_id":"4","last_reported":1728029538,"current_range_meters":14000,"station_id":"ce4bgup2rcd13ifvqco0","pricing_plan_id":"cebpf4jnsgd1na2vs0mg"},{"bike_id":"178c762e-7366-46b0-b460-28987156e29f","system_id":"levelo_inurba_marseille","lat":43.3108,"lon":5.42432,"is_reserved":false,"is_disabled":false,"rental_uris":{"android":"levelo://app?vid=178c762e-7366-46b0-b460-28987156e29f","ios":"levelo://app?vid=178c762e-7366-46b0-b460-28987156e29f"},"vehicle_type_id":"4","last_reported":1728029538,"current_range_meters":37600,"station_id":"ce4bhp92rcd13ifvqhag","pricing_plan_id":"cebpf4jnsgd1na2vs0mg"},{"bike_id":"d1019159-9209-4cac-adf5-0bbe687f6325","system_id":"levelo_inurba_marseille","lat":43.28855,"lon":5.3585,"is_reserved":false,"is_disabled":false,"rental_uris":{"android":"levelo://app?vid=d1019159-9209-4cac-adf5-0bbe687f6325","ios":"levelo://app?vid=d1019159-9209-4cac-adf5-0bbe687f6325"},"vehicle_type_id":"4","last_reported":1728029538,"current_range_meters":8400,"station_id":"ce4bhb12rcd13ifvqem0","pricing_plan_id":"cebpf4jnsgd1na2vs0mg"},{"bike_id":"71a85321-cdd0-4b0c-9a38-c490afade47c","system_id":"levelo_inurba_marseille","lat":43.2922,"lon":5.36052,"is_reserved":false,"is_disabled":false,"rental_uris":{"android":"levelo://app?vid=71a85321-cdd0-4b0c-9a38-c490afade47c","ios":"levelo://app?vid=71a85321-cdd0-4b0c-9a38-c490afade47c"},"vehicle_type_id":"4","last_reported":1728029538,"current_range_meters":38400,"station_id":"ce4bhbh2rcd13ifvqeqg","pricing_plan_id":"cebpf4jnsgd1na2vs0mg"},{"bike_id":"8f3fcedd-a76a-461f-b8f5-11384773d138","system_id":"levelo_inurba_marseille","lat":43.28343,"lon":5.38109,"is_reserved":false,"is_disabled":false,"rental_uris":{"android":"levelo://app?vid=8f3fcedd-a76a-461f-b8f5-11384773d138","ios":"levelo://app?vid=8f3fcedd-a76a-461f-b8f5-11384773d138"},"vehicle_type_id":"4","last_reported":1728029538,"current_range_meters":5600,"station_id":"ce4bh412rcd13ifvqdr0","pricing_plan_id":"cebpf4jnsgd1na2vs0mg"},{"bike_id":"55909299-71f6-4879-b28a-2d28fae91c6d","system_id":"levelo_inurba_marseille","lat":43.33605,"lon":5.41032,"is_reserved":false,"is_disabled":false,"rental_uris":{"android":"levelo://app?vid=55909299-71f6-4879-b28a-2d28fae91c6d","ios":"levelo://app?vid=55909299-71f6-4879-b28a-2d28fae91c6d"},"vehicle_type_id":"4","last_reported":1728029538,"current_range_meters":20800,"station_id":"ce4bhqh2rcd13ifvqhmg","pricing_plan_id":"cebpf4jnsgd1na2vs0mg"},{"bike_id":"690c1146-a8cd-495f-94f6-c94b70c09ae9","system_id":"levelo_inurba_marseille","lat":43.26677,"lon":5.38267,"is_reserved":false,"is_disabled":false,"rental_uris":{"android":"levelo://app?vid=690c1146-a8cd-495f-94f6-c94b70c09ae9","ios":"levelo://app?vid=690c1146-a8cd-495f-94f6-c94b70c09ae9"},"vehicle_type_id":"4","last_reported":1728029538,"current_range_meters":38000,"station_id":"ce4bhg92rcd13ifvqf90","pricing_plan_id":"cebpf4jnsgd1na2vs0mg"},{"bike_id":"030e3a63-64cb-4cc5-9518-4b9dee8accde","system_id":"levelo_inurba_marseille","lat":43.27482,"lon":5.42459,"is_reserved":false,"is_disabled":false,"rental_uris":{"android":"levelo://app?vid=030e3a63-64cb-4cc5-9518-4b9dee8accde","ios":"levelo://app?vid=030e3a63-64cb-4cc5-9518-4b9dee8accde"},"vehicle_type_id":"4","last_reported":1728029538,"current_range_meters":30000,"station_id":"ce4bhn92rcd13ifvqgrg","pricing_plan_id":"cebpf4jnsgd1na2vs0mg"},{"bike_id":"eda89c2c-5a37-4983-a687-2bb8a28d05fc","system_id":"levelo_inurba_marseille","lat":43.24077,"lon":5.37738,"is_reserved":false,"is_disabled":false,"rental_uris":{"android":"levelo://app?vid=eda89c2c-5a37-4983-a687-2bb8a28d05fc","ios":"levelo://app?vid=eda89c2c-5a37-4983-a687-2bb8a28d05fc"},"vehicle_type_id":"4","last_reported":1728029538,"current_range_meters":21600,"station_id":"ce4bhnp2rcd13ifvqgvg","pricing_plan_id":"cebpf4jnsgd1na2vs0mg"},{"bike_id":"fdb68aa5-0a31-4ff3-9837-ee5d5fa5bae6","system_id":"levelo_inurba_marseille","lat":43.23152,"lon":5.43702,"is_reserved":false,"is_disabled":false,"rental_uris":{"android":"levelo://app?vid=fdb68aa5-0a31-4ff3-9837-ee5d5fa5bae6","ios":"levelo://app?vid=fdb68aa5-0a31-4ff3-9837-ee5d5fa5bae6"},"vehicle_type_id":"4","last_reported":1728029538,"current_range_meters":38800,"station_id":"ce4bhmp2rcd13ifvqgog","pricing_plan_id":"cebpf4jnsgd1na2vs0mg"},{"bike_id":"01933f8e-ab3d-4a50-87e1-a540b46ae5f1","system_id":"levelo_inurba_marseille","lat":43.33611,"lon":5.41015,"is_reserved":false,"is_disabled":false,"rental_uris":{"android":"levelo://app?vid=01933f8e-ab3d-4a50-87e1-a540b46ae5f1","ios":"levelo://app?vid=01933f8e-ab3d-4a50-87e1-a540b46ae5f1"},"vehicle_type_id":"4","last_reported":1728029538,"current_range_meters":26000,"station_id":"ce4bhqh2rcd13ifvqhmg","pricing_plan_id":"cebpf4jnsgd1na2vs0mg"},{"bike_id":"c312f5f8-75c6-4d9d-ae64-627ba0f03933","system_id":"levelo_inurba_marseille","lat":43.28348,"lon":5.381,"is_reserved":false,"is_disabled":false,"rental_uris":{"android":"levelo://app?vid=c312f5f8-75c6-4d9d-ae64-627ba0f03933","ios":"levelo://app?vid=c312f5f8-75c6-4d9d-ae64-627ba0f03933"},"vehicle_type_id":"4","last_reported":1728029538,"current_range_meters":800,"station_id":"ce4bh412rcd13ifvqdr0","pricing_plan_id":"cebpf4jnsgd1na2vs0mg"},{"bike_id":"ec15d814-ee9e-4140-9be4-5f754c0b8f6b","system_id":"levelo_inurba_marseille","lat":43.32541,"lon":5.41445,"is_reserved":false,"is_disabled":false,"rental_uris":{"android":"levelo://app?vid=ec15d814-ee9e-4140-9be4-5f754c0b8f6b","ios":"levelo://app?vid=ec15d814-ee9e-4140-9be4-5f754c0b8f6b"},"vehicle_type_id":"4","last_reported":1728029538,"current_range_meters":24400,"station_id":"ce4bhq12rcd13ifvqhhg","pricing_plan_id":"cebpf4jnsgd1na2vs0mg"},{"bike_id":"c8de7717-faf9-4222-a747-c98027ffd018","system_id":"levelo_inurba_marseille","lat":43.22932,"lon":5.35372,"is_reserved":false,"is_disabled":false,"rental_uris":{"android":"levelo://app?vid=c8de7717-faf9-4222-a747-c98027ffd018","ios":"levelo://app?vid=c8de7717-faf9-4222-a747-c98027ffd018"},"vehicle_type_id":"4","last_reported":1728029538,"current_range_meters":12000,"station_id":"cpo3532slgdg3j2ikp40","pricing_plan_id":"cebpf4jnsgd1na2vs0mg"},{"bike_id":"5adde98e-347f-40b1-aa87-49f40f193764","system_id":"levelo_inurba_marseille","lat":43.2314,"lon":5.4372,"is_reserved":false,"is_disabled":false,"rental_uris":{"android":"levelo://app?vid=5adde98e-347f-40b1-aa87-49f40f193764","ios":"levelo://app?vid=5adde98e-347f-40b1-aa87-49f40f193764"},"vehicle_type_id":"4","last_reported":1728029538,"current_range_meters":21600,"station_id":"ce4bhmp2rcd13ifvqgog","pricing_plan_id":"cebpf4jnsgd1na2vs0mg"},{"bike_id":"81135a2f-3484-4943-8cb1-e9f527d2c044","system_id":"levelo_inurba_marseille","lat":43.23178,"lon":5.39978,"is_reserved":false,"is_disabled":false,"rental_uris":{"android":"levelo://app?vid=81135a2f-3484-4943-8cb1-e9f527d2c044","ios":"levelo://app?vid=81135a2f-3484-4943-8cb1-e9f527d2c044"},"vehicle_type_id":"4","last_reported":1728029538,"current_range_meters":11600,"station_id":"ce4bhn12rcd13ifvqgqg","pricing_plan_id":"cebpf4jnsgd1na2vs0mg"},{"bike_id":"c4af35bc-b4dc-41c7-81cc-485bac23cea7","system_id":"levelo_inurba_marseille","lat":43.24082,"lon":5.37743,"is_reserved":false,"is_disabled":false,"rental_uris":{"android":"levelo://app?vid=c4af35bc-b4dc-41c7-81cc-485bac23cea7","ios":"levelo://app?vid=c4af35bc-b4dc-41c7-81cc-485bac23cea7"},"vehicle_type_id":"4","last_reported":1728029538,"current_range_meters":6800,"station_id":"ce4bhnp2rcd13ifvqgvg","pricing_plan_id":"cebpf4jnsgd1na2vs0mg"},{"bike_id":"4317c8e5-984f-4071-9b79-4453eb3b1c72","system_id":"levelo_inurba_marseille","lat":43.31203,"lon":5.36847,"is_reserved":false,"is_disabled":false,"rental_uris":{"android":"levelo://app?vid=4317c8e5-984f-4071-9b79-4453eb3b1c72","ios":"levelo://app?vid=4317c8e5-984f-4071-9b79-4453eb3b1c72"},"vehicle_type_id":"4","last_reported":1728029538,"current_range_meters":38800,"station_id":"ce4bgl92rcd13ifvqbq0","pricing_plan_id":"cebpf4jnsgd1na2vs0mg"},{"bike_id":"7211bed2-8514-4169-9df5-9ea6b7b446bf","system_id":"levelo_inurba_marseille","lat":43.28615,"lon":5.35091,"is_reserved":false,"is_disabled":false,"rental_uris":{"android":"levelo://app?vid=7211bed2-8514-4169-9df5-9ea6b7b446bf","ios":"levelo://app?vid=7211bed2-8514-4169-9df5-9ea6b7b446bf"},"vehicle_type_id":"4","last_reported":1728029538,"current_range_meters":9200,"station_id":"ce4bhch2rcd13ifvqeug","pricing_plan_id":"cebpf4jnsgd1na2vs0mg"},{"bike_id":"64cf4ccb-6500-45ca-8635-4b827be9e8ac","system_id":"levelo_inurba_marseille","lat":43.29272,"lon":5.40127,"is_reserved":false,"is_disabled":false,"rental_uris":{"android":"levelo://app?vid=64cf4ccb-6500-45ca-8635-4b827be9e8ac","ios":"levelo://app?vid=64cf4ccb-6500-45ca-8635-4b827be9e8ac"},"vehicle_type_id":"4","last_reported":1728029538,"current_range_meters":28000,"station_id":"ce4bh312rcd13ifvqdk0","pricing_plan_id":"cebpf4jnsgd1na2vs0mg"},{"bike_id":"3ece9deb-d376-400c-997a-ff5945157fa0","system_id":"levelo_inurba_marseille","lat":43.29005,"lon":5.35616,"is_reserved":false,"is_disabled":false,"rental_uris":{"android":"levelo://app?vid=3ece9deb-d376-400c-997a-ff5945157fa0","ios":"levelo://app?vid=3ece9deb-d376-400c-997a-ff5945157fa0"},"vehicle_type_id":"4","last_reported":1728029538,"current_range_meters":38800,"station_id":"ce4bhb92rcd13ifvqen0","pricing_plan_id":"cebpf4jnsgd1na2vs0mg"},{"bike_id":"b1de2d2c-06c8-4cd3-a9c2-6a5c17f5b3bb","system_id":"levelo_inurba_marseille","lat":43.32207,"lon":5.38551,"is_reserved":false,"is_disabled":false,"rental_uris":{"android":"levelo://app?vid=b1de2d2c-06c8-4cd3-a9c2-6a5c17f5b3bb","ios":"levelo://app?vid=b1de2d2c-06c8-4cd3-a9c2-6a5c17f5b3bb"},"vehicle_type_id":"4","last_reported":1728029538,"current_range_meters":12800,"station_id":"","pricing_plan_id":"cebpf4jnsgd1na2vs0mg"},{"bike_id":"314b1aad-cc54-4ea3-be26-c4f567191cc1","system_id":"levelo_inurba_marseille","lat":43.297837,"lon":5.371197,"is_reserved":false,"is_disabled":false,"rental_uris":{"android":"levelo://app?vid=314b1aad-cc54-4ea3-be26-c4f567191cc1","ios":"levelo://app?vid=314b1aad-cc54-4ea3-be26-c4f567191cc1"},"vehicle_type_id":"4","last_reported":1728029538,"current_range_meters":19600,"station_id":"ce4bgop2rcd13ifvqc1g","pricing_plan_id":"cebpf4jnsgd1na2vs0mg"},{"bike_id":"e17941b4-3c6a-4418-9c0f-49cf47732ac2","system_id":"levelo_inurba_marseille","lat":43.27583,"lon":5.39544,"is_reserved":false,"is_disabled":false,"rental_uris":{"android":"levelo://app?vid=e17941b4-3c6a-4418-9c0f-49cf47732ac2","ios":"levelo://app?vid=e17941b4-3c6a-4418-9c0f-49cf47732ac2"},"vehicle_type_id":"4","last_reported":1728029538,"current_range_meters":30800,"station_id":"ce4bhjp2rcd13ifvqga0","pricing_plan_id":"cebpf4jnsgd1na2vs0mg"},{"bike_id":"37a58c35-4e3f-411c-95e4-cba8d9433df1","system_id":"levelo_inurba_marseille","lat":43.26202,"lon":5.37918,"is_reserved":false,"is_disabled":false,"rental_uris":{"android":"levelo://app?vid=37a58c35-4e3f-411c-95e4-cba8d9433df1","ios":"levelo://app?vid=37a58c35-4e3f-411c-95e4-cba8d9433df1"},"vehicle_type_id":"4","last_reported":1728029538,"current_range_meters":20400,"station_id":"ce4bhjp2rcd13ifvqg90","pricing_plan_id":"cebpf4jnsgd1na2vs0mg"},{"bike_id":"9bb7dc9b-7ab1-4765-8110-1795fb5a48d1","system_id":"levelo_inurba_marseille","lat":43.23959,"lon":5.36638,"is_reserved":false,"is_disabled":false,"rental_uris":{"android":"levelo://app?vid=9bb7dc9b-7ab1-4765-8110-1795fb5a48d1","ios":"levelo://app?vid=9bb7dc9b-7ab1-4765-8110-1795fb5a48d1"},"vehicle_type_id":"4","last_reported":1728029538,"current_range_meters":26000,"station_id":"ce4bhi12rcd13ifvqfp0","pricing_plan_id":"cebpf4jnsgd1na2vs0mg"},{"bike_id":"1e4b9dd3-b33a-4d2a-8266-ed32618ab5b8","system_id":"levelo_inurba_marseille","lat":43.23151,"lon":5.4372,"is_reserved":false,"is_disabled":false,"rental_uris":{"android":"levelo://app?vid=1e4b9dd3-b33a-4d2a-8266-ed32618ab5b8","ios":"levelo://app?vid=1e4b9dd3-b33a-4d2a-8266-ed32618ab5b8"},"vehicle_type_id":"4","last_reported":1728029538,"current_range_meters":22000,"station_id":"ce4bhmp2rcd13ifvqgog","pricing_plan_id":"cebpf4jnsgd1na2vs0mg"},{"bike_id":"7aee8499-7884-4fb8-8680-41f83967329a","system_id":"levelo_inurba_marseille","lat":43.292664,"lon":5.383088,"is_reserved":false,"is_disabled":false,"rental_uris":{"android":"levelo://app?vid=7aee8499-7884-4fb8-8680-41f83967329a","ios":"levelo://app?vid=7aee8499-7884-4fb8-8680-41f83967329a"},"vehicle_type_id":"4","last_reported":1728029538,"current_range_meters":30400,"station_id":"ce4bh692rcd13ifvqea0","pricing_plan_id":"cebpf4jnsgd1na2vs0mg"},{"bike_id":"ce0b829a-2254-4204-985d-c93b50c29d74","system_id":"levelo_inurba_marseille","lat":43.3135,"lon":5.36724,"is_reserved":false,"is_disabled":false,"rental_uris":{"android":"levelo://app?vid=ce0b829a-2254-4204-985d-c93b50c29d74","ios":"levelo://app?vid=ce0b829a-2254-4204-985d-c93b50c29d74"},"vehicle_type_id":"4","last_reported":1728029538,"current_range_meters":22000,"station_id":"ce4bgr92rcd13ifvqc6g","pricing_plan_id":"cebpf4jnsgd1na2vs0mg"},{"bike_id":"50c629b4-c824-4608-a8d3-dc2c94b579f0","system_id":"levelo_inurba_marseille","lat":43.246189,"lon":5.373682,"is_reserved":false,"is_disabled":false,"rental_uris":{"android":"levelo://app?vid=50c629b4-c824-4608-a8d3-dc2c94b579f0","ios":"levelo://app?vid=50c629b4-c824-4608-a8d3-dc2c94b579f0"},"vehicle_type_id":"4","last_reported":1728029538,"current_range_meters":30000,"station_id":"","pricing_plan_id":"cebpf4jnsgd1na2vs0mg"},{"bike_id":"d7877609-6b5f-4f1b-b1e9-67841d44573b","system_id":"levelo_inurba_marseille","lat":43.29548,"lon":5.42284,"is_reserved":false,"is_disabled":false,"rental_uris":{"android":"levelo://app?vid=d7877609-6b5f-4f1b-b1e9-67841d44573b","ios":"levelo://app?vid=d7877609-6b5f-4f1b-b1e9-67841d44573b"},"vehicle_type_id":"4","last_reported":1728029538,"current_range_meters":22800,"station_id":"ce4bhph2rcd13ifvqhdg","pricing_plan_id":"cebpf4jnsgd1na2vs0mg"},{"bike_id":"411a622e-0c64-4ae7-ab3a-3b4f2603408c","system_id":"levelo_inurba_marseille","lat":43.29899,"lon":5.43657,"is_reserved":false,"is_disabled":false,"rental_uris":{"android":"levelo://app?vid=411a622e-0c64-4ae7-ab3a-3b4f2603408c","ios":"levelo://app?vid=411a622e-0c64-4ae7-ab3a-3b4f2603408c"},"vehicle_type_id":"4","last_reported":1728029538,"current_range_meters":23200,"station_id":"ce4bhpp2rcd13ifvqhfg","pricing_plan_id":"cebpf4jnsgd1na2vs0mg"},{"bike_id":"d9513a24-3235-43a7-b9a5-1c5cfe37603f","system_id":"levelo_inurba_marseille","lat":43.23056,"lon":5.35493,"is_reserved":false,"is_disabled":false,"rental_uris":{"android":"levelo://app?vid=d9513a24-3235-43a7-b9a5-1c5cfe37603f","ios":"levelo://app?vid=d9513a24-3235-43a7-b9a5-1c5cfe37603f"},"vehicle_type_id":"4","last_reported":1728029538,"current_range_meters":26000,"station_id":"cpo3342slgdg3j2ifvpg","pricing_plan_id":"cebpf4jnsgd1na2vs0mg"},{"bike_id":"c9502c8a-974c-4f15-8c2b-a7af14a46557","system_id":"levelo_inurba_marseille","lat":43.30884,"lon":5.37191,"is_reserved":false,"is_disabled":false,"rental_uris":{"android":"levelo://app?vid=c9502c8a-974c-4f15-8c2b-a7af14a46557","ios":"levelo://app?vid=c9502c8a-974c-4f15-8c2b-a7af14a46557"},"vehicle_type_id":"4","last_reported":1728029538,"current_range_meters":12000,"station_id":"ce4bguh2rcd13ifvqckg","pricing_plan_id":"cebpf4jnsgd1na2vs0mg"},{"bike_id":"7bdcdbb9-b52f-4b42-9e65-be051a80cf8b","system_id":"levelo_inurba_marseille","lat":43.32477,"lon":5.36576,"is_reserved":false,"is_disabled":false,"rental_uris":{"android":"levelo://app?vid=7bdcdbb9-b52f-4b42-9e65-be051a80cf8b","ios":"levelo://app?vid=7bdcdbb9-b52f-4b42-9e65-be051a80cf8b"},"vehicle_type_id":"4","last_reported":1728029538,"current_range_meters":8800,"station_id":"ce4bhs12rcd13ifvqhvg","pricing_plan_id":"cebpf4jnsgd1na2vs0mg"},{"bike_id":"543ff09a-661c-4c03-be88-1e31c098d9dc","system_id":"levelo_inurba_marseille","lat":43.292664,"lon":5.384343,"is_reserved":false,"is_disabled":false,"rental_uris":{"android":"levelo://app?vid=543ff09a-661c-4c03-be88-1e31c098d9dc","ios":"levelo://app?vid=543ff09a-661c-4c03-be88-1e31c098d9dc"},"vehicle_type_id":"4","last_reported":1728029538,"current_range_meters":11200,"station_id":"ce4bh692rcd13ifvqea0","pricing_plan_id":"cebpf4jnsgd1na2vs0mg"},{"bike_id":"97fb4b7b-0bb7-42d5-bc17-8b0391493cfa","system_id":"levelo_inurba_marseille","lat":43.26949,"lon":5.38932,"is_reserved":false,"is_disabled":false,"rental_uris":{"android":"levelo://app?vid=97fb4b7b-0bb7-42d5-bc17-8b0391493cfa","ios":"levelo://app?vid=97fb4b7b-0bb7-42d5-bc17-8b0391493cfa"},"vehicle_type_id":"4","last_reported":1728029538,"current_range_meters":24000,"station_id":"ce4bhhh2rcd13ifvqfl0","pricing_plan_id":"cebpf4jnsgd1na2vs0mg"},{"bike_id":"4bd008e2-ced4-419f-9986-7bdf08969ddd","system_id":"levelo_inurba_marseille","lat":43.30902,"lon":5.36852,"is_reserved":false,"is_disabled":false,"rental_uris":{"android":"levelo://app?vid=4bd008e2-ced4-419f-9986-7bdf08969ddd","ios":"levelo://app?vid=4bd008e2-ced4-419f-9986-7bdf08969ddd"},"vehicle_type_id":"4","last_reported":1728029538,"current_range_meters":27600,"station_id":"ce4bgn92rcd13ifvqbvg","pricing_plan_id":"cebpf4jnsgd1na2vs0mg"},{"bike_id":"94646036-55a2-442b-ab35-2a27fcb1b5cf","system_id":"levelo_inurba_marseille","lat":43.298772,"lon":5.40071,"is_reserved":false,"is_disabled":false,"rental_uris":{"android":"levelo://app?vid=94646036-55a2-442b-ab35-2a27fcb1b5cf","ios":"levelo://app?vid=94646036-55a2-442b-ab35-2a27fcb1b5cf"},"vehicle_type_id":"4","last_reported":1728029538,"current_range_meters":8000,"station_id":"ce4bhnh2rcd13ifvqgug","pricing_plan_id":"cebpf4jnsgd1na2vs0mg"},{"bike_id":"bf84590e-af09-4c2d-a259-827b670920e0","system_id":"levelo_inurba_marseille","lat":43.26953,"lon":5.3864,"is_reserved":false,"is_disabled":false,"rental_uris":{"android":"levelo://app?vid=bf84590e-af09-4c2d-a259-827b670920e0","ios":"levelo://app?vid=bf84590e-af09-4c2d-a259-827b670920e0"},"vehicle_type_id":"4","last_reported":1728029538,"current_range_meters":35200,"station_id":"ce4bhh92rcd13ifvqfh0","pricing_plan_id":"cebpf4jnsgd1na2vs0mg"},{"bike_id":"7faff167-2a88-4b81-842c-80e3f85782cb","system_id":"levelo_inurba_marseille","lat":43.24382,"lon":5.37054,"is_reserved":false,"is_disabled":false,"rental_uris":{"android":"levelo://app?vid=7faff167-2a88-4b81-842c-80e3f85782cb","ios":"levelo://app?vid=7faff167-2a88-4b81-842c-80e3f85782cb"},"vehicle_type_id":"4","last_reported":1728029538,"current_range_meters":28800,"station_id":"ce4bhhh2rcd13ifvqfk0","pricing_plan_id":"cebpf4jnsgd1na2vs0mg"},{"bike_id":"dc852ba8-32f2-497f-a66a-6178eae58d48","system_id":"levelo_inurba_marseille","lat":43.32484,"lon":5.36568,"is_reserved":false,"is_disabled":false,"rental_uris":{"android":"levelo://app?vid=dc852ba8-32f2-497f-a66a-6178eae58d48","ios":"levelo://app?vid=dc852ba8-32f2-497f-a66a-6178eae58d48"},"vehicle_type_id":"4","last_reported":1728029538,"current_range_meters":20800,"station_id":"ce4bhs12rcd13ifvqhvg","pricing_plan_id":"cebpf4jnsgd1na2vs0mg"},{"bike_id":"9747af5d-a0c2-40ce-90c7-995000a693ea","system_id":"levelo_inurba_marseille","lat":43.29034,"lon":5.37577,"is_reserved":false,"is_disabled":false,"rental_uris":{"android":"levelo://app?vid=9747af5d-a0c2-40ce-90c7-995000a693ea","ios":"levelo://app?vid=9747af5d-a0c2-40ce-90c7-995000a693ea"},"vehicle_type_id":"4","last_reported":1728029538,"current_range_meters":32000,"station_id":"ce4bh692rcd13ifvqe90","pricing_plan_id":"cebpf4jnsgd1na2vs0mg"},{"bike_id":"76c253f8-352c-4cad-990f-87549ac44fd1","system_id":"levelo_inurba_marseille","lat":43.25107,"lon":5.40315,"is_reserved":false,"is_disabled":false,"rental_uris":{"android":"levelo://app?vid=76c253f8-352c-4cad-990f-87549ac44fd1","ios":"levelo://app?vid=76c253f8-352c-4cad-990f-87549ac44fd1"},"vehicle_type_id":"4","last_reported":1728029538,"current_range_meters":33600,"station_id":"ce4bhlh2rcd13ifvqgig","pricing_plan_id":"cebpf4jnsgd1na2vs0mg"},{"bike_id":"8853b16c-0a6a-451b-8f3d-b276dca63080","system_id":"levelo_inurba_marseille","lat":43.30904,"lon":5.36845,"is_reserved":false,"is_disabled":false,"rental_uris":{"android":"levelo://app?vid=8853b16c-0a6a-451b-8f3d-b276dca63080","ios":"levelo://app?vid=8853b16c-0a6a-451b-8f3d-b276dca63080"},"vehicle_type_id":"4","last_reported":1728029538,"current_range_meters":38800,"station_id":"ce4bgn92rcd13ifvqbvg","pricing_plan_id":"cebpf4jnsgd1na2vs0mg"},{"bike_id":"8caa523a-b2b2-4b76-8e75-a44270c32595","system_id":"levelo_inurba_marseille","lat":43.25106,"lon":5.4033,"is_reserved":false,"is_disabled":false,"rental_uris":{"android":"levelo://app?vid=8caa523a-b2b2-4b76-8e75-a44270c32595","ios":"levelo://app?vid=8caa523a-b2b2-4b76-8e75-a44270c32595"},"vehicle_type_id":"4","last_reported":1728029538,"current_range_meters":14800,"station_id":"ce4bhlh2rcd13ifvqgig","pricing_plan_id":"cebpf4jnsgd1na2vs0mg"},{"bike_id":"30720952-ee38-4354-a49b-8ae560cd6740","system_id":"levelo_inurba_marseille","lat":43.28713,"lon":5.37947,"is_reserved":false,"is_disabled":false,"rental_uris":{"android":"levelo://app?vid=30720952-ee38-4354-a49b-8ae560cd6740","ios":"levelo://app?vid=30720952-ee38-4354-a49b-8ae560cd6740"},"vehicle_type_id":"4","last_reported":1728029538,"current_range_meters":32400,"station_id":"ce4bh9p2rcd13ifvqec0","pricing_plan_id":"cebpf4jnsgd1na2vs0mg"},{"bike_id":"b378dfd1-c1cc-4a36-864e-c1a62b564295","system_id":"levelo_inurba_marseille","lat":43.23155,"lon":5.43713,"is_reserved":false,"is_disabled":false,"rental_uris":{"android":"levelo://app?vid=b378dfd1-c1cc-4a36-864e-c1a62b564295","ios":"levelo://app?vid=b378dfd1-c1cc-4a36-864e-c1a62b564295"},"vehicle_type_id":"4","last_reported":1728029538,"current_range_meters":11200,"station_id":"ce4bhmp2rcd13ifvqgog","pricing_plan_id":"cebpf4jnsgd1na2vs0mg"},{"bike_id":"911a2e46-699f-4478-8ab9-654ce4d657f5","system_id":"levelo_inurba_marseille","lat":43.26927,"lon":5.3891,"is_reserved":false,"is_disabled":false,"rental_uris":{"android":"levelo://app?vid=911a2e46-699f-4478-8ab9-654ce4d657f5","ios":"levelo://app?vid=911a2e46-699f-4478-8ab9-654ce4d657f5"},"vehicle_type_id":"4","last_reported":1728029538,"current_range_meters":28000,"station_id":"ce4bhhh2rcd13ifvqfl0","pricing_plan_id":"cebpf4jnsgd1na2vs0mg"},{"bike_id":"756094af-868d-4f27-a593-e457985c4711","system_id":"levelo_inurba_marseille","lat":43.28343,"lon":5.38104,"is_reserved":false,"is_disabled":false,"rental_uris":{"android":"levelo://app?vid=756094af-868d-4f27-a593-e457985c4711","ios":"levelo://app?vid=756094af-868d-4f27-a593-e457985c4711"},"vehicle_type_id":"4","last_reported":1728029538,"current_range_meters":28000,"station_id":"ce4bh412rcd13ifvqdr0","pricing_plan_id":"cebpf4jnsgd1na2vs0mg"},{"bike_id":"9e1f7405-3cfe-4935-9140-7ce94924505e","system_id":"levelo_inurba_marseille","lat":43.2407,"lon":5.37756,"is_reserved":false,"is_disabled":false,"rental_uris":{"android":"levelo://app?vid=9e1f7405-3cfe-4935-9140-7ce94924505e","ios":"levelo://app?vid=9e1f7405-3cfe-4935-9140-7ce94924505e"},"vehicle_type_id":"4","last_reported":1728029538,"current_range_meters":32400,"station_id":"ce4bhnp2rcd13ifvqgvg","pricing_plan_id":"cebpf4jnsgd1na2vs0mg"},{"bike_id":"eb387d80-1a2b-4338-9dfc-d920fff731e3","system_id":"levelo_inurba_marseille","lat":43.23143,"lon":5.43721,"is_reserved":false,"is_disabled":false,"rental_uris":{"android":"levelo://app?vid=eb387d80-1a2b-4338-9dfc-d920fff731e3","ios":"levelo://app?vid=eb387d80-1a2b-4338-9dfc-d920fff731e3"},"vehicle_type_id":"4","last_reported":1728029538,"current_range_meters":38800,"station_id":"ce4bhmp2rcd13ifvqgog","pricing_plan_id":"cebpf4jnsgd1na2vs0mg"},{"bike_id":"d528e279-8260-4cc1-b0e5-51f71ccd5192","system_id":"levelo_inurba_marseille","lat":43.30162,"lon":5.38084,"is_reserved":false,"is_disabled":false,"rental_uris":{"android":"levelo://app?vid=d528e279-8260-4cc1-b0e5-51f71ccd5192","ios":"levelo://app?vid=d528e279-8260-4cc1-b0e5-51f71ccd5192"},"vehicle_type_id":"4","last_reported":1728029538,"current_range_meters":28800,"station_id":"ce4bgjp2rcd13ifvqbh0","pricing_plan_id":"cebpf4jnsgd1na2vs0mg"},{"bike_id":"e8b037e1-6bbc-4c1a-bf9f-c5ff62ab92dc","system_id":"levelo_inurba_marseille","lat":43.29036,"lon":5.359123,"is_reserved":false,"is_disabled":false,"rental_uris":{"android":"levelo://app?vid=e8b037e1-6bbc-4c1a-bf9f-c5ff62ab92dc","ios":"levelo://app?vid=e8b037e1-6bbc-4c1a-bf9f-c5ff62ab92dc"},"vehicle_type_id":"4","last_reported":1728029538,"current_range_meters":38000,"station_id":"ce4bha92rcd13ifvqeg0","pricing_plan_id":"cebpf4jnsgd1na2vs0mg"},{"bike_id":"b73790da-e903-415f-b92b-ba3c4514319d","system_id":"levelo_inurba_marseille","lat":43.29275,"lon":5.40116,"is_reserved":false,"is_disabled":false,"rental_uris":{"android":"levelo://app?vid=b73790da-e903-415f-b92b-ba3c4514319d","ios":"levelo://app?vid=b73790da-e903-415f-b92b-ba3c4514319d"},"vehicle_type_id":"4","last_reported":1728029538,"current_range_meters":11600,"station_id":"ce4bh312rcd13ifvqdk0","pricing_plan_id":"cebpf4jnsgd1na2vs0mg"},{"bike_id":"50115991-6619-4361-a39f-dabb0da4bdf1","system_id":"levelo_inurba_marseille","lat":43.30265,"lon":5.37698,"is_reserved":false,"is_disabled":false,"rental_uris":{"android":"levelo://app?vid=50115991-6619-4361-a39f-dabb0da4bdf1","ios":"levelo://app?vid=50115991-6619-4361-a39f-dabb0da4bdf1"},"vehicle_type_id":"4","last_reported":1728029538,"current_range_meters":6400,"station_id":"ce4bguh2rcd13ifvqcj0","pricing_plan_id":"cebpf4jnsgd1na2vs0mg"},{"bike_id":"6dd0afb4-975c-40a5-af22-ac41243323f6","system_id":"levelo_inurba_marseille","lat":43.24078,"lon":5.37753,"is_reserved":false,"is_disabled":false,"rental_uris":{"android":"levelo://app?vid=6dd0afb4-975c-40a5-af22-ac41243323f6","ios":"levelo://app?vid=6dd0afb4-975c-40a5-af22-ac41243323f6"},"vehicle_type_id":"4","last_reported":1728029538,"current_range_meters":26000,"station_id":"ce4bhnp2rcd13ifvqgvg","pricing_plan_id":"cebpf4jnsgd1na2vs0mg"},{"bike_id":"5a4eacb2-41f6-4697-a119-a1538a7097f5","system_id":"levelo_inurba_marseille","lat":43.26927,"lon":5.38914,"is_reserved":false,"is_disabled":false,"rental_uris":{"android":"levelo://app?vid=5a4eacb2-41f6-4697-a119-a1538a7097f5","ios":"levelo://app?vid=5a4eacb2-41f6-4697-a119-a1538a7097f5"},"vehicle_type_id":"4","last_reported":1728029538,"current_range_meters":25600,"station_id":"ce4bhhh2rcd13ifvqfl0","pricing_plan_id":"cebpf4jnsgd1na2vs0mg"},{"bike_id":"613dddd7-b6d5-4ce7-b0cc-11c99bc21e50","system_id":"levelo_inurba_marseille","lat":43.30542,"lon":5.36707,"is_reserved":false,"is_disabled":false,"rental_uris":{"android":"levelo://app?vid=613dddd7-b6d5-4ce7-b0cc-11c99bc21e50","ios":"levelo://app?vid=613dddd7-b6d5-4ce7-b0cc-11c99bc21e50"},"vehicle_type_id":"4","last_reported":1728029538,"current_range_meters":33200,"station_id":"ce4bgrp2rcd13ifvqc9g","pricing_plan_id":"cebpf4jnsgd1na2vs0mg"},{"bike_id":"abedcaca-ce9a-464c-8437-8a94d42dcb16","system_id":"levelo_inurba_marseille","lat":43.29838,"lon":5.36266,"is_reserved":false,"is_disabled":false,"rental_uris":{"android":"levelo://app?vid=abedcaca-ce9a-464c-8437-8a94d42dcb16","ios":"levelo://app?vid=abedcaca-ce9a-464c-8437-8a94d42dcb16"},"vehicle_type_id":"4","last_reported":1728029538,"current_range_meters":20800,"station_id":"ce4bgpp2rcd13ifvqc3g","pricing_plan_id":"cebpf4jnsgd1na2vs0mg"},