{"last_updated":1751462740,"ttl":60,"version":"2.2","data":{"bikes":[{"bike_id":"3da29fb8-fc97-44c6-b9ac-31dd456b2fd4","system_id":"levelo_inurba_marseille","lat":43.33771,"lon":5.37424,"is_reserved":false,"is_disabled":true,"rental_uris":{"android":"levelo://app?vid=3da29fb8-fc97-44c6-b9ac-31dd456b2fd4","ios":"levelo://app?vid=3da29fb8-fc97-44c6-b9ac-31dd456b2fd4"},"vehicle_type_id":"4","last_reported":1751462740,"current_range_meters":0,"station_id":"","pricing_plan_id":"cebpf4jnsgd1na2vs0mg"},{"bike_id":"01861ad8-a8d7-4be6-816e-651927c87584","system_id":"levelo_inurba_marseille","lat":43.33751,"lon":5.37456,"is_reserved":false,"is_disabled":true,"rental_uris":{"android":"levelo://app?vid=01861ad8-a8d7-4be6-816e-651927c87584","ios":"levelo://app?vid=01861ad8-a8d7-4be6-816e-651927c87584"},"vehicle_type_id":"4","last_reported":1751462740,"current_range_meters":0,"station_id":"","pricing_plan_id":"cebpf4jnsgd1na2vs0mg"},{"bike_id":"27fdfbcb-5877-48ab-8723-fb848363aae5","system_id":"levelo_inurba_marseille","lat":43.29186,"lon":5.39316,"is_reserved":false,"is_disabled":true,"rental_uris":{"android":"levelo://app?vid=27fdfbcb-5877-48ab-8723-fb848363aae5","ios":"levelo://app?vid=27fdfbcb-5877-48ab-8723-fb848363aae5"},"vehicle_type_id":"4","last_reported":1751462740,"current_range_meters":0,"station_id":"ce4bh192rcd13ifvqdd0","pricing_plan_id":"cebpf4jnsgd1na2vs0mg"},{"bike_id":"f9ad37d1-faeb-430a-8d26-daed144ddba1","system_id":"levelo_inurba_marseille","lat":43.29278,"lon":5.40115,"is_reserved":false,"is_disabled":true,"rental_uris":{"android":"levelo://app?vid=f9ad37d1-faeb-430a-8d26-daed144ddba1","ios":"levelo://app?vid=f9ad37d1-faeb-430a-8d26-daed144ddba1"},"vehicle_type_id":"4","last_reported":1751462740,"current_range_meters":0,"station_id":"ce4bh312rcd13ifvqdk0","pricing_plan_id":"cebpf4jnsgd1na2vs0mg"},{"bike_id":"4ee72c18-cc7c-4a4b-91e4-b8e96d465639","system_id":"levelo_inurba_marseille","lat":43.24663,"lon":5.3816,"is_reserved":false,"is_disabled":true,"rental_uris":{"android":"levelo://app?vid=4ee72c18-cc7c-4a4b-91e4-b8e96d465639","ios":"levelo://app?vid=4ee72c18-cc7c-4a4b-91e4-b8e96d465639"},"vehicle_type_id":"4","last_reported":1751462740,"current_range_meters":0,"station_id":"ce4bhih2rcd13ifvqfr0","pricing_plan_id":"cebpf4jnsgd1na2vs0mg"},{"bike_id":"d5b16757-b09e-4652-a1cd-cbe958a9740c","system_id":"levelo_inurba_marseille","lat":43.23155,"lon":5.43775,"is_reserved":false,"is_disabled":true,"rental_uris":{"android":"levelo://app?vid=d5b16757-b09e-4652-a1cd-cbe958a9740c","ios":"levelo://app?vid=d5b16757-b09e-4652-a1cd-cbe958a9740c"},"vehicle_type_id":"4","last_reported":1751462740,"current_range_meters":0,"station_id":"ce4bhmp2rcd13ifvqgog","pricing_plan_id":"cebpf4jnsgd1na2vs0mg"},{"bike_id":"9e9d49bf-1ce1-42f3-850f-8cc2bf364bdd","system_id":"levelo_inurba_marseille","lat":43.31082,"lon":5.42434,"is_reserved":false,"is_disabled":true,"rental_uris":{"android":"levelo://app?vid=9e9d49bf-1ce1-42f3-850f-8cc2bf364bdd","ios":"levelo://app?vid=9e9d49bf-1ce1-42f3-850f-8cc2bf364bdd"},"vehicle_type_id":"4","last_reported":1751462740,"current_range_meters":0,"station_id":"ce4bhp92rcd13ifvqhag","pricing_plan_id":"cebpf4jnsgd1na2vs0mg"},{"bike_id":"2b79eac2-8d7f-455a-ab7b-57d1965acf5f","system_id":"levelo_inurba_marseille","lat":43.32007,"lon":5.38119,"is_reserved":false,"is_disabled":true,"rental_uris":{"android":"levelo://app?vid=2b79eac2-8d7f-455a-ab7b-57d1965acf5f","ios":"levelo://app?vid=2b79eac2-8d7f-455a-ab7b-57d1965acf5f"},"vehicle_type_id":"4","last_reported":1751462740,"current_range_meters":0,"station_id":"ce4bhr12rcd13ifvqhpg","pricing_plan_id":"cebpf4jnsgd1na2vs0mg"},{"bike_id":"0e084fe4-300b-4d4b-ae6f-d2a59ff312e0","system_id":"levelo_inurba_marseille","lat":43.26193,"lon":5.3745,"is_reserved":false,"is_disabled":true,"rental_uris":{"android":"levelo://app?vid=0e084fe4-300b-4d4b-ae6f-d2a59ff312e0","ios":"levelo://app?vid=0e084fe4-300b-4d4b-ae6f-d2a59ff312e0"},"vehicle_type_id":"4","last_reported":1751462740,"current_range_meters":400,"station_id":"ce4bhgp2rcd13ifvqfc0","pricing_plan_id":"cebpf4jnsgd1na2vs0mg"},{"bike_id":"5736d3b1-7298-4471-a99d-f5bb0a7e8852","system_id":"levelo_inurba_marseille","lat":43.25741,"lon":5.38309,"is_reserved":false,"is_disabled":true,"rental_uris":{"android":"levelo://app?vid=5736d3b1-7298-4471-a99d-f5bb0a7e8852","ios":"levelo://app?vid=5736d3b1-7298-4471-a99d-f5bb0a7e8852"},"vehicle_type_id":"4","last_reported":1751462740,"current_range_meters":800,"station_id":"","pricing_plan_id":"cebpf4jnsgd1na2vs0mg"},{"bike_id":"162af4e6-d224-4240-aeac-6cb0ae06de53","system_id":"levelo_inurba_marseille","lat":43.29915,"lon":5.37867,"is_reserved":false,"is_disabled":true,"rental_uris":{"android":"levelo://app?vid=162af4e6-d224-4240-aeac-6cb0ae06de53","ios":"levelo://app?vid=162af4e6-d224-4240-aeac-6cb0ae06de53"},"vehicle_type_id":"4","last_reported":1751462740,"current_range_meters":800,"station_id":"","pricing_plan_id":"cebpf4jnsgd1na2vs0mg"},{"bike_id":"f1455812-0bba-4396-94dd-6da0df1c3810","system_id":"levelo_inurba_marseille","lat":43.29306,"lon":5.3718,"is_reserved":false,"is_disabled":true,"rental_uris":{"android":"levelo://app?vid=f1455812-0bba-4396-94dd-6da0df1c3810","ios":"levelo://app?vid=f1455812-0bba-4396-94dd-6da0df1c3810"},"vehicle_type_id":"4","last_reported":1751462740,"current_range_meters":800,"station_id":"ce4bgh92rcd13ifvqb40","pricing_plan_id":"cebpf4jnsgd1na2vs0mg"},{"bike_id":"c5de9a0a-415e-46b9-8593-0f9be54d492d","system_id":"levelo_inurba_marseille","lat":43.28406,"lon":5.3498,"is_reserved":false,"is_disabled":true,"rental_uris":{"android":"levelo://app?vid=c5de9a0a-415e-46b9-8593-0f9be54d492d","ios":"levelo://app?vid=c5de9a0a-415e-46b9-8593-0f9be54d492d"},"vehicle_type_id":"4","last_reported":1751462740,"current_range_meters":800,"station_id":"ce4bhbh2rcd13ifvqepg","pricing_plan_id":"cebpf4jnsgd1na2vs0mg"},{"bike_id":"c84fcc22-4762-4973-9232-40bbf0f07602","system_id":"levelo_inurba_marseille","lat":43.29971,"lon":5.38492,"is_reserved":false,"is_disabled":true,"rental_uris":{"android":"levelo://app?vid=c84fcc22-4762-4973-9232-40bbf0f07602","ios":"levelo://app?vid=c84fcc22-4762-4973-9232-40bbf0f07602"},"vehicle_type_id":"4","last_reported":1751462740,"current_range_meters":1200,"station_id":"ce4bgj92rcd13ifvqbd0","pricing_plan_id":"cebpf4jnsgd1na2vs0mg"},{"bike_id":"51e4da25-20db-469c-89c5-e5da4e2a04dd","system_id":"levelo_inurba_marseille","lat":43.274233,"lon":5.394176,"is_reserved":false,"is_disabled":true,"rental_uris":{"android":"levelo://app?vid=51e4da25-20db-469c-89c5-e5da4e2a04dd","ios":"levelo://app?vid=51e4da25-20db-469c-89c5-e5da4e2a04dd"},"vehicle_type_id":"4","last_reported":1751462740,"current_range_meters":1200,"station_id":"ce4bhdp2rcd13ifvqf20","pricing_plan_id":"cebpf4jnsgd1na2vs0mg"},{"bike_id":"e4d1ad3b-8e7a-4ea7-be65-bd22f26cadb1","system_id":"levelo_inurba_marseille","lat":43.29973,"lon":5.37176,"is_reserved":false,"is_disabled":true,"rental_uris":{"android":"levelo://app?vid=e4d1ad3b-8e7a-4ea7-be65-bd22f26cadb1","ios":"levelo://app?vid=e4d1ad3b-8e7a-4ea7-be65-bd22f26cadb1"},"vehicle_type_id":"4","last_reported":1751462740,"current_range_meters":1600,"station_id":"ce4bgr92rcd13ifvqc7g","pricing_plan_id":"cebpf4jnsgd1na2vs0mg"},{"bike_id":"5c80977f-9354-4ef7-aed6-695a590010af","system_id":"levelo_inurba_marseille","lat":43.27406,"lon":5.36275,"is_reserved":false,"is_disabled":true,"rental_uris":{"android":"levelo://app?vid=5c80977f-9354-4ef7-aed6-695a590010af","ios":"levelo://app?vid=5c80977f-9354-4ef7-aed6-695a590010af"},"vehicle_type_id":"4","last_reported":1751462740,"current_range_meters":2000,"station_id":"ce4bhbh2rcd13ifvqeo0","pricing_plan_id":"cebpf4jnsgd1na2vs0mg"},{"bike_id":"e2430de9-cad6-49aa-b197-42b4e49ed754","system_id":"levelo_inurba_marseille","lat":43.26029,"lon":5.37548,"is_reserved":false,"is_disabled":true,"rental_uris":{"android":"levelo://app?vid=e2430de9-cad6-49aa-b197-42b4e49ed754","ios":"levelo://app?vid=e2430de9-cad6-49aa-b197-42b4e49ed754"},"vehicle_type_id":"4","last_reported":1751462740,"current_range_meters":2000,"station_id":"ce4bhgh2rcd13ifvqfa0","pricing_plan_id":"cebpf4jnsgd1na2vs0mg"},{"bike_id":"0e3bf4f5-fcbf-4c44-af42-055b2971e3aa","system_id":"levelo_inurba_marseille","lat":43.23155,"lon":5.437033,"is_reserved":false,"is_disabled":true,"rental_uris":{"android":"levelo://app?vid=0e3bf4f5-fcbf-4c44-af42-055b2971e3aa","ios":"levelo://app?vid=0e3bf4f5-fcbf-4c44-af42-055b2971e3aa"},"vehicle_type_id":"4","last_reported":1751462740,"current_range_meters":2000,"station_id":"ce4bhmp2rcd13ifvqgog","pricing_plan_id":"cebpf4jnsgd1na2vs0mg"},{"bike_id":"a359d22c-aa45-4d0b-a592-0b8cbe64c4a9","system_id":"levelo_inurba_marseille","lat":43.295295,"lon":5.37498,"is_reserved":false,"is_disabled":false,"rental_uris":{"android":"levelo://app?vid=a359d22c-aa45-4d0b-a592-0b8cbe64c4a9","ios":"levelo://app?vid=a359d22c-aa45-4d0b-a592-0b8cbe64c4a9"},"vehicle_type_id":"4","last_reported":1751462740,"current_range_meters":2800,"station_id":"ce4bgkp2rcd13ifvqbmg","pricing_plan_id":"cebpf4jnsgd1na2vs0mg"},{"bike_id":"97806c3c-d9b3-46c5-bab4-af9fef1f9edc","system_id":"levelo_inurba_marseille","lat":43.27381,"lon":5.36259,"is_reserved":false,"is_disabled":false,"rental_uris":{"android":"levelo://app?vid=97806c3c-d9b3-46c5-bab4-af9fef1f9edc","ios":"levelo://app?vid=97806c3c-d9b3-46c5-bab4-af9fef1f9edc"},"vehicle_type_id":"4","last_reported":1751462740,"current_range_meters":3200,"station_id":"ce4bhbh2rcd13ifvqeo0","pricing_plan_id":"cebpf4jnsgd1na2vs0mg"},{"bike_id":"f1746222-b136-472b-9a0c-bab128eb6521","system_id":"levelo_inurba_marseille","lat":43.3054,"lon":5.36557,"is_reserved":false,"is_disabled":false,"rental_uris":{"android":"levelo://app?vid=f1746222-b136-472b-9a0c-bab128eb6521","ios":"levelo://app?vid=f1746222-b136-472b-9a0c-bab128eb6521"},"vehicle_type_id":"4","last_reported":1751462740,"current_range_meters":3600,"station_id":"ce4bgs12rcd13ifvqcag","pricing_plan_id":"cebpf4jnsgd1na2vs0mg"},{"bike_id":"42f3d949-00fd-4d7e-9539-2f8024311d99","system_id":"levelo_inurba_marseille","lat":43.29418,"lon":5.38614,"is_reserved":false,"is_disabled":false,"rental_uris":{"android":"levelo://app?vid=42f3d949-00fd-4d7e-9539-2f8024311d99","ios":"levelo://app?vid=42f3d949-00fd-4d7e-9539-2f8024311d99"},"vehicle_type_id":"4","last_reported":1751462740,"current_range_meters":3600,"station_id":"ce4bh2h2rcd13ifvqdh0","pricing_plan_id":"cebpf4jnsgd1na2vs0mg"},{"bike_id":"f8499b99-1e67-4403-ae9b-865990bf3af5","system_id":"levelo_inurba_marseille","lat":43.28668,"lon":5.36351,"is_reserved":false,"is_disabled":false,"rental_uris":{"android":"levelo://app?vid=f8499b99-1e67-4403-ae9b-865990bf3af5","ios":"levelo://app?vid=f8499b99-1e67-4403-ae9b-865990bf3af5"},"vehicle_type_id":"4","last_reported":1751462740,"current_range_meters":3600,"station_id":"ce4bhah2rcd13ifvqej0","pricing_plan_id":"cebpf4jnsgd1na2vs0mg"},{"bike_id":"e6b39716-4cb9-4ccc-8b0b-fd664a5dbf93","system_id":"levelo_inurba_marseille","lat":43.2293,"lon":5.3538,"is_reserved":false,"is_disabled":false,"rental_uris":{"android":"levelo://app?vid=e6b39716-4cb9-4ccc-8b0b-fd664a5dbf93","ios":"levelo://app?vid=e6b39716-4cb9-4ccc-8b0b-fd664a5dbf93"},"vehicle_type_id":"4","last_reported":1751462740,"current_range_meters":3600,"station_id":"cpo3532slgdg3j2ikp40","pricing_plan_id":"cebpf4jnsgd1na2vs0mg"},{"bike_id":"4db9a883-dbe3-45c9-8e41-4d35989dea34","system_id":"levelo_inurba_marseille","lat":43.28702,"lon":5.37387,"is_reserved":false,"is_disabled":false,"rental_uris":{"android":"levelo://app?vid=4db9a883-dbe3-45c9-8e41-4d35989dea34","ios":"levelo://app?vid=4db9a883-dbe3-45c9-8e41-4d35989dea34"},"vehicle_type_id":"4","last_reported":1751462740,"current_range_meters":4000,"station_id":"ce4bh3p2rcd13ifvqdq0","pricing_plan_id":"cebpf4jnsgd1na2vs0mg"},{"bike_id":"0f7cc714-eabf-4cc7-a3de-c18bb487446a","system_id":"levelo_inurba_marseille","lat":43.28926,"lon":5.38403,"is_reserved":false,"is_disabled":false,"rental_uris":{"android":"levelo://app?vid=0f7cc714-eabf-4cc7-a3de-c18bb487446a","ios":"levelo://app?vid=0f7cc714-eabf-4cc7-a3de-c18bb487446a"},"vehicle_type_id":"4","last_reported":1751462740,"current_range_meters":4000,"station_id":"ce4bh612rcd13ifvqe6g","pricing_plan_id":"cebpf4jnsgd1na2vs0mg"},{"bike_id":"faba4c5b-7936-460e-9c5c-9fa05fb9bde1","system_id":"levelo_inurba_marseille","lat":43.28272,"lon":5.35041,"is_reserved":false,"is_disabled":false,"rental_uris":{"android":"levelo://app?vid=faba4c5b-7936-460e-9c5c-9fa05fb9bde1","ios":"levelo://app?vid=faba4c5b-7936-460e-9c5c-9fa05fb9bde1"},"vehicle_type_id":"4","last_reported":1751462740,"current_range_meters":4400,"station_id":"ce4bhbp2rcd13ifvqerg","pricing_plan_id":"cebpf4jnsgd1na2vs0mg"},{"bike_id":"4f8a10a3-a72f-4183-9879-7b678b704cef","system_id":"levelo_inurba_marseille","lat":43.28078,"lon":5.39664,"is_reserved":false,"is_disabled":false,"rental_uris":{"android":"levelo://app?vid=4f8a10a3-a72f-4183-9879-7b678b704cef","ios":"levelo://app?vid=4f8a10a3-a72f-4183-9879-7b678b704cef"},"vehicle_type_id":"4","last_reported":1751462740,"current_range_meters":4400,"station_id":"ce4bho12rcd13ifvqh2g","pricing_plan_id":"cebpf4jnsgd1na2vs0mg"},{"bike_id":"8252b44a-d048-4379-9209-2efa2e627825","system_id":"levelo_inurba_marseille","lat":43.2924,"lon":5.40579,"is_reserved":false,"is_disabled":false,"rental_uris":{"android":"levelo://app?vid=8252b44a-d048-4379-9209-2efa2e627825","ios":"levelo://app?vid=8252b44a-d048-4379-9209-2efa2e627825"},"vehicle_type_id":"4","last_reported":1751462740,"current_range_meters":5600,"station_id":"","pricing_plan_id":"cebpf4jnsgd1na2vs0mg"},{"bike_id":"3c190734-86c4-4564-94d0-c6ada9311af1","system_id":"levelo_inurba_marseille","lat":43.27372,"lon":5.36259,"is_reserved":false,"is_disabled":false,"rental_uris":{"android":"levelo://app?vid=3c190734-86c4-4564-94d0-c6ada9311af1","ios":"levelo://app?vid=3c190734-86c4-4564-94d0-c6ada9311af1"},"vehicle_type_id":"4","last_reported":1751462740,"current_range_meters":6000,"station_id":"ce4bhbh2rcd13ifvqeo0","pricing_plan_id":"cebpf4jnsgd1na2vs0mg"},{"bike_id":"bed56f4d-068c-4a72-b9a1-18809876c8f9","system_id":"levelo_inurba_marseille","lat":43.2841,"lon":5.34999,"is_reserved":false,"is_disabled":false,"rental_uris":{"android":"levelo://app?vid=bed56f4d-068c-4a72-b9a1-18809876c8f9","ios":"levelo://app?vid=bed56f4d-068c-4a72-b9a1-18809876c8f9"},"vehicle_type_id":"4","last_reported":1751462740,"current_range_meters":6000,"station_id":"ce4bhbh2rcd13ifvqepg","pricing_plan_id":"cebpf4jnsgd1na2vs0mg"},{"bike_id":"f674fd7c-2296-4cf1-8c8c-1d92cc3e6c0b","system_id":"levelo_inurba_marseille","lat":43.29792,"lon":5.38107,"is_reserved":false,"is_disabled":false,"rental_uris":{"android":"levelo://app?vid=f674fd7c-2296-4cf1-8c8c-1d92cc3e6c0b","ios":"levelo://app?vid=f674fd7c-2296-4cf1-8c8c-1d92cc3e6c0b"},"vehicle_type_id":"4","last_reported":1751462740,"current_range_meters":6400,"station_id":"ce4bgip2rcd13ifvqbb0","pricing_plan_id":"cebpf4jnsgd1na2vs0mg"},{"bike_id":"64c857a6-cd3d-44db-b4a8-f6df1f178078","system_id":"levelo_inurba_marseille","lat":43.3009,"lon":5.39077,"is_reserved":false,"is_disabled":false,"rental_uris":{"android":"levelo://app?vid=64c857a6-cd3d-44db-b4a8-f6df1f178078","ios":"levelo://app?vid=64c857a6-cd3d-44db-b4a8-f6df1f178078"},"vehicle_type_id":"4","last_reported":1751462740,"current_range_meters":6400,"station_id":"ce4bh192rcd13ifvqdb0","pricing_plan_id":"cebpf4jnsgd1na2vs0mg"},{"bike_id":"b9eac662-875e-4c89-b2d9-cb21b0ec9181","system_id":"levelo_inurba_marseille","lat":43.29636,"lon":5.37739,"is_reserved":false,"is_disabled":false,"rental_uris":{"android":"levelo://app?vid=b9eac662-875e-4c89-b2d9-cb21b0ec9181","ios":"levelo://app?vid=b9eac662-875e-4c89-b2d9-cb21b0ec9181"},"vehicle_type_id":"4","last_reported":1751462740,"current_range_meters":6800,"station_id":"ce4bgi92rcd13ifvqb90","pricing_plan_id":"cebpf4jnsgd1na2vs0mg"},{"bike_id":"389215a0-6487-455c-8a2d-d4a14c711bbc","system_id":"levelo_inurba_marseille","lat":43.30591,"lon":5.39356,"is_reserved":false,"is_disabled":false,"rental_uris":{"android":"levelo://app?vid=389215a0-6487-455c-8a2d-d4a14c711bbc","ios":"levelo://app?vid=389215a0-6487-455c-8a2d-d4a14c711bbc"},"vehicle_type_id":"4","last_reported":1751462740,"current_range_meters":6800,"station_id":"ce4bh0p2rcd13ifvqd80","pricing_plan_id":"cebpf4jnsgd1na2vs0mg"},{"bike_id":"45582d1e-a5bd-4941-81fd-b880af7c3844","system_id":"levelo_inurba_marseille","lat":43.24795,"lon":5.37457,"is_reserved":false,"is_disabled":false,"rental_uris":{"android":"levelo://app?vid=45582d1e-a5bd-4941-81fd-b880af7c3844","ios":"levelo://app?vid=45582d1e-a5bd-4941-81fd-b880af7c3844"},"vehicle_type_id":"4","last_reported":1751462740,"current_range_meters":7200,"station_id":"ce4bhgh2rcd13ifvqfb0","pricing_plan_id":"cebpf4jnsgd1na2vs0mg"},{"bike_id":"39c383d3-0f43-484e-904a-440da63afe96","system_id":"levelo_inurba_marseille","lat":43.26208,"lon":5.37441,"is_reserved":false,"is_disabled":false,"rental_uris":{"android":"levelo://app?vid=39c383d3-0f43-484e-904a-440da63afe96","ios":"levelo://app?vid=39c383d3-0f43-484e-904a-440da63afe96"},"vehicle_type_id":"4","last_reported":1751462740,"current_range_meters":8000,"station_id":"ce4bhgp2rcd13ifvqfc0","pricing_plan_id":"cebpf4jnsgd1na2vs0mg"},{"bike_id":"5d03f6f9-02b1-4c3f-9c4a-7326b021509b","system_id":"levelo_inurba_marseille","lat":43.301735,"lon":5.382938,"is_reserved":false,"is_disabled":false,"rental_uris":{"android":"levelo://app?vid=5d03f6f9-02b1-4c3f-9c4a-7326b021509b","ios":"levelo://app?vid=5d03f6f9-02b1-4c3f-9c4a-7326b021509b"},"vehicle_type_id":"4","last_reported":1751462740,"current_range_meters":8400,"station_id":"ce4bgjp2rcd13ifvqbh0","pricing_plan_id":"cebpf4jnsgd1na2vs0mg"},{"bike_id":"c2b72fe0-bae6-4c7b-ad48-9e771b203dc8","system_id":"levelo_inurba_marseille","lat":43.313528,"lon":5.38465,"is_reserved":false,"is_disabled":false,"rental_uris":{"android":"levelo://app?vid=c2b72fe0-bae6-4c7b-ad48-9e771b203dc8","ios":"levelo://app?vid=c2b72fe0-bae6-4c7b-ad48-9e771b203dc8"},"vehicle_type_id":"4","last_reported":1751462740,"current_range_meters":8400,"station_id":"ce4bgt92rcd13ifvqcf0","pricing_plan_id":"cebpf4jnsgd1na2vs0mg"},{"bike_id":"19febe45-dc04-4d7d-8ed1-2b08645ce9f1","system_id":"levelo_inurba_marseille","lat":43.30432,"lon":5.39765,"is_reserved":false,"is_disabled":false,"rental_uris":{"android":"levelo://app?vid=19febe45-dc04-4d7d-8ed1-2b08645ce9f1","ios":"levelo://app?vid=19febe45-dc04-4d7d-8ed1-2b08645ce9f1"},"vehicle_type_id":"4","last_reported":1751462740,"current_range_meters":8400,"station_id":"ce4bh092rcd13ifvqd20","pricing_plan_id":"cebpf4jnsgd1na2vs0mg"},{"bike_id":"ca6ed760-ae64-44e1-87e2-0634a650ddff","system_id":"levelo_inurba_marseille","lat":43.28687,"lon":5.37945,"is_reserved":false,"is_disabled":false,"rental_uris":{"android":"levelo://app?vid=ca6ed760-ae64-44e1-87e2-0634a650ddff","ios":"levelo://app?vid=ca6ed760-ae64-44e1-87e2-0634a650ddff"},"vehicle_type_id":"4","last_reported":1751462740,"current_range_meters":8400,"station_id":"ce4bh9p2rcd13ifvqec0","pricing_plan_id":"cebpf4jnsgd1na2vs0mg"},{"bike_id":"773cea54-856b-4d25-abe7-3ea836511391","system_id":"levelo_inurba_marseille","lat":43.27375,"lon":5.36258,"is_reserved":false,"is_disabled":false,"rental_uris":{"android":"levelo://app?vid=773cea54-856b-4d25-abe7-3ea836511391","ios":"levelo://app?vid=773cea54-856b-4d25-abe7-3ea836511391"},"vehicle_type_id":"4","last_reported":1751462740,"current_range_meters":8400,"station_id":"ce4bhbh2rcd13ifvqeo0","pricing_plan_id":"cebpf4jnsgd1na2vs0mg"},{"bike_id":"f4096df9-9a50-4893-821c-b524752b296f","system_id":"levelo_inurba_marseille","lat":43.30909,"lon":5.36848,"is_reserved":false,"is_disabled":false,"rental_uris":{"android":"levelo://app?vid=f4096df9-9a50-4893-821c-b524752b296f","ios":"levelo://app?vid=f4096df9-9a50-4893-821c-b524752b296f"},"vehicle_type_id":"4","last_reported":1751462740,"current_range_meters":8800,"station_id":"ce4bgn92rcd13ifvqbvg","pricing_plan_id":"cebpf4jnsgd1na2vs0mg"},{"bike_id":"e207e65e-332d-42dd-bafa-9763ec9eb92c","system_id":"levelo_inurba_marseille","lat":43.27377,"lon":5.3626,"is_reserved":false,"is_disabled":false,"rental_uris":{"android":"levelo://app?vid=e207e65e-332d-42dd-bafa-9763ec9eb92c","ios":"levelo://app?vid=e207e65e-332d-42dd-bafa-9763ec9eb92c"},"vehicle_type_id":"4","last_reported":1751462740,"current_range_meters":8800,"station_id":"ce4bhbh2rcd13ifvqeo0","pricing_plan_id":"cebpf4jnsgd1na2vs0mg"},{"bike_id":"a7b47662-cb98-4563-926b-a65fe6585acf","system_id":"levelo_inurba_marseille","lat":43.305335,"lon":5.384217,"is_reserved":false,"is_disabled":false,"rental_uris":{"android":"levelo://app?vid=a7b47662-cb98-4563-926b-a65fe6585acf","ios":"levelo://app?vid=a7b47662-cb98-4563-926b-a65fe6585acf"},"vehicle_type_id":"4","last_reported":1751462740,"current_range_meters":9200,"station_id":"ce4bgg92rcd13ifvqb30","pricing_plan_id":"cebpf4jnsgd1na2vs0mg"},{"bike_id":"471769d9-3f22-4fd4-ad6c-a8e34f11dc0c","system_id":"levelo_inurba_marseille","lat":43.27373,"lon":5.36257,"is_reserved":false,"is_disabled":false,"rental_uris":{"android":"levelo://app?vid=471769d9-3f22-4fd4-ad6c-a8e34f11dc0c","ios":"levelo://app?vid=471769d9-3f22-4fd4-ad6c-a8e34f11dc0c"},"vehicle_type_id":"4","last_reported":1751462740,"current_range_meters":9200,"station_id":"ce4bhbh2rcd13ifvqeo0","pricing_plan_id":"cebpf4jnsgd1na2vs0mg"},{"bike_id":"c31c3d80-84bc-4b96-9489-d58dbccf13d9","system_id":"levelo_inurba_marseille","lat":43.2843,"lon":5.39194,"is_reserved":false,"is_disabled":false,"rental_uris":{"android":"levelo://app?vid=c31c3d80-84bc-4b96-9489-d58dbccf13d9","ios":"levelo://app?vid=c31c3d80-84bc-4b96-9489-d58dbccf13d9"},"vehicle_type_id":"4","last_reported":1751462740,"current_range_meters":9200,"station_id":"ce4bhoh2rcd13ifvqh5g","pricing_plan_id":"cebpf4jnsgd1na2vs0mg"},{"bike_id":"b17fc6fb-d31b-4c72-91dd-f8e10ff9036a","system_id":"levelo_inurba_marseille","lat":43.32497,"lon":5.36557,"is_reserved":false,"is_disabled":false,"rental_uris":{"android":"levelo://app?vid=b17fc6fb-d31b-4c72-91dd-f8e10ff9036a","ios":"levelo://app?vid=b17fc6fb-d31b-4c72-91dd-f8e10ff9036a"},"vehicle_type_id":"4","last_reported":1751462740,"current_range_meters":9200,"station_id":"ce4bhs12rcd13ifvqhvg","pricing_plan_id":"cebpf4jnsgd1na2vs0mg"},{"bike_id":"42afa753-4c50-4abf-8a61-330de2057e90","system_id":"levelo_inurba_marseille","lat":43.29783,"lon":5.39342,"is_reserved":false,"is_disabled":false,"rental_uris":{"android":"levelo://app?vid=42afa753-4c50-4abf-8a61-330de2057e90","ios":"levelo://app?vid=42afa753-4c50-4abf-8a61-330de2057e90"},"vehicle_type_id":"4","last_reported":1751462740,"current_range_meters":9200,"station_id":"chh1huq6cuj3fo74tm60","pricing_plan_id":"cebpf4jnsgd1na2vs0mg"},{"bike_id":"c60f5e9d-2bb7-4b07-bd18-bd400d9e6468","system_id":"levelo_inurba_marseille","lat":43.29847,"lon":5.36297,"is_reserved":false,"is_disabled":false,"rental_uris":{"android":"levelo://app?vid=c60f5e9d-2bb7-4b07-bd18-bd400d9e6468","ios":"levelo://app?vid=c60f5e9d-2bb7-4b07-bd18-bd400d9e6468"},"vehicle_type_id":"4","last_reported":1751462740,"current_range_meters":9600,"station_id":"ce4bgpp2rcd13ifvqc3g","pricing_plan_id":"cebpf4jnsgd1na2vs0mg"},{"bike_id":"0c2d1fc5-6569-4f10-bcab-cbd0c9e0f800","system_id":"levelo_inurba_marseille","lat":43.30093,"lon":5.39067,"is_reserved":false,"is_disabled":false,"rental_uris":{"android":"levelo://app?vid=0c2d1fc5-6569-4f10-bcab-cbd0c9e0f800","ios":"levelo://app?vid=0c2d1fc5-6569-4f10-bcab-cbd0c9e0f800"},"vehicle_type_id":"4","last_reported":1751462740,"current_range_meters":9600,"station_id":"ce4bh192rcd13ifvqdb0","pricing_plan_id":"cebpf4jnsgd1na2vs0mg"},{"bike_id":"18308e5f-e2a4-4bc9-bbaa-a2549b83ae0b","system_id":"levelo_inurba_marseille","lat":43.28493,"lon":5.38572,"is_reserved":false,"is_disabled":false,"rental_uris":{"android":"levelo://app?vid=18308e5f-e2a4-4bc9-bbaa-a2549b83ae0b","ios":"levelo://app?vid=18308e5f-e2a4-4bc9-bbaa-a2549b83ae0b"},"vehicle_type_id":"4","last_reported":1751462740,"current_range_meters":9600,"station_id":"ce4bh8p2rcd13ifvqeb0","pricing_plan_id":"cebpf4jnsgd1na2vs0mg"},{"bike_id":"670116e4-1922-4884-8c8a-6422d295f41e","system_id":"levelo_inurba_marseille","lat":43.27378,"lon":5.36253,"is_reserved":false,"is_disabled":false,"rental_uris":{"android":"levelo://app?vid=670116e4-1922-4884-8c8a-6422d295f41e","ios":"levelo://app?vid=670116e4-1922-4884-8c8a-6422d295f41e"},"vehicle_type_id":"4","last_reported":1751462740,"current_range_meters":9600,"station_id":"ce4bhbh2rcd13ifvqeo0","pricing_plan_id":"cebpf4jnsgd1na2vs0mg"},{"bike_id":"f99dc655-8720-47ee-871b-078223ed5d27","system_id":"levelo_inurba_marseille","lat":43.27838,"lon":5.39211,"is_reserved":false,"is_disabled":false,"rental_uris":{"android":"levelo://app?vid=f99dc655-8720-47ee-871b-078223ed5d27","ios":"levelo://app?vid=f99dc655-8720-47ee-871b-078223ed5d27"},"vehicle_type_id":"4","last_reported":1751462740,"current_range_meters":9600,"station_id":"ce4bhjp2rcd13ifvqga0","pricing_plan_id":"cebpf4jnsgd1na2vs0mg"},{"bike_id":"0b74faa0-1312-4d3d-9966-739eabbbc6ef","system_id":"levelo_inurba_marseille","lat":43.29795,"lon":5.371,"is_reserved":false,"is_disabled":false,"rental_uris":{"android":"levelo://app?vid=0b74faa0-1312-4d3d-9966-739eabbbc6ef","ios":"levelo://app?vid=0b74faa0-1312-4d3d-9966-739eabbbc6ef"},"vehicle_type_id":"4","last_reported":1751462740,"current_range_meters":10000,"station_id":"ce4bgop2rcd13ifvqc1g","pricing_plan_id":"cebpf4jnsgd1na2vs0mg"},{"bike_id":"0922327e-5503-4597-8f4d-d4163d6c6738","system_id":"levelo_inurba_marseille","lat":43.30949,"lon":5.39033,"is_reserved":false,"is_disabled":false,"rental_uris":{"android":"levelo://app?vid=0922327e-5503-4597-8f4d-d4163d6c6738","ios":"levelo://app?vid=0922327e-5503-4597-8f4d-d4163d6c6738"},"vehicle_type_id":"4","last_reported":1751462740,"current_range_meters":10000,"station_id":"ce4bgup2rcd13ifvqco0","pricing_plan_id":"cebpf4jnsgd1na2vs0mg"},{"bike_id":"c61036a9-1a66-4480-8bd4-cd2fb585b287","system_id":"levelo_inurba_marseille","lat":43.269895,"lon":5.405623,"is_reserved":false,"is_disabled":false,"rental_uris":{"android":"levelo://app?vid=c61036a9-1a66-4480-8bd4-cd2fb585b287","ios":"levelo://app?vid=c61036a9-1a66-4480-8bd4-cd2fb585b287"},"vehicle_type_id":"4","last_reported":1751462740,"current_range_meters":10800,"station_id":"","pricing_plan_id":"cebpf4jnsgd1na2vs0mg"},{"bike_id":"d9cb0768-8f3f-48ef-9bc6-a692aabdf0be","system_id":"levelo_inurba_marseille","lat":43.2958,"lon":5.36738,"is_reserved":false,"is_disabled":false,"rental_uris":{"android":"levelo://app?vid=d9cb0768-8f3f-48ef-9bc6-a692aabdf0be","ios":"levelo://app?vid=d9cb0768-8f3f-48ef-9bc6-a692aabdf0be"},"vehicle_type_id":"4","last_reported":1751462740,"current_range_meters":10800,"station_id":"ce4bgph2rcd13ifvqc2g","pricing_plan_id":"cebpf4jnsgd1na2vs0mg"},{"bike_id":"ae70686e-eb27-42da-a593-b59818a4b8cf","system_id":"levelo_inurba_marseille","lat":43.30679,"lon":5.4007,"is_reserved":false,"is_disabled":false,"rental_uris":{"android":"levelo://app?vid=ae70686e-eb27-42da-a593-b59818a4b8cf","ios":"levelo://app?vid=ae70686e-eb27-42da-a593-b59818a4b8cf"},"vehicle_type_id":"4","last_reported":1751462740,"current_range_meters":11200,"station_id":"ce4bh112rcd13ifvqda0","pricing_plan_id":"cebpf4jnsgd1na2vs0mg"},{"bike_id":"e943da54-3501-401d-992b-b15d62930450","system_id":"levelo_inurba_marseille","lat":43.27376,"lon":5.36268,"is_reserved":false,"is_disabled":false,"rental_uris":{"android":"levelo://app?vid=e943da54-3501-401d-992b-b15d62930450","ios":"levelo://app?vid=e943da54-3501-401d-992b-b15d62930450"},"vehicle_type_id":"4","last_reported":1751462740,"current_range_meters":11200,"station_id":"ce4bhbh2rcd13ifvqeo0","pricing_plan_id":"cebpf4jnsgd1na2vs0mg"},{"bike_id":"547281c2-b2c3-4277-b095-5b91b7140ff4","system_id":"levelo_inurba_marseille","lat":43.28411,"lon":5.35003,"is_reserved":false,"is_disabled":false,"rental_uris":{"android":"levelo://app?vid=547281c2-b2c3-4277-b095-5b91b7140ff4","ios":"levelo://app?vid=547281c2-b2c3-4277-b095-5b91b7140ff4"},"vehicle_type_id":"4","last_reported":1751462740,"current_range_meters":11200,"station_id":"ce4bhbh2rcd13ifvqepg","pricing_plan_id":"cebpf4jnsgd1na2vs0mg"},{"bike_id":"50bf492e-80c1-4ce5-aa6b-cb980ed9c56b","system_id":"levelo_inurba_marseille","lat":43.24659,"lon":5.38164,"is_reserved":false,"is_disabled":false,"rental_uris":{"android":"levelo://app?vid=50bf492e-80c1-4ce5-aa6b-cb980ed9c56b","ios":"levelo://app?vid=50bf492e-80c1-4ce5-aa6b-cb980ed9c56b"},"vehicle_type_id":"4","last_reported":1751462740,"current_range_meters":11200,"station_id":"ce4bhih2rcd13ifvqfr0","pricing_plan_id":"cebpf4jnsgd1na2vs0mg"},{"bike_id":"5ea1dd93-3c49-4f8f-bb7f-00d3c982b0ae","system_id":"levelo_inurba_marseille","lat":43.22926,"lon":5.35385,"is_reserved":false,"is_disabled":false,"rental_uris":{"android":"levelo://app?vid=5ea1dd93-3c49-4f8f-bb7f-00d3c982b0ae","ios":"levelo://app?vid=5ea1dd93-3c49-4f8f-bb7f-00d3c982b0ae"},"vehicle_type_id":"4","last_reported":1751462740,"current_range_meters":11200,"station_id":"cpo3532slgdg3j2ikp40","pricing_plan_id":"cebpf4jnsgd1na2vs0mg"},{"bike_id":"8b061ec8-e184-4613-9d61-7df20951b3ff","system_id":"levelo_inurba_marseille","lat":43.29168,"lon":5.37157,"is_reserved":false,"is_disabled":false,"rental_uris":{"android":"levelo://app?vid=8b061ec8-e184-4613-9d61-7df20951b3ff","ios":"levelo://app?vid=8b061ec8-e184-4613-9d61-7df20951b3ff"},"vehicle_type_id":"4","last_reported":1751462740,"current_range_meters":11600,"station_id":"ce4bha92rcd13ifvqeh0","pricing_plan_id":"cebpf4jnsgd1na2vs0mg"},{"bike_id":"866060ef-85cb-4809-9ff5-4426ac515ff0","system_id":"levelo_inurba_marseille","lat":43.28412,"lon":5.35026,"is_reserved":false,"is_disabled":false,"rental_uris":{"android":"levelo://app?vid=866060ef-85cb-4809-9ff5-4426ac515ff0","ios":"levelo://app?vid=866060ef-85cb-4809-9ff5-4426ac515ff0"},"vehicle_type_id":"4","last_reported":1751462740,"current_range_meters":11600,"station_id":"ce4bhbh2rcd13ifvqepg","pricing_plan_id":"cebpf4jnsgd1na2vs0mg"},{"bike_id":"7162ef69-1564-49b0-bd4d-645d806c80fc","system_id":"levelo_inurba_marseille","lat":43.28615,"lon":5.35103,"is_reserved":false,"is_disabled":false,"rental_uris":{"android":"levelo://app?vid=7162ef69-1564-49b0-bd4d-645d806c80fc","ios":"levelo://app?vid=7162ef69-1564-49b0-bd4d-645d806c80fc"},"vehicle_type_id":"4","last_reported":1751462740,"current_range_meters":11600,"station_id":"ce4bhch2rcd13ifvqeug","pricing_plan_id":"cebpf4jnsgd1na2vs0mg"},{"bike_id":"0391a4ba-c6c1-4e5c-973a-1ca341a093ba","system_id":"levelo_inurba_marseille","lat":43.28076,"lon":5.39656,"is_reserved":false,"is_disabled":false,"rental_uris":{"android":"levelo://app?vid=0391a4ba-c6c1-4e5c-973a-1ca341a093ba","ios":"levelo://app?vid=0391a4ba-c6c1-4e5c-973a-1ca341a093ba"},"vehicle_type_id":"4","last_reported":1751462740,"current_range_meters":11600,"station_id":"ce4bho12rcd13ifvqh2g","pricing_plan_id":"cebpf4jnsgd1na2vs0mg"},{"bike_id":"d84e0b68-9121-4b71-b785-5aa8eebd92f5","system_id":"levelo_inurba_marseille","lat":43.29681,"lon":5.37299,"is_reserved":false,"is_disabled":false,"rental_uris":{"android":"levelo://app?vid=d84e0b68-9121-4b71-b785-5aa8eebd92f5","ios":"levelo://app?vid=d84e0b68-9121-4b71-b785-5aa8eebd92f5"},"vehicle_type_id":"4","last_reported":1751462740,"current_range_meters":12000,"station_id":"ce4bgk12rcd13ifvqbj0","pricing_plan_id":"cebpf4jnsgd1na2vs0mg"},{"bike_id":"1a449d00-923c-4c57-9f45-569ed82c47a3","system_id":"levelo_inurba_marseille","lat":43.28482,"lon":5.38558,"is_reserved":false,"is_disabled":false,"rental_uris":{"android":"levelo://app?vid=1a449d00-923c-4c57-9f45-569ed82c47a3","ios":"levelo://app?vid=1a449d00-923c-4c57-9f45-569ed82c47a3"},"vehicle_type_id":"4","last_reported":1751462740,"current_range_meters":12000,"station_id":"ce4bh8p2rcd13ifvqeb0","pricing_plan_id":"cebpf4jnsgd1na2vs0mg"},{"bike_id":"a9a9aa17-8fb5-46d1-b401-bf09cd91bfc2","system_id":"levelo_inurba_marseille","lat":43.28266,"lon":5.35071,"is_reserved":false,"is_disabled":false,"rental_uris":{"android":"levelo://app?vid=a9a9aa17-8fb5-46d1-b401-bf09cd91bfc2","ios":"levelo://app?vid=a9a9aa17-8fb5-46d1-b401-bf09cd91bfc2"},"vehicle_type_id":"4","last_reported":1751462740,"current_range_meters":12000,"station_id":"ce4bhbp2rcd13ifvqerg","pricing_plan_id":"cebpf4jnsgd1na2vs0mg"},{"bike_id":"ef2a9d22-ac55-4d9c-9fce-10c22b5687e2","system_id":"levelo_inurba_marseille","lat":43.29969,"lon":5.38487,"is_reserved":false,"is_disabled":false,"rental_uris":{"android":"levelo://app?vid=ef2a9d22-ac55-4d9c-9fce-10c22b5687e2","ios":"levelo://app?vid=ef2a9d22-ac55-4d9c-9fce-10c22b5687e2"},"vehicle_type_id":"4","last_reported":1751462740,"current_range_meters":12400,"station_id":"ce4bgj92rcd13ifvqbd0","pricing_plan_id":"cebpf4jnsgd1na2vs0mg"},{"bike_id":"4e10570e-e278-43eb-acf0-f81d0d1d021b","system_id":"levelo_inurba_marseille","lat":43.26553,"lon":5.37279,"is_reserved":false,"is_disabled":false,"rental_uris":{"android":"levelo://app?vid=4e10570e-e278-43eb-acf0-f81d0d1d021b","ios":"levelo://app?vid=4e10570e-e278-43eb-acf0-f81d0d1d021b"},"vehicle_type_id":"4","last_reported":1751462740,"current_range_meters":12400,"station_id":"ce4bhg12rcd13ifvqf70","pricing_plan_id":"cebpf4jnsgd1na2vs0mg"},{"bike_id":"f18de023-b1e4-493a-8d26-e55a540b0ae0","system_id":"levelo_inurba_marseille","lat":43.24807,"lon":5.37456,"is_reserved":false,"is_disabled":false,"rental_uris":{"android":"levelo://app?vid=f18de023-b1e4-493a-8d26-e55a540b0ae0","ios":"levelo://app?vid=f18de023-b1e4-493a-8d26-e55a540b0ae0"},"vehicle_type_id":"4","last_reported":1751462740,"current_range_meters":12400,"station_id":"ce4bhgh2rcd13ifvqfb0","pricing_plan_id":"cebpf4jnsgd1na2vs0mg"},{"bike_id":"4084f74f-6ce9-418a-a03d-35e35724564c","system_id":"levelo_inurba_marseille","lat":43.31067,"lon":5.38363,"is_reserved":false,"is_disabled":false,"rental_uris":{"android":"levelo://app?vid=4084f74f-6ce9-418a-a03d-35e35724564c","ios":"levelo://app?vid=4084f74f-6ce9-418a-a03d-35e35724564c"},"vehicle_type_id":"4","last_reported":1751462740,"current_range_meters":12800,"station_id":"ce4bgv92rcd13ifvqcr0","pricing_plan_id":"cebpf4jnsgd1na2vs0mg"},{"bike_id":"3b7e5995-257f-4e07-b1ef-a167ccb3ca7e","system_id":"levelo_inurba_marseille","lat":43.28036,"lon":5.36941,"is_reserved":false,"is_disabled":false,"rental_uris":{"android":"levelo://app?vid=3b7e5995-257f-4e07-b1ef-a167ccb3ca7e","ios":"levelo://app?vid=3b7e5995-257f-4e07-b1ef-a167ccb3ca7e"},"vehicle_type_id":"4","last_reported":1751462740,"current_range_meters":12800,"station_id":"ce4bha12rcd13ifvqef0","pricing_plan_id":"cebpf4jnsgd1na2vs0mg"},{"bike_id":"410818c9-986d-48cf-9395-f2167db1d408","system_id":"levelo_inurba_marseille","lat":43.28405,"lon":5.3499,"is_reserved":false,"is_disabled":false,"rental_uris":{"android":"levelo://app?vid=410818c9-986d-48cf-9395-f2167db1d408","ios":"levelo://app?vid=410818c9-986d-48cf-9395-f2167db1d408"},"vehicle_type_id":"4","last_reported":1751462740,"current_range_meters":12800,"station_id":"ce4bhbh2rcd13ifvqepg","pricing_plan_id":"cebpf4jnsgd1na2vs0mg"},{"bike_id":"c1b44335-2c20-4553-bd77-28e1455d1cb8","system_id":"levelo_inurba_marseille","lat":43.28611,"lon":5.35103,"is_reserved":false,"is_disabled":false,"rental_uris":{"android":"levelo://app?vid=c1b44335-2c20-4553-bd77-28e1455d1cb8","ios":"levelo://app?vid=c1b44335-2c20-4553-bd77-28e1455d1cb8"},"vehicle_type_id":"4","last_reported":1751462740,"current_range_meters":12800,"station_id":"ce4bhch2rcd13ifvqeug","pricing_plan_id":"cebpf4jnsgd1na2vs0mg"},{"bike_id":"c2cc3873-3136-4ba7-984d-6514f2a6bcc2","system_id":"levelo_inurba_marseille","lat":43.26692,"lon":5.3827,"is_reserved":false,"is_disabled":false,"rental_uris":{"android":"levelo://app?vid=c2cc3873-3136-4ba7-984d-6514f2a6bcc2","ios":"levelo://app?vid=c2cc3873-3136-4ba7-984d-6514f2a6bcc2"},"vehicle_type_id":"4","last_reported":1751462740,"current_range_meters":12800,"station_id":"ce4bhg92rcd13ifvqf90","pricing_plan_id":"cebpf4jnsgd1na2vs0mg"},{"bike_id":"c899bdeb-e8c8-487d-a5a5-00dc09ddabfe","system_id":"levelo_inurba_marseille","lat":43.34137,"lon":5.40905,"is_reserved":false,"is_disabled":false,"rental_uris":{"android":"levelo://app?vid=c899bdeb-e8c8-487d-a5a5-00dc09ddabfe","ios":"levelo://app?vid=c899bdeb-e8c8-487d-a5a5-00dc09ddabfe"},"vehicle_type_id":"4","last_reported":1751462740,"current_range_meters":12800,"station_id":"ce4bhqh2rcd13ifvqhlg","pricing_plan_id":"cebpf4jnsgd1na2vs0mg"},{"bike_id":"af45e992-38f9-4969-8dcf-1e064c257847","system_id":"levelo_inurba_marseille","lat":43.31995,"lon":5.38152,"is_reserved":false,"is_disabled":false,"rental_uris":{"android":"levelo://app?vid=af45e992-38f9-4969-8dcf-1e064c257847","ios":"levelo://app?vid=af45e992-38f9-4969-8dcf-1e064c257847"},"vehicle_type_id":"4","last_reported":1751462740,"current_range_meters":12800,"station_id":"ce4bhr12rcd13ifvqhpg","pricing_plan_id":"cebpf4jnsgd1na2vs0mg"},{"bike_id":"ee0317a9-0b3d-4631-9294-b4dddc155611","system_id":"levelo_inurba_marseille","lat":43.32358,"lon":5.36763,"is_reserved":false,"is_disabled":false,"rental_uris":{"android":"levelo://app?vid=ee0317a9-0b3d-4631-9294-b4dddc155611","ios":"levelo://app?vid=ee0317a9-0b3d-4631-9294-b4dddc155611"},"vehicle_type_id":"4","last_reported":1751462740,"current_range_meters":12800,"station_id":"ce4bhsh2rcd13ifvqi2g","pricing_plan_id":"cebpf4jnsgd1na2vs0mg"},{"bike_id":"fa259d9e-b89d-4f97-be4a-a17a88b4d867","system_id":"levelo_inurba_marseille","lat":43.280017,"lon":5.386768,"is_reserved":false,"is_disabled":false,"rental_uris":{"android":"levelo://app?vid=fa259d9e-b89d-4f97-be4a-a17a88b4d867","ios":"levelo://app?vid=fa259d9e-b89d-4f97-be4a-a17a88b4d867"},"vehicle_type_id":"4","last_reported":1751462740,"current_range_meters":13600,"station_id":"ce4bhh12rcd13ifvqfg0","pricing_plan_id":"cebpf4jnsgd1na2vs0mg"},{"bike_id":"d16b9dec-c438-4000-91c8-6cda5b0545dc","system_id":"levelo_inurba_marseille","lat":43.24881,"lon":5.37492,"is_reserved":false,"is_disabled":false,"rental_uris":{"android":"levelo://app?vid=d16b9dec-c438-4000-91c8-6cda5b0545dc","ios":"levelo://app?vid=d16b9dec-c438-4000-91c8-6cda5b0545dc"},"vehicle_type_id":"4","last_reported":1751462740,"current_range_meters":14000,"station_id":"","pricing_plan_id":"cebpf4jnsgd1na2vs0mg"},{"bike_id":"f00e3044-9bd1-48b5-b342-151af21b34fa","system_id":"levelo_inurba_marseille","lat":43.29981,"lon":5.37407,"is_reserved":false,"is_disabled":false,"rental_uris":{"android":"levelo://app?vid=f00e3044-9bd1-48b5-b342-151af21b34fa","ios":"levelo://app?vid=f00e3044-9bd1-48b5-b342-151af21b34fa"},"vehicle_type_id":"4","last_reported":1751462740,"current_range_meters":14000,"station_id":"","pricing_plan_id":"cebpf4jnsgd1na2vs0mg"},{"bike_id":"f4fbaaac-40c3-4a13-847d-9b905a947511","system_id":"levelo_inurba_marseille","lat":43.293215,"lon":5.371766,"is_reserved":false,"is_disabled":false,"rental_uris":{"android":"levelo://app?vid=f4fbaaac-40c3-4a13-847d-9b905a947511","ios":"levelo://app?vid=f4fbaaac-40c3-4a13-847d-9b905a947511"},"vehicle_type_id":"4","last_reported":1751462740,"current_range_meters":14000,"station_id":"ce4bgh92rcd13ifvqb40","pricing_plan_id":"cebpf4jnsgd1na2vs0mg"},{"bike_id":"ece38835-b7c1-45a6-8f66-8ee27eb00499","system_id":"levelo_inurba_marseille","lat":43.30129,"lon":5.39864,"is_reserved":false,"is_disabled":false,"rental_uris":{"android":"levelo://app?vid=ece38835-b7c1-45a6-8f66-8ee27eb00499","ios":"levelo://app?vid=ece38835-b7c1-45a6-8f66-8ee27eb00499"},"vehicle_type_id":"4","last_reported":1751462740,"current_range_meters":14000,"station_id":"ce4bh0h2rcd13ifvqd40","pricing_plan_id":"cebpf4jnsgd1na2vs0mg"},{"bike_id":"c299668c-707f-458a-af89-dd211b5a960a","system_id":"levelo_inurba_marseille","lat":43.27362,"lon":5.3623,"is_reserved":false,"is_disabled":false,"rental_uris":{"android":"levelo://app?vid=c299668c-707f-458a-af89-dd211b5a960a","ios":"levelo://app?vid=c299668c-707f-458a-af89-dd211b5a960a"},"vehicle_type_id":"4","last_reported":1751462740,"current_range_meters":14000,"station_id":"ce4bhbh2rcd13ifvqeo0","pricing_plan_id":"cebpf4jnsgd1na2vs0mg"},{"bike_id":"494bc493-5efb-4127-8c99-a8c6531c5dc0","system_id":"levelo_inurba_marseille","lat":43.3059,"lon":5.39353,"is_reserved":false,"is_disabled":false,"rental_uris":{"android":"levelo://app?vid=494bc493-5efb-4127-8c99-a8c6531c5dc0","ios":"levelo://app?vid=494bc493-5efb-4127-8c99-a8c6531c5dc0"},"vehicle_type_id":"4","last_reported":1751462740,"current_range_meters":14400,"station_id":"ce4bh0p2rcd13ifvqd80","pricing_plan_id":"cebpf4jnsgd1na2vs0mg"},{"bike_id":"3851009b-66dd-4778-ae46-89528363ec6f","system_id":"levelo_inurba_marseille","lat":43.2846,"lon":5.35887,"is_reserved":false,"is_disabled":false,"rental_uris":{"android":"levelo://app?vid=3851009b-66dd-4778-ae46-89528363ec6f","ios":"levelo://app?vid=3851009b-66dd-4778-ae46-89528363ec6f"},"vehicle_type_id":"4","last_reported":1751462740,"current_range_meters":14400,"station_id":"ce4bhah2rcd13ifvqei0","pricing_plan_id":"cebpf4jnsgd1na2vs0mg"},{"bike_id":"93407904-de6f-4324-8a67-67c9ef71af57","system_id":"levelo_inurba_marseille","lat":43.28935,"lon":5.36639,"is_reserved":false,"is_disabled":false,"rental_uris":{"android":"levelo://app?vid=93407904-de6f-4324-8a67-67c9ef71af57","ios":"levelo://app?vid=93407904-de6f-4324-8a67-67c9ef71af57"},"vehicle_type_id":"4","last_reported":1751462740,"current_range_meters":14400,"station_id":"ce4bhap2rcd13ifvqek0","pricing_plan_id":"cebpf4jnsgd1na2vs0mg"},{"bike_id":"dbe6a7d8-6edc-4015-8658-f68eeb46a661","system_id":"levelo_inurba_marseille","lat":43.33443,"lon":5.39834,"is_reserved":false,"is_disabled":false,"rental_uris":{"android":"levelo://app?vid=dbe6a7d8-6edc-4015-8658-f68eeb46a661","ios":"levelo://app?vid=dbe6a7d8-6edc-4015-8658-f68eeb46a661"},"vehicle_type_id":"4","last_reported":1751462740,"current_range_meters":14800,"station_id":"","pricing_plan_id":"cebpf4jnsgd1na2vs0mg"},{"bike_id":"8e8cddb0-8397-4022-8248-f9f14cc3d8a3","system_id":"levelo_inurba_marseille","lat":43.29567,"lon":5.37527,"is_reserved":false,"is_disabled":false,"rental_uris":{"android":"levelo://app?vid=8e8cddb0-8397-4022-8248-f9f14cc3d8a3","ios":"levelo://app?vid=8e8cddb0-8397-4022-8248-f9f14cc3d8a3"},"vehicle_type_id":"4","last_reported":1751462740,"current_range_meters":14800,"station_id":"ce4bgh92rcd13ifvqb50","pricing_plan_id":"cebpf4jnsgd1na2vs0mg"},{"bike_id":"9ed3aeb4-5bbe-4eec-975a-3a3d7fbab42a","system_id":"levelo_inurba_marseille","lat":43.30949,"lon":5.39027,"is_reserved":false,"is_disabled":false,"rental_uris":{"android":"levelo://app?vid=9ed3aeb4-5bbe-4eec-975a-3a3d7fbab42a","ios":"levelo://app?vid=9ed3aeb4-5bbe-4eec-975a-3a3d7fbab42a"},"vehicle_type_id":"4","last_reported":1751462740,"current_range_meters":14800,"station_id":"ce4bgup2rcd13ifvqco0","pricing_plan_id":"cebpf4jnsgd1na2vs0mg"},{"bike_id":"7d1bbfbb-c70e-48d3-8f4b-baf5b1ca8b77","system_id":"levelo_inurba_marseille","lat":43.28423,"lon":5.34986,"is_reserved":false,"is_disabled":false,"rental_uris":{"android":"levelo://app?vid=7d1bbfbb-c70e-48d3-8f4b-baf5b1ca8b77","ios":"levelo://app?vid=7d1bbfbb-c70e-48d3-8f4b-baf5b1ca8b77"},"vehicle_type_id":"4","last_reported":1751462740,"current_range_meters":14800,"station_id":"ce4bhbh2rcd13ifvqepg","pricing_plan_id":"cebpf4jnsgd1na2vs0mg"},{"bike_id":"b28aa0a0-791c-4a08-9a16-c7bf6ea0ed5a","system_id":"levelo_inurba_marseille","lat":43.22506,"lon":5.34784,"is_reserved":false,"is_disabled":false,"rental_uris":{"android":"levelo://app?vid=b28aa0a0-791c-4a08-9a16-c7bf6ea0ed5a","ios":"levelo://app?vid=b28aa0a0-791c-4a08-9a16-c7bf6ea0ed5a"},"vehicle_type_id":"4","last_reported":1751462740,"current_range_meters":15200,"station_id":"","pricing_plan_id":"cebpf4jnsgd1na2vs0mg"},{"bike_id":"7e62b058-a7ed-4634-80f1-04d3de596de7","system_id":"levelo_inurba_marseille","lat":43.29862,"lon":5.36807,"is_reserved":false,"is_disabled":false,"rental_uris":{"android":"levelo://app?vid=7e62b058-a7ed-4634-80f1-04d3de596de7","ios":"levelo://app?vid=7e62b058-a7ed-4634-80f1-04d3de596de7"},"vehicle_type_id":"4","last_reported":1751462740,"current_range_meters":15200,"station_id":"","pricing_plan_id":"cebpf4jnsgd1na2vs0mg"},{"bike_id":"30273371-12f4-44ab-91c5-a778b331e311","system_id":"levelo_inurba_marseille","lat":43.29306,"lon":5.371751,"is_reserved":false,"is_disabled":false,"rental_uris":{"android":"levelo://app?vid=30273371-12f4-44ab-91c5-a778b331e311","ios":"levelo://app?vid=30273371-12f4-44ab-91c5-a778b331e311"},"vehicle_type_id":"4","last_reported":1751462740,"current_range_meters":15200,"station_id":"ce4bgh92rcd13ifvqb40","pricing_plan_id":"cebpf4jnsgd1na2vs0mg"},{"bike_id":"06bb1293-77e2-44a3-9e10-1607407328dc","system_id":"levelo_inurba_marseille","lat":43.2842,"lon":5.34977,"is_reserved":false,"is_disabled":false,"rental_uris":{"android":"levelo://app?vid=06bb1293-77e2-44a3-9e10-1607407328dc","ios":"levelo://app?vid=06bb1293-77e2-44a3-9e10-1607407328dc"},"vehicle_type_id":"4","last_reported":1751462740,"current_range_meters":15200,"station_id":"ce4bhbh2rcd13ifvqepg","pricing_plan_id":"cebpf4jnsgd1na2vs0mg"},{"bike_id":"b6db9e3f-26b1-4030-aaa1-6ee95deb3e82","system_id":"levelo_inurba_marseille","lat":43.25028,"lon":5.38932,"is_reserved":false,"is_disabled":false,"rental_uris":{"android":"levelo://app?vid=b6db9e3f-26b1-4030-aaa1-6ee95deb3e82","ios":"levelo://app?vid=b6db9e3f-26b1-4030-aaa1-6ee95deb3e82"},"vehicle_type_id":"4","last_reported":1751462740,"current_range_meters":15200,"station_id":"ce4bhgp2rcd13ifvqfd0","pricing_plan_id":"cebpf4jnsgd1na2vs0mg"},{"bike_id":"541e5705-6506-4555-88c6-7baef13e6557","system_id":"levelo_inurba_marseille","lat":43.27996,"lon":5.40009,"is_reserved":false,"is_disabled":false,"rental_uris":{"android":"levelo://app?vid=541e5705-6506-4555-88c6-7baef13e6557","ios":"levelo://app?vid=541e5705-6506-4555-88c6-7baef13e6557"},"vehicle_type_id":"4","last_reported":1751462740,"current_range_meters":15200,"station_id":"ce4bho92rcd13ifvqh4g","pricing_plan_id":"cebpf4jnsgd1na2vs0mg"},{"bike_id":"57733d63-5a2f-43b7-bac4-74e57d9385ed","system_id":"levelo_inurba_marseille","lat":43.30315,"lon":5.3688,"is_reserved":false,"is_disabled":false,"rental_uris":{"android":"levelo://app?vid=57733d63-5a2f-43b7-bac4-74e57d9385ed","ios":"levelo://app?vid=57733d63-5a2f-43b7-bac4-74e57d9385ed"},"vehicle_type_id":"4","last_reported":1751462740,"current_range_meters":16000,"station_id":"ce4bgqh2rcd13ifvqc5g","pricing_plan_id":"cebpf4jnsgd1na2vs0mg"},{"bike_id":"3fa8b643-d35d-4953-9847-56978e3ca0d4","system_id":"levelo_inurba_marseille","lat":43.29868,"lon":5.39742,"is_reserved":false,"is_disabled":false,"rental_uris":{"android":"levelo://app?vid=3fa8b643-d35d-4953-9847-56978e3ca0d4","ios":"levelo://app?vid=3fa8b643-d35d-4953-9847-56978e3ca0d4"},"vehicle_type_id":"4","last_reported":1751462740,"current_range_meters":16000,"station_id":"ce4bh0h2rcd13ifvqd50","pricing_plan_id":"cebpf4jnsgd1na2vs0mg"},{"bike_id":"17ad145c-f881-4017-969d-c8638a36a818","system_id":"levelo_inurba_marseille","lat":43.26545,"lon":5.3899,"is_reserved":false,"is_disabled":false,"rental_uris":{"android":"levelo://app?vid=17ad145c-f881-4017-969d-c8638a36a818","ios":"levelo://app?vid=17ad145c-f881-4017-969d-c8638a36a818"},"vehicle_type_id":"4","last_reported":1751462740,"current_range_meters":16000,"station_id":"ce4bhe12rcd13ifvqf30","pricing_plan_id":"cebpf4jnsgd1na2vs0mg"},{"bike_id":"56eb3fdf-ea87-4fcf-85df-3680fa66363e","system_id":"levelo_inurba_marseille","lat":43.22494,"lon":5.34791,"is_reserved":false,"is_disabled":false,"rental_uris":{"android":"levelo://app?vid=56eb3fdf-ea87-4fcf-85df-3680fa66363e","ios":"levelo://app?vid=56eb3fdf-ea87-4fcf-85df-3680fa66363e"},"vehicle_type_id":"4","last_reported":1751462740,"current_range_meters":16000,"station_id":"st_cvj5dfep6f1abm77gieg","pricing_plan_id":"cebpf4jnsgd1na2vs0mg"},{"bike_id":"bcfd0eda-b9ab-4bec-9ca3-3f2b86617415","system_id":"levelo_inurba_marseille","lat":43.21191,"lon":5.35081,"is_reserved":false,"is_disabled":false,"rental_uris":{"android":"levelo://app?vid=bcfd0eda-b9ab-4bec-9ca3-3f2b86617415","ios":"levelo://app?vid=bcfd0eda-b9ab-4bec-9ca3-3f2b86617415"},"vehicle_type_id":"4","last_reported":1751462740,"current_range_meters":16000,"station_id":"st_cvj6sg6p6f1abm77japg","pricing_plan_id":"cebpf4jnsgd1na2vs0mg"},{"bike_id":"16a8afe6-e43e-4d1b-a7bd-ed83d113735a","system_id":"levelo_inurba_marseille","lat":43.32436,"lon":5.41185,"is_reserved":false,"is_disabled":false,"rental_uris":{"android":"levelo://app?vid=16a8afe6-e43e-4d1b-a7bd-ed83d113735a","ios":"levelo://app?vid=16a8afe6-e43e-4d1b-a7bd-ed83d113735a"},"vehicle_type_id":"4","last_reported":1751462740,"current_range_meters":16400,"station_id":"","pricing_plan_id":"cebpf4jnsgd1na2vs0mg"},{"bike_id":"752a7229-d138-4522-8787-0bb67b470949","system_id":"levelo_inurba_marseille","lat":43.31854,"lon":5.3763,"is_reserved":false,"is_disabled":false,"rental_uris":{"android":"levelo://app?vid=752a7229-d138-4522-8787-0bb67b470949","ios":"levelo://app?vid=752a7229-d138-4522-8787-0bb67b470949"},"vehicle_type_id":"4","last_reported":1751462740,"current_range_meters":16400,"station_id":"","pricing_plan_id":"cebpf4jnsgd1na2vs0mg"},{"bike_id":"87f8bbaf-4a1d-4326-8fe8-a465c959014c","system_id":"levelo_inurba_marseille","lat":43.30536,"lon":5.36712,"is_reserved":false,"is_disabled":false,"rental_uris":{"android":"levelo://app?vid=87f8bbaf-4a1d-4326-8fe8-a465c959014c","ios":"levelo://app?vid=87f8bbaf-4a1d-4326-8fe8-a465c959014c"},"vehicle_type_id":"4","last_reported":1751462740,"current_range_meters":16400,"station_id":"ce4bgrp2rcd13ifvqc9g","pricing_plan_id":"cebpf4jnsgd1na2vs0mg"},{"bike_id":"331745a6-416e-4697-a3b9-8b6ec98fb01a","system_id":"levelo_inurba_marseille","lat":43.28413,"lon":5.35006,"is_reserved":false,"is_disabled":false,"rental_uris":{"android":"levelo://app?vid=331745a6-416e-4697-a3b9-8b6ec98fb01a","ios":"levelo://app?vid=331745a6-416e-4697-a3b9-8b6ec98fb01a"},"vehicle_type_id":"4","last_reported":1751462740,"current_range_meters":16400,"station_id":"ce4bhbh2rcd13ifvqepg","pricing_plan_id":"cebpf4jnsgd1na2vs0mg"},{"bike_id":"a4fa0864-a85b-4e58-80fb-f707fbcf1f52","system_id":"levelo_inurba_marseille","lat":43.28419,"lon":5.35007,"is_reserved":false,"is_disabled":false,"rental_uris":{"android":"levelo://app?vid=a4fa0864-a85b-4e58-80fb-f707fbcf1f52","ios":"levelo://app?vid=a4fa0864-a85b-4e58-80fb-f707fbcf1f52"},"vehicle_type_id":"4","last_reported":1751462740,"current_range_meters":16400,"station_id":"ce4bhbh2rcd13ifvqepg","pricing_plan_id":"cebpf4jnsgd1na2vs0mg"},{"bike_id":"c79c87d1-3919-4435-933c-db072f3802cd","system_id":"levelo_inurba_marseille","lat":43.26032,"lon":5.37554,"is_reserved":false,"is_disabled":false,"rental_uris":{"android":"levelo://app?vid=c79c87d1-3919-4435-933c-db072f3802cd","ios":"levelo://app?vid=c79c87d1-3919-4435-933c-db072f3802cd"},"vehicle_type_id":"4","last_reported":1751462740,"current_range_meters":16400,"station_id":"ce4bhgh2rcd13ifvqfa0","pricing_plan_id":"cebpf4jnsgd1na2vs0mg"},{"bike_id":"959e6f20-8ed0-4d36-bc1d-3efb82d6190b","system_id":"levelo_inurba_marseille","lat":43.21174,"lon":5.35112,"is_reserved":false,"is_disabled":false,"rental_uris":{"android":"levelo://app?vid=959e6f20-8ed0-4d36-bc1d-3efb82d6190b","ios":"levelo://app?vid=959e6f20-8ed0-4d36-bc1d-3efb82d6190b"},"vehicle_type_id":"4","last_reported":1751462740,"current_range_meters":16400,"station_id":"st_cvj6sg6p6f1abm77japg","pricing_plan_id":"cebpf4jnsgd1na2vs0mg"},{"bike_id":"a0cef316-ad95-4855-8f78-a31341a2b90e","system_id":"levelo_inurba_marseille","lat":43.31274,"lon":5.37751,"is_reserved":false,"is_disabled":false,"rental_uris":{"android":"levelo://app?vid=a0cef316-ad95-4855-8f78-a31341a2b90e","ios":"levelo://app?vid=a0cef316-ad95-4855-8f78-a31341a2b90e"},"vehicle_type_id":"4","last_reported":1751462740,"current_range_meters":16800,"station_id":"","pricing_plan_id":"cebpf4jnsgd1na2vs0mg"},{"bike_id":"ae816c7e-dc7e-4d9d-9939-9a08cdc5bd4c","system_id":"levelo_inurba_marseille","lat":43.29711,"lon":5.36612,"is_reserved":false,"is_disabled":false,"rental_uris":{"android":"levelo://app?vid=ae816c7e-dc7e-4d9d-9939-9a08cdc5bd4c","ios":"levelo://app?vid=ae816c7e-dc7e-4d9d-9939-9a08cdc5bd4c"},"vehicle_type_id":"4","last_reported":1751462740,"current_range_meters":16800,"station_id":"ce4bgn12rcd13ifvqbt0","pricing_plan_id":"cebpf4jnsgd1na2vs0mg"},{"bike_id":"5873b045-e842-413a-b29d-3834672b1bb3","system_id":"levelo_inurba_marseille","lat":43.29595,"lon":5.36711,"is_reserved":false,"is_disabled":false,"rental_uris":{"android":"levelo://app?vid=5873b045-e842-413a-b29d-3834672b1bb3","ios":"levelo://app?vid=5873b045-e842-413a-b29d-3834672b1bb3"},"vehicle_type_id":"4","last_reported":1751462740,"current_range_meters":16800,"station_id":"ce4bgph2rcd13ifvqc2g","pricing_plan_id":"cebpf4jnsgd1na2vs0mg"},{"bike_id":"0e030323-4386-4e72-9a0d-0f6a2ff539de","system_id":"levelo_inurba_marseille","lat":43.29618,"lon":5.40562,"is_reserved":false,"is_disabled":false,"rental_uris":{"android":"levelo://app?vid=0e030323-4386-4e72-9a0d-0f6a2ff539de","ios":"levelo://app?vid=0e030323-4386-4e72-9a0d-0f6a2ff539de"},"vehicle_type_id":"4","last_reported":1751462740,"current_range_meters":16800,"station_id":"ce4bh0h2rcd13ifvqd60","pricing_plan_id":"cebpf4jnsgd1na2vs0mg"},{"bike_id":"5fdba57e-3453-49c5-a12c-6212c88e6616","system_id":"levelo_inurba_marseille","lat":43.27375,"lon":5.3626,"is_reserved":false,"is_disabled":false,"rental_uris":{"android":"levelo://app?vid=5fdba57e-3453-49c5-a12c-6212c88e6616","ios":"levelo://app?vid=5fdba57e-3453-49c5-a12c-6212c88e6616"},"vehicle_type_id":"4","last_reported":1751462740,"current_range_meters":16800,"station_id":"ce4bhbh2rcd13ifvqeo0","pricing_plan_id":"cebpf4jnsgd1na2vs0mg"},{"bike_id":"110be0f7-19b6-4419-935c-8afdb1f29359","system_id":"levelo_inurba_marseille","lat":43.21193,"lon":5.35069,"is_reserved":false,"is_disabled":false,"rental_uris":{"android":"levelo://app?vid=110be0f7-19b6-4419-935c-8afdb1f29359","ios":"levelo://app?vid=110be0f7-19b6-4419-935c-8afdb1f29359"},"vehicle_type_id":"4","last_reported":1751462740,"current_range_meters":16800,"station_id":"st_cvj6sg6p6f1abm77japg","pricing_plan_id":"cebpf4jnsgd1na2vs0mg"},{"bike_id":"c891a8a9-6cee-47e2-ba82-eb733400cd8c","system_id":"levelo_inurba_marseille","lat":43.30541,"lon":5.36719,"is_reserved":false,"is_disabled":false,"rental_uris":{"android":"levelo://app?vid=c891a8a9-6cee-47e2-ba82-eb733400cd8c","ios":"levelo://app?vid=c891a8a9-6cee-47e2-ba82-eb733400cd8c"},"vehicle_type_id":"4","last_reported":1751462740,"current_range_meters":17200,"station_id":"ce4bgrp2rcd13ifvqc9g","pricing_plan_id":"cebpf4jnsgd1na2vs0mg"},{"bike_id":"ee286f28-f86e-4af6-96fc-b3febfb7ed08","system_id":"levelo_inurba_marseille","lat":43.28347,"lon":5.38628,"is_reserved":false,"is_disabled":false,"rental_uris":{"android":"levelo://app?vid=ee286f28-f86e-4af6-96fc-b3febfb7ed08","ios":"levelo://app?vid=ee286f28-f86e-4af6-96fc-b3febfb7ed08"},"vehicle_type_id":"4","last_reported":1751462740,"current_range_meters":17200,"station_id":"ce4bh492rcd13ifvqdvg","pricing_plan_id":"cebpf4jnsgd1na2vs0mg"},{"bike_id":"09a94feb-8911-4d3d-9f22-a7f611710ea1","system_id":"levelo_inurba_marseille","lat":43.21183,"lon":5.35075,"is_reserved":false,"is_disabled":false,"rental_uris":{"android":"levelo://app?vid=09a94feb-8911-4d3d-9f22-a7f611710ea1","ios":"levelo://app?vid=09a94feb-8911-4d3d-9f22-a7f611710ea1"},"vehicle_type_id":"4","last_reported":1751462740,"current_range_meters":17200,"station_id":"st_cvj6sg6p6f1abm77japg","pricing_plan_id":"cebpf4jnsgd1na2vs0mg"},{"bike_id":"f048db52-6f32-4b62-81ca-29b673e2a0b0","system_id":"levelo_inurba_marseille","lat":43.26203,"lon":5.37926,"is_reserved":false,"is_disabled":false,"rental_uris":{"android":"levelo://app?vid=f048db52-6f32-4b62-81ca-29b673e2a0b0","ios":"levelo://app?vid=f048db52-6f32-4b62-81ca-29b673e2a0b0"},"vehicle_type_id":"4","last_reported":1751462740,"current_range_meters":17600,"station_id":"ce4bhjp2rcd13ifvqg90","pricing_plan_id":"cebpf4jnsgd1na2vs0mg"},{"bike_id":"88f0d88a-1dec-4977-a19a-71293da7fba4","system_id":"levelo_inurba_marseille","lat":43.32362,"lon":5.36769,"is_reserved":false,"is_disabled":false,"rental_uris":{"android":"levelo://app?vid=88f0d88a-1dec-4977-a19a-71293da7fba4","ios":"levelo://app?vid=88f0d88a-1dec-4977-a19a-71293da7fba4"},"vehicle_type_id":"4","last_reported":1751462740,"current_range_meters":17600,"station_id":"ce4bhsh2rcd13ifvqi2g","pricing_plan_id":"cebpf4jnsgd1na2vs0mg"},{"bike_id":"8bf0d992-d2a0-428e-940a-091ee9b7c2a4","system_id":"levelo_inurba_marseille","lat":43.21191,"lon":5.3507,"is_reserved":false,"is_disabled":false,"rental_uris":{"android":"levelo://app?vid=8bf0d992-d2a0-428e-940a-091ee9b7c2a4","ios":"levelo://app?vid=8bf0d992-d2a0-428e-940a-091ee9b7c2a4"},"vehicle_type_id":"4","last_reported":1751462740,"current_range_meters":17600,"station_id":"st_cvj6sg6p6f1abm77japg","pricing_plan_id":"cebpf4jnsgd1na2vs0mg"},{"bike_id":"c10a4283-320d-4e64-8d75-ff83e94026ba","system_id":"levelo_inurba_marseille","lat":43.211936,"lon":5.350736,"is_reserved":false,"is_disabled":false,"rental_uris":{"android":"levelo://app?vid=c10a4283-320d-4e64-8d75-ff83e94026ba","ios":"levelo://app?vid=c10a4283-320d-4e64-8d75-ff83e94026ba"},"vehicle_type_id":"4","last_reported":1751462740,"current_range_meters":17600,"station_id":"st_cvj6sg6p6f1abm77japg","pricing_plan_id":"cebpf4jnsgd1na2vs0mg"},{"bike_id":"8a74f5cd-9efa-4362-bea7-a32db4dcc85c","system_id":"levelo_inurba_marseille","lat":43.211929,"lon":5.350778,"is_reserved":false,"is_disabled":false,"rental_uris":{"android":"levelo://app?vid=8a74f5cd-9efa-4362-bea7-a32db4dcc85c","ios":"levelo://app?vid=8a74f5cd-9efa-4362-bea7-a32db4dcc85c"},"vehicle_type_id":"4","last_reported":1751462740,"current_range_meters":17600,"station_id":"st_cvj6sg6p6f1abm77japg","pricing_plan_id":"cebpf4jnsgd1na2vs0mg"},{"bike_id":"6d2da863-a742-45db-855b-55a94467cfa4","system_id":"levelo_inurba_marseille","lat":43.3259,"lon":5.42729,"is_reserved":false,"is_disabled":false,"rental_uris":{"android":"levelo://app?vid=6d2da863-a742-45db-855b-55a94467cfa4","ios":"levelo://app?vid=6d2da863-a742-45db-855b-55a94467cfa4"},"vehicle_type_id":"4","last_reported":1751462740,"current_range_meters":18000,"station_id":"","pricing_plan_id":"cebpf4jnsgd1na2vs0mg"},{"bike_id":"64182781-4a35-410e-9562-a327c157fe53","system_id":"levelo_inurba_marseille","lat":43.31225,"lon":5.36855,"is_reserved":false,"is_disabled":false,"rental_uris":{"android":"levelo://app?vid=64182781-4a35-410e-9562-a327c157fe53","ios":"levelo://app?vid=64182781-4a35-410e-9562-a327c157fe53"},"vehicle_type_id":"4","last_reported":1751462740,"current_range_meters":18000,"station_id":"ce4bgl92rcd13ifvqbq0","pricing_plan_id":"cebpf4jnsgd1na2vs0mg"},{"bike_id":"b0847cd6-3da2-4c96-b631-22dc7523d236","system_id":"levelo_inurba_marseille","lat":43.30557,"lon":5.36545,"is_reserved":false,"is_disabled":false,"rental_uris":{"android":"levelo://app?vid=b0847cd6-3da2-4c96-b631-22dc7523d236","ios":"levelo://app?vid=b0847cd6-3da2-4c96-b631-22dc7523d236"},"vehicle_type_id":"4","last_reported":1751462740,"current_range_meters":18000,"station_id":"ce4bgs12rcd13ifvqcag","pricing_plan_id":"cebpf4jnsgd1na2vs0mg"},{"bike_id":"0b52d53f-0bd6-47f1-b5e3-7fc98dc501bd","system_id":"levelo_inurba_marseille","lat":43.3056,"lon":5.3654,"is_reserved":false,"is_disabled":false,"rental_uris":{"android":"levelo://app?vid=0b52d53f-0bd6-47f1-b5e3-7fc98dc501bd","ios":"levelo://app?vid=0b52d53f-0bd6-47f1-b5e3-7fc98dc501bd"},"vehicle_type_id":"4","last_reported":1751462740,"current_range_meters":18000,"station_id":"ce4bgs12rcd13ifvqcag","pricing_plan_id":"cebpf4jnsgd1na2vs0mg"},{"bike_id":"eaa22bcc-3a54-4661-870c-6ce230ed1f31","system_id":"levelo_inurba_marseille","lat":43.30682,"lon":5.4009,"is_reserved":false,"is_disabled":false,"rental_uris":{"android":"levelo://app?vid=eaa22bcc-3a54-4661-870c-6ce230ed1f31","ios":"levelo://app?vid=eaa22bcc-3a54-4661-870c-6ce230ed1f31"},"vehicle_type_id":"4","last_reported":1751462740,"current_range_meters":18000,"station_id":"ce4bh112rcd13ifvqda0","pricing_plan_id":"cebpf4jnsgd1na2vs0mg"},{"bike_id":"ba83543c-a54a-4257-bb4b-318ab49e5986","system_id":"levelo_inurba_marseille","lat":43.28477,"lon":5.38406,"is_reserved":false,"is_disabled":false,"rental_uris":{"android":"levelo://app?vid=ba83543c-a54a-4257-bb4b-318ab49e5986","ios":"levelo://app?vid=ba83543c-a54a-4257-bb4b-318ab49e5986"},"vehicle_type_id":"4","last_reported":1751462740,"current_range_meters":18000,"station_id":"ce4bh512rcd13ifvqe3g","pricing_plan_id":"cebpf4jnsgd1na2vs0mg"},{"bike_id":"e10f5f14-806a-4ea1-b0f6-1166a70ca741","system_id":"levelo_inurba_marseille","lat":43.28718,"lon":5.37934,"is_reserved":false,"is_disabled":false,"rental_uris":{"android":"levelo://app?vid=e10f5f14-806a-4ea1-b0f6-1166a70ca741","ios":"levelo://app?vid=e10f5f14-806a-4ea1-b0f6-1166a70ca741"},"vehicle_type_id":"4","last_reported":1751462740,"current_range_meters":18000,"station_id":"ce4bh9p2rcd13ifvqec0","pricing_plan_id":"cebpf4jnsgd1na2vs0mg"},{"bike_id":"76982503-8bb8-40bd-9dac-515e7e8b096f","system_id":"levelo_inurba_marseille","lat":43.28724,"lon":5.37937,"is_reserved":false,"is_disabled":false,"rental_uris":{"android":"levelo://app?vid=76982503-8bb8-40bd-9dac-515e7e8b096f","ios":"levelo://app?vid=76982503-8bb8-40bd-9dac-515e7e8b096f"},"vehicle_type_id":"4","last_reported":1751462740,"current_range_meters":18000,"station_id":"ce4bh9p2rcd13ifvqec0","pricing_plan_id":"cebpf4jnsgd1na2vs0mg"},{"bike_id":"d4028457-01bb-4fd4-9caa-acfaafae2f38","system_id":"levelo_inurba_marseille","lat":43.27373,"lon":5.36258,"is_reserved":false,"is_disabled":false,"rental_uris":{"android":"levelo://app?vid=d4028457-01bb-4fd4-9caa-acfaafae2f38","ios":"levelo://app?vid=d4028457-01bb-4fd4-9caa-acfaafae2f38"},"vehicle_type_id":"4","last_reported":1751462740,"current_range_meters":18000,"station_id":"ce4bhbh2rcd13ifvqeo0","pricing_plan_id":"cebpf4jnsgd1na2vs0mg"},{"bike_id":"bfa88f67-5f5b-49db-81cc-e4921c6889b1","system_id":"levelo_inurba_marseille","lat":43.321093,"lon":5.367754,"is_reserved":false,"is_disabled":false,"rental_uris":{"android":"levelo://app?vid=bfa88f67-5f5b-49db-81cc-e4921c6889b1","ios":"levelo://app?vid=bfa88f67-5f5b-49db-81cc-e4921c6889b1"},"vehicle_type_id":"4","last_reported":1751462740,"current_range_meters":18800,"station_id":"ce4bhrh2rcd13ifvqhug","pricing_plan_id":"cebpf4jnsgd1na2vs0mg"},{"bike_id":"d393009a-4549-46b8-9394-75871ff606d4","system_id":"levelo_inurba_marseille","lat":43.3234,"lon":5.3675,"is_reserved":false,"is_disabled":false,"rental_uris":{"android":"levelo://app?vid=d393009a-4549-46b8-9394-75871ff606d4","ios":"levelo://app?vid=d393009a-4549-46b8-9394-75871ff606d4"},"vehicle_type_id":"4","last_reported":1751462740,"current_range_meters":18800,"station_id":"ce4bhsh2rcd13ifvqi2g","pricing_plan_id":"cebpf4jnsgd1na2vs0mg"},{"bike_id":"fe84177e-dc24-423c-bc2b-77abf3163fe9","system_id":"levelo_inurba_marseille","lat":43.30223,"lon":5.38225,"is_reserved":false,"is_disabled":false,"rental_uris":{"android":"levelo://app?vid=fe84177e-dc24-423c-bc2b-77abf3163fe9","ios":"levelo://app?vid=fe84177e-dc24-423c-bc2b-77abf3163fe9"},"vehicle_type_id":"4","last_reported":1751462740,"current_range_meters":19200,"station_id":"","pricing_plan_id":"cebpf4jnsgd1na2vs0mg"},{"bike_id":"dc4fddc2-a877-4455-aef1-0dc70e6d06ee","system_id":"levelo_inurba_marseille","lat":43.273414,"lon":5.362476,"is_reserved":false,"is_disabled":false,"rental_uris":{"android":"levelo://app?vid=dc4fddc2-a877-4455-aef1-0dc70e6d06ee","ios":"levelo://app?vid=dc4fddc2-a877-4455-aef1-0dc70e6d06ee"},"vehicle_type_id":"4","last_reported":1751462740,"current_range_meters":19200,"station_id":"ce4bhbh2rcd13ifvqeo0","pricing_plan_id":"cebpf4jnsgd1na2vs0mg"},{"bike_id":"858ac75d-6551-4d39-acf7-b178928be1f7","system_id":"levelo_inurba_marseille","lat":43.28405,"lon":5.34978,"is_reserved":false,"is_disabled":false,"rental_uris":{"android":"levelo://app?vid=858ac75d-6551-4d39-acf7-b178928be1f7","ios":"levelo://app?vid=858ac75d-6551-4d39-acf7-b178928be1f7"},"vehicle_type_id":"4","last_reported":1751462740,"current_range_meters":19200,"station_id":"ce4bhbh2rcd13ifvqepg","pricing_plan_id":"cebpf4jnsgd1na2vs0mg"},{"bike_id":"0125968d-70a3-4ff8-82bd-e8f13f78b2f1","system_id":"levelo_inurba_marseille","lat":43.25501,"lon":5.37645,"is_reserved":false,"is_disabled":false,"rental_uris":{"android":"levelo://app?vid=0125968d-70a3-4ff8-82bd-e8f13f78b2f1","ios":"levelo://app?vid=0125968d-70a3-4ff8-82bd-e8f13f78b2f1"},"vehicle_type_id":"4","last_reported":1751462740,"current_range_meters":19200,"station_id":"ce4bhh12rcd13ifvqff0","pricing_plan_id":"cebpf4jnsgd1na2vs0mg"},{"bike_id":"2ea289c1-57f2-4944-b375-9cd790d43431","system_id":"levelo_inurba_marseille","lat":43.26782,"lon":5.39413,"is_reserved":false,"is_disabled":false,"rental_uris":{"android":"levelo://app?vid=2ea289c1-57f2-4944-b375-9cd790d43431","ios":"levelo://app?vid=2ea289c1-57f2-4944-b375-9cd790d43431"},"vehicle_type_id":"4","last_reported":1751462740,"current_range_meters":19200,"station_id":"ce4bhh12rcd13ifvqfg0","pricing_plan_id":"cebpf4jnsgd1na2vs0mg"},{"bike_id":"14c00f68-4c64-43f1-9ec5-cacdae8c755b","system_id":"levelo_inurba_marseille","lat":43.251003,"lon":5.395206,"is_reserved":false,"is_disabled":false,"rental_uris":{"android":"levelo://app?vid=14c00f68-4c64-43f1-9ec5-cacdae8c755b","ios":"levelo://app?vid=14c00f68-4c64-43f1-9ec5-cacdae8c755b"},"vehicle_type_id":"4","last_reported":1751462740,"current_range_meters":19200,"station_id":"ce4bhm12rcd13ifvqgkg","pricing_plan_id":"cebpf4jnsgd1na2vs0mg"},{"bike_id":"a5dd1495-37bd-4d52-bdbd-ac33ef851954","system_id":"levelo_inurba_marseille","lat":43.23146,"lon":5.43723,"is_reserved":false,"is_disabled":false,"rental_uris":{"android":"levelo://app?vid=a5dd1495-37bd-4d52-bdbd-ac33ef851954","ios":"levelo://app?vid=a5dd1495-37bd-4d52-bdbd-ac33ef851954"},"vehicle_type_id":"4","last_reported":1751462740,"current_range_meters":19200,"station_id":"ce4bhmp2rcd13ifvqgog","pricing_plan_id":"cebpf4jnsgd1na2vs0mg"},{"bike_id":"b7c4f4e7-ddbb-4243-982d-1ca4f75e59a6","system_id":"levelo_inurba_marseille","lat":43.32367,"lon":5.36757,"is_reserved":false,"is_disabled":false,"rental_uris":{"android":"levelo://app?vid=b7c4f4e7-ddbb-4243-982d-1ca4f75e59a6","ios":"levelo://app?vid=b7c4f4e7-ddbb-4243-982d-1ca4f75e59a6"},"vehicle_type_id":"4","last_reported":1751462740,"current_range_meters":19200,"station_id":"ce4bhsh2rcd13ifvqi2g","pricing_plan_id":"cebpf4jnsgd1na2vs0mg"},{"bike_id":"10b0b860-bb51-4240-bd79-57112e19f6af","system_id":"levelo_inurba_marseille","lat":43.217539,"lon":5.346003,"is_reserved":false,"is_disabled":false,"rental_uris":{"android":"levelo://app?vid=10b0b860-bb51-4240-bd79-57112e19f6af","ios":"levelo://app?vid=10b0b860-bb51-4240-bd79-57112e19f6af"},"vehicle_type_id":"4","last_reported":1751462740,"current_range_meters":19200,"station_id":"st_cvj6r9ubvosntc0bgbag","pricing_plan_id":"cebpf4jnsgd1na2vs0mg"},{"bike_id":"0f590c2a-c81e-469d-a7d1-2741de3642a2","system_id":"levelo_inurba_marseille","lat":43.211944,"lon":5.350709,"is_reserved":false,"is_disabled":false,"rental_uris":{"android":"levelo://app?vid=0f590c2a-c81e-469d-a7d1-2741de3642a2","ios":"levelo://app?vid=0f590c2a-c81e-469d-a7d1-2741de3642a2"},"vehicle_type_id":"4","last_reported":1751462740,"current_range_meters":19200,"station_id":"st_cvj6sg6p6f1abm77japg","pricing_plan_id":"cebpf4jnsgd1na2vs0mg"},{"bike_id":"19bff631-31d3-4738-b5de-8c3655155c50","system_id":"levelo_inurba_marseille","lat":43.29756,"lon":5.3812,"is_reserved":false,"is_disabled":false,"rental_uris":{"android":"levelo://app?vid=19bff631-31d3-4738-b5de-8c3655155c50","ios":"levelo://app?vid=19bff631-31d3-4738-b5de-8c3655155c50"},"vehicle_type_id":"4","last_reported":1751462740,"current_range_meters":19600,"station_id":"","pricing_plan_id":"cebpf4jnsgd1na2vs0mg"},{"bike_id":"b2325bea-9a74-459a-a713-509c2ba84f3e","system_id":"levelo_inurba_marseille","lat":43.28318,"lon":5.4131,"is_reserved":false,"is_disabled":false,"rental_uris":{"android":"levelo://app?vid=b2325bea-9a74-459a-a713-509c2ba84f3e","ios":"levelo://app?vid=b2325bea-9a74-459a-a713-509c2ba84f3e"},"vehicle_type_id":"4","last_reported":1751462740,"current_range_meters":19600,"station_id":"","pricing_plan_id":"cebpf4jnsgd1na2vs0mg"},{"bike_id":"3be62267-12fe-43bf-bd19-64ff695cb725","system_id":"levelo_inurba_marseille","lat":43.30589,"lon":5.36528,"is_reserved":false,"is_disabled":false,"rental_uris":{"android":"levelo://app?vid=3be62267-12fe-43bf-bd19-64ff695cb725","ios":"levelo://app?vid=3be62267-12fe-43bf-bd19-64ff695cb725"},"vehicle_type_id":"4","last_reported":1751462740,"current_range_meters":19600,"station_id":"ce4bgs12rcd13ifvqcag","pricing_plan_id":"cebpf4jnsgd1na2vs0mg"},{"bike_id":"6c36efce-05da-4334-951f-f8bbdd10c352","system_id":"levelo_inurba_marseille","lat":43.31713,"lon":5.37764,"is_reserved":false,"is_disabled":false,"rental_uris":{"android":"levelo://app?vid=6c36efce-05da-4334-951f-f8bbdd10c352","ios":"levelo://app?vid=6c36efce-05da-4334-951f-f8bbdd10c352"},"vehicle_type_id":"4","last_reported":1751462740,"current_range_meters":19600,"station_id":"ce4bgth2rcd13ifvqch0","pricing_plan_id":"cebpf4jnsgd1na2vs0mg"},{"bike_id":"88da0a8a-c235-4518-8971-4d82c75fdca3","system_id":"levelo_inurba_marseille","lat":43.28419,"lon":5.35004,"is_reserved":false,"is_disabled":false,"rental_uris":{"android":"levelo://app?vid=88da0a8a-c235-4518-8971-4d82c75fdca3","ios":"levelo://app?vid=88da0a8a-c235-4518-8971-4d82c75fdca3"},"vehicle_type_id":"4","last_reported":1751462740,"current_range_meters":19600,"station_id":"ce4bhbh2rcd13ifvqepg","pricing_plan_id":"cebpf4jnsgd1na2vs0mg"},{"bike_id":"5eff832e-c78a-448d-99c0-d4ac89c64acc","system_id":"levelo_inurba_marseille","lat":43.286094,"lon":5.351132,"is_reserved":false,"is_disabled":false,"rental_uris":{"android":"levelo://app?vid=5eff832e-c78a-448d-99c0-d4ac89c64acc","ios":"levelo://app?vid=5eff832e-c78a-448d-99c0-d4ac89c64acc"},"vehicle_type_id":"4","last_reported":1751462740,"current_range_meters":19600,"station_id":"ce4bhch2rcd13ifvqeug","pricing_plan_id":"cebpf4jnsgd1na2vs0mg"},{"bike_id":"5e1c6398-e71f-4a16-91bb-3ea30cb6651c","system_id":"levelo_inurba_marseille","lat":43.2571,"lon":5.41126,"is_reserved":false,"is_disabled":false,"rental_uris":{"android":"levelo://app?vid=5e1c6398-e71f-4a16-91bb-3ea30cb6651c","ios":"levelo://app?vid=5e1c6398-e71f-4a16-91bb-3ea30cb6651c"},"vehicle_type_id":"4","last_reported":1751462740,"current_range_meters":19600,"station_id":"ce4bhkp2rcd13ifvqgd0","pricing_plan_id":"cebpf4jnsgd1na2vs0mg"},{"bike_id":"48a8b866-9a64-4b58-8b3a-d988de0d4af0","system_id":"levelo_inurba_marseille","lat":43.24166,"lon":5.36426,"is_reserved":false,"is_disabled":false,"rental_uris":{"android":"levelo://app?vid=48a8b866-9a64-4b58-8b3a-d988de0d4af0","ios":"levelo://app?vid=48a8b866-9a64-4b58-8b3a-d988de0d4af0"},"vehicle_type_id":"4","last_reported":1751462740,"current_range_meters":19600,"station_id":"cpo36qri1sfpv3e86is0","pricing_plan_id":"cebpf4jnsgd1na2vs0mg"},{"bike_id":"461c4bc1-8be2-478c-a171-3a0301260bb9","system_id":"levelo_inurba_marseille","lat":43.29903,"lon":5.38141,"is_reserved":false,"is_disabled":false,"rental_uris":{"android":"levelo://app?vid=461c4bc1-8be2-478c-a171-3a0301260bb9","ios":"levelo://app?vid=461c4bc1-8be2-478c-a171-3a0301260bb9"},"vehicle_type_id":"4","last_reported":1751462740,"current_range_meters":20000,"station_id":"ce4bgj12rcd13ifvqbc0","pricing_plan_id":"cebpf4jnsgd1na2vs0mg"},{"bike_id":"9d51fb29-1b8c-4bab-8c96-33e72b68712d","system_id":"levelo_inurba_marseille","lat":43.2762,"lon":5.36115,"is_reserved":false,"is_disabled":false,"rental_uris":{"android":"levelo://app?vid=9d51fb29-1b8c-4bab-8c96-33e72b68712d","ios":"levelo://app?vid=9d51fb29-1b8c-4bab-8c96-33e72b68712d"},"vehicle_type_id":"4","last_reported":1751462740,"current_range_meters":20000,"station_id":"ce4bgj92rcd13ifvqbe0","pricing_plan_id":"cebpf4jnsgd1na2vs0mg"},{"bike_id":"d6e90a4e-c2a2-487c-bca7-cf9938068776","system_id":"levelo_inurba_marseille","lat":43.30923,"lon":5.3685,"is_reserved":false,"is_disabled":false,"rental_uris":{"android":"levelo://app?vid=d6e90a4e-c2a2-487c-bca7-cf9938068776","ios":"levelo://app?vid=d6e90a4e-c2a2-487c-bca7-cf9938068776"},"vehicle_type_id":"4","last_reported":1751462740,"current_range_meters":20000,"station_id":"ce4bgn92rcd13ifvqbvg","pricing_plan_id":"cebpf4jnsgd1na2vs0mg"},{"bike_id":"b0496903-e4e2-480d-b2e6-4fcaae2cd474","system_id":"levelo_inurba_marseille","lat":43.31371,"lon":5.36734,"is_reserved":false,"is_disabled":false,"rental_uris":{"android":"levelo://app?vid=b0496903-e4e2-480d-b2e6-4fcaae2cd474","ios":"levelo://app?vid=b0496903-e4e2-480d-b2e6-4fcaae2cd474"},"vehicle_type_id":"4","last_reported":1751462740,"current_range_meters":20000,"station_id":"ce4bgr92rcd13ifvqc6g","pricing_plan_id":"cebpf4jnsgd1na2vs0mg"},{"bike_id":"f3a73906-89a7-4511-a50a-604dd043276a","system_id":"levelo_inurba_marseille","lat":43.28404,"lon":5.34994,"is_reserved":false,"is_disabled":false,"rental_uris":{"android":"levelo://app?vid=f3a73906-89a7-4511-a50a-604dd043276a","ios":"levelo://app?vid=f3a73906-89a7-4511-a50a-604dd043276a"},"vehicle_type_id":"4","last_reported":1751462740,"current_range_meters":20000,"station_id":"ce4bhbh2rcd13ifvqepg","pricing_plan_id":"cebpf4jnsgd1na2vs0mg"},{"bike_id":"2d079ff8-2bbe-47e4-953b-729358bca087","system_id":"levelo_inurba_marseille","lat":43.26557,"lon":5.37302,"is_reserved":false,"is_disabled":false,"rental_uris":{"android":"levelo://app?vid=2d079ff8-2bbe-47e4-953b-729358bca087","ios":"levelo://app?vid=2d079ff8-2bbe-47e4-953b-729358bca087"},"vehicle_type_id":"4","last_reported":1751462740,"current_range_meters":20000,"station_id":"ce4bhg12rcd13ifvqf70","pricing_plan_id":"cebpf4jnsgd1na2vs0mg"},{"bike_id":"37b84a38-055a-4a6e-a56a-8ff3d0c1b2ec","system_id":"levelo_inurba_marseille","lat":43.211935,"lon":5.35072,"is_reserved":false,"is_disabled":false,"rental_uris":{"android":"levelo://app?vid=37b84a38-055a-4a6e-a56a-8ff3d0c1b2ec","ios":"levelo://app?vid=37b84a38-055a-4a6e-a56a-8ff3d0c1b2ec"},"vehicle_type_id":"4","last_reported":1751462740,"current_range_meters":20000,"station_id":"st_cvj6sg6p6f1abm77japg","pricing_plan_id":"cebpf4jnsgd1na2vs0mg"},{"bike_id":"2d7ab8c9-ccb6-4168-91f8-ffbbd54cc09d","system_id":"levelo_inurba_marseille","lat":43.29746,"lon":5.36979,"is_reserved":false,"is_disabled":false,"rental_uris":{"android":"levelo://app?vid=2d7ab8c9-ccb6-4168-91f8-ffbbd54cc09d","ios":"levelo://app?vid=2d7ab8c9-ccb6-4168-91f8-ffbbd54cc09d"},"vehicle_type_id":"4","last_reported":1751462740,"current_range_meters":20400,"station_id":"","pricing_plan_id":"cebpf4jnsgd1na2vs0mg"},{"bike_id":"d7eb42dd-1291-458b-978f-486fe89680a6","system_id":"levelo_inurba_marseille","lat":43.2481,"lon":5.37458,"is_reserved":false,"is_disabled":false,"rental_uris":{"android":"levelo://app?vid=d7eb42dd-1291-458b-978f-486fe89680a6","ios":"levelo://app?vid=d7eb42dd-1291-458b-978f-486fe89680a6"},"vehicle_type_id":"4","last_reported":1751462740,"current_range_meters":20400,"station_id":"ce4bhgh2rcd13ifvqfb0","pricing_plan_id":"cebpf4jnsgd1na2vs0mg"},{"bike_id":"648bbb6d-2154-46cd-97c2-aff236591999","system_id":"levelo_inurba_marseille","lat":43.23956,"lon":5.36634,"is_reserved":false,"is_disabled":false,"rental_uris":{"android":"levelo://app?vid=648bbb6d-2154-46cd-97c2-aff236591999","ios":"levelo://app?vid=648bbb6d-2154-46cd-97c2-aff236591999"},"vehicle_type_id":"4","last_reported":1751462740,"current_range_meters":20400,"station_id":"ce4bhi12rcd13ifvqfp0","pricing_plan_id":"cebpf4jnsgd1na2vs0mg"},{"bike_id":"f323ecca-b636-481d-bdcb-2cd830ece8fd","system_id":"levelo_inurba_marseille","lat":43.25099,"lon":5.40333,"is_reserved":false,"is_disabled":false,"rental_uris":{"android":"levelo://app?vid=f323ecca-b636-481d-bdcb-2cd830ece8fd","ios":"levelo://app?vid=f323ecca-b636-481d-bdcb-2cd830ece8fd"},"vehicle_type_id":"4","last_reported":1751462740,"current_range_meters":20400,"station_id":"ce4bhlh2rcd13ifvqgig","pricing_plan_id":"cebpf4jnsgd1na2vs0mg"},{"bike_id":"21e2c51d-4563-4efd-afbf-0ddeff93c862","system_id":"levelo_inurba_marseille","lat":43.2176,"lon":5.34601,"is_reserved":false,"is_disabled":false,"rental_uris":{"android":"levelo://app?vid=21e2c51d-4563-4efd-afbf-0ddeff93c862","ios":"levelo://app?vid=21e2c51d-4563-4efd-afbf-0ddeff93c862"},"vehicle_type_id":"4","last_reported":1751462740,"current_range_meters":20400,"station_id":"st_cvj6r9ubvosntc0bgbag","pricing_plan_id":"cebpf4jnsgd1na2vs0mg"},{"bike_id":"4d4995e7-0bba-4ac2-a238-afd84a5e99b5","system_id":"levelo_inurba_marseille","lat":43.304848,"lon":5.398345,"is_reserved":false,"is_disabled":false,"rental_uris":{"android":"levelo://app?vid=4d4995e7-0bba-4ac2-a238-afd84a5e99b5","ios":"levelo://app?vid=4d4995e7-0bba-4ac2-a238-afd84a5e99b5"},"vehicle_type_id":"4","last_reported":1751462740,"current_range_meters":20800,"station_id":"","pricing_plan_id":"cebpf4jnsgd1na2vs0mg"},{"bike_id":"50bb0fdb-2cc1-4d8d-af26-b7febba54985","system_id":"levelo_inurba_marseille","lat":43.274139,"lon":5.39007,"is_reserved":false,"is_disabled":false,"rental_uris":{"android":"levelo://app?vid=50bb0fdb-2cc1-4d8d-af26-b7febba54985","ios":"levelo://app?vid=50bb0fdb-2cc1-4d8d-af26-b7febba54985"},"vehicle_type_id":"4","last_reported":1751462740,"current_range_meters":20800,"station_id":"","pricing_plan_id":"cebpf4jnsgd1na2vs0mg"},{"bike_id":"3697451d-24c1-4209-95cc-419d1b124409","system_id":"levelo_inurba_marseille","lat":43.30605,"lon":5.3723,"is_reserved":false,"is_disabled":false,"rental_uris":{"android":"levelo://app?vid=3697451d-24c1-4209-95cc-419d1b124409","ios":"levelo://app?vid=3697451d-24c1-4209-95cc-419d1b124409"},"vehicle_type_id":"4","last_reported":1751462740,"current_range_meters":20800,"station_id":"ce4bgqh2rcd13ifvqc4g","pricing_plan_id":"cebpf4jnsgd1na2vs0mg"},{"bike_id":"aa3f9250-dc27-4ab1-a45a-d862a4fa9ee5","system_id":"levelo_inurba_marseille","lat":43.3054,"lon":5.36538,"is_reserved":false,"is_disabled":false,"rental_uris":{"android":"levelo://app?vid=aa3f9250-dc27-4ab1-a45a-d862a4fa9ee5","ios":"levelo://app?vid=aa3f9250-dc27-4ab1-a45a-d862a4fa9ee5"},"vehicle_type_id":"4","last_reported":1751462740,"current_range_meters":20800,"station_id":"ce4bgs12rcd13ifvqcag","pricing_plan_id":"cebpf4jnsgd1na2vs0mg"},{"bike_id":"150da376-d03e-474f-8446-9705b1587657","system_id":"levelo_inurba_marseille","lat":43.28468,"lon":5.35903,"is_reserved":false,"is_disabled":false,"rental_uris":{"android":"levelo://app?vid=150da376-d03e-474f-8446-9705b1587657","ios":"levelo://app?vid=150da376-d03e-474f-8446-9705b1587657"},"vehicle_type_id":"4","last_reported":1751462740,"current_range_meters":20800,"station_id":"ce4bhah2rcd13ifvqei0","pricing_plan_id":"cebpf4jnsgd1na2vs0mg"},{"bike_id":"92ce571e-8bb4-4eab-9f9e-809fb7433bc6","system_id":"levelo_inurba_marseille","lat":43.27374,"lon":5.36255,"is_reserved":false,"is_disabled":false,"rental_uris":{"android":"levelo://app?vid=92ce571e-8bb4-4eab-9f9e-809fb7433bc6","ios":"levelo://app?vid=92ce571e-8bb4-4eab-9f9e-809fb7433bc6"},"vehicle_type_id":"4","last_reported":1751462740,"current_range_meters":20800,"station_id":"ce4bhbh2rcd13ifvqeo0","pricing_plan_id":"cebpf4jnsgd1na2vs0mg"},{"bike_id":"a48aa2e1-e5cd-42fa-b9b4-37dd0adac985","system_id":"levelo_inurba_marseille","lat":43.26808,"lon":5.40272,"is_reserved":false,"is_disabled":false,"rental_uris":{"android":"levelo://app?vid=a48aa2e1-e5cd-42fa-b9b4-37dd0adac985","ios":"levelo://app?vid=a48aa2e1-e5cd-42fa-b9b4-37dd0adac985"},"vehicle_type_id":"4","last_reported":1751462740,"current_range_meters":20800,"station_id":"ce501612rcd8frsf0b60","pricing_plan_id":"cebpf4jnsgd1na2vs0mg"},{"bike_id":"a6715104-7492-4ec6-a996-23050baf8551","system_id":"levelo_inurba_marseille","lat":43.225,"lon":5.3477,"is_reserved":false,"is_disabled":false,"rental_uris":{"android":"levelo://app?vid=a6715104-7492-4ec6-a996-23050baf8551","ios":"levelo://app?vid=a6715104-7492-4ec6-a996-23050baf8551"},"vehicle_type_id":"4","last_reported":1751462740,"current_range_meters":20800,"station_id":"st_cvj5dfep6f1abm77gieg","pricing_plan_id":"cebpf4jnsgd1na2vs0mg"},{"bike_id":"7e21e8f2-09c8-4cc5-8113-278ebd23888d","system_id":"levelo_inurba_marseille","lat":43.2119,"lon":5.35071,"is_reserved":false,"is_disabled":false,"rental_uris":{"android":"levelo://app?vid=7e21e8f2-09c8-4cc5-8113-278ebd23888d","ios":"levelo://app?vid=7e21e8f2-09c8-4cc5-8113-278ebd23888d"},"vehicle_type_id":"4","last_reported":1751462740,"current_range_meters":20800,"station_id":"st_cvj6sg6p6f1abm77japg","pricing_plan_id":"cebpf4jnsgd1na2vs0mg"},{"bike_id":"ed15fb1d-15f2-480d-96e2-411a0f511fce","system_id":"levelo_inurba_marseille","lat":43.29281,"lon":5.40114,"is_reserved":false,"is_disabled":false,"rental_uris":{"android":"levelo://app?vid=ed15fb1d-15f2-480d-96e2-411a0f511fce","ios":"levelo://app?vid=ed15fb1d-15f2-480d-96e2-411a0f511fce"},"vehicle_type_id":"4","last_reported":1751462740,"current_range_meters":21600,"station_id":"ce4bh312rcd13ifvqdk0","pricing_plan_id":"cebpf4jnsgd1na2vs0mg"},{"bike_id":"cb691c85-582b-4b8e-ad8b-b202efaec54d","system_id":"levelo_inurba_marseille","lat":43.2738,"lon":5.36259,"is_reserved":false,"is_disabled":false,"rental_uris":{"android":"levelo://app?vid=cb691c85-582b-4b8e-ad8b-b202efaec54d","ios":"levelo://app?vid=cb691c85-582b-4b8e-ad8b-b202efaec54d"},"vehicle_type_id":"4","last_reported":1751462740,"current_range_meters":21600,"station_id":"ce4bhbh2rcd13ifvqeo0","pricing_plan_id":"cebpf4jnsgd1na2vs0mg"},{"bike_id":"cda6d3b5-c99f-4557-b780-0645d22f01a2","system_id":"levelo_inurba_marseille","lat":43.28697,"lon":5.39983,"is_reserved":false,"is_disabled":false,"rental_uris":{"android":"levelo://app?vid=cda6d3b5-c99f-4557-b780-0645d22f01a2","ios":"levelo://app?vid=cda6d3b5-c99f-4557-b780-0645d22f01a2"},"vehicle_type_id":"4","last_reported":1751462740,"current_range_meters":21600,"station_id":"ce4bho92rcd13ifvqh3g","pricing_plan_id":"cebpf4jnsgd1na2vs0mg"},{"bike_id":"30c515b1-b7f5-4353-9590-ea6a164d9b65","system_id":"levelo_inurba_marseille","lat":43.27996,"lon":5.40033,"is_reserved":false,"is_disabled":false,"rental_uris":{"android":"levelo://app?vid=30c515b1-b7f5-4353-9590-ea6a164d9b65","ios":"levelo://app?vid=30c515b1-b7f5-4353-9590-ea6a164d9b65"},"vehicle_type_id":"4","last_reported":1751462740,"current_range_meters":21600,"station_id":"ce4bho92rcd13ifvqh4g","pricing_plan_id":"cebpf4jnsgd1na2vs0mg"},{"bike_id":"88ba2eb8-6abc-42f0-a2b7-fafab863863b","system_id":"levelo_inurba_marseille","lat":43.29224,"lon":5.40681,"is_reserved":false,"is_disabled":false,"rental_uris":{"android":"levelo://app?vid=88ba2eb8-6abc-42f0-a2b7-fafab863863b","ios":"levelo://app?vid=88ba2eb8-6abc-42f0-a2b7-fafab863863b"},"vehicle_type_id":"4","last_reported":1751462740,"current_range_meters":22000,"station_id":"","pricing_plan_id":"cebpf4jnsgd1na2vs0mg"},{"bike_id":"1e9d4f66-a250-4225-bed3-28ec2e51feee","system_id":"levelo_inurba_marseille","lat":43.31222,"lon":5.36863,"is_reserved":false,"is_disabled":false,"rental_uris":{"android":"levelo://app?vid=1e9d4f66-a250-4225-bed3-28ec2e51feee","ios":"levelo://app?vid=1e9d4f66-a250-4225-bed3-28ec2e51feee"},"vehicle_type_id":"4","last_reported":1751462740,"current_range_meters":22000,"station_id":"ce4bgl92rcd13ifvqbq0","pricing_plan_id":"cebpf4jnsgd1na2vs0mg"},{"bike_id":"47d30eaa-7064-4301-b4fd-2f92dd279bdf","system_id":"levelo_inurba_marseille","lat":43.3055,"lon":5.36707,"is_reserved":false,"is_disabled":false,"rental_uris":{"android":"levelo://app?vid=47d30eaa-7064-4301-b4fd-2f92dd279bdf","ios":"levelo://app?vid=47d30eaa-7064-4301-b4fd-2f92dd279bdf"},"vehicle_type_id":"4","last_reported":1751462740,"current_range_meters":22000,"station_id":"ce4bgrp2rcd13ifvqc9g","pricing_plan_id":"cebpf4jnsgd1na2vs0mg"},{"bike_id":"185c2e28-78d9-498b-b22f-8467be8d09bf","system_id":"levelo_inurba_marseille","lat":43.28565,"lon":5.39498,"is_reserved":false,"is_disabled":false,"rental_uris":{"android":"levelo://app?vid=185c2e28-78d9-498b-b22f-8467be8d09bf","ios":"levelo://app?vid=185c2e28-78d9-498b-b22f-8467be8d09bf"},"vehicle_type_id":"4","last_reported":1751462740,"current_range_meters":22000,"station_id":"ce4bh292rcd13ifvqdg0","pricing_plan_id":"cebpf4jnsgd1na2vs0mg"},{"bike_id":"1ccbeb41-8373-4765-a948-748c8c6fb34c","system_id":"levelo_inurba_marseille","lat":43.27374,"lon":5.3626,"is_reserved":false,"is_disabled":false,"rental_uris":{"android":"levelo://app?vid=1ccbeb41-8373-4765-a948-748c8c6fb34c","ios":"levelo://app?vid=1ccbeb41-8373-4765-a948-748c8c6fb34c"},"vehicle_type_id":"4","last_reported":1751462740,"current_range_meters":22000,"station_id":"ce4bhbh2rcd13ifvqeo0","pricing_plan_id":"cebpf4jnsgd1na2vs0mg"},{"bike_id":"bed3e8a6-b151-4512-8ecd-b49dd3969a2c","system_id":"levelo_inurba_marseille","lat":43.32115,"lon":5.36779,"is_reserved":false,"is_disabled":false,"rental_uris":{"android":"levelo://app?vid=bed3e8a6-b151-4512-8ecd-b49dd3969a2c","ios":"levelo://app?vid=bed3e8a6-b151-4512-8ecd-b49dd3969a2c"},"vehicle_type_id":"4","last_reported":1751462740,"current_range_meters":22000,"station_id":"ce4bhrh2rcd13ifvqhug","pricing_plan_id":"cebpf4jnsgd1na2vs0mg"},{"bike_id":"26e1cd53-ce80-4f26-8f93-18bdcecac2a5","system_id":"levelo_inurba_marseille","lat":43.30544,"lon":5.3652,"is_reserved":false,"is_disabled":false,"rental_uris":{"android":"levelo://app?vid=26e1cd53-ce80-4f26-8f93-18bdcecac2a5","ios":"levelo://app?vid=26e1cd53-ce80-4f26-8f93-18bdcecac2a5"},"vehicle_type_id":"4","last_reported":1751462740,"current_range_meters":22400,"station_id":"ce4bgs12rcd13ifvqcag","pricing_plan_id":"cebpf4jnsgd1na2vs0mg"},{"bike_id":"24d3d1ab-6cac-4158-827e-6a87e189524a","system_id":"levelo_inurba_marseille","lat":43.29179,"lon":5.37142,"is_reserved":false,"is_disabled":false,"rental_uris":{"android":"levelo://app?vid=24d3d1ab-6cac-4158-827e-6a87e189524a","ios":"levelo://app?vid=24d3d1ab-6cac-4158-827e-6a87e189524a"},"vehicle_type_id":"4","last_reported":1751462740,"current_range_meters":22400,"station_id":"ce4bha92rcd13ifvqeh0","pricing_plan_id":"cebpf4jnsgd1na2vs0mg"},{"bike_id":"22d41e0f-1956-446f-8d56-1b6d97374836","system_id":"levelo_inurba_marseille","lat":43.28417,"lon":5.34972,"is_reserved":false,"is_disabled":false,"rental_uris":{"android":"levelo://app?vid=22d41e0f-1956-446f-8d56-1b6d97374836","ios":"levelo://app?vid=22d41e0f-1956-446f-8d56-1b6d97374836"},"vehicle_type_id":"4","last_reported":1751462740,"current_range_meters":22400,"station_id":"ce4bhbh2rcd13ifvqepg","pricing_plan_id":"cebpf4jnsgd1na2vs0mg"},{"bike_id":"34b20eac-7d5d-4be6-a625-9da3dba56cec","system_id":"levelo_inurba_marseille","lat":43.28267,"lon":5.35058,"is_reserved":false,"is_disabled":false,"rental_uris":{"android":"levelo://app?vid=34b20eac-7d5d-4be6-a625-9da3dba56cec","ios":"levelo://app?vid=34b20eac-7d5d-4be6-a625-9da3dba56cec"},"vehicle_type_id":"4","last_reported":1751462740,"current_range_meters":22400,"station_id":"ce4bhbp2rcd13ifvqerg","pricing_plan_id":"cebpf4jnsgd1na2vs0mg"},{"bike_id":"cc04118e-9312-4bf8-9106-d64e829afbaa","system_id":"levelo_inurba_marseille","lat":43.21185,"lon":5.35064,"is_reserved":false,"is_disabled":false,"rental_uris":{"android":"levelo://app?vid=cc04118e-9312-4bf8-9106-d64e829afbaa","ios":"levelo://app?vid=cc04118e-9312-4bf8-9106-d64e829afbaa"},"vehicle_type_id":"4","last_reported":1751462740,"current_range_meters":22400,"station_id":"st_cvj6sg6p6f1abm77japg","pricing_plan_id":"cebpf4jnsgd1na2vs0mg"},{"bike_id":"b2ce53ca-166b-417e-9d70-9bee393f75bb","system_id":"levelo_inurba_marseille","lat":43.21191,"lon":5.35053,"is_reserved":false,"is_disabled":false,"rental_uris":{"android":"levelo://app?vid=b2ce53ca-166b-417e-9d70-9bee393f75bb","ios":"levelo://app?vid=b2ce53ca-166b-417e-9d70-9bee393f75bb"},"vehicle_type_id":"4","last_reported":1751462740,"current_range_meters":22400,"station_id":"st_cvj6sg6p6f1abm77japg","pricing_plan_id":"cebpf4jnsgd1na2vs0mg"},{"bike_id":"1c8ab180-05fd-405f-9922-b2b2c2d5142f","system_id":"levelo_inurba_marseille","lat":43.33784,"lon":5.38138,"is_reserved":false,"is_disabled":false,"rental_uris":{"android":"levelo://app?vid=1c8ab180-05fd-405f-9922-b2b2c2d5142f","ios":"levelo://app?vid=1c8ab180-05fd-405f-9922-b2b2c2d5142f"},"vehicle_type_id":"4","last_reported":1751462740,"current_range_meters":22800,"station_id":"","pricing_plan_id":"cebpf4jnsgd1na2vs0mg"},{"bike_id":"a0480f1d-3573-45b7-8d76-2022e256c551","system_id":"levelo_inurba_marseille","lat":43.25928,"lon":5.40863,"is_reserved":false,"is_disabled":false,"rental_uris":{"android":"levelo://app?vid=a0480f1d-3573-45b7-8d76-2022e256c551","ios":"levelo://app?vid=a0480f1d-3573-45b7-8d76-2022e256c551"},"vehicle_type_id":"4","last_reported":1751462740,"current_range_meters":22800,"station_id":"ce4bhm92rcd13ifvqglg","pricing_plan_id":"cebpf4jnsgd1na2vs0mg"},{"bike_id":"c6a06b6b-2289-464e-9d47-7bb489b1a929","system_id":"levelo_inurba_marseille","lat":43.2407,"lon":5.37764,"is_reserved":false,"is_disabled":false,"rental_uris":{"android":"levelo://app?vid=c6a06b6b-2289-464e-9d47-7bb489b1a929","ios":"levelo://app?vid=c6a06b6b-2289-464e-9d47-7bb489b1a929"},"vehicle_type_id":"4","last_reported":1751462740,"current_range_meters":22800,"station_id":"ce4bhnp2rcd13ifvqgvg","pricing_plan_id":"cebpf4jnsgd1na2vs0mg"},{"bike_id":"ac054ea0-018a-4ab8-8f9e-00ce38b39808","system_id":"levelo_inurba_marseille","lat":43.279999,"lon":5.400065,"is_reserved":false,"is_disabled":false,"rental_uris":{"android":"levelo://app?vid=ac054ea0-018a-4ab8-8f9e-00ce38b39808","ios":"levelo://app?vid=ac054ea0-018a-4ab8-8f9e-00ce38b39808"},"vehicle_type_id":"4","last_reported":1751462740,"current_range_meters":22800,"station_id":"ce4bho92rcd13ifvqh4g","pricing_plan_id":"cebpf4jnsgd1na2vs0mg"},{"bike_id":"26ea36f0-4bc6-4834-ad15-df6df86c753d","system_id":"levelo_inurba_marseille","lat":43.26697,"lon":5.38286,"is_reserved":false,"is_disabled":false,"rental_uris":{"android":"levelo://app?vid=26ea36f0-4bc6-4834-ad15-df6df86c753d","ios":"levelo://app?vid=26ea36f0-4bc6-4834-ad15-df6df86c753d"},"vehicle_type_id":"4","last_reported":1751462740,"current_range_meters":23200,"station_id":"ce4bhg92rcd13ifvqf90","pricing_plan_id":"cebpf4jnsgd1na2vs0mg"},{"bike_id":"2079a3bc-2800-4acf-8843-fca1c0d8af56","system_id":"levelo_inurba_marseille","lat":43.2315,"lon":5.43741,"is_reserved":false,"is_disabled":false,"rental_uris":{"android":"levelo://app?vid=2079a3bc-2800-4acf-8843-fca1c0d8af56","ios":"levelo://app?vid=2079a3bc-2800-4acf-8843-fca1c0d8af56"},"vehicle_type_id":"4","last_reported":1751462740,"current_range_meters":23200,"station_id":"ce4bhmp2rcd13ifvqgog","pricing_plan_id":"cebpf4jnsgd1na2vs0mg"},{"bike_id":"7b84bcce-1434-4d58-8e6b-677d4cbd9f1a","system_id":"levelo_inurba_marseille","lat":43.29374,"lon":5.37839,"is_reserved":false,"is_disabled":false,"rental_uris":{"android":"levelo://app?vid=7b84bcce-1434-4d58-8e6b-677d4cbd9f1a","ios":"levelo://app?vid=7b84bcce-1434-4d58-8e6b-677d4cbd9f1a"},"vehicle_type_id":"4","last_reported":1751462740,"current_range_meters":24000,"station_id":"ce4bgjh2rcd13ifvqbf0","pricing_plan_id":"cebpf4jnsgd1na2vs0mg"},{"bike_id":"d58715e7-44cf-4b78-9cc5-5010aafd8b86","system_id":"levelo_inurba_marseille","lat":43.29605,"lon":5.38094,"is_reserved":false,"is_disabled":false,"rental_uris":{"android":"levelo://app?vid=d58715e7-44cf-4b78-9cc5-5010aafd8b86","ios":"levelo://app?vid=d58715e7-44cf-4b78-9cc5-5010aafd8b86"},"vehicle_type_id":"4","last_reported":1751462740,"current_range_meters":24000,"station_id":"ce4bgl12rcd13ifvqbo0","pricing_plan_id":"cebpf4jnsgd1na2vs0mg"},{"bike_id":"4e606431-65c9-4799-ad41-59085c7e5870","system_id":"levelo_inurba_marseille","lat":43.30293,"lon":5.40113,"is_reserved":false,"is_disabled":false,"rental_uris":{"android":"levelo://app?vid=4e606431-65c9-4799-ad41-59085c7e5870","ios":"levelo://app?vid=4e606431-65c9-4799-ad41-59085c7e5870"},"vehicle_type_id":"4","last_reported":1751462740,"current_range_meters":24000,"station_id":"ce4bgvh2rcd13ifvqcs0","pricing_plan_id":"cebpf4jnsgd1na2vs0mg"},{"bike_id":"bc40aa71-824f-44c5-bf65-2ca171b28670","system_id":"levelo_inurba_marseille","lat":43.27378,"lon":5.36259,"is_reserved":false,"is_disabled":false,"rental_uris":{"android":"levelo://app?vid=bc40aa71-824f-44c5-bf65-2ca171b28670","ios":"levelo://app?vid=bc40aa71-824f-44c5-bf65-2ca171b28670"},"vehicle_type_id":"4","last_reported":1751462740,"current_range_meters":24000,"station_id":"ce4bhbh2rcd13ifvqeo0","pricing_plan_id":"cebpf4jnsgd1na2vs0mg"},{"bike_id":"43df1b19-4ba4-46b3-8ca1-47ab71618d14","system_id":"levelo_inurba_marseille","lat":43.26028,"lon":5.37554,"is_reserved":false,"is_disabled":false,"rental_uris":{"android":"levelo://app?vid=43df1b19-4ba4-46b3-8ca1-47ab71618d14","ios":"levelo://app?vid=43df1b19-4ba4-46b3-8ca1-47ab71618d14"},"vehicle_type_id":"4","last_reported":1751462740,"current_range_meters":24000,"station_id":"ce4bhgh2rcd13ifvqfa0","pricing_plan_id":"cebpf4jnsgd1na2vs0mg"},{"bike_id":"a0e96951-1fe3-457a-957e-c635494e539e","system_id":"levelo_inurba_marseille","lat":43.29786,"lon":5.39329,"is_reserved":false,"is_disabled":false,"rental_uris":{"android":"levelo://app?vid=a0e96951-1fe3-457a-957e-c635494e539e","ios":"levelo://app?vid=a0e96951-1fe3-457a-957e-c635494e539e"},"vehicle_type_id":"4","last_reported":1751462740,"current_range_meters":24000,"station_id":"chh1huq6cuj3fo74tm60","pricing_plan_id":"cebpf4jnsgd1na2vs0mg"},{"bike_id":"5f1e5526-9ff8-4075-8194-48a897f058b4","system_id":"levelo_inurba_marseille","lat":43.21172,"lon":5.35094,"is_reserved":false,"is_disabled":false,"rental_uris":{"android":"levelo://app?vid=5f1e5526-9ff8-4075-8194-48a897f058b4","ios":"levelo://app?vid=5f1e5526-9ff8-4075-8194-48a897f058b4"},"vehicle_type_id":"4","last_reported":1751462740,"current_range_meters":24000,"station_id":"st_cvj6sg6p6f1abm77japg","pricing_plan_id":"cebpf4jnsgd1na2vs0mg"},{"bike_id":"3eabe1e2-f9f5-41cb-a4ed-73ca7f909c5c","system_id":"levelo_inurba_marseille","lat":43.21201,"lon":5.35096,"is_reserved":false,"is_disabled":false,"rental_uris":{"android":"levelo://app?vid=3eabe1e2-f9f5-41cb-a4ed-73ca7f909c5c","ios":"levelo://app?vid=3eabe1e2-f9f5-41cb-a4ed-73ca7f909c5c"},"vehicle_type_id":"4","last_reported":1751462740,"current_range_meters":24000,"station_id":"st_cvj6sg6p6f1abm77japg","pricing_plan_id":"cebpf4jnsgd1na2vs0mg"},{"bike_id":"9ad79cee-b0b0-4f99-bda5-65fd8dcf2bd0","system_id":"levelo_inurba_marseille","lat":43.29252,"lon":5.37622,"is_reserved":false,"is_disabled":false,"rental_uris":{"android":"levelo://app?vid=9ad79cee-b0b0-4f99-bda5-65fd8dcf2bd0","ios":"levelo://app?vid=9ad79cee-b0b0-4f99-bda5-65fd8dcf2bd0"},"vehicle_type_id":"4","last_reported":1751462740,"current_range_meters":24400,"station_id":"ce4bgi12rcd13ifvqb80","pricing_plan_id":"cebpf4jnsgd1na2vs0mg"},{"bike_id":"3ef0f6c0-6718-45d6-88a7-9a832740f9fe","system_id":"levelo_inurba_marseille","lat":43.30153,"lon":5.3809,"is_reserved":false,"is_disabled":false,"rental_uris":{"android":"levelo://app?vid=3ef0f6c0-6718-45d6-88a7-9a832740f9fe","ios":"levelo://app?vid=3ef0f6c0-6718-45d6-88a7-9a832740f9fe"},"vehicle_type_id":"4","last_reported":1751462740,"current_range_meters":24400,"station_id":"ce4bgjp2rcd13ifvqbh0","pricing_plan_id":"cebpf4jnsgd1na2vs0mg"},{"bike_id":"36cf1dd9-bb88-447f-a6e3-848253cfa8d1","system_id":"levelo_inurba_marseille","lat":43.30547,"lon":5.36541,"is_reserved":false,"is_disabled":false,"rental_uris":{"android":"levelo://app?vid=36cf1dd9-bb88-447f-a6e3-848253cfa8d1","ios":"levelo://app?vid=36cf1dd9-bb88-447f-a6e3-848253cfa8d1"},"vehicle_type_id":"4","last_reported":1751462740,"current_range_meters":24400,"station_id":"ce4bgs12rcd13ifvqcag","pricing_plan_id":"cebpf4jnsgd1na2vs0mg"},{"bike_id":"5c5223db-1f5c-4b90-97b4-4dd595495bd6","system_id":"levelo_inurba_marseille","lat":43.309263,"lon":5.396432,"is_reserved":false,"is_disabled":false,"rental_uris":{"android":"levelo://app?vid=5c5223db-1f5c-4b90-97b4-4dd595495bd6","ios":"levelo://app?vid=5c5223db-1f5c-4b90-97b4-4dd595495bd6"},"vehicle_type_id":"4","last_reported":1751462740,"current_range_meters":24400,"station_id":"ce4bh012rcd13ifvqcv0","pricing_plan_id":"cebpf4jnsgd1na2vs0mg"},{"bike_id":"bf0491e9-a69f-493e-8da1-46af98e17e7e","system_id":"levelo_inurba_marseille","lat":43.26553,"lon":5.37279,"is_reserved":false,"is_disabled":false,"rental_uris":{"android":"levelo://app?vid=bf0491e9-a69f-493e-8da1-46af98e17e7e","ios":"levelo://app?vid=bf0491e9-a69f-493e-8da1-46af98e17e7e"},"vehicle_type_id":"4","last_reported":1751462740,"current_range_meters":24400,"station_id":"ce4bhg12rcd13ifvqf70","pricing_plan_id":"cebpf4jnsgd1na2vs0mg"},{"bike_id":"5770f2c8-8013-480a-88d0-9eff8590ad47","system_id":"levelo_inurba_marseille","lat":43.2316,"lon":5.43745,"is_reserved":false,"is_disabled":false,"rental_uris":{"android":"levelo://app?vid=5770f2c8-8013-480a-88d0-9eff8590ad47","ios":"levelo://app?vid=5770f2c8-8013-480a-88d0-9eff8590ad47"},"vehicle_type_id":"4","last_reported":1751462740,"current_range_meters":24400,"station_id":"ce4bhmp2rcd13ifvqgog","pricing_plan_id":"cebpf4jnsgd1na2vs0mg"},{"bike_id":"31fab6ac-cee8-4404-87e8-15e94cf1944e","system_id":"levelo_inurba_marseille","lat":43.24172,"lon":5.36414,"is_reserved":false,"is_disabled":false,"rental_uris":{"android":"levelo://app?vid=31fab6ac-cee8-4404-87e8-15e94cf1944e","ios":"levelo://app?vid=31fab6ac-cee8-4404-87e8-15e94cf1944e"},"vehicle_type_id":"4","last_reported":1751462740,"current_range_meters":24400,"station_id":"cpo36qri1sfpv3e86is0","pricing_plan_id":"cebpf4jnsgd1na2vs0mg"},{"bike_id":"ba926bfc-9632-4680-b0ed-32a040d6fb83","system_id":"levelo_inurba_marseille","lat":43.21184,"lon":5.35094,"is_reserved":false,"is_disabled":false,"rental_uris":{"android":"levelo://app?vid=ba926bfc-9632-4680-b0ed-32a040d6fb83","ios":"levelo://app?vid=ba926bfc-9632-4680-b0ed-32a040d6fb83"},"vehicle_type_id":"4","last_reported":1751462740,"current_range_meters":24400,"station_id":"st_cvj6sg6p6f1abm77japg","pricing_plan_id":"cebpf4jnsgd1na2vs0mg"},{"bike_id":"b13877a6-4825-4d82-b46b-67fa8ad66c5d","system_id":"levelo_inurba_marseille","lat":43.21182,"lon":5.35094,"is_reserved":false,"is_disabled":false,"rental_uris":{"android":"levelo://app?vid=b13877a6-4825-4d82-b46b-67fa8ad66c5d","ios":"levelo://app?vid=b13877a6-4825-4d82-b46b-67fa8ad66c5d"},"vehicle_type_id":"4","last_reported":1751462740,"current_range_meters":24400,"station_id":"st_cvj6sg6p6f1abm77japg","pricing_plan_id":"cebpf4jnsgd1na2vs0mg"},{"bike_id":"7712491c-e18b-4b09-bb79-30880b357c07","system_id":"levelo_inurba_marseille","lat":43.21185,"lon":5.35075,"is_reserved":false,"is_disabled":false,"rental_uris":{"android":"levelo://app?vid=7712491c-e18b-4b09-bb79-30880b357c07","ios":"levelo://app?vid=7712491c-e18b-4b09-bb79-30880b357c07"},"vehicle_type_id":"4","last_reported":1751462740,"current_range_meters":24400,"station_id":"st_cvj6sg6p6f1abm77japg","pricing_plan_id":"cebpf4jnsgd1na2vs0mg"},{"bike_id":"7af9f78b-8216-43ee-a369-4a24baea425e","system_id":"levelo_inurba_marseille","lat":43.3135,"lon":5.36737,"is_reserved":false,"is_disabled":false,"rental_uris":{"android":"levelo://app?vid=7af9f78b-8216-43ee-a369-4a24baea425e","ios":"levelo://app?vid=7af9f78b-8216-43ee-a369-4a24baea425e"},"vehicle_type_id":"4","last_reported":1751462740,"current_range_meters":24800,"station_id":"ce4bgr92rcd13ifvqc6g","pricing_plan_id":"cebpf4jnsgd1na2vs0mg"},{"bike_id":"5c646a29-10e3-4b9b-ae32-c776055b51f7","system_id":"levelo_inurba_marseille","lat":43.31706,"lon":5.37754,"is_reserved":false,"is_disabled":false,"rental_uris":{"android":"levelo://app?vid=5c646a29-10e3-4b9b-ae32-c776055b51f7","ios":"levelo://app?vid=5c646a29-10e3-4b9b-ae32-c776055b51f7"},"vehicle_type_id":"4","last_reported":1751462740,"current_range_meters":24800,"station_id":"ce4bgth2rcd13ifvqch0","pricing_plan_id":"cebpf4jnsgd1na2vs0mg"},{"bike_id":"2dd216fa-cd8c-4548-a0ce-b40749e6c17c","system_id":"levelo_inurba_marseille","lat":43.28037,"lon":5.3695,"is_reserved":false,"is_disabled":false,"rental_uris":{"android":"levelo://app?vid=2dd216fa-cd8c-4548-a0ce-b40749e6c17c","ios":"levelo://app?vid=2dd216fa-cd8c-4548-a0ce-b40749e6c17c"},