{"last_updated":1744729843,"ttl":60,"version":"2.2","data":{"bikes":[{"bike_id":"514d3b70-ad71-4571-8e81-6beb0ba3b6c4","system_id":"levelo_inurba_marseille","lat":43.30266,"lon":5.396473,"is_reserved":false,"is_disabled":false,"rental_uris":{"android":"levelo://app?vid=514d3b70-ad71-4571-8e81-6beb0ba3b6c4","ios":"levelo://app?vid=514d3b70-ad71-4571-8e81-6beb0ba3b6c4"},"vehicle_type_id":"4","last_reported":1744729844,"current_range_meters":2800,"station_id":"","pricing_plan_id":"cebpf4jnsgd1na2vs0mg"},{"bike_id":"1f13ea4c-1592-4edd-9894-ced39f6f2c95","system_id":"levelo_inurba_marseille","lat":43.29876,"lon":5.39745,"is_reserved":false,"is_disabled":false,"rental_uris":{"android":"levelo://app?vid=1f13ea4c-1592-4edd-9894-ced39f6f2c95","ios":"levelo://app?vid=1f13ea4c-1592-4edd-9894-ced39f6f2c95"},"vehicle_type_id":"4","last_reported":1744729844,"current_range_meters":4400,"station_id":"ce4bh0h2rcd13ifvqd50","pricing_plan_id":"cebpf4jnsgd1na2vs0mg"},{"bike_id":"32c0fa6f-b866-4566-ba3a-2f34d58eba07","system_id":"levelo_inurba_marseille","lat":43.28696,"lon":5.39987,"is_reserved":false,"is_disabled":false,"rental_uris":{"android":"levelo://app?vid=32c0fa6f-b866-4566-ba3a-2f34d58eba07","ios":"levelo://app?vid=32c0fa6f-b866-4566-ba3a-2f34d58eba07"},"vehicle_type_id":"4","last_reported":1744729844,"current_range_meters":3200,"station_id":"ce4bho92rcd13ifvqh3g","pricing_plan_id":"cebpf4jnsgd1na2vs0mg"},{"bike_id":"7a8481f7-0b2a-4be5-ae1a-f763c73e794c","system_id":"levelo_inurba_marseille","lat":43.27836,"lon":5.39205,"is_reserved":false,"is_disabled":false,"rental_uris":{"android":"levelo://app?vid=7a8481f7-0b2a-4be5-ae1a-f763c73e794c","ios":"levelo://app?vid=7a8481f7-0b2a-4be5-ae1a-f763c73e794c"},"vehicle_type_id":"4","last_reported":1744729844,"current_range_meters":6000,"station_id":"ce4bhjp2rcd13ifvqga0","pricing_plan_id":"cebpf4jnsgd1na2vs0mg"},{"bike_id":"3bfa65e5-367b-4b98-bb81-91643538e233","system_id":"levelo_inurba_marseille","lat":43.26024,"lon":5.37558,"is_reserved":false,"is_disabled":false,"rental_uris":{"android":"levelo://app?vid=3bfa65e5-367b-4b98-bb81-91643538e233","ios":"levelo://app?vid=3bfa65e5-367b-4b98-bb81-91643538e233"},"vehicle_type_id":"4","last_reported":1744729844,"current_range_meters":3600,"station_id":"ce4bhgh2rcd13ifvqfa0","pricing_plan_id":"cebpf4jnsgd1na2vs0mg"},{"bike_id":"9af6d985-6c5e-4478-b8c1-be914bd8d0e0","system_id":"levelo_inurba_marseille","lat":43.2694,"lon":5.40251,"is_reserved":false,"is_disabled":false,"rental_uris":{"android":"levelo://app?vid=9af6d985-6c5e-4478-b8c1-be914bd8d0e0","ios":"levelo://app?vid=9af6d985-6c5e-4478-b8c1-be914bd8d0e0"},"vehicle_type_id":"4","last_reported":1744729844,"current_range_meters":3200,"station_id":"cjm6bp8fraef2m0cb0m0","pricing_plan_id":"cebpf4jnsgd1na2vs0mg"},{"bike_id":"058d41e9-8304-4091-8e5c-beed677e03f0","system_id":"levelo_inurba_marseille","lat":43.25116,"lon":5.39516,"is_reserved":false,"is_disabled":true,"rental_uris":{"android":"levelo://app?vid=058d41e9-8304-4091-8e5c-beed677e03f0","ios":"levelo://app?vid=058d41e9-8304-4091-8e5c-beed677e03f0"},"vehicle_type_id":"4","last_reported":1744729844,"current_range_meters":3600,"station_id":"ce4bhm12rcd13ifvqgkg","pricing_plan_id":"cebpf4jnsgd1na2vs0mg"},{"bike_id":"9cdf3dde-cae3-4e90-ad47-f3049abab218","system_id":"levelo_inurba_marseille","lat":43.31121,"lon":5.37775,"is_reserved":false,"is_disabled":false,"rental_uris":{"android":"levelo://app?vid=9cdf3dde-cae3-4e90-ad47-f3049abab218","ios":"levelo://app?vid=9cdf3dde-cae3-4e90-ad47-f3049abab218"},"vehicle_type_id":"4","last_reported":1744729844,"current_range_meters":3600,"station_id":"ce4bgt92rcd13ifvqcg0","pricing_plan_id":"cebpf4jnsgd1na2vs0mg"},{"bike_id":"c510c8e2-d729-4727-b672-cd52d93484bb","system_id":"levelo_inurba_marseille","lat":43.28267,"lon":5.35062,"is_reserved":false,"is_disabled":false,"rental_uris":{"android":"levelo://app?vid=c510c8e2-d729-4727-b672-cd52d93484bb","ios":"levelo://app?vid=c510c8e2-d729-4727-b672-cd52d93484bb"},"vehicle_type_id":"4","last_reported":1744729844,"current_range_meters":4000,"station_id":"ce4bhbp2rcd13ifvqerg","pricing_plan_id":"cebpf4jnsgd1na2vs0mg"},{"bike_id":"c8a3d9be-225d-44c1-8f93-bd601c7f765f","system_id":"levelo_inurba_marseille","lat":43.29263,"lon":5.3843,"is_reserved":false,"is_disabled":false,"rental_uris":{"android":"levelo://app?vid=c8a3d9be-225d-44c1-8f93-bd601c7f765f","ios":"levelo://app?vid=c8a3d9be-225d-44c1-8f93-bd601c7f765f"},"vehicle_type_id":"4","last_reported":1744729844,"current_range_meters":4000,"station_id":"ce4bh692rcd13ifvqea0","pricing_plan_id":"cebpf4jnsgd1na2vs0mg"},{"bike_id":"eb0054fa-41ee-4033-bb67-ec3218cfc28b","system_id":"levelo_inurba_marseille","lat":43.27839,"lon":5.39197,"is_reserved":false,"is_disabled":false,"rental_uris":{"android":"levelo://app?vid=eb0054fa-41ee-4033-bb67-ec3218cfc28b","ios":"levelo://app?vid=eb0054fa-41ee-4033-bb67-ec3218cfc28b"},"vehicle_type_id":"4","last_reported":1744729844,"current_range_meters":4000,"station_id":"ce4bhjp2rcd13ifvqga0","pricing_plan_id":"cebpf4jnsgd1na2vs0mg"},{"bike_id":"27200052-2818-4c57-b4ae-ca4ac8f59923","system_id":"levelo_inurba_marseille","lat":43.30619,"lon":5.39349,"is_reserved":false,"is_disabled":false,"rental_uris":{"android":"levelo://app?vid=27200052-2818-4c57-b4ae-ca4ac8f59923","ios":"levelo://app?vid=27200052-2818-4c57-b4ae-ca4ac8f59923"},"vehicle_type_id":"4","last_reported":1744729844,"current_range_meters":4800,"station_id":"ce4bgjh2rcd13ifvqbf0","pricing_plan_id":"cebpf4jnsgd1na2vs0mg"},{"bike_id":"3fe2d3ef-64fc-40c4-8a61-bc8e11897445","system_id":"levelo_inurba_marseille","lat":43.31345,"lon":5.36704,"is_reserved":false,"is_disabled":false,"rental_uris":{"android":"levelo://app?vid=3fe2d3ef-64fc-40c4-8a61-bc8e11897445","ios":"levelo://app?vid=3fe2d3ef-64fc-40c4-8a61-bc8e11897445"},"vehicle_type_id":"4","last_reported":1744729844,"current_range_meters":4400,"station_id":"ce4bgr92rcd13ifvqc6g","pricing_plan_id":"cebpf4jnsgd1na2vs0mg"},{"bike_id":"c692ed7a-310c-48ba-9ecb-9629c0c4c408","system_id":"levelo_inurba_marseille","lat":43.32667,"lon":5.40992,"is_reserved":false,"is_disabled":false,"rental_uris":{"android":"levelo://app?vid=c692ed7a-310c-48ba-9ecb-9629c0c4c408","ios":"levelo://app?vid=c692ed7a-310c-48ba-9ecb-9629c0c4c408"},"vehicle_type_id":"4","last_reported":1744729844,"current_range_meters":4800,"station_id":"ce4bhpp2rcd13ifvqhgg","pricing_plan_id":"cebpf4jnsgd1na2vs0mg"},{"bike_id":"ca2e6515-cd6f-4869-9736-3f929b992106","system_id":"levelo_inurba_marseille","lat":43.29702,"lon":5.37691,"is_reserved":false,"is_disabled":false,"rental_uris":{"android":"levelo://app?vid=ca2e6515-cd6f-4869-9736-3f929b992106","ios":"levelo://app?vid=ca2e6515-cd6f-4869-9736-3f929b992106"},"vehicle_type_id":"4","last_reported":1744729844,"current_range_meters":3200,"station_id":"ce4bgkh2rcd13ifvqbl0","pricing_plan_id":"cebpf4jnsgd1na2vs0mg"},{"bike_id":"6553878d-8818-48ff-bf9b-c4eeb3654553","system_id":"levelo_inurba_marseille","lat":43.31328,"lon":5.36736,"is_reserved":false,"is_disabled":false,"rental_uris":{"android":"levelo://app?vid=6553878d-8818-48ff-bf9b-c4eeb3654553","ios":"levelo://app?vid=6553878d-8818-48ff-bf9b-c4eeb3654553"},"vehicle_type_id":"4","last_reported":1744729844,"current_range_meters":4800,"station_id":"ce4bgr92rcd13ifvqc6g","pricing_plan_id":"cebpf4jnsgd1na2vs0mg"},{"bike_id":"e7816af6-b51f-4a54-bfd2-977771406aea","system_id":"levelo_inurba_marseille","lat":43.23161,"lon":5.43722,"is_reserved":false,"is_disabled":false,"rental_uris":{"android":"levelo://app?vid=e7816af6-b51f-4a54-bfd2-977771406aea","ios":"levelo://app?vid=e7816af6-b51f-4a54-bfd2-977771406aea"},"vehicle_type_id":"4","last_reported":1744729844,"current_range_meters":5600,"station_id":"ce4bhmp2rcd13ifvqgog","pricing_plan_id":"cebpf4jnsgd1na2vs0mg"},{"bike_id":"93d6ef04-cd4b-4a25-95cd-ca31fbe01d45","system_id":"levelo_inurba_marseille","lat":43.29519,"lon":5.39408,"is_reserved":false,"is_disabled":false,"rental_uris":{"android":"levelo://app?vid=93d6ef04-cd4b-4a25-95cd-ca31fbe01d45","ios":"levelo://app?vid=93d6ef04-cd4b-4a25-95cd-ca31fbe01d45"},"vehicle_type_id":"4","last_reported":1744729844,"current_range_meters":5600,"station_id":"ce4bh292rcd13ifvqdf0","pricing_plan_id":"cebpf4jnsgd1na2vs0mg"},{"bike_id":"ba6883ba-3ef6-4683-8dcc-d877614e7369","system_id":"levelo_inurba_marseille","lat":43.29556,"lon":5.42287,"is_reserved":false,"is_disabled":false,"rental_uris":{"android":"levelo://app?vid=ba6883ba-3ef6-4683-8dcc-d877614e7369","ios":"levelo://app?vid=ba6883ba-3ef6-4683-8dcc-d877614e7369"},"vehicle_type_id":"4","last_reported":1744729844,"current_range_meters":5600,"station_id":"ce4bhph2rcd13ifvqhdg","pricing_plan_id":"cebpf4jnsgd1na2vs0mg"},{"bike_id":"9b0fe2ec-28a1-4027-a572-124251376780","system_id":"levelo_inurba_marseille","lat":43.26062,"lon":5.39395,"is_reserved":false,"is_disabled":false,"rental_uris":{"android":"levelo://app?vid=9b0fe2ec-28a1-4027-a572-124251376780","ios":"levelo://app?vid=9b0fe2ec-28a1-4027-a572-124251376780"},"vehicle_type_id":"4","last_reported":1744729844,"current_range_meters":4800,"station_id":"ce4bhh92rcd13ifvqfj0","pricing_plan_id":"cebpf4jnsgd1na2vs0mg"},{"bike_id":"14dde75c-ffc8-4bc3-92be-ba7002d0c37b","system_id":"levelo_inurba_marseille","lat":43.299222,"lon":5.37483,"is_reserved":false,"is_disabled":false,"rental_uris":{"android":"levelo://app?vid=14dde75c-ffc8-4bc3-92be-ba7002d0c37b","ios":"levelo://app?vid=14dde75c-ffc8-4bc3-92be-ba7002d0c37b"},"vehicle_type_id":"4","last_reported":1744729844,"current_range_meters":6000,"station_id":"ce4bgjh2rcd13ifvqbg0","pricing_plan_id":"cebpf4jnsgd1na2vs0mg"},{"bike_id":"b46aef87-1050-47fc-8f01-83cc226c3dc4","system_id":"levelo_inurba_marseille","lat":43.30306,"lon":5.392125,"is_reserved":false,"is_disabled":false,"rental_uris":{"android":"levelo://app?vid=b46aef87-1050-47fc-8f01-83cc226c3dc4","ios":"levelo://app?vid=b46aef87-1050-47fc-8f01-83cc226c3dc4"},"vehicle_type_id":"4","last_reported":1744729844,"current_range_meters":6000,"station_id":"ce4bgkh2rcd13ifvqbk0","pricing_plan_id":"cebpf4jnsgd1na2vs0mg"},{"bike_id":"cc96fe8a-9188-4342-96c3-01e4177f9962","system_id":"levelo_inurba_marseille","lat":43.2926,"lon":5.37624,"is_reserved":false,"is_disabled":false,"rental_uris":{"android":"levelo://app?vid=cc96fe8a-9188-4342-96c3-01e4177f9962","ios":"levelo://app?vid=cc96fe8a-9188-4342-96c3-01e4177f9962"},"vehicle_type_id":"4","last_reported":1744729844,"current_range_meters":6000,"station_id":"ce4bgi12rcd13ifvqb80","pricing_plan_id":"cebpf4jnsgd1na2vs0mg"},{"bike_id":"77120e38-8cc7-40e7-8b91-3e0477423ee2","system_id":"levelo_inurba_marseille","lat":43.3108,"lon":5.42432,"is_reserved":false,"is_disabled":false,"rental_uris":{"android":"levelo://app?vid=77120e38-8cc7-40e7-8b91-3e0477423ee2","ios":"levelo://app?vid=77120e38-8cc7-40e7-8b91-3e0477423ee2"},"vehicle_type_id":"4","last_reported":1744729844,"current_range_meters":6000,"station_id":"ce4bhp92rcd13ifvqhag","pricing_plan_id":"cebpf4jnsgd1na2vs0mg"},{"bike_id":"1064b9a7-5947-42b0-b3ab-02b74ee64902","system_id":"levelo_inurba_marseille","lat":43.25004,"lon":5.38929,"is_reserved":false,"is_disabled":true,"rental_uris":{"android":"levelo://app?vid=1064b9a7-5947-42b0-b3ab-02b74ee64902","ios":"levelo://app?vid=1064b9a7-5947-42b0-b3ab-02b74ee64902"},"vehicle_type_id":"4","last_reported":1744729844,"current_range_meters":6000,"station_id":"ce4bhgp2rcd13ifvqfd0","pricing_plan_id":"cebpf4jnsgd1na2vs0mg"},{"bike_id":"5640feb9-6802-44f8-a13a-38e72a9627f8","system_id":"levelo_inurba_marseille","lat":43.29361,"lon":5.37832,"is_reserved":false,"is_disabled":false,"rental_uris":{"android":"levelo://app?vid=5640feb9-6802-44f8-a13a-38e72a9627f8","ios":"levelo://app?vid=5640feb9-6802-44f8-a13a-38e72a9627f8"},"vehicle_type_id":"4","last_reported":1744729844,"current_range_meters":6400,"station_id":"ce4bgjh2rcd13ifvqbf0","pricing_plan_id":"cebpf4jnsgd1na2vs0mg"},{"bike_id":"646fc073-3549-423d-877f-8b11a548ce0d","system_id":"levelo_inurba_marseille","lat":43.29577,"lon":5.37513,"is_reserved":false,"is_disabled":false,"rental_uris":{"android":"levelo://app?vid=646fc073-3549-423d-877f-8b11a548ce0d","ios":"levelo://app?vid=646fc073-3549-423d-877f-8b11a548ce0d"},"vehicle_type_id":"4","last_reported":1744729844,"current_range_meters":6400,"station_id":"ce4bgh92rcd13ifvqb50","pricing_plan_id":"cebpf4jnsgd1na2vs0mg"},{"bike_id":"67ebf2d2-4be5-4757-a769-2067cace68e7","system_id":"levelo_inurba_marseille","lat":43.30362,"lon":5.42483,"is_reserved":false,"is_disabled":false,"rental_uris":{"android":"levelo://app?vid=67ebf2d2-4be5-4757-a769-2067cace68e7","ios":"levelo://app?vid=67ebf2d2-4be5-4757-a769-2067cace68e7"},"vehicle_type_id":"4","last_reported":1744729844,"current_range_meters":6400,"station_id":"ce4bhoh2rcd13ifvqh6g","pricing_plan_id":"cebpf4jnsgd1na2vs0mg"},{"bike_id":"e5dd6972-2b22-40d8-a4ed-be8ad5bae7a9","system_id":"levelo_inurba_marseille","lat":43.30131,"lon":5.3878,"is_reserved":false,"is_disabled":false,"rental_uris":{"android":"levelo://app?vid=e5dd6972-2b22-40d8-a4ed-be8ad5bae7a9","ios":"levelo://app?vid=e5dd6972-2b22-40d8-a4ed-be8ad5bae7a9"},"vehicle_type_id":"4","last_reported":1744729844,"current_range_meters":6800,"station_id":"ce4bghh2rcd13ifvqb60","pricing_plan_id":"cebpf4jnsgd1na2vs0mg"},{"bike_id":"c90796ad-a244-4ab0-99e6-ebb5d8f14975","system_id":"levelo_inurba_marseille","lat":43.30579,"lon":5.3656,"is_reserved":false,"is_disabled":false,"rental_uris":{"android":"levelo://app?vid=c90796ad-a244-4ab0-99e6-ebb5d8f14975","ios":"levelo://app?vid=c90796ad-a244-4ab0-99e6-ebb5d8f14975"},"vehicle_type_id":"4","last_reported":1744729844,"current_range_meters":6800,"station_id":"ce4bgs12rcd13ifvqcag","pricing_plan_id":"cebpf4jnsgd1na2vs0mg"},{"bike_id":"5b82d500-86a7-42e0-9f80-5825ae82aef3","system_id":"levelo_inurba_marseille","lat":43.29082,"lon":5.3716,"is_reserved":false,"is_disabled":false,"rental_uris":{"android":"levelo://app?vid=5b82d500-86a7-42e0-9f80-5825ae82aef3","ios":"levelo://app?vid=5b82d500-86a7-42e0-9f80-5825ae82aef3"},"vehicle_type_id":"4","last_reported":1744729844,"current_range_meters":6800,"station_id":"ce4bh5p2rcd13ifvqe4g","pricing_plan_id":"cebpf4jnsgd1na2vs0mg"},{"bike_id":"6e813554-554a-49dd-9009-02d95efd3de7","system_id":"levelo_inurba_marseille","lat":43.32427,"lon":5.3911,"is_reserved":false,"is_disabled":false,"rental_uris":{"android":"levelo://app?vid=6e813554-554a-49dd-9009-02d95efd3de7","ios":"levelo://app?vid=6e813554-554a-49dd-9009-02d95efd3de7"},"vehicle_type_id":"4","last_reported":1744729844,"current_range_meters":6800,"station_id":"","pricing_plan_id":"cebpf4jnsgd1na2vs0mg"},{"bike_id":"bd839f73-9c0c-470d-93a3-e885dfa7630a","system_id":"levelo_inurba_marseille","lat":43.30648,"lon":5.4008,"is_reserved":false,"is_disabled":false,"rental_uris":{"android":"levelo://app?vid=bd839f73-9c0c-470d-93a3-e885dfa7630a","ios":"levelo://app?vid=bd839f73-9c0c-470d-93a3-e885dfa7630a"},"vehicle_type_id":"4","last_reported":1744729844,"current_range_meters":6800,"station_id":"ce4bh112rcd13ifvqda0","pricing_plan_id":"cebpf4jnsgd1na2vs0mg"},{"bike_id":"3ff53265-8e33-4508-b5d2-772227b6368f","system_id":"levelo_inurba_marseille","lat":43.27843,"lon":5.39201,"is_reserved":false,"is_disabled":false,"rental_uris":{"android":"levelo://app?vid=3ff53265-8e33-4508-b5d2-772227b6368f","ios":"levelo://app?vid=3ff53265-8e33-4508-b5d2-772227b6368f"},"vehicle_type_id":"4","last_reported":1744729844,"current_range_meters":6800,"station_id":"ce4bhjp2rcd13ifvqga0","pricing_plan_id":"cebpf4jnsgd1na2vs0mg"},{"bike_id":"18d469a2-a575-499d-aef4-b8ed95fc224a","system_id":"levelo_inurba_marseille","lat":43.27316,"lon":5.39081,"is_reserved":false,"is_disabled":false,"rental_uris":{"android":"levelo://app?vid=18d469a2-a575-499d-aef4-b8ed95fc224a","ios":"levelo://app?vid=18d469a2-a575-499d-aef4-b8ed95fc224a"},"vehicle_type_id":"4","last_reported":1744729844,"current_range_meters":7200,"station_id":"ce4bhgp2rcd13ifvqfe0","pricing_plan_id":"cebpf4jnsgd1na2vs0mg"},{"bike_id":"fcf2cf62-d2be-42f8-abfb-5a08a2e9010d","system_id":"levelo_inurba_marseille","lat":43.25087,"lon":5.3951,"is_reserved":false,"is_disabled":false,"rental_uris":{"android":"levelo://app?vid=fcf2cf62-d2be-42f8-abfb-5a08a2e9010d","ios":"levelo://app?vid=fcf2cf62-d2be-42f8-abfb-5a08a2e9010d"},"vehicle_type_id":"4","last_reported":1744729844,"current_range_meters":7200,"station_id":"ce4bhm12rcd13ifvqgkg","pricing_plan_id":"cebpf4jnsgd1na2vs0mg"},{"bike_id":"e6515088-b278-472e-b07f-f447e8988683","system_id":"levelo_inurba_marseille","lat":43.29526,"lon":5.39026,"is_reserved":false,"is_disabled":false,"rental_uris":{"android":"levelo://app?vid=e6515088-b278-472e-b07f-f447e8988683","ios":"levelo://app?vid=e6515088-b278-472e-b07f-f447e8988683"},"vehicle_type_id":"4","last_reported":1744729844,"current_range_meters":6800,"station_id":"ce4bh3p2rcd13ifvqdp0","pricing_plan_id":"cebpf4jnsgd1na2vs0mg"},{"bike_id":"50d1c769-78d0-4bbe-bcea-5856c9ba50eb","system_id":"levelo_inurba_marseille","lat":43.27953,"lon":5.41048,"is_reserved":false,"is_disabled":false,"rental_uris":{"android":"levelo://app?vid=50d1c769-78d0-4bbe-bcea-5856c9ba50eb","ios":"levelo://app?vid=50d1c769-78d0-4bbe-bcea-5856c9ba50eb"},"vehicle_type_id":"4","last_reported":1744729844,"current_range_meters":7200,"station_id":"ce4bhnp2rcd13ifvqh0g","pricing_plan_id":"cebpf4jnsgd1na2vs0mg"},{"bike_id":"283bcaa6-4c16-45f6-a5ab-e42d08df4ce2","system_id":"levelo_inurba_marseille","lat":43.298924,"lon":5.436816,"is_reserved":false,"is_disabled":false,"rental_uris":{"android":"levelo://app?vid=283bcaa6-4c16-45f6-a5ab-e42d08df4ce2","ios":"levelo://app?vid=283bcaa6-4c16-45f6-a5ab-e42d08df4ce2"},"vehicle_type_id":"4","last_reported":1744729844,"current_range_meters":6800,"station_id":"ce4bhpp2rcd13ifvqhfg","pricing_plan_id":"cebpf4jnsgd1na2vs0mg"},{"bike_id":"53f6ec74-5aee-48c8-8db3-302c454c2a00","system_id":"levelo_inurba_marseille","lat":43.30931,"lon":5.40147,"is_reserved":false,"is_disabled":false,"rental_uris":{"android":"levelo://app?vid=53f6ec74-5aee-48c8-8db3-302c454c2a00","ios":"levelo://app?vid=53f6ec74-5aee-48c8-8db3-302c454c2a00"},"vehicle_type_id":"4","last_reported":1744729844,"current_range_meters":10800,"station_id":"ce4bgvp2rcd13ifvqct0","pricing_plan_id":"cebpf4jnsgd1na2vs0mg"},{"bike_id":"d64aa8f0-0884-41cf-84e6-ae25f8a6ae2a","system_id":"levelo_inurba_marseille","lat":43.28548,"lon":5.37767,"is_reserved":false,"is_disabled":false,"rental_uris":{"android":"levelo://app?vid=d64aa8f0-0884-41cf-84e6-ae25f8a6ae2a","ios":"levelo://app?vid=d64aa8f0-0884-41cf-84e6-ae25f8a6ae2a"},"vehicle_type_id":"4","last_reported":1744729844,"current_range_meters":7200,"station_id":"","pricing_plan_id":"cebpf4jnsgd1na2vs0mg"},{"bike_id":"84fafe96-b8a9-40e1-92e6-495faa6ffac4","system_id":"levelo_inurba_marseille","lat":43.28381,"lon":5.38634,"is_reserved":false,"is_disabled":false,"rental_uris":{"android":"levelo://app?vid=84fafe96-b8a9-40e1-92e6-495faa6ffac4","ios":"levelo://app?vid=84fafe96-b8a9-40e1-92e6-495faa6ffac4"},"vehicle_type_id":"4","last_reported":1744729844,"current_range_meters":8000,"station_id":"ce4bh492rcd13ifvqdvg","pricing_plan_id":"cebpf4jnsgd1na2vs0mg"},{"bike_id":"d3fb3c4d-47f7-4bbe-bd85-9506563e6b01","system_id":"levelo_inurba_marseille","lat":43.28699,"lon":5.39984,"is_reserved":false,"is_disabled":false,"rental_uris":{"android":"levelo://app?vid=d3fb3c4d-47f7-4bbe-bd85-9506563e6b01","ios":"levelo://app?vid=d3fb3c4d-47f7-4bbe-bd85-9506563e6b01"},"vehicle_type_id":"4","last_reported":1744729844,"current_range_meters":8000,"station_id":"ce4bho92rcd13ifvqh3g","pricing_plan_id":"cebpf4jnsgd1na2vs0mg"},{"bike_id":"5055175f-5627-4718-aae2-175dd05885f8","system_id":"levelo_inurba_marseille","lat":43.2926,"lon":5.37616,"is_reserved":false,"is_disabled":false,"rental_uris":{"android":"levelo://app?vid=5055175f-5627-4718-aae2-175dd05885f8","ios":"levelo://app?vid=5055175f-5627-4718-aae2-175dd05885f8"},"vehicle_type_id":"4","last_reported":1744729844,"current_range_meters":8000,"station_id":"ce4bgi12rcd13ifvqb80","pricing_plan_id":"cebpf4jnsgd1na2vs0mg"},{"bike_id":"a668abbc-a092-49f5-9124-b0b71b0d2e46","system_id":"levelo_inurba_marseille","lat":43.22938,"lon":5.35379,"is_reserved":false,"is_disabled":false,"rental_uris":{"android":"levelo://app?vid=a668abbc-a092-49f5-9124-b0b71b0d2e46","ios":"levelo://app?vid=a668abbc-a092-49f5-9124-b0b71b0d2e46"},"vehicle_type_id":"4","last_reported":1744729844,"current_range_meters":8000,"station_id":"cpo3532slgdg3j2ikp40","pricing_plan_id":"cebpf4jnsgd1na2vs0mg"},{"bike_id":"2f93173f-d02c-4e29-ab59-1fff882697d7","system_id":"levelo_inurba_marseille","lat":43.240496,"lon":5.37777,"is_reserved":false,"is_disabled":false,"rental_uris":{"android":"levelo://app?vid=2f93173f-d02c-4e29-ab59-1fff882697d7","ios":"levelo://app?vid=2f93173f-d02c-4e29-ab59-1fff882697d7"},"vehicle_type_id":"4","last_reported":1744729844,"current_range_meters":8000,"station_id":"ce4bhnp2rcd13ifvqgvg","pricing_plan_id":"cebpf4jnsgd1na2vs0mg"},{"bike_id":"f0801c1f-6823-4c24-96d6-497ba813198d","system_id":"levelo_inurba_marseille","lat":43.27057,"lon":5.40262,"is_reserved":false,"is_disabled":false,"rental_uris":{"android":"levelo://app?vid=f0801c1f-6823-4c24-96d6-497ba813198d","ios":"levelo://app?vid=f0801c1f-6823-4c24-96d6-497ba813198d"},"vehicle_type_id":"4","last_reported":1744729844,"current_range_meters":8400,"station_id":"ce4bhk92rcd13ifvqgc0","pricing_plan_id":"cebpf4jnsgd1na2vs0mg"},{"bike_id":"4ef98349-1db1-4d59-be4a-f3d996f5f60a","system_id":"levelo_inurba_marseille","lat":43.30426,"lon":5.38885,"is_reserved":false,"is_disabled":false,"rental_uris":{"android":"levelo://app?vid=4ef98349-1db1-4d59-be4a-f3d996f5f60a","ios":"levelo://app?vid=4ef98349-1db1-4d59-be4a-f3d996f5f60a"},"vehicle_type_id":"4","last_reported":1744729844,"current_range_meters":4800,"station_id":"ce4bgk12rcd13ifvqbi0","pricing_plan_id":"cebpf4jnsgd1na2vs0mg"},{"bike_id":"c03975f8-1642-45ca-8d48-5005bf4d3010","system_id":"levelo_inurba_marseille","lat":43.31272,"lon":5.4017,"is_reserved":false,"is_disabled":false,"rental_uris":{"android":"levelo://app?vid=c03975f8-1642-45ca-8d48-5005bf4d3010","ios":"levelo://app?vid=c03975f8-1642-45ca-8d48-5005bf4d3010"},"vehicle_type_id":"4","last_reported":1744729844,"current_range_meters":8800,"station_id":"ce4bh092rcd13ifvqd30","pricing_plan_id":"cebpf4jnsgd1na2vs0mg"},{"bike_id":"ef734429-5e24-498b-98db-95ee16873a56","system_id":"levelo_inurba_marseille","lat":43.27095,"lon":5.42312,"is_reserved":false,"is_disabled":false,"rental_uris":{"android":"levelo://app?vid=ef734429-5e24-498b-98db-95ee16873a56","ios":"levelo://app?vid=ef734429-5e24-498b-98db-95ee16873a56"},"vehicle_type_id":"4","last_reported":1744729844,"current_range_meters":8800,"station_id":"ce4bhk92rcd13ifvqgb0","pricing_plan_id":"cebpf4jnsgd1na2vs0mg"},{"bike_id":"10b9c5ef-75d9-4fd6-ad56-83fa358ea9e2","system_id":"levelo_inurba_marseille","lat":43.27958,"lon":5.41048,"is_reserved":false,"is_disabled":false,"rental_uris":{"android":"levelo://app?vid=10b9c5ef-75d9-4fd6-ad56-83fa358ea9e2","ios":"levelo://app?vid=10b9c5ef-75d9-4fd6-ad56-83fa358ea9e2"},"vehicle_type_id":"4","last_reported":1744729844,"current_range_meters":8800,"station_id":"ce4bhnp2rcd13ifvqh0g","pricing_plan_id":"cebpf4jnsgd1na2vs0mg"},{"bike_id":"0f9ef197-b67b-4e31-a500-84e1165e9e10","system_id":"levelo_inurba_marseille","lat":43.30587,"lon":5.37227,"is_reserved":false,"is_disabled":false,"rental_uris":{"android":"levelo://app?vid=0f9ef197-b67b-4e31-a500-84e1165e9e10","ios":"levelo://app?vid=0f9ef197-b67b-4e31-a500-84e1165e9e10"},"vehicle_type_id":"4","last_reported":1744729844,"current_range_meters":8800,"station_id":"ce4bgqh2rcd13ifvqc4g","pricing_plan_id":"cebpf4jnsgd1na2vs0mg"},{"bike_id":"907af1d3-9c3f-4fd6-be62-5be038000d37","system_id":"levelo_inurba_marseille","lat":43.25109,"lon":5.40327,"is_reserved":false,"is_disabled":false,"rental_uris":{"android":"levelo://app?vid=907af1d3-9c3f-4fd6-be62-5be038000d37","ios":"levelo://app?vid=907af1d3-9c3f-4fd6-be62-5be038000d37"},"vehicle_type_id":"4","last_reported":1744729844,"current_range_meters":8800,"station_id":"ce4bhlh2rcd13ifvqgig","pricing_plan_id":"cebpf4jnsgd1na2vs0mg"},{"bike_id":"660d2eb3-0dca-4724-8d5d-ef301fa8b51b","system_id":"levelo_inurba_marseille","lat":43.33055,"lon":5.3906,"is_reserved":false,"is_disabled":false,"rental_uris":{"android":"levelo://app?vid=660d2eb3-0dca-4724-8d5d-ef301fa8b51b","ios":"levelo://app?vid=660d2eb3-0dca-4724-8d5d-ef301fa8b51b"},"vehicle_type_id":"4","last_reported":1744729844,"current_range_meters":9200,"station_id":"ce4bhr92rcd13ifvqhrg","pricing_plan_id":"cebpf4jnsgd1na2vs0mg"},{"bike_id":"e3d9623a-838b-4f87-a575-3e3d04e44b10","system_id":"levelo_inurba_marseille","lat":43.26061,"lon":5.39398,"is_reserved":false,"is_disabled":false,"rental_uris":{"android":"levelo://app?vid=e3d9623a-838b-4f87-a575-3e3d04e44b10","ios":"levelo://app?vid=e3d9623a-838b-4f87-a575-3e3d04e44b10"},"vehicle_type_id":"4","last_reported":1744729844,"current_range_meters":8800,"station_id":"ce4bhh92rcd13ifvqfj0","pricing_plan_id":"cebpf4jnsgd1na2vs0mg"},{"bike_id":"e19d22a5-b7c1-4b0f-959e-e375255c6a84","system_id":"levelo_inurba_marseille","lat":43.3135,"lon":5.36757,"is_reserved":false,"is_disabled":false,"rental_uris":{"android":"levelo://app?vid=e19d22a5-b7c1-4b0f-959e-e375255c6a84","ios":"levelo://app?vid=e19d22a5-b7c1-4b0f-959e-e375255c6a84"},"vehicle_type_id":"4","last_reported":1744729844,"current_range_meters":9600,"station_id":"ce4bgr92rcd13ifvqc6g","pricing_plan_id":"cebpf4jnsgd1na2vs0mg"},{"bike_id":"347598f2-7636-431d-aa2a-ee922a6e92de","system_id":"levelo_inurba_marseille","lat":43.28939,"lon":5.36405,"is_reserved":false,"is_disabled":false,"rental_uris":{"android":"levelo://app?vid=347598f2-7636-431d-aa2a-ee922a6e92de","ios":"levelo://app?vid=347598f2-7636-431d-aa2a-ee922a6e92de"},"vehicle_type_id":"4","last_reported":1744729844,"current_range_meters":9600,"station_id":"ce4bhc92rcd13ifvqetg","pricing_plan_id":"cebpf4jnsgd1na2vs0mg"},{"bike_id":"34e395a7-b9b7-4e19-a599-aa34cefbfaaf","system_id":"levelo_inurba_marseille","lat":43.29579,"lon":5.36736,"is_reserved":false,"is_disabled":false,"rental_uris":{"android":"levelo://app?vid=34e395a7-b9b7-4e19-a599-aa34cefbfaaf","ios":"levelo://app?vid=34e395a7-b9b7-4e19-a599-aa34cefbfaaf"},"vehicle_type_id":"4","last_reported":1744729844,"current_range_meters":9600,"station_id":"ce4bgph2rcd13ifvqc2g","pricing_plan_id":"cebpf4jnsgd1na2vs0mg"},{"bike_id":"585d857e-cfd1-46b5-9d55-ffa6d9ca8bcd","system_id":"levelo_inurba_marseille","lat":43.324752,"lon":5.36571,"is_reserved":false,"is_disabled":false,"rental_uris":{"android":"levelo://app?vid=585d857e-cfd1-46b5-9d55-ffa6d9ca8bcd","ios":"levelo://app?vid=585d857e-cfd1-46b5-9d55-ffa6d9ca8bcd"},"vehicle_type_id":"4","last_reported":1744729844,"current_range_meters":9200,"station_id":"ce4bgl92rcd13ifvqbq0","pricing_plan_id":"cebpf4jnsgd1na2vs0mg"},{"bike_id":"38f786f5-44ae-401b-b798-4bac0acdbfb4","system_id":"levelo_inurba_marseille","lat":43.29521,"lon":5.39405,"is_reserved":false,"is_disabled":false,"rental_uris":{"android":"levelo://app?vid=38f786f5-44ae-401b-b798-4bac0acdbfb4","ios":"levelo://app?vid=38f786f5-44ae-401b-b798-4bac0acdbfb4"},"vehicle_type_id":"4","last_reported":1744729844,"current_range_meters":9600,"station_id":"ce4bh292rcd13ifvqdf0","pricing_plan_id":"cebpf4jnsgd1na2vs0mg"},{"bike_id":"528c8c54-7a3f-40e9-9521-99f0a5314dad","system_id":"levelo_inurba_marseille","lat":43.29226,"lon":5.36058,"is_reserved":false,"is_disabled":false,"rental_uris":{"android":"levelo://app?vid=528c8c54-7a3f-40e9-9521-99f0a5314dad","ios":"levelo://app?vid=528c8c54-7a3f-40e9-9521-99f0a5314dad"},"vehicle_type_id":"4","last_reported":1744729844,"current_range_meters":9600,"station_id":"ce4bhbh2rcd13ifvqeqg","pricing_plan_id":"cebpf4jnsgd1na2vs0mg"},{"bike_id":"c40145f8-30a8-42bf-bab7-4bdedf64e2fa","system_id":"levelo_inurba_marseille","lat":43.25113,"lon":5.40318,"is_reserved":false,"is_disabled":false,"rental_uris":{"android":"levelo://app?vid=c40145f8-30a8-42bf-bab7-4bdedf64e2fa","ios":"levelo://app?vid=c40145f8-30a8-42bf-bab7-4bdedf64e2fa"},"vehicle_type_id":"4","last_reported":1744729844,"current_range_meters":9600,"station_id":"ce4bhlh2rcd13ifvqgig","pricing_plan_id":"cebpf4jnsgd1na2vs0mg"},{"bike_id":"27a55245-8dd2-4f1a-af63-95a9d7b71690","system_id":"levelo_inurba_marseille","lat":43.31093,"lon":5.37824,"is_reserved":false,"is_disabled":false,"rental_uris":{"android":"levelo://app?vid=27a55245-8dd2-4f1a-af63-95a9d7b71690","ios":"levelo://app?vid=27a55245-8dd2-4f1a-af63-95a9d7b71690"},"vehicle_type_id":"4","last_reported":1744729844,"current_range_meters":9600,"station_id":"","pricing_plan_id":"cebpf4jnsgd1na2vs0mg"},{"bike_id":"70fa8bff-27ae-43bc-bce9-92d4368db24c","system_id":"levelo_inurba_marseille","lat":43.3414,"lon":5.409,"is_reserved":false,"is_disabled":false,"rental_uris":{"android":"levelo://app?vid=70fa8bff-27ae-43bc-bce9-92d4368db24c","ios":"levelo://app?vid=70fa8bff-27ae-43bc-bce9-92d4368db24c"},"vehicle_type_id":"4","last_reported":1744729844,"current_range_meters":9600,"station_id":"ce4bhqh2rcd13ifvqhlg","pricing_plan_id":"cebpf4jnsgd1na2vs0mg"},{"bike_id":"4c1ae198-4fa8-4b4b-b3cd-1e4452bd7f4e","system_id":"levelo_inurba_marseille","lat":43.30907,"lon":5.36843,"is_reserved":false,"is_disabled":false,"rental_uris":{"android":"levelo://app?vid=4c1ae198-4fa8-4b4b-b3cd-1e4452bd7f4e","ios":"levelo://app?vid=4c1ae198-4fa8-4b4b-b3cd-1e4452bd7f4e"},"vehicle_type_id":"4","last_reported":1744729844,"current_range_meters":10000,"station_id":"ce4bgn92rcd13ifvqbvg","pricing_plan_id":"cebpf4jnsgd1na2vs0mg"},{"bike_id":"76b474bb-51c3-4ddf-998b-32f36fbc53a0","system_id":"levelo_inurba_marseille","lat":43.27986,"lon":5.41051,"is_reserved":false,"is_disabled":false,"rental_uris":{"android":"levelo://app?vid=76b474bb-51c3-4ddf-998b-32f36fbc53a0","ios":"levelo://app?vid=76b474bb-51c3-4ddf-998b-32f36fbc53a0"},"vehicle_type_id":"4","last_reported":1744729844,"current_range_meters":10000,"station_id":"ce4bhnp2rcd13ifvqh0g","pricing_plan_id":"cebpf4jnsgd1na2vs0mg"},{"bike_id":"f69bc835-6af9-429d-a465-73c699640961","system_id":"levelo_inurba_marseille","lat":43.29791,"lon":5.39336,"is_reserved":false,"is_disabled":false,"rental_uris":{"android":"levelo://app?vid=f69bc835-6af9-429d-a465-73c699640961","ios":"levelo://app?vid=f69bc835-6af9-429d-a465-73c699640961"},"vehicle_type_id":"4","last_reported":1744729844,"current_range_meters":9600,"station_id":"chh1huq6cuj3fo74tm60","pricing_plan_id":"cebpf4jnsgd1na2vs0mg"},{"bike_id":"265f25a3-90ac-401a-8d12-5ff504c19f35","system_id":"levelo_inurba_marseille","lat":43.28031,"lon":5.36946,"is_reserved":false,"is_disabled":false,"rental_uris":{"android":"levelo://app?vid=265f25a3-90ac-401a-8d12-5ff504c19f35","ios":"levelo://app?vid=265f25a3-90ac-401a-8d12-5ff504c19f35"},"vehicle_type_id":"4","last_reported":1744729844,"current_range_meters":10000,"station_id":"ce4bha12rcd13ifvqef0","pricing_plan_id":"cebpf4jnsgd1na2vs0mg"},{"bike_id":"572f1bc3-546c-41e0-8730-39609b4006f1","system_id":"levelo_inurba_marseille","lat":43.32491,"lon":5.36577,"is_reserved":false,"is_disabled":false,"rental_uris":{"android":"levelo://app?vid=572f1bc3-546c-41e0-8730-39609b4006f1","ios":"levelo://app?vid=572f1bc3-546c-41e0-8730-39609b4006f1"},"vehicle_type_id":"4","last_reported":1744729844,"current_range_meters":10000,"station_id":"ce4bhs12rcd13ifvqhvg","pricing_plan_id":"cebpf4jnsgd1na2vs0mg"},{"bike_id":"f8e109e1-c6f3-4d08-bdfd-9fc1a8d88099","system_id":"levelo_inurba_marseille","lat":43.29414,"lon":5.38623,"is_reserved":false,"is_disabled":false,"rental_uris":{"android":"levelo://app?vid=f8e109e1-c6f3-4d08-bdfd-9fc1a8d88099","ios":"levelo://app?vid=f8e109e1-c6f3-4d08-bdfd-9fc1a8d88099"},"vehicle_type_id":"4","last_reported":1744729844,"current_range_meters":10000,"station_id":"ce4bh2h2rcd13ifvqdh0","pricing_plan_id":"cebpf4jnsgd1na2vs0mg"},{"bike_id":"45152fd8-c07c-4d52-b7a7-6670add35e00","system_id":"levelo_inurba_marseille","lat":43.261107,"lon":5.420818,"is_reserved":false,"is_disabled":false,"rental_uris":{"android":"levelo://app?vid=45152fd8-c07c-4d52-b7a7-6670add35e00","ios":"levelo://app?vid=45152fd8-c07c-4d52-b7a7-6670add35e00"},"vehicle_type_id":"4","last_reported":1744729844,"current_range_meters":10000,"station_id":"","pricing_plan_id":"cebpf4jnsgd1na2vs0mg"},{"bike_id":"51854c31-3f8b-4334-95b0-d38944fddb06","system_id":"levelo_inurba_marseille","lat":43.25826,"lon":5.39429,"is_reserved":false,"is_disabled":false,"rental_uris":{"android":"levelo://app?vid=51854c31-3f8b-4334-95b0-d38944fddb06","ios":"levelo://app?vid=51854c31-3f8b-4334-95b0-d38944fddb06"},"vehicle_type_id":"4","last_reported":1744729844,"current_range_meters":10000,"station_id":"ce4bhip2rcd13ifvqft0","pricing_plan_id":"cebpf4jnsgd1na2vs0mg"},{"bike_id":"a3bf31cf-f808-4241-bca4-f0d859dd91ea","system_id":"levelo_inurba_marseille","lat":43.29603,"lon":5.38106,"is_reserved":false,"is_disabled":false,"rental_uris":{"android":"levelo://app?vid=a3bf31cf-f808-4241-bca4-f0d859dd91ea","ios":"levelo://app?vid=a3bf31cf-f808-4241-bca4-f0d859dd91ea"},"vehicle_type_id":"4","last_reported":1744729844,"current_range_meters":10800,"station_id":"ce4bgl12rcd13ifvqbo0","pricing_plan_id":"cebpf4jnsgd1na2vs0mg"},{"bike_id":"347d61b8-041f-45ec-b00e-19eff5cfe123","system_id":"levelo_inurba_marseille","lat":43.24176,"lon":5.36409,"is_reserved":false,"is_disabled":false,"rental_uris":{"android":"levelo://app?vid=347d61b8-041f-45ec-b00e-19eff5cfe123","ios":"levelo://app?vid=347d61b8-041f-45ec-b00e-19eff5cfe123"},"vehicle_type_id":"4","last_reported":1744729844,"current_range_meters":10800,"station_id":"cpo36qri1sfpv3e86is0","pricing_plan_id":"cebpf4jnsgd1na2vs0mg"},{"bike_id":"7170fbf5-4f25-4bfa-85df-ab19b3a03db6","system_id":"levelo_inurba_marseille","lat":43.29814,"lon":5.36266,"is_reserved":false,"is_disabled":false,"rental_uris":{"android":"levelo://app?vid=7170fbf5-4f25-4bfa-85df-ab19b3a03db6","ios":"levelo://app?vid=7170fbf5-4f25-4bfa-85df-ab19b3a03db6"},"vehicle_type_id":"4","last_reported":1744729844,"current_range_meters":10800,"station_id":"ce4bgpp2rcd13ifvqc3g","pricing_plan_id":"cebpf4jnsgd1na2vs0mg"},{"bike_id":"3b9f4509-4192-4b1b-a4c3-8508f1ee5ec1","system_id":"levelo_inurba_marseille","lat":43.3079,"lon":5.37636,"is_reserved":false,"is_disabled":false,"rental_uris":{"android":"levelo://app?vid=3b9f4509-4192-4b1b-a4c3-8508f1ee5ec1","ios":"levelo://app?vid=3b9f4509-4192-4b1b-a4c3-8508f1ee5ec1"},"vehicle_type_id":"4","last_reported":1744729844,"current_range_meters":10000,"station_id":"ce4bgv92rcd13ifvqcq0","pricing_plan_id":"cebpf4jnsgd1na2vs0mg"},{"bike_id":"35e90fda-3b30-40e0-8ea9-eced12769e9f","system_id":"levelo_inurba_marseille","lat":43.30415,"lon":5.41291,"is_reserved":false,"is_disabled":false,"rental_uris":{"android":"levelo://app?vid=35e90fda-3b30-40e0-8ea9-eced12769e9f","ios":"levelo://app?vid=35e90fda-3b30-40e0-8ea9-eced12769e9f"},"vehicle_type_id":"4","last_reported":1744729844,"current_range_meters":10800,"station_id":"ce4bhop2rcd13ifvqh8g","pricing_plan_id":"cebpf4jnsgd1na2vs0mg"},{"bike_id":"85e3d8f1-8a32-4ead-8f63-285e222f9d71","system_id":"levelo_inurba_marseille","lat":43.28255,"lon":5.350633,"is_reserved":false,"is_disabled":false,"rental_uris":{"android":"levelo://app?vid=85e3d8f1-8a32-4ead-8f63-285e222f9d71","ios":"levelo://app?vid=85e3d8f1-8a32-4ead-8f63-285e222f9d71"},"vehicle_type_id":"4","last_reported":1744729844,"current_range_meters":10800,"station_id":"ce4bhbp2rcd13ifvqerg","pricing_plan_id":"cebpf4jnsgd1na2vs0mg"},{"bike_id":"48ef3f25-58a5-4cad-b9da-1727ed7e3bab","system_id":"levelo_inurba_marseille","lat":43.29932,"lon":5.36548,"is_reserved":false,"is_disabled":false,"rental_uris":{"android":"levelo://app?vid=48ef3f25-58a5-4cad-b9da-1727ed7e3bab","ios":"levelo://app?vid=48ef3f25-58a5-4cad-b9da-1727ed7e3bab"},"vehicle_type_id":"4","last_reported":1744729844,"current_range_meters":10800,"station_id":"ce4bgm92rcd13ifvqbr0","pricing_plan_id":"cebpf4jnsgd1na2vs0mg"},{"bike_id":"6086be1f-2f41-4b8c-9ce9-011bcea915da","system_id":"levelo_inurba_marseille","lat":43.3131,"lon":5.37328,"is_reserved":false,"is_disabled":false,"rental_uris":{"android":"levelo://app?vid=6086be1f-2f41-4b8c-9ce9-011bcea915da","ios":"levelo://app?vid=6086be1f-2f41-4b8c-9ce9-011bcea915da"},"vehicle_type_id":"4","last_reported":1744729844,"current_range_meters":10800,"station_id":"","pricing_plan_id":"cebpf4jnsgd1na2vs0mg"},{"bike_id":"1af8d8c6-8ea1-4c80-a259-eb8fda1b77e8","system_id":"levelo_inurba_marseille","lat":43.27994,"lon":5.41665,"is_reserved":false,"is_disabled":false,"rental_uris":{"android":"levelo://app?vid=1af8d8c6-8ea1-4c80-a259-eb8fda1b77e8","ios":"levelo://app?vid=1af8d8c6-8ea1-4c80-a259-eb8fda1b77e8"},"vehicle_type_id":"4","last_reported":1744729844,"current_range_meters":10000,"station_id":"ce4bho12rcd13ifvqh1g","pricing_plan_id":"cebpf4jnsgd1na2vs0mg"},{"bike_id":"4810a73d-5efd-4bc0-84ba-716d51691df5","system_id":"levelo_inurba_marseille","lat":43.24202,"lon":5.39733,"is_reserved":false,"is_disabled":false,"rental_uris":{"android":"levelo://app?vid=4810a73d-5efd-4bc0-84ba-716d51691df5","ios":"levelo://app?vid=4810a73d-5efd-4bc0-84ba-716d51691df5"},"vehicle_type_id":"4","last_reported":1744729844,"current_range_meters":11200,"station_id":"ce4bhn12rcd13ifvqgpg","pricing_plan_id":"cebpf4jnsgd1na2vs0mg"},{"bike_id":"37342bdf-d586-43ba-a25b-da22b3393da6","system_id":"levelo_inurba_marseille","lat":43.29141,"lon":5.37494,"is_reserved":false,"is_disabled":false,"rental_uris":{"android":"levelo://app?vid=37342bdf-d586-43ba-a25b-da22b3393da6","ios":"levelo://app?vid=37342bdf-d586-43ba-a25b-da22b3393da6"},"vehicle_type_id":"4","last_reported":1744729844,"current_range_meters":11200,"station_id":"","pricing_plan_id":"cebpf4jnsgd1na2vs0mg"},{"bike_id":"e54e3f28-c4aa-4221-9d89-cfcb28c26ba7","system_id":"levelo_inurba_marseille","lat":43.29269,"lon":5.36844,"is_reserved":false,"is_disabled":false,"rental_uris":{"android":"levelo://app?vid=e54e3f28-c4aa-4221-9d89-cfcb28c26ba7","ios":"levelo://app?vid=e54e3f28-c4aa-4221-9d89-cfcb28c26ba7"},"vehicle_type_id":"4","last_reported":1744729844,"current_range_meters":11600,"station_id":"ce4bhbp2rcd13ifvqesg","pricing_plan_id":"cebpf4jnsgd1na2vs0mg"},{"bike_id":"e33f1447-b4b3-40ba-8e28-0fb3ac75e96f","system_id":"levelo_inurba_marseille","lat":43.30376,"lon":5.42486,"is_reserved":false,"is_disabled":false,"rental_uris":{"android":"levelo://app?vid=e33f1447-b4b3-40ba-8e28-0fb3ac75e96f","ios":"levelo://app?vid=e33f1447-b4b3-40ba-8e28-0fb3ac75e96f"},"vehicle_type_id":"4","last_reported":1744729844,"current_range_meters":11600,"station_id":"ce4bhoh2rcd13ifvqh6g","pricing_plan_id":"cebpf4jnsgd1na2vs0mg"},{"bike_id":"d358a4ee-754a-4536-885f-20396cdb48f6","system_id":"levelo_inurba_marseille","lat":43.28723,"lon":5.36083,"is_reserved":false,"is_disabled":false,"rental_uris":{"android":"levelo://app?vid=d358a4ee-754a-4536-885f-20396cdb48f6","ios":"levelo://app?vid=d358a4ee-754a-4536-885f-20396cdb48f6"},"vehicle_type_id":"4","last_reported":1744729844,"current_range_meters":11600,"station_id":"cki0cbj6b192h4jlfktg","pricing_plan_id":"cebpf4jnsgd1na2vs0mg"},{"bike_id":"854ae9d2-eac6-4c28-8d03-b47ab97e465a","system_id":"levelo_inurba_marseille","lat":43.24546,"lon":5.39521,"is_reserved":false,"is_disabled":false,"rental_uris":{"android":"levelo://app?vid=854ae9d2-eac6-4c28-8d03-b47ab97e465a","ios":"levelo://app?vid=854ae9d2-eac6-4c28-8d03-b47ab97e465a"},"vehicle_type_id":"4","last_reported":1744729844,"current_range_meters":12000,"station_id":"ce4bhlp2rcd13ifvqgjg","pricing_plan_id":"cebpf4jnsgd1na2vs0mg"},{"bike_id":"ee3c3faf-f30d-4bc4-8756-332b7ec32330","system_id":"levelo_inurba_marseille","lat":43.3058,"lon":5.36525,"is_reserved":false,"is_disabled":false,"rental_uris":{"android":"levelo://app?vid=ee3c3faf-f30d-4bc4-8756-332b7ec32330","ios":"levelo://app?vid=ee3c3faf-f30d-4bc4-8756-332b7ec32330"},"vehicle_type_id":"4","last_reported":1744729844,"current_range_meters":12000,"station_id":"ce4bgs12rcd13ifvqcag","pricing_plan_id":"cebpf4jnsgd1na2vs0mg"},{"bike_id":"5f1d2cc6-9537-4f3a-a712-d7dbc4a535f7","system_id":"levelo_inurba_marseille","lat":43.29638,"lon":5.37143,"is_reserved":false,"is_disabled":false,"rental_uris":{"android":"levelo://app?vid=5f1d2cc6-9537-4f3a-a712-d7dbc4a535f7","ios":"levelo://app?vid=5f1d2cc6-9537-4f3a-a712-d7dbc4a535f7"},"vehicle_type_id":"4","last_reported":1744729844,"current_range_meters":12000,"station_id":"ce4bgnh2rcd13ifvqc0g","pricing_plan_id":"cebpf4jnsgd1na2vs0mg"},{"bike_id":"7ab867c6-2ef3-4ced-8f6c-a9afc0545b5f","system_id":"levelo_inurba_marseille","lat":43.23184,"lon":5.39978,"is_reserved":false,"is_disabled":false,"rental_uris":{"android":"levelo://app?vid=7ab867c6-2ef3-4ced-8f6c-a9afc0545b5f","ios":"levelo://app?vid=7ab867c6-2ef3-4ced-8f6c-a9afc0545b5f"},"vehicle_type_id":"4","last_reported":1744729844,"current_range_meters":11600,"station_id":"ce4bhn12rcd13ifvqgqg","pricing_plan_id":"cebpf4jnsgd1na2vs0mg"},{"bike_id":"abb74452-704c-4a69-9495-42b9bbfc2528","system_id":"levelo_inurba_marseille","lat":43.28706,"lon":5.37928,"is_reserved":false,"is_disabled":false,"rental_uris":{"android":"levelo://app?vid=abb74452-704c-4a69-9495-42b9bbfc2528","ios":"levelo://app?vid=abb74452-704c-4a69-9495-42b9bbfc2528"},"vehicle_type_id":"4","last_reported":1744729844,"current_range_meters":12000,"station_id":"ce4bh9p2rcd13ifvqec0","pricing_plan_id":"cebpf4jnsgd1na2vs0mg"},{"bike_id":"176e5662-5b80-483a-80f1-1787e24f6140","system_id":"levelo_inurba_marseille","lat":43.27953,"lon":5.41044,"is_reserved":false,"is_disabled":false,"rental_uris":{"android":"levelo://app?vid=176e5662-5b80-483a-80f1-1787e24f6140","ios":"levelo://app?vid=176e5662-5b80-483a-80f1-1787e24f6140"},"vehicle_type_id":"4","last_reported":1744729844,"current_range_meters":12000,"station_id":"ce4bhnp2rcd13ifvqh0g","pricing_plan_id":"cebpf4jnsgd1na2vs0mg"},{"bike_id":"fb58e65d-da29-4170-ae89-7e74f6fffab1","system_id":"levelo_inurba_marseille","lat":43.27492,"lon":5.42462,"is_reserved":false,"is_disabled":false,"rental_uris":{"android":"levelo://app?vid=fb58e65d-da29-4170-ae89-7e74f6fffab1","ios":"levelo://app?vid=fb58e65d-da29-4170-ae89-7e74f6fffab1"},"vehicle_type_id":"4","last_reported":1744729844,"current_range_meters":12000,"station_id":"ce4bhn92rcd13ifvqgrg","pricing_plan_id":"cebpf4jnsgd1na2vs0mg"},{"bike_id":"c8692b5b-4022-46ce-a162-9339d48e3d84","system_id":"levelo_inurba_marseille","lat":43.26214,"lon":5.37438,"is_reserved":false,"is_disabled":false,"rental_uris":{"android":"levelo://app?vid=c8692b5b-4022-46ce-a162-9339d48e3d84","ios":"levelo://app?vid=c8692b5b-4022-46ce-a162-9339d48e3d84"},"vehicle_type_id":"4","last_reported":1744729844,"current_range_meters":12000,"station_id":"ce4bhgp2rcd13ifvqfc0","pricing_plan_id":"cebpf4jnsgd1na2vs0mg"},{"bike_id":"d3a0fbcc-8789-46e3-ad8a-8c877abb0794","system_id":"levelo_inurba_marseille","lat":43.298783,"lon":5.397387,"is_reserved":false,"is_disabled":false,"rental_uris":{"android":"levelo://app?vid=d3a0fbcc-8789-46e3-ad8a-8c877abb0794","ios":"levelo://app?vid=d3a0fbcc-8789-46e3-ad8a-8c877abb0794"},"vehicle_type_id":"4","last_reported":1744729844,"current_range_meters":12400,"station_id":"ce4bh0h2rcd13ifvqd50","pricing_plan_id":"cebpf4jnsgd1na2vs0mg"},{"bike_id":"3bffb734-4942-4429-be21-0822927f8b78","system_id":"levelo_inurba_marseille","lat":43.279236,"lon":5.395838,"is_reserved":false,"is_disabled":false,"rental_uris":{"android":"levelo://app?vid=3bffb734-4942-4429-be21-0822927f8b78","ios":"levelo://app?vid=3bffb734-4942-4429-be21-0822927f8b78"},"vehicle_type_id":"4","last_reported":1744729844,"current_range_meters":12400,"station_id":"ce4bhf92rcd13ifvqf40","pricing_plan_id":"cebpf4jnsgd1na2vs0mg"},{"bike_id":"b0b19754-995f-4d4b-bc89-b97285ed65c0","system_id":"levelo_inurba_marseille","lat":43.25606,"lon":5.37649,"is_reserved":false,"is_disabled":false,"rental_uris":{"android":"levelo://app?vid=b0b19754-995f-4d4b-bc89-b97285ed65c0","ios":"levelo://app?vid=b0b19754-995f-4d4b-bc89-b97285ed65c0"},"vehicle_type_id":"4","last_reported":1744729844,"current_range_meters":12800,"station_id":"","pricing_plan_id":"cebpf4jnsgd1na2vs0mg"},{"bike_id":"d2d37f01-fa46-4fbc-a721-7789f4003663","system_id":"levelo_inurba_marseille","lat":43.24982,"lon":5.38972,"is_reserved":false,"is_disabled":false,"rental_uris":{"android":"levelo://app?vid=d2d37f01-fa46-4fbc-a721-7789f4003663","ios":"levelo://app?vid=d2d37f01-fa46-4fbc-a721-7789f4003663"},"vehicle_type_id":"4","last_reported":1744729844,"current_range_meters":12400,"station_id":"","pricing_plan_id":"cebpf4jnsgd1na2vs0mg"},{"bike_id":"15efd36f-b9f2-46fc-96f4-01f134a789fc","system_id":"levelo_inurba_marseille","lat":43.27431,"lon":5.39413,"is_reserved":false,"is_disabled":false,"rental_uris":{"android":"levelo://app?vid=15efd36f-b9f2-46fc-96f4-01f134a789fc","ios":"levelo://app?vid=15efd36f-b9f2-46fc-96f4-01f134a789fc"},"vehicle_type_id":"4","last_reported":1744729844,"current_range_meters":12400,"station_id":"ce4bhdp2rcd13ifvqf20","pricing_plan_id":"cebpf4jnsgd1na2vs0mg"},{"bike_id":"47a85634-40b2-4bd1-8409-1d1cf2f06bdc","system_id":"levelo_inurba_marseille","lat":43.24063,"lon":5.37785,"is_reserved":false,"is_disabled":false,"rental_uris":{"android":"levelo://app?vid=47a85634-40b2-4bd1-8409-1d1cf2f06bdc","ios":"levelo://app?vid=47a85634-40b2-4bd1-8409-1d1cf2f06bdc"},"vehicle_type_id":"4","last_reported":1744729844,"current_range_meters":12800,"station_id":"ce4bhnp2rcd13ifvqgvg","pricing_plan_id":"cebpf4jnsgd1na2vs0mg"},{"bike_id":"b741ae25-eaf1-49a9-8832-10c8ed8bb77a","system_id":"levelo_inurba_marseille","lat":43.27996,"lon":5.40005,"is_reserved":false,"is_disabled":false,"rental_uris":{"android":"levelo://app?vid=b741ae25-eaf1-49a9-8832-10c8ed8bb77a","ios":"levelo://app?vid=b741ae25-eaf1-49a9-8832-10c8ed8bb77a"},"vehicle_type_id":"4","last_reported":1744729844,"current_range_meters":12800,"station_id":"ce4bho92rcd13ifvqh4g","pricing_plan_id":"cebpf4jnsgd1na2vs0mg"},{"bike_id":"bdbfa91d-f51b-4c92-a880-1cae845c2a5c","system_id":"levelo_inurba_marseille","lat":43.2293,"lon":5.35387,"is_reserved":false,"is_disabled":false,"rental_uris":{"android":"levelo://app?vid=bdbfa91d-f51b-4c92-a880-1cae845c2a5c","ios":"levelo://app?vid=bdbfa91d-f51b-4c92-a880-1cae845c2a5c"},"vehicle_type_id":"4","last_reported":1744729844,"current_range_meters":13600,"station_id":"cpo3532slgdg3j2ikp40","pricing_plan_id":"cebpf4jnsgd1na2vs0mg"},{"bike_id":"c13360bf-72a6-41f8-ba61-7eadb585c0cb","system_id":"levelo_inurba_marseille","lat":43.30538,"lon":5.36528,"is_reserved":false,"is_disabled":false,"rental_uris":{"android":"levelo://app?vid=c13360bf-72a6-41f8-ba61-7eadb585c0cb","ios":"levelo://app?vid=c13360bf-72a6-41f8-ba61-7eadb585c0cb"},"vehicle_type_id":"4","last_reported":1744729844,"current_range_meters":13600,"station_id":"ce4bgs12rcd13ifvqcag","pricing_plan_id":"cebpf4jnsgd1na2vs0mg"},{"bike_id":"c9fbfbd0-ac82-410e-8a58-1795989b1898","system_id":"levelo_inurba_marseille","lat":43.30497,"lon":5.37901,"is_reserved":false,"is_disabled":false,"rental_uris":{"android":"levelo://app?vid=c9fbfbd0-ac82-410e-8a58-1795989b1898","ios":"levelo://app?vid=c9fbfbd0-ac82-410e-8a58-1795989b1898"},"vehicle_type_id":"4","last_reported":1744729844,"current_range_meters":13600,"station_id":"ce4bgup2rcd13ifvqcn0","pricing_plan_id":"cebpf4jnsgd1na2vs0mg"},{"bike_id":"70560ccc-fcb6-4338-87e4-d32c4c1e7390","system_id":"levelo_inurba_marseille","lat":43.28629,"lon":5.37076,"is_reserved":false,"is_disabled":false,"rental_uris":{"android":"levelo://app?vid=70560ccc-fcb6-4338-87e4-d32c4c1e7390","ios":"levelo://app?vid=70560ccc-fcb6-4338-87e4-d32c4c1e7390"},"vehicle_type_id":"4","last_reported":1744729844,"current_range_meters":13600,"station_id":"ce4bht12rcd13ifvqi60","pricing_plan_id":"cebpf4jnsgd1na2vs0mg"},{"bike_id":"e298fb17-60fe-4ee1-bc94-645f9b8b1bb4","system_id":"levelo_inurba_marseille","lat":43.28997,"lon":5.37616,"is_reserved":false,"is_disabled":false,"rental_uris":{"android":"levelo://app?vid=e298fb17-60fe-4ee1-bc94-645f9b8b1bb4","ios":"levelo://app?vid=e298fb17-60fe-4ee1-bc94-645f9b8b1bb4"},"vehicle_type_id":"4","last_reported":1744729844,"current_range_meters":13600,"station_id":"","pricing_plan_id":"cebpf4jnsgd1na2vs0mg"},{"bike_id":"475ae1d8-b176-4867-aed7-2c55f80c09f5","system_id":"levelo_inurba_marseille","lat":43.30476,"lon":5.37905,"is_reserved":false,"is_disabled":false,"rental_uris":{"android":"levelo://app?vid=475ae1d8-b176-4867-aed7-2c55f80c09f5","ios":"levelo://app?vid=475ae1d8-b176-4867-aed7-2c55f80c09f5"},"vehicle_type_id":"4","last_reported":1744729844,"current_range_meters":14000,"station_id":"ce4bgup2rcd13ifvqcn0","pricing_plan_id":"cebpf4jnsgd1na2vs0mg"},{"bike_id":"ecc26774-7f80-4834-883f-3a8990a5fcbe","system_id":"levelo_inurba_marseille","lat":43.25673,"lon":5.37647,"is_reserved":false,"is_disabled":false,"rental_uris":{"android":"levelo://app?vid=ecc26774-7f80-4834-883f-3a8990a5fcbe","ios":"levelo://app?vid=ecc26774-7f80-4834-883f-3a8990a5fcbe"},"vehicle_type_id":"4","last_reported":1744729844,"current_range_meters":14000,"station_id":"","pricing_plan_id":"cebpf4jnsgd1na2vs0mg"},{"bike_id":"cdbc5cd8-d7d4-41fd-89e8-6d65272d336a","system_id":"levelo_inurba_marseille","lat":43.29556,"lon":5.37519,"is_reserved":false,"is_disabled":false,"rental_uris":{"android":"levelo://app?vid=cdbc5cd8-d7d4-41fd-89e8-6d65272d336a","ios":"levelo://app?vid=cdbc5cd8-d7d4-41fd-89e8-6d65272d336a"},"vehicle_type_id":"4","last_reported":1744729844,"current_range_meters":14000,"station_id":"ce4bgh92rcd13ifvqb50","pricing_plan_id":"cebpf4jnsgd1na2vs0mg"},{"bike_id":"3211300d-f989-4e59-b79a-4978f083f794","system_id":"levelo_inurba_marseille","lat":43.30544,"lon":5.36533,"is_reserved":false,"is_disabled":false,"rental_uris":{"android":"levelo://app?vid=3211300d-f989-4e59-b79a-4978f083f794","ios":"levelo://app?vid=3211300d-f989-4e59-b79a-4978f083f794"},"vehicle_type_id":"4","last_reported":1744729844,"current_range_meters":14000,"station_id":"ce4bgs12rcd13ifvqcag","pricing_plan_id":"cebpf4jnsgd1na2vs0mg"},{"bike_id":"12777378-44b8-4219-a756-465466911212","system_id":"levelo_inurba_marseille","lat":43.28441,"lon":5.39197,"is_reserved":false,"is_disabled":false,"rental_uris":{"android":"levelo://app?vid=12777378-44b8-4219-a756-465466911212","ios":"levelo://app?vid=12777378-44b8-4219-a756-465466911212"},"vehicle_type_id":"4","last_reported":1744729844,"current_range_meters":14000,"station_id":"ce4bhoh2rcd13ifvqh5g","pricing_plan_id":"cebpf4jnsgd1na2vs0mg"},{"bike_id":"d3af1cbc-f8c3-45fa-958e-4e11acda001e","system_id":"levelo_inurba_marseille","lat":43.26493,"lon":5.39549,"is_reserved":false,"is_disabled":false,"rental_uris":{"android":"levelo://app?vid=d3af1cbc-f8c3-45fa-958e-4e11acda001e","ios":"levelo://app?vid=d3af1cbc-f8c3-45fa-958e-4e11acda001e"},"vehicle_type_id":"4","last_reported":1744729844,"current_range_meters":14400,"station_id":"ce4bhi12rcd13ifvqfq0","pricing_plan_id":"cebpf4jnsgd1na2vs0mg"},{"bike_id":"9ae10e5b-6de1-4a45-9afd-ca60c4fde0b1","system_id":"levelo_inurba_marseille","lat":43.28407,"lon":5.37511,"is_reserved":false,"is_disabled":false,"rental_uris":{"android":"levelo://app?vid=9ae10e5b-6de1-4a45-9afd-ca60c4fde0b1","ios":"levelo://app?vid=9ae10e5b-6de1-4a45-9afd-ca60c4fde0b1"},"vehicle_type_id":"4","last_reported":1744729844,"current_range_meters":14400,"station_id":"ce4bh412rcd13ifvqds0","pricing_plan_id":"cebpf4jnsgd1na2vs0mg"},{"bike_id":"738a8c95-4878-4a67-8489-4066d917b05a","system_id":"levelo_inurba_marseille","lat":43.29883,"lon":5.43748,"is_reserved":false,"is_disabled":false,"rental_uris":{"android":"levelo://app?vid=738a8c95-4878-4a67-8489-4066d917b05a","ios":"levelo://app?vid=738a8c95-4878-4a67-8489-4066d917b05a"},"vehicle_type_id":"4","last_reported":1744729844,"current_range_meters":14400,"station_id":"ce4bhpp2rcd13ifvqhfg","pricing_plan_id":"cebpf4jnsgd1na2vs0mg"},{"bike_id":"1c1a1726-a176-4220-ba75-966e52135c75","system_id":"levelo_inurba_marseille","lat":43.26562,"lon":5.39006,"is_reserved":false,"is_disabled":false,"rental_uris":{"android":"levelo://app?vid=1c1a1726-a176-4220-ba75-966e52135c75","ios":"levelo://app?vid=1c1a1726-a176-4220-ba75-966e52135c75"},"vehicle_type_id":"4","last_reported":1744729844,"current_range_meters":14800,"station_id":"ce4bhe12rcd13ifvqf30","pricing_plan_id":"cebpf4jnsgd1na2vs0mg"},{"bike_id":"77037b3f-050a-4708-b85e-3feee4d6225d","system_id":"levelo_inurba_marseille","lat":43.30494,"lon":5.37914,"is_reserved":false,"is_disabled":false,"rental_uris":{"android":"levelo://app?vid=77037b3f-050a-4708-b85e-3feee4d6225d","ios":"levelo://app?vid=77037b3f-050a-4708-b85e-3feee4d6225d"},"vehicle_type_id":"4","last_reported":1744729844,"current_range_meters":14800,"station_id":"ce4bgup2rcd13ifvqcn0","pricing_plan_id":"cebpf4jnsgd1na2vs0mg"},{"bike_id":"2590d457-3ca7-437f-81e0-f5ce5113823c","system_id":"levelo_inurba_marseille","lat":43.30589,"lon":5.39359,"is_reserved":false,"is_disabled":false,"rental_uris":{"android":"levelo://app?vid=2590d457-3ca7-437f-81e0-f5ce5113823c","ios":"levelo://app?vid=2590d457-3ca7-437f-81e0-f5ce5113823c"},"vehicle_type_id":"4","last_reported":1744729844,"current_range_meters":14800,"station_id":"ce4bh0p2rcd13ifvqd80","pricing_plan_id":"cebpf4jnsgd1na2vs0mg"},{"bike_id":"d912b916-7ebe-408a-9a85-ed6fcf631899","system_id":"levelo_inurba_marseille","lat":43.3014,"lon":5.38779,"is_reserved":false,"is_disabled":false,"rental_uris":{"android":"levelo://app?vid=d912b916-7ebe-408a-9a85-ed6fcf631899","ios":"levelo://app?vid=d912b916-7ebe-408a-9a85-ed6fcf631899"},"vehicle_type_id":"4","last_reported":1744729844,"current_range_meters":14800,"station_id":"ce4bhhh2rcd13ifvqfl0","pricing_plan_id":"cebpf4jnsgd1na2vs0mg"},{"bike_id":"a8132d22-4ce6-4e24-9e2c-e02042e4181b","system_id":"levelo_inurba_marseille","lat":43.21748,"lon":5.34597,"is_reserved":false,"is_disabled":false,"rental_uris":{"android":"levelo://app?vid=a8132d22-4ce6-4e24-9e2c-e02042e4181b","ios":"levelo://app?vid=a8132d22-4ce6-4e24-9e2c-e02042e4181b"},"vehicle_type_id":"4","last_reported":1744729844,"current_range_meters":15200,"station_id":"st_cvj6r9ubvosntc0bgbag","pricing_plan_id":"cebpf4jnsgd1na2vs0mg"},{"bike_id":"801970a4-095e-432e-856f-4afec471335a","system_id":"levelo_inurba_marseille","lat":43.30534,"lon":5.36538,"is_reserved":false,"is_disabled":false,"rental_uris":{"android":"levelo://app?vid=801970a4-095e-432e-856f-4afec471335a","ios":"levelo://app?vid=801970a4-095e-432e-856f-4afec471335a"},"vehicle_type_id":"4","last_reported":1744729844,"current_range_meters":15200,"station_id":"ce4bgs12rcd13ifvqcag","pricing_plan_id":"cebpf4jnsgd1na2vs0mg"},{"bike_id":"7eacb872-0584-4b06-8fad-feb612d3799a","system_id":"levelo_inurba_marseille","lat":43.29695,"lon":5.38138,"is_reserved":false,"is_disabled":false,"rental_uris":{"android":"levelo://app?vid=7eacb872-0584-4b06-8fad-feb612d3799a","ios":"levelo://app?vid=7eacb872-0584-4b06-8fad-feb612d3799a"},"vehicle_type_id":"4","last_reported":1744729844,"current_range_meters":15200,"station_id":"","pricing_plan_id":"cebpf4jnsgd1na2vs0mg"},{"bike_id":"5877eff2-8c68-4d8e-a755-0882488a3136","system_id":"levelo_inurba_marseille","lat":43.292356,"lon":5.383702,"is_reserved":false,"is_disabled":false,"rental_uris":{"android":"levelo://app?vid=5877eff2-8c68-4d8e-a755-0882488a3136","ios":"levelo://app?vid=5877eff2-8c68-4d8e-a755-0882488a3136"},"vehicle_type_id":"4","last_reported":1744729844,"current_range_meters":15200,"station_id":"ce4bh692rcd13ifvqea0","pricing_plan_id":"cebpf4jnsgd1na2vs0mg"},{"bike_id":"5ceaac95-f6f1-4d7b-ae0c-3033e09553ab","system_id":"levelo_inurba_marseille","lat":43.25668,"lon":5.3765,"is_reserved":false,"is_disabled":false,"rental_uris":{"android":"levelo://app?vid=5ceaac95-f6f1-4d7b-ae0c-3033e09553ab","ios":"levelo://app?vid=5ceaac95-f6f1-4d7b-ae0c-3033e09553ab"},"vehicle_type_id":"4","last_reported":1744729844,"current_range_meters":16400,"station_id":"","pricing_plan_id":"cebpf4jnsgd1na2vs0mg"},{"bike_id":"4aef0fa6-a0da-4fa2-9099-9fa1ba81c16a","system_id":"levelo_inurba_marseille","lat":43.281685,"lon":5.404384,"is_reserved":false,"is_disabled":false,"rental_uris":{"android":"levelo://app?vid=4aef0fa6-a0da-4fa2-9099-9fa1ba81c16a","ios":"levelo://app?vid=4aef0fa6-a0da-4fa2-9099-9fa1ba81c16a"},"vehicle_type_id":"4","last_reported":1744729844,"current_range_meters":16000,"station_id":"","pricing_plan_id":"cebpf4jnsgd1na2vs0mg"},{"bike_id":"4c470df7-4cbb-413f-b587-893637313088","system_id":"levelo_inurba_marseille","lat":43.25117,"lon":5.40322,"is_reserved":false,"is_disabled":false,"rental_uris":{"android":"levelo://app?vid=4c470df7-4cbb-413f-b587-893637313088","ios":"levelo://app?vid=4c470df7-4cbb-413f-b587-893637313088"},"vehicle_type_id":"4","last_reported":1744729844,"current_range_meters":16000,"station_id":"ce4bhlh2rcd13ifvqgig","pricing_plan_id":"cebpf4jnsgd1na2vs0mg"},{"bike_id":"7c6654df-1656-4bb2-8e78-6fa5a8ad6df9","system_id":"levelo_inurba_marseille","lat":43.248065,"lon":5.374609,"is_reserved":false,"is_disabled":false,"rental_uris":{"android":"levelo://app?vid=7c6654df-1656-4bb2-8e78-6fa5a8ad6df9","ios":"levelo://app?vid=7c6654df-1656-4bb2-8e78-6fa5a8ad6df9"},"vehicle_type_id":"4","last_reported":1744729844,"current_range_meters":16000,"station_id":"ce4bhgh2rcd13ifvqfb0","pricing_plan_id":"cebpf4jnsgd1na2vs0mg"},{"bike_id":"504cf016-be85-40ae-bd6e-21fe1e837c30","system_id":"levelo_inurba_marseille","lat":43.324877,"lon":5.365654,"is_reserved":false,"is_disabled":false,"rental_uris":{"android":"levelo://app?vid=504cf016-be85-40ae-bd6e-21fe1e837c30","ios":"levelo://app?vid=504cf016-be85-40ae-bd6e-21fe1e837c30"},"vehicle_type_id":"4","last_reported":1744729844,"current_range_meters":16400,"station_id":"ce4bhs12rcd13ifvqhvg","pricing_plan_id":"cebpf4jnsgd1na2vs0mg"},{"bike_id":"7035a280-e367-4dda-ab53-5448a5769738","system_id":"levelo_inurba_marseille","lat":43.30555,"lon":5.36556,"is_reserved":false,"is_disabled":false,"rental_uris":{"android":"levelo://app?vid=7035a280-e367-4dda-ab53-5448a5769738","ios":"levelo://app?vid=7035a280-e367-4dda-ab53-5448a5769738"},"vehicle_type_id":"4","last_reported":1744729844,"current_range_meters":16400,"station_id":"ce4bgs12rcd13ifvqcag","pricing_plan_id":"cebpf4jnsgd1na2vs0mg"},{"bike_id":"482c27ef-86ab-40ff-8309-caa6715c9c7e","system_id":"levelo_inurba_marseille","lat":43.29964,"lon":5.38499,"is_reserved":false,"is_disabled":false,"rental_uris":{"android":"levelo://app?vid=482c27ef-86ab-40ff-8309-caa6715c9c7e","ios":"levelo://app?vid=482c27ef-86ab-40ff-8309-caa6715c9c7e"},"vehicle_type_id":"4","last_reported":1744729844,"current_range_meters":16400,"station_id":"ce4bgj92rcd13ifvqbd0","pricing_plan_id":"cebpf4jnsgd1na2vs0mg"},{"bike_id":"944bddab-9f41-4da7-80e2-b3e803e6b9a5","system_id":"levelo_inurba_marseille","lat":43.21204,"lon":5.35074,"is_reserved":false,"is_disabled":false,"rental_uris":{"android":"levelo://app?vid=944bddab-9f41-4da7-80e2-b3e803e6b9a5","ios":"levelo://app?vid=944bddab-9f41-4da7-80e2-b3e803e6b9a5"},"vehicle_type_id":"4","last_reported":1744729844,"current_range_meters":16400,"station_id":"st_cvj6sg6p6f1abm77japg","pricing_plan_id":"cebpf4jnsgd1na2vs0mg"},{"bike_id":"1f373b31-8510-4793-9275-4dd6f104b2ea","system_id":"levelo_inurba_marseille","lat":43.29537,"lon":5.38544,"is_reserved":false,"is_disabled":false,"rental_uris":{"android":"levelo://app?vid=1f373b31-8510-4793-9275-4dd6f104b2ea","ios":"levelo://app?vid=1f373b31-8510-4793-9275-4dd6f104b2ea"},"vehicle_type_id":"4","last_reported":1744729844,"current_range_meters":16800,"station_id":"ce4bgih2rcd13ifvqba0","pricing_plan_id":"cebpf4jnsgd1na2vs0mg"},{"bike_id":"ae5cfa09-1721-49a7-90cc-06dc5326516d","system_id":"levelo_inurba_marseille","lat":43.28408,"lon":5.37518,"is_reserved":false,"is_disabled":false,"rental_uris":{"android":"levelo://app?vid=ae5cfa09-1721-49a7-90cc-06dc5326516d","ios":"levelo://app?vid=ae5cfa09-1721-49a7-90cc-06dc5326516d"},"vehicle_type_id":"4","last_reported":1744729844,"current_range_meters":16800,"station_id":"ce4bh412rcd13ifvqds0","pricing_plan_id":"cebpf4jnsgd1na2vs0mg"},{"bike_id":"79578d0a-5e58-458c-bc07-79f899603c4f","system_id":"levelo_inurba_marseille","lat":43.29535,"lon":5.38549,"is_reserved":false,"is_disabled":false,"rental_uris":{"android":"levelo://app?vid=79578d0a-5e58-458c-bc07-79f899603c4f","ios":"levelo://app?vid=79578d0a-5e58-458c-bc07-79f899603c4f"},"vehicle_type_id":"4","last_reported":1744729844,"current_range_meters":16800,"station_id":"ce4bgih2rcd13ifvqba0","pricing_plan_id":"cebpf4jnsgd1na2vs0mg"},{"bike_id":"9ea0f843-b2d6-49d2-bb1e-bd610664e733","system_id":"levelo_inurba_marseille","lat":43.30415,"lon":5.38879,"is_reserved":false,"is_disabled":false,"rental_uris":{"android":"levelo://app?vid=9ea0f843-b2d6-49d2-bb1e-bd610664e733","ios":"levelo://app?vid=9ea0f843-b2d6-49d2-bb1e-bd610664e733"},"vehicle_type_id":"4","last_reported":1744729844,"current_range_meters":16800,"station_id":"ce4bgk12rcd13ifvqbi0","pricing_plan_id":"cebpf4jnsgd1na2vs0mg"},{"bike_id":"8cbd2531-c5b2-48f4-8519-f32a3a880ece","system_id":"levelo_inurba_marseille","lat":43.3055,"lon":5.36546,"is_reserved":false,"is_disabled":false,"rental_uris":{"android":"levelo://app?vid=8cbd2531-c5b2-48f4-8519-f32a3a880ece","ios":"levelo://app?vid=8cbd2531-c5b2-48f4-8519-f32a3a880ece"},"vehicle_type_id":"4","last_reported":1744729844,"current_range_meters":16800,"station_id":"ce4bgs12rcd13ifvqcag","pricing_plan_id":"cebpf4jnsgd1na2vs0mg"},{"bike_id":"76d1fd70-37cc-41b0-8088-c30afd9498b5","system_id":"levelo_inurba_marseille","lat":43.30465,"lon":5.37902,"is_reserved":false,"is_disabled":false,"rental_uris":{"android":"levelo://app?vid=76d1fd70-37cc-41b0-8088-c30afd9498b5","ios":"levelo://app?vid=76d1fd70-37cc-41b0-8088-c30afd9498b5"},"vehicle_type_id":"4","last_reported":1744729844,"current_range_meters":17600,"station_id":"ce4bgup2rcd13ifvqcn0","pricing_plan_id":"cebpf4jnsgd1na2vs0mg"},{"bike_id":"09651454-ba98-489f-84d4-7c0b820526b4","system_id":"levelo_inurba_marseille","lat":43.31248,"lon":5.36895,"is_reserved":false,"is_disabled":true,"rental_uris":{"android":"levelo://app?vid=09651454-ba98-489f-84d4-7c0b820526b4","ios":"levelo://app?vid=09651454-ba98-489f-84d4-7c0b820526b4"},"vehicle_type_id":"4","last_reported":1744729844,"current_range_meters":17200,"station_id":"ce4bgl92rcd13ifvqbq0","pricing_plan_id":"cebpf4jnsgd1na2vs0mg"},{"bike_id":"1395488a-de73-4c0c-99f8-ead07ddbb67d","system_id":"levelo_inurba_marseille","lat":43.25691,"lon":5.37647,"is_reserved":false,"is_disabled":false,"rental_uris":{"android":"levelo://app?vid=1395488a-de73-4c0c-99f8-ead07ddbb67d","ios":"levelo://app?vid=1395488a-de73-4c0c-99f8-ead07ddbb67d"},"vehicle_type_id":"4","last_reported":1744729844,"current_range_meters":18000,"station_id":"","pricing_plan_id":"cebpf4jnsgd1na2vs0mg"},{"bike_id":"864864a2-3e94-49e2-b57f-1d1fc966df46","system_id":"levelo_inurba_marseille","lat":43.29274,"lon":5.37631,"is_reserved":false,"is_disabled":false,"rental_uris":{"android":"levelo://app?vid=864864a2-3e94-49e2-b57f-1d1fc966df46","ios":"levelo://app?vid=864864a2-3e94-49e2-b57f-1d1fc966df46"},"vehicle_type_id":"4","last_reported":1744729844,"current_range_meters":17200,"station_id":"ce4bgi12rcd13ifvqb80","pricing_plan_id":"cebpf4jnsgd1na2vs0mg"},{"bike_id":"15c35719-f39f-4c8c-a792-5f32c6822f0d","system_id":"levelo_inurba_marseille","lat":43.28273,"lon":5.3506,"is_reserved":false,"is_disabled":false,"rental_uris":{"android":"levelo://app?vid=15c35719-f39f-4c8c-a792-5f32c6822f0d","ios":"levelo://app?vid=15c35719-f39f-4c8c-a792-5f32c6822f0d"},"vehicle_type_id":"4","last_reported":1744729844,"current_range_meters":17600,"station_id":"ce4bhbp2rcd13ifvqerg","pricing_plan_id":"cebpf4jnsgd1na2vs0mg"},{"bike_id":"5e471e70-fb12-4f4e-bf80-428cedfb2e65","system_id":"levelo_inurba_marseille","lat":43.29894,"lon":5.43663,"is_reserved":false,"is_disabled":false,"rental_uris":{"android":"levelo://app?vid=5e471e70-fb12-4f4e-bf80-428cedfb2e65","ios":"levelo://app?vid=5e471e70-fb12-4f4e-bf80-428cedfb2e65"},"vehicle_type_id":"4","last_reported":1744729844,"current_range_meters":17600,"station_id":"ce4bhpp2rcd13ifvqhfg","pricing_plan_id":"cebpf4jnsgd1na2vs0mg"},{"bike_id":"670bdf31-c237-4ba0-bd5e-1c33d7d421c5","system_id":"levelo_inurba_marseille","lat":43.29849,"lon":5.36279,"is_reserved":false,"is_disabled":false,"rental_uris":{"android":"levelo://app?vid=670bdf31-c237-4ba0-bd5e-1c33d7d421c5","ios":"levelo://app?vid=670bdf31-c237-4ba0-bd5e-1c33d7d421c5"},"vehicle_type_id":"4","last_reported":1744729844,"current_range_meters":17600,"station_id":"ce4bgpp2rcd13ifvqc3g","pricing_plan_id":"cebpf4jnsgd1na2vs0mg"},{"bike_id":"cc12539d-2d8e-40d5-aa3a-6403de93d16e","system_id":"levelo_inurba_marseille","lat":43.31329,"lon":5.3971,"is_reserved":false,"is_disabled":false,"rental_uris":{"android":"levelo://app?vid=cc12539d-2d8e-40d5-aa3a-6403de93d16e","ios":"levelo://app?vid=cc12539d-2d8e-40d5-aa3a-6403de93d16e"},"vehicle_type_id":"4","last_reported":1744729844,"current_range_meters":17600,"station_id":"ce4bgvp2rcd13ifvqcu0","pricing_plan_id":"cebpf4jnsgd1na2vs0mg"},{"bike_id":"834ec9e1-9d50-4bee-85ae-d1db335c55e5","system_id":"levelo_inurba_marseille","lat":43.31141,"lon":5.36269,"is_reserved":false,"is_disabled":false,"rental_uris":{"android":"levelo://app?vid=834ec9e1-9d50-4bee-85ae-d1db335c55e5","ios":"levelo://app?vid=834ec9e1-9d50-4bee-85ae-d1db335c55e5"},"vehicle_type_id":"4","last_reported":1744729844,"current_range_meters":17600,"station_id":"","pricing_plan_id":"cebpf4jnsgd1na2vs0mg"},{"bike_id":"e7828c41-ab95-44dd-849f-454bc7d3bd55","system_id":"levelo_inurba_marseille","lat":43.292237,"lon":5.363805,"is_reserved":false,"is_disabled":false,"rental_uris":{"android":"levelo://app?vid=e7828c41-ab95-44dd-849f-454bc7d3bd55","ios":"levelo://app?vid=e7828c41-ab95-44dd-849f-454bc7d3bd55"},"vehicle_type_id":"4","last_reported":1744729844,"current_range_meters":17600,"station_id":"ce4bgpp2rcd13ifvqc3g","pricing_plan_id":"cebpf4jnsgd1na2vs0mg"},{"bike_id":"5b901f34-b398-44db-8aa3-3a24ee033299","system_id":"levelo_inurba_marseille","lat":43.30461,"lon":5.37901,"is_reserved":false,"is_disabled":false,"rental_uris":{"android":"levelo://app?vid=5b901f34-b398-44db-8aa3-3a24ee033299","ios":"levelo://app?vid=5b901f34-b398-44db-8aa3-3a24ee033299"},"vehicle_type_id":"4","last_reported":1744729844,"current_range_meters":17600,"station_id":"ce4bgup2rcd13ifvqcn0","pricing_plan_id":"cebpf4jnsgd1na2vs0mg"},{"bike_id":"1f7af09c-1e1b-4a4d-980a-9498be79db2c","system_id":"levelo_inurba_marseille","lat":43.30421,"lon":5.41288,"is_reserved":false,"is_disabled":false,"rental_uris":{"android":"levelo://app?vid=1f7af09c-1e1b-4a4d-980a-9498be79db2c","ios":"levelo://app?vid=1f7af09c-1e1b-4a4d-980a-9498be79db2c"},"vehicle_type_id":"4","last_reported":1744729844,"current_range_meters":17600,"station_id":"ce4bhop2rcd13ifvqh8g","pricing_plan_id":"cebpf4jnsgd1na2vs0mg"},{"bike_id":"6f23923f-fc67-460a-b0b8-5119c016d5b0","system_id":"levelo_inurba_marseille","lat":43.26909,"lon":5.38925,"is_reserved":false,"is_disabled":true,"rental_uris":{"android":"levelo://app?vid=6f23923f-fc67-460a-b0b8-5119c016d5b0","ios":"levelo://app?vid=6f23923f-fc67-460a-b0b8-5119c016d5b0"},"vehicle_type_id":"4","last_reported":1744729844,"current_range_meters":17600,"station_id":"ce4bhhh2rcd13ifvqfl0","pricing_plan_id":"cebpf4jnsgd1na2vs0mg"},{"bike_id":"97b44b08-21d6-484d-b2fa-136d2421661f","system_id":"levelo_inurba_marseille","lat":43.29657,"lon":5.395892,"is_reserved":false,"is_disabled":false,"rental_uris":{"android":"levelo://app?vid=97b44b08-21d6-484d-b2fa-136d2421661f","ios":"levelo://app?vid=97b44b08-21d6-484d-b2fa-136d2421661f"},"vehicle_type_id":"4","last_reported":1744729844,"current_range_meters":17600,"station_id":"ce4bghh2rcd13ifvqb60","pricing_plan_id":"cebpf4jnsgd1na2vs0mg"},{"bike_id":"857ff0ed-8bc6-43b2-87aa-4266c1d75649","system_id":"levelo_inurba_marseille","lat":43.31071,"lon":5.40088,"is_reserved":false,"is_disabled":false,"rental_uris":{"android":"levelo://app?vid=857ff0ed-8bc6-43b2-87aa-4266c1d75649","ios":"levelo://app?vid=857ff0ed-8bc6-43b2-87aa-4266c1d75649"},"vehicle_type_id":"4","last_reported":1744729844,"current_range_meters":17600,"station_id":"","pricing_plan_id":"cebpf4jnsgd1na2vs0mg"},{"bike_id":"09a129da-f9f2-4d2f-9b45-fe07ddda3a15","system_id":"levelo_inurba_marseille","lat":43.29275,"lon":5.36849,"is_reserved":false,"is_disabled":false,"rental_uris":{"android":"levelo://app?vid=09a129da-f9f2-4d2f-9b45-fe07ddda3a15","ios":"levelo://app?vid=09a129da-f9f2-4d2f-9b45-fe07ddda3a15"},"vehicle_type_id":"4","last_reported":1744729844,"current_range_meters":17600,"station_id":"ce4bhbp2rcd13ifvqesg","pricing_plan_id":"cebpf4jnsgd1na2vs0mg"},{"bike_id":"a0ddb0a5-f7f0-4281-aa27-9e82747cc573","system_id":"levelo_inurba_marseille","lat":43.33788,"lon":5.37505,"is_reserved":false,"is_disabled":false,"rental_uris":{"android":"levelo://app?vid=a0ddb0a5-f7f0-4281-aa27-9e82747cc573","ios":"levelo://app?vid=a0ddb0a5-f7f0-4281-aa27-9e82747cc573"},"vehicle_type_id":"4","last_reported":1744729844,"current_range_meters":17600,"station_id":"","pricing_plan_id":"cebpf4jnsgd1na2vs0mg"},{"bike_id":"25e53286-70d5-4616-9fbe-5b3b2a916446","system_id":"levelo_inurba_marseille","lat":43.30547,"lon":5.36543,"is_reserved":false,"is_disabled":false,"rental_uris":{"android":"levelo://app?vid=25e53286-70d5-4616-9fbe-5b3b2a916446","ios":"levelo://app?vid=25e53286-70d5-4616-9fbe-5b3b2a916446"},"vehicle_type_id":"4","last_reported":1744729844,"current_range_meters":18000,"station_id":"ce4bgs12rcd13ifvqcag","pricing_plan_id":"cebpf4jnsgd1na2vs0mg"},{"bike_id":"55810cbc-688f-46a7-9b5f-62a073213c8c","system_id":"levelo_inurba_marseille","lat":43.29254,"lon":5.38426,"is_reserved":false,"is_disabled":false,"rental_uris":{"android":"levelo://app?vid=55810cbc-688f-46a7-9b5f-62a073213c8c","ios":"levelo://app?vid=55810cbc-688f-46a7-9b5f-62a073213c8c"},"vehicle_type_id":"4","last_reported":1744729844,"current_range_meters":16400,"station_id":"ce4bh692rcd13ifvqea0","pricing_plan_id":"cebpf4jnsgd1na2vs0mg"},{"bike_id":"dfee4ecd-092e-44fc-9161-fa1f1fe05d41","system_id":"levelo_inurba_marseille","lat":43.28272,"lon":5.35063,"is_reserved":false,"is_disabled":false,"rental_uris":{"android":"levelo://app?vid=dfee4ecd-092e-44fc-9161-fa1f1fe05d41","ios":"levelo://app?vid=dfee4ecd-092e-44fc-9161-fa1f1fe05d41"},"vehicle_type_id":"4","last_reported":1744729844,"current_range_meters":18000,"station_id":"ce4bhbp2rcd13ifvqerg","pricing_plan_id":"cebpf4jnsgd1na2vs0mg"},{"bike_id":"409f6a98-f600-494d-8f3e-69ca699f8163","system_id":"levelo_inurba_marseille","lat":43.28286,"lon":5.35085,"is_reserved":false,"is_disabled":false,"rental_uris":{"android":"levelo://app?vid=409f6a98-f600-494d-8f3e-69ca699f8163","ios":"levelo://app?vid=409f6a98-f600-494d-8f3e-69ca699f8163"},"vehicle_type_id":"4","last_reported":1744729844,"current_range_meters":18000,"station_id":"ce4bhbp2rcd13ifvqerg","pricing_plan_id":"cebpf4jnsgd1na2vs0mg"},{"bike_id":"889e5f0e-836f-416e-9071-263d48ad5753","system_id":"levelo_inurba_marseille","lat":43.2953,"lon":5.38527,"is_reserved":false,"is_disabled":false,"rental_uris":{"android":"levelo://app?vid=889e5f0e-836f-416e-9071-263d48ad5753","ios":"levelo://app?vid=889e5f0e-836f-416e-9071-263d48ad5753"},"vehicle_type_id":"4","last_reported":1744729844,"current_range_meters":18000,"station_id":"ce4bgih2rcd13ifvqba0","pricing_plan_id":"cebpf4jnsgd1na2vs0mg"},{"bike_id":"80fb1f7c-2573-44c0-8b77-5501f4c59ce7","system_id":"levelo_inurba_marseille","lat":43.28935,"lon":5.39628,"is_reserved":false,"is_disabled":false,"rental_uris":{"android":"levelo://app?vid=80fb1f7c-2573-44c0-8b77-5501f4c59ce7","ios":"levelo://app?vid=80fb1f7c-2573-44c0-8b77-5501f4c59ce7"},"vehicle_type_id":"4","last_reported":1744729844,"current_range_meters":18000,"station_id":"ce4bh3h2rcd13ifvqdn0","pricing_plan_id":"cebpf4jnsgd1na2vs0mg"},{"bike_id":"c49a4f83-675f-4244-a56b-2ab36d6a6f86","system_id":"levelo_inurba_marseille","lat":43.32482,"lon":5.36542,"is_reserved":false,"is_disabled":false,"rental_uris":{"android":"levelo://app?vid=c49a4f83-675f-4244-a56b-2ab36d6a6f86","ios":"levelo://app?vid=c49a4f83-675f-4244-a56b-2ab36d6a6f86"},"vehicle_type_id":"4","last_reported":1744729844,"current_range_meters":18000,"station_id":"ce4bhs12rcd13ifvqhvg","pricing_plan_id":"cebpf4jnsgd1na2vs0mg"},{"bike_id":"246af597-811e-4f83-9326-411a95f8afb2","system_id":"levelo_inurba_marseille","lat":43.303053,"lon":5.39211,"is_reserved":false,"is_disabled":false,"rental_uris":{"android":"levelo://app?vid=246af597-811e-4f83-9326-411a95f8afb2","ios":"levelo://app?vid=246af597-811e-4f83-9326-411a95f8afb2"},"vehicle_type_id":"4","last_reported":1744729844,"current_range_meters":18000,"station_id":"ce4bgkh2rcd13ifvqbk0","pricing_plan_id":"cebpf4jnsgd1na2vs0mg"},{"bike_id":"c2b6a1d4-2750-4c3b-b9f7-4a77c644a544","system_id":"levelo_inurba_marseille","lat":43.28976,"lon":5.37834,"is_reserved":false,"is_disabled":false,"rental_uris":{"android":"levelo://app?vid=c2b6a1d4-2750-4c3b-b9f7-4a77c644a544","ios":"levelo://app?vid=c2b6a1d4-2750-4c3b-b9f7-4a77c644a544"},"vehicle_type_id":"4","last_reported":1744729844,"current_range_meters":18000,"station_id":"ce4bh9p2rcd13ifvqed0","pricing_plan_id":"cebpf4jnsgd1na2vs0mg"},{"bike_id":"b711e835-b985-4bdc-9b1b-00b356f46d1f","system_id":"levelo_inurba_marseille","lat":43.31252,"lon":5.36889,"is_reserved":false,"is_disabled":false,"rental_uris":{"android":"levelo://app?vid=b711e835-b985-4bdc-9b1b-00b356f46d1f","ios":"levelo://app?vid=b711e835-b985-4bdc-9b1b-00b356f46d1f"},"vehicle_type_id":"4","last_reported":1744729844,"current_range_meters":18800,"station_id":"ce4bgl92rcd13ifvqbq0","pricing_plan_id":"cebpf4jnsgd1na2vs0mg"},{"bike_id":"4e6524b6-5132-41d3-a759-888a060ccf51","system_id":"levelo_inurba_marseille","lat":43.31098,"lon":5.3676,"is_reserved":false,"is_disabled":false,"rental_uris":{"android":"levelo://app?vid=4e6524b6-5132-41d3-a759-888a060ccf51","ios":"levelo://app?vid=4e6524b6-5132-41d3-a759-888a060ccf51"},"vehicle_type_id":"4","last_reported":1744729844,"current_range_meters":18800,"station_id":"","pricing_plan_id":"cebpf4jnsgd1na2vs0mg"},{"bike_id":"71b4034f-7a76-4ade-a1b7-54de0cbf9ed7","system_id":"levelo_inurba_marseille","lat":43.30116,"lon":5.39878,"is_reserved":false,"is_disabled":false,"rental_uris":{"android":"levelo://app?vid=71b4034f-7a76-4ade-a1b7-54de0cbf9ed7","ios":"levelo://app?vid=71b4034f-7a76-4ade-a1b7-54de0cbf9ed7"},"vehicle_type_id":"4","last_reported":1744729844,"current_range_meters":18800,"station_id":"ce4bh0h2rcd13ifvqd40","pricing_plan_id":"cebpf4jnsgd1na2vs0mg"},{"bike_id":"72644e8a-1bab-456d-823e-f10ffe92d0ec","system_id":"levelo_inurba_marseille","lat":43.29545,"lon":5.42288,"is_reserved":false,"is_disabled":false,"rental_uris":{"android":"levelo://app?vid=72644e8a-1bab-456d-823e-f10ffe92d0ec","ios":"levelo://app?vid=72644e8a-1bab-456d-823e-f10ffe92d0ec"},"vehicle_type_id":"4","last_reported":1744729844,"current_range_meters":18800,"station_id":"ce4bhph2rcd13ifvqhdg","pricing_plan_id":"cebpf4jnsgd1na2vs0mg"},{"bike_id":"c52f5133-6a57-4e71-9fb7-22e3caa013b9","system_id":"levelo_inurba_marseille","lat":43.27999,"lon":5.41661,"is_reserved":false,"is_disabled":false,"rental_uris":{"android":"levelo://app?vid=c52f5133-6a57-4e71-9fb7-22e3caa013b9","ios":"levelo://app?vid=c52f5133-6a57-4e71-9fb7-22e3caa013b9"},"vehicle_type_id":"4","last_reported":1744729844,"current_range_meters":18800,"station_id":"ce4bho12rcd13ifvqh1g","pricing_plan_id":"cebpf4jnsgd1na2vs0mg"},{"bike_id":"f28ab945-c9df-4b0b-be4c-c2ea61470e17","system_id":"levelo_inurba_marseille","lat":43.32479,"lon":5.3658,"is_reserved":false,"is_disabled":false,"rental_uris":{"android":"levelo://app?vid=f28ab945-c9df-4b0b-be4c-c2ea61470e17","ios":"levelo://app?vid=f28ab945-c9df-4b0b-be4c-c2ea61470e17"},"vehicle_type_id":"4","last_reported":1744729844,"current_range_meters":18800,"station_id":"ce4bhs12rcd13ifvqhvg","pricing_plan_id":"cebpf4jnsgd1na2vs0mg"},{"bike_id":"99f04249-386d-4c38-a116-b8c8b42c07df","system_id":"levelo_inurba_marseille","lat":43.25677,"lon":5.41083,"is_reserved":false,"is_disabled":false,"rental_uris":{"android":"levelo://app?vid=99f04249-386d-4c38-a116-b8c8b42c07df","ios":"levelo://app?vid=99f04249-386d-4c38-a116-b8c8b42c07df"},"vehicle_type_id":"4","last_reported":1744729844,"current_range_meters":18800,"station_id":"ce4bhkp2rcd13ifvqgd0","pricing_plan_id":"cebpf4jnsgd1na2vs0mg"},{"bike_id":"841a74ae-2898-4533-bab5-a31755205a03","system_id":"levelo_inurba_marseille","lat":43.2861,"lon":5.37061,"is_reserved":false,"is_disabled":false,"rental_uris":{"android":"levelo://app?vid=841a74ae-2898-4533-bab5-a31755205a03","ios":"levelo://app?vid=841a74ae-2898-4533-bab5-a31755205a03"},"vehicle_type_id":"4","last_reported":1744729844,"current_range_meters":19200,"station_id":"ce4bht12rcd13ifvqi60","pricing_plan_id":"cebpf4jnsgd1na2vs0mg"},{"bike_id":"8c552e14-5f79-488e-999b-b0d649dd7a73","system_id":"levelo_inurba_marseille","lat":43.28946,"lon":5.36631,"is_reserved":false,"is_disabled":false,"rental_uris":{"android":"levelo://app?vid=8c552e14-5f79-488e-999b-b0d649dd7a73","ios":"levelo://app?vid=8c552e14-5f79-488e-999b-b0d649dd7a73"},"vehicle_type_id":"4","last_reported":1744729844,"current_range_meters":19200,"station_id":"ce4bhap2rcd13ifvqek0","pricing_plan_id":"cebpf4jnsgd1na2vs0mg"},{"bike_id":"8bf5c294-59af-4db9-bca5-91759874f450","system_id":"levelo_inurba_marseille","lat":43.29792,"lon":5.39346,"is_reserved":false,"is_disabled":false,"rental_uris":{"android":"levelo://app?vid=8bf5c294-59af-4db9-bca5-91759874f450","ios":"levelo://app?vid=8bf5c294-59af-4db9-bca5-91759874f450"},"vehicle_type_id":"4","last_reported":1744729844,"current_range_meters":19200,"station_id":"chh1huq6cuj3fo74tm60","pricing_plan_id":"cebpf4jnsgd1na2vs0mg"},{"bike_id":"fa8b5d88-c56b-4501-99c1-1b5a6dfd1f66","system_id":"levelo_inurba_marseille","lat":43.211915,"lon":5.350814,"is_reserved":false,"is_disabled":false,"rental_uris":{"android":"levelo://app?vid=fa8b5d88-c56b-4501-99c1-1b5a6dfd1f66","ios":"levelo://app?vid=fa8b5d88-c56b-4501-99c1-1b5a6dfd1f66"},"vehicle_type_id":"4","last_reported":1744729844,"current_range_meters":19200,"station_id":"st_cvj6sg6p6f1abm77japg","pricing_plan_id":"cebpf4jnsgd1na2vs0mg"},{"bike_id":"6bf5a380-400e-4cd6-bc1e-356afac9ee45","system_id":"levelo_inurba_marseille","lat":43.2417,"lon":5.3641,"is_reserved":false,"is_disabled":false,"rental_uris":{"android":"levelo://app?vid=6bf5a380-400e-4cd6-bc1e-356afac9ee45","ios":"levelo://app?vid=6bf5a380-400e-4cd6-bc1e-356afac9ee45"},"vehicle_type_id":"4","last_reported":1744729844,"current_range_meters":19600,"station_id":"cpo36qri1sfpv3e86is0","pricing_plan_id":"cebpf4jnsgd1na2vs0mg"},{"bike_id":"4c0ede51-6b22-44f8-8575-b86906a20779","system_id":"levelo_inurba_marseille","lat":43.21753,"lon":5.34606,"is_reserved":false,"is_disabled":false,"rental_uris":{"android":"levelo://app?vid=4c0ede51-6b22-44f8-8575-b86906a20779","ios":"levelo://app?vid=4c0ede51-6b22-44f8-8575-b86906a20779"},"vehicle_type_id":"4","last_reported":1744729844,"current_range_meters":19600,"station_id":"st_cvj6r9ubvosntc0bgbag","pricing_plan_id":"cebpf4jnsgd1na2vs0mg"},{"bike_id":"e50e132d-87a9-4317-b3ca-8015916295ed","system_id":"levelo_inurba_marseille","lat":43.26492,"lon":5.39544,"is_reserved":false,"is_disabled":false,"rental_uris":{"android":"levelo://app?vid=e50e132d-87a9-4317-b3ca-8015916295ed","ios":"levelo://app?vid=e50e132d-87a9-4317-b3ca-8015916295ed"},"vehicle_type_id":"4","last_reported":1744729844,"current_range_meters":19600,"station_id":"ce4bhi12rcd13ifvqfq0","pricing_plan_id":"cebpf4jnsgd1na2vs0mg"},{"bike_id":"35f5508a-87e9-4fce-9fb5-37ff16cd130a","system_id":"levelo_inurba_marseille","lat":43.29274,"lon":5.36849,"is_reserved":false,"is_disabled":false,"rental_uris":{"android":"levelo://app?vid=35f5508a-87e9-4fce-9fb5-37ff16cd130a","ios":"levelo://app?vid=35f5508a-87e9-4fce-9fb5-37ff16cd130a"},"vehicle_type_id":"4","last_reported":1744729844,"current_range_meters":19600,"station_id":"ce4bhbp2rcd13ifvqesg","pricing_plan_id":"cebpf4jnsgd1na2vs0mg"},{"bike_id":"bd8fdd01-d86e-4d7a-a8cc-e8853d2e52d7","system_id":"levelo_inurba_marseille","lat":43.2942,"lon":5.38625,"is_reserved":false,"is_disabled":false,"rental_uris":{"android":"levelo://app?vid=bd8fdd01-d86e-4d7a-a8cc-e8853d2e52d7","ios":"levelo://app?vid=bd8fdd01-d86e-4d7a-a8cc-e8853d2e52d7"},"vehicle_type_id":"4","last_reported":1744729844,"current_range_meters":20000,"station_id":"ce4bh2h2rcd13ifvqdh0","pricing_plan_id":"cebpf4jnsgd1na2vs0mg"},{"bike_id":"68f60be8-e543-4214-942b-2eba53a81b7c","system_id":"levelo_inurba_marseille","lat":43.28469,"lon":5.38415,"is_reserved":false,"is_disabled":false,"rental_uris":{"android":"levelo://app?vid=68f60be8-e543-4214-942b-2eba53a81b7c","ios":"levelo://app?vid=68f60be8-e543-4214-942b-2eba53a81b7c"},"vehicle_type_id":"4","last_reported":1744729844,"current_range_meters":19600,"station_id":"ce4bh512rcd13ifvqe3g","pricing_plan_id":"cebpf4jnsgd1na2vs0mg"},{"bike_id":"e4251c1e-2437-4a30-ad2b-01c2d003b94b","system_id":"levelo_inurba_marseille","lat":43.29705,"lon":5.36605,"is_reserved":false,"is_disabled":false,"rental_uris":{"android":"levelo://app?vid=e4251c1e-2437-4a30-ad2b-01c2d003b94b","ios":"levelo://app?vid=e4251c1e-2437-4a30-ad2b-01c2d003b94b"},"vehicle_type_id":"4","last_reported":1744729844,"current_range_meters":20000,"station_id":"ce4bgn12rcd13ifvqbt0","pricing_plan_id":"cebpf4jnsgd1na2vs0mg"},{"bike_id":"c0efea73-9eb0-4187-81b2-7c04483ff9a5","system_id":"levelo_inurba_marseille","lat":43.29856,"lon":5.36276,"is_reserved":false,"is_disabled":false,"rental_uris":{"android":"levelo://app?vid=c0efea73-9eb0-4187-81b2-7c04483ff9a5","ios":"levelo://app?vid=c0efea73-9eb0-4187-81b2-7c04483ff9a5"},"vehicle_type_id":"4","last_reported":1744729844,"current_range_meters":20400,"station_id":"ce4bgpp2rcd13ifvqc3g","pricing_plan_id":"cebpf4jnsgd1na2vs0mg"},{"bike_id":"8ad571d1-e899-4453-8952-a2e6ef818703","system_id":"levelo_inurba_marseille","lat":43.30137,"lon":5.38779,"is_reserved":false,"is_disabled":false,"rental_uris":{"android":"levelo://app?vid=8ad571d1-e899-4453-8952-a2e6ef818703","ios":"levelo://app?vid=8ad571d1-e899-4453-8952-a2e6ef818703"},"vehicle_type_id":"4","last_reported":1744729844,"current_range_meters":19600,"station_id":"ce4bghh2rcd13ifvqb60","pricing_plan_id":"cebpf4jnsgd1na2vs0mg"},{"bike_id":"413a59b1-ab6f-4cb8-9d88-c66c05a4c71c","system_id":"levelo_inurba_marseille","lat":43.30374,"lon":5.42482,"is_reserved":false,"is_disabled":false,"rental_uris":{"android":"levelo://app?vid=413a59b1-ab6f-4cb8-9d88-c66c05a4c71c","ios":"levelo://app?vid=413a59b1-ab6f-4cb8-9d88-c66c05a4c71c"},"vehicle_type_id":"4","last_reported":1744729844,"current_range_meters":20000,"station_id":"ce4bhoh2rcd13ifvqh6g","pricing_plan_id":"cebpf4jnsgd1na2vs0mg"},{"bike_id":"018ed220-16ae-4fd6-9906-7b851ec89226","system_id":"levelo_inurba_marseille","lat":43.24072,"lon":5.37765,"is_reserved":false,"is_disabled":false,"rental_uris":{"android":"levelo://app?vid=018ed220-16ae-4fd6-9906-7b851ec89226","ios":"levelo://app?vid=018ed220-16ae-4fd6-9906-7b851ec89226"},"vehicle_type_id":"4","last_reported":1744729844,"current_range_meters":20000,"station_id":"ce4bhnp2rcd13ifvqgvg","pricing_plan_id":"cebpf4jnsgd1na2vs0mg"},{"bike_id":"651aefa8-9f22-4b5f-b7c1-4476e6a2f545","system_id":"levelo_inurba_marseille","lat":43.3044,"lon":5.38886,"is_reserved":false,"is_disabled":false,"rental_uris":{"android":"levelo://app?vid=651aefa8-9f22-4b5f-b7c1-4476e6a2f545","ios":"levelo://app?vid=651aefa8-9f22-4b5f-b7c1-4476e6a2f545"},"vehicle_type_id":"4","last_reported":1744729844,"current_range_meters":20000,"station_id":"ce4bgk12rcd13ifvqbi0","pricing_plan_id":"cebpf4jnsgd1na2vs0mg"},{"bike_id":"d8cde26b-a442-493b-8e95-7d95183da917","system_id":"levelo_inurba_marseille","lat":43.30295,"lon":5.3921,"is_reserved":false,"is_disabled":false,"rental_uris":{"android":"levelo://app?vid=d8cde26b-a442-493b-8e95-7d95183da917","ios":"levelo://app?vid=d8cde26b-a442-493b-8e95-7d95183da917"},"vehicle_type_id":"4","last_reported":1744729844,"current_range_meters":20400,"station_id":"ce4bgkh2rcd13ifvqbk0","pricing_plan_id":"cebpf4jnsgd1na2vs0mg"},{"bike_id":"af426743-42fc-4481-990c-f28bfbc0d041","system_id":"levelo_inurba_marseille","lat":43.28566,"lon":5.39494,"is_reserved":false,"is_disabled":false,"rental_uris":{"android":"levelo://app?vid=af426743-42fc-4481-990c-f28bfbc0d041","ios":"levelo://app?vid=af426743-42fc-4481-990c-f28bfbc0d041"},"vehicle_type_id":"4","last_reported":1744729844,"current_range_meters":20400,"station_id":"ce4bh292rcd13ifvqdg0","pricing_plan_id":"cebpf4jnsgd1na2vs0mg"},{"bike_id":"7ada3698-62b7-4c37-8e25-417fb476bfad","system_id":"levelo_inurba_marseille","lat":43.29862,"lon":5.36183,"is_reserved":false,"is_disabled":false,"rental_uris":{"android":"levelo://app?vid=7ada3698-62b7-4c37-8e25-417fb476bfad","ios":"levelo://app?vid=7ada3698-62b7-4c37-8e25-417fb476bfad"},"vehicle_type_id":"4","last_reported":1744729844,"current_range_meters":20400,"station_id":"ce4bgpp2rcd13ifvqc3g","pricing_plan_id":"cebpf4jnsgd1na2vs0mg"},{"bike_id":"ed97a721-7aee-47b1-b49b-a65ade99fd09","system_id":"levelo_inurba_marseille","lat":43.34323,"lon":5.37798,"is_reserved":false,"is_disabled":false,"rental_uris":{"android":"levelo://app?vid=ed97a721-7aee-47b1-b49b-a65ade99fd09","ios":"levelo://app?vid=ed97a721-7aee-47b1-b49b-a65ade99fd09"},"vehicle_type_id":"4","last_reported":1744729844,"current_range_meters":20400,"station_id":"","pricing_plan_id":"cebpf4jnsgd1na2vs0mg"},{"bike_id":"ff4e2a83-bd8c-4fbf-aaf6-03e351351c5f","system_id":"levelo_inurba_marseille","lat":43.31333,"lon":5.39722,"is_reserved":false,"is_disabled":false,"rental_uris":{"android":"levelo://app?vid=ff4e2a83-bd8c-4fbf-aaf6-03e351351c5f","ios":"levelo://app?vid=ff4e2a83-bd8c-4fbf-aaf6-03e351351c5f"},"vehicle_type_id":"4","last_reported":1744729844,"current_range_meters":20400,"station_id":"ce4bgvp2rcd13ifvqcu0","pricing_plan_id":"cebpf4jnsgd1na2vs0mg"},{"bike_id":"994ebb5a-3ac0-4ada-83d7-b455e690f6dc","system_id":"levelo_inurba_marseille","lat":43.25088,"lon":5.39521,"is_reserved":false,"is_disabled":false,"rental_uris":{"android":"levelo://app?vid=994ebb5a-3ac0-4ada-83d7-b455e690f6dc","ios":"levelo://app?vid=994ebb5a-3ac0-4ada-83d7-b455e690f6dc"},"vehicle_type_id":"4","last_reported":1744729844,"current_range_meters":20400,"station_id":"ce4bhm12rcd13ifvqgkg","pricing_plan_id":"cebpf4jnsgd1na2vs0mg"},{"bike_id":"12b33d90-1c81-4191-bc85-52c89825cd45","system_id":"levelo_inurba_marseille","lat":43.29914,"lon":5.3814,"is_reserved":false,"is_disabled":false,"rental_uris":{"android":"levelo://app?vid=12b33d90-1c81-4191-bc85-52c89825cd45","ios":"levelo://app?vid=12b33d90-1c81-4191-bc85-52c89825cd45"},"vehicle_type_id":"4","last_reported":1744729844,"current_range_meters":20400,"station_id":"ce4bgj12rcd13ifvqbc0","pricing_plan_id":"cebpf4jnsgd1na2vs0mg"},{"bike_id":"b082caf9-1aa9-41e8-8081-4da72e64e8e4","system_id":"levelo_inurba_marseille","lat":43.3093,"lon":5.40146,"is_reserved":false,"is_disabled":true,"rental_uris":{"android":"levelo://app?vid=b082caf9-1aa9-41e8-8081-4da72e64e8e4","ios":"levelo://app?vid=b082caf9-1aa9-41e8-8081-4da72e64e8e4"},"vehicle_type_id":"4","last_reported":1744729844,"current_range_meters":20400,"station_id":"ce4bgvp2rcd13ifvqct0","pricing_plan_id":"cebpf4jnsgd1na2vs0mg"},{"bike_id":"a5171087-922f-4964-93cc-53cb095fa9cd","system_id":"levelo_inurba_marseille","lat":43.29526,"lon":5.39413,"is_reserved":false,"is_disabled":false,"rental_uris":{"android":"levelo://app?vid=a5171087-922f-4964-93cc-53cb095fa9cd","ios":"levelo://app?vid=a5171087-922f-4964-93cc-53cb095fa9cd"},"vehicle_type_id":"4","last_reported":1744729844,"current_range_meters":20400,"station_id":"ce4bh292rcd13ifvqdf0","pricing_plan_id":"cebpf4jnsgd1na2vs0mg"},{"bike_id":"11267844-79e4-4e74-ad18-2e49bfb13529","system_id":"levelo_inurba_marseille","lat":43.3037,"lon":5.42522,"is_reserved":false,"is_disabled":false,"rental_uris":{"android":"levelo://app?vid=11267844-79e4-4e74-ad18-2e49bfb13529","ios":"levelo://app?vid=11267844-79e4-4e74-ad18-2e49bfb13529"},"vehicle_type_id":"4","last_reported":1744729844,"current_range_meters":20400,"station_id":"ce4bhoh2rcd13ifvqh6g","pricing_plan_id":"cebpf4jnsgd1na2vs0mg"},{"bike_id":"310292d5-bdeb-40f7-a94f-9d2b542d5222","system_id":"levelo_inurba_marseille","lat":43.24183,"lon":5.36422,"is_reserved":false,"is_disabled":false,"rental_uris":{"android":"levelo://app?vid=310292d5-bdeb-40f7-a94f-9d2b542d5222","ios":"levelo://app?vid=310292d5-bdeb-40f7-a94f-9d2b542d5222"},"vehicle_type_id":"4","last_reported":1744729844,"current_range_meters":20800,"station_id":"cpo36qri1sfpv3e86is0","pricing_plan_id":"cebpf4jnsgd1na2vs0mg"},{"bike_id":"174c2c9b-2f0a-47fb-998b-9f7260f2f135","system_id":"levelo_inurba_marseille","lat":43.307327,"lon":5.424413,"is_reserved":false,"is_disabled":false,"rental_uris":{"android":"levelo://app?vid=174c2c9b-2f0a-47fb-998b-9f7260f2f135","ios":"levelo://app?vid=174c2c9b-2f0a-47fb-998b-9f7260f2f135"},"vehicle_type_id":"4","last_reported":1744729844,"current_range_meters":20800,"station_id":"st_cvj6ca6bvosntc0bfgr0","pricing_plan_id":"cebpf4jnsgd1na2vs0mg"},{"bike_id":"ad2f042e-0396-4138-96b5-ab8426f6aa16","system_id":"levelo_inurba_marseille","lat":43.26562,"lon":5.39009,"is_reserved":false,"is_disabled":false,"rental_uris":{"android":"levelo://app?vid=ad2f042e-0396-4138-96b5-ab8426f6aa16","ios":"levelo://app?vid=ad2f042e-0396-4138-96b5-ab8426f6aa16"},"vehicle_type_id":"4","last_reported":1744729844,"current_range_meters":20800,"station_id":"ce4bhe12rcd13ifvqf30","pricing_plan_id":"cebpf4jnsgd1na2vs0mg"},{"bike_id":"3cd633cb-d039-4739-9ac2-7db2980e3f3a","system_id":"levelo_inurba_marseille","lat":43.283961,"lon":5.373992,"is_reserved":false,"is_disabled":false,"rental_uris":{"android":"levelo://app?vid=3cd633cb-d039-4739-9ac2-7db2980e3f3a","ios":"levelo://app?vid=3cd633cb-d039-4739-9ac2-7db2980e3f3a"},"vehicle_type_id":"4","last_reported":1744729844,"current_range_meters":20800,"station_id":"ce4bhbp2rcd13ifvqerg","pricing_plan_id":"cebpf4jnsgd1na2vs0mg"},{"bike_id":"60ec4175-4537-435a-95f9-8e40681109c0","system_id":"levelo_inurba_marseille","lat":43.31387,"lon":5.36775,"is_reserved":false,"is_disabled":false,"rental_uris":{"android":"levelo://app?vid=60ec4175-4537-435a-95f9-8e40681109c0","ios":"levelo://app?vid=60ec4175-4537-435a-95f9-8e40681109c0"},"vehicle_type_id":"4","last_reported":1744729844,"current_range_meters":20800,"station_id":"ce4bgr92rcd13ifvqc6g","pricing_plan_id":"cebpf4jnsgd1na2vs0mg"},{"bike_id":"a596da6a-a1a3-43cb-8ba9-994c3b8a8165","system_id":"levelo_inurba_marseille","lat":43.29578,"lon":5.36742,"is_reserved":false,"is_disabled":false,"rental_uris":{"android":"levelo://app?vid=a596da6a-a1a3-43cb-8ba9-994c3b8a8165","ios":"levelo://app?vid=a596da6a-a1a3-43cb-8ba9-994c3b8a8165"},"vehicle_type_id":"4","last_reported":1744729844,"current_range_meters":20800,"station_id":"ce4bgph2rcd13ifvqc2g","pricing_plan_id":"cebpf4jnsgd1na2vs0mg"},{"bike_id":"02d69331-f899-46a7-9906-2d5fa361b76a","system_id":"levelo_inurba_marseille","lat":43.29015,"lon":5.38134,"is_reserved":false,"is_disabled":false,"rental_uris":{"android":"levelo://app?vid=02d69331-f899-46a7-9906-2d5fa361b76a","ios":"levelo://app?vid=02d69331-f899-46a7-9906-2d5fa361b76a"},"vehicle_type_id":"4","last_reported":1744729844,"current_range_meters":20800,"station_id":"ce4bh4p2rcd13ifvqe1g","pricing_plan_id":"cebpf4jnsgd1na2vs0mg"},{"bike_id":"20ac4c4e-9240-4d2f-afa9-fdacb295cbdf","system_id":"levelo_inurba_marseille","lat":43.27914,"lon":5.39578,"is_reserved":false,"is_disabled":false,"rental_uris":{"android":"levelo://app?vid=20ac4c4e-9240-4d2f-afa9-fdacb295cbdf","ios":"levelo://app?vid=20ac4c4e-9240-4d2f-afa9-fdacb295cbdf"},"vehicle_type_id":"4","last_reported":1744729844,"current_range_meters":20800,"station_id":"ce4bhf92rcd13ifvqf40","pricing_plan_id":"cebpf4jnsgd1na2vs0mg"},{"bike_id":"6c103f9f-c959-46ad-a2e8-e44f9660c68e","system_id":"levelo_inurba_marseille","lat":43.21193,"lon":5.35079,"is_reserved":false,"is_disabled":false,"rental_uris":{"android":"levelo://app?vid=6c103f9f-c959-46ad-a2e8-e44f9660c68e","ios":"levelo://app?vid=6c103f9f-c959-46ad-a2e8-e44f9660c68e"},"vehicle_type_id":"4","last_reported":1744729844,"current_range_meters":21600,"station_id":"st_cvj6sg6p6f1abm77japg","pricing_plan_id":"cebpf4jnsgd1na2vs0mg"},{"bike_id":"5252c776-7e13-4139-baa7-80aad76dc518","system_id":"levelo_inurba_marseille","lat":43.240727,"lon":5.377647,"is_reserved":false,"is_disabled":false,"rental_uris":{"android":"levelo://app?vid=5252c776-7e13-4139-baa7-80aad76dc518","ios":"levelo://app?vid=5252c776-7e13-4139-baa7-80aad76dc518"},"vehicle_type_id":"4","last_reported":1744729844,"current_range_meters":21600,"station_id":"ce4bgk12rcd13ifvqbj0","pricing_plan_id":"cebpf4jnsgd1na2vs0mg"},{"bike_id":"a7cf0136-092e-475a-ac29-729c5595cb41","system_id":"levelo_inurba_marseille","lat":43.29696,"lon":5.36631,"is_reserved":false,"is_disabled":false,"rental_uris":{"android":"levelo://app?vid=a7cf0136-092e-475a-ac29-729c5595cb41","ios":"levelo://app?vid=a7cf0136-092e-475a-ac29-729c5595cb41"},"vehicle_type_id":"4","last_reported":1744729844,"current_range_meters":21600,"station_id":"ce4bgn12rcd13ifvqbt0","pricing_plan_id":"cebpf4jnsgd1na2vs0mg"},{"bike_id":"7ffb8c8f-f10d-43b2-90e4-4b09ce4cb348","system_id":"levelo_inurba_marseille","lat":43.28414,"lon":5.37518,"is_reserved":false,"is_disabled":false,"rental_uris":{"android":"levelo://app?vid=7ffb8c8f-f10d-43b2-90e4-4b09ce4cb348","ios":"levelo://app?vid=7ffb8c8f-f10d-43b2-90e4-4b09ce4cb348"},"vehicle_type_id":"4","last_reported":1744729844,"current_range_meters":21600,"station_id":"ce4bh412rcd13ifvqds0","pricing_plan_id":"cebpf4jnsgd1na2vs0mg"},{"bike_id":"14af1b69-05f6-44b4-a961-eed556a8d084","system_id":"levelo_inurba_marseille","lat":43.30643,"lon":5.4008,"is_reserved":false,"is_disabled":false,"rental_uris":{"android":"levelo://app?vid=14af1b69-05f6-44b4-a961-eed556a8d084","ios":"levelo://app?vid=14af1b69-05f6-44b4-a961-eed556a8d084"},"vehicle_type_id":"4","last_reported":1744729844,"current_range_meters":21600,"station_id":"ce4bh112rcd13ifvqda0","pricing_plan_id":"cebpf4jnsgd1na2vs0mg"},{"bike_id":"6a8e9068-2a8d-4c93-8c2d-e30f03079545","system_id":"levelo_inurba_marseille","lat":43.25758,"lon":5.41133,"is_reserved":false,"is_disabled":true,"rental_uris":{"android":"levelo://app?vid=6a8e9068-2a8d-4c93-8c2d-e30f03079545","ios":"levelo://app?vid=6a8e9068-2a8d-4c93-8c2d-e30f03079545"},"vehicle_type_id":"4","last_reported":1744729844,"current_range_meters":21600,"station_id":"","pricing_plan_id":"cebpf4jnsgd1na2vs0mg"},{"bike_id":"d6fee597-3293-47ae-914e-c48760e9f772","system_id":"levelo_inurba_marseille","lat":43.24094,"lon":5.37801,"is_reserved":false,"is_disabled":false,"rental_uris":{"android":"levelo://app?vid=d6fee597-3293-47ae-914e-c48760e9f772","ios":"levelo://app?vid=d6fee597-3293-47ae-914e-c48760e9f772"},"vehicle_type_id":"4","last_reported":1744729844,"current_range_meters":21600,"station_id":"ce4bhnp2rcd13ifvqgvg","pricing_plan_id":"cebpf4jnsgd1na2vs0mg"},{"bike_id":"857293f1-5378-4a00-bb4d-21869d33d155","system_id":"levelo_inurba_marseille","lat":43.27915,"lon":5.39579,"is_reserved":false,"is_disabled":false,"rental_uris":{"android":"levelo://app?vid=857293f1-5378-4a00-bb4d-21869d33d155","ios":"levelo://app?vid=857293f1-5378-4a00-bb4d-21869d33d155"},"vehicle_type_id":"4","last_reported":1744729844,"current_range_meters":22000,"station_id":"ce4bhf92rcd13ifvqf40","pricing_plan_id":"cebpf4jnsgd1na2vs0mg"},{"bike_id":"f3a17301-f4cd-4211-8c74-a7b1a492d742","system_id":"levelo_inurba_marseille","lat":43.28091,"lon":5.40778,"is_reserved":false,"is_disabled":false,"rental_uris":{"android":"levelo://app?vid=f3a17301-f4cd-4211-8c74-a7b1a492d742","ios":"levelo://app?vid=f3a17301-f4cd-4211-8c74-a7b1a492d742"},"vehicle_type_id":"4","last_reported":1744729844,"current_range_meters":22000,"station_id":"","pricing_plan_id":"cebpf4jnsgd1na2vs0mg"},{"bike_id":"6355b147-9022-4ce4-85be-d8d1e480d7f1","system_id":"levelo_inurba_marseille","lat":43.272067,"lon":5.391835,"is_reserved":false,"is_disabled":false,"rental_uris":{"android":"levelo://app?vid=6355b147-9022-4ce4-85be-d8d1e480d7f1","ios":"levelo://app?vid=6355b147-9022-4ce4-85be-d8d1e480d7f1"},"vehicle_type_id":"4","last_reported":1744729844,"current_range_meters":22000,"station_id":"ce4bgvp2rcd13ifvqct0","pricing_plan_id":"cebpf4jnsgd1na2vs0mg"},{"bike_id":"af72ea53-822c-4b6e-a6ee-addb49a09b7c","system_id":"levelo_inurba_marseille","lat":43.25116,"lon":5.40309,"is_reserved":false,"is_disabled":false,"rental_uris":{"android":"levelo://app?vid=af72ea53-822c-4b6e-a6ee-addb49a09b7c","ios":"levelo://app?vid=af72ea53-822c-4b6e-a6ee-addb49a09b7c"},"vehicle_type_id":"4","last_reported":1744729844,"current_range_meters":22000,"station_id":"ce4bhlh2rcd13ifvqgig","pricing_plan_id":"cebpf4jnsgd1na2vs0mg"},{"bike_id":"bf5b1fd2-4b80-40f8-91bb-bbff3b3627cb","system_id":"levelo_inurba_marseille","lat":43.27372,"lon":5.36281,"is_reserved":false,"is_disabled":false,"rental_uris":{"android":"levelo://app?vid=bf5b1fd2-4b80-40f8-91bb-bbff3b3627cb","ios":"levelo://app?vid=bf5b1fd2-4b80-40f8-91bb-bbff3b3627cb"},"vehicle_type_id":"4","last_reported":1744729844,"current_range_meters":22000,"station_id":"ce4bhbh2rcd13ifvqeo0","pricing_plan_id":"cebpf4jnsgd1na2vs0mg"},{"bike_id":"5790e8f0-b8ac-40ee-ace3-2b1dd608ab82","system_id":"levelo_inurba_marseille","lat":43.26806,"lon":5.40269,"is_reserved":false,"is_disabled":false,"rental_uris":{"android":"levelo://app?vid=5790e8f0-b8ac-40ee-ace3-2b1dd608ab82","ios":"levelo://app?vid=5790e8f0-b8ac-40ee-ace3-2b1dd608ab82"},"vehicle_type_id":"4","last_reported":1744729844,"current_range_meters":22000,"station_id":"ce501612rcd8frsf0b60","pricing_plan_id":"cebpf4jnsgd1na2vs0mg"},{"bike_id":"7b354321-fcdb-4b97-805e-157d52bdbdea","system_id":"levelo_inurba_marseille","lat":43.25118,"lon":5.40314,"is_reserved":false,"is_disabled":false,"rental_uris":{"android":"levelo://app?vid=7b354321-fcdb-4b97-805e-157d52bdbdea","ios":"levelo://app?vid=7b354321-fcdb-4b97-805e-157d52bdbdea"},"vehicle_type_id":"4","last_reported":1744729844,"current_range_meters":22000,"station_id":"ce4bhlh2rcd13ifvqgig","pricing_plan_id":"cebpf4jnsgd1na2vs0mg"},{"bike_id":"4362e1fa-4658-4fc3-9e76-87502b2e3949","system_id":"levelo_inurba_marseille","lat":43.298527,"lon":5.362874,"is_reserved":false,"is_disabled":false,"rental_uris":{"android":"levelo://app?vid=4362e1fa-4658-4fc3-9e76-87502b2e3949","ios":"levelo://app?vid=4362e1fa-4658-4fc3-9e76-87502b2e3949"},"vehicle_type_id":"4","last_reported":1744729844,"current_range_meters":21600,"station_id":"ce4bgpp2rcd13ifvqc3g","pricing_plan_id":"cebpf4jnsgd1na2vs0mg"},{"bike_id":"d5a9edc2-1777-44d5-af87-6f5795acbf8c","system_id":"levelo_inurba_marseille","lat":43.2511,"lon":5.40322,"is_reserved":false,"is_disabled":false,"rental_uris":{"android":"levelo://app?vid=d5a9edc2-1777-44d5-af87-6f5795acbf8c","ios":"levelo://app?vid=d5a9edc2-1777-44d5-af87-6f5795acbf8c"},"vehicle_type_id":"4","last_reported":1744729844,"current_range_meters":22000,"station_id":"ce4bhlh2rcd13ifvqgig","pricing_plan_id":"cebpf4jnsgd1na2vs0mg"},{"bike_id":"6ad95b40-b835-4427-a931-b404a1bbc7da","system_id":"levelo_inurba_marseille","lat":43.29581,"lon":5.36739,"is_reserved":false,"is_disabled":false,"rental_uris":{"android":"levelo://app?vid=6ad95b40-b835-4427-a931-b404a1bbc7da","ios":"levelo://app?vid=6ad95b40-b835-4427-a931-b404a1bbc7da"},"vehicle_type_id":"4","last_reported":1744729844,"current_range_meters":22400,"station_id":"ce4bgph2rcd13ifvqc2g","pricing_plan_id":"cebpf4jnsgd1na2vs0mg"},{"bike_id":"456878d5-94a7-4271-8a00-79516c292a1f","system_id":"levelo_inurba_marseille","lat":43.29207,"lon":5.36079,"is_reserved":false,"is_disabled":false,"rental_uris":{"android":"levelo://app?vid=456878d5-94a7-4271-8a00-79516c292a1f","ios":"levelo://app?vid=456878d5-94a7-4271-8a00-79516c292a1f"},