{"last_updated":1720886910,"ttl":30,"version":"2.2","data":{"bikes":[{"bike_id":"250ce43e-a31b-497d-9217-b532f6a53537","system_id":"levelo_inurba_marseille","lat":43.31307,"lon":5.36674,"is_reserved":false,"is_disabled":false,"rental_uris":{"android":"levelo://app?vid=250ce43e-a31b-497d-9217-b532f6a53537","ios":"levelo://app?vid=250ce43e-a31b-497d-9217-b532f6a53537"},"vehicle_type_id":"4","last_reported":1720886910,"current_range_meters":14000,"station_id":"","pricing_plan_id":"cebpf4jnsgd1na2vs0mg"},{"bike_id":"3455f3b7-153f-4d08-b04d-1d7aa7091531","system_id":"levelo_inurba_marseille","lat":43.313391,"lon":5.36706,"is_reserved":false,"is_disabled":false,"rental_uris":{"android":"levelo://app?vid=3455f3b7-153f-4d08-b04d-1d7aa7091531","ios":"levelo://app?vid=3455f3b7-153f-4d08-b04d-1d7aa7091531"},"vehicle_type_id":"4","last_reported":1720886910,"current_range_meters":23200,"station_id":"ce4bgr92rcd13ifvqc6g","pricing_plan_id":"cebpf4jnsgd1na2vs0mg"},{"bike_id":"737b4a9f-eca1-4f4f-9509-bd3ddc92a32a","system_id":"levelo_inurba_marseille","lat":43.312194,"lon":5.368209,"is_reserved":false,"is_disabled":false,"rental_uris":{"android":"levelo://app?vid=737b4a9f-eca1-4f4f-9509-bd3ddc92a32a","ios":"levelo://app?vid=737b4a9f-eca1-4f4f-9509-bd3ddc92a32a"},"vehicle_type_id":"4","last_reported":1720886910,"current_range_meters":10400,"station_id":"ce4bgl92rcd13ifvqbq0","pricing_plan_id":"cebpf4jnsgd1na2vs0mg"},{"bike_id":"9bddb147-d837-45f2-a8d7-8758d53f6ddf","system_id":"levelo_inurba_marseille","lat":43.313391,"lon":5.36706,"is_reserved":false,"is_disabled":false,"rental_uris":{"android":"levelo://app?vid=9bddb147-d837-45f2-a8d7-8758d53f6ddf","ios":"levelo://app?vid=9bddb147-d837-45f2-a8d7-8758d53f6ddf"},"vehicle_type_id":"4","last_reported":1720886910,"current_range_meters":24800,"station_id":"ce4bgr92rcd13ifvqc6g","pricing_plan_id":"cebpf4jnsgd1na2vs0mg"},{"bike_id":"de66c2b9-9bb2-4d31-bd11-443a8e0730c7","system_id":"levelo_inurba_marseille","lat":43.31489,"lon":5.37309,"is_reserved":false,"is_disabled":false,"rental_uris":{"android":"levelo://app?vid=de66c2b9-9bb2-4d31-bd11-443a8e0730c7","ios":"levelo://app?vid=de66c2b9-9bb2-4d31-bd11-443a8e0730c7"},"vehicle_type_id":"4","last_reported":1720886910,"current_range_meters":0,"station_id":"ce4bgt12rcd13ifvqcd0","pricing_plan_id":"cebpf4jnsgd1na2vs0mg"},{"bike_id":"ee34554a-4f90-45ab-81a2-40c1b3f3e0c1","system_id":"levelo_inurba_marseille","lat":43.314811,"lon":5.373103,"is_reserved":false,"is_disabled":false,"rental_uris":{"android":"levelo://app?vid=ee34554a-4f90-45ab-81a2-40c1b3f3e0c1","ios":"levelo://app?vid=ee34554a-4f90-45ab-81a2-40c1b3f3e0c1"},"vehicle_type_id":"4","last_reported":1720886910,"current_range_meters":0,"station_id":"ce4bgt12rcd13ifvqcd0","pricing_plan_id":"cebpf4jnsgd1na2vs0mg"},{"bike_id":"3ec2f6d4-a6e4-4aa4-9407-2730438c4a0f","system_id":"levelo_inurba_marseille","lat":43.30887,"lon":5.37193,"is_reserved":false,"is_disabled":false,"rental_uris":{"android":"levelo://app?vid=3ec2f6d4-a6e4-4aa4-9407-2730438c4a0f","ios":"levelo://app?vid=3ec2f6d4-a6e4-4aa4-9407-2730438c4a0f"},"vehicle_type_id":"4","last_reported":1720886910,"current_range_meters":6000,"station_id":"","pricing_plan_id":"cebpf4jnsgd1na2vs0mg"},{"bike_id":"e649a340-b3dd-4941-988a-34e01b3fd28f","system_id":"levelo_inurba_marseille","lat":43.309034,"lon":5.371783,"is_reserved":false,"is_disabled":false,"rental_uris":{"android":"levelo://app?vid=e649a340-b3dd-4941-988a-34e01b3fd28f","ios":"levelo://app?vid=e649a340-b3dd-4941-988a-34e01b3fd28f"},"vehicle_type_id":"4","last_reported":1720886910,"current_range_meters":10400,"station_id":"ce4bguh2rcd13ifvqckg","pricing_plan_id":"cebpf4jnsgd1na2vs0mg"},{"bike_id":"1a8c350e-612b-4469-ad84-aa31b1336ae3","system_id":"levelo_inurba_marseille","lat":43.30537,"lon":5.367345,"is_reserved":false,"is_disabled":false,"rental_uris":{"android":"levelo://app?vid=1a8c350e-612b-4469-ad84-aa31b1336ae3","ios":"levelo://app?vid=1a8c350e-612b-4469-ad84-aa31b1336ae3"},"vehicle_type_id":"4","last_reported":1720886910,"current_range_meters":0,"station_id":"ce4bgrp2rcd13ifvqc9g","pricing_plan_id":"cebpf4jnsgd1na2vs0mg"},{"bike_id":"ea2ae7b0-20b4-4952-b188-7f96dc661ed1","system_id":"levelo_inurba_marseille","lat":43.305714,"lon":5.365633,"is_reserved":false,"is_disabled":false,"rental_uris":{"android":"levelo://app?vid=ea2ae7b0-20b4-4952-b188-7f96dc661ed1","ios":"levelo://app?vid=ea2ae7b0-20b4-4952-b188-7f96dc661ed1"},"vehicle_type_id":"4","last_reported":1720886910,"current_range_meters":14000,"station_id":"ce4bgs12rcd13ifvqcag","pricing_plan_id":"cebpf4jnsgd1na2vs0mg"},{"bike_id":"ec021d0b-01b7-4ca4-9e78-7c1af6680fd7","system_id":"levelo_inurba_marseille","lat":43.311131,"lon":5.377651,"is_reserved":false,"is_disabled":false,"rental_uris":{"android":"levelo://app?vid=ec021d0b-01b7-4ca4-9e78-7c1af6680fd7","ios":"levelo://app?vid=ec021d0b-01b7-4ca4-9e78-7c1af6680fd7"},"vehicle_type_id":"4","last_reported":1720886910,"current_range_meters":0,"station_id":"ce4bgt92rcd13ifvqcg0","pricing_plan_id":"cebpf4jnsgd1na2vs0mg"},{"bike_id":"33693c0b-6321-4bf2-9f02-a4bba7e34b03","system_id":"levelo_inurba_marseille","lat":43.307945,"lon":5.376487,"is_reserved":false,"is_disabled":false,"rental_uris":{"android":"levelo://app?vid=33693c0b-6321-4bf2-9f02-a4bba7e34b03","ios":"levelo://app?vid=33693c0b-6321-4bf2-9f02-a4bba7e34b03"},"vehicle_type_id":"4","last_reported":1720886910,"current_range_meters":0,"station_id":"ce4bgv92rcd13ifvqcq0","pricing_plan_id":"cebpf4jnsgd1na2vs0mg"},{"bike_id":"67dc44ec-6bcd-492f-baed-83f33a186c87","system_id":"levelo_inurba_marseille","lat":43.31963,"lon":5.37522,"is_reserved":false,"is_disabled":false,"rental_uris":{"android":"levelo://app?vid=67dc44ec-6bcd-492f-baed-83f33a186c87","ios":"levelo://app?vid=67dc44ec-6bcd-492f-baed-83f33a186c87"},"vehicle_type_id":"4","last_reported":1720886910,"current_range_meters":29200,"station_id":"","pricing_plan_id":"cebpf4jnsgd1na2vs0mg"},{"bike_id":"aecd589b-5406-4446-8d74-71c150e4d6aa","system_id":"levelo_inurba_marseille","lat":43.303046,"lon":5.368981,"is_reserved":false,"is_disabled":false,"rental_uris":{"android":"levelo://app?vid=aecd589b-5406-4446-8d74-71c150e4d6aa","ios":"levelo://app?vid=aecd589b-5406-4446-8d74-71c150e4d6aa"},"vehicle_type_id":"4","last_reported":1720886910,"current_range_meters":6400,"station_id":"ce4bgqh2rcd13ifvqc5g","pricing_plan_id":"cebpf4jnsgd1na2vs0mg"},{"bike_id":"227ef103-0f29-4b51-a7b4-969f725d5884","system_id":"levelo_inurba_marseille","lat":43.303046,"lon":5.368981,"is_reserved":false,"is_disabled":false,"rental_uris":{"android":"levelo://app?vid=227ef103-0f29-4b51-a7b4-969f725d5884","ios":"levelo://app?vid=227ef103-0f29-4b51-a7b4-969f725d5884"},"vehicle_type_id":"4","last_reported":1720886910,"current_range_meters":10800,"station_id":"ce4bgqh2rcd13ifvqc5g","pricing_plan_id":"cebpf4jnsgd1na2vs0mg"},{"bike_id":"2b4da476-2e26-40be-9aee-5dbf144bd864","system_id":"levelo_inurba_marseille","lat":43.312397,"lon":5.381643,"is_reserved":false,"is_disabled":false,"rental_uris":{"android":"levelo://app?vid=2b4da476-2e26-40be-9aee-5dbf144bd864","ios":"levelo://app?vid=2b4da476-2e26-40be-9aee-5dbf144bd864"},"vehicle_type_id":"4","last_reported":1720886910,"current_range_meters":11600,"station_id":"","pricing_plan_id":"cebpf4jnsgd1na2vs0mg"},{"bike_id":"4b34a13b-e2f9-4a74-b3b2-5a3bd1900803","system_id":"levelo_inurba_marseille","lat":43.301939,"lon":5.366286,"is_reserved":false,"is_disabled":false,"rental_uris":{"android":"levelo://app?vid=4b34a13b-e2f9-4a74-b3b2-5a3bd1900803","ios":"levelo://app?vid=4b34a13b-e2f9-4a74-b3b2-5a3bd1900803"},"vehicle_type_id":"4","last_reported":1720886910,"current_range_meters":17600,"station_id":"ce4bgrh2rcd13ifvqc8g","pricing_plan_id":"cebpf4jnsgd1na2vs0mg"},{"bike_id":"11854137-fd99-49b6-8dca-d208937181b7","system_id":"levelo_inurba_marseille","lat":43.301939,"lon":5.366286,"is_reserved":false,"is_disabled":false,"rental_uris":{"android":"levelo://app?vid=11854137-fd99-49b6-8dca-d208937181b7","ios":"levelo://app?vid=11854137-fd99-49b6-8dca-d208937181b7"},"vehicle_type_id":"4","last_reported":1720886910,"current_range_meters":1200,"station_id":"ce4bgrh2rcd13ifvqc8g","pricing_plan_id":"cebpf4jnsgd1na2vs0mg"},{"bike_id":"8061e277-7b01-4c2a-95a6-3b16e7a7e8b9","system_id":"levelo_inurba_marseille","lat":43.30144,"lon":5.36952,"is_reserved":false,"is_disabled":false,"rental_uris":{"android":"levelo://app?vid=8061e277-7b01-4c2a-95a6-3b16e7a7e8b9","ios":"levelo://app?vid=8061e277-7b01-4c2a-95a6-3b16e7a7e8b9"},"vehicle_type_id":"4","last_reported":1720886910,"current_range_meters":8000,"station_id":"","pricing_plan_id":"cebpf4jnsgd1na2vs0mg"},{"bike_id":"a47285e7-2616-4dee-abb3-999bd832caf8","system_id":"levelo_inurba_marseille","lat":43.301312,"lon":5.368076,"is_reserved":false,"is_disabled":false,"rental_uris":{"android":"levelo://app?vid=a47285e7-2616-4dee-abb3-999bd832caf8","ios":"levelo://app?vid=a47285e7-2616-4dee-abb3-999bd832caf8"},"vehicle_type_id":"4","last_reported":1720886910,"current_range_meters":12400,"station_id":"","pricing_plan_id":"cebpf4jnsgd1na2vs0mg"},{"bike_id":"b0d5dbd5-a174-42c3-85c0-59d67f9d28b3","system_id":"levelo_inurba_marseille","lat":43.308012,"lon":5.381511,"is_reserved":false,"is_disabled":false,"rental_uris":{"android":"levelo://app?vid=b0d5dbd5-a174-42c3-85c0-59d67f9d28b3","ios":"levelo://app?vid=b0d5dbd5-a174-42c3-85c0-59d67f9d28b3"},"vehicle_type_id":"4","last_reported":1720886910,"current_range_meters":1200,"station_id":"ce4bgt12rcd13ifvqce0","pricing_plan_id":"cebpf4jnsgd1na2vs0mg"},{"bike_id":"04c798ab-5cb0-4623-9f93-8eee4c8c2121","system_id":"levelo_inurba_marseille","lat":43.304606,"lon":5.379026,"is_reserved":false,"is_disabled":false,"rental_uris":{"android":"levelo://app?vid=04c798ab-5cb0-4623-9f93-8eee4c8c2121","ios":"levelo://app?vid=04c798ab-5cb0-4623-9f93-8eee4c8c2121"},"vehicle_type_id":"4","last_reported":1720886910,"current_range_meters":6400,"station_id":"ce4bgup2rcd13ifvqcn0","pricing_plan_id":"cebpf4jnsgd1na2vs0mg"},{"bike_id":"f11867a5-4449-480e-a8ae-ef133cd661a9","system_id":"levelo_inurba_marseille","lat":43.304606,"lon":5.379026,"is_reserved":false,"is_disabled":false,"rental_uris":{"android":"levelo://app?vid=f11867a5-4449-480e-a8ae-ef133cd661a9","ios":"levelo://app?vid=f11867a5-4449-480e-a8ae-ef133cd661a9"},"vehicle_type_id":"4","last_reported":1720886910,"current_range_meters":25200,"station_id":"ce4bgup2rcd13ifvqcn0","pricing_plan_id":"cebpf4jnsgd1na2vs0mg"},{"bike_id":"41fedebf-6f1e-47b8-a82e-454921594856","system_id":"levelo_inurba_marseille","lat":43.304606,"lon":5.379026,"is_reserved":false,"is_disabled":false,"rental_uris":{"android":"levelo://app?vid=41fedebf-6f1e-47b8-a82e-454921594856","ios":"levelo://app?vid=41fedebf-6f1e-47b8-a82e-454921594856"},"vehicle_type_id":"4","last_reported":1720886910,"current_range_meters":27200,"station_id":"ce4bgup2rcd13ifvqcn0","pricing_plan_id":"cebpf4jnsgd1na2vs0mg"},{"bike_id":"fb76a163-7615-4399-ac53-b4b3df9768d5","system_id":"levelo_inurba_marseille","lat":43.324771,"lon":5.36557,"is_reserved":false,"is_disabled":false,"rental_uris":{"android":"levelo://app?vid=fb76a163-7615-4399-ac53-b4b3df9768d5","ios":"levelo://app?vid=fb76a163-7615-4399-ac53-b4b3df9768d5"},"vehicle_type_id":"4","last_reported":1720886910,"current_range_meters":6000,"station_id":"ce4bhs12rcd13ifvqhvg","pricing_plan_id":"cebpf4jnsgd1na2vs0mg"},{"bike_id":"ab609865-35fd-4998-a1c6-c10492446acd","system_id":"levelo_inurba_marseille","lat":43.324771,"lon":5.36557,"is_reserved":false,"is_disabled":false,"rental_uris":{"android":"levelo://app?vid=ab609865-35fd-4998-a1c6-c10492446acd","ios":"levelo://app?vid=ab609865-35fd-4998-a1c6-c10492446acd"},"vehicle_type_id":"4","last_reported":1720886910,"current_range_meters":20000,"station_id":"ce4bhs12rcd13ifvqhvg","pricing_plan_id":"cebpf4jnsgd1na2vs0mg"},{"bike_id":"6bc47b41-820d-4f3b-b2d1-d1183ddfba94","system_id":"levelo_inurba_marseille","lat":43.324771,"lon":5.36557,"is_reserved":false,"is_disabled":false,"rental_uris":{"android":"levelo://app?vid=6bc47b41-820d-4f3b-b2d1-d1183ddfba94","ios":"levelo://app?vid=6bc47b41-820d-4f3b-b2d1-d1183ddfba94"},"vehicle_type_id":"4","last_reported":1720886910,"current_range_meters":2400,"station_id":"ce4bhs12rcd13ifvqhvg","pricing_plan_id":"cebpf4jnsgd1na2vs0mg"},{"bike_id":"445a5680-1b9e-48f1-94de-06deb522d251","system_id":"levelo_inurba_marseille","lat":43.324771,"lon":5.36557,"is_reserved":false,"is_disabled":false,"rental_uris":{"android":"levelo://app?vid=445a5680-1b9e-48f1-94de-06deb522d251","ios":"levelo://app?vid=445a5680-1b9e-48f1-94de-06deb522d251"},"vehicle_type_id":"4","last_reported":1720886910,"current_range_meters":13600,"station_id":"ce4bhs12rcd13ifvqhvg","pricing_plan_id":"cebpf4jnsgd1na2vs0mg"},{"bike_id":"21252025-cf9c-4852-ab78-01d2cbced8b0","system_id":"levelo_inurba_marseille","lat":43.324771,"lon":5.36557,"is_reserved":false,"is_disabled":false,"rental_uris":{"android":"levelo://app?vid=21252025-cf9c-4852-ab78-01d2cbced8b0","ios":"levelo://app?vid=21252025-cf9c-4852-ab78-01d2cbced8b0"},"vehicle_type_id":"4","last_reported":1720886910,"current_range_meters":27200,"station_id":"ce4bhs12rcd13ifvqhvg","pricing_plan_id":"cebpf4jnsgd1na2vs0mg"},{"bike_id":"8cef89db-5f5e-49ee-9ae1-a8cf17c4a2ad","system_id":"levelo_inurba_marseille","lat":43.324771,"lon":5.36557,"is_reserved":false,"is_disabled":false,"rental_uris":{"android":"levelo://app?vid=8cef89db-5f5e-49ee-9ae1-a8cf17c4a2ad","ios":"levelo://app?vid=8cef89db-5f5e-49ee-9ae1-a8cf17c4a2ad"},"vehicle_type_id":"4","last_reported":1720886910,"current_range_meters":0,"station_id":"ce4bhs12rcd13ifvqhvg","pricing_plan_id":"cebpf4jnsgd1na2vs0mg"},{"bike_id":"7e73aa4c-ea94-4d4e-ba2d-81421c5f4cb3","system_id":"levelo_inurba_marseille","lat":43.32479,"lon":5.36567,"is_reserved":false,"is_disabled":false,"rental_uris":{"android":"levelo://app?vid=7e73aa4c-ea94-4d4e-ba2d-81421c5f4cb3","ios":"levelo://app?vid=7e73aa4c-ea94-4d4e-ba2d-81421c5f4cb3"},"vehicle_type_id":"4","last_reported":1720886910,"current_range_meters":22400,"station_id":"","pricing_plan_id":"cebpf4jnsgd1na2vs0mg"},{"bike_id":"d43dd5fd-24a2-458f-aeb8-d07b18c4dd02","system_id":"levelo_inurba_marseille","lat":43.324794,"lon":5.365703,"is_reserved":false,"is_disabled":false,"rental_uris":{"android":"levelo://app?vid=d43dd5fd-24a2-458f-aeb8-d07b18c4dd02","ios":"levelo://app?vid=d43dd5fd-24a2-458f-aeb8-d07b18c4dd02"},"vehicle_type_id":"4","last_reported":1720886910,"current_range_meters":20000,"station_id":"","pricing_plan_id":"cebpf4jnsgd1na2vs0mg"},{"bike_id":"ea9427d3-3844-4ab0-8397-5150365c96a8","system_id":"levelo_inurba_marseille","lat":43.324826,"lon":5.365764,"is_reserved":false,"is_disabled":false,"rental_uris":{"android":"levelo://app?vid=ea9427d3-3844-4ab0-8397-5150365c96a8","ios":"levelo://app?vid=ea9427d3-3844-4ab0-8397-5150365c96a8"},"vehicle_type_id":"4","last_reported":1720886910,"current_range_meters":20000,"station_id":"ce4bhs12rcd13ifvqhvg","pricing_plan_id":"cebpf4jnsgd1na2vs0mg"},{"bike_id":"81086735-f153-4daa-883e-468fe9f98951","system_id":"levelo_inurba_marseille","lat":43.324771,"lon":5.36557,"is_reserved":false,"is_disabled":false,"rental_uris":{"android":"levelo://app?vid=81086735-f153-4daa-883e-468fe9f98951","ios":"levelo://app?vid=81086735-f153-4daa-883e-468fe9f98951"},"vehicle_type_id":"4","last_reported":1720886910,"current_range_meters":3200,"station_id":"ce4bhs12rcd13ifvqhvg","pricing_plan_id":"cebpf4jnsgd1na2vs0mg"},{"bike_id":"01ec4e6e-72dc-4798-b2f0-ed454319c72d","system_id":"levelo_inurba_marseille","lat":43.324861,"lon":5.36578,"is_reserved":false,"is_disabled":false,"rental_uris":{"android":"levelo://app?vid=01ec4e6e-72dc-4798-b2f0-ed454319c72d","ios":"levelo://app?vid=01ec4e6e-72dc-4798-b2f0-ed454319c72d"},"vehicle_type_id":"4","last_reported":1720886910,"current_range_meters":10400,"station_id":"ce4bhs12rcd13ifvqhvg","pricing_plan_id":"cebpf4jnsgd1na2vs0mg"},{"bike_id":"616bbced-b5d2-4bb1-8e61-76647ccd5559","system_id":"levelo_inurba_marseille","lat":43.324771,"lon":5.36557,"is_reserved":false,"is_disabled":false,"rental_uris":{"android":"levelo://app?vid=616bbced-b5d2-4bb1-8e61-76647ccd5559","ios":"levelo://app?vid=616bbced-b5d2-4bb1-8e61-76647ccd5559"},"vehicle_type_id":"4","last_reported":1720886910,"current_range_meters":17200,"station_id":"ce4bhs12rcd13ifvqhvg","pricing_plan_id":"cebpf4jnsgd1na2vs0mg"},{"bike_id":"42cafb02-d481-4bd0-99f3-127995863877","system_id":"levelo_inurba_marseille","lat":43.30145,"lon":5.37419,"is_reserved":false,"is_disabled":false,"rental_uris":{"android":"levelo://app?vid=42cafb02-d481-4bd0-99f3-127995863877","ios":"levelo://app?vid=42cafb02-d481-4bd0-99f3-127995863877"},"vehicle_type_id":"4","last_reported":1720886910,"current_range_meters":3600,"station_id":"ce4bgs92rcd13ifvqcc0","pricing_plan_id":"cebpf4jnsgd1na2vs0mg"},{"bike_id":"2ed9ffac-b45a-4371-bc2b-67270dccba13","system_id":"levelo_inurba_marseille","lat":43.30141,"lon":5.37411,"is_reserved":false,"is_disabled":false,"rental_uris":{"android":"levelo://app?vid=2ed9ffac-b45a-4371-bc2b-67270dccba13","ios":"levelo://app?vid=2ed9ffac-b45a-4371-bc2b-67270dccba13"},"vehicle_type_id":"4","last_reported":1720886910,"current_range_meters":0,"station_id":"ce4bgs92rcd13ifvqcc0","pricing_plan_id":"cebpf4jnsgd1na2vs0mg"},{"bike_id":"a97c2d5e-a455-4b76-8de8-60a583ab8635","system_id":"levelo_inurba_marseille","lat":43.302784,"lon":5.377158,"is_reserved":false,"is_disabled":false,"rental_uris":{"android":"levelo://app?vid=a97c2d5e-a455-4b76-8de8-60a583ab8635","ios":"levelo://app?vid=a97c2d5e-a455-4b76-8de8-60a583ab8635"},"vehicle_type_id":"4","last_reported":1720886910,"current_range_meters":2400,"station_id":"ce4bguh2rcd13ifvqcj0","pricing_plan_id":"cebpf4jnsgd1na2vs0mg"},{"bike_id":"35123e6d-00a6-4302-ac31-1798c30406e5","system_id":"levelo_inurba_marseille","lat":43.29995,"lon":5.37165,"is_reserved":false,"is_disabled":false,"rental_uris":{"android":"levelo://app?vid=35123e6d-00a6-4302-ac31-1798c30406e5","ios":"levelo://app?vid=35123e6d-00a6-4302-ac31-1798c30406e5"},"vehicle_type_id":"4","last_reported":1720886910,"current_range_meters":4400,"station_id":"","pricing_plan_id":"cebpf4jnsgd1na2vs0mg"},{"bike_id":"96a7a331-8d2e-4b19-ac88-bedb62685865","system_id":"levelo_inurba_marseille","lat":43.299724,"lon":5.371829,"is_reserved":false,"is_disabled":false,"rental_uris":{"android":"levelo://app?vid=96a7a331-8d2e-4b19-ac88-bedb62685865","ios":"levelo://app?vid=96a7a331-8d2e-4b19-ac88-bedb62685865"},"vehicle_type_id":"4","last_reported":1720886910,"current_range_meters":0,"station_id":"ce4bgr92rcd13ifvqc7g","pricing_plan_id":"cebpf4jnsgd1na2vs0mg"},{"bike_id":"a1187505-5165-4c46-b21d-f15ff7f67d6f","system_id":"levelo_inurba_marseille","lat":43.298433,"lon":5.362774,"is_reserved":false,"is_disabled":false,"rental_uris":{"android":"levelo://app?vid=a1187505-5165-4c46-b21d-f15ff7f67d6f","ios":"levelo://app?vid=a1187505-5165-4c46-b21d-f15ff7f67d6f"},"vehicle_type_id":"4","last_reported":1720886910,"current_range_meters":8800,"station_id":"ce4bgpp2rcd13ifvqc3g","pricing_plan_id":"cebpf4jnsgd1na2vs0mg"},{"bike_id":"f26379f9-97fe-4b97-bcec-48876909f8d9","system_id":"levelo_inurba_marseille","lat":43.301473,"lon":5.380303,"is_reserved":false,"is_disabled":false,"rental_uris":{"android":"levelo://app?vid=f26379f9-97fe-4b97-bcec-48876909f8d9","ios":"levelo://app?vid=f26379f9-97fe-4b97-bcec-48876909f8d9"},"vehicle_type_id":"4","last_reported":1720886910,"current_range_meters":0,"station_id":"","pricing_plan_id":"cebpf4jnsgd1na2vs0mg"},{"bike_id":"846572da-60ae-4ad1-b0dd-7a111a251e76","system_id":"levelo_inurba_marseille","lat":43.29793,"lon":5.37103,"is_reserved":false,"is_disabled":false,"rental_uris":{"android":"levelo://app?vid=846572da-60ae-4ad1-b0dd-7a111a251e76","ios":"levelo://app?vid=846572da-60ae-4ad1-b0dd-7a111a251e76"},"vehicle_type_id":"4","last_reported":1720886910,"current_range_meters":2800,"station_id":"ce4bgop2rcd13ifvqc1g","pricing_plan_id":"cebpf4jnsgd1na2vs0mg"},{"bike_id":"53226564-62be-4a9b-b10b-fa9777d84c54","system_id":"levelo_inurba_marseille","lat":43.32279,"lon":5.38272,"is_reserved":false,"is_disabled":false,"rental_uris":{"android":"levelo://app?vid=53226564-62be-4a9b-b10b-fa9777d84c54","ios":"levelo://app?vid=53226564-62be-4a9b-b10b-fa9777d84c54"},"vehicle_type_id":"4","last_reported":1720886910,"current_range_meters":8400,"station_id":"ce4bhr12rcd13ifvqhqg","pricing_plan_id":"cebpf4jnsgd1na2vs0mg"},{"bike_id":"729c2a8a-b899-4d67-ac44-060e04cca798","system_id":"levelo_inurba_marseille","lat":43.32291,"lon":5.38265,"is_reserved":false,"is_disabled":false,"rental_uris":{"android":"levelo://app?vid=729c2a8a-b899-4d67-ac44-060e04cca798","ios":"levelo://app?vid=729c2a8a-b899-4d67-ac44-060e04cca798"},"vehicle_type_id":"4","last_reported":1720886910,"current_range_meters":9600,"station_id":"ce4bhr12rcd13ifvqhqg","pricing_plan_id":"cebpf4jnsgd1na2vs0mg"},{"bike_id":"621a1240-dcf9-4073-bd49-41934f332358","system_id":"levelo_inurba_marseille","lat":43.32292,"lon":5.38264,"is_reserved":false,"is_disabled":false,"rental_uris":{"android":"levelo://app?vid=621a1240-dcf9-4073-bd49-41934f332358","ios":"levelo://app?vid=621a1240-dcf9-4073-bd49-41934f332358"},"vehicle_type_id":"4","last_reported":1720886910,"current_range_meters":24800,"station_id":"","pricing_plan_id":"cebpf4jnsgd1na2vs0mg"},{"bike_id":"6dcb485e-9374-4b55-931f-4d51cda6649e","system_id":"levelo_inurba_marseille","lat":43.322872,"lon":5.382756,"is_reserved":false,"is_disabled":false,"rental_uris":{"android":"levelo://app?vid=6dcb485e-9374-4b55-931f-4d51cda6649e","ios":"levelo://app?vid=6dcb485e-9374-4b55-931f-4d51cda6649e"},"vehicle_type_id":"4","last_reported":1720886910,"current_range_meters":29600,"station_id":"ce4bhr12rcd13ifvqhqg","pricing_plan_id":"cebpf4jnsgd1na2vs0mg"},{"bike_id":"6ee5e055-8a08-4d0e-af75-d17a5a928ec3","system_id":"levelo_inurba_marseille","lat":43.322872,"lon":5.382756,"is_reserved":false,"is_disabled":false,"rental_uris":{"android":"levelo://app?vid=6ee5e055-8a08-4d0e-af75-d17a5a928ec3","ios":"levelo://app?vid=6ee5e055-8a08-4d0e-af75-d17a5a928ec3"},"vehicle_type_id":"4","last_reported":1720886910,"current_range_meters":12400,"station_id":"ce4bhr12rcd13ifvqhqg","pricing_plan_id":"cebpf4jnsgd1na2vs0mg"},{"bike_id":"b457a77b-de82-40ba-8ba0-61c1cfaeca7c","system_id":"levelo_inurba_marseille","lat":43.32291,"lon":5.3827,"is_reserved":false,"is_disabled":false,"rental_uris":{"android":"levelo://app?vid=b457a77b-de82-40ba-8ba0-61c1cfaeca7c","ios":"levelo://app?vid=b457a77b-de82-40ba-8ba0-61c1cfaeca7c"},"vehicle_type_id":"4","last_reported":1720886910,"current_range_meters":0,"station_id":"ce4bhr12rcd13ifvqhqg","pricing_plan_id":"cebpf4jnsgd1na2vs0mg"},{"bike_id":"51e8ba81-f0e1-40ab-b620-8e1a5aff3e9f","system_id":"levelo_inurba_marseille","lat":43.32287,"lon":5.38282,"is_reserved":false,"is_disabled":false,"rental_uris":{"android":"levelo://app?vid=51e8ba81-f0e1-40ab-b620-8e1a5aff3e9f","ios":"levelo://app?vid=51e8ba81-f0e1-40ab-b620-8e1a5aff3e9f"},"vehicle_type_id":"4","last_reported":1720886910,"current_range_meters":0,"station_id":"ce4bhr12rcd13ifvqhqg","pricing_plan_id":"cebpf4jnsgd1na2vs0mg"},{"bike_id":"c9e34788-7e6d-4b23-b152-a64782a40e76","system_id":"levelo_inurba_marseille","lat":43.297128,"lon":5.371248,"is_reserved":false,"is_disabled":false,"rental_uris":{"android":"levelo://app?vid=c9e34788-7e6d-4b23-b152-a64782a40e76","ios":"levelo://app?vid=c9e34788-7e6d-4b23-b152-a64782a40e76"},"vehicle_type_id":"4","last_reported":1720886910,"current_range_meters":0,"station_id":"","pricing_plan_id":"cebpf4jnsgd1na2vs0mg"},{"bike_id":"3731f108-d7da-4cc1-bc39-de1c363e7df1","system_id":"levelo_inurba_marseille","lat":43.29689,"lon":5.37292,"is_reserved":false,"is_disabled":false,"rental_uris":{"android":"levelo://app?vid=3731f108-d7da-4cc1-bc39-de1c363e7df1","ios":"levelo://app?vid=3731f108-d7da-4cc1-bc39-de1c363e7df1"},"vehicle_type_id":"4","last_reported":1720886910,"current_range_meters":0,"station_id":"ce4bgk12rcd13ifvqbj0","pricing_plan_id":"cebpf4jnsgd1na2vs0mg"},{"bike_id":"9729b575-b4bf-452e-b96d-c403e7b83105","system_id":"levelo_inurba_marseille","lat":43.2968,"lon":5.37291,"is_reserved":false,"is_disabled":false,"rental_uris":{"android":"levelo://app?vid=9729b575-b4bf-452e-b96d-c403e7b83105","ios":"levelo://app?vid=9729b575-b4bf-452e-b96d-c403e7b83105"},"vehicle_type_id":"4","last_reported":1720886910,"current_range_meters":0,"station_id":"ce4bgk12rcd13ifvqbj0","pricing_plan_id":"cebpf4jnsgd1na2vs0mg"},{"bike_id":"9883f1a2-faf4-4514-bc00-ac64076faa52","system_id":"levelo_inurba_marseille","lat":43.296935,"lon":5.376544,"is_reserved":false,"is_disabled":false,"rental_uris":{"android":"levelo://app?vid=9883f1a2-faf4-4514-bc00-ac64076faa52","ios":"levelo://app?vid=9883f1a2-faf4-4514-bc00-ac64076faa52"},"vehicle_type_id":"4","last_reported":1720886910,"current_range_meters":0,"station_id":"ce4bgkh2rcd13ifvqbl0","pricing_plan_id":"cebpf4jnsgd1na2vs0mg"},{"bike_id":"653c2cda-689f-46bd-947e-a85b722558c4","system_id":"levelo_inurba_marseille","lat":43.309589,"lon":5.390258,"is_reserved":false,"is_disabled":false,"rental_uris":{"android":"levelo://app?vid=653c2cda-689f-46bd-947e-a85b722558c4","ios":"levelo://app?vid=653c2cda-689f-46bd-947e-a85b722558c4"},"vehicle_type_id":"4","last_reported":1720886910,"current_range_meters":0,"station_id":"ce4bgup2rcd13ifvqco0","pricing_plan_id":"cebpf4jnsgd1na2vs0mg"},{"bike_id":"0628f04c-635c-4b37-95d4-ea167efa6674","system_id":"levelo_inurba_marseille","lat":43.29582,"lon":5.37512,"is_reserved":false,"is_disabled":false,"rental_uris":{"android":"levelo://app?vid=0628f04c-635c-4b37-95d4-ea167efa6674","ios":"levelo://app?vid=0628f04c-635c-4b37-95d4-ea167efa6674"},"vehicle_type_id":"4","last_reported":1720886910,"current_range_meters":0,"station_id":"ce4bgh92rcd13ifvqb50","pricing_plan_id":"cebpf4jnsgd1na2vs0mg"},{"bike_id":"7f7a38c7-bf34-4c14-8935-bbbbeb507b40","system_id":"levelo_inurba_marseille","lat":43.295748,"lon":5.37522,"is_reserved":false,"is_disabled":false,"rental_uris":{"android":"levelo://app?vid=7f7a38c7-bf34-4c14-8935-bbbbeb507b40","ios":"levelo://app?vid=7f7a38c7-bf34-4c14-8935-bbbbeb507b40"},"vehicle_type_id":"4","last_reported":1720886910,"current_range_meters":0,"station_id":"ce4bgh92rcd13ifvqb50","pricing_plan_id":"cebpf4jnsgd1na2vs0mg"},{"bike_id":"ba58602d-21b4-4c8b-b7df-b4bf2c326140","system_id":"levelo_inurba_marseille","lat":43.2958,"lon":5.37543,"is_reserved":false,"is_disabled":false,"rental_uris":{"android":"levelo://app?vid=ba58602d-21b4-4c8b-b7df-b4bf2c326140","ios":"levelo://app?vid=ba58602d-21b4-4c8b-b7df-b4bf2c326140"},"vehicle_type_id":"4","last_reported":1720886910,"current_range_meters":11600,"station_id":"","pricing_plan_id":"cebpf4jnsgd1na2vs0mg"},{"bike_id":"38d04b68-a92e-4b14-9503-006960eed01a","system_id":"levelo_inurba_marseille","lat":43.290104,"lon":5.356111,"is_reserved":false,"is_disabled":false,"rental_uris":{"android":"levelo://app?vid=38d04b68-a92e-4b14-9503-006960eed01a","ios":"levelo://app?vid=38d04b68-a92e-4b14-9503-006960eed01a"},"vehicle_type_id":"4","last_reported":1720886910,"current_range_meters":0,"station_id":"ce4bhb92rcd13ifvqen0","pricing_plan_id":"cebpf4jnsgd1na2vs0mg"},{"bike_id":"dd8e98f1-b920-4cbe-9dfb-6003e4ee6248","system_id":"levelo_inurba_marseille","lat":43.29779,"lon":5.380937,"is_reserved":false,"is_disabled":false,"rental_uris":{"android":"levelo://app?vid=dd8e98f1-b920-4cbe-9dfb-6003e4ee6248","ios":"levelo://app?vid=dd8e98f1-b920-4cbe-9dfb-6003e4ee6248"},"vehicle_type_id":"4","last_reported":1720886910,"current_range_meters":3600,"station_id":"","pricing_plan_id":"cebpf4jnsgd1na2vs0mg"},{"bike_id":"f237f190-979a-4c1f-931e-92063a9fa516","system_id":"levelo_inurba_marseille","lat":43.2961,"lon":5.377124,"is_reserved":false,"is_disabled":false,"rental_uris":{"android":"levelo://app?vid=f237f190-979a-4c1f-931e-92063a9fa516","ios":"levelo://app?vid=f237f190-979a-4c1f-931e-92063a9fa516"},"vehicle_type_id":"4","last_reported":1720886910,"current_range_meters":0,"station_id":"ce4bgi92rcd13ifvqb90","pricing_plan_id":"cebpf4jnsgd1na2vs0mg"},{"bike_id":"107f9bc0-dafb-4991-be21-c2e6e3bbd29e","system_id":"levelo_inurba_marseille","lat":43.295279,"lon":5.375048,"is_reserved":false,"is_disabled":false,"rental_uris":{"android":"levelo://app?vid=107f9bc0-dafb-4991-be21-c2e6e3bbd29e","ios":"levelo://app?vid=107f9bc0-dafb-4991-be21-c2e6e3bbd29e"},"vehicle_type_id":"4","last_reported":1720886910,"current_range_meters":0,"station_id":"ce4bgkp2rcd13ifvqbmg","pricing_plan_id":"cebpf4jnsgd1na2vs0mg"},{"bike_id":"675ab49b-6a7c-47c1-86c4-d3d843a4c75c","system_id":"levelo_inurba_marseille","lat":43.29973,"lon":5.3849,"is_reserved":false,"is_disabled":false,"rental_uris":{"android":"levelo://app?vid=675ab49b-6a7c-47c1-86c4-d3d843a4c75c","ios":"levelo://app?vid=675ab49b-6a7c-47c1-86c4-d3d843a4c75c"},"vehicle_type_id":"4","last_reported":1720886910,"current_range_meters":0,"station_id":"ce4bgj92rcd13ifvqbd0","pricing_plan_id":"cebpf4jnsgd1na2vs0mg"},{"bike_id":"a51d0944-c33d-47c8-868f-1a7253e73770","system_id":"levelo_inurba_marseille","lat":43.29553,"lon":5.37723,"is_reserved":false,"is_disabled":false,"rental_uris":{"android":"levelo://app?vid=a51d0944-c33d-47c8-868f-1a7253e73770","ios":"levelo://app?vid=a51d0944-c33d-47c8-868f-1a7253e73770"},"vehicle_type_id":"4","last_reported":1720886910,"current_range_meters":19200,"station_id":"","pricing_plan_id":"cebpf4jnsgd1na2vs0mg"},{"bike_id":"0d63a511-f804-4f68-99f6-cde0cd2a1431","system_id":"levelo_inurba_marseille","lat":43.301396,"lon":5.387812,"is_reserved":false,"is_disabled":false,"rental_uris":{"android":"levelo://app?vid=0d63a511-f804-4f68-99f6-cde0cd2a1431","ios":"levelo://app?vid=0d63a511-f804-4f68-99f6-cde0cd2a1431"},"vehicle_type_id":"4","last_reported":1720886910,"current_range_meters":0,"station_id":"ce4bghh2rcd13ifvqb60","pricing_plan_id":"cebpf4jnsgd1na2vs0mg"},{"bike_id":"6a71a23c-6448-463a-b8f4-0e4083b8ea3d","system_id":"levelo_inurba_marseille","lat":43.29405,"lon":5.37341,"is_reserved":false,"is_disabled":false,"rental_uris":{"android":"levelo://app?vid=6a71a23c-6448-463a-b8f4-0e4083b8ea3d","ios":"levelo://app?vid=6a71a23c-6448-463a-b8f4-0e4083b8ea3d"},"vehicle_type_id":"4","last_reported":1720886910,"current_range_meters":10800,"station_id":"","pricing_plan_id":"cebpf4jnsgd1na2vs0mg"},{"bike_id":"6c4e3585-7407-410c-b3c6-fc2f4df0d647","system_id":"levelo_inurba_marseille","lat":43.32367,"lon":5.388836,"is_reserved":false,"is_disabled":false,"rental_uris":{"android":"levelo://app?vid=6c4e3585-7407-410c-b3c6-fc2f4df0d647","ios":"levelo://app?vid=6c4e3585-7407-410c-b3c6-fc2f4df0d647"},"vehicle_type_id":"4","last_reported":1720886910,"current_range_meters":12400,"station_id":"ce4bhqp2rcd13ifvqhog","pricing_plan_id":"cebpf4jnsgd1na2vs0mg"},{"bike_id":"2734a42b-32f1-4bfd-a5b6-1d1f48ee8048","system_id":"levelo_inurba_marseille","lat":43.29601,"lon":5.381084,"is_reserved":false,"is_disabled":false,"rental_uris":{"android":"levelo://app?vid=2734a42b-32f1-4bfd-a5b6-1d1f48ee8048","ios":"levelo://app?vid=2734a42b-32f1-4bfd-a5b6-1d1f48ee8048"},"vehicle_type_id":"4","last_reported":1720886910,"current_range_meters":4800,"station_id":"ce4bgl12rcd13ifvqbo0","pricing_plan_id":"cebpf4jnsgd1na2vs0mg"},{"bike_id":"7c219c4d-79f8-4db1-bfac-2d5cc31e64da","system_id":"levelo_inurba_marseille","lat":43.292947,"lon":5.370652,"is_reserved":false,"is_disabled":false,"rental_uris":{"android":"levelo://app?vid=7c219c4d-79f8-4db1-bfac-2d5cc31e64da","ios":"levelo://app?vid=7c219c4d-79f8-4db1-bfac-2d5cc31e64da"},"vehicle_type_id":"4","last_reported":1720886910,"current_range_meters":0,"station_id":"","pricing_plan_id":"cebpf4jnsgd1na2vs0mg"},{"bike_id":"437043dc-a7bd-4a3a-81ec-4652862901da","system_id":"levelo_inurba_marseille","lat":43.293259,"lon":5.371586,"is_reserved":false,"is_disabled":false,"rental_uris":{"android":"levelo://app?vid=437043dc-a7bd-4a3a-81ec-4652862901da","ios":"levelo://app?vid=437043dc-a7bd-4a3a-81ec-4652862901da"},"vehicle_type_id":"4","last_reported":1720886910,"current_range_meters":400,"station_id":"ce4bgh92rcd13ifvqb40","pricing_plan_id":"cebpf4jnsgd1na2vs0mg"},{"bike_id":"8e71e2cd-fe8b-460d-94ae-48fbcf3a2a0b","system_id":"levelo_inurba_marseille","lat":43.293009,"lon":5.374584,"is_reserved":false,"is_disabled":false,"rental_uris":{"android":"levelo://app?vid=8e71e2cd-fe8b-460d-94ae-48fbcf3a2a0b","ios":"levelo://app?vid=8e71e2cd-fe8b-460d-94ae-48fbcf3a2a0b"},"vehicle_type_id":"4","last_reported":1720886910,"current_range_meters":2800,"station_id":"ce4bgi12rcd13ifvqb70","pricing_plan_id":"cebpf4jnsgd1na2vs0mg"},{"bike_id":"48f78aa7-f459-473b-bb69-808b53cba4a8","system_id":"levelo_inurba_marseille","lat":43.29303,"lon":5.3745,"is_reserved":false,"is_disabled":false,"rental_uris":{"android":"levelo://app?vid=48f78aa7-f459-473b-bb69-808b53cba4a8","ios":"levelo://app?vid=48f78aa7-f459-473b-bb69-808b53cba4a8"},"vehicle_type_id":"4","last_reported":1720886910,"current_range_meters":0,"station_id":"ce4bgi12rcd13ifvqb70","pricing_plan_id":"cebpf4jnsgd1na2vs0mg"},{"bike_id":"e919cc87-2da9-4332-bf99-228ea68720a1","system_id":"levelo_inurba_marseille","lat":43.29297,"lon":5.37464,"is_reserved":false,"is_disabled":false,"rental_uris":{"android":"levelo://app?vid=e919cc87-2da9-4332-bf99-228ea68720a1","ios":"levelo://app?vid=e919cc87-2da9-4332-bf99-228ea68720a1"},"vehicle_type_id":"4","last_reported":1720886910,"current_range_meters":0,"station_id":"ce4bgi12rcd13ifvqb70","pricing_plan_id":"cebpf4jnsgd1na2vs0mg"},{"bike_id":"03fa0eb9-dc2a-49e1-8b71-d467cfcb8b00","system_id":"levelo_inurba_marseille","lat":43.30085,"lon":5.390856,"is_reserved":false,"is_disabled":false,"rental_uris":{"android":"levelo://app?vid=03fa0eb9-dc2a-49e1-8b71-d467cfcb8b00","ios":"levelo://app?vid=03fa0eb9-dc2a-49e1-8b71-d467cfcb8b00"},"vehicle_type_id":"4","last_reported":1720886910,"current_range_meters":0,"station_id":"ce4bh192rcd13ifvqdb0","pricing_plan_id":"cebpf4jnsgd1na2vs0mg"},{"bike_id":"7a3842de-9f79-4307-a455-2b0b71afafd1","system_id":"levelo_inurba_marseille","lat":43.292311,"lon":5.360731,"is_reserved":false,"is_disabled":false,"rental_uris":{"android":"levelo://app?vid=7a3842de-9f79-4307-a455-2b0b71afafd1","ios":"levelo://app?vid=7a3842de-9f79-4307-a455-2b0b71afafd1"},"vehicle_type_id":"4","last_reported":1720886910,"current_range_meters":1600,"station_id":"ce4bhbh2rcd13ifvqeqg","pricing_plan_id":"cebpf4jnsgd1na2vs0mg"},{"bike_id":"f373594e-704e-470b-8240-d19a0742d998","system_id":"levelo_inurba_marseille","lat":43.291671,"lon":5.371575,"is_reserved":false,"is_disabled":false,"rental_uris":{"android":"levelo://app?vid=f373594e-704e-470b-8240-d19a0742d998","ios":"levelo://app?vid=f373594e-704e-470b-8240-d19a0742d998"},"vehicle_type_id":"4","last_reported":1720886910,"current_range_meters":19200,"station_id":"ce4bha92rcd13ifvqeh0","pricing_plan_id":"cebpf4jnsgd1na2vs0mg"},{"bike_id":"5764e183-3bc6-41bc-8a08-a1a94e6b34fa","system_id":"levelo_inurba_marseille","lat":43.291675,"lon":5.371583,"is_reserved":false,"is_disabled":false,"rental_uris":{"android":"levelo://app?vid=5764e183-3bc6-41bc-8a08-a1a94e6b34fa","ios":"levelo://app?vid=5764e183-3bc6-41bc-8a08-a1a94e6b34fa"},"vehicle_type_id":"4","last_reported":1720886910,"current_range_meters":1600,"station_id":"ce4bha92rcd13ifvqeh0","pricing_plan_id":"cebpf4jnsgd1na2vs0mg"},{"bike_id":"40154a62-7d39-4187-8928-ac86a077776b","system_id":"levelo_inurba_marseille","lat":43.29166,"lon":5.37151,"is_reserved":false,"is_disabled":false,"rental_uris":{"android":"levelo://app?vid=40154a62-7d39-4187-8928-ac86a077776b","ios":"levelo://app?vid=40154a62-7d39-4187-8928-ac86a077776b"},"vehicle_type_id":"4","last_reported":1720886910,"current_range_meters":0,"station_id":"ce4bha92rcd13ifvqeh0","pricing_plan_id":"cebpf4jnsgd1na2vs0mg"},{"bike_id":"3f68910d-786e-4314-95fd-5faf8a57c17b","system_id":"levelo_inurba_marseille","lat":43.29872,"lon":5.38907,"is_reserved":false,"is_disabled":false,"rental_uris":{"android":"levelo://app?vid=3f68910d-786e-4314-95fd-5faf8a57c17b","ios":"levelo://app?vid=3f68910d-786e-4314-95fd-5faf8a57c17b"},"vehicle_type_id":"4","last_reported":1720886910,"current_range_meters":800,"station_id":"ce4bh392rcd13ifvqdl0","pricing_plan_id":"cebpf4jnsgd1na2vs0mg"},{"bike_id":"d44443ac-f352-4d19-b029-3c2e6fe2f7ea","system_id":"levelo_inurba_marseille","lat":43.291604,"lon":5.371498,"is_reserved":false,"is_disabled":false,"rental_uris":{"android":"levelo://app?vid=d44443ac-f352-4d19-b029-3c2e6fe2f7ea","ios":"levelo://app?vid=d44443ac-f352-4d19-b029-3c2e6fe2f7ea"},"vehicle_type_id":"4","last_reported":1720886910,"current_range_meters":0,"station_id":"ce4bha92rcd13ifvqeh0","pricing_plan_id":"cebpf4jnsgd1na2vs0mg"},{"bike_id":"f7e4a3e6-0795-4ae5-9ca8-f5b4d1591fa9","system_id":"levelo_inurba_marseille","lat":43.29157,"lon":5.37153,"is_reserved":false,"is_disabled":false,"rental_uris":{"android":"levelo://app?vid=f7e4a3e6-0795-4ae5-9ca8-f5b4d1591fa9","ios":"levelo://app?vid=f7e4a3e6-0795-4ae5-9ca8-f5b4d1591fa9"},"vehicle_type_id":"4","last_reported":1720886910,"current_range_meters":20400,"station_id":"ce4bha92rcd13ifvqeh0","pricing_plan_id":"cebpf4jnsgd1na2vs0mg"},{"bike_id":"9ea4e5fd-03ca-47bd-a68f-70797a0fafc8","system_id":"levelo_inurba_marseille","lat":43.29191,"lon":5.35811,"is_reserved":false,"is_disabled":false,"rental_uris":{"android":"levelo://app?vid=9ea4e5fd-03ca-47bd-a68f-70797a0fafc8","ios":"levelo://app?vid=9ea4e5fd-03ca-47bd-a68f-70797a0fafc8"},"vehicle_type_id":"4","last_reported":1720886910,"current_range_meters":30800,"station_id":"ce4bhb12rcd13ifvqel0","pricing_plan_id":"cebpf4jnsgd1na2vs0mg"},{"bike_id":"1b66bec0-db53-4985-8fb0-cdf6a69f3c25","system_id":"levelo_inurba_marseille","lat":43.292005,"lon":5.357875,"is_reserved":false,"is_disabled":false,"rental_uris":{"android":"levelo://app?vid=1b66bec0-db53-4985-8fb0-cdf6a69f3c25","ios":"levelo://app?vid=1b66bec0-db53-4985-8fb0-cdf6a69f3c25"},"vehicle_type_id":"4","last_reported":1720886910,"current_range_meters":0,"station_id":"ce4bhb12rcd13ifvqel0","pricing_plan_id":"cebpf4jnsgd1na2vs0mg"},{"bike_id":"683aec8b-73e7-4508-b6b3-b0f20de88ad6","system_id":"levelo_inurba_marseille","lat":43.292005,"lon":5.357875,"is_reserved":false,"is_disabled":false,"rental_uris":{"android":"levelo://app?vid=683aec8b-73e7-4508-b6b3-b0f20de88ad6","ios":"levelo://app?vid=683aec8b-73e7-4508-b6b3-b0f20de88ad6"},"vehicle_type_id":"4","last_reported":1720886910,"current_range_meters":0,"station_id":"ce4bhb12rcd13ifvqel0","pricing_plan_id":"cebpf4jnsgd1na2vs0mg"},{"bike_id":"5bcc559a-0cfa-490d-a620-8546e1caa610","system_id":"levelo_inurba_marseille","lat":43.309038,"lon":5.396546,"is_reserved":false,"is_disabled":false,"rental_uris":{"android":"levelo://app?vid=5bcc559a-0cfa-490d-a620-8546e1caa610","ios":"levelo://app?vid=5bcc559a-0cfa-490d-a620-8546e1caa610"},"vehicle_type_id":"4","last_reported":1720886910,"current_range_meters":6000,"station_id":"ce4bh012rcd13ifvqcv0","pricing_plan_id":"cebpf4jnsgd1na2vs0mg"},{"bike_id":"8fab8a66-b0b5-4226-b00c-0f4d40187655","system_id":"levelo_inurba_marseille","lat":43.309038,"lon":5.396546,"is_reserved":false,"is_disabled":false,"rental_uris":{"android":"levelo://app?vid=8fab8a66-b0b5-4226-b00c-0f4d40187655","ios":"levelo://app?vid=8fab8a66-b0b5-4226-b00c-0f4d40187655"},"vehicle_type_id":"4","last_reported":1720886910,"current_range_meters":4800,"station_id":"ce4bh012rcd13ifvqcv0","pricing_plan_id":"cebpf4jnsgd1na2vs0mg"},{"bike_id":"fe368916-9fb2-410f-8b11-92d54e4662d2","system_id":"levelo_inurba_marseille","lat":43.309038,"lon":5.396546,"is_reserved":false,"is_disabled":false,"rental_uris":{"android":"levelo://app?vid=fe368916-9fb2-410f-8b11-92d54e4662d2","ios":"levelo://app?vid=fe368916-9fb2-410f-8b11-92d54e4662d2"},"vehicle_type_id":"4","last_reported":1720886910,"current_range_meters":3600,"station_id":"ce4bh012rcd13ifvqcv0","pricing_plan_id":"cebpf4jnsgd1na2vs0mg"},{"bike_id":"eba5ba92-3130-42fb-a9a8-63717cc7b203","system_id":"levelo_inurba_marseille","lat":43.294153,"lon":5.386305,"is_reserved":false,"is_disabled":false,"rental_uris":{"android":"levelo://app?vid=eba5ba92-3130-42fb-a9a8-63717cc7b203","ios":"levelo://app?vid=eba5ba92-3130-42fb-a9a8-63717cc7b203"},"vehicle_type_id":"4","last_reported":1720886910,"current_range_meters":7200,"station_id":"ce4bh2h2rcd13ifvqdh0","pricing_plan_id":"cebpf4jnsgd1na2vs0mg"},{"bike_id":"9cd995d2-a414-4a10-b665-d1336f3a68e9","system_id":"levelo_inurba_marseille","lat":43.290327,"lon":5.375711,"is_reserved":false,"is_disabled":false,"rental_uris":{"android":"levelo://app?vid=9cd995d2-a414-4a10-b665-d1336f3a68e9","ios":"levelo://app?vid=9cd995d2-a414-4a10-b665-d1336f3a68e9"},"vehicle_type_id":"4","last_reported":1720886910,"current_range_meters":8400,"station_id":"ce4bh692rcd13ifvqe90","pricing_plan_id":"cebpf4jnsgd1na2vs0mg"},{"bike_id":"8462f9e4-e7ad-47c0-bd2c-c140de2fdb77","system_id":"levelo_inurba_marseille","lat":43.28942,"lon":5.36642,"is_reserved":false,"is_disabled":false,"rental_uris":{"android":"levelo://app?vid=8462f9e4-e7ad-47c0-bd2c-c140de2fdb77","ios":"levelo://app?vid=8462f9e4-e7ad-47c0-bd2c-c140de2fdb77"},"vehicle_type_id":"4","last_reported":1720886910,"current_range_meters":5200,"station_id":"ce4bhap2rcd13ifvqek0","pricing_plan_id":"cebpf4jnsgd1na2vs0mg"},{"bike_id":"22fd5827-769b-4738-af53-9191230f8b25","system_id":"levelo_inurba_marseille","lat":43.28941,"lon":5.36639,"is_reserved":false,"is_disabled":false,"rental_uris":{"android":"levelo://app?vid=22fd5827-769b-4738-af53-9191230f8b25","ios":"levelo://app?vid=22fd5827-769b-4738-af53-9191230f8b25"},"vehicle_type_id":"4","last_reported":1720886910,"current_range_meters":0,"station_id":"ce4bhap2rcd13ifvqek0","pricing_plan_id":"cebpf4jnsgd1na2vs0mg"},{"bike_id":"2c2fab2e-6d98-42eb-8c2e-a08bbc71330d","system_id":"levelo_inurba_marseille","lat":43.28938,"lon":5.3664,"is_reserved":false,"is_disabled":false,"rental_uris":{"android":"levelo://app?vid=2c2fab2e-6d98-42eb-8c2e-a08bbc71330d","ios":"levelo://app?vid=2c2fab2e-6d98-42eb-8c2e-a08bbc71330d"},"vehicle_type_id":"4","last_reported":1720886910,"current_range_meters":19200,"station_id":"ce4bhap2rcd13ifvqek0","pricing_plan_id":"cebpf4jnsgd1na2vs0mg"},{"bike_id":"74993daf-9463-4c9e-a8d6-38344f52671c","system_id":"levelo_inurba_marseille","lat":43.289184,"lon":5.366408,"is_reserved":false,"is_disabled":false,"rental_uris":{"android":"levelo://app?vid=74993daf-9463-4c9e-a8d6-38344f52671c","ios":"levelo://app?vid=74993daf-9463-4c9e-a8d6-38344f52671c"},"vehicle_type_id":"4","last_reported":1720886910,"current_range_meters":1200,"station_id":"ce4bhap2rcd13ifvqek0","pricing_plan_id":"cebpf4jnsgd1na2vs0mg"},{"bike_id":"bac4447f-b73a-4219-a382-a09909f2ad67","system_id":"levelo_inurba_marseille","lat":43.289468,"lon":5.363719,"is_reserved":false,"is_disabled":false,"rental_uris":{"android":"levelo://app?vid=bac4447f-b73a-4219-a382-a09909f2ad67","ios":"levelo://app?vid=bac4447f-b73a-4219-a382-a09909f2ad67"},"vehicle_type_id":"4","last_reported":1720886910,"current_range_meters":26000,"station_id":"ce4bhc92rcd13ifvqetg","pricing_plan_id":"cebpf4jnsgd1na2vs0mg"},{"bike_id":"c4e8752c-176d-4396-8f68-0d71dcaef813","system_id":"levelo_inurba_marseille","lat":43.304274,"lon":5.397513,"is_reserved":false,"is_disabled":false,"rental_uris":{"android":"levelo://app?vid=c4e8752c-176d-4396-8f68-0d71dcaef813","ios":"levelo://app?vid=c4e8752c-176d-4396-8f68-0d71dcaef813"},"vehicle_type_id":"4","last_reported":1720886910,"current_range_meters":0,"station_id":"ce4bh092rcd13ifvqd20","pricing_plan_id":"cebpf4jnsgd1na2vs0mg"},{"bike_id":"168dbe33-9c3f-4142-9a69-54b255baff58","system_id":"levelo_inurba_marseille","lat":43.29267,"lon":5.38439,"is_reserved":false,"is_disabled":false,"rental_uris":{"android":"levelo://app?vid=168dbe33-9c3f-4142-9a69-54b255baff58","ios":"levelo://app?vid=168dbe33-9c3f-4142-9a69-54b255baff58"},"vehicle_type_id":"4","last_reported":1720886910,"current_range_meters":0,"station_id":"ce4bh692rcd13ifvqea0","pricing_plan_id":"cebpf4jnsgd1na2vs0mg"},{"bike_id":"27d7d89f-fd31-4785-9aa6-995c62c89854","system_id":"levelo_inurba_marseille","lat":43.29265,"lon":5.38447,"is_reserved":false,"is_disabled":false,"rental_uris":{"android":"levelo://app?vid=27d7d89f-fd31-4785-9aa6-995c62c89854","ios":"levelo://app?vid=27d7d89f-fd31-4785-9aa6-995c62c89854"},"vehicle_type_id":"4","last_reported":1720886910,"current_range_meters":0,"station_id":"ce4bh692rcd13ifvqea0","pricing_plan_id":"cebpf4jnsgd1na2vs0mg"},{"bike_id":"06959721-8eee-42ba-9f87-e0b198b6a9eb","system_id":"levelo_inurba_marseille","lat":43.29261,"lon":5.38449,"is_reserved":false,"is_disabled":false,"rental_uris":{"android":"levelo://app?vid=06959721-8eee-42ba-9f87-e0b198b6a9eb","ios":"levelo://app?vid=06959721-8eee-42ba-9f87-e0b198b6a9eb"},"vehicle_type_id":"4","last_reported":1720886910,"current_range_meters":0,"station_id":"ce4bh692rcd13ifvqea0","pricing_plan_id":"cebpf4jnsgd1na2vs0mg"},{"bike_id":"d232bee1-99f7-4178-98ff-a3fc9fb27e8e","system_id":"levelo_inurba_marseille","lat":43.292575,"lon":5.38444,"is_reserved":false,"is_disabled":false,"rental_uris":{"android":"levelo://app?vid=d232bee1-99f7-4178-98ff-a3fc9fb27e8e","ios":"levelo://app?vid=d232bee1-99f7-4178-98ff-a3fc9fb27e8e"},"vehicle_type_id":"4","last_reported":1720886910,"current_range_meters":8400,"station_id":"ce4bh692rcd13ifvqea0","pricing_plan_id":"cebpf4jnsgd1na2vs0mg"},{"bike_id":"e0944d02-e555-45cb-84bd-78d085e0c651","system_id":"levelo_inurba_marseille","lat":43.29258,"lon":5.38454,"is_reserved":false,"is_disabled":false,"rental_uris":{"android":"levelo://app?vid=e0944d02-e555-45cb-84bd-78d085e0c651","ios":"levelo://app?vid=e0944d02-e555-45cb-84bd-78d085e0c651"},"vehicle_type_id":"4","last_reported":1720886910,"current_range_meters":0,"station_id":"ce4bh692rcd13ifvqea0","pricing_plan_id":"cebpf4jnsgd1na2vs0mg"},{"bike_id":"766ec152-a72d-41c7-9184-8e6879768cbf","system_id":"levelo_inurba_marseille","lat":43.290104,"lon":5.356111,"is_reserved":false,"is_disabled":false,"rental_uris":{"android":"levelo://app?vid=766ec152-a72d-41c7-9184-8e6879768cbf","ios":"levelo://app?vid=766ec152-a72d-41c7-9184-8e6879768cbf"},"vehicle_type_id":"4","last_reported":1720886910,"current_range_meters":0,"station_id":"ce4bhb92rcd13ifvqen0","pricing_plan_id":"cebpf4jnsgd1na2vs0mg"},{"bike_id":"8c2b87ac-f8b0-4284-ba67-2fb96e729510","system_id":"levelo_inurba_marseille","lat":43.290104,"lon":5.356111,"is_reserved":false,"is_disabled":false,"rental_uris":{"android":"levelo://app?vid=8c2b87ac-f8b0-4284-ba67-2fb96e729510","ios":"levelo://app?vid=8c2b87ac-f8b0-4284-ba67-2fb96e729510"},"vehicle_type_id":"4","last_reported":1720886910,"current_range_meters":26000,"station_id":"ce4bhb92rcd13ifvqen0","pricing_plan_id":"cebpf4jnsgd1na2vs0mg"},{"bike_id":"7205bde9-a6aa-431c-bc0a-3faaee85cad7","system_id":"levelo_inurba_marseille","lat":43.290103,"lon":5.356114,"is_reserved":false,"is_disabled":false,"rental_uris":{"android":"levelo://app?vid=7205bde9-a6aa-431c-bc0a-3faaee85cad7","ios":"levelo://app?vid=7205bde9-a6aa-431c-bc0a-3faaee85cad7"},"vehicle_type_id":"4","last_reported":1720886910,"current_range_meters":15200,"station_id":"ce4bhb92rcd13ifvqen0","pricing_plan_id":"cebpf4jnsgd1na2vs0mg"},{"bike_id":"23a27d64-f09f-4cd8-9fea-e0307c4e1c26","system_id":"levelo_inurba_marseille","lat":43.290104,"lon":5.356111,"is_reserved":false,"is_disabled":false,"rental_uris":{"android":"levelo://app?vid=23a27d64-f09f-4cd8-9fea-e0307c4e1c26","ios":"levelo://app?vid=23a27d64-f09f-4cd8-9fea-e0307c4e1c26"},"vehicle_type_id":"4","last_reported":1720886910,"current_range_meters":0,"station_id":"ce4bhb92rcd13ifvqen0","pricing_plan_id":"cebpf4jnsgd1na2vs0mg"},{"bike_id":"6bcb98f2-f0d3-4953-b6ed-1b85f6c6f9ec","system_id":"levelo_inurba_marseille","lat":43.290995,"lon":5.381361,"is_reserved":false,"is_disabled":false,"rental_uris":{"android":"levelo://app?vid=6bcb98f2-f0d3-4953-b6ed-1b85f6c6f9ec","ios":"levelo://app?vid=6bcb98f2-f0d3-4953-b6ed-1b85f6c6f9ec"},"vehicle_type_id":"4","last_reported":1720886910,"current_range_meters":3600,"station_id":"ce4bh512rcd13ifvqe2g","pricing_plan_id":"cebpf4jnsgd1na2vs0mg"},{"bike_id":"dc2ce7be-90df-4fd0-b022-ab8d63431b4b","system_id":"levelo_inurba_marseille","lat":43.295169,"lon":5.390426,"is_reserved":false,"is_disabled":false,"rental_uris":{"android":"levelo://app?vid=dc2ce7be-90df-4fd0-b022-ab8d63431b4b","ios":"levelo://app?vid=dc2ce7be-90df-4fd0-b022-ab8d63431b4b"},"vehicle_type_id":"4","last_reported":1720886910,"current_range_meters":15600,"station_id":"ce4bh3p2rcd13ifvqdp0","pricing_plan_id":"cebpf4jnsgd1na2vs0mg"},{"bike_id":"c588d20c-3f2b-4aab-bd24-af9d42f98743","system_id":"levelo_inurba_marseille","lat":43.289741,"lon":5.378306,"is_reserved":false,"is_disabled":false,"rental_uris":{"android":"levelo://app?vid=c588d20c-3f2b-4aab-bd24-af9d42f98743","ios":"levelo://app?vid=c588d20c-3f2b-4aab-bd24-af9d42f98743"},"vehicle_type_id":"4","last_reported":1720886910,"current_range_meters":0,"station_id":"ce4bh9p2rcd13ifvqed0","pricing_plan_id":"cebpf4jnsgd1na2vs0mg"},{"bike_id":"70b6b3a3-c986-408c-b23c-c5f7ac9a968d","system_id":"levelo_inurba_marseille","lat":43.295169,"lon":5.390426,"is_reserved":false,"is_disabled":false,"rental_uris":{"android":"levelo://app?vid=70b6b3a3-c986-408c-b23c-c5f7ac9a968d","ios":"levelo://app?vid=70b6b3a3-c986-408c-b23c-c5f7ac9a968d"},"vehicle_type_id":"4","last_reported":1720886910,"current_range_meters":14800,"station_id":"ce4bh3p2rcd13ifvqdp0","pricing_plan_id":"cebpf4jnsgd1na2vs0mg"},{"bike_id":"e57dd5f0-55ef-4216-b3b9-56e9848529da","system_id":"levelo_inurba_marseille","lat":43.33026,"lon":5.39036,"is_reserved":false,"is_disabled":false,"rental_uris":{"android":"levelo://app?vid=e57dd5f0-55ef-4216-b3b9-56e9848529da","ios":"levelo://app?vid=e57dd5f0-55ef-4216-b3b9-56e9848529da"},"vehicle_type_id":"4","last_reported":1720886910,"current_range_meters":0,"station_id":"ce4bhr92rcd13ifvqhrg","pricing_plan_id":"cebpf4jnsgd1na2vs0mg"},{"bike_id":"02796db5-c7d8-48b8-aaf9-e339438fb110","system_id":"levelo_inurba_marseille","lat":43.330442,"lon":5.389148,"is_reserved":false,"is_disabled":false,"rental_uris":{"android":"levelo://app?vid=02796db5-c7d8-48b8-aaf9-e339438fb110","ios":"levelo://app?vid=02796db5-c7d8-48b8-aaf9-e339438fb110"},"vehicle_type_id":"4","last_reported":1720886910,"current_range_meters":14800,"station_id":"ce4bhr92rcd13ifvqhrg","pricing_plan_id":"cebpf4jnsgd1na2vs0mg"},{"bike_id":"ef486408-4102-4e97-85e6-eaf16dc80b7a","system_id":"levelo_inurba_marseille","lat":43.33025,"lon":5.39046,"is_reserved":false,"is_disabled":false,"rental_uris":{"android":"levelo://app?vid=ef486408-4102-4e97-85e6-eaf16dc80b7a","ios":"levelo://app?vid=ef486408-4102-4e97-85e6-eaf16dc80b7a"},"vehicle_type_id":"4","last_reported":1720886910,"current_range_meters":0,"station_id":"ce4bhr92rcd13ifvqhrg","pricing_plan_id":"cebpf4jnsgd1na2vs0mg"},{"bike_id":"cd1bdfa9-b476-4d0a-a7fa-185e2bdc390f","system_id":"levelo_inurba_marseille","lat":43.33025,"lon":5.39047,"is_reserved":false,"is_disabled":false,"rental_uris":{"android":"levelo://app?vid=cd1bdfa9-b476-4d0a-a7fa-185e2bdc390f","ios":"levelo://app?vid=cd1bdfa9-b476-4d0a-a7fa-185e2bdc390f"},"vehicle_type_id":"4","last_reported":1720886910,"current_range_meters":2400,"station_id":"ce4bhr92rcd13ifvqhrg","pricing_plan_id":"cebpf4jnsgd1na2vs0mg"},{"bike_id":"c289b2c9-52a7-4e8a-98b6-b403a8df8ee9","system_id":"levelo_inurba_marseille","lat":43.29023,"lon":5.38138,"is_reserved":false,"is_disabled":false,"rental_uris":{"android":"levelo://app?vid=c289b2c9-52a7-4e8a-98b6-b403a8df8ee9","ios":"levelo://app?vid=c289b2c9-52a7-4e8a-98b6-b403a8df8ee9"},"vehicle_type_id":"4","last_reported":1720886910,"current_range_meters":0,"station_id":"ce4bh4p2rcd13ifvqe1g","pricing_plan_id":"cebpf4jnsgd1na2vs0mg"},{"bike_id":"542940b3-ae80-4fed-ada3-8ed41eb63afe","system_id":"levelo_inurba_marseille","lat":43.289496,"lon":5.354729,"is_reserved":false,"is_disabled":false,"rental_uris":{"android":"levelo://app?vid=542940b3-ae80-4fed-ada3-8ed41eb63afe","ios":"levelo://app?vid=542940b3-ae80-4fed-ada3-8ed41eb63afe"},"vehicle_type_id":"4","last_reported":1720886910,"current_range_meters":14000,"station_id":"","pricing_plan_id":"cebpf4jnsgd1na2vs0mg"},{"bike_id":"12a0032f-8123-4428-ad08-214fec77efce","system_id":"levelo_inurba_marseille","lat":43.28856,"lon":5.358371,"is_reserved":false,"is_disabled":false,"rental_uris":{"android":"levelo://app?vid=12a0032f-8123-4428-ad08-214fec77efce","ios":"levelo://app?vid=12a0032f-8123-4428-ad08-214fec77efce"},"vehicle_type_id":"4","last_reported":1720886910,"current_range_meters":0,"station_id":"ce4bhb12rcd13ifvqem0","pricing_plan_id":"cebpf4jnsgd1na2vs0mg"},{"bike_id":"8e47417a-f1b8-4b4a-b6df-7453ace12752","system_id":"levelo_inurba_marseille","lat":43.28856,"lon":5.358371,"is_reserved":false,"is_disabled":false,"rental_uris":{"android":"levelo://app?vid=8e47417a-f1b8-4b4a-b6df-7453ace12752","ios":"levelo://app?vid=8e47417a-f1b8-4b4a-b6df-7453ace12752"},"vehicle_type_id":"4","last_reported":1720886910,"current_range_meters":1600,"station_id":"ce4bhb12rcd13ifvqem0","pricing_plan_id":"cebpf4jnsgd1na2vs0mg"},{"bike_id":"6f96b557-9087-498c-8c56-a6e3d2a1f189","system_id":"levelo_inurba_marseille","lat":43.28856,"lon":5.358371,"is_reserved":false,"is_disabled":false,"rental_uris":{"android":"levelo://app?vid=6f96b557-9087-498c-8c56-a6e3d2a1f189","ios":"levelo://app?vid=6f96b557-9087-498c-8c56-a6e3d2a1f189"},"vehicle_type_id":"4","last_reported":1720886910,"current_range_meters":5200,"station_id":"ce4bhb12rcd13ifvqem0","pricing_plan_id":"cebpf4jnsgd1na2vs0mg"},{"bike_id":"03fab617-0046-4952-8498-6cacc421bc34","system_id":"levelo_inurba_marseille","lat":43.28856,"lon":5.358371,"is_reserved":false,"is_disabled":false,"rental_uris":{"android":"levelo://app?vid=03fab617-0046-4952-8498-6cacc421bc34","ios":"levelo://app?vid=03fab617-0046-4952-8498-6cacc421bc34"},"vehicle_type_id":"4","last_reported":1720886910,"current_range_meters":15200,"station_id":"ce4bhb12rcd13ifvqem0","pricing_plan_id":"cebpf4jnsgd1na2vs0mg"},{"bike_id":"6e136d8c-2cb8-40e0-b925-fa6bc58ec452","system_id":"levelo_inurba_marseille","lat":43.336675,"lon":5.35582,"is_reserved":false,"is_disabled":false,"rental_uris":{"android":"levelo://app?vid=6e136d8c-2cb8-40e0-b925-fa6bc58ec452","ios":"levelo://app?vid=6e136d8c-2cb8-40e0-b925-fa6bc58ec452"},"vehicle_type_id":"4","last_reported":1720886910,"current_range_meters":11200,"station_id":"","pricing_plan_id":"cebpf4jnsgd1na2vs0mg"},{"bike_id":"219d0d76-9416-4543-8766-4dd8adcfbf6b","system_id":"levelo_inurba_marseille","lat":43.33745,"lon":5.37459,"is_reserved":false,"is_disabled":false,"rental_uris":{"android":"levelo://app?vid=219d0d76-9416-4543-8766-4dd8adcfbf6b","ios":"levelo://app?vid=219d0d76-9416-4543-8766-4dd8adcfbf6b"},"vehicle_type_id":"4","last_reported":1720886910,"current_range_meters":26400,"station_id":"","pricing_plan_id":"cebpf4jnsgd1na2vs0mg"},{"bike_id":"30d12150-2bf9-4613-9393-26c2dc653ac7","system_id":"levelo_inurba_marseille","lat":43.30642,"lon":5.401031,"is_reserved":false,"is_disabled":false,"rental_uris":{"android":"levelo://app?vid=30d12150-2bf9-4613-9393-26c2dc653ac7","ios":"levelo://app?vid=30d12150-2bf9-4613-9393-26c2dc653ac7"},"vehicle_type_id":"4","last_reported":1720886910,"current_range_meters":7200,"station_id":"ce4bh112rcd13ifvqda0","pricing_plan_id":"cebpf4jnsgd1na2vs0mg"},{"bike_id":"7db14a83-5996-4107-aac5-8660c0fb36ae","system_id":"levelo_inurba_marseille","lat":43.337584,"lon":5.374721,"is_reserved":false,"is_disabled":false,"rental_uris":{"android":"levelo://app?vid=7db14a83-5996-4107-aac5-8660c0fb36ae","ios":"levelo://app?vid=7db14a83-5996-4107-aac5-8660c0fb36ae"},"vehicle_type_id":"4","last_reported":1720886910,"current_range_meters":21600,"station_id":"","pricing_plan_id":"cebpf4jnsgd1na2vs0mg"},{"bike_id":"0d58fd1b-f1d1-4fc6-a4e4-51a623e9a871","system_id":"levelo_inurba_marseille","lat":43.33766,"lon":5.37474,"is_reserved":false,"is_disabled":false,"rental_uris":{"android":"levelo://app?vid=0d58fd1b-f1d1-4fc6-a4e4-51a623e9a871","ios":"levelo://app?vid=0d58fd1b-f1d1-4fc6-a4e4-51a623e9a871"},"vehicle_type_id":"4","last_reported":1720886910,"current_range_meters":30800,"station_id":"","pricing_plan_id":"cebpf4jnsgd1na2vs0mg"},{"bike_id":"26f86cb7-ac0c-4cfd-84f1-3a9e9042360d","system_id":"levelo_inurba_marseille","lat":43.337663,"lon":5.37472,"is_reserved":false,"is_disabled":false,"rental_uris":{"android":"levelo://app?vid=26f86cb7-ac0c-4cfd-84f1-3a9e9042360d","ios":"levelo://app?vid=26f86cb7-ac0c-4cfd-84f1-3a9e9042360d"},"vehicle_type_id":"4","last_reported":1720886910,"current_range_meters":19200,"station_id":"","pricing_plan_id":"cebpf4jnsgd1na2vs0mg"},{"bike_id":"a005e922-b721-4196-b009-e1125dd6e3b2","system_id":"levelo_inurba_marseille","lat":43.33766,"lon":5.37476,"is_reserved":false,"is_disabled":false,"rental_uris":{"android":"levelo://app?vid=a005e922-b721-4196-b009-e1125dd6e3b2","ios":"levelo://app?vid=a005e922-b721-4196-b009-e1125dd6e3b2"},"vehicle_type_id":"4","last_reported":1720886910,"current_range_meters":30800,"station_id":"","pricing_plan_id":"cebpf4jnsgd1na2vs0mg"},{"bike_id":"39abbf07-2729-49b9-a62e-e135ca141c9b","system_id":"levelo_inurba_marseille","lat":43.33767,"lon":5.37473,"is_reserved":false,"is_disabled":false,"rental_uris":{"android":"levelo://app?vid=39abbf07-2729-49b9-a62e-e135ca141c9b","ios":"levelo://app?vid=39abbf07-2729-49b9-a62e-e135ca141c9b"},"vehicle_type_id":"4","last_reported":1720886910,"current_range_meters":29600,"station_id":"","pricing_plan_id":"cebpf4jnsgd1na2vs0mg"},{"bike_id":"b490573b-32d3-4854-ab3f-e801cde5a636","system_id":"levelo_inurba_marseille","lat":43.33767,"lon":5.37476,"is_reserved":false,"is_disabled":false,"rental_uris":{"android":"levelo://app?vid=b490573b-32d3-4854-ab3f-e801cde5a636","ios":"levelo://app?vid=b490573b-32d3-4854-ab3f-e801cde5a636"},"vehicle_type_id":"4","last_reported":1720886910,"current_range_meters":18400,"station_id":"","pricing_plan_id":"cebpf4jnsgd1na2vs0mg"},{"bike_id":"80ff1c69-9419-4f4b-9d57-bf214620b8b3","system_id":"levelo_inurba_marseille","lat":43.33768,"lon":5.3747,"is_reserved":false,"is_disabled":false,"rental_uris":{"android":"levelo://app?vid=80ff1c69-9419-4f4b-9d57-bf214620b8b3","ios":"levelo://app?vid=80ff1c69-9419-4f4b-9d57-bf214620b8b3"},"vehicle_type_id":"4","last_reported":1720886910,"current_range_meters":4800,"station_id":"","pricing_plan_id":"cebpf4jnsgd1na2vs0mg"},{"bike_id":"cd48b539-8a8f-4ccd-a8aa-e74e2abaf1f5","system_id":"levelo_inurba_marseille","lat":43.33767,"lon":5.37477,"is_reserved":false,"is_disabled":false,"rental_uris":{"android":"levelo://app?vid=cd48b539-8a8f-4ccd-a8aa-e74e2abaf1f5","ios":"levelo://app?vid=cd48b539-8a8f-4ccd-a8aa-e74e2abaf1f5"},"vehicle_type_id":"4","last_reported":1720886910,"current_range_meters":28400,"station_id":"","pricing_plan_id":"cebpf4jnsgd1na2vs0mg"},{"bike_id":"f8ccaa8e-a40d-4875-9aac-97d8b2a25bab","system_id":"levelo_inurba_marseille","lat":43.33768,"lon":5.37472,"is_reserved":false,"is_disabled":false,"rental_uris":{"android":"levelo://app?vid=f8ccaa8e-a40d-4875-9aac-97d8b2a25bab","ios":"levelo://app?vid=f8ccaa8e-a40d-4875-9aac-97d8b2a25bab"},"vehicle_type_id":"4","last_reported":1720886910,"current_range_meters":17200,"station_id":"","pricing_plan_id":"cebpf4jnsgd1na2vs0mg"},{"bike_id":"2878ccff-3056-4d81-9565-caabd8a9f101","system_id":"levelo_inurba_marseille","lat":43.33768,"lon":5.37473,"is_reserved":false,"is_disabled":false,"rental_uris":{"android":"levelo://app?vid=2878ccff-3056-4d81-9565-caabd8a9f101","ios":"levelo://app?vid=2878ccff-3056-4d81-9565-caabd8a9f101"},"vehicle_type_id":"4","last_reported":1720886910,"current_range_meters":2400,"station_id":"","pricing_plan_id":"cebpf4jnsgd1na2vs0mg"},{"bike_id":"039a10e5-aed9-4f01-a151-04375f715c5b","system_id":"levelo_inurba_marseille","lat":43.33768,"lon":5.37473,"is_reserved":false,"is_disabled":false,"rental_uris":{"android":"levelo://app?vid=039a10e5-aed9-4f01-a151-04375f715c5b","ios":"levelo://app?vid=039a10e5-aed9-4f01-a151-04375f715c5b"},"vehicle_type_id":"4","last_reported":1720886910,"current_range_meters":27600,"station_id":"","pricing_plan_id":"cebpf4jnsgd1na2vs0mg"},{"bike_id":"893b3f9e-8d19-4e89-b4e3-e6aa5e07ff06","system_id":"levelo_inurba_marseille","lat":43.33768,"lon":5.37474,"is_reserved":false,"is_disabled":false,"rental_uris":{"android":"levelo://app?vid=893b3f9e-8d19-4e89-b4e3-e6aa5e07ff06","ios":"levelo://app?vid=893b3f9e-8d19-4e89-b4e3-e6aa5e07ff06"},"vehicle_type_id":"4","last_reported":1720886910,"current_range_meters":30400,"station_id":"","pricing_plan_id":"cebpf4jnsgd1na2vs0mg"},{"bike_id":"ac9d66fe-9bf5-4789-93e4-8c7d750a082c","system_id":"levelo_inurba_marseille","lat":43.33768,"lon":5.37477,"is_reserved":false,"is_disabled":false,"rental_uris":{"android":"levelo://app?vid=ac9d66fe-9bf5-4789-93e4-8c7d750a082c","ios":"levelo://app?vid=ac9d66fe-9bf5-4789-93e4-8c7d750a082c"},"vehicle_type_id":"4","last_reported":1720886910,"current_range_meters":20400,"station_id":"","pricing_plan_id":"cebpf4jnsgd1na2vs0mg"},{"bike_id":"d77e79b4-bbcc-4fb4-abd6-01e5d49b13f4","system_id":"levelo_inurba_marseille","lat":43.33769,"lon":5.37472,"is_reserved":false,"is_disabled":false,"rental_uris":{"android":"levelo://app?vid=d77e79b4-bbcc-4fb4-abd6-01e5d49b13f4","ios":"levelo://app?vid=d77e79b4-bbcc-4fb4-abd6-01e5d49b13f4"},"vehicle_type_id":"4","last_reported":1720886910,"current_range_meters":19200,"station_id":"","pricing_plan_id":"cebpf4jnsgd1na2vs0mg"},{"bike_id":"0dd06392-f63f-44b8-af4f-590dfd121b02","system_id":"levelo_inurba_marseille","lat":43.3377,"lon":5.37466,"is_reserved":false,"is_disabled":false,"rental_uris":{"android":"levelo://app?vid=0dd06392-f63f-44b8-af4f-590dfd121b02","ios":"levelo://app?vid=0dd06392-f63f-44b8-af4f-590dfd121b02"},"vehicle_type_id":"4","last_reported":1720886910,"current_range_meters":10000,"station_id":"","pricing_plan_id":"cebpf4jnsgd1na2vs0mg"},{"bike_id":"9641f142-48bc-49b9-9b2a-634a9b288110","system_id":"levelo_inurba_marseille","lat":43.33769,"lon":5.37476,"is_reserved":false,"is_disabled":false,"rental_uris":{"android":"levelo://app?vid=9641f142-48bc-49b9-9b2a-634a9b288110","ios":"levelo://app?vid=9641f142-48bc-49b9-9b2a-634a9b288110"},"vehicle_type_id":"4","last_reported":1720886910,"current_range_meters":21600,"station_id":"","pricing_plan_id":"cebpf4jnsgd1na2vs0mg"},{"bike_id":"db8d58e3-38a2-4c75-ae4a-e4abfcab3724","system_id":"levelo_inurba_marseille","lat":43.33769,"lon":5.37476,"is_reserved":false,"is_disabled":false,"rental_uris":{"android":"levelo://app?vid=db8d58e3-38a2-4c75-ae4a-e4abfcab3724","ios":"levelo://app?vid=db8d58e3-38a2-4c75-ae4a-e4abfcab3724"},"vehicle_type_id":"4","last_reported":1720886910,"current_range_meters":22400,"station_id":"","pricing_plan_id":"cebpf4jnsgd1na2vs0mg"},{"bike_id":"5aae94a6-c440-4789-857e-46a54718fede","system_id":"levelo_inurba_marseille","lat":43.33771,"lon":5.3747,"is_reserved":false,"is_disabled":false,"rental_uris":{"android":"levelo://app?vid=5aae94a6-c440-4789-857e-46a54718fede","ios":"levelo://app?vid=5aae94a6-c440-4789-857e-46a54718fede"},"vehicle_type_id":"4","last_reported":1720886910,"current_range_meters":30400,"station_id":"","pricing_plan_id":"cebpf4jnsgd1na2vs0mg"},{"bike_id":"e880369d-9e45-4e17-b710-89d03f821f41","system_id":"levelo_inurba_marseille","lat":43.33771,"lon":5.37471,"is_reserved":false,"is_disabled":false,"rental_uris":{"android":"levelo://app?vid=e880369d-9e45-4e17-b710-89d03f821f41","ios":"levelo://app?vid=e880369d-9e45-4e17-b710-89d03f821f41"},"vehicle_type_id":"4","last_reported":1720886910,"current_range_meters":9200,"station_id":"","pricing_plan_id":"cebpf4jnsgd1na2vs0mg"},{"bike_id":"bfbef46d-097c-4ecc-a4cf-db53c94b13b1","system_id":"levelo_inurba_marseille","lat":43.33771,"lon":5.37474,"is_reserved":false,"is_disabled":false,"rental_uris":{"android":"levelo://app?vid=bfbef46d-097c-4ecc-a4cf-db53c94b13b1","ios":"levelo://app?vid=bfbef46d-097c-4ecc-a4cf-db53c94b13b1"},"vehicle_type_id":"4","last_reported":1720886910,"current_range_meters":30800,"station_id":"","pricing_plan_id":"cebpf4jnsgd1na2vs0mg"},{"bike_id":"573b9d78-4adb-4e9e-b480-d279544660f2","system_id":"levelo_inurba_marseille","lat":43.33772,"lon":5.37469,"is_reserved":false,"is_disabled":false,"rental_uris":{"android":"levelo://app?vid=573b9d78-4adb-4e9e-b480-d279544660f2","ios":"levelo://app?vid=573b9d78-4adb-4e9e-b480-d279544660f2"},"vehicle_type_id":"4","last_reported":1720886910,"current_range_meters":12400,"station_id":"","pricing_plan_id":"cebpf4jnsgd1na2vs0mg"},{"bike_id":"7fe8718f-2ce5-43ca-bf2f-4cadfbd7a814","system_id":"levelo_inurba_marseille","lat":43.33772,"lon":5.3747,"is_reserved":false,"is_disabled":false,"rental_uris":{"android":"levelo://app?vid=7fe8718f-2ce5-43ca-bf2f-4cadfbd7a814","ios":"levelo://app?vid=7fe8718f-2ce5-43ca-bf2f-4cadfbd7a814"},"vehicle_type_id":"4","last_reported":1720886910,"current_range_meters":26800,"station_id":"","pricing_plan_id":"cebpf4jnsgd1na2vs0mg"},{"bike_id":"8f381f06-2b48-4b7f-9444-eca237a2fc44","system_id":"levelo_inurba_marseille","lat":43.291994,"lon":5.357886,"is_reserved":false,"is_disabled":false,"rental_uris":{"android":"levelo://app?vid=8f381f06-2b48-4b7f-9444-eca237a2fc44","ios":"levelo://app?vid=8f381f06-2b48-4b7f-9444-eca237a2fc44"},"vehicle_type_id":"4","last_reported":1720886910,"current_range_meters":29600,"station_id":"ce4bhb12rcd13ifvqel0","pricing_plan_id":"cebpf4jnsgd1na2vs0mg"},{"bike_id":"38b57823-eda1-4e58-a521-74a065ade509","system_id":"levelo_inurba_marseille","lat":43.33773,"lon":5.37469,"is_reserved":false,"is_disabled":false,"rental_uris":{"android":"levelo://app?vid=38b57823-eda1-4e58-a521-74a065ade509","ios":"levelo://app?vid=38b57823-eda1-4e58-a521-74a065ade509"},"vehicle_type_id":"4","last_reported":1720886910,"current_range_meters":28000,"station_id":"","pricing_plan_id":"cebpf4jnsgd1na2vs0mg"},{"bike_id":"51544219-3a97-477c-9642-d66a5be4ade3","system_id":"levelo_inurba_marseille","lat":43.33771,"lon":5.37483,"is_reserved":false,"is_disabled":false,"rental_uris":{"android":"levelo://app?vid=51544219-3a97-477c-9642-d66a5be4ade3","ios":"levelo://app?vid=51544219-3a97-477c-9642-d66a5be4ade3"},"vehicle_type_id":"4","last_reported":1720886910,"current_range_meters":25200,"station_id":"","pricing_plan_id":"cebpf4jnsgd1na2vs0mg"},{"bike_id":"0496dc13-34e3-45c2-af9a-f6e2516b223a","system_id":"levelo_inurba_marseille","lat":43.33772,"lon":5.37478,"is_reserved":false,"is_disabled":false,"rental_uris":{"android":"levelo://app?vid=0496dc13-34e3-45c2-af9a-f6e2516b223a","ios":"levelo://app?vid=0496dc13-34e3-45c2-af9a-f6e2516b223a"},"vehicle_type_id":"4","last_reported":1720886910,"current_range_meters":20000,"station_id":"","pricing_plan_id":"cebpf4jnsgd1na2vs0mg"},{"bike_id":"e0930f6e-0056-47a6-888a-3b2b7032222c","system_id":"levelo_inurba_marseille","lat":43.33771,"lon":5.37484,"is_reserved":false,"is_disabled":false,"rental_uris":{"android":"levelo://app?vid=e0930f6e-0056-47a6-888a-3b2b7032222c","ios":"levelo://app?vid=e0930f6e-0056-47a6-888a-3b2b7032222c"},"vehicle_type_id":"4","last_reported":1720886910,"current_range_meters":4800,"station_id":"","pricing_plan_id":"cebpf4jnsgd1na2vs0mg"},{"bike_id":"a73dad2b-dded-4096-b591-d9883c2ff43e","system_id":"levelo_inurba_marseille","lat":43.33774,"lon":5.37466,"is_reserved":false,"is_disabled":false,"rental_uris":{"android":"levelo://app?vid=a73dad2b-dded-4096-b591-d9883c2ff43e","ios":"levelo://app?vid=a73dad2b-dded-4096-b591-d9883c2ff43e"},"vehicle_type_id":"4","last_reported":1720886910,"current_range_meters":2400,"station_id":"","pricing_plan_id":"cebpf4jnsgd1na2vs0mg"},{"bike_id":"45416cd9-028f-41b0-ac5a-269637c45e42","system_id":"levelo_inurba_marseille","lat":43.33772,"lon":5.37479,"is_reserved":false,"is_disabled":false,"rental_uris":{"android":"levelo://app?vid=45416cd9-028f-41b0-ac5a-269637c45e42","ios":"levelo://app?vid=45416cd9-028f-41b0-ac5a-269637c45e42"},"vehicle_type_id":"4","last_reported":1720886910,"current_range_meters":11200,"station_id":"","pricing_plan_id":"cebpf4jnsgd1na2vs0mg"},{"bike_id":"a5b64c84-5508-41ed-bc97-8b733f293107","system_id":"levelo_inurba_marseille","lat":43.33773,"lon":5.37473,"is_reserved":false,"is_disabled":false,"rental_uris":{"android":"levelo://app?vid=a5b64c84-5508-41ed-bc97-8b733f293107","ios":"levelo://app?vid=a5b64c84-5508-41ed-bc97-8b733f293107"},"vehicle_type_id":"4","last_reported":1720886910,"current_range_meters":25600,"station_id":"","pricing_plan_id":"cebpf4jnsgd1na2vs0mg"},{"bike_id":"5cd2f239-467e-4111-8850-d9782eca2470","system_id":"levelo_inurba_marseille","lat":43.33773,"lon":5.37474,"is_reserved":false,"is_disabled":false,"rental_uris":{"android":"levelo://app?vid=5cd2f239-467e-4111-8850-d9782eca2470","ios":"levelo://app?vid=5cd2f239-467e-4111-8850-d9782eca2470"},"vehicle_type_id":"4","last_reported":1720886910,"current_range_meters":30000,"station_id":"","pricing_plan_id":"cebpf4jnsgd1na2vs0mg"},{"bike_id":"a7714764-2436-42f7-8089-0fc1ef357d42","system_id":"levelo_inurba_marseille","lat":43.33773,"lon":5.37475,"is_reserved":false,"is_disabled":false,"rental_uris":{"android":"levelo://app?vid=a7714764-2436-42f7-8089-0fc1ef357d42","ios":"levelo://app?vid=a7714764-2436-42f7-8089-0fc1ef357d42"},"vehicle_type_id":"4","last_reported":1720886910,"current_range_meters":7600,"station_id":"","pricing_plan_id":"cebpf4jnsgd1na2vs0mg"},{"bike_id":"ecca751a-c24b-4d06-bee9-480915f9bb4a","system_id":"levelo_inurba_marseille","lat":43.33773,"lon":5.37476,"is_reserved":false,"is_disabled":false,"rental_uris":{"android":"levelo://app?vid=ecca751a-c24b-4d06-bee9-480915f9bb4a","ios":"levelo://app?vid=ecca751a-c24b-4d06-bee9-480915f9bb4a"},"vehicle_type_id":"4","last_reported":1720886910,"current_range_meters":4800,"station_id":"","pricing_plan_id":"cebpf4jnsgd1na2vs0mg"},{"bike_id":"e951615b-5573-4435-a7b6-8167ff6ade63","system_id":"levelo_inurba_marseille","lat":43.33774,"lon":5.3747,"is_reserved":false,"is_disabled":false,"rental_uris":{"android":"levelo://app?vid=e951615b-5573-4435-a7b6-8167ff6ade63","ios":"levelo://app?vid=e951615b-5573-4435-a7b6-8167ff6ade63"},"vehicle_type_id":"4","last_reported":1720886910,"current_range_meters":18400,"station_id":"","pricing_plan_id":"cebpf4jnsgd1na2vs0mg"},{"bike_id":"a4701b34-a47a-4547-9be9-b5a6ebb6ef0f","system_id":"levelo_inurba_marseille","lat":43.33774,"lon":5.37471,"is_reserved":false,"is_disabled":false,"rental_uris":{"android":"levelo://app?vid=a4701b34-a47a-4547-9be9-b5a6ebb6ef0f","ios":"levelo://app?vid=a4701b34-a47a-4547-9be9-b5a6ebb6ef0f"},"vehicle_type_id":"4","last_reported":1720886910,"current_range_meters":17200,"station_id":"","pricing_plan_id":"cebpf4jnsgd1na2vs0mg"},{"bike_id":"c67a12ba-5c42-41ae-847c-0956c8b147e5","system_id":"levelo_inurba_marseille","lat":43.33774,"lon":5.37471,"is_reserved":false,"is_disabled":false,"rental_uris":{"android":"levelo://app?vid=c67a12ba-5c42-41ae-847c-0956c8b147e5","ios":"levelo://app?vid=c67a12ba-5c42-41ae-847c-0956c8b147e5"},"vehicle_type_id":"4","last_reported":1720886910,"current_range_meters":12400,"station_id":"","pricing_plan_id":"cebpf4jnsgd1na2vs0mg"},{"bike_id":"cf958edf-a973-4ef8-838e-9cc8f1679483","system_id":"levelo_inurba_marseille","lat":43.33774,"lon":5.37474,"is_reserved":false,"is_disabled":false,"rental_uris":{"android":"levelo://app?vid=cf958edf-a973-4ef8-838e-9cc8f1679483","ios":"levelo://app?vid=cf958edf-a973-4ef8-838e-9cc8f1679483"},"vehicle_type_id":"4","last_reported":1720886910,"current_range_meters":19200,"station_id":"","pricing_plan_id":"cebpf4jnsgd1na2vs0mg"},{"bike_id":"0c80325e-daf1-446d-8059-bffa294c7e3e","system_id":"levelo_inurba_marseille","lat":43.33775,"lon":5.37469,"is_reserved":false,"is_disabled":false,"rental_uris":{"android":"levelo://app?vid=0c80325e-daf1-446d-8059-bffa294c7e3e","ios":"levelo://app?vid=0c80325e-daf1-446d-8059-bffa294c7e3e"},"vehicle_type_id":"4","last_reported":1720886910,"current_range_meters":30000,"station_id":"","pricing_plan_id":"cebpf4jnsgd1na2vs0mg"},{"bike_id":"215d24e0-7b63-49a8-aed8-8b8c5a53b355","system_id":"levelo_inurba_marseille","lat":43.33774,"lon":5.37476,"is_reserved":false,"is_disabled":false,"rental_uris":{"android":"levelo://app?vid=215d24e0-7b63-49a8-aed8-8b8c5a53b355","ios":"levelo://app?vid=215d24e0-7b63-49a8-aed8-8b8c5a53b355"},"vehicle_type_id":"4","last_reported":1720886910,"current_range_meters":15200,"station_id":"","pricing_plan_id":"cebpf4jnsgd1na2vs0mg"},{"bike_id":"e6537933-0eb1-41a8-b76a-584d0a7d4a3c","system_id":"levelo_inurba_marseille","lat":43.33775,"lon":5.37471,"is_reserved":false,"is_disabled":false,"rental_uris":{"android":"levelo://app?vid=e6537933-0eb1-41a8-b76a-584d0a7d4a3c","ios":"levelo://app?vid=e6537933-0eb1-41a8-b76a-584d0a7d4a3c"},"vehicle_type_id":"4","last_reported":1720886910,"current_range_meters":29200,"station_id":"","pricing_plan_id":"cebpf4jnsgd1na2vs0mg"},{"bike_id":"2fa411ed-3fa9-4268-b414-c8e45152bf4d","system_id":"levelo_inurba_marseille","lat":43.33776,"lon":5.37472,"is_reserved":false,"is_disabled":false,"rental_uris":{"android":"levelo://app?vid=2fa411ed-3fa9-4268-b414-c8e45152bf4d","ios":"levelo://app?vid=2fa411ed-3fa9-4268-b414-c8e45152bf4d"},"vehicle_type_id":"4","last_reported":1720886910,"current_range_meters":18800,"station_id":"","pricing_plan_id":"cebpf4jnsgd1na2vs0mg"},{"bike_id":"c761b19e-877d-432b-bfa8-ed72a86a6759","system_id":"levelo_inurba_marseille","lat":43.33775,"lon":5.37481,"is_reserved":false,"is_disabled":false,"rental_uris":{"android":"levelo://app?vid=c761b19e-877d-432b-bfa8-ed72a86a6759","ios":"levelo://app?vid=c761b19e-877d-432b-bfa8-ed72a86a6759"},"vehicle_type_id":"4","last_reported":1720886910,"current_range_meters":10400,"station_id":"","pricing_plan_id":"cebpf4jnsgd1na2vs0mg"},{"bike_id":"02f0d131-963f-495a-beaf-edc5a91d6439","system_id":"levelo_inurba_marseille","lat":43.33776,"lon":5.37476,"is_reserved":false,"is_disabled":false,"rental_uris":{"android":"levelo://app?vid=02f0d131-963f-495a-beaf-edc5a91d6439","ios":"levelo://app?vid=02f0d131-963f-495a-beaf-edc5a91d6439"},"vehicle_type_id":"4","last_reported":1720886910,"current_range_meters":29600,"station_id":"","pricing_plan_id":"cebpf4jnsgd1na2vs0mg"},{"bike_id":"9e13c9a5-7387-424a-b4fb-1dc4dce029b5","system_id":"levelo_inurba_marseille","lat":43.33777,"lon":5.37474,"is_reserved":false,"is_disabled":false,"rental_uris":{"android":"levelo://app?vid=9e13c9a5-7387-424a-b4fb-1dc4dce029b5","ios":"levelo://app?vid=9e13c9a5-7387-424a-b4fb-1dc4dce029b5"},"vehicle_type_id":"4","last_reported":1720886910,"current_range_meters":29200,"station_id":"","pricing_plan_id":"cebpf4jnsgd1na2vs0mg"},{"bike_id":"2c101ebf-47bb-4075-9995-419fb34d5f57","system_id":"levelo_inurba_marseille","lat":43.33778,"lon":5.37477,"is_reserved":false,"is_disabled":false,"rental_uris":{"android":"levelo://app?vid=2c101ebf-47bb-4075-9995-419fb34d5f57","ios":"levelo://app?vid=2c101ebf-47bb-4075-9995-419fb34d5f57"},"vehicle_type_id":"4","last_reported":1720886910,"current_range_meters":31200,"station_id":"","pricing_plan_id":"cebpf4jnsgd1na2vs0mg"},{"bike_id":"6005b925-bbeb-43fb-9a4b-148f3086b364","system_id":"levelo_inurba_marseille","lat":43.33777,"lon":5.37484,"is_reserved":false,"is_disabled":false,"rental_uris":{"android":"levelo://app?vid=6005b925-bbeb-43fb-9a4b-148f3086b364","ios":"levelo://app?vid=6005b925-bbeb-43fb-9a4b-148f3086b364"},"vehicle_type_id":"4","last_reported":1720886910,"current_range_meters":10800,"station_id":"","pricing_plan_id":"cebpf4jnsgd1na2vs0mg"},{"bike_id":"0146c428-cfdd-4a76-a91e-317ac3b8cedc","system_id":"levelo_inurba_marseille","lat":43.33781,"lon":5.37473,"is_reserved":false,"is_disabled":false,"rental_uris":{"android":"levelo://app?vid=0146c428-cfdd-4a76-a91e-317ac3b8cedc","ios":"levelo://app?vid=0146c428-cfdd-4a76-a91e-317ac3b8cedc"},"vehicle_type_id":"4","last_reported":1720886910,"current_range_meters":7600,"station_id":"","pricing_plan_id":"cebpf4jnsgd1na2vs0mg"},{"bike_id":"894f4909-2f66-4992-8ff0-470682fbfc14","system_id":"levelo_inurba_marseille","lat":43.28727,"lon":5.36078,"is_reserved":false,"is_disabled":false,"rental_uris":{"android":"levelo://app?vid=894f4909-2f66-4992-8ff0-470682fbfc14","ios":"levelo://app?vid=894f4909-2f66-4992-8ff0-470682fbfc14"},"vehicle_type_id":"4","last_reported":1720886910,"current_range_meters":16800,"station_id":"cki0cbj6b192h4jlfktg","pricing_plan_id":"cebpf4jnsgd1na2vs0mg"},{"bike_id":"36964c2c-c677-432a-9081-c82651308b1f","system_id":"levelo_inurba_marseille","lat":43.28702,"lon":5.37396,"is_reserved":false,"is_disabled":false,"rental_uris":{"android":"levelo://app?vid=36964c2c-c677-432a-9081-c82651308b1f","ios":"levelo://app?vid=36964c2c-c677-432a-9081-c82651308b1f"},"vehicle_type_id":"4","last_reported":1720886910,"current_range_meters":0,"station_id":"ce4bh3p2rcd13ifvqdq0","pricing_plan_id":"cebpf4jnsgd1na2vs0mg"},{"bike_id":"4669fa3c-106e-4bab-b1de-0b71d7b3ba40","system_id":"levelo_inurba_marseille","lat":43.29867,"lon":5.39737,"is_reserved":false,"is_disabled":false,"rental_uris":{"android":"levelo://app?vid=4669fa3c-106e-4bab-b1de-0b71d7b3ba40","ios":"levelo://app?vid=4669fa3c-106e-4bab-b1de-0b71d7b3ba40"},"vehicle_type_id":"4","last_reported":1720886910,"current_range_meters":0,"station_id":"ce4bh0h2rcd13ifvqd50","pricing_plan_id":"cebpf4jnsgd1na2vs0mg"},{"bike_id":"64fbd370-25e4-4b9c-8c6e-1f448678e1a8","system_id":"levelo_inurba_marseille","lat":43.298681,"lon":5.397225,"is_reserved":false,"is_disabled":false,"rental_uris":{"android":"levelo://app?vid=64fbd370-25e4-4b9c-8c6e-1f448678e1a8","ios":"levelo://app?vid=64fbd370-25e4-4b9c-8c6e-1f448678e1a8"},"vehicle_type_id":"4","last_reported":1720886910,"current_range_meters":15200,"station_id":"ce4bh0h2rcd13ifvqd50","pricing_plan_id":"cebpf4jnsgd1na2vs0mg"},{"bike_id":"1e75e563-890b-458e-b2b4-cef5ca595af2","system_id":"levelo_inurba_marseille","lat":43.286593,"lon":5.363346,"is_reserved":false,"is_disabled":false,"rental_uris":{"android":"levelo://app?vid=1e75e563-890b-458e-b2b4-cef5ca595af2","ios":"levelo://app?vid=1e75e563-890b-458e-b2b4-cef5ca595af2"},"vehicle_type_id":"4","last_reported":1720886910,"current_range_meters":6000,"station_id":"ce4bhah2rcd13ifvqej0","pricing_plan_id":"cebpf4jnsgd1na2vs0mg"},{"bike_id":"b411494c-6112-4d6e-9cca-0d50acdbce81","system_id":"levelo_inurba_marseille","lat":43.290336,"lon":5.386425,"is_reserved":false,"is_disabled":false,"rental_uris":{"android":"levelo://app?vid=b411494c-6112-4d6e-9cca-0d50acdbce81","ios":"levelo://app?vid=b411494c-6112-4d6e-9cca-0d50acdbce81"},"vehicle_type_id":"4","last_reported":1720886910,"current_range_meters":6400,"station_id":"ce4bh4p2rcd13ifvqe0g","pricing_plan_id":"cebpf4jnsgd1na2vs0mg"},{"bike_id":"fefbabb6-4b55-4d54-9a2e-c6c57322e492","system_id":"levelo_inurba_marseille","lat":43.290336,"lon":5.386425,"is_reserved":false,"is_disabled":false,"rental_uris":{"android":"levelo://app?vid=fefbabb6-4b55-4d54-9a2e-c6c57322e492","ios":"levelo://app?vid=fefbabb6-4b55-4d54-9a2e-c6c57322e492"},"vehicle_type_id":"4","last_reported":1720886910,"current_range_meters":17600,"station_id":"ce4bh4p2rcd13ifvqe0g","pricing_plan_id":"cebpf4jnsgd1na2vs0mg"},{"bike_id":"ea6cf3ab-8846-4965-8eda-48362a69e28d","system_id":"levelo_inurba_marseille","lat":43.290336,"lon":5.386425,"is_reserved":false,"is_disabled":false,"rental_uris":{"android":"levelo://app?vid=ea6cf3ab-8846-4965-8eda-48362a69e28d","ios":"levelo://app?vid=ea6cf3ab-8846-4965-8eda-48362a69e28d"},"vehicle_type_id":"4","last_reported":1720886910,"current_range_meters":800,"station_id":"ce4bh4p2rcd13ifvqe0g","pricing_plan_id":"cebpf4jnsgd1na2vs0mg"},{"bike_id":"80c16bc1-4163-4ab1-9271-46d1f566e3cb","system_id":"levelo_inurba_marseille","lat":43.302759,"lon":5.400793,"is_reserved":false,"is_disabled":false,"rental_uris":{"android":"levelo://app?vid=80c16bc1-4163-4ab1-9271-46d1f566e3cb","ios":"levelo://app?vid=80c16bc1-4163-4ab1-9271-46d1f566e3cb"},"vehicle_type_id":"4","last_reported":1720886910,"current_range_meters":800,"station_id":"ce4bgvh2rcd13ifvqcs0","pricing_plan_id":"cebpf4jnsgd1na2vs0mg"},{"bike_id":"0519f9be-300a-497d-9d6e-9bd1976ecd6e","system_id":"levelo_inurba_marseille","lat":43.290336,"lon":5.386425,"is_reserved":false,"is_disabled":false,"rental_uris":{"android":"levelo://app?vid=0519f9be-300a-497d-9d6e-9bd1976ecd6e","ios":"levelo://app?vid=0519f9be-300a-497d-9d6e-9bd1976ecd6e"},"vehicle_type_id":"4","last_reported":1720886910,"current_range_meters":11600,"station_id":"ce4bh4p2rcd13ifvqe0g","pricing_plan_id":"cebpf4jnsgd1na2vs0mg"},{"bike_id":"661cd82c-37e7-41b4-ba29-5c8f7e564746","system_id":"levelo_inurba_marseille","lat":43.286039,"lon":5.370679,"is_reserved":false,"is_disabled":false,"rental_uris":{"android":"levelo://app?vid=661cd82c-37e7-41b4-ba29-5c8f7e564746","ios":"levelo://app?vid=661cd82c-37e7-41b4-ba29-5c8f7e564746"},"vehicle_type_id":"4","last_reported":1720886910,"current_range_meters":12400,"station_id":"ce4bht12rcd13ifvqi60","pricing_plan_id":"cebpf4jnsgd1na2vs0mg"},{"bike_id":"cea3baac-e68e-45d6-a748-905142db83e9","system_id":"levelo_inurba_marseille","lat":43.28607,"lon":5.37066,"is_reserved":false,"is_disabled":false,"rental_uris":{"android":"levelo://app?vid=cea3baac-e68e-45d6-a748-905142db83e9","ios":"levelo://app?vid=cea3baac-e68e-45d6-a748-905142db83e9"},"vehicle_type_id":"4","last_reported":1720886910,"current_range_meters":18400,"station_id":"ce4bht12rcd13ifvqi60","pricing_plan_id":"cebpf4jnsgd1na2vs0mg"},{"bike_id":"2fb1ddd8-84fe-4812-8353-94811c2a9975","system_id":"levelo_inurba_marseille","lat":43.29199,"lon":5.39314,"is_reserved":false,"is_disabled":false,"rental_uris":{"android":"levelo://app?vid=2fb1ddd8-84fe-4812-8353-94811c2a9975","ios":"levelo://app?vid=2fb1ddd8-84fe-4812-8353-94811c2a9975"},"vehicle_type_id":"4","last_reported":1720886910,"current_range_meters":0,"station_id":"ce4bh192rcd13ifvqdd0","pricing_plan_id":"cebpf4jnsgd1na2vs0mg"},{"bike_id":"3b3a647e-8cb9-497f-8358-cbc9ddf08e86","system_id":"levelo_inurba_marseille","lat":43.28457,"lon":5.359,"is_reserved":false,"is_disabled":false,"rental_uris":{"android":"levelo://app?vid=3b3a647e-8cb9-497f-8358-cbc9ddf08e86","ios":"levelo://app?vid=3b3a647e-8cb9-497f-8358-cbc9ddf08e86"},"vehicle_type_id":"4","last_reported":1720886910,"current_range_meters":15600,"station_id":"ce4bhah2rcd13ifvqei0","pricing_plan_id":"cebpf4jnsgd1na2vs0mg"},{"bike_id":"baeace6e-5fa7-4dc1-a827-4d93b89f5e41","system_id":"levelo_inurba_marseille","lat":43.28457,"lon":5.35894,"is_reserved":false,"is_disabled":false,"rental_uris":{"android":"levelo://app?vid=baeace6e-5fa7-4dc1-a827-4d93b89f5e41","ios":"levelo://app?vid=baeace6e-5fa7-4dc1-a827-4d93b89f5e41"},"vehicle_type_id":"4","last_reported":1720886910,"current_range_meters":21600,"station_id":"ce4bhah2rcd13ifvqei0","pricing_plan_id":"cebpf4jnsgd1na2vs0mg"},{"bike_id":"4e538273-3a35-4a85-be4e-83821eb08805","system_id":"levelo_inurba_marseille","lat":43.28458,"lon":5.35882,"is_reserved":false,"is_disabled":false,"rental_uris":{"android":"levelo://app?vid=4e538273-3a35-4a85-be4e-83821eb08805","ios":"levelo://app?vid=4e538273-3a35-4a85-be4e-83821eb08805"},"vehicle_type_id":"4","last_reported":1720886910,"current_range_meters":19200,"station_id":"ce4bhah2rcd13ifvqei0","pricing_plan_id":"cebpf4jnsgd1na2vs0mg"},{"bike_id":"8970bc17-fc95-4fc1-8bba-fabdc86189ca","system_id":"levelo_inurba_marseille","lat":43.284538,"lon":5.358657,"is_reserved":false,"is_disabled":false,"rental_uris":{"android":"levelo://app?vid=8970bc17-fc95-4fc1-8bba-fabdc86189ca","ios":"levelo://app?vid=8970bc17-fc95-4fc1-8bba-fabdc86189ca"},"vehicle_type_id":"4","last_reported":1720886910,"current_range_meters":18800,"station_id":"ce4bhah2rcd13ifvqei0","pricing_plan_id":"cebpf4jnsgd1na2vs0mg"},{"bike_id":"a27e0692-d7b5-4f5e-946b-d57405607d8b","system_id":"levelo_inurba_marseille","lat":43.28455,"lon":5.35888,"is_reserved":false,"is_disabled":false,"rental_uris":{"android":"levelo://app?vid=a27e0692-d7b5-4f5e-946b-d57405607d8b","ios":"levelo://app?vid=a27e0692-d7b5-4f5e-946b-d57405607d8b"},"vehicle_type_id":"4","last_reported":1720886910,"current_range_meters":15600,"station_id":"ce4bhah2rcd13ifvqei0","pricing_plan_id":"cebpf4jnsgd1na2vs0mg"},{"bike_id":"52771a66-3788-4168-bff4-09eb71ba7ff6","system_id":"levelo_inurba_marseille","lat":43.28447,"lon":5.35898,"is_reserved":false,"is_disabled":false,"rental_uris":{"android":"levelo://app?vid=52771a66-3788-4168-bff4-09eb71ba7ff6","ios":"levelo://app?vid=52771a66-3788-4168-bff4-09eb71ba7ff6"},"vehicle_type_id":"4","last_reported":1720886910,"current_range_meters":8400,"station_id":"ce4bhah2rcd13ifvqei0","pricing_plan_id":"cebpf4jnsgd1na2vs0mg"},{"bike_id":"e227dbb3-1237-449d-91c0-223925094d5e","system_id":"levelo_inurba_marseille","lat":43.28624,"lon":5.35104,"is_reserved":false,"is_disabled":false,"rental_uris":{"android":"levelo://app?vid=e227dbb3-1237-449d-91c0-223925094d5e","ios":"levelo://app?vid=e227dbb3-1237-449d-91c0-223925094d5e"},"vehicle_type_id":"4","last_reported":1720886910,"current_range_meters":28000,"station_id":"ce4bhch2rcd13ifvqeug","pricing_plan_id":"cebpf4jnsgd1na2vs0mg"},{"bike_id":"7eb69120-aedb-4e5e-bb49-581158be1d01","system_id":"levelo_inurba_marseille","lat":43.2862,"lon":5.35115,"is_reserved":false,"is_disabled":false,"rental_uris":{"android":"levelo://app?vid=7eb69120-aedb-4e5e-bb49-581158be1d01","ios":"levelo://app?vid=7eb69120-aedb-4e5e-bb49-581158be1d01"},"vehicle_type_id":"4","last_reported":1720886910,"current_range_meters":6400,"station_id":"ce4bhch2rcd13ifvqeug","pricing_plan_id":"cebpf4jnsgd1na2vs0mg"},{"bike_id":"618ecb8a-f58d-4832-8550-4614181d20d3","system_id":"levelo_inurba_marseille","lat":43.28622,"lon":5.35108,"is_reserved":false,"is_disabled":false,"rental_uris":{"android":"levelo://app?vid=618ecb8a-f58d-4832-8550-4614181d20d3","ios":"levelo://app?vid=618ecb8a-f58d-4832-8550-4614181d20d3"},"vehicle_type_id":"4","last_reported":1720886910,"current_range_meters":4000,"station_id":"ce4bhch2rcd13ifvqeug","pricing_plan_id":"cebpf4jnsgd1na2vs0mg"},{"bike_id":"b97525f9-db91-4430-b430-bb37e0544fa4","system_id":"levelo_inurba_marseille","lat":43.28617,"lon":5.35111,"is_reserved":false,"is_disabled":false,"rental_uris":{"android":"levelo://app?vid=b97525f9-db91-4430-b430-bb37e0544fa4","ios":"levelo://app?vid=b97525f9-db91-4430-b430-bb37e0544fa4"},"vehicle_type_id":"4","last_reported":1720886910,"current_range_meters":9200,"station_id":"ce4bhch2rcd13ifvqeug","pricing_plan_id":"cebpf4jnsgd1na2vs0mg"},{"bike_id":"f359284a-98a8-4d06-80e7-4bbce88e2523","system_id":"levelo_inurba_marseille","lat":43.285848,"lon":5.350787,"is_reserved":false,"is_disabled":false,"rental_uris":{"android":"levelo://app?vid=f359284a-98a8-4d06-80e7-4bbce88e2523","ios":"levelo://app?vid=f359284a-98a8-4d06-80e7-4bbce88e2523"},"vehicle_type_id":"4","last_reported":1720886910,"current_range_meters":6400,"station_id":"ce4bhch2rcd13ifvqeug","pricing_plan_id":"cebpf4jnsgd1na2vs0mg"},{"bike_id":"f6050c66-08d1-4247-9e33-30784acf6726","system_id":"levelo_inurba_marseille","lat":43.285848,"lon":5.350787,"is_reserved":false,"is_disabled":false,"rental_uris":{"android":"levelo://app?vid=f6050c66-08d1-4247-9e33-30784acf6726","ios":"levelo://app?vid=f6050c66-08d1-4247-9e33-30784acf6726"},"vehicle_type_id":"4","last_reported":1720886910,"current_range_meters":21200,"station_id":"ce4bhch2rcd13ifvqeug","pricing_plan_id":"cebpf4jnsgd1na2vs0mg"},{"bike_id":"eefb4afa-5c5c-4c02-9aca-053f1c4fcff6","system_id":"levelo_inurba_marseille","lat":43.28617,"lon":5.35103,"is_reserved":false,"is_disabled":false,"rental_uris":{"android":"levelo://app?vid=eefb4afa-5c5c-4c02-9aca-053f1c4fcff6","ios":"levelo://app?vid=eefb4afa-5c5c-4c02-9aca-053f1c4fcff6"},"vehicle_type_id":"4","last_reported":1720886910,"current_range_meters":18400,"station_id":"ce4bhch2rcd13ifvqeug","pricing_plan_id":"cebpf4jnsgd1na2vs0mg"},{"bike_id":"176ce380-7f3e-463c-b3a9-18e9bac53770","system_id":"levelo_inurba_marseille","lat":43.286169,"lon":5.351001,"is_reserved":false,"is_disabled":false,"rental_uris":{"android":"levelo://app?vid=176ce380-7f3e-463c-b3a9-18e9bac53770","ios":"levelo://app?vid=176ce380-7f3e-463c-b3a9-18e9bac53770"},"vehicle_type_id":"4","last_reported":1720886910,"current_range_meters":23600,"station_id":"ce4bhch2rcd13ifvqeug","pricing_plan_id":"cebpf4jnsgd1na2vs0mg"},{"bike_id":"75a0ec2e-be39-4008-b0ed-dfaa4ae7e43e","system_id":"levelo_inurba_marseille","lat":43.28615,"lon":5.35106,"is_reserved":false,"is_disabled":false,"rental_uris":{"android":"levelo://app?vid=75a0ec2e-be39-4008-b0ed-dfaa4ae7e43e","ios":"levelo://app?vid=75a0ec2e-be39-4008-b0ed-dfaa4ae7e43e"},"vehicle_type_id":"4","last_reported":1720886910,"current_range_meters":8400,"station_id":"ce4bhch2rcd13ifvqeug","pricing_plan_id":"cebpf4jnsgd1na2vs0mg"},{"bike_id":"632ec864-3f47-48b8-8d0b-63fa8fcb2ceb","system_id":"levelo_inurba_marseille","lat":43.28616,"lon":5.351,"is_reserved":false,"is_disabled":false,"rental_uris":{"android":"levelo://app?vid=632ec864-3f47-48b8-8d0b-63fa8fcb2ceb","ios":"levelo://app?vid=632ec864-3f47-48b8-8d0b-63fa8fcb2ceb"},"vehicle_type_id":"4","last_reported":1720886910,"current_range_meters":7600,"station_id":"ce4bhch2rcd13ifvqeug","pricing_plan_id":"cebpf4jnsgd1na2vs0mg"},{"bike_id":"3ae6e488-17bd-475c-844f-af92f7291c6d","system_id":"levelo_inurba_marseille","lat":43.28616,"lon":5.35099,"is_reserved":false,"is_disabled":false,"rental_uris":{"android":"levelo://app?vid=3ae6e488-17bd-475c-844f-af92f7291c6d","ios":"levelo://app?vid=3ae6e488-17bd-475c-844f-af92f7291c6d"},"vehicle_type_id":"4","last_reported":1720886910,"current_range_meters":29600,"station_id":"ce4bhch2rcd13ifvqeug","pricing_plan_id":"cebpf4jnsgd1na2vs0mg"},{"bike_id":"ecb36f9f-2249-45ed-a179-35b8a9765d3d","system_id":"levelo_inurba_marseille","lat":43.285848,"lon":5.350787,"is_reserved":false,"is_disabled":false,"rental_uris":{"android":"levelo://app?vid=ecb36f9f-2249-45ed-a179-35b8a9765d3d","ios":"levelo://app?vid=ecb36f9f-2249-45ed-a179-35b8a9765d3d"},"vehicle_type_id":"4","last_reported":1720886910,"current_range_meters":14400,"station_id":"ce4bhch2rcd13ifvqeug","pricing_plan_id":"cebpf4jnsgd1na2vs0mg"},{"bike_id":"602e6a52-8d03-4039-93a1-07598c7f9ba2","system_id":"levelo_inurba_marseille","lat":43.285848,"lon":5.350787,"is_reserved":false,"is_disabled":false,"rental_uris":{"android":"levelo://app?vid=602e6a52-8d03-4039-93a1-07598c7f9ba2","ios":"levelo://app?vid=602e6a52-8d03-4039-93a1-07598c7f9ba2"},"vehicle_type_id":"4","last_reported":1720886910,"current_range_meters":20800,"station_id":"ce4bhch2rcd13ifvqeug","pricing_plan_id":"cebpf4jnsgd1na2vs0mg"},{"bike_id":"b482a51f-5828-40cc-bf99-4582e41a2671","system_id":"levelo_inurba_marseille","lat":43.28612,"lon":5.35098,"is_reserved":false,"is_disabled":false,"rental_uris":{"android":"levelo://app?vid=b482a51f-5828-40cc-bf99-4582e41a2671","ios":"levelo://app?vid=b482a51f-5828-40cc-bf99-4582e41a2671"},"vehicle_type_id":"4","last_reported":1720886910,"current_range_meters":22400,"station_id":"ce4bhch2rcd13ifvqeug","pricing_plan_id":"cebpf4jnsgd1na2vs0mg"},{"bike_id":"4cd5b884-a7ca-45dd-9846-2b61ac5f7bbf","system_id":"levelo_inurba_marseille","lat":43.285848,"lon":5.350787,"is_reserved":false,"is_disabled":false,"rental_uris":{"android":"levelo://app?vid=4cd5b884-a7ca-45dd-9846-2b61ac5f7bbf","ios":"levelo://app?vid=4cd5b884-a7ca-45dd-9846-2b61ac5f7bbf"},"vehicle_type_id":"4","last_reported":1720886910,"current_range_meters":11600,"station_id":"ce4bhch2rcd13ifvqeug","pricing_plan_id":"cebpf4jnsgd1na2vs0mg"},{"bike_id":"52f339ef-ee44-4bdd-9142-b05eecff5d8c","system_id":"levelo_inurba_marseille","lat":43.297464,"lon":5.401208,"is_reserved":false,"is_disabled":false,"rental_uris":{"android":"levelo://app?vid=52f339ef-ee44-4bdd-9142-b05eecff5d8c","ios":"levelo://app?vid=52f339ef-ee44-4bdd-9142-b05eecff5d8c"},"vehicle_type_id":"4","last_reported":1720886910,"current_range_meters":1200,"station_id":"","pricing_plan_id":"cebpf4jnsgd1na2vs0mg"},{"bike_id":"eafa56d2-cec6-4a40-9a93-a4e47011f031","system_id":"levelo_inurba_marseille","lat":43.283998,"lon":5.375062,"is_reserved":false,"is_disabled":false,"rental_uris":{"android":"levelo://app?vid=eafa56d2-cec6-4a40-9a93-a4e47011f031","ios":"levelo://app?vid=eafa56d2-cec6-4a40-9a93-a4e47011f031"},"vehicle_type_id":"4","last_reported":1720886910,"current_range_meters":2800,"station_id":"ce4bh412rcd13ifvqds0","pricing_plan_id":"cebpf4jnsgd1na2vs0mg"},{"bike_id":"e835f8b4-f14e-48a6-99ba-5de40223049c","system_id":"levelo_inurba_marseille","lat":43.295713,"lon":5.399639,"is_reserved":false,"is_disabled":false,"rental_uris":{"android":"levelo://app?vid=e835f8b4-f14e-48a6-99ba-5de40223049c","ios":"levelo://app?vid=e835f8b4-f14e-48a6-99ba-5de40223049c"},"vehicle_type_id":"4","last_reported":1720886910,"current_range_meters":20000,"station_id":"ce4bh312rcd13ifvqdj0","pricing_plan_id":"cebpf4jnsgd1na2vs0mg"},{"bike_id":"a13bb0b7-79ed-48eb-a23b-edab57cc2be1","system_id":"levelo_inurba_marseille","lat":43.286595,"lon":5.386795,"is_reserved":false,"is_disabled":false,"rental_uris":{"android":"levelo://app?vid=a13bb0b7-79ed-48eb-a23b-edab57cc2be1","ios":"levelo://app?vid=a13bb0b7-79ed-48eb-a23b-edab57cc2be1"},"vehicle_type_id":"4","last_reported":1720886910,"current_range_meters":24800,"station_id":"ce4bh492rcd13ifvqdug","pricing_plan_id":"cebpf4jnsgd1na2vs0mg"},{"bike_id":"a2bbdcc3-d868-42e9-928b-76bfab191120","system_id":"levelo_inurba_marseille","lat":43.33714,"lon":5.39179,"is_reserved":false,"is_disabled":false,"rental_uris":{"android":"levelo://app?vid=a2bbdcc3-d868-42e9-928b-76bfab191120","ios":"levelo://app?vid=a2bbdcc3-d868-42e9-928b-76bfab191120"},"vehicle_type_id":"4","last_reported":1720886910,"current_range_meters":26000,"station_id":"ce4bhr92rcd13ifvqhsg","pricing_plan_id":"cebpf4jnsgd1na2vs0mg"},{"bike_id":"9e16efa1-7b75-4a51-80bc-66347fd4b9d5","system_id":"levelo_inurba_marseille","lat":43.33721,"lon":5.39176,"is_reserved":false,"is_disabled":false,"rental_uris":{"android":"levelo://app?vid=9e16efa1-7b75-4a51-80bc-66347fd4b9d5","ios":"levelo://app?vid=9e16efa1-7b75-4a51-80bc-66347fd4b9d5"},"vehicle_type_id":"4","last_reported":1720886910,"current_range_meters":21600,"station_id":"ce4bhr92rcd13ifvqhsg","pricing_plan_id":"cebpf4jnsgd1na2vs0mg"},{"bike_id":"4ec247a6-b3aa-49db-9c98-ef76772d358c","system_id":"levelo_inurba_marseille","lat":43.337196,"lon":5.391807,"is_reserved":false,"is_disabled":false,"rental_uris":{"android":"levelo://app?vid=4ec247a6-b3aa-49db-9c98-ef76772d358c","ios":"levelo://app?vid=4ec247a6-b3aa-49db-9c98-ef76772d358c"},"vehicle_type_id":"4","last_reported":1720886910,"current_range_meters":30000,"station_id":"ce4bhr92rcd13ifvqhsg","pricing_plan_id":"cebpf4jnsgd1na2vs0mg"},{"bike_id":"21e4ef63-0a9d-476f-b956-f659d25c40c2","system_id":"levelo_inurba_marseille","lat":43.33722,"lon":5.3918,"is_reserved":false,"is_disabled":false,"rental_uris":{"android":"levelo://app?vid=21e4ef63-0a9d-476f-b956-f659d25c40c2","ios":"levelo://app?vid=21e4ef63-0a9d-476f-b956-f659d25c40c2"},"vehicle_type_id":"4","last_reported":1720886910,"current_range_meters":5600,"station_id":"ce4bhr92rcd13ifvqhsg","pricing_plan_id":"cebpf4jnsgd1na2vs0mg"},{"bike_id":"bcfcd402-fe96-4917-ae58-ae3467ffddc2","system_id":"levelo_inurba_marseille","lat":43.32336,"lon":5.406171,"is_reserved":false,"is_disabled":false,"rental_uris":{"android":"levelo://app?vid=bcfcd402-fe96-4917-ae58-ae3467ffddc2","ios":"levelo://app?vid=bcfcd402-fe96-4917-ae58-ae3467ffddc2"},"vehicle_type_id":"4","last_reported":1720886910,"current_range_meters":11200,"station_id":"ce4bhq92rcd13ifvqhjg","pricing_plan_id":"cebpf4jnsgd1na2vs0mg"},{"bike_id":"da75fa16-20ce-4e4a-afcf-f2a1678095c5","system_id":"levelo_inurba_marseille","lat":43.33722,"lon":5.39188,"is_reserved":false,"is_disabled":false,"rental_uris":{"android":"levelo://app?vid=da75fa16-20ce-4e4a-afcf-f2a1678095c5","ios":"levelo://app?vid=da75fa16-20ce-4e4a-afcf-f2a1678095c5"},"vehicle_type_id":"4","last_reported":1720886910,"current_range_meters":23600,"station_id":"ce4bhr92rcd13ifvqhsg","pricing_plan_id":"cebpf4jnsgd1na2vs0mg"},{"bike_id":"2d940ee5-88e2-47e7-becf-8a2178e98459","system_id":"levelo_inurba_marseille","lat":43.33717,"lon":5.391857,"is_reserved":false,"is_disabled":false,"rental_uris":{"android":"levelo://app?vid=2d940ee5-88e2-47e7-becf-8a2178e98459","ios":"levelo://app?vid=2d940ee5-88e2-47e7-becf-8a2178e98459"},"vehicle_type_id":"4","last_reported":1720886910,"current_range_meters":21600,"station_id":"ce4bhr92rcd13ifvqhsg","pricing_plan_id":"cebpf4jnsgd1na2vs0mg"},{"bike_id":"44646595-3fa9-4c30-91ea-bab50278bc85","system_id":"levelo_inurba_marseille","lat":43.323464,"lon":5.406297,"is_reserved":false,"is_disabled":false,"rental_uris":{"android":"levelo://app?vid=44646595-3fa9-4c30-91ea-bab50278bc85","ios":"levelo://app?vid=44646595-3fa9-4c30-91ea-bab50278bc85"},"vehicle_type_id":"4","last_reported":1720886910,"current_range_meters":23600,"station_id":"ce4bhq92rcd13ifvqhjg","pricing_plan_id":"cebpf4jnsgd1na2vs0mg"},{"bike_id":"75f15957-952d-4258-9ed9-fc0dc4a18f40","system_id":"levelo_inurba_marseille","lat":43.323464,"lon":5.406297,"is_reserved":false,"is_disabled":false,"rental_uris":{"android":"levelo://app?vid=75f15957-952d-4258-9ed9-fc0dc4a18f40","ios":"levelo://app?vid=75f15957-952d-4258-9ed9-fc0dc4a18f40"},"vehicle_type_id":"4","last_reported":1720886910,"current_range_meters":400,"station_id":"ce4bhq92rcd13ifvqhjg","pricing_plan_id":"cebpf4jnsgd1na2vs0mg"},{"bike_id":"2f9eeeac-76e8-4385-bc95-c4fdafc2b3f8","system_id":"levelo_inurba_marseille","lat":43.3373,"lon":5.39197,"is_reserved":false,"is_disabled":false,"rental_uris":{"android":"levelo://app?vid=2f9eeeac-76e8-4385-bc95-c4fdafc2b3f8","ios":"levelo://app?vid=2f9eeeac-76e8-4385-bc95-c4fdafc2b3f8"},"vehicle_type_id":"4","last_reported":1720886910,"current_range_meters":18400,"station_id":"ce4bhr92rcd13ifvqhsg","pricing_plan_id":"cebpf4jnsgd1na2vs0mg"},{"bike_id":"52bc2b3b-cd02-41eb-89a9-89a59718186c","system_id":"levelo_inurba_marseille","lat":43.284793,"lon":5.384113,"is_reserved":false,"is_disabled":false,"rental_uris":{"android":"levelo://app?vid=52bc2b3b-cd02-41eb-89a9-89a59718186c","ios":"levelo://app?vid=52bc2b3b-cd02-41eb-89a9-89a59718186c"},"vehicle_type_id":"4","last_reported":1720886910,"current_range_meters":400,"station_id":"ce4bh512rcd13ifvqe3g","pricing_plan_id":"cebpf4jnsgd1na2vs0mg"},{"bike_id":"668a63be-cd7d-469f-9aaf-79bd527ff019","system_id":"levelo_inurba_marseille","lat":43.284793,"lon":5.384113,"is_reserved":false,"is_disabled":false,"rental_uris":{"android":"levelo://app?vid=668a63be-cd7d-469f-9aaf-79bd527ff019","ios":"levelo://app?vid=668a63be-cd7d-469f-9aaf-79bd527ff019"},"vehicle_type_id":"4","last_reported":1720886910,"current_range_meters":3200,"station_id":"ce4bh512rcd13ifvqe3g","pricing_plan_id":"cebpf4jnsgd1na2vs0mg"},{"bike_id":"a54228c5-7d57-4896-8ba5-6ff91b59e40d","system_id":"levelo_inurba_marseille","lat":43.284787,"lon":5.384116,"is_reserved":false,"is_disabled":false,"rental_uris":{"android":"levelo://app?vid=a54228c5-7d57-4896-8ba5-6ff91b59e40d","ios":"levelo://app?vid=a54228c5-7d57-4896-8ba5-6ff91b59e40d"},"vehicle_type_id":"4","last_reported":1720886910,"current_range_meters":7600,"station_id":"ce4bh512rcd13ifvqe3g","pricing_plan_id":"cebpf4jnsgd1na2vs0mg"},{"bike_id":"b4345683-f089-4724-9bf8-8595d0cdce27","system_id":"levelo_inurba_marseille","lat":43.2848,"lon":5.38422,"is_reserved":false,"is_disabled":false,"rental_uris":{"android":"levelo://app?vid=b4345683-f089-4724-9bf8-8595d0cdce27","ios":"levelo://app?vid=b4345683-f089-4724-9bf8-8595d0cdce27"},"vehicle_type_id":"4","last_reported":1720886910,"current_range_meters":0,"station_id":"ce4bh512rcd13ifvqe3g","pricing_plan_id":"cebpf4jnsgd1na2vs0mg"},{"bike_id":"9dfc6933-636e-4bef-954c-37542aa63448","system_id":"levelo_inurba_marseille","lat":43.284787,"lon":5.384116,"is_reserved":false,"is_disabled":false,"rental_uris":{"android":"levelo://app?vid=9dfc6933-636e-4bef-954c-37542aa63448","ios":"levelo://app?vid=9dfc6933-636e-4bef-954c-37542aa63448"},