{"last_updated":1679594936,"ttl":30,"version":"2.2","data":{"bikes":[{"bike_id":"05895e7b-ebf3-4cb3-bf4c-d13c855eb8f3","system_id":"levelo_inurba_marseille","lat":43.312239,"lon":5.368562,"is_reserved":false,"is_disabled":false,"rental_uris":{"android":"levelo://app?vid=05895e7b-ebf3-4cb3-bf4c-d13c855eb8f3","ios":"levelo://app?vid=05895e7b-ebf3-4cb3-bf4c-d13c855eb8f3"},"vehicle_type_id":"4","last_reported":1679594937,"current_range_meters":400,"station_id":"ce4bgl92rcd13ifvqbq0","pricing_plan_id":"free"},{"bike_id":"6888db1d-5ba7-4efc-b74e-60ce3ea7d78d","system_id":"levelo_inurba_marseille","lat":43.312239,"lon":5.368562,"is_reserved":false,"is_disabled":false,"rental_uris":{"android":"levelo://app?vid=6888db1d-5ba7-4efc-b74e-60ce3ea7d78d","ios":"levelo://app?vid=6888db1d-5ba7-4efc-b74e-60ce3ea7d78d"},"vehicle_type_id":"4","last_reported":1679594937,"current_range_meters":0,"station_id":"ce4bgl92rcd13ifvqbq0","pricing_plan_id":"free"},{"bike_id":"3267dd6f-720f-40da-8b44-17472ce6a4f8","system_id":"levelo_inurba_marseille","lat":43.3122,"lon":5.36859,"is_reserved":false,"is_disabled":false,"rental_uris":{"android":"levelo://app?vid=3267dd6f-720f-40da-8b44-17472ce6a4f8","ios":"levelo://app?vid=3267dd6f-720f-40da-8b44-17472ce6a4f8"},"vehicle_type_id":"4","last_reported":1679594937,"current_range_meters":24000,"station_id":"ce4bgl92rcd13ifvqbq0","pricing_plan_id":"free"},{"bike_id":"3a1697c5-c7d9-4c78-92dc-c00f7aed29f0","system_id":"levelo_inurba_marseille","lat":43.30914,"lon":5.36855,"is_reserved":false,"is_disabled":false,"rental_uris":{"android":"levelo://app?vid=3a1697c5-c7d9-4c78-92dc-c00f7aed29f0","ios":"levelo://app?vid=3a1697c5-c7d9-4c78-92dc-c00f7aed29f0"},"vehicle_type_id":"4","last_reported":1679594937,"current_range_meters":0,"station_id":"ce4bgn92rcd13ifvqbvg","pricing_plan_id":"free"},{"bike_id":"104391a1-dad8-4e83-83a3-fa60370cf5f8","system_id":"levelo_inurba_marseille","lat":43.309113,"lon":5.368571,"is_reserved":false,"is_disabled":false,"rental_uris":{"android":"levelo://app?vid=104391a1-dad8-4e83-83a3-fa60370cf5f8","ios":"levelo://app?vid=104391a1-dad8-4e83-83a3-fa60370cf5f8"},"vehicle_type_id":"4","last_reported":1679594937,"current_range_meters":0,"station_id":"ce4bgn92rcd13ifvqbvg","pricing_plan_id":"free"},{"bike_id":"279910c3-a807-4a58-a96e-8c6dec0487ab","system_id":"levelo_inurba_marseille","lat":43.30908,"lon":5.36848,"is_reserved":false,"is_disabled":false,"rental_uris":{"android":"levelo://app?vid=279910c3-a807-4a58-a96e-8c6dec0487ab","ios":"levelo://app?vid=279910c3-a807-4a58-a96e-8c6dec0487ab"},"vehicle_type_id":"4","last_reported":1679594937,"current_range_meters":0,"station_id":"","pricing_plan_id":"free"},{"bike_id":"175d3b4a-6b13-4173-bdf2-af9a22586cbe","system_id":"levelo_inurba_marseille","lat":43.31477,"lon":5.372735,"is_reserved":false,"is_disabled":false,"rental_uris":{"android":"levelo://app?vid=175d3b4a-6b13-4173-bdf2-af9a22586cbe","ios":"levelo://app?vid=175d3b4a-6b13-4173-bdf2-af9a22586cbe"},"vehicle_type_id":"4","last_reported":1679594937,"current_range_meters":3200,"station_id":"ce4bgt12rcd13ifvqcd0","pricing_plan_id":"free"},{"bike_id":"45f3e6cd-6b64-4a93-9f12-58edbb689cd3","system_id":"levelo_inurba_marseille","lat":43.314811,"lon":5.373104,"is_reserved":false,"is_disabled":false,"rental_uris":{"android":"levelo://app?vid=45f3e6cd-6b64-4a93-9f12-58edbb689cd3","ios":"levelo://app?vid=45f3e6cd-6b64-4a93-9f12-58edbb689cd3"},"vehicle_type_id":"4","last_reported":1679594937,"current_range_meters":1600,"station_id":"ce4bgt12rcd13ifvqcd0","pricing_plan_id":"free"},{"bike_id":"03fdbc64-2e6d-48b1-a33b-c49250a87072","system_id":"levelo_inurba_marseille","lat":43.314811,"lon":5.373103,"is_reserved":false,"is_disabled":false,"rental_uris":{"android":"levelo://app?vid=03fdbc64-2e6d-48b1-a33b-c49250a87072","ios":"levelo://app?vid=03fdbc64-2e6d-48b1-a33b-c49250a87072"},"vehicle_type_id":"4","last_reported":1679594937,"current_range_meters":2800,"station_id":"ce4bgt12rcd13ifvqcd0","pricing_plan_id":"free"},{"bike_id":"e2d36c60-da3e-456e-9baa-4788f046416c","system_id":"levelo_inurba_marseille","lat":43.314811,"lon":5.373103,"is_reserved":false,"is_disabled":false,"rental_uris":{"android":"levelo://app?vid=e2d36c60-da3e-456e-9baa-4788f046416c","ios":"levelo://app?vid=e2d36c60-da3e-456e-9baa-4788f046416c"},"vehicle_type_id":"4","last_reported":1679594937,"current_range_meters":7600,"station_id":"ce4bgt12rcd13ifvqcd0","pricing_plan_id":"free"},{"bike_id":"4de03bec-b29a-428b-82b4-beb8bfecdd0c","system_id":"levelo_inurba_marseille","lat":43.314811,"lon":5.373104,"is_reserved":false,"is_disabled":false,"rental_uris":{"android":"levelo://app?vid=4de03bec-b29a-428b-82b4-beb8bfecdd0c","ios":"levelo://app?vid=4de03bec-b29a-428b-82b4-beb8bfecdd0c"},"vehicle_type_id":"4","last_reported":1679594937,"current_range_meters":8400,"station_id":"ce4bgt12rcd13ifvqcd0","pricing_plan_id":"free"},{"bike_id":"fa21b0ce-02b8-4849-9792-7854bad9e04d","system_id":"levelo_inurba_marseille","lat":43.314811,"lon":5.373103,"is_reserved":false,"is_disabled":false,"rental_uris":{"android":"levelo://app?vid=fa21b0ce-02b8-4849-9792-7854bad9e04d","ios":"levelo://app?vid=fa21b0ce-02b8-4849-9792-7854bad9e04d"},"vehicle_type_id":"4","last_reported":1679594937,"current_range_meters":14400,"station_id":"ce4bgt12rcd13ifvqcd0","pricing_plan_id":"free"},{"bike_id":"551ada18-8f57-47fb-87e8-991296a9dd9e","system_id":"levelo_inurba_marseille","lat":43.305989,"lon":5.37225,"is_reserved":false,"is_disabled":false,"rental_uris":{"android":"levelo://app?vid=551ada18-8f57-47fb-87e8-991296a9dd9e","ios":"levelo://app?vid=551ada18-8f57-47fb-87e8-991296a9dd9e"},"vehicle_type_id":"4","last_reported":1679594937,"current_range_meters":2800,"station_id":"ce4bgqh2rcd13ifvqc4g","pricing_plan_id":"free"},{"bike_id":"6f64c1bf-806f-4398-9213-c8140761accf","system_id":"levelo_inurba_marseille","lat":43.305989,"lon":5.37225,"is_reserved":false,"is_disabled":false,"rental_uris":{"android":"levelo://app?vid=6f64c1bf-806f-4398-9213-c8140761accf","ios":"levelo://app?vid=6f64c1bf-806f-4398-9213-c8140761accf"},"vehicle_type_id":"4","last_reported":1679594937,"current_range_meters":0,"station_id":"ce4bgqh2rcd13ifvqc4g","pricing_plan_id":"free"},{"bike_id":"987c00dc-2e33-432c-8c55-4b233ddf1acc","system_id":"levelo_inurba_marseille","lat":43.305989,"lon":5.37225,"is_reserved":false,"is_disabled":false,"rental_uris":{"android":"levelo://app?vid=987c00dc-2e33-432c-8c55-4b233ddf1acc","ios":"levelo://app?vid=987c00dc-2e33-432c-8c55-4b233ddf1acc"},"vehicle_type_id":"4","last_reported":1679594937,"current_range_meters":1200,"station_id":"ce4bgqh2rcd13ifvqc4g","pricing_plan_id":"free"},{"bike_id":"d4595208-81fa-4110-b724-2fe73221d384","system_id":"levelo_inurba_marseille","lat":43.317075,"lon":5.377367,"is_reserved":false,"is_disabled":false,"rental_uris":{"android":"levelo://app?vid=d4595208-81fa-4110-b724-2fe73221d384","ios":"levelo://app?vid=d4595208-81fa-4110-b724-2fe73221d384"},"vehicle_type_id":"4","last_reported":1679594937,"current_range_meters":25200,"station_id":"ce4bgth2rcd13ifvqch0","pricing_plan_id":"free"},{"bike_id":"270cda48-ec44-4db4-b1e7-aab954d117fc","system_id":"levelo_inurba_marseille","lat":43.31186,"lon":5.38213,"is_reserved":false,"is_disabled":false,"rental_uris":{"android":"levelo://app?vid=270cda48-ec44-4db4-b1e7-aab954d117fc","ios":"levelo://app?vid=270cda48-ec44-4db4-b1e7-aab954d117fc"},"vehicle_type_id":"4","last_reported":1679594937,"current_range_meters":0,"station_id":"","pricing_plan_id":"free"},{"bike_id":"9df407b8-06fb-4521-9d4f-6bed41ccccb5","system_id":"levelo_inurba_marseille","lat":43.308012,"lon":5.381511,"is_reserved":false,"is_disabled":false,"rental_uris":{"android":"levelo://app?vid=9df407b8-06fb-4521-9d4f-6bed41ccccb5","ios":"levelo://app?vid=9df407b8-06fb-4521-9d4f-6bed41ccccb5"},"vehicle_type_id":"4","last_reported":1679594937,"current_range_meters":12000,"station_id":"ce4bgt12rcd13ifvqce0","pricing_plan_id":"free"},{"bike_id":"2a24fe93-a636-4ff1-9a57-7edf6990fc2c","system_id":"levelo_inurba_marseille","lat":43.308012,"lon":5.381511,"is_reserved":false,"is_disabled":false,"rental_uris":{"android":"levelo://app?vid=2a24fe93-a636-4ff1-9a57-7edf6990fc2c","ios":"levelo://app?vid=2a24fe93-a636-4ff1-9a57-7edf6990fc2c"},"vehicle_type_id":"4","last_reported":1679594937,"current_range_meters":800,"station_id":"ce4bgt12rcd13ifvqce0","pricing_plan_id":"free"},{"bike_id":"ffb2f6ba-fe47-4f27-83ea-c9b330fe1a2e","system_id":"levelo_inurba_marseille","lat":43.30804,"lon":5.3816,"is_reserved":false,"is_disabled":false,"rental_uris":{"android":"levelo://app?vid=ffb2f6ba-fe47-4f27-83ea-c9b330fe1a2e","ios":"levelo://app?vid=ffb2f6ba-fe47-4f27-83ea-c9b330fe1a2e"},"vehicle_type_id":"4","last_reported":1679594937,"current_range_meters":24000,"station_id":"","pricing_plan_id":"free"},{"bike_id":"0a8fd002-906f-48e1-9ca7-fe709a8f6dd6","system_id":"levelo_inurba_marseille","lat":43.317143,"lon":5.382293,"is_reserved":false,"is_disabled":false,"rental_uris":{"android":"levelo://app?vid=0a8fd002-906f-48e1-9ca7-fe709a8f6dd6","ios":"levelo://app?vid=0a8fd002-906f-48e1-9ca7-fe709a8f6dd6"},"vehicle_type_id":"4","last_reported":1679594937,"current_range_meters":26800,"station_id":"","pricing_plan_id":"free"},{"bike_id":"ba908ce7-96ee-4f4a-a6e3-f9cccdd50141","system_id":"levelo_inurba_marseille","lat":43.305364,"lon":5.384119,"is_reserved":false,"is_disabled":false,"rental_uris":{"android":"levelo://app?vid=ba908ce7-96ee-4f4a-a6e3-f9cccdd50141","ios":"levelo://app?vid=ba908ce7-96ee-4f4a-a6e3-f9cccdd50141"},"vehicle_type_id":"4","last_reported":1679594937,"current_range_meters":31600,"station_id":"ce4bgg92rcd13ifvqb30","pricing_plan_id":"free"},{"bike_id":"14034805-6d48-4546-b7b4-f3f9b6e4b1d7","system_id":"levelo_inurba_marseille","lat":43.31179,"lon":5.38698,"is_reserved":false,"is_disabled":false,"rental_uris":{"android":"levelo://app?vid=14034805-6d48-4546-b7b4-f3f9b6e4b1d7","ios":"levelo://app?vid=14034805-6d48-4546-b7b4-f3f9b6e4b1d7"},"vehicle_type_id":"4","last_reported":1679594937,"current_range_meters":5600,"station_id":"","pricing_plan_id":"free"},{"bike_id":"399b955d-9e8f-4d0c-a054-f04a2675b37f","system_id":"levelo_inurba_marseille","lat":43.311688,"lon":5.387207,"is_reserved":false,"is_disabled":false,"rental_uris":{"android":"levelo://app?vid=399b955d-9e8f-4d0c-a054-f04a2675b37f","ios":"levelo://app?vid=399b955d-9e8f-4d0c-a054-f04a2675b37f"},"vehicle_type_id":"4","last_reported":1679594937,"current_range_meters":0,"station_id":"","pricing_plan_id":"free"},{"bike_id":"da1089c5-bc15-4f56-8604-8753e11ac01e","system_id":"levelo_inurba_marseille","lat":43.31166,"lon":5.38727,"is_reserved":false,"is_disabled":false,"rental_uris":{"android":"levelo://app?vid=da1089c5-bc15-4f56-8604-8753e11ac01e","ios":"levelo://app?vid=da1089c5-bc15-4f56-8604-8753e11ac01e"},"vehicle_type_id":"4","last_reported":1679594937,"current_range_meters":13200,"station_id":"","pricing_plan_id":"free"},{"bike_id":"b74fd0f6-25df-47ec-bb1e-80e841de3f6a","system_id":"levelo_inurba_marseille","lat":43.32824,"lon":5.36687,"is_reserved":false,"is_disabled":false,"rental_uris":{"android":"levelo://app?vid=b74fd0f6-25df-47ec-bb1e-80e841de3f6a","ios":"levelo://app?vid=b74fd0f6-25df-47ec-bb1e-80e841de3f6a"},"vehicle_type_id":"4","last_reported":1679594937,"current_range_meters":24400,"station_id":"","pricing_plan_id":"free"},{"bike_id":"95381055-66b6-439d-8f18-9c229dff0d38","system_id":"levelo_inurba_marseille","lat":43.32824,"lon":5.36684,"is_reserved":false,"is_disabled":false,"rental_uris":{"android":"levelo://app?vid=95381055-66b6-439d-8f18-9c229dff0d38","ios":"levelo://app?vid=95381055-66b6-439d-8f18-9c229dff0d38"},"vehicle_type_id":"4","last_reported":1679594937,"current_range_meters":4800,"station_id":"","pricing_plan_id":"free"},{"bike_id":"11a176bc-14ab-4b82-a6c6-369e683b06ca","system_id":"levelo_inurba_marseille","lat":43.328371,"lon":5.366912,"is_reserved":false,"is_disabled":false,"rental_uris":{"android":"levelo://app?vid=11a176bc-14ab-4b82-a6c6-369e683b06ca","ios":"levelo://app?vid=11a176bc-14ab-4b82-a6c6-369e683b06ca"},"vehicle_type_id":"4","last_reported":1679594937,"current_range_meters":0,"station_id":"ce4bhs92rcd13ifvqi0g","pricing_plan_id":"free"},{"bike_id":"9ec1c137-6a61-4f23-b8b3-471322e16d48","system_id":"levelo_inurba_marseille","lat":43.29573,"lon":5.367355,"is_reserved":false,"is_disabled":false,"rental_uris":{"android":"levelo://app?vid=9ec1c137-6a61-4f23-b8b3-471322e16d48","ios":"levelo://app?vid=9ec1c137-6a61-4f23-b8b3-471322e16d48"},"vehicle_type_id":"4","last_reported":1679594937,"current_range_meters":400,"station_id":"ce4bgph2rcd13ifvqc2g","pricing_plan_id":"free"},{"bike_id":"01029734-8ed4-4a04-b3e5-a87be62c88a4","system_id":"levelo_inurba_marseille","lat":43.29794,"lon":5.38091,"is_reserved":false,"is_disabled":false,"rental_uris":{"android":"levelo://app?vid=01029734-8ed4-4a04-b3e5-a87be62c88a4","ios":"levelo://app?vid=01029734-8ed4-4a04-b3e5-a87be62c88a4"},"vehicle_type_id":"4","last_reported":1679594937,"current_range_meters":0,"station_id":"ce4bgip2rcd13ifvqbb0","pricing_plan_id":"free"},{"bike_id":"3b42f5c2-27a9-45b6-940b-4da448a28d99","system_id":"levelo_inurba_marseille","lat":43.298037,"lon":5.381066,"is_reserved":false,"is_disabled":false,"rental_uris":{"android":"levelo://app?vid=3b42f5c2-27a9-45b6-940b-4da448a28d99","ios":"levelo://app?vid=3b42f5c2-27a9-45b6-940b-4da448a28d99"},"vehicle_type_id":"4","last_reported":1679594937,"current_range_meters":10000,"station_id":"ce4bgip2rcd13ifvqbb0","pricing_plan_id":"free"},{"bike_id":"8a18cbf7-cae1-4878-bbea-774e83da0799","system_id":"levelo_inurba_marseille","lat":43.304278,"lon":5.388868,"is_reserved":false,"is_disabled":false,"rental_uris":{"android":"levelo://app?vid=8a18cbf7-cae1-4878-bbea-774e83da0799","ios":"levelo://app?vid=8a18cbf7-cae1-4878-bbea-774e83da0799"},"vehicle_type_id":"4","last_reported":1679594937,"current_range_meters":16400,"station_id":"ce4bgk12rcd13ifvqbi0","pricing_plan_id":"free"},{"bike_id":"9c76e904-3a8c-430e-8926-ace40b498658","system_id":"levelo_inurba_marseille","lat":43.299724,"lon":5.384848,"is_reserved":false,"is_disabled":false,"rental_uris":{"android":"levelo://app?vid=9c76e904-3a8c-430e-8926-ace40b498658","ios":"levelo://app?vid=9c76e904-3a8c-430e-8926-ace40b498658"},"vehicle_type_id":"4","last_reported":1679594937,"current_range_meters":0,"station_id":"ce4bgj92rcd13ifvqbd0","pricing_plan_id":"free"},{"bike_id":"83e0a842-b273-48cf-aa29-49b76c77d98c","system_id":"levelo_inurba_marseille","lat":43.330442,"lon":5.389148,"is_reserved":false,"is_disabled":false,"rental_uris":{"android":"levelo://app?vid=83e0a842-b273-48cf-aa29-49b76c77d98c","ios":"levelo://app?vid=83e0a842-b273-48cf-aa29-49b76c77d98c"},"vehicle_type_id":"4","last_reported":1679594937,"current_range_meters":13600,"station_id":"ce4bhr92rcd13ifvqhrg","pricing_plan_id":"free"},{"bike_id":"90019e2d-93e6-486f-9dc7-02f60bc24bc3","system_id":"levelo_inurba_marseille","lat":43.323569,"lon":5.388782,"is_reserved":false,"is_disabled":false,"rental_uris":{"android":"levelo://app?vid=90019e2d-93e6-486f-9dc7-02f60bc24bc3","ios":"levelo://app?vid=90019e2d-93e6-486f-9dc7-02f60bc24bc3"},"vehicle_type_id":"4","last_reported":1679594937,"current_range_meters":6800,"station_id":"ce4bhqp2rcd13ifvqhog","pricing_plan_id":"free"},{"bike_id":"d7339d01-14c4-4937-9b61-3d5aad5f74f0","system_id":"levelo_inurba_marseille","lat":43.32364,"lon":5.38878,"is_reserved":false,"is_disabled":false,"rental_uris":{"android":"levelo://app?vid=d7339d01-14c4-4937-9b61-3d5aad5f74f0","ios":"levelo://app?vid=d7339d01-14c4-4937-9b61-3d5aad5f74f0"},"vehicle_type_id":"4","last_reported":1679594937,"current_range_meters":8000,"station_id":"ce4bhqp2rcd13ifvqhog","pricing_plan_id":"free"},{"bike_id":"786bcade-aa8b-420f-80b0-38c872b3d8a7","system_id":"levelo_inurba_marseille","lat":43.32367,"lon":5.3888,"is_reserved":false,"is_disabled":false,"rental_uris":{"android":"levelo://app?vid=786bcade-aa8b-420f-80b0-38c872b3d8a7","ios":"levelo://app?vid=786bcade-aa8b-420f-80b0-38c872b3d8a7"},"vehicle_type_id":"4","last_reported":1679594937,"current_range_meters":14400,"station_id":"ce4bhqp2rcd13ifvqhog","pricing_plan_id":"free"},{"bike_id":"41e4f841-dbee-4ed2-bb87-f939152e0de7","system_id":"levelo_inurba_marseille","lat":43.32367,"lon":5.388836,"is_reserved":false,"is_disabled":false,"rental_uris":{"android":"levelo://app?vid=41e4f841-dbee-4ed2-bb87-f939152e0de7","ios":"levelo://app?vid=41e4f841-dbee-4ed2-bb87-f939152e0de7"},"vehicle_type_id":"4","last_reported":1679594937,"current_range_meters":0,"station_id":"ce4bhqp2rcd13ifvqhog","pricing_plan_id":"free"},{"bike_id":"1ecb38a7-dec5-4cde-b205-8267784e22fc","system_id":"levelo_inurba_marseille","lat":43.323664,"lon":5.388873,"is_reserved":false,"is_disabled":false,"rental_uris":{"android":"levelo://app?vid=1ecb38a7-dec5-4cde-b205-8267784e22fc","ios":"levelo://app?vid=1ecb38a7-dec5-4cde-b205-8267784e22fc"},"vehicle_type_id":"4","last_reported":1679594937,"current_range_meters":11600,"station_id":"ce4bhqp2rcd13ifvqhog","pricing_plan_id":"free"},{"bike_id":"569eebde-92b8-4d82-9a09-5bb258689869","system_id":"levelo_inurba_marseille","lat":43.32367,"lon":5.388836,"is_reserved":false,"is_disabled":false,"rental_uris":{"android":"levelo://app?vid=569eebde-92b8-4d82-9a09-5bb258689869","ios":"levelo://app?vid=569eebde-92b8-4d82-9a09-5bb258689869"},"vehicle_type_id":"4","last_reported":1679594937,"current_range_meters":9600,"station_id":"ce4bhqp2rcd13ifvqhog","pricing_plan_id":"free"},{"bike_id":"bea4ba7f-6308-4f1e-863b-467c44acd364","system_id":"levelo_inurba_marseille","lat":43.298764,"lon":5.388973,"is_reserved":false,"is_disabled":false,"rental_uris":{"android":"levelo://app?vid=bea4ba7f-6308-4f1e-863b-467c44acd364","ios":"levelo://app?vid=bea4ba7f-6308-4f1e-863b-467c44acd364"},"vehicle_type_id":"4","last_reported":1679594937,"current_range_meters":20400,"station_id":"ce4bh392rcd13ifvqdl0","pricing_plan_id":"free"},{"bike_id":"2eac38b2-3e67-4f4b-8494-bf55f24badba","system_id":"levelo_inurba_marseille","lat":43.313291,"lon":5.396838,"is_reserved":false,"is_disabled":false,"rental_uris":{"android":"levelo://app?vid=2eac38b2-3e67-4f4b-8494-bf55f24badba","ios":"levelo://app?vid=2eac38b2-3e67-4f4b-8494-bf55f24badba"},"vehicle_type_id":"4","last_reported":1679594937,"current_range_meters":2400,"station_id":"ce4bgvp2rcd13ifvqcu0","pricing_plan_id":"free"},{"bike_id":"d956c284-e33e-45dd-ae88-dac9b63d92d9","system_id":"levelo_inurba_marseille","lat":43.313291,"lon":5.396838,"is_reserved":false,"is_disabled":false,"rental_uris":{"android":"levelo://app?vid=d956c284-e33e-45dd-ae88-dac9b63d92d9","ios":"levelo://app?vid=d956c284-e33e-45dd-ae88-dac9b63d92d9"},"vehicle_type_id":"4","last_reported":1679594937,"current_range_meters":18800,"station_id":"ce4bgvp2rcd13ifvqcu0","pricing_plan_id":"free"},{"bike_id":"19cb2f62-fbc2-4065-aba2-9be8ddd6321f","system_id":"levelo_inurba_marseille","lat":43.313291,"lon":5.396838,"is_reserved":false,"is_disabled":false,"rental_uris":{"android":"levelo://app?vid=19cb2f62-fbc2-4065-aba2-9be8ddd6321f","ios":"levelo://app?vid=19cb2f62-fbc2-4065-aba2-9be8ddd6321f"},"vehicle_type_id":"4","last_reported":1679594937,"current_range_meters":10800,"station_id":"ce4bgvp2rcd13ifvqcu0","pricing_plan_id":"free"},{"bike_id":"d5540b64-0c6d-405d-b499-4aa9d243d7cf","system_id":"levelo_inurba_marseille","lat":43.31329,"lon":5.396944,"is_reserved":false,"is_disabled":false,"rental_uris":{"android":"levelo://app?vid=d5540b64-0c6d-405d-b499-4aa9d243d7cf","ios":"levelo://app?vid=d5540b64-0c6d-405d-b499-4aa9d243d7cf"},"vehicle_type_id":"4","last_reported":1679594937,"current_range_meters":6400,"station_id":"","pricing_plan_id":"free"},{"bike_id":"cb8a45ef-b91f-4893-a436-1c1897f12ded","system_id":"levelo_inurba_marseille","lat":43.313291,"lon":5.396838,"is_reserved":false,"is_disabled":false,"rental_uris":{"android":"levelo://app?vid=cb8a45ef-b91f-4893-a436-1c1897f12ded","ios":"levelo://app?vid=cb8a45ef-b91f-4893-a436-1c1897f12ded"},"vehicle_type_id":"4","last_reported":1679594937,"current_range_meters":19200,"station_id":"ce4bgvp2rcd13ifvqcu0","pricing_plan_id":"free"},{"bike_id":"89ac9afb-1260-4f46-8799-4f1886ad7bc6","system_id":"levelo_inurba_marseille","lat":43.29529,"lon":5.385581,"is_reserved":false,"is_disabled":false,"rental_uris":{"android":"levelo://app?vid=89ac9afb-1260-4f46-8799-4f1886ad7bc6","ios":"levelo://app?vid=89ac9afb-1260-4f46-8799-4f1886ad7bc6"},"vehicle_type_id":"4","last_reported":1679594937,"current_range_meters":0,"station_id":"ce4bgih2rcd13ifvqba0","pricing_plan_id":"free"},{"bike_id":"8a0d43ab-df26-4d5e-9fd7-52978614fe44","system_id":"levelo_inurba_marseille","lat":43.29529,"lon":5.385581,"is_reserved":false,"is_disabled":false,"rental_uris":{"android":"levelo://app?vid=8a0d43ab-df26-4d5e-9fd7-52978614fe44","ios":"levelo://app?vid=8a0d43ab-df26-4d5e-9fd7-52978614fe44"},"vehicle_type_id":"4","last_reported":1679594937,"current_range_meters":4800,"station_id":"ce4bgih2rcd13ifvqba0","pricing_plan_id":"free"},{"bike_id":"92a54200-c345-48ce-bb51-cfe2ebab8adc","system_id":"levelo_inurba_marseille","lat":43.290372,"lon":5.375583,"is_reserved":false,"is_disabled":false,"rental_uris":{"android":"levelo://app?vid=92a54200-c345-48ce-bb51-cfe2ebab8adc","ios":"levelo://app?vid=92a54200-c345-48ce-bb51-cfe2ebab8adc"},"vehicle_type_id":"4","last_reported":1679594937,"current_range_meters":0,"station_id":"ce4bh692rcd13ifvqe90","pricing_plan_id":"free"},{"bike_id":"b3ebd2c3-dc8a-4588-a6d8-df16cbb1fe72","system_id":"levelo_inurba_marseille","lat":43.32939,"lon":5.38921,"is_reserved":false,"is_disabled":false,"rental_uris":{"android":"levelo://app?vid=b3ebd2c3-dc8a-4588-a6d8-df16cbb1fe72","ios":"levelo://app?vid=b3ebd2c3-dc8a-4588-a6d8-df16cbb1fe72"},"vehicle_type_id":"4","last_reported":1679594937,"current_range_meters":0,"station_id":"","pricing_plan_id":"free"},{"bike_id":"7cd62407-5197-43cb-b36a-70debecc4216","system_id":"levelo_inurba_marseille","lat":43.294153,"lon":5.386305,"is_reserved":false,"is_disabled":false,"rental_uris":{"android":"levelo://app?vid=7cd62407-5197-43cb-b36a-70debecc4216","ios":"levelo://app?vid=7cd62407-5197-43cb-b36a-70debecc4216"},"vehicle_type_id":"4","last_reported":1679594937,"current_range_meters":20800,"station_id":"ce4bh2h2rcd13ifvqdh0","pricing_plan_id":"free"},{"bike_id":"6f6a9795-5f0e-4ce1-b41a-d4cd07ef96d4","system_id":"levelo_inurba_marseille","lat":43.289184,"lon":5.366408,"is_reserved":false,"is_disabled":false,"rental_uris":{"android":"levelo://app?vid=6f6a9795-5f0e-4ce1-b41a-d4cd07ef96d4","ios":"levelo://app?vid=6f6a9795-5f0e-4ce1-b41a-d4cd07ef96d4"},"vehicle_type_id":"4","last_reported":1679594937,"current_range_meters":0,"station_id":"ce4bhap2rcd13ifvqek0","pricing_plan_id":"free"},{"bike_id":"c5bed8e7-7772-4e8b-b1e0-3bed3843cdde","system_id":"levelo_inurba_marseille","lat":43.289184,"lon":5.366408,"is_reserved":false,"is_disabled":false,"rental_uris":{"android":"levelo://app?vid=c5bed8e7-7772-4e8b-b1e0-3bed3843cdde","ios":"levelo://app?vid=c5bed8e7-7772-4e8b-b1e0-3bed3843cdde"},"vehicle_type_id":"4","last_reported":1679594937,"current_range_meters":22800,"station_id":"ce4bhap2rcd13ifvqek0","pricing_plan_id":"free"},{"bike_id":"7e489abd-4982-4ced-a674-63c5d43e76c0","system_id":"levelo_inurba_marseille","lat":43.289184,"lon":5.366408,"is_reserved":false,"is_disabled":false,"rental_uris":{"android":"levelo://app?vid=7e489abd-4982-4ced-a674-63c5d43e76c0","ios":"levelo://app?vid=7e489abd-4982-4ced-a674-63c5d43e76c0"},"vehicle_type_id":"4","last_reported":1679594937,"current_range_meters":0,"station_id":"ce4bhap2rcd13ifvqek0","pricing_plan_id":"free"},{"bike_id":"a3724c8c-df42-4617-a50d-c02de1588244","system_id":"levelo_inurba_marseille","lat":43.304247,"lon":5.397443,"is_reserved":false,"is_disabled":false,"rental_uris":{"android":"levelo://app?vid=a3724c8c-df42-4617-a50d-c02de1588244","ios":"levelo://app?vid=a3724c8c-df42-4617-a50d-c02de1588244"},"vehicle_type_id":"4","last_reported":1679594937,"current_range_meters":0,"station_id":"","pricing_plan_id":"free"},{"bike_id":"0fba9084-603f-40fd-824d-8fa0c320e29f","system_id":"levelo_inurba_marseille","lat":43.292642,"lon":5.384254,"is_reserved":false,"is_disabled":false,"rental_uris":{"android":"levelo://app?vid=0fba9084-603f-40fd-824d-8fa0c320e29f","ios":"levelo://app?vid=0fba9084-603f-40fd-824d-8fa0c320e29f"},"vehicle_type_id":"4","last_reported":1679594937,"current_range_meters":15600,"station_id":"ce4bh692rcd13ifvqea0","pricing_plan_id":"free"},{"bike_id":"e0a225a5-b077-4588-8483-ab6341c83feb","system_id":"levelo_inurba_marseille","lat":43.330442,"lon":5.389148,"is_reserved":false,"is_disabled":false,"rental_uris":{"android":"levelo://app?vid=e0a225a5-b077-4588-8483-ab6341c83feb","ios":"levelo://app?vid=e0a225a5-b077-4588-8483-ab6341c83feb"},"vehicle_type_id":"4","last_reported":1679594937,"current_range_meters":26000,"station_id":"ce4bhr92rcd13ifvqhrg","pricing_plan_id":"free"},{"bike_id":"a87b6324-ff45-4f72-857d-8eea99338b73","system_id":"levelo_inurba_marseille","lat":43.33044,"lon":5.38917,"is_reserved":false,"is_disabled":false,"rental_uris":{"android":"levelo://app?vid=a87b6324-ff45-4f72-857d-8eea99338b73","ios":"levelo://app?vid=a87b6324-ff45-4f72-857d-8eea99338b73"},"vehicle_type_id":"4","last_reported":1679594937,"current_range_meters":8800,"station_id":"ce4bhr92rcd13ifvqhrg","pricing_plan_id":"free"},{"bike_id":"97910304-96d4-438c-ac25-14df69bc81ca","system_id":"levelo_inurba_marseille","lat":43.33046,"lon":5.38916,"is_reserved":false,"is_disabled":false,"rental_uris":{"android":"levelo://app?vid=97910304-96d4-438c-ac25-14df69bc81ca","ios":"levelo://app?vid=97910304-96d4-438c-ac25-14df69bc81ca"},"vehicle_type_id":"4","last_reported":1679594937,"current_range_meters":4400,"station_id":"ce4bhr92rcd13ifvqhrg","pricing_plan_id":"free"},{"bike_id":"a9b2671e-43dc-4c5c-b7d8-98feab621b23","system_id":"levelo_inurba_marseille","lat":43.29105,"lon":5.381225,"is_reserved":false,"is_disabled":false,"rental_uris":{"android":"levelo://app?vid=a9b2671e-43dc-4c5c-b7d8-98feab621b23","ios":"levelo://app?vid=a9b2671e-43dc-4c5c-b7d8-98feab621b23"},"vehicle_type_id":"4","last_reported":1679594937,"current_range_meters":0,"station_id":"ce4bh512rcd13ifvqe2g","pricing_plan_id":"free"},{"bike_id":"0be21fcd-2760-4b85-b644-205213a6c2b6","system_id":"levelo_inurba_marseille","lat":43.29513,"lon":5.39033,"is_reserved":false,"is_disabled":false,"rental_uris":{"android":"levelo://app?vid=0be21fcd-2760-4b85-b644-205213a6c2b6","ios":"levelo://app?vid=0be21fcd-2760-4b85-b644-205213a6c2b6"},"vehicle_type_id":"4","last_reported":1679594937,"current_range_meters":3200,"station_id":"ce4bh3p2rcd13ifvqdp0","pricing_plan_id":"free"},{"bike_id":"302a2e1d-50b3-472e-a9d2-1574b0317502","system_id":"levelo_inurba_marseille","lat":43.295169,"lon":5.390426,"is_reserved":false,"is_disabled":false,"rental_uris":{"android":"levelo://app?vid=302a2e1d-50b3-472e-a9d2-1574b0317502","ios":"levelo://app?vid=302a2e1d-50b3-472e-a9d2-1574b0317502"},"vehicle_type_id":"4","last_reported":1679594937,"current_range_meters":11600,"station_id":"ce4bh3p2rcd13ifvqdp0","pricing_plan_id":"free"},{"bike_id":"ff69206a-63c4-4bae-bb47-66483ca9d908","system_id":"levelo_inurba_marseille","lat":43.28856,"lon":5.358371,"is_reserved":false,"is_disabled":false,"rental_uris":{"android":"levelo://app?vid=ff69206a-63c4-4bae-bb47-66483ca9d908","ios":"levelo://app?vid=ff69206a-63c4-4bae-bb47-66483ca9d908"},"vehicle_type_id":"4","last_reported":1679594937,"current_range_meters":2000,"station_id":"ce4bhb12rcd13ifvqem0","pricing_plan_id":"free"},{"bike_id":"86705081-3760-4b68-b619-8ad2650146ab","system_id":"levelo_inurba_marseille","lat":43.30642,"lon":5.401031,"is_reserved":false,"is_disabled":false,"rental_uris":{"android":"levelo://app?vid=86705081-3760-4b68-b619-8ad2650146ab","ios":"levelo://app?vid=86705081-3760-4b68-b619-8ad2650146ab"},"vehicle_type_id":"4","last_reported":1679594937,"current_range_meters":26400,"station_id":"ce4bh112rcd13ifvqda0","pricing_plan_id":"free"},{"bike_id":"4892c55e-1d93-4090-ad1d-da4d6016ff60","system_id":"levelo_inurba_marseille","lat":43.30642,"lon":5.401031,"is_reserved":false,"is_disabled":false,"rental_uris":{"android":"levelo://app?vid=4892c55e-1d93-4090-ad1d-da4d6016ff60","ios":"levelo://app?vid=4892c55e-1d93-4090-ad1d-da4d6016ff60"},"vehicle_type_id":"4","last_reported":1679594937,"current_range_meters":1200,"station_id":"ce4bh112rcd13ifvqda0","pricing_plan_id":"free"},{"bike_id":"ef45fee0-5206-470b-9a31-89f8300b6fd1","system_id":"levelo_inurba_marseille","lat":43.301117,"lon":5.398795,"is_reserved":false,"is_disabled":false,"rental_uris":{"android":"levelo://app?vid=ef45fee0-5206-470b-9a31-89f8300b6fd1","ios":"levelo://app?vid=ef45fee0-5206-470b-9a31-89f8300b6fd1"},"vehicle_type_id":"4","last_reported":1679594937,"current_range_meters":4000,"station_id":"ce4bh0h2rcd13ifvqd40","pricing_plan_id":"free"},{"bike_id":"8b09350b-0f9e-4d5c-b27f-93be0ff872f1","system_id":"levelo_inurba_marseille","lat":43.301117,"lon":5.398795,"is_reserved":false,"is_disabled":false,"rental_uris":{"android":"levelo://app?vid=8b09350b-0f9e-4d5c-b27f-93be0ff872f1","ios":"levelo://app?vid=8b09350b-0f9e-4d5c-b27f-93be0ff872f1"},"vehicle_type_id":"4","last_reported":1679594937,"current_range_meters":2000,"station_id":"ce4bh0h2rcd13ifvqd40","pricing_plan_id":"free"},{"bike_id":"c3935d6c-678d-4cba-8d8f-f216f47e3580","system_id":"levelo_inurba_marseille","lat":43.298681,"lon":5.397225,"is_reserved":false,"is_disabled":false,"rental_uris":{"android":"levelo://app?vid=c3935d6c-678d-4cba-8d8f-f216f47e3580","ios":"levelo://app?vid=c3935d6c-678d-4cba-8d8f-f216f47e3580"},"vehicle_type_id":"4","last_reported":1679594937,"current_range_meters":800,"station_id":"ce4bh0h2rcd13ifvqd50","pricing_plan_id":"free"},{"bike_id":"68d7b439-6c14-48a6-8159-70e58378e1ba","system_id":"levelo_inurba_marseille","lat":43.298681,"lon":5.397225,"is_reserved":false,"is_disabled":false,"rental_uris":{"android":"levelo://app?vid=68d7b439-6c14-48a6-8159-70e58378e1ba","ios":"levelo://app?vid=68d7b439-6c14-48a6-8159-70e58378e1ba"},"vehicle_type_id":"4","last_reported":1679594937,"current_range_meters":31600,"station_id":"ce4bh0h2rcd13ifvqd50","pricing_plan_id":"free"},{"bike_id":"2b124a35-d9c9-4a4e-821e-188c08865a43","system_id":"levelo_inurba_marseille","lat":43.295373,"lon":5.394049,"is_reserved":false,"is_disabled":false,"rental_uris":{"android":"levelo://app?vid=2b124a35-d9c9-4a4e-821e-188c08865a43","ios":"levelo://app?vid=2b124a35-d9c9-4a4e-821e-188c08865a43"},"vehicle_type_id":"4","last_reported":1679594937,"current_range_meters":0,"station_id":"ce4bh212rcd13ifvqde0","pricing_plan_id":"free"},{"bike_id":"1e137102-b458-4633-8f75-d465419bf626","system_id":"levelo_inurba_marseille","lat":43.316517,"lon":5.404375,"is_reserved":false,"is_disabled":false,"rental_uris":{"android":"levelo://app?vid=1e137102-b458-4633-8f75-d465419bf626","ios":"levelo://app?vid=1e137102-b458-4633-8f75-d465419bf626"},"vehicle_type_id":"4","last_reported":1679594937,"current_range_meters":8000,"station_id":"ce4bh012rcd13ifvqd00","pricing_plan_id":"free"},{"bike_id":"525d34d9-81d6-43f4-b902-ea0fd62137b8","system_id":"levelo_inurba_marseille","lat":43.316517,"lon":5.404375,"is_reserved":false,"is_disabled":false,"rental_uris":{"android":"levelo://app?vid=525d34d9-81d6-43f4-b902-ea0fd62137b8","ios":"levelo://app?vid=525d34d9-81d6-43f4-b902-ea0fd62137b8"},"vehicle_type_id":"4","last_reported":1679594937,"current_range_meters":4800,"station_id":"ce4bh012rcd13ifvqd00","pricing_plan_id":"free"},{"bike_id":"1b173026-1826-4494-8e77-c2773706ce9b","system_id":"levelo_inurba_marseille","lat":43.28707,"lon":5.35204,"is_reserved":false,"is_disabled":false,"rental_uris":{"android":"levelo://app?vid=1b173026-1826-4494-8e77-c2773706ce9b","ios":"levelo://app?vid=1b173026-1826-4494-8e77-c2773706ce9b"},"vehicle_type_id":"4","last_reported":1679594937,"current_range_meters":2800,"station_id":"","pricing_plan_id":"free"},{"bike_id":"e7aa1e39-3314-489b-a4dc-71f2612e5601","system_id":"levelo_inurba_marseille","lat":43.29571,"lon":5.39988,"is_reserved":false,"is_disabled":false,"rental_uris":{"android":"levelo://app?vid=e7aa1e39-3314-489b-a4dc-71f2612e5601","ios":"levelo://app?vid=e7aa1e39-3314-489b-a4dc-71f2612e5601"},"vehicle_type_id":"4","last_reported":1679594937,"current_range_meters":0,"station_id":"","pricing_plan_id":"free"},{"bike_id":"91dcf2e3-cf23-4152-9947-f16d8906be73","system_id":"levelo_inurba_marseille","lat":43.33724,"lon":5.39186,"is_reserved":false,"is_disabled":false,"rental_uris":{"android":"levelo://app?vid=91dcf2e3-cf23-4152-9947-f16d8906be73","ios":"levelo://app?vid=91dcf2e3-cf23-4152-9947-f16d8906be73"},"vehicle_type_id":"4","last_reported":1679594937,"current_range_meters":400,"station_id":"","pricing_plan_id":"free"},{"bike_id":"68df525d-b299-4813-972f-f230e77a05d2","system_id":"levelo_inurba_marseille","lat":43.323464,"lon":5.406297,"is_reserved":false,"is_disabled":false,"rental_uris":{"android":"levelo://app?vid=68df525d-b299-4813-972f-f230e77a05d2","ios":"levelo://app?vid=68df525d-b299-4813-972f-f230e77a05d2"},"vehicle_type_id":"4","last_reported":1679594937,"current_range_meters":16800,"station_id":"ce4bhq92rcd13ifvqhjg","pricing_plan_id":"free"},{"bike_id":"ed1c3951-ea04-40f0-8171-f7c31cccd847","system_id":"levelo_inurba_marseille","lat":43.284793,"lon":5.384119,"is_reserved":false,"is_disabled":false,"rental_uris":{"android":"levelo://app?vid=ed1c3951-ea04-40f0-8171-f7c31cccd847","ios":"levelo://app?vid=ed1c3951-ea04-40f0-8171-f7c31cccd847"},"vehicle_type_id":"4","last_reported":1679594937,"current_range_meters":0,"station_id":"ce4bh512rcd13ifvqe3g","pricing_plan_id":"free"},{"bike_id":"9befffe7-ab8d-4f23-8421-c8088a3b5a74","system_id":"levelo_inurba_marseille","lat":43.28353,"lon":5.381069,"is_reserved":false,"is_disabled":false,"rental_uris":{"android":"levelo://app?vid=9befffe7-ab8d-4f23-8421-c8088a3b5a74","ios":"levelo://app?vid=9befffe7-ab8d-4f23-8421-c8088a3b5a74"},"vehicle_type_id":"4","last_reported":1679594937,"current_range_meters":0,"station_id":"","pricing_plan_id":"free"},{"bike_id":"c97cdeb0-eda5-469f-9eea-1b1df52fbd2f","system_id":"levelo_inurba_marseille","lat":43.28426,"lon":5.34995,"is_reserved":false,"is_disabled":false,"rental_uris":{"android":"levelo://app?vid=c97cdeb0-eda5-469f-9eea-1b1df52fbd2f","ios":"levelo://app?vid=c97cdeb0-eda5-469f-9eea-1b1df52fbd2f"},"vehicle_type_id":"4","last_reported":1679594937,"current_range_meters":5200,"station_id":"ce4bhbh2rcd13ifvqepg","pricing_plan_id":"free"},{"bike_id":"b9ca15a1-063a-49de-a9c7-4937535a625f","system_id":"levelo_inurba_marseille","lat":43.28427,"lon":5.3499,"is_reserved":false,"is_disabled":false,"rental_uris":{"android":"levelo://app?vid=b9ca15a1-063a-49de-a9c7-4937535a625f","ios":"levelo://app?vid=b9ca15a1-063a-49de-a9c7-4937535a625f"},"vehicle_type_id":"4","last_reported":1679594937,"current_range_meters":0,"station_id":"ce4bhbh2rcd13ifvqepg","pricing_plan_id":"free"},{"bike_id":"9672d917-ee6c-44c8-bb8c-560d1e44eef6","system_id":"levelo_inurba_marseille","lat":43.28427,"lon":5.34988,"is_reserved":false,"is_disabled":false,"rental_uris":{"android":"levelo://app?vid=9672d917-ee6c-44c8-bb8c-560d1e44eef6","ios":"levelo://app?vid=9672d917-ee6c-44c8-bb8c-560d1e44eef6"},"vehicle_type_id":"4","last_reported":1679594937,"current_range_meters":31600,"station_id":"ce4bhbh2rcd13ifvqepg","pricing_plan_id":"free"},{"bike_id":"d2ea594d-8318-4339-8347-38daa4c2da2c","system_id":"levelo_inurba_marseille","lat":43.289363,"lon":5.396322,"is_reserved":false,"is_disabled":false,"rental_uris":{"android":"levelo://app?vid=d2ea594d-8318-4339-8347-38daa4c2da2c","ios":"levelo://app?vid=d2ea594d-8318-4339-8347-38daa4c2da2c"},"vehicle_type_id":"4","last_reported":1679594937,"current_range_meters":16000,"station_id":"ce4bh3h2rcd13ifvqdn0","pricing_plan_id":"free"},{"bike_id":"d3cf7943-f999-45c8-b816-408a829f8d86","system_id":"levelo_inurba_marseille","lat":43.292724,"lon":5.401131,"is_reserved":false,"is_disabled":false,"rental_uris":{"android":"levelo://app?vid=d3cf7943-f999-45c8-b816-408a829f8d86","ios":"levelo://app?vid=d3cf7943-f999-45c8-b816-408a829f8d86"},"vehicle_type_id":"4","last_reported":1679594937,"current_range_meters":0,"station_id":"ce4bh312rcd13ifvqdk0","pricing_plan_id":"free"},{"bike_id":"45d16164-792b-4de1-9388-172416e46a93","system_id":"levelo_inurba_marseille","lat":43.292724,"lon":5.401131,"is_reserved":false,"is_disabled":false,"rental_uris":{"android":"levelo://app?vid=45d16164-792b-4de1-9388-172416e46a93","ios":"levelo://app?vid=45d16164-792b-4de1-9388-172416e46a93"},"vehicle_type_id":"4","last_reported":1679594937,"current_range_meters":18800,"station_id":"ce4bh312rcd13ifvqdk0","pricing_plan_id":"free"},{"bike_id":"d1ecf7da-e573-4f3b-aedb-728b8f17abe7","system_id":"levelo_inurba_marseille","lat":43.2927,"lon":5.40125,"is_reserved":false,"is_disabled":false,"rental_uris":{"android":"levelo://app?vid=d1ecf7da-e573-4f3b-aedb-728b8f17abe7","ios":"levelo://app?vid=d1ecf7da-e573-4f3b-aedb-728b8f17abe7"},"vehicle_type_id":"4","last_reported":1679594937,"current_range_meters":0,"station_id":"ce4bh312rcd13ifvqdk0","pricing_plan_id":"free"},{"bike_id":"156b28ee-5584-489b-8870-a130b17ac0f3","system_id":"levelo_inurba_marseille","lat":43.28276,"lon":5.35074,"is_reserved":false,"is_disabled":false,"rental_uris":{"android":"levelo://app?vid=156b28ee-5584-489b-8870-a130b17ac0f3","ios":"levelo://app?vid=156b28ee-5584-489b-8870-a130b17ac0f3"},"vehicle_type_id":"4","last_reported":1679594937,"current_range_meters":11600,"station_id":"","pricing_plan_id":"free"},{"bike_id":"4e4978fe-24a1-4eda-a17f-3bac93fbc53e","system_id":"levelo_inurba_marseille","lat":43.282747,"lon":5.35069,"is_reserved":false,"is_disabled":false,"rental_uris":{"android":"levelo://app?vid=4e4978fe-24a1-4eda-a17f-3bac93fbc53e","ios":"levelo://app?vid=4e4978fe-24a1-4eda-a17f-3bac93fbc53e"},"vehicle_type_id":"4","last_reported":1679594937,"current_range_meters":19600,"station_id":"","pricing_plan_id":"free"},{"bike_id":"832a3689-3837-4dd1-8d6b-44adbfd75183","system_id":"levelo_inurba_marseille","lat":43.28271,"lon":5.35078,"is_reserved":false,"is_disabled":false,"rental_uris":{"android":"levelo://app?vid=832a3689-3837-4dd1-8d6b-44adbfd75183","ios":"levelo://app?vid=832a3689-3837-4dd1-8d6b-44adbfd75183"},"vehicle_type_id":"4","last_reported":1679594937,"current_range_meters":1600,"station_id":"ce4bhbp2rcd13ifvqerg","pricing_plan_id":"free"},{"bike_id":"624030ba-1bc5-45ad-8da5-c653828431fd","system_id":"levelo_inurba_marseille","lat":43.282719,"lon":5.350554,"is_reserved":false,"is_disabled":false,"rental_uris":{"android":"levelo://app?vid=624030ba-1bc5-45ad-8da5-c653828431fd","ios":"levelo://app?vid=624030ba-1bc5-45ad-8da5-c653828431fd"},"vehicle_type_id":"4","last_reported":1679594937,"current_range_meters":3200,"station_id":"ce4bhbp2rcd13ifvqerg","pricing_plan_id":"free"},{"bike_id":"2abad1ad-4995-43a8-ae00-d8bbbc7521c7","system_id":"levelo_inurba_marseille","lat":43.28358,"lon":5.38638,"is_reserved":false,"is_disabled":false,"rental_uris":{"android":"levelo://app?vid=2abad1ad-4995-43a8-ae00-d8bbbc7521c7","ios":"levelo://app?vid=2abad1ad-4995-43a8-ae00-d8bbbc7521c7"},"vehicle_type_id":"4","last_reported":1679594937,"current_range_meters":0,"station_id":"ce4bh492rcd13ifvqdvg","pricing_plan_id":"free"},{"bike_id":"b3e5eae2-9b69-4560-a714-1aa64fc7f3b9","system_id":"levelo_inurba_marseille","lat":43.28039,"lon":5.369297,"is_reserved":false,"is_disabled":false,"rental_uris":{"android":"levelo://app?vid=b3e5eae2-9b69-4560-a714-1aa64fc7f3b9","ios":"levelo://app?vid=b3e5eae2-9b69-4560-a714-1aa64fc7f3b9"},"vehicle_type_id":"4","last_reported":1679594937,"current_range_meters":1200,"station_id":"ce4bha12rcd13ifvqef0","pricing_plan_id":"free"},{"bike_id":"0400a5e9-7f2f-476d-a989-a7afa5129540","system_id":"levelo_inurba_marseille","lat":43.283502,"lon":5.386471,"is_reserved":false,"is_disabled":false,"rental_uris":{"android":"levelo://app?vid=0400a5e9-7f2f-476d-a989-a7afa5129540","ios":"levelo://app?vid=0400a5e9-7f2f-476d-a989-a7afa5129540"},"vehicle_type_id":"4","last_reported":1679594937,"current_range_meters":4000,"station_id":"ce4bh492rcd13ifvqdvg","pricing_plan_id":"free"},{"bike_id":"7d7d91ba-6ab6-4337-b65b-c9ed16e774fa","system_id":"levelo_inurba_marseille","lat":43.296263,"lon":5.40601,"is_reserved":false,"is_disabled":false,"rental_uris":{"android":"levelo://app?vid=7d7d91ba-6ab6-4337-b65b-c9ed16e774fa","ios":"levelo://app?vid=7d7d91ba-6ab6-4337-b65b-c9ed16e774fa"},"vehicle_type_id":"4","last_reported":1679594937,"current_range_meters":2000,"station_id":"ce4bh0h2rcd13ifvqd60","pricing_plan_id":"free"},{"bike_id":"9fa4019c-0a56-4946-b20c-a1d35428de09","system_id":"levelo_inurba_marseille","lat":43.296263,"lon":5.40601,"is_reserved":false,"is_disabled":false,"rental_uris":{"android":"levelo://app?vid=9fa4019c-0a56-4946-b20c-a1d35428de09","ios":"levelo://app?vid=9fa4019c-0a56-4946-b20c-a1d35428de09"},"vehicle_type_id":"4","last_reported":1679594937,"current_range_meters":29200,"station_id":"ce4bh0h2rcd13ifvqd60","pricing_plan_id":"free"},{"bike_id":"9572ac23-094c-48b8-970e-087c5bae3407","system_id":"levelo_inurba_marseille","lat":43.29624,"lon":5.40597,"is_reserved":false,"is_disabled":false,"rental_uris":{"android":"levelo://app?vid=9572ac23-094c-48b8-970e-087c5bae3407","ios":"levelo://app?vid=9572ac23-094c-48b8-970e-087c5bae3407"},"vehicle_type_id":"4","last_reported":1679594937,"current_range_meters":29600,"station_id":"ce4bh0h2rcd13ifvqd60","pricing_plan_id":"free"},{"bike_id":"2f131025-2aae-4e5a-b60f-97530dc36271","system_id":"levelo_inurba_marseille","lat":43.284462,"lon":5.392121,"is_reserved":false,"is_disabled":false,"rental_uris":{"android":"levelo://app?vid=2f131025-2aae-4e5a-b60f-97530dc36271","ios":"levelo://app?vid=2f131025-2aae-4e5a-b60f-97530dc36271"},"vehicle_type_id":"4","last_reported":1679594937,"current_range_meters":400,"station_id":"ce4bhoh2rcd13ifvqh5g","pricing_plan_id":"free"},{"bike_id":"5917aaec-cf30-48a2-9655-5983c10780ad","system_id":"levelo_inurba_marseille","lat":43.30415,"lon":5.41291,"is_reserved":false,"is_disabled":false,"rental_uris":{"android":"levelo://app?vid=5917aaec-cf30-48a2-9655-5983c10780ad","ios":"levelo://app?vid=5917aaec-cf30-48a2-9655-5983c10780ad"},"vehicle_type_id":"4","last_reported":1679594937,"current_range_meters":400,"station_id":"ce4bhop2rcd13ifvqh8g","pricing_plan_id":"free"},{"bike_id":"0d0f3fa7-2568-4584-b843-66e76e8e153c","system_id":"levelo_inurba_marseille","lat":43.287154,"lon":5.399979,"is_reserved":false,"is_disabled":false,"rental_uris":{"android":"levelo://app?vid=0d0f3fa7-2568-4584-b843-66e76e8e153c","ios":"levelo://app?vid=0d0f3fa7-2568-4584-b843-66e76e8e153c"},"vehicle_type_id":"4","last_reported":1679594937,"current_range_meters":24400,"station_id":"ce4bho92rcd13ifvqh3g","pricing_plan_id":"free"},{"bike_id":"2270eeca-e5a7-4a81-9c8b-af47de4ed177","system_id":"levelo_inurba_marseille","lat":43.287154,"lon":5.399979,"is_reserved":false,"is_disabled":false,"rental_uris":{"android":"levelo://app?vid=2270eeca-e5a7-4a81-9c8b-af47de4ed177","ios":"levelo://app?vid=2270eeca-e5a7-4a81-9c8b-af47de4ed177"},"vehicle_type_id":"4","last_reported":1679594937,"current_range_meters":10400,"station_id":"ce4bho92rcd13ifvqh3g","pricing_plan_id":"free"},{"bike_id":"566aa0d9-0ffa-461c-a94d-06e2fbba670f","system_id":"levelo_inurba_marseille","lat":43.29262,"lon":5.40897,"is_reserved":false,"is_disabled":false,"rental_uris":{"android":"levelo://app?vid=566aa0d9-0ffa-461c-a94d-06e2fbba670f","ios":"levelo://app?vid=566aa0d9-0ffa-461c-a94d-06e2fbba670f"},"vehicle_type_id":"4","last_reported":1679594937,"current_range_meters":0,"station_id":"ce4bh192rcd13ifvqdc0","pricing_plan_id":"free"},{"bike_id":"4c217f47-0bd4-4495-b064-ccc733d58398","system_id":"levelo_inurba_marseille","lat":43.292569,"lon":5.409107,"is_reserved":false,"is_disabled":false,"rental_uris":{"android":"levelo://app?vid=4c217f47-0bd4-4495-b064-ccc733d58398","ios":"levelo://app?vid=4c217f47-0bd4-4495-b064-ccc733d58398"},"vehicle_type_id":"4","last_reported":1679594937,"current_range_meters":11200,"station_id":"ce4bh192rcd13ifvqdc0","pricing_plan_id":"free"},{"bike_id":"389b24be-ca9e-4840-b3fd-7e356aa9c96f","system_id":"levelo_inurba_marseille","lat":43.292569,"lon":5.409107,"is_reserved":false,"is_disabled":false,"rental_uris":{"android":"levelo://app?vid=389b24be-ca9e-4840-b3fd-7e356aa9c96f","ios":"levelo://app?vid=389b24be-ca9e-4840-b3fd-7e356aa9c96f"},"vehicle_type_id":"4","last_reported":1679594937,"current_range_meters":19600,"station_id":"ce4bh192rcd13ifvqdc0","pricing_plan_id":"free"},{"bike_id":"c4bf4d1c-8107-4236-84d1-cc3afcb8f5db","system_id":"levelo_inurba_marseille","lat":43.27623,"lon":5.36109,"is_reserved":false,"is_disabled":false,"rental_uris":{"android":"levelo://app?vid=c4bf4d1c-8107-4236-84d1-cc3afcb8f5db","ios":"levelo://app?vid=c4bf4d1c-8107-4236-84d1-cc3afcb8f5db"},"vehicle_type_id":"4","last_reported":1679594937,"current_range_meters":6800,"station_id":"","pricing_plan_id":"free"},{"bike_id":"432ae8cb-7cb8-4b93-887d-cc7f77c500be","system_id":"levelo_inurba_marseille","lat":43.292569,"lon":5.409107,"is_reserved":false,"is_disabled":false,"rental_uris":{"android":"levelo://app?vid=432ae8cb-7cb8-4b93-887d-cc7f77c500be","ios":"levelo://app?vid=432ae8cb-7cb8-4b93-887d-cc7f77c500be"},"vehicle_type_id":"4","last_reported":1679594937,"current_range_meters":23600,"station_id":"ce4bh192rcd13ifvqdc0","pricing_plan_id":"free"},{"bike_id":"6ac2ee5d-f260-4260-9f47-a4828586292c","system_id":"levelo_inurba_marseille","lat":43.280784,"lon":5.396622,"is_reserved":false,"is_disabled":false,"rental_uris":{"android":"levelo://app?vid=6ac2ee5d-f260-4260-9f47-a4828586292c","ios":"levelo://app?vid=6ac2ee5d-f260-4260-9f47-a4828586292c"},"vehicle_type_id":"4","last_reported":1679594937,"current_range_meters":20800,"station_id":"ce4bho12rcd13ifvqh2g","pricing_plan_id":"free"},{"bike_id":"879db0f5-205e-4e10-947f-8cc2475d4fb8","system_id":"levelo_inurba_marseille","lat":43.273613,"lon":5.362705,"is_reserved":false,"is_disabled":false,"rental_uris":{"android":"levelo://app?vid=879db0f5-205e-4e10-947f-8cc2475d4fb8","ios":"levelo://app?vid=879db0f5-205e-4e10-947f-8cc2475d4fb8"},"vehicle_type_id":"4","last_reported":1679594937,"current_range_meters":31200,"station_id":"ce4bhbh2rcd13ifvqeo0","pricing_plan_id":"free"},{"bike_id":"46395c2b-f4bf-4eaf-9e04-333e44142e2c","system_id":"levelo_inurba_marseille","lat":43.336134,"lon":5.410341,"is_reserved":false,"is_disabled":false,"rental_uris":{"android":"levelo://app?vid=46395c2b-f4bf-4eaf-9e04-333e44142e2c","ios":"levelo://app?vid=46395c2b-f4bf-4eaf-9e04-333e44142e2c"},"vehicle_type_id":"4","last_reported":1679594937,"current_range_meters":19200,"station_id":"ce4bhqh2rcd13ifvqhmg","pricing_plan_id":"free"},{"bike_id":"58bfd888-ffdd-4238-995f-7d84bfc7cd57","system_id":"levelo_inurba_marseille","lat":43.33612,"lon":5.410321,"is_reserved":false,"is_disabled":false,"rental_uris":{"android":"levelo://app?vid=58bfd888-ffdd-4238-995f-7d84bfc7cd57","ios":"levelo://app?vid=58bfd888-ffdd-4238-995f-7d84bfc7cd57"},"vehicle_type_id":"4","last_reported":1679594937,"current_range_meters":15600,"station_id":"ce4bhqh2rcd13ifvqhmg","pricing_plan_id":"free"},{"bike_id":"c296f665-1bec-487f-93ea-d98c6096c628","system_id":"levelo_inurba_marseille","lat":43.33612,"lon":5.410321,"is_reserved":false,"is_disabled":false,"rental_uris":{"android":"levelo://app?vid=c296f665-1bec-487f-93ea-d98c6096c628","ios":"levelo://app?vid=c296f665-1bec-487f-93ea-d98c6096c628"},"vehicle_type_id":"4","last_reported":1679594937,"current_range_meters":14000,"station_id":"ce4bhqh2rcd13ifvqhmg","pricing_plan_id":"free"},{"bike_id":"834da43d-c12c-4df7-aaca-29a15d36f3af","system_id":"levelo_inurba_marseille","lat":43.336134,"lon":5.410341,"is_reserved":false,"is_disabled":false,"rental_uris":{"android":"levelo://app?vid=834da43d-c12c-4df7-aaca-29a15d36f3af","ios":"levelo://app?vid=834da43d-c12c-4df7-aaca-29a15d36f3af"},"vehicle_type_id":"4","last_reported":1679594937,"current_range_meters":19200,"station_id":"ce4bhqh2rcd13ifvqhmg","pricing_plan_id":"free"},{"bike_id":"ee619aaa-170a-47c3-8d0e-75ee2919d616","system_id":"levelo_inurba_marseille","lat":43.336134,"lon":5.410341,"is_reserved":false,"is_disabled":false,"rental_uris":{"android":"levelo://app?vid=ee619aaa-170a-47c3-8d0e-75ee2919d616","ios":"levelo://app?vid=ee619aaa-170a-47c3-8d0e-75ee2919d616"},"vehicle_type_id":"4","last_reported":1679594937,"current_range_meters":15200,"station_id":"ce4bhqh2rcd13ifvqhmg","pricing_plan_id":"free"},{"bike_id":"894770c2-6db5-4d1b-bb6a-9fdabbf75b3e","system_id":"levelo_inurba_marseille","lat":43.33612,"lon":5.410321,"is_reserved":false,"is_disabled":false,"rental_uris":{"android":"levelo://app?vid=894770c2-6db5-4d1b-bb6a-9fdabbf75b3e","ios":"levelo://app?vid=894770c2-6db5-4d1b-bb6a-9fdabbf75b3e"},"vehicle_type_id":"4","last_reported":1679594937,"current_range_meters":5600,"station_id":"ce4bhqh2rcd13ifvqhmg","pricing_plan_id":"free"},{"bike_id":"6dda1240-66c1-4a81-a2f2-fa30615dd477","system_id":"levelo_inurba_marseille","lat":43.327243,"lon":5.41774,"is_reserved":false,"is_disabled":false,"rental_uris":{"android":"levelo://app?vid=6dda1240-66c1-4a81-a2f2-fa30615dd477","ios":"levelo://app?vid=6dda1240-66c1-4a81-a2f2-fa30615dd477"},"vehicle_type_id":"4","last_reported":1679594937,"current_range_meters":2000,"station_id":"","pricing_plan_id":"free"},{"bike_id":"605c2e9b-2a2a-4c22-bbbb-2ebb3b60d1e5","system_id":"levelo_inurba_marseille","lat":43.317263,"lon":5.423949,"is_reserved":false,"is_disabled":false,"rental_uris":{"android":"levelo://app?vid=605c2e9b-2a2a-4c22-bbbb-2ebb3b60d1e5","ios":"levelo://app?vid=605c2e9b-2a2a-4c22-bbbb-2ebb3b60d1e5"},"vehicle_type_id":"4","last_reported":1679594937,"current_range_meters":24000,"station_id":"","pricing_plan_id":"free"},{"bike_id":"1c972963-f8a8-45e3-9f02-8dd1044172f5","system_id":"levelo_inurba_marseille","lat":43.304096,"lon":5.425385,"is_reserved":false,"is_disabled":false,"rental_uris":{"android":"levelo://app?vid=1c972963-f8a8-45e3-9f02-8dd1044172f5","ios":"levelo://app?vid=1c972963-f8a8-45e3-9f02-8dd1044172f5"},"vehicle_type_id":"4","last_reported":1679594937,"current_range_meters":24800,"station_id":"ce4bhoh2rcd13ifvqh6g","pricing_plan_id":"free"},{"bike_id":"2036e315-f777-497b-90e0-5142ae30f38c","system_id":"levelo_inurba_marseille","lat":43.304096,"lon":5.425385,"is_reserved":false,"is_disabled":false,"rental_uris":{"android":"levelo://app?vid=2036e315-f777-497b-90e0-5142ae30f38c","ios":"levelo://app?vid=2036e315-f777-497b-90e0-5142ae30f38c"},"vehicle_type_id":"4","last_reported":1679594937,"current_range_meters":22000,"station_id":"ce4bhoh2rcd13ifvqh6g","pricing_plan_id":"free"},{"bike_id":"3816136b-f207-40f6-a7cb-e66350c4b89b","system_id":"levelo_inurba_marseille","lat":43.30414,"lon":5.425424,"is_reserved":false,"is_disabled":false,"rental_uris":{"android":"levelo://app?vid=3816136b-f207-40f6-a7cb-e66350c4b89b","ios":"levelo://app?vid=3816136b-f207-40f6-a7cb-e66350c4b89b"},"vehicle_type_id":"4","last_reported":1679594937,"current_range_meters":30000,"station_id":"","pricing_plan_id":"free"},{"bike_id":"20dd8b60-d0f1-4650-b46d-2a462b8d966d","system_id":"levelo_inurba_marseille","lat":43.304096,"lon":5.425385,"is_reserved":false,"is_disabled":false,"rental_uris":{"android":"levelo://app?vid=20dd8b60-d0f1-4650-b46d-2a462b8d966d","ios":"levelo://app?vid=20dd8b60-d0f1-4650-b46d-2a462b8d966d"},"vehicle_type_id":"4","last_reported":1679594937,"current_range_meters":29600,"station_id":"ce4bhoh2rcd13ifvqh6g","pricing_plan_id":"free"},{"bike_id":"cd95f869-ae3d-45aa-9b06-aeb03527ce00","system_id":"levelo_inurba_marseille","lat":43.304096,"lon":5.425385,"is_reserved":false,"is_disabled":false,"rental_uris":{"android":"levelo://app?vid=cd95f869-ae3d-45aa-9b06-aeb03527ce00","ios":"levelo://app?vid=cd95f869-ae3d-45aa-9b06-aeb03527ce00"},"vehicle_type_id":"4","last_reported":1679594937,"current_range_meters":24800,"station_id":"ce4bhoh2rcd13ifvqh6g","pricing_plan_id":"free"},{"bike_id":"bb597fb7-e03a-4b97-850e-5dd8f421392d","system_id":"levelo_inurba_marseille","lat":43.30415,"lon":5.42546,"is_reserved":false,"is_disabled":false,"rental_uris":{"android":"levelo://app?vid=bb597fb7-e03a-4b97-850e-5dd8f421392d","ios":"levelo://app?vid=bb597fb7-e03a-4b97-850e-5dd8f421392d"},"vehicle_type_id":"4","last_reported":1679594937,"current_range_meters":30400,"station_id":"ce4bhoh2rcd13ifvqh6g","pricing_plan_id":"free"},{"bike_id":"43ea7c0e-8359-4d18-8626-5d25296494da","system_id":"levelo_inurba_marseille","lat":43.304096,"lon":5.425385,"is_reserved":false,"is_disabled":false,"rental_uris":{"android":"levelo://app?vid=43ea7c0e-8359-4d18-8626-5d25296494da","ios":"levelo://app?vid=43ea7c0e-8359-4d18-8626-5d25296494da"},"vehicle_type_id":"4","last_reported":1679594937,"current_range_meters":26400,"station_id":"ce4bhoh2rcd13ifvqh6g","pricing_plan_id":"free"},{"bike_id":"2f88c090-bc94-4c1c-a9a9-e4dc67b4a06f","system_id":"levelo_inurba_marseille","lat":43.304135,"lon":5.425478,"is_reserved":false,"is_disabled":false,"rental_uris":{"android":"levelo://app?vid=2f88c090-bc94-4c1c-a9a9-e4dc67b4a06f","ios":"levelo://app?vid=2f88c090-bc94-4c1c-a9a9-e4dc67b4a06f"},"vehicle_type_id":"4","last_reported":1679594937,"current_range_meters":29600,"station_id":"ce4bhoh2rcd13ifvqh6g","pricing_plan_id":"free"},{"bike_id":"58894254-e8fb-4719-be3b-484fcacbe935","system_id":"levelo_inurba_marseille","lat":43.304133,"lon":5.425524,"is_reserved":false,"is_disabled":false,"rental_uris":{"android":"levelo://app?vid=58894254-e8fb-4719-be3b-484fcacbe935","ios":"levelo://app?vid=58894254-e8fb-4719-be3b-484fcacbe935"},"vehicle_type_id":"4","last_reported":1679594937,"current_range_meters":19600,"station_id":"","pricing_plan_id":"free"},{"bike_id":"c8cf5b35-d55b-4cf9-892e-b14acf8528c7","system_id":"levelo_inurba_marseille","lat":43.304096,"lon":5.425385,"is_reserved":false,"is_disabled":false,"rental_uris":{"android":"levelo://app?vid=c8cf5b35-d55b-4cf9-892e-b14acf8528c7","ios":"levelo://app?vid=c8cf5b35-d55b-4cf9-892e-b14acf8528c7"},"vehicle_type_id":"4","last_reported":1679594937,"current_range_meters":28400,"station_id":"ce4bhoh2rcd13ifvqh6g","pricing_plan_id":"free"},{"bike_id":"b9d23159-5e01-4a5f-a4b7-0f2f58387f4a","system_id":"levelo_inurba_marseille","lat":43.304095,"lon":5.42554,"is_reserved":false,"is_disabled":false,"rental_uris":{"android":"levelo://app?vid=b9d23159-5e01-4a5f-a4b7-0f2f58387f4a","ios":"levelo://app?vid=b9d23159-5e01-4a5f-a4b7-0f2f58387f4a"},"vehicle_type_id":"4","last_reported":1679594937,"current_range_meters":8800,"station_id":"","pricing_plan_id":"free"},{"bike_id":"5974fc41-1e88-4483-bd68-1080961f92b8","system_id":"levelo_inurba_marseille","lat":43.304122,"lon":5.425548,"is_reserved":false,"is_disabled":false,"rental_uris":{"android":"levelo://app?vid=5974fc41-1e88-4483-bd68-1080961f92b8","ios":"levelo://app?vid=5974fc41-1e88-4483-bd68-1080961f92b8"},"vehicle_type_id":"4","last_reported":1679594937,"current_range_meters":28800,"station_id":"","pricing_plan_id":"free"},{"bike_id":"d4b3dad8-ac87-4dcc-9a2e-e9dc696ba6c5","system_id":"levelo_inurba_marseille","lat":43.295618,"lon":5.422833,"is_reserved":false,"is_disabled":false,"rental_uris":{"android":"levelo://app?vid=d4b3dad8-ac87-4dcc-9a2e-e9dc696ba6c5","ios":"levelo://app?vid=d4b3dad8-ac87-4dcc-9a2e-e9dc696ba6c5"},"vehicle_type_id":"4","last_reported":1679594937,"current_range_meters":21600,"station_id":"","pricing_plan_id":"free"},{"bike_id":"f2cb1a2f-ece5-4e58-8dea-db0be3931bc3","system_id":"levelo_inurba_marseille","lat":43.295523,"lon":5.422926,"is_reserved":false,"is_disabled":false,"rental_uris":{"android":"levelo://app?vid=f2cb1a2f-ece5-4e58-8dea-db0be3931bc3","ios":"levelo://app?vid=f2cb1a2f-ece5-4e58-8dea-db0be3931bc3"},"vehicle_type_id":"4","last_reported":1679594937,"current_range_meters":28800,"station_id":"ce4bhph2rcd13ifvqhdg","pricing_plan_id":"free"},{"bike_id":"98825b3c-7833-4996-b81f-f7c7f8b95c2b","system_id":"levelo_inurba_marseille","lat":43.295523,"lon":5.422926,"is_reserved":false,"is_disabled":false,"rental_uris":{"android":"levelo://app?vid=98825b3c-7833-4996-b81f-f7c7f8b95c2b","ios":"levelo://app?vid=98825b3c-7833-4996-b81f-f7c7f8b95c2b"},"vehicle_type_id":"4","last_reported":1679594937,"current_range_meters":11200,"station_id":"ce4bhph2rcd13ifvqhdg","pricing_plan_id":"free"},{"bike_id":"b84689b3-017d-4192-a071-f090fbf7eaa8","system_id":"levelo_inurba_marseille","lat":43.295523,"lon":5.422926,"is_reserved":false,"is_disabled":false,"rental_uris":{"android":"levelo://app?vid=b84689b3-017d-4192-a071-f090fbf7eaa8","ios":"levelo://app?vid=b84689b3-017d-4192-a071-f090fbf7eaa8"},"vehicle_type_id":"4","last_reported":1679594937,"current_range_meters":28800,"station_id":"ce4bhph2rcd13ifvqhdg","pricing_plan_id":"free"},{"bike_id":"73631606-4774-4e5a-893b-4bed2bca946d","system_id":"levelo_inurba_marseille","lat":43.295523,"lon":5.422926,"is_reserved":false,"is_disabled":false,"rental_uris":{"android":"levelo://app?vid=73631606-4774-4e5a-893b-4bed2bca946d","ios":"levelo://app?vid=73631606-4774-4e5a-893b-4bed2bca946d"},"vehicle_type_id":"4","last_reported":1679594937,"current_range_meters":31200,"station_id":"ce4bhph2rcd13ifvqhdg","pricing_plan_id":"free"},{"bike_id":"7744a821-f757-4aa8-bcaa-147137f3c9ac","system_id":"levelo_inurba_marseille","lat":43.295572,"lon":5.422926,"is_reserved":false,"is_disabled":false,"rental_uris":{"android":"levelo://app?vid=7744a821-f757-4aa8-bcaa-147137f3c9ac","ios":"levelo://app?vid=7744a821-f757-4aa8-bcaa-147137f3c9ac"},"vehicle_type_id":"4","last_reported":1679594937,"current_range_meters":29600,"station_id":"","pricing_plan_id":"free"},{"bike_id":"6a59ee58-5e55-4d7f-8a94-57e619275ce0","system_id":"levelo_inurba_marseille","lat":43.295523,"lon":5.422926,"is_reserved":false,"is_disabled":false,"rental_uris":{"android":"levelo://app?vid=6a59ee58-5e55-4d7f-8a94-57e619275ce0","ios":"levelo://app?vid=6a59ee58-5e55-4d7f-8a94-57e619275ce0"},"vehicle_type_id":"4","last_reported":1679594937,"current_range_meters":29600,"station_id":"ce4bhph2rcd13ifvqhdg","pricing_plan_id":"free"},{"bike_id":"83e23c09-8b96-4739-8e53-ebd3e9c695b0","system_id":"levelo_inurba_marseille","lat":43.295523,"lon":5.422926,"is_reserved":false,"is_disabled":false,"rental_uris":{"android":"levelo://app?vid=83e23c09-8b96-4739-8e53-ebd3e9c695b0","ios":"levelo://app?vid=83e23c09-8b96-4739-8e53-ebd3e9c695b0"},"vehicle_type_id":"4","last_reported":1679594937,"current_range_meters":31600,"station_id":"ce4bhph2rcd13ifvqhdg","pricing_plan_id":"free"},{"bike_id":"e9d8d55b-151b-4cad-8daa-fdcc12c1e5f4","system_id":"levelo_inurba_marseille","lat":43.278128,"lon":5.407195,"is_reserved":false,"is_disabled":false,"rental_uris":{"android":"levelo://app?vid=e9d8d55b-151b-4cad-8daa-fdcc12c1e5f4","ios":"levelo://app?vid=e9d8d55b-151b-4cad-8daa-fdcc12c1e5f4"},"vehicle_type_id":"4","last_reported":1679594937,"current_range_meters":13200,"station_id":"ce4bhnh2rcd13ifvqgtg","pricing_plan_id":"free"},{"bike_id":"d218965f-bd18-4ada-bf46-8f25f4d85050","system_id":"levelo_inurba_marseille","lat":43.269467,"lon":5.386439,"is_reserved":false,"is_disabled":false,"rental_uris":{"android":"levelo://app?vid=d218965f-bd18-4ada-bf46-8f25f4d85050","ios":"levelo://app?vid=d218965f-bd18-4ada-bf46-8f25f4d85050"},"vehicle_type_id":"4","last_reported":1679594937,"current_range_meters":0,"station_id":"ce4bhh92rcd13ifvqfh0","pricing_plan_id":"free"},{"bike_id":"9bbb1d6c-e639-4aef-92cf-0ffe3c1ce962","system_id":"levelo_inurba_marseille","lat":43.267966,"lon":5.393976,"is_reserved":false,"is_disabled":false,"rental_uris":{"android":"levelo://app?vid=9bbb1d6c-e639-4aef-92cf-0ffe3c1ce962","ios":"levelo://app?vid=9bbb1d6c-e639-4aef-92cf-0ffe3c1ce962"},"vehicle_type_id":"4","last_reported":1679594937,"current_range_meters":0,"station_id":"ce4bhh12rcd13ifvqfg0","pricing_plan_id":"free"},{"bike_id":"d745697e-1989-47d5-8967-d551d3fd9a6f","system_id":"levelo_inurba_marseille","lat":43.267849,"lon":5.394193,"is_reserved":false,"is_disabled":false,"rental_uris":{"android":"levelo://app?vid=d745697e-1989-47d5-8967-d551d3fd9a6f","ios":"levelo://app?vid=d745697e-1989-47d5-8967-d551d3fd9a6f"},"vehicle_type_id":"4","last_reported":1679594937,"current_range_meters":11200,"station_id":"","pricing_plan_id":"free"},{"bike_id":"83279b7d-9af0-4752-8799-b852f342ecf7","system_id":"levelo_inurba_marseille","lat":43.30795,"lon":5.43525,"is_reserved":false,"is_disabled":false,"rental_uris":{"android":"levelo://app?vid=83279b7d-9af0-4752-8799-b852f342ecf7","ios":"levelo://app?vid=83279b7d-9af0-4752-8799-b852f342ecf7"},"vehicle_type_id":"4","last_reported":1679594937,"current_range_meters":0,"station_id":"ce4bhph2rcd13ifvqheg","pricing_plan_id":"free"},{"bike_id":"9d399808-6296-4164-98be-57e06ff1b5e5","system_id":"levelo_inurba_marseille","lat":43.26231,"lon":5.37479,"is_reserved":false,"is_disabled":false,"rental_uris":{"android":"levelo://app?vid=9d399808-6296-4164-98be-57e06ff1b5e5","ios":"levelo://app?vid=9d399808-6296-4164-98be-57e06ff1b5e5"},"vehicle_type_id":"4","last_reported":1679594937,"current_range_meters":0,"station_id":"","pricing_plan_id":"free"},{"bike_id":"7fcf39d6-4c41-499d-8080-c27d55cddc62","system_id":"levelo_inurba_marseille","lat":43.33182,"lon":5.43177,"is_reserved":false,"is_disabled":false,"rental_uris":{"android":"levelo://app?vid=7fcf39d6-4c41-499d-8080-c27d55cddc62","ios":"levelo://app?vid=7fcf39d6-4c41-499d-8080-c27d55cddc62"},"vehicle_type_id":"4","last_reported":1679594937,"current_range_meters":16800,"station_id":"","pricing_plan_id":"free"},{"bike_id":"bd0fb85f-495f-47eb-bb1d-826097303468","system_id":"levelo_inurba_marseille","lat":43.261782,"lon":5.374515,"is_reserved":false,"is_disabled":false,"rental_uris":{"android":"levelo://app?vid=bd0fb85f-495f-47eb-bb1d-826097303468","ios":"levelo://app?vid=bd0fb85f-495f-47eb-bb1d-826097303468"},"vehicle_type_id":"4","last_reported":1679594937,"current_range_meters":29600,"station_id":"ce4bhgp2rcd13ifvqfc0","pricing_plan_id":"free"},{"bike_id":"285e02d5-9ed9-476f-88a1-c345e530303c","system_id":"levelo_inurba_marseille","lat":43.261782,"lon":5.374515,"is_reserved":false,"is_disabled":false,"rental_uris":{"android":"levelo://app?vid=285e02d5-9ed9-476f-88a1-c345e530303c","ios":"levelo://app?vid=285e02d5-9ed9-476f-88a1-c345e530303c"},"vehicle_type_id":"4","last_reported":1679594937,"current_range_meters":31600,"station_id":"ce4bhgp2rcd13ifvqfc0","pricing_plan_id":"free"},{"bike_id":"2835f2d4-d341-4eb4-9f5d-a6206ed85930","system_id":"levelo_inurba_marseille","lat":43.31712,"lon":5.43702,"is_reserved":false,"is_disabled":false,"rental_uris":{"android":"levelo://app?vid=2835f2d4-d341-4eb4-9f5d-a6206ed85930","ios":"levelo://app?vid=2835f2d4-d341-4eb4-9f5d-a6206ed85930"},"vehicle_type_id":"4","last_reported":1679594937,"current_range_meters":25200,"station_id":"","pricing_plan_id":"free"},{"bike_id":"3fc3337e-5621-49cf-8d65-ef3bd57f4c5c","system_id":"levelo_inurba_marseille","lat":43.261782,"lon":5.374515,"is_reserved":false,"is_disabled":false,"rental_uris":{"android":"levelo://app?vid=3fc3337e-5621-49cf-8d65-ef3bd57f4c5c","ios":"levelo://app?vid=3fc3337e-5621-49cf-8d65-ef3bd57f4c5c"},"vehicle_type_id":"4","last_reported":1679594937,"current_range_meters":30400,"station_id":"ce4bhgp2rcd13ifvqfc0","pricing_plan_id":"free"},{"bike_id":"fd3f84da-a242-4b5c-9b35-d91993112227","system_id":"levelo_inurba_marseille","lat":43.261782,"lon":5.374515,"is_reserved":false,"is_disabled":false,"rental_uris":{"android":"levelo://app?vid=fd3f84da-a242-4b5c-9b35-d91993112227","ios":"levelo://app?vid=fd3f84da-a242-4b5c-9b35-d91993112227"},"vehicle_type_id":"4","last_reported":1679594937,"current_range_meters":24400,"station_id":"ce4bhgp2rcd13ifvqfc0","pricing_plan_id":"free"},{"bike_id":"2b1715dc-4795-438b-9771-35de9f30d39e","system_id":"levelo_inurba_marseille","lat":43.31711,"lon":5.43705,"is_reserved":false,"is_disabled":false,"rental_uris":{"android":"levelo://app?vid=2b1715dc-4795-438b-9771-35de9f30d39e","ios":"levelo://app?vid=2b1715dc-4795-438b-9771-35de9f30d39e"},"vehicle_type_id":"4","last_reported":1679594937,"current_range_meters":17600,"station_id":"ce4bhp92rcd13ifvqhcg","pricing_plan_id":"free"},{"bike_id":"40495e69-3db2-47f7-b72f-1868b3d15117","system_id":"levelo_inurba_marseille","lat":43.31716,"lon":5.43707,"is_reserved":false,"is_disabled":false,"rental_uris":{"android":"levelo://app?vid=40495e69-3db2-47f7-b72f-1868b3d15117","ios":"levelo://app?vid=40495e69-3db2-47f7-b72f-1868b3d15117"},"vehicle_type_id":"4","last_reported":1679594937,"current_range_meters":16400,"station_id":"ce4bhp92rcd13ifvqhcg","pricing_plan_id":"free"},{"bike_id":"96aa5c6d-8ec9-4cbd-bc8d-d4d68fb53f6b","system_id":"levelo_inurba_marseille","lat":43.299017,"lon":5.43662,"is_reserved":false,"is_disabled":false,"rental_uris":{"android":"levelo://app?vid=96aa5c6d-8ec9-4cbd-bc8d-d4d68fb53f6b","ios":"levelo://app?vid=96aa5c6d-8ec9-4cbd-bc8d-d4d68fb53f6b"},"vehicle_type_id":"4","last_reported":1679594937,"current_range_meters":17600,"station_id":"","pricing_plan_id":"free"},{"bike_id":"80038052-3df1-429e-830a-7ea59979b9df","system_id":"levelo_inurba_marseille","lat":43.255756,"lon":5.382303,"is_reserved":false,"is_disabled":false,"rental_uris":{"android":"levelo://app?vid=80038052-3df1-429e-830a-7ea59979b9df","ios":"levelo://app?vid=80038052-3df1-429e-830a-7ea59979b9df"},"vehicle_type_id":"4","last_reported":1679594937,"current_range_meters":17200,"station_id":"ce4bhih2rcd13ifvqfs0","pricing_plan_id":"free"},{"bike_id":"5d52dd20-3d1c-4234-8b9b-c73c4e4135f8","system_id":"levelo_inurba_marseille","lat":43.255756,"lon":5.382303,"is_reserved":false,"is_disabled":false,"rental_uris":{"android":"levelo://app?vid=5d52dd20-3d1c-4234-8b9b-c73c4e4135f8","ios":"levelo://app?vid=5d52dd20-3d1c-4234-8b9b-c73c4e4135f8"},"vehicle_type_id":"4","last_reported":1679594937,"current_range_meters":18800,"station_id":"ce4bhih2rcd13ifvqfs0","pricing_plan_id":"free"},{"bike_id":"2745d0d8-bce8-4df6-98d9-c9b7a2684518","system_id":"levelo_inurba_marseille","lat":43.2479,"lon":5.374457,"is_reserved":false,"is_disabled":false,"rental_uris":{"android":"levelo://app?vid=2745d0d8-bce8-4df6-98d9-c9b7a2684518","ios":"levelo://app?vid=2745d0d8-bce8-4df6-98d9-c9b7a2684518"},"vehicle_type_id":"4","last_reported":1679594937,"current_range_meters":20400,"station_id":"ce4bhgh2rcd13ifvqfb0","pricing_plan_id":"free"},{"bike_id":"c8878f12-530a-49dc-b0d0-87d0b93c1090","system_id":"levelo_inurba_marseille","lat":43.2479,"lon":5.374457,"is_reserved":false,"is_disabled":false,"rental_uris":{"android":"levelo://app?vid=c8878f12-530a-49dc-b0d0-87d0b93c1090","ios":"levelo://app?vid=c8878f12-530a-49dc-b0d0-87d0b93c1090"},"vehicle_type_id":"4","last_reported":1679594937,"current_range_meters":5600,"station_id":"ce4bhgh2rcd13ifvqfb0","pricing_plan_id":"free"},{"bike_id":"7a536f07-5345-4986-acbc-ff9c50a4ad59","system_id":"levelo_inurba_marseille","lat":43.250796,"lon":5.395433,"is_reserved":false,"is_disabled":false,"rental_uris":{"android":"levelo://app?vid=7a536f07-5345-4986-acbc-ff9c50a4ad59","ios":"levelo://app?vid=7a536f07-5345-4986-acbc-ff9c50a4ad59"},"vehicle_type_id":"4","last_reported":1679594937,"current_range_meters":2400,"station_id":"ce4bhm12rcd13ifvqgkg","pricing_plan_id":"free"},{"bike_id":"3e0f2867-0147-44de-a331-a48834d5f72c","system_id":"levelo_inurba_marseille","lat":43.251206,"lon":5.403253,"is_reserved":false,"is_disabled":false,"rental_uris":{"android":"levelo://app?vid=3e0f2867-0147-44de-a331-a48834d5f72c","ios":"levelo://app?vid=3e0f2867-0147-44de-a331-a48834d5f72c"},"vehicle_type_id":"4","last_reported":1679594937,"current_range_meters":0,"station_id":"ce4bhlh2rcd13ifvqgig","pricing_plan_id":"free"},{"bike_id":"c803ffd0-f95a-4151-a476-92a4aa44e04a","system_id":"levelo_inurba_marseille","lat":43.246467,"lon":5.388984,"is_reserved":false,"is_disabled":false,"rental_uris":{"android":"levelo://app?vid=c803ffd0-f95a-4151-a476-92a4aa44e04a","ios":"levelo://app?vid=c803ffd0-f95a-4151-a476-92a4aa44e04a"},"vehicle_type_id":"4","last_reported":1679594937,"current_range_meters":18000,"station_id":"ce4bhg12rcd13ifvqf60","pricing_plan_id":"free"},{"bike_id":"82e92429-5831-4c15-b13c-3062020e885d","system_id":"levelo_inurba_marseille","lat":43.239588,"lon":5.366238,"is_reserved":false,"is_disabled":false,"rental_uris":{"android":"levelo://app?vid=82e92429-5831-4c15-b13c-3062020e885d","ios":"levelo://app?vid=82e92429-5831-4c15-b13c-3062020e885d"},"vehicle_type_id":"4","last_reported":1679594937,"current_range_meters":23600,"station_id":"ce4bhi12rcd13ifvqfp0","pricing_plan_id":"free"},{"bike_id":"3c5d66d2-3540-4b24-9d97-a0ee886c2e4b","system_id":"levelo_inurba_marseille","lat":43.23965,"lon":5.36631,"is_reserved":false,"is_disabled":false,"rental_uris":{"android":"levelo://app?vid=3c5d66d2-3540-4b24-9d97-a0ee886c2e4b","ios":"levelo://app?vid=3c5d66d2-3540-4b24-9d97-a0ee886c2e4b"},"vehicle_type_id":"4","last_reported":1679594937,"current_range_meters":0,"station_id":"","pricing_plan_id":"free"},{"bike_id":"8102c66c-ee20-4da3-bf70-8ab9e9cafbeb","system_id":"levelo_inurba_marseille","lat":43.241782,"lon":5.397264,"is_reserved":false,"is_disabled":false,"rental_uris":{"android":"levelo://app?vid=8102c66c-ee20-4da3-bf70-8ab9e9cafbeb","ios":"levelo://app?vid=8102c66c-ee20-4da3-bf70-8ab9e9cafbeb"},"vehicle_type_id":"4","last_reported":1679594937,"current_range_meters":2400,"station_id":"ce4bhn12rcd13ifvqgpg","pricing_plan_id":"free"},{"bike_id":"0910d022-0caf-42bd-8365-ae16375c0512","system_id":"levelo_inurba_marseille","lat":43.241812,"lon":5.39732,"is_reserved":false,"is_disabled":false,"rental_uris":{"android":"levelo://app?vid=0910d022-0caf-42bd-8365-ae16375c0512","ios":"levelo://app?vid=0910d022-0caf-42bd-8365-ae16375c0512"},"vehicle_type_id":"4","last_reported":1679594937,"current_range_meters":12800,"station_id":"","pricing_plan_id":"free"},{"bike_id":"a9f33206-234b-4242-a6bf-da4ee26ae16e","system_id":"levelo_inurba_marseille","lat":43.24179,"lon":5.39728,"is_reserved":false,"is_disabled":false,"rental_uris":{"android":"levelo://app?vid=a9f33206-234b-4242-a6bf-da4ee26ae16e","ios":"levelo://app?vid=a9f33206-234b-4242-a6bf-da4ee26ae16e"},"vehicle_type_id":"4","last_reported":1679594937,"current_range_meters":13600,"station_id":"","pricing_plan_id":"free"},{"bike_id":"044bed48-ac1c-4446-999d-3689d6fda8f7","system_id":"levelo_inurba_marseille","lat":43.24177,"lon":5.39724,"is_reserved":false,"is_disabled":false,"rental_uris":{"android":"levelo://app?vid=044bed48-ac1c-4446-999d-3689d6fda8f7","ios":"levelo://app?vid=044bed48-ac1c-4446-999d-3689d6fda8f7"},"vehicle_type_id":"4","last_reported":1679594937,"current_range_meters":2800,"station_id":"ce4bhn12rcd13ifvqgpg","pricing_plan_id":"free"},{"bike_id":"53734f53-3ac0-49af-9dc1-b8ffb67ba7ab","system_id":"levelo_inurba_marseille","lat":43.231919,"lon":5.355532,"is_reserved":false,"is_disabled":false,"rental_uris":{"android":"levelo://app?vid=53734f53-3ac0-49af-9dc1-b8ffb67ba7ab","ios":"levelo://app?vid=53734f53-3ac0-49af-9dc1-b8ffb67ba7ab"},"vehicle_type_id":"4","last_reported":1679594937,"current_range_meters":17600,"station_id":"ce4bhu92rcd13ifvqi70","pricing_plan_id":"free"},{"bike_id":"0fe2ef92-f6b1-4cf4-a23a-a8885fa4a0d2","system_id":"levelo_inurba_marseille","lat":43.231923,"lon":5.355545,"is_reserved":false,"is_disabled":false,"rental_uris":{"android":"levelo://app?vid=0fe2ef92-f6b1-4cf4-a23a-a8885fa4a0d2","ios":"levelo://app?vid=0fe2ef92-f6b1-4cf4-a23a-a8885fa4a0d2"},"vehicle_type_id":"4","last_reported":1679594937,"current_range_meters":32000,"station_id":"ce4bhu92rcd13ifvqi70","pricing_plan_id":"free"},{"bike_id":"0fe18a6e-e5f7-47da-b33b-d78501b3ad7e","system_id":"levelo_inurba_marseille","lat":43.231923,"lon":5.355545,"is_reserved":false,"is_disabled":false,"rental_uris":{"android":"levelo://app?vid=0fe18a6e-e5f7-47da-b33b-d78501b3ad7e","ios":"levelo://app?vid=0fe18a6e-e5f7-47da-b33b-d78501b3ad7e"},"vehicle_type_id":"4","last_reported":1679594937,"current_range_meters":8000,"station_id":"ce4bhu92rcd13ifvqi70","pricing_plan_id":"free"}]}}