{"last_updated":1730387333,"ttl":60,"version":"2.2","data":{"bikes":[{"bike_id":"84895f46-6b9d-4cab-8712-af8d240188ca","system_id":"levelo_inurba_marseille","lat":43.29966,"lon":5.38489,"is_reserved":false,"is_disabled":false,"rental_uris":{"android":"levelo://app?vid=84895f46-6b9d-4cab-8712-af8d240188ca","ios":"levelo://app?vid=84895f46-6b9d-4cab-8712-af8d240188ca"},"vehicle_type_id":"4","last_reported":1730387333,"current_range_meters":19200,"station_id":"ce4bgj92rcd13ifvqbd0","pricing_plan_id":"cebpf4jnsgd1na2vs0mg"},{"bike_id":"e36513f8-eb97-4b97-ab7b-45b82b211f60","system_id":"levelo_inurba_marseille","lat":43.25576,"lon":5.38254,"is_reserved":false,"is_disabled":false,"rental_uris":{"android":"levelo://app?vid=e36513f8-eb97-4b97-ab7b-45b82b211f60","ios":"levelo://app?vid=e36513f8-eb97-4b97-ab7b-45b82b211f60"},"vehicle_type_id":"4","last_reported":1730387333,"current_range_meters":38800,"station_id":"ce4bhih2rcd13ifvqfs0","pricing_plan_id":"cebpf4jnsgd1na2vs0mg"},{"bike_id":"313a1616-f9f2-4d16-a928-eb2c875662ce","system_id":"levelo_inurba_marseille","lat":43.30139,"lon":5.3743,"is_reserved":false,"is_disabled":false,"rental_uris":{"android":"levelo://app?vid=313a1616-f9f2-4d16-a928-eb2c875662ce","ios":"levelo://app?vid=313a1616-f9f2-4d16-a928-eb2c875662ce"},"vehicle_type_id":"4","last_reported":1730387333,"current_range_meters":37600,"station_id":"ce4bgs92rcd13ifvqcc0","pricing_plan_id":"cebpf4jnsgd1na2vs0mg"},{"bike_id":"f64c1e7d-3ae9-4dfc-8ec2-0a90d036364f","system_id":"levelo_inurba_marseille","lat":43.32117,"lon":5.36774,"is_reserved":false,"is_disabled":false,"rental_uris":{"android":"levelo://app?vid=f64c1e7d-3ae9-4dfc-8ec2-0a90d036364f","ios":"levelo://app?vid=f64c1e7d-3ae9-4dfc-8ec2-0a90d036364f"},"vehicle_type_id":"4","last_reported":1730387333,"current_range_meters":21600,"station_id":"ce4bhrh2rcd13ifvqhug","pricing_plan_id":"cebpf4jnsgd1na2vs0mg"},{"bike_id":"06512352-6143-4529-a7a6-8b0eb922906a","system_id":"levelo_inurba_marseille","lat":43.28276,"lon":5.35085,"is_reserved":false,"is_disabled":false,"rental_uris":{"android":"levelo://app?vid=06512352-6143-4529-a7a6-8b0eb922906a","ios":"levelo://app?vid=06512352-6143-4529-a7a6-8b0eb922906a"},"vehicle_type_id":"4","last_reported":1730387333,"current_range_meters":38000,"station_id":"ce4bhbp2rcd13ifvqerg","pricing_plan_id":"cebpf4jnsgd1na2vs0mg"},{"bike_id":"8912a95d-e157-4d84-a948-2ece6fc0cbe4","system_id":"levelo_inurba_marseille","lat":43.30911,"lon":5.36847,"is_reserved":false,"is_disabled":false,"rental_uris":{"android":"levelo://app?vid=8912a95d-e157-4d84-a948-2ece6fc0cbe4","ios":"levelo://app?vid=8912a95d-e157-4d84-a948-2ece6fc0cbe4"},"vehicle_type_id":"4","last_reported":1730387333,"current_range_meters":36800,"station_id":"ce4bgn92rcd13ifvqbvg","pricing_plan_id":"cebpf4jnsgd1na2vs0mg"},{"bike_id":"d59a18a0-5fce-42b7-90a9-6660d4e49268","system_id":"levelo_inurba_marseille","lat":43.27668,"lon":5.38893,"is_reserved":false,"is_disabled":false,"rental_uris":{"android":"levelo://app?vid=d59a18a0-5fce-42b7-90a9-6660d4e49268","ios":"levelo://app?vid=d59a18a0-5fce-42b7-90a9-6660d4e49268"},"vehicle_type_id":"4","last_reported":1730387333,"current_range_meters":16000,"station_id":"ce4bhi12rcd13ifvqfo0","pricing_plan_id":"cebpf4jnsgd1na2vs0mg"},{"bike_id":"7dfedf04-79a0-4f5c-b668-ba5afd0b54b1","system_id":"levelo_inurba_marseille","lat":43.29016,"lon":5.38134,"is_reserved":false,"is_disabled":false,"rental_uris":{"android":"levelo://app?vid=7dfedf04-79a0-4f5c-b668-ba5afd0b54b1","ios":"levelo://app?vid=7dfedf04-79a0-4f5c-b668-ba5afd0b54b1"},"vehicle_type_id":"4","last_reported":1730387333,"current_range_meters":38800,"station_id":"ce4bh4p2rcd13ifvqe1g","pricing_plan_id":"cebpf4jnsgd1na2vs0mg"},{"bike_id":"520f9865-51fd-4430-965c-029e07083292","system_id":"levelo_inurba_marseille","lat":43.299185,"lon":5.371921,"is_reserved":false,"is_disabled":false,"rental_uris":{"android":"levelo://app?vid=520f9865-51fd-4430-965c-029e07083292","ios":"levelo://app?vid=520f9865-51fd-4430-965c-029e07083292"},"vehicle_type_id":"4","last_reported":1730387333,"current_range_meters":35600,"station_id":"ce4bhop2rcd13ifvqh7g","pricing_plan_id":"cebpf4jnsgd1na2vs0mg"},{"bike_id":"04d03c68-c530-4087-bc28-2a8a8b292542","system_id":"levelo_inurba_marseille","lat":43.30925,"lon":5.40151,"is_reserved":false,"is_disabled":false,"rental_uris":{"android":"levelo://app?vid=04d03c68-c530-4087-bc28-2a8a8b292542","ios":"levelo://app?vid=04d03c68-c530-4087-bc28-2a8a8b292542"},"vehicle_type_id":"4","last_reported":1730387333,"current_range_meters":28400,"station_id":"ce4bgvp2rcd13ifvqct0","pricing_plan_id":"cebpf4jnsgd1na2vs0mg"},{"bike_id":"07820443-b363-4860-a315-08b328e274f1","system_id":"levelo_inurba_marseille","lat":43.290466,"lon":5.359164,"is_reserved":false,"is_disabled":false,"rental_uris":{"android":"levelo://app?vid=07820443-b363-4860-a315-08b328e274f1","ios":"levelo://app?vid=07820443-b363-4860-a315-08b328e274f1"},"vehicle_type_id":"4","last_reported":1730387333,"current_range_meters":10800,"station_id":"ce4bha92rcd13ifvqeg0","pricing_plan_id":"cebpf4jnsgd1na2vs0mg"},{"bike_id":"2712b0b0-b2e2-461b-a5ec-bb9d323a0ea3","system_id":"levelo_inurba_marseille","lat":43.23159,"lon":5.43708,"is_reserved":false,"is_disabled":false,"rental_uris":{"android":"levelo://app?vid=2712b0b0-b2e2-461b-a5ec-bb9d323a0ea3","ios":"levelo://app?vid=2712b0b0-b2e2-461b-a5ec-bb9d323a0ea3"},"vehicle_type_id":"4","last_reported":1730387333,"current_range_meters":38800,"station_id":"ce4bhmp2rcd13ifvqgog","pricing_plan_id":"cebpf4jnsgd1na2vs0mg"},{"bike_id":"5a630d2f-334a-434e-9444-556db0f632d1","system_id":"levelo_inurba_marseille","lat":43.30214,"lon":5.39467,"is_reserved":false,"is_disabled":false,"rental_uris":{"android":"levelo://app?vid=5a630d2f-334a-434e-9444-556db0f632d1","ios":"levelo://app?vid=5a630d2f-334a-434e-9444-556db0f632d1"},"vehicle_type_id":"4","last_reported":1730387333,"current_range_meters":18800,"station_id":"ce4bh0p2rcd13ifvqd70","pricing_plan_id":"cebpf4jnsgd1na2vs0mg"},{"bike_id":"a4627486-a087-47d1-bdea-e9476cd49986","system_id":"levelo_inurba_marseille","lat":43.23193,"lon":5.35548,"is_reserved":false,"is_disabled":false,"rental_uris":{"android":"levelo://app?vid=a4627486-a087-47d1-bdea-e9476cd49986","ios":"levelo://app?vid=a4627486-a087-47d1-bdea-e9476cd49986"},"vehicle_type_id":"4","last_reported":1730387333,"current_range_meters":4400,"station_id":"ce4bhu92rcd13ifvqi70","pricing_plan_id":"cebpf4jnsgd1na2vs0mg"},{"bike_id":"a4913636-2ab4-4f65-b3b2-827376776b2c","system_id":"levelo_inurba_marseille","lat":43.22931,"lon":5.35372,"is_reserved":false,"is_disabled":false,"rental_uris":{"android":"levelo://app?vid=a4913636-2ab4-4f65-b3b2-827376776b2c","ios":"levelo://app?vid=a4913636-2ab4-4f65-b3b2-827376776b2c"},"vehicle_type_id":"4","last_reported":1730387333,"current_range_meters":13600,"station_id":"cpo3532slgdg3j2ikp40","pricing_plan_id":"cebpf4jnsgd1na2vs0mg"},{"bike_id":"a9d67b9a-1c09-4579-b77b-7dcf428eee18","system_id":"levelo_inurba_marseille","lat":43.26981,"lon":5.39872,"is_reserved":false,"is_disabled":false,"rental_uris":{"android":"levelo://app?vid=a9d67b9a-1c09-4579-b77b-7dcf428eee18","ios":"levelo://app?vid=a9d67b9a-1c09-4579-b77b-7dcf428eee18"},"vehicle_type_id":"4","last_reported":1730387333,"current_range_meters":9200,"station_id":"","pricing_plan_id":"cebpf4jnsgd1na2vs0mg"},{"bike_id":"e92bde07-4e72-4ad1-a867-21ee386cc291","system_id":"levelo_inurba_marseille","lat":43.30816,"lon":5.40013,"is_reserved":false,"is_disabled":false,"rental_uris":{"android":"levelo://app?vid=e92bde07-4e72-4ad1-a867-21ee386cc291","ios":"levelo://app?vid=e92bde07-4e72-4ad1-a867-21ee386cc291"},"vehicle_type_id":"4","last_reported":1730387333,"current_range_meters":35200,"station_id":"ce4bh012rcd13ifvqcv0","pricing_plan_id":"cebpf4jnsgd1na2vs0mg"},{"bike_id":"bff3f281-b5bd-40ee-8f6c-67a2955c64f3","system_id":"levelo_inurba_marseille","lat":43.323364,"lon":5.367411,"is_reserved":false,"is_disabled":false,"rental_uris":{"android":"levelo://app?vid=bff3f281-b5bd-40ee-8f6c-67a2955c64f3","ios":"levelo://app?vid=bff3f281-b5bd-40ee-8f6c-67a2955c64f3"},"vehicle_type_id":"4","last_reported":1730387333,"current_range_meters":2800,"station_id":"ce4bhs12rcd13ifvqhvg","pricing_plan_id":"cebpf4jnsgd1na2vs0mg"},{"bike_id":"4075e605-7e2d-4335-883e-4292dc011012","system_id":"levelo_inurba_marseille","lat":43.23963,"lon":5.36631,"is_reserved":false,"is_disabled":false,"rental_uris":{"android":"levelo://app?vid=4075e605-7e2d-4335-883e-4292dc011012","ios":"levelo://app?vid=4075e605-7e2d-4335-883e-4292dc011012"},"vehicle_type_id":"4","last_reported":1730387333,"current_range_meters":3200,"station_id":"ce4bhi12rcd13ifvqfp0","pricing_plan_id":"cebpf4jnsgd1na2vs0mg"},{"bike_id":"604871c7-01b3-4e91-ad66-3472f5cb2bd9","system_id":"levelo_inurba_marseille","lat":43.24166,"lon":5.36395,"is_reserved":false,"is_disabled":false,"rental_uris":{"android":"levelo://app?vid=604871c7-01b3-4e91-ad66-3472f5cb2bd9","ios":"levelo://app?vid=604871c7-01b3-4e91-ad66-3472f5cb2bd9"},"vehicle_type_id":"4","last_reported":1730387333,"current_range_meters":32000,"station_id":"cpo36qri1sfpv3e86is0","pricing_plan_id":"cebpf4jnsgd1na2vs0mg"},{"bike_id":"66f87c05-90dc-43a7-acd2-2870fbee0cc8","system_id":"levelo_inurba_marseille","lat":43.23151,"lon":5.43715,"is_reserved":false,"is_disabled":false,"rental_uris":{"android":"levelo://app?vid=66f87c05-90dc-43a7-acd2-2870fbee0cc8","ios":"levelo://app?vid=66f87c05-90dc-43a7-acd2-2870fbee0cc8"},"vehicle_type_id":"4","last_reported":1730387333,"current_range_meters":37600,"station_id":"ce4bhmp2rcd13ifvqgog","pricing_plan_id":"cebpf4jnsgd1na2vs0mg"},{"bike_id":"4a3b511d-83ca-4eb6-8608-09c624a528ad","system_id":"levelo_inurba_marseille","lat":43.30421,"lon":5.39746,"is_reserved":false,"is_disabled":false,"rental_uris":{"android":"levelo://app?vid=4a3b511d-83ca-4eb6-8608-09c624a528ad","ios":"levelo://app?vid=4a3b511d-83ca-4eb6-8608-09c624a528ad"},"vehicle_type_id":"4","last_reported":1730387333,"current_range_meters":38800,"station_id":"ce4bh092rcd13ifvqd20","pricing_plan_id":"cebpf4jnsgd1na2vs0mg"},{"bike_id":"78c92784-8cfa-44dc-a54b-81a6da07add0","system_id":"levelo_inurba_marseille","lat":43.31758,"lon":5.39021,"is_reserved":false,"is_disabled":false,"rental_uris":{"android":"levelo://app?vid=78c92784-8cfa-44dc-a54b-81a6da07add0","ios":"levelo://app?vid=78c92784-8cfa-44dc-a54b-81a6da07add0"},"vehicle_type_id":"4","last_reported":1730387333,"current_range_meters":30800,"station_id":"ce4bhqp2rcd13ifvqhng","pricing_plan_id":"cebpf4jnsgd1na2vs0mg"},{"bike_id":"88321489-3b57-41fa-a3f9-9a4dc3764056","system_id":"levelo_inurba_marseille","lat":43.30322,"lon":5.40443,"is_reserved":false,"is_disabled":false,"rental_uris":{"android":"levelo://app?vid=88321489-3b57-41fa-a3f9-9a4dc3764056","ios":"levelo://app?vid=88321489-3b57-41fa-a3f9-9a4dc3764056"},"vehicle_type_id":"4","last_reported":1730387333,"current_range_meters":36800,"station_id":"ce4bh012rcd13ifvqd10","pricing_plan_id":"cebpf4jnsgd1na2vs0mg"},{"bike_id":"76d91a88-7655-4e1c-ac52-cd5978684825","system_id":"levelo_inurba_marseille","lat":43.28443,"lon":5.39205,"is_reserved":false,"is_disabled":false,"rental_uris":{"android":"levelo://app?vid=76d91a88-7655-4e1c-ac52-cd5978684825","ios":"levelo://app?vid=76d91a88-7655-4e1c-ac52-cd5978684825"},"vehicle_type_id":"4","last_reported":1730387333,"current_range_meters":38800,"station_id":"ce4bhoh2rcd13ifvqh5g","pricing_plan_id":"cebpf4jnsgd1na2vs0mg"},{"bike_id":"ca91e513-3636-4985-81f3-2345d91ed905","system_id":"levelo_inurba_marseille","lat":43.2816,"lon":5.42642,"is_reserved":false,"is_disabled":false,"rental_uris":{"android":"levelo://app?vid=ca91e513-3636-4985-81f3-2345d91ed905","ios":"levelo://app?vid=ca91e513-3636-4985-81f3-2345d91ed905"},"vehicle_type_id":"4","last_reported":1730387333,"current_range_meters":14000,"station_id":"ce4bhnh2rcd13ifvqgug","pricing_plan_id":"cebpf4jnsgd1na2vs0mg"},{"bike_id":"b5297106-f719-424e-8021-d5c77e9265b0","system_id":"levelo_inurba_marseille","lat":43.26781,"lon":5.39422,"is_reserved":false,"is_disabled":false,"rental_uris":{"android":"levelo://app?vid=b5297106-f719-424e-8021-d5c77e9265b0","ios":"levelo://app?vid=b5297106-f719-424e-8021-d5c77e9265b0"},"vehicle_type_id":"4","last_reported":1730387333,"current_range_meters":31200,"station_id":"ce4bhh12rcd13ifvqfg0","pricing_plan_id":"cebpf4jnsgd1na2vs0mg"},{"bike_id":"afbec1bb-de9a-44a7-8d54-54d3b4ede0c9","system_id":"levelo_inurba_marseille","lat":43.28949,"lon":5.36649,"is_reserved":false,"is_disabled":false,"rental_uris":{"android":"levelo://app?vid=afbec1bb-de9a-44a7-8d54-54d3b4ede0c9","ios":"levelo://app?vid=afbec1bb-de9a-44a7-8d54-54d3b4ede0c9"},"vehicle_type_id":"4","last_reported":1730387333,"current_range_meters":18800,"station_id":"ce4bhap2rcd13ifvqek0","pricing_plan_id":"cebpf4jnsgd1na2vs0mg"},{"bike_id":"e9f858b0-cdd1-4176-b45d-7c3678cc4590","system_id":"levelo_inurba_marseille","lat":43.31324,"lon":5.39688,"is_reserved":false,"is_disabled":false,"rental_uris":{"android":"levelo://app?vid=e9f858b0-cdd1-4176-b45d-7c3678cc4590","ios":"levelo://app?vid=e9f858b0-cdd1-4176-b45d-7c3678cc4590"},"vehicle_type_id":"4","last_reported":1730387333,"current_range_meters":38800,"station_id":"ce4bgvp2rcd13ifvqcu0","pricing_plan_id":"cebpf4jnsgd1na2vs0mg"},{"bike_id":"cc7cadc1-8d81-45c5-8f06-ecf4f9e7c90f","system_id":"levelo_inurba_marseille","lat":43.28346,"lon":5.38106,"is_reserved":false,"is_disabled":false,"rental_uris":{"android":"levelo://app?vid=cc7cadc1-8d81-45c5-8f06-ecf4f9e7c90f","ios":"levelo://app?vid=cc7cadc1-8d81-45c5-8f06-ecf4f9e7c90f"},"vehicle_type_id":"4","last_reported":1730387333,"current_range_meters":29600,"station_id":"ce4bh412rcd13ifvqdr0","pricing_plan_id":"cebpf4jnsgd1na2vs0mg"},{"bike_id":"516078c7-5dda-49bb-babc-50d50be44140","system_id":"levelo_inurba_marseille","lat":43.27621,"lon":5.36113,"is_reserved":false,"is_disabled":false,"rental_uris":{"android":"levelo://app?vid=516078c7-5dda-49bb-babc-50d50be44140","ios":"levelo://app?vid=516078c7-5dda-49bb-babc-50d50be44140"},"vehicle_type_id":"4","last_reported":1730387333,"current_range_meters":38800,"station_id":"ce4bgj92rcd13ifvqbe0","pricing_plan_id":"cebpf4jnsgd1na2vs0mg"},{"bike_id":"02bc29e1-9976-44ef-bcb8-2f90d43f13d4","system_id":"levelo_inurba_marseille","lat":43.29008,"lon":5.35621,"is_reserved":false,"is_disabled":false,"rental_uris":{"android":"levelo://app?vid=02bc29e1-9976-44ef-bcb8-2f90d43f13d4","ios":"levelo://app?vid=02bc29e1-9976-44ef-bcb8-2f90d43f13d4"},"vehicle_type_id":"4","last_reported":1730387333,"current_range_meters":32000,"station_id":"ce4bhb92rcd13ifvqen0","pricing_plan_id":"cebpf4jnsgd1na2vs0mg"},{"bike_id":"e0e744e2-eedf-4229-8362-08094ce9bf30","system_id":"levelo_inurba_marseille","lat":43.28424,"lon":5.3499,"is_reserved":false,"is_disabled":false,"rental_uris":{"android":"levelo://app?vid=e0e744e2-eedf-4229-8362-08094ce9bf30","ios":"levelo://app?vid=e0e744e2-eedf-4229-8362-08094ce9bf30"},"vehicle_type_id":"4","last_reported":1730387333,"current_range_meters":27600,"station_id":"ce4bhbh2rcd13ifvqepg","pricing_plan_id":"cebpf4jnsgd1na2vs0mg"},{"bike_id":"2b8eae71-efb7-4f87-a4bb-f9cdbea3c95a","system_id":"levelo_inurba_marseille","lat":43.25721,"lon":5.41114,"is_reserved":false,"is_disabled":false,"rental_uris":{"android":"levelo://app?vid=2b8eae71-efb7-4f87-a4bb-f9cdbea3c95a","ios":"levelo://app?vid=2b8eae71-efb7-4f87-a4bb-f9cdbea3c95a"},"vehicle_type_id":"4","last_reported":1730387333,"current_range_meters":14400,"station_id":"ce4bhkp2rcd13ifvqgd0","pricing_plan_id":"cebpf4jnsgd1na2vs0mg"},{"bike_id":"ac2eccd0-69ff-4ddb-ac24-7558056fa7be","system_id":"levelo_inurba_marseille","lat":43.24171,"lon":5.36399,"is_reserved":false,"is_disabled":false,"rental_uris":{"android":"levelo://app?vid=ac2eccd0-69ff-4ddb-ac24-7558056fa7be","ios":"levelo://app?vid=ac2eccd0-69ff-4ddb-ac24-7558056fa7be"},"vehicle_type_id":"4","last_reported":1730387333,"current_range_meters":22400,"station_id":"cpo36qri1sfpv3e86is0","pricing_plan_id":"cebpf4jnsgd1na2vs0mg"},{"bike_id":"039237a1-62b7-49b0-b923-049575bce6ab","system_id":"levelo_inurba_marseille","lat":43.29199,"lon":5.35811,"is_reserved":false,"is_disabled":false,"rental_uris":{"android":"levelo://app?vid=039237a1-62b7-49b0-b923-049575bce6ab","ios":"levelo://app?vid=039237a1-62b7-49b0-b923-049575bce6ab"},"vehicle_type_id":"4","last_reported":1730387333,"current_range_meters":38800,"station_id":"ce4bhb12rcd13ifvqel0","pricing_plan_id":"cebpf4jnsgd1na2vs0mg"},{"bike_id":"997a96a5-d68a-4466-bc4c-f23b6552b4a1","system_id":"levelo_inurba_marseille","lat":43.26482,"lon":5.39558,"is_reserved":false,"is_disabled":false,"rental_uris":{"android":"levelo://app?vid=997a96a5-d68a-4466-bc4c-f23b6552b4a1","ios":"levelo://app?vid=997a96a5-d68a-4466-bc4c-f23b6552b4a1"},"vehicle_type_id":"4","last_reported":1730387333,"current_range_meters":26000,"station_id":"ce4bhi12rcd13ifvqfq0","pricing_plan_id":"cebpf4jnsgd1na2vs0mg"},{"bike_id":"42e61598-64ce-4f84-97eb-90c09ebd9abe","system_id":"levelo_inurba_marseille","lat":43.23188,"lon":5.39993,"is_reserved":false,"is_disabled":false,"rental_uris":{"android":"levelo://app?vid=42e61598-64ce-4f84-97eb-90c09ebd9abe","ios":"levelo://app?vid=42e61598-64ce-4f84-97eb-90c09ebd9abe"},"vehicle_type_id":"4","last_reported":1730387333,"current_range_meters":9600,"station_id":"ce4bhn12rcd13ifvqgqg","pricing_plan_id":"cebpf4jnsgd1na2vs0mg"},{"bike_id":"452e5b62-9524-4063-90f3-3ddacd1dae5b","system_id":"levelo_inurba_marseille","lat":43.27835,"lon":5.39202,"is_reserved":false,"is_disabled":false,"rental_uris":{"android":"levelo://app?vid=452e5b62-9524-4063-90f3-3ddacd1dae5b","ios":"levelo://app?vid=452e5b62-9524-4063-90f3-3ddacd1dae5b"},"vehicle_type_id":"4","last_reported":1730387333,"current_range_meters":17200,"station_id":"ce4bhjp2rcd13ifvqga0","pricing_plan_id":"cebpf4jnsgd1na2vs0mg"},{"bike_id":"4ae47121-b7c2-417f-b8c9-c44fb68ee2a5","system_id":"levelo_inurba_marseille","lat":43.29892,"lon":5.4367,"is_reserved":false,"is_disabled":false,"rental_uris":{"android":"levelo://app?vid=4ae47121-b7c2-417f-b8c9-c44fb68ee2a5","ios":"levelo://app?vid=4ae47121-b7c2-417f-b8c9-c44fb68ee2a5"},"vehicle_type_id":"4","last_reported":1730387333,"current_range_meters":17600,"station_id":"ce4bhpp2rcd13ifvqhfg","pricing_plan_id":"cebpf4jnsgd1na2vs0mg"},{"bike_id":"770f26af-6ee6-4b57-aa78-1f1b5414dce9","system_id":"levelo_inurba_marseille","lat":43.2867,"lon":5.36343,"is_reserved":false,"is_disabled":false,"rental_uris":{"android":"levelo://app?vid=770f26af-6ee6-4b57-aa78-1f1b5414dce9","ios":"levelo://app?vid=770f26af-6ee6-4b57-aa78-1f1b5414dce9"},"vehicle_type_id":"4","last_reported":1730387333,"current_range_meters":7200,"station_id":"ce4bhah2rcd13ifvqej0","pricing_plan_id":"cebpf4jnsgd1na2vs0mg"},{"bike_id":"c573c73f-75e4-475a-bcd6-666ce297695e","system_id":"levelo_inurba_marseille","lat":43.23187,"lon":5.39994,"is_reserved":false,"is_disabled":false,"rental_uris":{"android":"levelo://app?vid=c573c73f-75e4-475a-bcd6-666ce297695e","ios":"levelo://app?vid=c573c73f-75e4-475a-bcd6-666ce297695e"},"vehicle_type_id":"4","last_reported":1730387333,"current_range_meters":25600,"station_id":"ce4bhn12rcd13ifvqgqg","pricing_plan_id":"cebpf4jnsgd1na2vs0mg"},{"bike_id":"ffd60997-01db-4877-8c29-97ed39c0b0aa","system_id":"levelo_inurba_marseille","lat":43.26676,"lon":5.38268,"is_reserved":false,"is_disabled":false,"rental_uris":{"android":"levelo://app?vid=ffd60997-01db-4877-8c29-97ed39c0b0aa","ios":"levelo://app?vid=ffd60997-01db-4877-8c29-97ed39c0b0aa"},"vehicle_type_id":"4","last_reported":1730387333,"current_range_meters":3200,"station_id":"ce4bhg92rcd13ifvqf90","pricing_plan_id":"cebpf4jnsgd1na2vs0mg"},{"bike_id":"d109be9e-d203-46af-8bc7-1cc43a3fd2cd","system_id":"levelo_inurba_marseille","lat":43.29573,"lon":5.37521,"is_reserved":false,"is_disabled":false,"rental_uris":{"android":"levelo://app?vid=d109be9e-d203-46af-8bc7-1cc43a3fd2cd","ios":"levelo://app?vid=d109be9e-d203-46af-8bc7-1cc43a3fd2cd"},"vehicle_type_id":"4","last_reported":1730387333,"current_range_meters":22400,"station_id":"ce4bgh92rcd13ifvqb50","pricing_plan_id":"cebpf4jnsgd1na2vs0mg"},{"bike_id":"b03dfabb-7f3f-4176-96ea-4ddf0a08b1e0","system_id":"levelo_inurba_marseille","lat":43.28408,"lon":5.34986,"is_reserved":false,"is_disabled":false,"rental_uris":{"android":"levelo://app?vid=b03dfabb-7f3f-4176-96ea-4ddf0a08b1e0","ios":"levelo://app?vid=b03dfabb-7f3f-4176-96ea-4ddf0a08b1e0"},"vehicle_type_id":"4","last_reported":1730387333,"current_range_meters":39200,"station_id":"ce4bhbh2rcd13ifvqepg","pricing_plan_id":"cebpf4jnsgd1na2vs0mg"},{"bike_id":"1549777b-33eb-4a32-9567-d6c31d0710f5","system_id":"levelo_inurba_marseille","lat":43.32485,"lon":5.36586,"is_reserved":false,"is_disabled":false,"rental_uris":{"android":"levelo://app?vid=1549777b-33eb-4a32-9567-d6c31d0710f5","ios":"levelo://app?vid=1549777b-33eb-4a32-9567-d6c31d0710f5"},"vehicle_type_id":"4","last_reported":1730387333,"current_range_meters":35600,"station_id":"ce4bhs12rcd13ifvqhvg","pricing_plan_id":"cebpf4jnsgd1na2vs0mg"},{"bike_id":"60b71c7c-4918-47ba-8287-329d23746782","system_id":"levelo_inurba_marseille","lat":43.29897,"lon":5.43665,"is_reserved":false,"is_disabled":false,"rental_uris":{"android":"levelo://app?vid=60b71c7c-4918-47ba-8287-329d23746782","ios":"levelo://app?vid=60b71c7c-4918-47ba-8287-329d23746782"},"vehicle_type_id":"4","last_reported":1730387333,"current_range_meters":37600,"station_id":"ce4bhpp2rcd13ifvqhfg","pricing_plan_id":"cebpf4jnsgd1na2vs0mg"},{"bike_id":"ba76ec2a-1392-4a03-9d97-caf931a24170","system_id":"levelo_inurba_marseille","lat":43.29004,"lon":5.35616,"is_reserved":false,"is_disabled":false,"rental_uris":{"android":"levelo://app?vid=ba76ec2a-1392-4a03-9d97-caf931a24170","ios":"levelo://app?vid=ba76ec2a-1392-4a03-9d97-caf931a24170"},"vehicle_type_id":"4","last_reported":1730387333,"current_range_meters":36800,"station_id":"ce4bhb92rcd13ifvqen0","pricing_plan_id":"cebpf4jnsgd1na2vs0mg"},{"bike_id":"7402b7e8-b1f4-4735-bca8-18b131717534","system_id":"levelo_inurba_marseille","lat":43.24388,"lon":5.3705,"is_reserved":false,"is_disabled":false,"rental_uris":{"android":"levelo://app?vid=7402b7e8-b1f4-4735-bca8-18b131717534","ios":"levelo://app?vid=7402b7e8-b1f4-4735-bca8-18b131717534"},"vehicle_type_id":"4","last_reported":1730387333,"current_range_meters":38800,"station_id":"ce4bhhh2rcd13ifvqfk0","pricing_plan_id":"cebpf4jnsgd1na2vs0mg"},{"bike_id":"ad15900d-8c2f-4678-a9ef-6cde3f4fe4aa","system_id":"levelo_inurba_marseille","lat":43.28268,"lon":5.35053,"is_reserved":false,"is_disabled":false,"rental_uris":{"android":"levelo://app?vid=ad15900d-8c2f-4678-a9ef-6cde3f4fe4aa","ios":"levelo://app?vid=ad15900d-8c2f-4678-a9ef-6cde3f4fe4aa"},"vehicle_type_id":"4","last_reported":1730387333,"current_range_meters":38000,"station_id":"ce4bhbp2rcd13ifvqerg","pricing_plan_id":"cebpf4jnsgd1na2vs0mg"},{"bike_id":"82c7a6d9-2133-4346-959f-15d9e7affcec","system_id":"levelo_inurba_marseille","lat":43.29042,"lon":5.35923,"is_reserved":false,"is_disabled":false,"rental_uris":{"android":"levelo://app?vid=82c7a6d9-2133-4346-959f-15d9e7affcec","ios":"levelo://app?vid=82c7a6d9-2133-4346-959f-15d9e7affcec"},"vehicle_type_id":"4","last_reported":1730387333,"current_range_meters":38800,"station_id":"ce4bha92rcd13ifvqeg0","pricing_plan_id":"cebpf4jnsgd1na2vs0mg"},{"bike_id":"1f6e67d5-b756-4f72-ba9e-3fad8535a7b9","system_id":"levelo_inurba_marseille","lat":43.26688,"lon":5.38278,"is_reserved":false,"is_disabled":false,"rental_uris":{"android":"levelo://app?vid=1f6e67d5-b756-4f72-ba9e-3fad8535a7b9","ios":"levelo://app?vid=1f6e67d5-b756-4f72-ba9e-3fad8535a7b9"},"vehicle_type_id":"4","last_reported":1730387333,"current_range_meters":38800,"station_id":"ce4bhg92rcd13ifvqf90","pricing_plan_id":"cebpf4jnsgd1na2vs0mg"},{"bike_id":"af20e6f9-b99f-48ed-9b4e-e720b3e223be","system_id":"levelo_inurba_marseille","lat":43.29226,"lon":5.36064,"is_reserved":false,"is_disabled":false,"rental_uris":{"android":"levelo://app?vid=af20e6f9-b99f-48ed-9b4e-e720b3e223be","ios":"levelo://app?vid=af20e6f9-b99f-48ed-9b4e-e720b3e223be"},"vehicle_type_id":"4","last_reported":1730387333,"current_range_meters":18000,"station_id":"ce4bhbh2rcd13ifvqeqg","pricing_plan_id":"cebpf4jnsgd1na2vs0mg"},{"bike_id":"967bc015-564a-4e6d-acce-10593b5a4272","system_id":"levelo_inurba_marseille","lat":43.29226,"lon":5.36062,"is_reserved":false,"is_disabled":false,"rental_uris":{"android":"levelo://app?vid=967bc015-564a-4e6d-acce-10593b5a4272","ios":"levelo://app?vid=967bc015-564a-4e6d-acce-10593b5a4272"},"vehicle_type_id":"4","last_reported":1730387333,"current_range_meters":12400,"station_id":"ce4bhbh2rcd13ifvqeqg","pricing_plan_id":"cebpf4jnsgd1na2vs0mg"},{"bike_id":"f87a7ea5-a101-42cf-b852-5829ff1016b2","system_id":"levelo_inurba_marseille","lat":43.27073,"lon":5.42282,"is_reserved":false,"is_disabled":false,"rental_uris":{"android":"levelo://app?vid=f87a7ea5-a101-42cf-b852-5829ff1016b2","ios":"levelo://app?vid=f87a7ea5-a101-42cf-b852-5829ff1016b2"},"vehicle_type_id":"4","last_reported":1730387333,"current_range_meters":27200,"station_id":"ce4bhk92rcd13ifvqgb0","pricing_plan_id":"cebpf4jnsgd1na2vs0mg"},{"bike_id":"e3726d73-ee53-490a-881b-62abfa80e8d9","system_id":"levelo_inurba_marseille","lat":43.28694,"lon":5.39979,"is_reserved":false,"is_disabled":false,"rental_uris":{"android":"levelo://app?vid=e3726d73-ee53-490a-881b-62abfa80e8d9","ios":"levelo://app?vid=e3726d73-ee53-490a-881b-62abfa80e8d9"},"vehicle_type_id":"4","last_reported":1730387333,"current_range_meters":2000,"station_id":"ce4bho92rcd13ifvqh3g","pricing_plan_id":"cebpf4jnsgd1na2vs0mg"},{"bike_id":"92adf987-4779-4b78-ad9c-8e29ab9175f3","system_id":"levelo_inurba_marseille","lat":43.23191,"lon":5.35559,"is_reserved":false,"is_disabled":false,"rental_uris":{"android":"levelo://app?vid=92adf987-4779-4b78-ad9c-8e29ab9175f3","ios":"levelo://app?vid=92adf987-4779-4b78-ad9c-8e29ab9175f3"},"vehicle_type_id":"4","last_reported":1730387333,"current_range_meters":6800,"station_id":"ce4bhu92rcd13ifvqi70","pricing_plan_id":"cebpf4jnsgd1na2vs0mg"},{"bike_id":"c12c7a3c-2935-4bfc-8a0f-36b9308ca2db","system_id":"levelo_inurba_marseille","lat":43.2857,"lon":5.395,"is_reserved":false,"is_disabled":false,"rental_uris":{"android":"levelo://app?vid=c12c7a3c-2935-4bfc-8a0f-36b9308ca2db","ios":"levelo://app?vid=c12c7a3c-2935-4bfc-8a0f-36b9308ca2db"},"vehicle_type_id":"4","last_reported":1730387333,"current_range_meters":34800,"station_id":"ce4bh292rcd13ifvqdg0","pricing_plan_id":"cebpf4jnsgd1na2vs0mg"},{"bike_id":"f5301d1e-24c2-40e8-90e8-ea0d8c6abf8b","system_id":"levelo_inurba_marseille","lat":43.28039,"lon":5.3694,"is_reserved":false,"is_disabled":false,"rental_uris":{"android":"levelo://app?vid=f5301d1e-24c2-40e8-90e8-ea0d8c6abf8b","ios":"levelo://app?vid=f5301d1e-24c2-40e8-90e8-ea0d8c6abf8b"},"vehicle_type_id":"4","last_reported":1730387333,"current_range_meters":30800,"station_id":"ce4bha12rcd13ifvqef0","pricing_plan_id":"cebpf4jnsgd1na2vs0mg"},{"bike_id":"35fd6368-8d63-497d-8a6e-4a321956ebd8","system_id":"levelo_inurba_marseille","lat":43.26488,"lon":5.3955,"is_reserved":false,"is_disabled":false,"rental_uris":{"android":"levelo://app?vid=35fd6368-8d63-497d-8a6e-4a321956ebd8","ios":"levelo://app?vid=35fd6368-8d63-497d-8a6e-4a321956ebd8"},"vehicle_type_id":"4","last_reported":1730387333,"current_range_meters":30000,"station_id":"ce4bhi12rcd13ifvqfq0","pricing_plan_id":"cebpf4jnsgd1na2vs0mg"},{"bike_id":"eea0b9db-82bb-433a-b062-276b74c9a5d7","system_id":"levelo_inurba_marseille","lat":43.28718,"lon":5.37928,"is_reserved":false,"is_disabled":false,"rental_uris":{"android":"levelo://app?vid=eea0b9db-82bb-433a-b062-276b74c9a5d7","ios":"levelo://app?vid=eea0b9db-82bb-433a-b062-276b74c9a5d7"},"vehicle_type_id":"4","last_reported":1730387333,"current_range_meters":38000,"station_id":"ce4bh9p2rcd13ifvqec0","pricing_plan_id":"cebpf4jnsgd1na2vs0mg"},{"bike_id":"77ada298-3f80-499d-989c-264aa8b692cf","system_id":"levelo_inurba_marseille","lat":43.30887,"lon":5.39657,"is_reserved":false,"is_disabled":false,"rental_uris":{"android":"levelo://app?vid=77ada298-3f80-499d-989c-264aa8b692cf","ios":"levelo://app?vid=77ada298-3f80-499d-989c-264aa8b692cf"},"vehicle_type_id":"4","last_reported":1730387333,"current_range_meters":19600,"station_id":"ce4bh012rcd13ifvqcv0","pricing_plan_id":"cebpf4jnsgd1na2vs0mg"},{"bike_id":"aeb7f287-ac2e-41a5-9086-a135e101c58d","system_id":"levelo_inurba_marseille","lat":43.24165,"lon":5.36393,"is_reserved":false,"is_disabled":false,"rental_uris":{"android":"levelo://app?vid=aeb7f287-ac2e-41a5-9086-a135e101c58d","ios":"levelo://app?vid=aeb7f287-ac2e-41a5-9086-a135e101c58d"},"vehicle_type_id":"4","last_reported":1730387333,"current_range_meters":9600,"station_id":"cpo36qri1sfpv3e86is0","pricing_plan_id":"cebpf4jnsgd1na2vs0mg"},{"bike_id":"d2809c96-abcb-4e04-958e-63869c7ce0c7","system_id":"levelo_inurba_marseille","lat":43.269635,"lon":5.402545,"is_reserved":false,"is_disabled":false,"rental_uris":{"android":"levelo://app?vid=d2809c96-abcb-4e04-958e-63869c7ce0c7","ios":"levelo://app?vid=d2809c96-abcb-4e04-958e-63869c7ce0c7"},"vehicle_type_id":"4","last_reported":1730387333,"current_range_meters":8400,"station_id":"cjm6bp8fraef2m0cb0m0","pricing_plan_id":"cebpf4jnsgd1na2vs0mg"},{"bike_id":"24a3fc8d-a701-41e4-a6f9-e05ffa473525","system_id":"levelo_inurba_marseille","lat":43.30427,"lon":5.39756,"is_reserved":false,"is_disabled":false,"rental_uris":{"android":"levelo://app?vid=24a3fc8d-a701-41e4-a6f9-e05ffa473525","ios":"levelo://app?vid=24a3fc8d-a701-41e4-a6f9-e05ffa473525"},"vehicle_type_id":"4","last_reported":1730387333,"current_range_meters":16000,"station_id":"ce4bh092rcd13ifvqd20","pricing_plan_id":"cebpf4jnsgd1na2vs0mg"},{"bike_id":"903305da-0676-4faf-9430-6904c985fcb9","system_id":"levelo_inurba_marseille","lat":43.24173,"lon":5.36394,"is_reserved":false,"is_disabled":false,"rental_uris":{"android":"levelo://app?vid=903305da-0676-4faf-9430-6904c985fcb9","ios":"levelo://app?vid=903305da-0676-4faf-9430-6904c985fcb9"},"vehicle_type_id":"4","last_reported":1730387333,"current_range_meters":3200,"station_id":"cpo36qri1sfpv3e86is0","pricing_plan_id":"cebpf4jnsgd1na2vs0mg"},{"bike_id":"fe44a1b3-ce03-4b2c-838b-75aeb98c494b","system_id":"levelo_inurba_marseille","lat":43.29531,"lon":5.37504,"is_reserved":false,"is_disabled":false,"rental_uris":{"android":"levelo://app?vid=fe44a1b3-ce03-4b2c-838b-75aeb98c494b","ios":"levelo://app?vid=fe44a1b3-ce03-4b2c-838b-75aeb98c494b"},"vehicle_type_id":"4","last_reported":1730387333,"current_range_meters":22400,"station_id":"ce4bgkp2rcd13ifvqbmg","pricing_plan_id":"cebpf4jnsgd1na2vs0mg"},{"bike_id":"39e11cc6-f378-4d7f-b57e-a020cc93671b","system_id":"levelo_inurba_marseille","lat":43.27056,"lon":5.40265,"is_reserved":false,"is_disabled":false,"rental_uris":{"android":"levelo://app?vid=39e11cc6-f378-4d7f-b57e-a020cc93671b","ios":"levelo://app?vid=39e11cc6-f378-4d7f-b57e-a020cc93671b"},"vehicle_type_id":"4","last_reported":1730387333,"current_range_meters":5600,"station_id":"ce4bhk92rcd13ifvqgc0","pricing_plan_id":"cebpf4jnsgd1na2vs0mg"},{"bike_id":"402d16fc-b976-42d7-86c1-9ab5489a5b20","system_id":"levelo_inurba_marseille","lat":43.29801,"lon":5.38088,"is_reserved":false,"is_disabled":false,"rental_uris":{"android":"levelo://app?vid=402d16fc-b976-42d7-86c1-9ab5489a5b20","ios":"levelo://app?vid=402d16fc-b976-42d7-86c1-9ab5489a5b20"},"vehicle_type_id":"4","last_reported":1730387333,"current_range_meters":4000,"station_id":"ce4bgip2rcd13ifvqbb0","pricing_plan_id":"cebpf4jnsgd1na2vs0mg"},{"bike_id":"4e1856cc-2887-465e-abd5-df099e1e1bd2","system_id":"levelo_inurba_marseille","lat":43.29003,"lon":5.35609,"is_reserved":false,"is_disabled":false,"rental_uris":{"android":"levelo://app?vid=4e1856cc-2887-465e-abd5-df099e1e1bd2","ios":"levelo://app?vid=4e1856cc-2887-465e-abd5-df099e1e1bd2"},"vehicle_type_id":"4","last_reported":1730387333,"current_range_meters":8800,"station_id":"ce4bhb92rcd13ifvqen0","pricing_plan_id":"cebpf4jnsgd1na2vs0mg"},{"bike_id":"6efb0d9b-2cf2-4834-b244-fe44aa3186e3","system_id":"levelo_inurba_marseille","lat":43.30208,"lon":5.39474,"is_reserved":false,"is_disabled":false,"rental_uris":{"android":"levelo://app?vid=6efb0d9b-2cf2-4834-b244-fe44aa3186e3","ios":"levelo://app?vid=6efb0d9b-2cf2-4834-b244-fe44aa3186e3"},"vehicle_type_id":"4","last_reported":1730387333,"current_range_meters":28800,"station_id":"ce4bh0p2rcd13ifvqd70","pricing_plan_id":"cebpf4jnsgd1na2vs0mg"},{"bike_id":"34fc0a34-1013-4b4c-82d8-3fae046fa458","system_id":"levelo_inurba_marseille","lat":43.30143,"lon":5.38783,"is_reserved":false,"is_disabled":false,"rental_uris":{"android":"levelo://app?vid=34fc0a34-1013-4b4c-82d8-3fae046fa458","ios":"levelo://app?vid=34fc0a34-1013-4b4c-82d8-3fae046fa458"},"vehicle_type_id":"4","last_reported":1730387333,"current_range_meters":36800,"station_id":"ce4bghh2rcd13ifvqb60","pricing_plan_id":"cebpf4jnsgd1na2vs0mg"},{"bike_id":"e9b51604-ca21-4b31-b523-3a6063b0d45b","system_id":"levelo_inurba_marseille","lat":43.28344,"lon":5.38105,"is_reserved":false,"is_disabled":false,"rental_uris":{"android":"levelo://app?vid=e9b51604-ca21-4b31-b523-3a6063b0d45b","ios":"levelo://app?vid=e9b51604-ca21-4b31-b523-3a6063b0d45b"},"vehicle_type_id":"4","last_reported":1730387333,"current_range_meters":39200,"station_id":"ce4bh412rcd13ifvqdr0","pricing_plan_id":"cebpf4jnsgd1na2vs0mg"},{"bike_id":"b0d03779-cacc-420c-9ed8-0304829c0cd6","system_id":"levelo_inurba_marseille","lat":43.33025,"lon":5.39038,"is_reserved":false,"is_disabled":false,"rental_uris":{"android":"levelo://app?vid=b0d03779-cacc-420c-9ed8-0304829c0cd6","ios":"levelo://app?vid=b0d03779-cacc-420c-9ed8-0304829c0cd6"},"vehicle_type_id":"4","last_reported":1730387333,"current_range_meters":12000,"station_id":"ce4bhr92rcd13ifvqhrg","pricing_plan_id":"cebpf4jnsgd1na2vs0mg"},{"bike_id":"66093dc1-c0c0-4464-83bc-db00fcc6817b","system_id":"levelo_inurba_marseille","lat":43.24804,"lon":5.37461,"is_reserved":false,"is_disabled":false,"rental_uris":{"android":"levelo://app?vid=66093dc1-c0c0-4464-83bc-db00fcc6817b","ios":"levelo://app?vid=66093dc1-c0c0-4464-83bc-db00fcc6817b"},"vehicle_type_id":"4","last_reported":1730387333,"current_range_meters":10000,"station_id":"ce4bhgh2rcd13ifvqfb0","pricing_plan_id":"cebpf4jnsgd1na2vs0mg"},{"bike_id":"03196e35-6706-450a-8ed6-70779e6543b9","system_id":"levelo_inurba_marseille","lat":43.24177,"lon":5.39728,"is_reserved":false,"is_disabled":false,"rental_uris":{"android":"levelo://app?vid=03196e35-6706-450a-8ed6-70779e6543b9","ios":"levelo://app?vid=03196e35-6706-450a-8ed6-70779e6543b9"},"vehicle_type_id":"4","last_reported":1730387333,"current_range_meters":23200,"station_id":"ce4bhn12rcd13ifvqgpg","pricing_plan_id":"cebpf4jnsgd1na2vs0mg"},{"bike_id":"2370a04e-d358-4a29-b67a-890bf50b34fd","system_id":"levelo_inurba_marseille","lat":43.24168,"lon":5.364,"is_reserved":false,"is_disabled":false,"rental_uris":{"android":"levelo://app?vid=2370a04e-d358-4a29-b67a-890bf50b34fd","ios":"levelo://app?vid=2370a04e-d358-4a29-b67a-890bf50b34fd"},"vehicle_type_id":"4","last_reported":1730387333,"current_range_meters":36800,"station_id":"cpo36qri1sfpv3e86is0","pricing_plan_id":"cebpf4jnsgd1na2vs0mg"},{"bike_id":"870323a0-4358-4158-9ab6-04058acad512","system_id":"levelo_inurba_marseille","lat":43.30555,"lon":5.36541,"is_reserved":false,"is_disabled":false,"rental_uris":{"android":"levelo://app?vid=870323a0-4358-4158-9ab6-04058acad512","ios":"levelo://app?vid=870323a0-4358-4158-9ab6-04058acad512"},"vehicle_type_id":"4","last_reported":1730387333,"current_range_meters":29600,"station_id":"ce4bgs12rcd13ifvqcag","pricing_plan_id":"cebpf4jnsgd1na2vs0mg"},{"bike_id":"1126bd4d-4fd5-41b4-9574-41725f067a18","system_id":"levelo_inurba_marseille","lat":43.27199,"lon":5.39192,"is_reserved":false,"is_disabled":false,"rental_uris":{"android":"levelo://app?vid=1126bd4d-4fd5-41b4-9574-41725f067a18","ios":"levelo://app?vid=1126bd4d-4fd5-41b4-9574-41725f067a18"},"vehicle_type_id":"4","last_reported":1730387333,"current_range_meters":38000,"station_id":"ce4bhhp2rcd13ifvqfm0","pricing_plan_id":"cebpf4jnsgd1na2vs0mg"},{"bike_id":"6cfc4f8d-c411-4439-b454-6734fe7d88c3","system_id":"levelo_inurba_marseille","lat":43.33022,"lon":5.39041,"is_reserved":false,"is_disabled":false,"rental_uris":{"android":"levelo://app?vid=6cfc4f8d-c411-4439-b454-6734fe7d88c3","ios":"levelo://app?vid=6cfc4f8d-c411-4439-b454-6734fe7d88c3"},"vehicle_type_id":"4","last_reported":1730387333,"current_range_meters":28800,"station_id":"ce4bhr92rcd13ifvqhrg","pricing_plan_id":"cebpf4jnsgd1na2vs0mg"},{"bike_id":"2c255d5c-5536-4118-98e5-3eb84b40db4f","system_id":"levelo_inurba_marseille","lat":43.33024,"lon":5.39034,"is_reserved":false,"is_disabled":false,"rental_uris":{"android":"levelo://app?vid=2c255d5c-5536-4118-98e5-3eb84b40db4f","ios":"levelo://app?vid=2c255d5c-5536-4118-98e5-3eb84b40db4f"},"vehicle_type_id":"4","last_reported":1730387333,"current_range_meters":19200,"station_id":"ce4bhr92rcd13ifvqhrg","pricing_plan_id":"cebpf4jnsgd1na2vs0mg"},{"bike_id":"8f730d9a-3174-4708-8d20-69126423190a","system_id":"levelo_inurba_marseille","lat":43.28358,"lon":5.3864,"is_reserved":false,"is_disabled":false,"rental_uris":{"android":"levelo://app?vid=8f730d9a-3174-4708-8d20-69126423190a","ios":"levelo://app?vid=8f730d9a-3174-4708-8d20-69126423190a"},"vehicle_type_id":"4","last_reported":1730387333,"current_range_meters":14800,"station_id":"ce4bh492rcd13ifvqdvg","pricing_plan_id":"cebpf4jnsgd1na2vs0mg"},{"bike_id":"1a455bdb-5be3-45d2-99d9-7d27db5d8cc9","system_id":"levelo_inurba_marseille","lat":43.26493,"lon":5.39548,"is_reserved":false,"is_disabled":false,"rental_uris":{"android":"levelo://app?vid=1a455bdb-5be3-45d2-99d9-7d27db5d8cc9","ios":"levelo://app?vid=1a455bdb-5be3-45d2-99d9-7d27db5d8cc9"},"vehicle_type_id":"4","last_reported":1730387333,"current_range_meters":9200,"station_id":"ce4bhi12rcd13ifvqfq0","pricing_plan_id":"cebpf4jnsgd1na2vs0mg"},{"bike_id":"428675c5-62bc-486f-bd65-2f9ac70da0b4","system_id":"levelo_inurba_marseille","lat":43.29629,"lon":5.40603,"is_reserved":false,"is_disabled":false,"rental_uris":{"android":"levelo://app?vid=428675c5-62bc-486f-bd65-2f9ac70da0b4","ios":"levelo://app?vid=428675c5-62bc-486f-bd65-2f9ac70da0b4"},"vehicle_type_id":"4","last_reported":1730387333,"current_range_meters":38800,"station_id":"ce4bh0h2rcd13ifvqd60","pricing_plan_id":"cebpf4jnsgd1na2vs0mg"},{"bike_id":"9523fac6-8682-4efb-98d2-562240b36d56","system_id":"levelo_inurba_marseille","lat":43.26491,"lon":5.39546,"is_reserved":false,"is_disabled":false,"rental_uris":{"android":"levelo://app?vid=9523fac6-8682-4efb-98d2-562240b36d56","ios":"levelo://app?vid=9523fac6-8682-4efb-98d2-562240b36d56"},"vehicle_type_id":"4","last_reported":1730387333,"current_range_meters":36400,"station_id":"ce4bhi12rcd13ifvqfq0","pricing_plan_id":"cebpf4jnsgd1na2vs0mg"},{"bike_id":"68d70b7d-ad7d-4f85-bf3d-e60a9bdb5234","system_id":"levelo_inurba_marseille","lat":43.23154,"lon":5.43707,"is_reserved":false,"is_disabled":false,"rental_uris":{"android":"levelo://app?vid=68d70b7d-ad7d-4f85-bf3d-e60a9bdb5234","ios":"levelo://app?vid=68d70b7d-ad7d-4f85-bf3d-e60a9bdb5234"},"vehicle_type_id":"4","last_reported":1730387333,"current_range_meters":24800,"station_id":"ce4bhmp2rcd13ifvqgog","pricing_plan_id":"cebpf4jnsgd1na2vs0mg"},{"bike_id":"37069e8b-4451-4121-b3bf-4614fb7136a7","system_id":"levelo_inurba_marseille","lat":43.32292,"lon":5.38274,"is_reserved":false,"is_disabled":false,"rental_uris":{"android":"levelo://app?vid=37069e8b-4451-4121-b3bf-4614fb7136a7","ios":"levelo://app?vid=37069e8b-4451-4121-b3bf-4614fb7136a7"},"vehicle_type_id":"4","last_reported":1730387333,"current_range_meters":24800,"station_id":"ce4bhr12rcd13ifvqhqg","pricing_plan_id":"cebpf4jnsgd1na2vs0mg"},{"bike_id":"05431b2f-2f8e-4ab7-98ef-973dc8770fa9","system_id":"levelo_inurba_marseille","lat":43.29561,"lon":5.37516,"is_reserved":false,"is_disabled":false,"rental_uris":{"android":"levelo://app?vid=05431b2f-2f8e-4ab7-98ef-973dc8770fa9","ios":"levelo://app?vid=05431b2f-2f8e-4ab7-98ef-973dc8770fa9"},"vehicle_type_id":"4","last_reported":1730387333,"current_range_meters":12000,"station_id":"ce4bgh92rcd13ifvqb50","pricing_plan_id":"cebpf4jnsgd1na2vs0mg"},{"bike_id":"90f83284-843b-4f7b-9707-80305b24b8db","system_id":"levelo_inurba_marseille","lat":43.29571,"lon":5.37534,"is_reserved":false,"is_disabled":false,"rental_uris":{"android":"levelo://app?vid=90f83284-843b-4f7b-9707-80305b24b8db","ios":"levelo://app?vid=90f83284-843b-4f7b-9707-80305b24b8db"},"vehicle_type_id":"4","last_reported":1730387333,"current_range_meters":9600,"station_id":"ce4bgh92rcd13ifvqb50","pricing_plan_id":"cebpf4jnsgd1na2vs0mg"},{"bike_id":"122231cb-4422-4960-b5b8-3c4780eb61fd","system_id":"levelo_inurba_marseille","lat":43.27371,"lon":5.36262,"is_reserved":false,"is_disabled":false,"rental_uris":{"android":"levelo://app?vid=122231cb-4422-4960-b5b8-3c4780eb61fd","ios":"levelo://app?vid=122231cb-4422-4960-b5b8-3c4780eb61fd"},"vehicle_type_id":"4","last_reported":1730387333,"current_range_meters":16400,"station_id":"ce4bhbh2rcd13ifvqeo0","pricing_plan_id":"cebpf4jnsgd1na2vs0mg"},{"bike_id":"5266335c-fb51-4166-a0ab-8099a4c09e4b","system_id":"levelo_inurba_marseille","lat":43.32283,"lon":5.38291,"is_reserved":false,"is_disabled":false,"rental_uris":{"android":"levelo://app?vid=5266335c-fb51-4166-a0ab-8099a4c09e4b","ios":"levelo://app?vid=5266335c-fb51-4166-a0ab-8099a4c09e4b"},"vehicle_type_id":"4","last_reported":1730387333,"current_range_meters":36800,"station_id":"ce4bhr12rcd13ifvqhqg","pricing_plan_id":"cebpf4jnsgd1na2vs0mg"},{"bike_id":"6b07e96b-d373-42c8-bbe7-a24f63ab2ff0","system_id":"levelo_inurba_marseille","lat":43.30538,"lon":5.3655,"is_reserved":false,"is_disabled":false,"rental_uris":{"android":"levelo://app?vid=6b07e96b-d373-42c8-bbe7-a24f63ab2ff0","ios":"levelo://app?vid=6b07e96b-d373-42c8-bbe7-a24f63ab2ff0"},"vehicle_type_id":"4","last_reported":1730387333,"current_range_meters":21600,"station_id":"ce4bgs12rcd13ifvqcag","pricing_plan_id":"cebpf4jnsgd1na2vs0mg"},{"bike_id":"1d049270-233c-4960-ba93-d152bc4bf621","system_id":"levelo_inurba_marseille","lat":43.284263,"lon":5.350025,"is_reserved":false,"is_disabled":false,"rental_uris":{"android":"levelo://app?vid=1d049270-233c-4960-ba93-d152bc4bf621","ios":"levelo://app?vid=1d049270-233c-4960-ba93-d152bc4bf621"},"vehicle_type_id":"4","last_reported":1730387333,"current_range_meters":11200,"station_id":"ce4bhbh2rcd13ifvqepg","pricing_plan_id":"cebpf4jnsgd1na2vs0mg"},{"bike_id":"aa26a647-c4e0-4b9d-ad63-8a4860aee162","system_id":"levelo_inurba_marseille","lat":43.27073,"lon":5.42273,"is_reserved":false,"is_disabled":false,"rental_uris":{"android":"levelo://app?vid=aa26a647-c4e0-4b9d-ad63-8a4860aee162","ios":"levelo://app?vid=aa26a647-c4e0-4b9d-ad63-8a4860aee162"},"vehicle_type_id":"4","last_reported":1730387333,"current_range_meters":11200,"station_id":"ce4bhk92rcd13ifvqgb0","pricing_plan_id":"cebpf4jnsgd1na2vs0mg"},{"bike_id":"64c8dd63-2fe5-4768-8da6-7eb1b37a4e6b","system_id":"levelo_inurba_marseille","lat":43.31345,"lon":5.36727,"is_reserved":false,"is_disabled":false,"rental_uris":{"android":"levelo://app?vid=64c8dd63-2fe5-4768-8da6-7eb1b37a4e6b","ios":"levelo://app?vid=64c8dd63-2fe5-4768-8da6-7eb1b37a4e6b"},"vehicle_type_id":"4","last_reported":1730387333,"current_range_meters":27200,"station_id":"ce4bgr92rcd13ifvqc6g","pricing_plan_id":"cebpf4jnsgd1na2vs0mg"},{"bike_id":"3e692e43-3af1-42b8-8b96-6599a0d2e03e","system_id":"levelo_inurba_marseille","lat":43.29557,"lon":5.42292,"is_reserved":false,"is_disabled":false,"rental_uris":{"android":"levelo://app?vid=3e692e43-3af1-42b8-8b96-6599a0d2e03e","ios":"levelo://app?vid=3e692e43-3af1-42b8-8b96-6599a0d2e03e"},"vehicle_type_id":"4","last_reported":1730387333,"current_range_meters":30400,"station_id":"ce4bhph2rcd13ifvqhdg","pricing_plan_id":"cebpf4jnsgd1na2vs0mg"},{"bike_id":"9bb446bf-5ae8-40b9-9eeb-2abcde782658","system_id":"levelo_inurba_marseille","lat":43.26683,"lon":5.38274,"is_reserved":false,"is_disabled":false,"rental_uris":{"android":"levelo://app?vid=9bb446bf-5ae8-40b9-9eeb-2abcde782658","ios":"levelo://app?vid=9bb446bf-5ae8-40b9-9eeb-2abcde782658"},"vehicle_type_id":"4","last_reported":1730387333,"current_range_meters":19600,"station_id":"ce4bhg92rcd13ifvqf90","pricing_plan_id":"cebpf4jnsgd1na2vs0mg"},{"bike_id":"fc51e891-7721-4300-b48c-3cd27cc2680b","system_id":"levelo_inurba_marseille","lat":43.30115,"lon":5.39872,"is_reserved":false,"is_disabled":false,"rental_uris":{"android":"levelo://app?vid=fc51e891-7721-4300-b48c-3cd27cc2680b","ios":"levelo://app?vid=fc51e891-7721-4300-b48c-3cd27cc2680b"},"vehicle_type_id":"4","last_reported":1730387333,"current_range_meters":10800,"station_id":"ce4bh0h2rcd13ifvqd40","pricing_plan_id":"cebpf4jnsgd1na2vs0mg"},{"bike_id":"53facf4a-a53f-4009-81d5-6390ac637137","system_id":"levelo_inurba_marseille","lat":43.32482,"lon":5.36568,"is_reserved":false,"is_disabled":false,"rental_uris":{"android":"levelo://app?vid=53facf4a-a53f-4009-81d5-6390ac637137","ios":"levelo://app?vid=53facf4a-a53f-4009-81d5-6390ac637137"},"vehicle_type_id":"4","last_reported":1730387333,"current_range_meters":38000,"station_id":"ce4bhs12rcd13ifvqhvg","pricing_plan_id":"cebpf4jnsgd1na2vs0mg"},{"bike_id":"6befc4bf-a30e-4f12-b448-09b588578734","system_id":"levelo_inurba_marseille","lat":43.27379,"lon":5.36249,"is_reserved":false,"is_disabled":false,"rental_uris":{"android":"levelo://app?vid=6befc4bf-a30e-4f12-b448-09b588578734","ios":"levelo://app?vid=6befc4bf-a30e-4f12-b448-09b588578734"},"vehicle_type_id":"4","last_reported":1730387333,"current_range_meters":29600,"station_id":"ce4bhbh2rcd13ifvqeo0","pricing_plan_id":"cebpf4jnsgd1na2vs0mg"},{"bike_id":"4cfc2158-66a1-4fbb-b936-f9d5d8bd797b","system_id":"levelo_inurba_marseille","lat":43.24992,"lon":5.38936,"is_reserved":false,"is_disabled":false,"rental_uris":{"android":"levelo://app?vid=4cfc2158-66a1-4fbb-b936-f9d5d8bd797b","ios":"levelo://app?vid=4cfc2158-66a1-4fbb-b936-f9d5d8bd797b"},"vehicle_type_id":"4","last_reported":1730387333,"current_range_meters":37600,"station_id":"ce4bhgp2rcd13ifvqfd0","pricing_plan_id":"cebpf4jnsgd1na2vs0mg"},{"bike_id":"67b75dc5-76e9-47e8-9f50-b697c520c036","system_id":"levelo_inurba_marseille","lat":43.24666,"lon":5.38163,"is_reserved":false,"is_disabled":false,"rental_uris":{"android":"levelo://app?vid=67b75dc5-76e9-47e8-9f50-b697c520c036","ios":"levelo://app?vid=67b75dc5-76e9-47e8-9f50-b697c520c036"},"vehicle_type_id":"4","last_reported":1730387333,"current_range_meters":33600,"station_id":"ce4bhih2rcd13ifvqfr0","pricing_plan_id":"cebpf4jnsgd1na2vs0mg"},{"bike_id":"7c5cf4ad-6d8f-4192-b9e8-961f002e32fc","system_id":"levelo_inurba_marseille","lat":43.29171,"lon":5.37164,"is_reserved":false,"is_disabled":false,"rental_uris":{"android":"levelo://app?vid=7c5cf4ad-6d8f-4192-b9e8-961f002e32fc","ios":"levelo://app?vid=7c5cf4ad-6d8f-4192-b9e8-961f002e32fc"},"vehicle_type_id":"4","last_reported":1730387333,"current_range_meters":8800,"station_id":"ce4bha92rcd13ifvqeh0","pricing_plan_id":"cebpf4jnsgd1na2vs0mg"},{"bike_id":"15219ef7-7b02-4e83-b641-42bb8e183cd3","system_id":"levelo_inurba_marseille","lat":43.28417,"lon":5.3499,"is_reserved":false,"is_disabled":false,"rental_uris":{"android":"levelo://app?vid=15219ef7-7b02-4e83-b641-42bb8e183cd3","ios":"levelo://app?vid=15219ef7-7b02-4e83-b641-42bb8e183cd3"},"vehicle_type_id":"4","last_reported":1730387333,"current_range_meters":10000,"station_id":"ce4bhbh2rcd13ifvqepg","pricing_plan_id":"cebpf4jnsgd1na2vs0mg"},{"bike_id":"5b3e1547-5d66-4445-8aa1-64bb840fe5a9","system_id":"levelo_inurba_marseille","lat":43.27616,"lon":5.36112,"is_reserved":false,"is_disabled":false,"rental_uris":{"android":"levelo://app?vid=5b3e1547-5d66-4445-8aa1-64bb840fe5a9","ios":"levelo://app?vid=5b3e1547-5d66-4445-8aa1-64bb840fe5a9"},"vehicle_type_id":"4","last_reported":1730387333,"current_range_meters":38800,"station_id":"ce4bgj92rcd13ifvqbe0","pricing_plan_id":"cebpf4jnsgd1na2vs0mg"},{"bike_id":"4e6c31da-8511-48a7-b2ab-9f8b4f93652b","system_id":"levelo_inurba_marseille","lat":43.28614,"lon":5.35105,"is_reserved":false,"is_disabled":false,"rental_uris":{"android":"levelo://app?vid=4e6c31da-8511-48a7-b2ab-9f8b4f93652b","ios":"levelo://app?vid=4e6c31da-8511-48a7-b2ab-9f8b4f93652b"},"vehicle_type_id":"4","last_reported":1730387333,"current_range_meters":24400,"station_id":"ce4bhch2rcd13ifvqeug","pricing_plan_id":"cebpf4jnsgd1na2vs0mg"},{"bike_id":"fde65b28-1ff5-486b-95fb-97e1f9d67af9","system_id":"levelo_inurba_marseille","lat":43.32367,"lon":5.38886,"is_reserved":false,"is_disabled":false,"rental_uris":{"android":"levelo://app?vid=fde65b28-1ff5-486b-95fb-97e1f9d67af9","ios":"levelo://app?vid=fde65b28-1ff5-486b-95fb-97e1f9d67af9"},"vehicle_type_id":"4","last_reported":1730387333,"current_range_meters":23200,"station_id":"ce4bhqp2rcd13ifvqhog","pricing_plan_id":"cebpf4jnsgd1na2vs0mg"},{"bike_id":"8b192f2f-9941-4b80-9e5b-57fe9e3b60f1","system_id":"levelo_inurba_marseille","lat":43.29008,"lon":5.35613,"is_reserved":false,"is_disabled":false,"rental_uris":{"android":"levelo://app?vid=8b192f2f-9941-4b80-9e5b-57fe9e3b60f1","ios":"levelo://app?vid=8b192f2f-9941-4b80-9e5b-57fe9e3b60f1"},"vehicle_type_id":"4","last_reported":1730387333,"current_range_meters":25200,"station_id":"ce4bhb92rcd13ifvqen0","pricing_plan_id":"cebpf4jnsgd1na2vs0mg"},{"bike_id":"58588f98-d979-4a89-a14d-d0d4a329cc8e","system_id":"levelo_inurba_marseille","lat":43.26806,"lon":5.4027,"is_reserved":false,"is_disabled":false,"rental_uris":{"android":"levelo://app?vid=58588f98-d979-4a89-a14d-d0d4a329cc8e","ios":"levelo://app?vid=58588f98-d979-4a89-a14d-d0d4a329cc8e"},"vehicle_type_id":"4","last_reported":1730387333,"current_range_meters":38800,"station_id":"ce501612rcd8frsf0b60","pricing_plan_id":"cebpf4jnsgd1na2vs0mg"},{"bike_id":"8922bf80-9ffc-4438-acda-6d35e498f0d5","system_id":"levelo_inurba_marseille","lat":43.26212,"lon":5.37438,"is_reserved":false,"is_disabled":false,"rental_uris":{"android":"levelo://app?vid=8922bf80-9ffc-4438-acda-6d35e498f0d5","ios":"levelo://app?vid=8922bf80-9ffc-4438-acda-6d35e498f0d5"},"vehicle_type_id":"4","last_reported":1730387333,"current_range_meters":6000,"station_id":"ce4bhgp2rcd13ifvqfc0","pricing_plan_id":"cebpf4jnsgd1na2vs0mg"},{"bike_id":"5ff74640-5d39-40f8-808a-e5695df59fd4","system_id":"levelo_inurba_marseille","lat":43.27197,"lon":5.41024,"is_reserved":false,"is_disabled":false,"rental_uris":{"android":"levelo://app?vid=5ff74640-5d39-40f8-808a-e5695df59fd4","ios":"levelo://app?vid=5ff74640-5d39-40f8-808a-e5695df59fd4"},"vehicle_type_id":"4","last_reported":1730387333,"current_range_meters":7200,"station_id":"ce4bhl12rcd13ifvqgf0","pricing_plan_id":"cebpf4jnsgd1na2vs0mg"},{"bike_id":"84e2b042-2c79-4878-a2d2-5d6cd154cfca","system_id":"levelo_inurba_marseille","lat":43.28419,"lon":5.34994,"is_reserved":false,"is_disabled":false,"rental_uris":{"android":"levelo://app?vid=84e2b042-2c79-4878-a2d2-5d6cd154cfca","ios":"levelo://app?vid=84e2b042-2c79-4878-a2d2-5d6cd154cfca"},"vehicle_type_id":"4","last_reported":1730387333,"current_range_meters":38800,"station_id":"ce4bhbh2rcd13ifvqepg","pricing_plan_id":"cebpf4jnsgd1na2vs0mg"},{"bike_id":"d4829a7e-16fe-4e76-9a47-d409e1283694","system_id":"levelo_inurba_marseille","lat":43.25719,"lon":5.4111,"is_reserved":false,"is_disabled":false,"rental_uris":{"android":"levelo://app?vid=d4829a7e-16fe-4e76-9a47-d409e1283694","ios":"levelo://app?vid=d4829a7e-16fe-4e76-9a47-d409e1283694"},"vehicle_type_id":"4","last_reported":1730387333,"current_range_meters":19200,"station_id":"ce4bhkp2rcd13ifvqgd0","pricing_plan_id":"cebpf4jnsgd1na2vs0mg"},{"bike_id":"38e45b10-b07b-495c-a028-28fb68d2d661","system_id":"levelo_inurba_marseille","lat":43.30798,"lon":5.43532,"is_reserved":false,"is_disabled":false,"rental_uris":{"android":"levelo://app?vid=38e45b10-b07b-495c-a028-28fb68d2d661","ios":"levelo://app?vid=38e45b10-b07b-495c-a028-28fb68d2d661"},"vehicle_type_id":"4","last_reported":1730387333,"current_range_meters":38800,"station_id":"ce4bhph2rcd13ifvqheg","pricing_plan_id":"cebpf4jnsgd1na2vs0mg"},{"bike_id":"603b773c-4639-4650-922b-843af2ccbae2","system_id":"levelo_inurba_marseille","lat":43.25582,"lon":5.38232,"is_reserved":false,"is_disabled":false,"rental_uris":{"android":"levelo://app?vid=603b773c-4639-4650-922b-843af2ccbae2","ios":"levelo://app?vid=603b773c-4639-4650-922b-843af2ccbae2"},"vehicle_type_id":"4","last_reported":1730387333,"current_range_meters":22800,"station_id":"ce4bhih2rcd13ifvqfs0","pricing_plan_id":"cebpf4jnsgd1na2vs0mg"},{"bike_id":"47468730-5566-4ab1-90da-b7c33ccb9201","system_id":"levelo_inurba_marseille","lat":43.29025,"lon":5.38653,"is_reserved":false,"is_disabled":false,"rental_uris":{"android":"levelo://app?vid=47468730-5566-4ab1-90da-b7c33ccb9201","ios":"levelo://app?vid=47468730-5566-4ab1-90da-b7c33ccb9201"},"vehicle_type_id":"4","last_reported":1730387333,"current_range_meters":24000,"station_id":"ce4bh4p2rcd13ifvqe0g","pricing_plan_id":"cebpf4jnsgd1na2vs0mg"},{"bike_id":"654e6c85-c7a0-4fba-b228-17b6bfa33ba6","system_id":"levelo_inurba_marseille","lat":43.24182,"lon":5.39727,"is_reserved":false,"is_disabled":false,"rental_uris":{"android":"levelo://app?vid=654e6c85-c7a0-4fba-b228-17b6bfa33ba6","ios":"levelo://app?vid=654e6c85-c7a0-4fba-b228-17b6bfa33ba6"},"vehicle_type_id":"4","last_reported":1730387333,"current_range_meters":36400,"station_id":"ce4bhn12rcd13ifvqgpg","pricing_plan_id":"cebpf4jnsgd1na2vs0mg"},{"bike_id":"7265bb35-d2ff-4e68-a14c-12906361f4fb","system_id":"levelo_inurba_marseille","lat":43.261962,"lon":5.374535,"is_reserved":false,"is_disabled":false,"rental_uris":{"android":"levelo://app?vid=7265bb35-d2ff-4e68-a14c-12906361f4fb","ios":"levelo://app?vid=7265bb35-d2ff-4e68-a14c-12906361f4fb"},"vehicle_type_id":"4","last_reported":1730387333,"current_range_meters":21600,"station_id":"ce4bhgp2rcd13ifvqfc0","pricing_plan_id":"cebpf4jnsgd1na2vs0mg"},{"bike_id":"d2116ab2-9c29-4692-a242-7b8d1da7853c","system_id":"levelo_inurba_marseille","lat":43.31357,"lon":5.36706,"is_reserved":false,"is_disabled":false,"rental_uris":{"android":"levelo://app?vid=d2116ab2-9c29-4692-a242-7b8d1da7853c","ios":"levelo://app?vid=d2116ab2-9c29-4692-a242-7b8d1da7853c"},"vehicle_type_id":"4","last_reported":1730387333,"current_range_meters":16400,"station_id":"ce4bgr92rcd13ifvqc6g","pricing_plan_id":"cebpf4jnsgd1na2vs0mg"},{"bike_id":"cc43bf4d-496d-47ec-aa99-164bc1536ac8","system_id":"levelo_inurba_marseille","lat":43.25001,"lon":5.3894,"is_reserved":false,"is_disabled":false,"rental_uris":{"android":"levelo://app?vid=cc43bf4d-496d-47ec-aa99-164bc1536ac8","ios":"levelo://app?vid=cc43bf4d-496d-47ec-aa99-164bc1536ac8"},"vehicle_type_id":"4","last_reported":1730387333,"current_range_meters":32400,"station_id":"ce4bhgp2rcd13ifvqfd0","pricing_plan_id":"cebpf4jnsgd1na2vs0mg"},{"bike_id":"34af1e9b-a27b-4b2c-b4c8-b72a27fd0792","system_id":"levelo_inurba_marseille","lat":43.29556,"lon":5.42282,"is_reserved":false,"is_disabled":false,"rental_uris":{"android":"levelo://app?vid=34af1e9b-a27b-4b2c-b4c8-b72a27fd0792","ios":"levelo://app?vid=34af1e9b-a27b-4b2c-b4c8-b72a27fd0792"},"vehicle_type_id":"4","last_reported":1730387333,"current_range_meters":38800,"station_id":"ce4bhph2rcd13ifvqhdg","pricing_plan_id":"cebpf4jnsgd1na2vs0mg"},{"bike_id":"c17667f6-ed90-4e19-8c01-64f355857775","system_id":"levelo_inurba_marseille","lat":43.30545,"lon":5.36542,"is_reserved":false,"is_disabled":false,"rental_uris":{"android":"levelo://app?vid=c17667f6-ed90-4e19-8c01-64f355857775","ios":"levelo://app?vid=c17667f6-ed90-4e19-8c01-64f355857775"},"vehicle_type_id":"4","last_reported":1730387333,"current_range_meters":37600,"station_id":"ce4bgs12rcd13ifvqcag","pricing_plan_id":"cebpf4jnsgd1na2vs0mg"},{"bike_id":"3271d7f6-0f65-475f-8b65-c5efde785335","system_id":"levelo_inurba_marseille","lat":43.2319,"lon":5.35553,"is_reserved":false,"is_disabled":false,"rental_uris":{"android":"levelo://app?vid=3271d7f6-0f65-475f-8b65-c5efde785335","ios":"levelo://app?vid=3271d7f6-0f65-475f-8b65-c5efde785335"},"vehicle_type_id":"4","last_reported":1730387333,"current_range_meters":35200,"station_id":"ce4bhu92rcd13ifvqi70","pricing_plan_id":"cebpf4jnsgd1na2vs0mg"},{"bike_id":"f99547b6-e0b7-4a86-b4bb-f600f8ca5cb2","system_id":"levelo_inurba_marseille","lat":43.24168,"lon":5.36401,"is_reserved":false,"is_disabled":false,"rental_uris":{"android":"levelo://app?vid=f99547b6-e0b7-4a86-b4bb-f600f8ca5cb2","ios":"levelo://app?vid=f99547b6-e0b7-4a86-b4bb-f600f8ca5cb2"},"vehicle_type_id":"4","last_reported":1730387333,"current_range_meters":10800,"station_id":"cpo36qri1sfpv3e86is0","pricing_plan_id":"cebpf4jnsgd1na2vs0mg"},{"bike_id":"9298f723-256e-4d48-b8aa-78d8543b7b76","system_id":"levelo_inurba_marseille","lat":43.30545,"lon":5.367,"is_reserved":false,"is_disabled":false,"rental_uris":{"android":"levelo://app?vid=9298f723-256e-4d48-b8aa-78d8543b7b76","ios":"levelo://app?vid=9298f723-256e-4d48-b8aa-78d8543b7b76"},"vehicle_type_id":"4","last_reported":1730387333,"current_range_meters":14800,"station_id":"ce4bgrp2rcd13ifvqc9g","pricing_plan_id":"cebpf4jnsgd1na2vs0mg"},{"bike_id":"127445c9-ee18-48bb-98c4-1f710d695489","system_id":"levelo_inurba_marseille","lat":43.30525,"lon":5.39351,"is_reserved":false,"is_disabled":false,"rental_uris":{"android":"levelo://app?vid=127445c9-ee18-48bb-98c4-1f710d695489","ios":"levelo://app?vid=127445c9-ee18-48bb-98c4-1f710d695489"},"vehicle_type_id":"4","last_reported":1730387333,"current_range_meters":19600,"station_id":"","pricing_plan_id":"cebpf4jnsgd1na2vs0mg"},{"bike_id":"6bbf7eea-db33-426a-a150-71256804695b","system_id":"levelo_inurba_marseille","lat":43.30419,"lon":5.39761,"is_reserved":false,"is_disabled":false,"rental_uris":{"android":"levelo://app?vid=6bbf7eea-db33-426a-a150-71256804695b","ios":"levelo://app?vid=6bbf7eea-db33-426a-a150-71256804695b"},"vehicle_type_id":"4","last_reported":1730387333,"current_range_meters":38000,"station_id":"ce4bh092rcd13ifvqd20","pricing_plan_id":"cebpf4jnsgd1na2vs0mg"},{"bike_id":"72e37474-1bc8-4568-aec8-ce5464e6b828","system_id":"levelo_inurba_marseille","lat":43.2319,"lon":5.35549,"is_reserved":false,"is_disabled":false,"rental_uris":{"android":"levelo://app?vid=72e37474-1bc8-4568-aec8-ce5464e6b828","ios":"levelo://app?vid=72e37474-1bc8-4568-aec8-ce5464e6b828"},"vehicle_type_id":"4","last_reported":1730387333,"current_range_meters":24400,"station_id":"ce4bhu92rcd13ifvqi70","pricing_plan_id":"cebpf4jnsgd1na2vs0mg"},{"bike_id":"0c8e4d4c-03e0-4f84-9178-d3c2d939f6d0","system_id":"levelo_inurba_marseille","lat":43.29304,"lon":5.3718,"is_reserved":false,"is_disabled":false,"rental_uris":{"android":"levelo://app?vid=0c8e4d4c-03e0-4f84-9178-d3c2d939f6d0","ios":"levelo://app?vid=0c8e4d4c-03e0-4f84-9178-d3c2d939f6d0"},"vehicle_type_id":"4","last_reported":1730387333,"current_range_meters":6400,"station_id":"ce4bgh92rcd13ifvqb40","pricing_plan_id":"cebpf4jnsgd1na2vs0mg"},{"bike_id":"1205d633-4986-4c67-9432-2d423a89c40d","system_id":"levelo_inurba_marseille","lat":43.27181,"lon":5.40992,"is_reserved":false,"is_disabled":false,"rental_uris":{"android":"levelo://app?vid=1205d633-4986-4c67-9432-2d423a89c40d","ios":"levelo://app?vid=1205d633-4986-4c67-9432-2d423a89c40d"},"vehicle_type_id":"4","last_reported":1730387333,"current_range_meters":33600,"station_id":"ce4bhl12rcd13ifvqgf0","pricing_plan_id":"cebpf4jnsgd1na2vs0mg"},{"bike_id":"a4fd5329-d50e-4910-ac9b-9aa44d3cfaaf","system_id":"levelo_inurba_marseille","lat":43.30638,"lon":5.40089,"is_reserved":false,"is_disabled":false,"rental_uris":{"android":"levelo://app?vid=a4fd5329-d50e-4910-ac9b-9aa44d3cfaaf","ios":"levelo://app?vid=a4fd5329-d50e-4910-ac9b-9aa44d3cfaaf"},"vehicle_type_id":"4","last_reported":1730387333,"current_range_meters":3600,"station_id":"ce4bh112rcd13ifvqda0","pricing_plan_id":"cebpf4jnsgd1na2vs0mg"},{"bike_id":"3c07b76a-6f9b-42d9-b43a-98d28ab9aacb","system_id":"levelo_inurba_marseille","lat":43.28425,"lon":5.34999,"is_reserved":false,"is_disabled":false,"rental_uris":{"android":"levelo://app?vid=3c07b76a-6f9b-42d9-b43a-98d28ab9aacb","ios":"levelo://app?vid=3c07b76a-6f9b-42d9-b43a-98d28ab9aacb"},"vehicle_type_id":"4","last_reported":1730387333,"current_range_meters":27600,"station_id":"ce4bhbh2rcd13ifvqepg","pricing_plan_id":"cebpf4jnsgd1na2vs0mg"},{"bike_id":"48f2b3be-3eed-43a5-bf44-5440f3c16564","system_id":"levelo_inurba_marseille","lat":43.29596,"lon":5.38099,"is_reserved":false,"is_disabled":false,"rental_uris":{"android":"levelo://app?vid=48f2b3be-3eed-43a5-bf44-5440f3c16564","ios":"levelo://app?vid=48f2b3be-3eed-43a5-bf44-5440f3c16564"},"vehicle_type_id":"4","last_reported":1730387333,"current_range_meters":36800,"station_id":"ce4bgl12rcd13ifvqbo0","pricing_plan_id":"cebpf4jnsgd1na2vs0mg"},{"bike_id":"649b9506-4254-430d-82cf-e0b06f6c805c","system_id":"levelo_inurba_marseille","lat":43.30326,"lon":5.4043,"is_reserved":false,"is_disabled":false,"rental_uris":{"android":"levelo://app?vid=649b9506-4254-430d-82cf-e0b06f6c805c","ios":"levelo://app?vid=649b9506-4254-430d-82cf-e0b06f6c805c"},"vehicle_type_id":"4","last_reported":1730387333,"current_range_meters":9600,"station_id":"ce4bh012rcd13ifvqd10","pricing_plan_id":"cebpf4jnsgd1na2vs0mg"},{"bike_id":"ef5c5713-2ed5-40ed-80ce-3e51e9b36a3d","system_id":"levelo_inurba_marseille","lat":43.29877,"lon":5.3974,"is_reserved":false,"is_disabled":false,"rental_uris":{"android":"levelo://app?vid=ef5c5713-2ed5-40ed-80ce-3e51e9b36a3d","ios":"levelo://app?vid=ef5c5713-2ed5-40ed-80ce-3e51e9b36a3d"},"vehicle_type_id":"4","last_reported":1730387333,"current_range_meters":31200,"station_id":"ce4bh0h2rcd13ifvqd50","pricing_plan_id":"cebpf4jnsgd1na2vs0mg"},{"bike_id":"35985e2c-bd00-4188-badf-9cbf09da1489","system_id":"levelo_inurba_marseille","lat":43.27941,"lon":5.4105,"is_reserved":false,"is_disabled":false,"rental_uris":{"android":"levelo://app?vid=35985e2c-bd00-4188-badf-9cbf09da1489","ios":"levelo://app?vid=35985e2c-bd00-4188-badf-9cbf09da1489"},"vehicle_type_id":"4","last_reported":1730387333,"current_range_meters":6000,"station_id":"ce4bhnp2rcd13ifvqh0g","pricing_plan_id":"cebpf4jnsgd1na2vs0mg"},{"bike_id":"56604c5c-f315-4fd1-afc7-6bbb18f08509","system_id":"levelo_inurba_marseille","lat":43.2827,"lon":5.35072,"is_reserved":false,"is_disabled":false,"rental_uris":{"android":"levelo://app?vid=56604c5c-f315-4fd1-afc7-6bbb18f08509","ios":"levelo://app?vid=56604c5c-f315-4fd1-afc7-6bbb18f08509"},"vehicle_type_id":"4","last_reported":1730387333,"current_range_meters":35200,"station_id":"ce4bhbp2rcd13ifvqerg","pricing_plan_id":"cebpf4jnsgd1na2vs0mg"},{"bike_id":"b9252425-8269-4366-a891-0a5f81cc45cd","system_id":"levelo_inurba_marseille","lat":43.31988,"lon":5.39003,"is_reserved":false,"is_disabled":false,"rental_uris":{"android":"levelo://app?vid=b9252425-8269-4366-a891-0a5f81cc45cd","ios":"levelo://app?vid=b9252425-8269-4366-a891-0a5f81cc45cd"},"vehicle_type_id":"4","last_reported":1730387333,"current_range_meters":6400,"station_id":"","pricing_plan_id":"cebpf4jnsgd1na2vs0mg"},{"bike_id":"aa9d88a0-daf2-4d34-8ddb-f0c8bb7d59e8","system_id":"levelo_inurba_marseille","lat":43.28276,"lon":5.35068,"is_reserved":false,"is_disabled":false,"rental_uris":{"android":"levelo://app?vid=aa9d88a0-daf2-4d34-8ddb-f0c8bb7d59e8","ios":"levelo://app?vid=aa9d88a0-daf2-4d34-8ddb-f0c8bb7d59e8"},"vehicle_type_id":"4","last_reported":1730387333,"current_range_meters":30800,"station_id":"ce4bhbp2rcd13ifvqerg","pricing_plan_id":"cebpf4jnsgd1na2vs0mg"},{"bike_id":"4a81e707-37f0-4c72-9cf0-6fba4814c95e","system_id":"levelo_inurba_marseille","lat":43.29225,"lon":5.36054,"is_reserved":false,"is_disabled":false,"rental_uris":{"android":"levelo://app?vid=4a81e707-37f0-4c72-9cf0-6fba4814c95e","ios":"levelo://app?vid=4a81e707-37f0-4c72-9cf0-6fba4814c95e"},"vehicle_type_id":"4","last_reported":1730387333,"current_range_meters":35600,"station_id":"ce4bhbh2rcd13ifvqeqg","pricing_plan_id":"cebpf4jnsgd1na2vs0mg"},{"bike_id":"80e961c1-4e38-4fdd-9c2f-11b8b676361b","system_id":"levelo_inurba_marseille","lat":43.28938,"lon":5.36633,"is_reserved":false,"is_disabled":false,"rental_uris":{"android":"levelo://app?vid=80e961c1-4e38-4fdd-9c2f-11b8b676361b","ios":"levelo://app?vid=80e961c1-4e38-4fdd-9c2f-11b8b676361b"},"vehicle_type_id":"4","last_reported":1730387333,"current_range_meters":14000,"station_id":"ce4bhap2rcd13ifvqek0","pricing_plan_id":"cebpf4jnsgd1na2vs0mg"},{"bike_id":"991eeddd-8ee0-4756-a5aa-cbc3d3b68a12","system_id":"levelo_inurba_marseille","lat":43.25867,"lon":5.39903,"is_reserved":false,"is_disabled":false,"rental_uris":{"android":"levelo://app?vid=991eeddd-8ee0-4756-a5aa-cbc3d3b68a12","ios":"levelo://app?vid=991eeddd-8ee0-4756-a5aa-cbc3d3b68a12"},"vehicle_type_id":"4","last_reported":1730387333,"current_range_meters":38800,"station_id":"ce4bhl92rcd13ifvqghg","pricing_plan_id":"cebpf4jnsgd1na2vs0mg"},{"bike_id":"ba8154dd-ff95-4f14-bd43-61be5688a6a1","system_id":"levelo_inurba_marseille","lat":43.28619,"lon":5.35113,"is_reserved":false,"is_disabled":false,"rental_uris":{"android":"levelo://app?vid=ba8154dd-ff95-4f14-bd43-61be5688a6a1","ios":"levelo://app?vid=ba8154dd-ff95-4f14-bd43-61be5688a6a1"},"vehicle_type_id":"4","last_reported":1730387333,"current_range_meters":10000,"station_id":"ce4bhch2rcd13ifvqeug","pricing_plan_id":"cebpf4jnsgd1na2vs0mg"},{"bike_id":"ac2bb9db-3934-4540-9307-2fe9eb833ccb","system_id":"levelo_inurba_marseille","lat":43.27379,"lon":5.36256,"is_reserved":false,"is_disabled":false,"rental_uris":{"android":"levelo://app?vid=ac2bb9db-3934-4540-9307-2fe9eb833ccb","ios":"levelo://app?vid=ac2bb9db-3934-4540-9307-2fe9eb833ccb"},"vehicle_type_id":"4","last_reported":1730387333,"current_range_meters":24400,"station_id":"ce4bhbh2rcd13ifvqeo0","pricing_plan_id":"cebpf4jnsgd1na2vs0mg"},{"bike_id":"400a7102-0c4a-4137-83f3-dad5c8d1be6b","system_id":"levelo_inurba_marseille","lat":43.29526,"lon":5.39039,"is_reserved":false,"is_disabled":false,"rental_uris":{"android":"levelo://app?vid=400a7102-0c4a-4137-83f3-dad5c8d1be6b","ios":"levelo://app?vid=400a7102-0c4a-4137-83f3-dad5c8d1be6b"},"vehicle_type_id":"4","last_reported":1730387333,"current_range_meters":35600,"station_id":"ce4bh3p2rcd13ifvqdp0","pricing_plan_id":"cebpf4jnsgd1na2vs0mg"},{"bike_id":"1b64776f-f512-4452-b71f-7052bea2e840","system_id":"levelo_inurba_marseille","lat":43.24174,"lon":5.39743,"is_reserved":false,"is_disabled":false,"rental_uris":{"android":"levelo://app?vid=1b64776f-f512-4452-b71f-7052bea2e840","ios":"levelo://app?vid=1b64776f-f512-4452-b71f-7052bea2e840"},"vehicle_type_id":"4","last_reported":1730387333,"current_range_meters":39200,"station_id":"ce4bhn12rcd13ifvqgpg","pricing_plan_id":"cebpf4jnsgd1na2vs0mg"},{"bike_id":"55e8dde2-617e-4c29-bde2-a7deb8339727","system_id":"levelo_inurba_marseille","lat":43.30203,"lon":5.39465,"is_reserved":false,"is_disabled":false,"rental_uris":{"android":"levelo://app?vid=55e8dde2-617e-4c29-bde2-a7deb8339727","ios":"levelo://app?vid=55e8dde2-617e-4c29-bde2-a7deb8339727"},"vehicle_type_id":"4","last_reported":1730387333,"current_range_meters":28400,"station_id":"ce4bh0p2rcd13ifvqd70","pricing_plan_id":"cebpf4jnsgd1na2vs0mg"},{"bike_id":"b503c5a4-0789-4753-98eb-4d5bd5fe28a7","system_id":"levelo_inurba_marseille","lat":43.3054,"lon":5.36706,"is_reserved":false,"is_disabled":false,"rental_uris":{"android":"levelo://app?vid=b503c5a4-0789-4753-98eb-4d5bd5fe28a7","ios":"levelo://app?vid=b503c5a4-0789-4753-98eb-4d5bd5fe28a7"},"vehicle_type_id":"4","last_reported":1730387333,"current_range_meters":39200,"station_id":"ce4bgrp2rcd13ifvqc9g","pricing_plan_id":"cebpf4jnsgd1na2vs0mg"},{"bike_id":"5a2646ee-dd52-4b93-b358-09289a78e91a","system_id":"levelo_inurba_marseille","lat":43.26558,"lon":5.37278,"is_reserved":false,"is_disabled":false,"rental_uris":{"android":"levelo://app?vid=5a2646ee-dd52-4b93-b358-09289a78e91a","ios":"levelo://app?vid=5a2646ee-dd52-4b93-b358-09289a78e91a"},"vehicle_type_id":"4","last_reported":1730387333,"current_range_meters":33200,"station_id":"ce4bhg12rcd13ifvqf70","pricing_plan_id":"cebpf4jnsgd1na2vs0mg"},{"bike_id":"60342083-282f-430d-bb1d-e63f80042fb4","system_id":"levelo_inurba_marseille","lat":43.32108,"lon":5.3677,"is_reserved":false,"is_disabled":false,"rental_uris":{"android":"levelo://app?vid=60342083-282f-430d-bb1d-e63f80042fb4","ios":"levelo://app?vid=60342083-282f-430d-bb1d-e63f80042fb4"},"vehicle_type_id":"4","last_reported":1730387333,"current_range_meters":8400,"station_id":"ce4bhrh2rcd13ifvqhug","pricing_plan_id":"cebpf4jnsgd1na2vs0mg"},{"bike_id":"1995d42f-9bb2-423e-a419-1706f5fab24e","system_id":"levelo_inurba_marseille","lat":43.27067,"lon":5.42278,"is_reserved":false,"is_disabled":false,"rental_uris":{"android":"levelo://app?vid=1995d42f-9bb2-423e-a419-1706f5fab24e","ios":"levelo://app?vid=1995d42f-9bb2-423e-a419-1706f5fab24e"},"vehicle_type_id":"4","last_reported":1730387333,"current_range_meters":28400,"station_id":"ce4bhk92rcd13ifvqgb0","pricing_plan_id":"cebpf4jnsgd1na2vs0mg"},{"bike_id":"248516bd-2643-4a5e-8034-b8a7ad58221d","system_id":"levelo_inurba_marseille","lat":43.25581,"lon":5.38241,"is_reserved":false,"is_disabled":false,"rental_uris":{"android":"levelo://app?vid=248516bd-2643-4a5e-8034-b8a7ad58221d","ios":"levelo://app?vid=248516bd-2643-4a5e-8034-b8a7ad58221d"},"vehicle_type_id":"4","last_reported":1730387333,"current_range_meters":38800,"station_id":"ce4bhih2rcd13ifvqfs0","pricing_plan_id":"cebpf4jnsgd1na2vs0mg"},{"bike_id":"cbd5ea59-c808-4f9f-8cae-109426c348ee","system_id":"levelo_inurba_marseille","lat":43.28413,"lon":5.35001,"is_reserved":false,"is_disabled":false,"rental_uris":{"android":"levelo://app?vid=cbd5ea59-c808-4f9f-8cae-109426c348ee","ios":"levelo://app?vid=cbd5ea59-c808-4f9f-8cae-109426c348ee"},"vehicle_type_id":"4","last_reported":1730387333,"current_range_meters":32000,"station_id":"ce4bhbh2rcd13ifvqepg","pricing_plan_id":"cebpf4jnsgd1na2vs0mg"},{"bike_id":"1ea8470e-2800-45eb-8434-f4430167395d","system_id":"levelo_inurba_marseille","lat":43.28929,"lon":5.3638,"is_reserved":false,"is_disabled":false,"rental_uris":{"android":"levelo://app?vid=1ea8470e-2800-45eb-8434-f4430167395d","ios":"levelo://app?vid=1ea8470e-2800-45eb-8434-f4430167395d"},"vehicle_type_id":"4","last_reported":1730387333,"current_range_meters":8000,"station_id":"ce4bhc92rcd13ifvqetg","pricing_plan_id":"cebpf4jnsgd1na2vs0mg"},{"bike_id":"257ae5f3-c207-46eb-a81f-4da2c80f5e52","system_id":"levelo_inurba_marseille","lat":43.30138,"lon":5.37432,"is_reserved":false,"is_disabled":false,"rental_uris":{"android":"levelo://app?vid=257ae5f3-c207-46eb-a81f-4da2c80f5e52","ios":"levelo://app?vid=257ae5f3-c207-46eb-a81f-4da2c80f5e52"},"vehicle_type_id":"4","last_reported":1730387333,"current_range_meters":28000,"station_id":"ce4bgs92rcd13ifvqcc0","pricing_plan_id":"cebpf4jnsgd1na2vs0mg"},{"bike_id":"f8f13c48-d6f2-4935-98a1-048cabaae630","system_id":"levelo_inurba_marseille","lat":43.29554,"lon":5.4229,"is_reserved":false,"is_disabled":false,"rental_uris":{"android":"levelo://app?vid=f8f13c48-d6f2-4935-98a1-048cabaae630","ios":"levelo://app?vid=f8f13c48-d6f2-4935-98a1-048cabaae630"},"vehicle_type_id":"4","last_reported":1730387333,"current_range_meters":14800,"station_id":"ce4bhph2rcd13ifvqhdg","pricing_plan_id":"cebpf4jnsgd1na2vs0mg"},{"bike_id":"1841362e-0140-49dd-ac0c-d688725c0aa4","system_id":"levelo_inurba_marseille","lat":43.29557,"lon":5.42297,"is_reserved":false,"is_disabled":false,"rental_uris":{"android":"levelo://app?vid=1841362e-0140-49dd-ac0c-d688725c0aa4","ios":"levelo://app?vid=1841362e-0140-49dd-ac0c-d688725c0aa4"},"vehicle_type_id":"4","last_reported":1730387333,"current_range_meters":38800,"station_id":"ce4bhph2rcd13ifvqhdg","pricing_plan_id":"cebpf4jnsgd1na2vs0mg"},{"bike_id":"ee105eef-9569-4854-95c5-19b198380176","system_id":"levelo_inurba_marseille","lat":43.30151,"lon":5.38086,"is_reserved":false,"is_disabled":false,"rental_uris":{"android":"levelo://app?vid=ee105eef-9569-4854-95c5-19b198380176","ios":"levelo://app?vid=ee105eef-9569-4854-95c5-19b198380176"},"vehicle_type_id":"4","last_reported":1730387333,"current_range_meters":30800,"station_id":"ce4bgjp2rcd13ifvqbh0","pricing_plan_id":"cebpf4jnsgd1na2vs0mg"},{"bike_id":"94279a57-03c0-47b7-abe3-7226e86fd3b0","system_id":"levelo_inurba_marseille","lat":43.2762,"lon":5.36111,"is_reserved":false,"is_disabled":false,"rental_uris":{"android":"levelo://app?vid=94279a57-03c0-47b7-abe3-7226e86fd3b0","ios":"levelo://app?vid=94279a57-03c0-47b7-abe3-7226e86fd3b0"},"vehicle_type_id":"4","last_reported":1730387333,"current_range_meters":28800,"station_id":"ce4bgj92rcd13ifvqbe0","pricing_plan_id":"cebpf4jnsgd1na2vs0mg"},{"bike_id":"1ace14c5-1992-46b1-87cf-4a1d3c62f592","system_id":"levelo_inurba_marseille","lat":43.28155,"lon":5.4264,"is_reserved":false,"is_disabled":false,"rental_uris":{"android":"levelo://app?vid=1ace14c5-1992-46b1-87cf-4a1d3c62f592","ios":"levelo://app?vid=1ace14c5-1992-46b1-87cf-4a1d3c62f592"},"vehicle_type_id":"4","last_reported":1730387333,"current_range_meters":16400,"station_id":"ce4bhnh2rcd13ifvqgug","pricing_plan_id":"cebpf4jnsgd1na2vs0mg"},{"bike_id":"65fe22a4-436d-4b81-a739-392526810148","system_id":"levelo_inurba_marseille","lat":43.29624,"lon":5.37723,"is_reserved":false,"is_disabled":false,"rental_uris":{"android":"levelo://app?vid=65fe22a4-436d-4b81-a739-392526810148","ios":"levelo://app?vid=65fe22a4-436d-4b81-a739-392526810148"},"vehicle_type_id":"4","last_reported":1730387333,"current_range_meters":12000,"station_id":"ce4bgi92rcd13ifvqb90","pricing_plan_id":"cebpf4jnsgd1na2vs0mg"},{"bike_id":"2b7ad954-2153-42d9-a62a-cf7d63fc6b0e","system_id":"levelo_inurba_marseille","lat":43.28413,"lon":5.34998,"is_reserved":false,"is_disabled":false,"rental_uris":{"android":"levelo://app?vid=2b7ad954-2153-42d9-a62a-cf7d63fc6b0e","ios":"levelo://app?vid=2b7ad954-2153-42d9-a62a-cf7d63fc6b0e"},"vehicle_type_id":"4","last_reported":1730387333,"current_range_meters":39200,"station_id":"ce4bhbh2rcd13ifvqepg","pricing_plan_id":"cebpf4jnsgd1na2vs0mg"},{"bike_id":"9e9467dc-08bd-4540-a622-7c942da68b8d","system_id":"levelo_inurba_marseille","lat":43.25576,"lon":5.38234,"is_reserved":false,"is_disabled":false,"rental_uris":{"android":"levelo://app?vid=9e9467dc-08bd-4540-a622-7c942da68b8d","ios":"levelo://app?vid=9e9467dc-08bd-4540-a622-7c942da68b8d"},"vehicle_type_id":"4","last_reported":1730387333,"current_range_meters":3600,"station_id":"ce4bhih2rcd13ifvqfs0","pricing_plan_id":"cebpf4jnsgd1na2vs0mg"},{"bike_id":"91ab86ec-081e-420a-bc11-75e3d405a074","system_id":"levelo_inurba_marseille","lat":43.2957,"lon":5.37528,"is_reserved":false,"is_disabled":false,"rental_uris":{"android":"levelo://app?vid=91ab86ec-081e-420a-bc11-75e3d405a074","ios":"levelo://app?vid=91ab86ec-081e-420a-bc11-75e3d405a074"},"vehicle_type_id":"4","last_reported":1730387333,"current_range_meters":30000,"station_id":"ce4bgh92rcd13ifvqb50","pricing_plan_id":"cebpf4jnsgd1na2vs0mg"},{"bike_id":"80887650-68c1-40bf-ba24-5123fe362d78","system_id":"levelo_inurba_marseille","lat":43.2621,"lon":5.37445,"is_reserved":false,"is_disabled":false,"rental_uris":{"android":"levelo://app?vid=80887650-68c1-40bf-ba24-5123fe362d78","ios":"levelo://app?vid=80887650-68c1-40bf-ba24-5123fe362d78"},"vehicle_type_id":"4","last_reported":1730387333,"current_range_meters":26000,"station_id":"ce4bhgp2rcd13ifvqfc0","pricing_plan_id":"cebpf4jnsgd1na2vs0mg"},{"bike_id":"b670ab9b-38df-4f8e-8d12-b0edb435af29","system_id":"levelo_inurba_marseille","lat":43.29191,"lon":5.35801,"is_reserved":false,"is_disabled":false,"rental_uris":{"android":"levelo://app?vid=b670ab9b-38df-4f8e-8d12-b0edb435af29","ios":"levelo://app?vid=b670ab9b-38df-4f8e-8d12-b0edb435af29"},"vehicle_type_id":"4","last_reported":1730387333,"current_range_meters":27600,"station_id":"ce4bhb12rcd13ifvqel0","pricing_plan_id":"cebpf4jnsgd1na2vs0mg"},{"bike_id":"2905f4b5-73c3-4857-b048-8c4448114c93","system_id":"levelo_inurba_marseille","lat":43.28661,"lon":5.36362,"is_reserved":false,"is_disabled":false,"rental_uris":{"android":"levelo://app?vid=2905f4b5-73c3-4857-b048-8c4448114c93","ios":"levelo://app?vid=2905f4b5-73c3-4857-b048-8c4448114c93"},"vehicle_type_id":"4","last_reported":1730387333,"current_range_meters":9200,"station_id":"ce4bhah2rcd13ifvqej0","pricing_plan_id":"cebpf4jnsgd1na2vs0mg"},{"bike_id":"0e6dd02c-46ea-478c-9dc6-e1b5bd3823e1","system_id":"levelo_inurba_marseille","lat":43.30143,"lon":5.37428,"is_reserved":false,"is_disabled":false,"rental_uris":{"android":"levelo://app?vid=0e6dd02c-46ea-478c-9dc6-e1b5bd3823e1","ios":"levelo://app?vid=0e6dd02c-46ea-478c-9dc6-e1b5bd3823e1"},"vehicle_type_id":"4","last_reported":1730387333,"current_range_meters":39200,"station_id":"ce4bgs92rcd13ifvqcc0","pricing_plan_id":"cebpf4jnsgd1na2vs0mg"},{"bike_id":"e9d87158-c911-4b90-9e42-84662af0f2b9","system_id":"levelo_inurba_marseille","lat":43.29295,"lon":5.37466,"is_reserved":false,"is_disabled":false,"rental_uris":{"android":"levelo://app?vid=e9d87158-c911-4b90-9e42-84662af0f2b9","ios":"levelo://app?vid=e9d87158-c911-4b90-9e42-84662af0f2b9"},"vehicle_type_id":"4","last_reported":1730387333,"current_range_meters":28400,"station_id":"ce4bgi12rcd13ifvqb70","pricing_plan_id":"cebpf4jnsgd1na2vs0mg"},{"bike_id":"fb9ef889-2ca8-4eaf-8750-74a9b871da4d","system_id":"levelo_inurba_marseille","lat":43.30428,"lon":5.39752,"is_reserved":false,"is_disabled":false,"rental_uris":{"android":"levelo://app?vid=fb9ef889-2ca8-4eaf-8750-74a9b871da4d","ios":"levelo://app?vid=fb9ef889-2ca8-4eaf-8750-74a9b871da4d"},"vehicle_type_id":"4","last_reported":1730387333,"current_range_meters":14400,"station_id":"ce4bh092rcd13ifvqd20","pricing_plan_id":"cebpf4jnsgd1na2vs0mg"},{"bike_id":"273ccf68-1627-4fd5-a806-728904b7cde7","system_id":"levelo_inurba_marseille","lat":43.28413,"lon":5.34981,"is_reserved":false,"is_disabled":false,"rental_uris":{"android":"levelo://app?vid=273ccf68-1627-4fd5-a806-728904b7cde7","ios":"levelo://app?vid=273ccf68-1627-4fd5-a806-728904b7cde7"},"vehicle_type_id":"4","last_reported":1730387333,"current_range_meters":31200,"station_id":"ce4bhbh2rcd13ifvqepg","pricing_plan_id":"cebpf4jnsgd1na2vs0mg"},{"bike_id":"8d70ada9-c9b9-4b32-8109-e2c33096d390","system_id":"levelo_inurba_marseille","lat":43.30145,"lon":5.3808,"is_reserved":false,"is_disabled":false,"rental_uris":{"android":"levelo://app?vid=8d70ada9-c9b9-4b32-8109-e2c33096d390","ios":"levelo://app?vid=8d70ada9-c9b9-4b32-8109-e2c33096d390"},"vehicle_type_id":"4","last_reported":1730387333,"current_range_meters":4400,"station_id":"ce4bgjp2rcd13ifvqbh0","pricing_plan_id":"cebpf4jnsgd1na2vs0mg"},{"bike_id":"804728ed-48e8-4e36-bea3-8c9a983d8190","system_id":"levelo_inurba_marseille","lat":43.24662,"lon":5.38163,"is_reserved":false,"is_disabled":false,"rental_uris":{"android":"levelo://app?vid=804728ed-48e8-4e36-bea3-8c9a983d8190","ios":"levelo://app?vid=804728ed-48e8-4e36-bea3-8c9a983d8190"},"vehicle_type_id":"4","last_reported":1730387333,"current_range_meters":38800,"station_id":"ce4bhih2rcd13ifvqfr0","pricing_plan_id":"cebpf4jnsgd1na2vs0mg"},{"bike_id":"3e68ff33-06ed-4f58-92d6-c7e8e60269c9","system_id":"levelo_inurba_marseille","lat":43.32487,"lon":5.36573,"is_reserved":false,"is_disabled":false,"rental_uris":{"android":"levelo://app?vid=3e68ff33-06ed-4f58-92d6-c7e8e60269c9","ios":"levelo://app?vid=3e68ff33-06ed-4f58-92d6-c7e8e60269c9"},"vehicle_type_id":"4","last_reported":1730387333,"current_range_meters":36000,"station_id":"ce4bhs12rcd13ifvqhvg","pricing_plan_id":"cebpf4jnsgd1na2vs0mg"},{"bike_id":"80adf85f-5e70-46b1-9124-e0e208416451","system_id":"levelo_inurba_marseille","lat":43.29007,"lon":5.35607,"is_reserved":false,"is_disabled":false,"rental_uris":{"android":"levelo://app?vid=80adf85f-5e70-46b1-9124-e0e208416451","ios":"levelo://app?vid=80adf85f-5e70-46b1-9124-e0e208416451"},"vehicle_type_id":"4","last_reported":1730387333,"current_range_meters":3200,"station_id":"ce4bhb92rcd13ifvqen0","pricing_plan_id":"cebpf4jnsgd1na2vs0mg"},{"bike_id":"0b8ed408-0c1d-4ce3-af8c-05c9a872ed51","system_id":"levelo_inurba_marseille","lat":43.24387,"lon":5.37061,"is_reserved":false,"is_disabled":false,"rental_uris":{"android":"levelo://app?vid=0b8ed408-0c1d-4ce3-af8c-05c9a872ed51","ios":"levelo://app?vid=0b8ed408-0c1d-4ce3-af8c-05c9a872ed51"},"vehicle_type_id":"4","last_reported":1730387333,"current_range_meters":30800,"station_id":"ce4bhhh2rcd13ifvqfk0","pricing_plan_id":"cebpf4jnsgd1na2vs0mg"},{"bike_id":"6e6b4b4c-59f6-4cae-9fe4-c4fc6ebf26cc","system_id":"levelo_inurba_marseille","lat":43.29927,"lon":5.37465,"is_reserved":false,"is_disabled":false,"rental_uris":{"android":"levelo://app?vid=6e6b4b4c-59f6-4cae-9fe4-c4fc6ebf26cc","ios":"levelo://app?vid=6e6b4b4c-59f6-4cae-9fe4-c4fc6ebf26cc"},"vehicle_type_id":"4","last_reported":1730387333,"current_range_meters":28000,"station_id":"ce4bgjh2rcd13ifvqbg0","pricing_plan_id":"cebpf4jnsgd1na2vs0mg"},{"bike_id":"fea23d88-9bbb-4ffa-af08-7b03ca37348f","system_id":"levelo_inurba_marseille","lat":43.23185,"lon":5.39994,"is_reserved":false,"is_disabled":false,"rental_uris":{"android":"levelo://app?vid=fea23d88-9bbb-4ffa-af08-7b03ca37348f","ios":"levelo://app?vid=fea23d88-9bbb-4ffa-af08-7b03ca37348f"},"vehicle_type_id":"4","last_reported":1730387333,"current_range_meters":25600,"station_id":"ce4bhn12rcd13ifvqgqg","pricing_plan_id":"cebpf4jnsgd1na2vs0mg"},{"bike_id":"ea663166-0210-4215-bfb7-32878f8af3aa","system_id":"levelo_inurba_marseille","lat":43.30527,"lon":5.36715,"is_reserved":false,"is_disabled":false,"rental_uris":{"android":"levelo://app?vid=ea663166-0210-4215-bfb7-32878f8af3aa","ios":"levelo://app?vid=ea663166-0210-4215-bfb7-32878f8af3aa"},"vehicle_type_id":"4","last_reported":1730387333,"current_range_meters":33600,"station_id":"ce4bgrp2rcd13ifvqc9g","pricing_plan_id":"cebpf4jnsgd1na2vs0mg"},{"bike_id":"b17ef20c-3152-40e6-b030-67c328664052","system_id":"levelo_inurba_marseille","lat":43.31349,"lon":5.36726,"is_reserved":false,"is_disabled":false,"rental_uris":{"android":"levelo://app?vid=b17ef20c-3152-40e6-b030-67c328664052","ios":"levelo://app?vid=b17ef20c-3152-40e6-b030-67c328664052"},"vehicle_type_id":"4","last_reported":1730387333,"current_range_meters":38800,"station_id":"ce4bgr92rcd13ifvqc6g","pricing_plan_id":"cebpf4jnsgd1na2vs0mg"},{"bike_id":"774e7932-633a-40c1-b9a9-c8a1438fad7e","system_id":"levelo_inurba_marseille","lat":43.28534,"lon":5.37676,"is_reserved":false,"is_disabled":false,"rental_uris":{"android":"levelo://app?vid=774e7932-633a-40c1-b9a9-c8a1438fad7e","ios":"levelo://app?vid=774e7932-633a-40c1-b9a9-c8a1438fad7e"},"vehicle_type_id":"4","last_reported":1730387333,"current_range_meters":25200,"station_id":"ce4bhjp2rcd13ifvqga0","pricing_plan_id":"cebpf4jnsgd1na2vs0mg"},{"bike_id":"160c3125-d109-49e3-a687-ede78b99dea2","system_id":"levelo_inurba_marseille","lat":43.23196,"lon":5.35543,"is_reserved":false,"is_disabled":false,"rental_uris":{"android":"levelo://app?vid=160c3125-d109-49e3-a687-ede78b99dea2","ios":"levelo://app?vid=160c3125-d109-49e3-a687-ede78b99dea2"},"vehicle_type_id":"4","last_reported":1730387333,"current_range_meters":35200,"station_id":"ce4bhu92rcd13ifvqi70","pricing_plan_id":"cebpf4jnsgd1na2vs0mg"},{"bike_id":"d93ceb2b-2576-4335-8e1c-fe39a92d1174","system_id":"levelo_inurba_marseille","lat":43.27176,"lon":5.40995,"is_reserved":false,"is_disabled":false,"rental_uris":{"android":"levelo://app?vid=d93ceb2b-2576-4335-8e1c-fe39a92d1174","ios":"levelo://app?vid=d93ceb2b-2576-4335-8e1c-fe39a92d1174"},"vehicle_type_id":"4","last_reported":1730387333,"current_range_meters":18000,"station_id":"ce4bhl12rcd13ifvqgf0","pricing_plan_id":"cebpf4jnsgd1na2vs0mg"},{"bike_id":"36ee4b47-fce7-482f-abad-699477f9ad99","system_id":"levelo_inurba_marseille","lat":43.312683,"lon":5.40167,"is_reserved":false,"is_disabled":false,"rental_uris":{"android":"levelo://app?vid=36ee4b47-fce7-482f-abad-699477f9ad99","ios":"levelo://app?vid=36ee4b47-fce7-482f-abad-699477f9ad99"},"vehicle_type_id":"4","last_reported":1730387333,"current_range_meters":14000,"station_id":"ce4bh092rcd13ifvqd30","pricing_plan_id":"cebpf4jnsgd1na2vs0mg"},{"bike_id":"6e79723c-bd5d-43bc-94b3-42ecf72ece78","system_id":"levelo_inurba_marseille","lat":43.3171,"lon":5.37753,"is_reserved":false,"is_disabled":false,"rental_uris":{"android":"levelo://app?vid=6e79723c-bd5d-43bc-94b3-42ecf72ece78","ios":"levelo://app?vid=6e79723c-bd5d-43bc-94b3-42ecf72ece78"},"vehicle_type_id":"4","last_reported":1730387333,"current_range_meters":29600,"station_id":"ce4bgth2rcd13ifvqch0","pricing_plan_id":"cebpf4jnsgd1na2vs0mg"},{"bike_id":"71d10f41-2ffe-4394-bc10-bfa4bb58be1e","system_id":"levelo_inurba_marseille","lat":43.32341,"lon":5.40625,"is_reserved":false,"is_disabled":false,"rental_uris":{"android":"levelo://app?vid=71d10f41-2ffe-4394-bc10-bfa4bb58be1e","ios":"levelo://app?vid=71d10f41-2ffe-4394-bc10-bfa4bb58be1e"},"vehicle_type_id":"4","last_reported":1730387333,"current_range_meters":28000,"station_id":"ce4bhq92rcd13ifvqhjg","pricing_plan_id":"cebpf4jnsgd1na2vs0mg"},{"bike_id":"93226f71-51a5-4a18-8e8a-b8d14729bdd1","system_id":"levelo_inurba_marseille","lat":43.26684,"lon":5.38264,"is_reserved":false,"is_disabled":false,"rental_uris":{"android":"levelo://app?vid=93226f71-51a5-4a18-8e8a-b8d14729bdd1","ios":"levelo://app?vid=93226f71-51a5-4a18-8e8a-b8d14729bdd1"},"vehicle_type_id":"4","last_reported":1730387333,"current_range_meters":5600,"station_id":"ce4bhg92rcd13ifvqf90","pricing_plan_id":"cebpf4jnsgd1na2vs0mg"},{"bike_id":"c3998c17-f332-4e95-842c-ccd44ffc3783","system_id":"levelo_inurba_marseille","lat":43.28163,"lon":5.4265,"is_reserved":false,"is_disabled":false,"rental_uris":{"android":"levelo://app?vid=c3998c17-f332-4e95-842c-ccd44ffc3783","ios":"levelo://app?vid=c3998c17-f332-4e95-842c-ccd44ffc3783"},"vehicle_type_id":"4","last_reported":1730387333,"current_range_meters":38000,"station_id":"ce4bhnh2rcd13ifvqgug","pricing_plan_id":"cebpf4jnsgd1na2vs0mg"},{"bike_id":"e0cd67ca-da4c-4dc6-a489-615eb53586b8","system_id":"levelo_inurba_marseille","lat":43.337444,"lon":5.374475,"is_reserved":false,"is_disabled":false,"rental_uris":{"android":"levelo://app?vid=e0cd67ca-da4c-4dc6-a489-615eb53586b8","ios":"levelo://app?vid=e0cd67ca-da4c-4dc6-a489-615eb53586b8"},"vehicle_type_id":"4","last_reported":1730387333,"current_range_meters":38400,"station_id":"","pricing_plan_id":"cebpf4jnsgd1na2vs0mg"},{"bike_id":"d6a25ffc-8a2a-4ce5-898b-9ed4d1a08d19","system_id":"levelo_inurba_marseille","lat":43.288452,"lon":5.393181,"is_reserved":false,"is_disabled":false,"rental_uris":{"android":"levelo://app?vid=d6a25ffc-8a2a-4ce5-898b-9ed4d1a08d19","ios":"levelo://app?vid=d6a25ffc-8a2a-4ce5-898b-9ed4d1a08d19"},"vehicle_type_id":"4","last_reported":1730387333,"current_range_meters":25600,"station_id":"ce4bh2p2rcd13ifvqdi0","pricing_plan_id":"cebpf4jnsgd1na2vs0mg"},{"bike_id":"9dd87908-325d-4464-910b-0937ff5bac00","system_id":"levelo_inurba_marseille","lat":43.26788,"lon":5.39417,"is_reserved":false,"is_disabled":false,"rental_uris":{"android":"levelo://app?vid=9dd87908-325d-4464-910b-0937ff5bac00","ios":"levelo://app?vid=9dd87908-325d-4464-910b-0937ff5bac00"},"vehicle_type_id":"4","last_reported":1730387333,"current_range_meters":28800,"station_id":"ce4bhh12rcd13ifvqfg0","pricing_plan_id":"cebpf4jnsgd1na2vs0mg"},{"bike_id":"e0b91d3b-181a-4035-9fb7-f1a7fd235262","system_id":"levelo_inurba_marseille","lat":43.28946,"lon":5.36639,"is_reserved":false,"is_disabled":false,"rental_uris":{"android":"levelo://app?vid=e0b91d3b-181a-4035-9fb7-f1a7fd235262","ios":"levelo://app?vid=e0b91d3b-181a-4035-9fb7-f1a7fd235262"},"vehicle_type_id":"4","last_reported":1730387333,"current_range_meters":30000,"station_id":"ce4bhap2rcd13ifvqek0","pricing_plan_id":"cebpf4jnsgd1na2vs0mg"},{"bike_id":"707bc0f6-9d80-40d8-927b-513bc137c5d6","system_id":"levelo_inurba_marseille","lat":43.30306,"lon":5.3921,"is_reserved":false,"is_disabled":false,"rental_uris":{"android":"levelo://app?vid=707bc0f6-9d80-40d8-927b-513bc137c5d6","ios":"levelo://app?vid=707bc0f6-9d80-40d8-927b-513bc137c5d6"},"vehicle_type_id":"4","last_reported":1730387333,"current_range_meters":6400,"station_id":"ce4bgkh2rcd13ifvqbk0","pricing_plan_id":"cebpf4jnsgd1na2vs0mg"},{"bike_id":"1678655c-ba87-46ee-9e52-89fd32ac976e","system_id":"levelo_inurba_marseille","lat":43.28415,"lon":5.34994,"is_reserved":false,"is_disabled":false,"rental_uris":{"android":"levelo://app?vid=1678655c-ba87-46ee-9e52-89fd32ac976e","ios":"levelo://app?vid=1678655c-ba87-46ee-9e52-89fd32ac976e"},"vehicle_type_id":"4","last_reported":1730387333,"current_range_meters":38800,"station_id":"ce4bhbh2rcd13ifvqepg","pricing_plan_id":"cebpf4jnsgd1na2vs0mg"},{"bike_id":"22a89b8c-fbf4-46b9-8961-010fcce86727","system_id":"levelo_inurba_marseille","lat":43.29627,"lon":5.40591,"is_reserved":false,"is_disabled":false,"rental_uris":{"android":"levelo://app?vid=22a89b8c-fbf4-46b9-8961-010fcce86727","ios":"levelo://app?vid=22a89b8c-fbf4-46b9-8961-010fcce86727"},"vehicle_type_id":"4","last_reported":1730387333,"current_range_meters":30400,"station_id":"ce4bh0h2rcd13ifvqd60","pricing_plan_id":"cebpf4jnsgd1na2vs0mg"},{"bike_id":"27af1fb6-354f-4701-9f1a-cb63120973cd","system_id":"levelo_inurba_marseille","lat":43.26024,"lon":5.3755,"is_reserved":false,"is_disabled":false,"rental_uris":{"android":"levelo://app?vid=27af1fb6-354f-4701-9f1a-cb63120973cd","ios":"levelo://app?vid=27af1fb6-354f-4701-9f1a-cb63120973cd"},"vehicle_type_id":"4","last_reported":1730387333,"current_range_meters":16400,"station_id":"ce4bhgh2rcd13ifvqfa0","pricing_plan_id":"cebpf4jnsgd1na2vs0mg"},{"bike_id":"9334e4a0-3c5a-4062-afc2-b55896929e27","system_id":"levelo_inurba_marseille","lat":43.29719,"lon":5.3769,"is_reserved":false,"is_disabled":false,"rental_uris":{"android":"levelo://app?vid=9334e4a0-3c5a-4062-afc2-b55896929e27","ios":"levelo://app?vid=9334e4a0-3c5a-4062-afc2-b55896929e27"},"vehicle_type_id":"4","last_reported":1730387333,"current_range_meters":33600,"station_id":"ce4bgkh2rcd13ifvqbl0","pricing_plan_id":"cebpf4jnsgd1na2vs0mg"},{"bike_id":"ad8b050a-83a7-41e8-91c7-1ded3749b56e","system_id":"levelo_inurba_marseille","lat":43.30887,"lon":5.37196,"is_reserved":false,"is_disabled":false,"rental_uris":{"android":"levelo://app?vid=ad8b050a-83a7-41e8-91c7-1ded3749b56e","ios":"levelo://app?vid=ad8b050a-83a7-41e8-91c7-1ded3749b56e"},"vehicle_type_id":"4","last_reported":1730387333,"current_range_meters":37600,"station_id":"ce4bguh2rcd13ifvqckg","pricing_plan_id":"cebpf4jnsgd1na2vs0mg"},{"bike_id":"0b0f7b02-29de-452c-b09f-24907cfe590f","system_id":"levelo_inurba_marseille","lat":43.32334,"lon":5.40629,"is_reserved":false,"is_disabled":false,"rental_uris":{"android":"levelo://app?vid=0b0f7b02-29de-452c-b09f-24907cfe590f","ios":"levelo://app?vid=0b0f7b02-29de-452c-b09f-24907cfe590f"},"vehicle_type_id":"4","last_reported":1730387333,"current_range_meters":38000,"station_id":"ce4bhq92rcd13ifvqhjg","pricing_plan_id":"cebpf4jnsgd1na2vs0mg"},{"bike_id":"e8293b4e-059a-4396-9bed-846c599622d5","system_id":"levelo_inurba_marseille","lat":43.2717,"lon":5.40989,"is_reserved":false,"is_disabled":false,"rental_uris":{"android":"levelo://app?vid=e8293b4e-059a-4396-9bed-846c599622d5","ios":"levelo://app?vid=e8293b4e-059a-4396-9bed-846c599622d5"},"vehicle_type_id":"4","last_reported":1730387333,"current_range_meters":39200,"station_id":"ce4bhl12rcd13ifvqgf0","pricing_plan_id":"cebpf4jnsgd1na2vs0mg"},{"bike_id":"1f891675-16b0-4a24-aaa3-e59260de9b4e","system_id":"levelo_inurba_marseille","lat":43.2593,"lon":5.40907,"is_reserved":false,"is_disabled":false,"rental_uris":{"android":"levelo://app?vid=1f891675-16b0-4a24-aaa3-e59260de9b4e","ios":"levelo://app?vid=1f891675-16b0-4a24-aaa3-e59260de9b4e"},"vehicle_type_id":"4","last_reported":1730387333,"current_range_meters":31200,"station_id":"ce4bhm92rcd13ifvqglg","pricing_plan_id":"cebpf4jnsgd1na2vs0mg"},{"bike_id":"4a1eb166-70d5-40c5-ac3a-1c3d7b64f359","system_id":"levelo_inurba_marseille","lat":43.304169,"lon":5.377868,"is_reserved":false,"is_disabled":false,"rental_uris":{"android":"levelo://app?vid=4a1eb166-70d5-40c5-ac3a-1c3d7b64f359","ios":"levelo://app?vid=4a1eb166-70d5-40c5-ac3a-1c3d7b64f359"},"vehicle_type_id":"4","last_reported":1730387333,"current_range_meters":28400,"station_id":"ce4bgup2rcd13ifvqcn0","pricing_plan_id":"cebpf4jnsgd1na2vs0mg"},{"bike_id":"2e679aa2-6222-4666-94d2-8febbbac34cf","system_id":"levelo_inurba_marseille","lat":43.28948,"lon":5.4807,"is_reserved":false,"is_disabled":false,"rental_uris":{"android":"levelo://app?vid=2e679aa2-6222-4666-94d2-8febbbac34cf","ios":"levelo://app?vid=2e679aa2-6222-4666-94d2-8febbbac34cf"},"vehicle_type_id":"4","last_reported":1730387333,"current_range_meters":11600,"station_id":"ce4bgvp2rcd13ifvqct0","pricing_plan_id":"cebpf4jnsgd1na2vs0mg"},{"bike_id":"b035e360-2601-4ad0-8959-94c007de9a8d","system_id":"levelo_inurba_marseille","lat":43.2694,"lon":5.40254,"is_reserved":false,"is_disabled":false,"rental_uris":{"android":"levelo://app?vid=b035e360-2601-4ad0-8959-94c007de9a8d","ios":"levelo://app?vid=b035e360-2601-4ad0-8959-94c007de9a8d"},"vehicle_type_id":"4","last_reported":1730387333,"current_range_meters":36400,"station_id":"cjm6bp8fraef2m0cb0m0","pricing_plan_id":"cebpf4jnsgd1na2vs0mg"},{"bike_id":"9cfb32a7-528b-4e22-bf1f-7244d1a9a349","system_id":"levelo_inurba_marseille","lat":43.302118,"lon":5.394612,"is_reserved":false,"is_disabled":false,"rental_uris":{"android":"levelo://app?vid=9cfb32a7-528b-4e22-bf1f-7244d1a9a349","ios":"levelo://app?vid=9cfb32a7-528b-4e22-bf1f-7244d1a9a349"},"vehicle_type_id":"4","last_reported":1730387333,"current_range_meters":4000,"station_id":"","pricing_plan_id":"cebpf4jnsgd1na2vs0mg"},{"bike_id":"09873ff2-4333-4bd6-be70-4addfeebc05a","system_id":"levelo_inurba_marseille","lat":43.28407,"lon":5.34992,"is_reserved":false,"is_disabled":false,"rental_uris":{"android":"levelo://app?vid=09873ff2-4333-4bd6-be70-4addfeebc05a","ios":"levelo://app?vid=09873ff2-4333-4bd6-be70-4addfeebc05a"},"vehicle_type_id":"4","last_reported":1730387333,"current_range_meters":31200,"station_id":"ce4bhbh2rcd13ifvqepg","pricing_plan_id":"cebpf4jnsgd1na2vs0mg"},{"bike_id":"54df2351-315b-470a-86b6-d7a1171b98c4","system_id":"levelo_inurba_marseille","lat":43.282675,"lon":5.350654,"is_reserved":false,"is_disabled":false,"rental_uris":{"android":"levelo://app?vid=54df2351-315b-470a-86b6-d7a1171b98c4","ios":"levelo://app?vid=54df2351-315b-470a-86b6-d7a1171b98c4"},"vehicle_type_id":"4","last_reported":1730387333,"current_range_meters":3200,"station_id":"ce4bhbp2rcd13ifvqerg","pricing_plan_id":"cebpf4jnsgd1na2vs0mg"},{"bike_id":"00570a9a-70dc-4fd9-a21d-b33665529146","system_id":"levelo_inurba_marseille","lat":43.23968,"lon":5.36639,"is_reserved":false,"is_disabled":false,"rental_uris":{"android":"levelo://app?vid=00570a9a-70dc-4fd9-a21d-b33665529146","ios":"levelo://app?vid=00570a9a-70dc-4fd9-a21d-b33665529146"},"vehicle_type_id":"4","last_reported":1730387333,"current_range_meters":39200,"station_id":"ce4bhi12rcd13ifvqfp0","pricing_plan_id":"cebpf4jnsgd1na2vs0mg"},{"bike_id":"632af825-fee0-4a18-8742-04d3e81d6424","system_id":"levelo_inurba_marseille","lat":43.3176,"lon":5.39015,"is_reserved":false,"is_disabled":false,"rental_uris":{"android":"levelo://app?vid=632af825-fee0-4a18-8742-04d3e81d6424","ios":"levelo://app?vid=632af825-fee0-4a18-8742-04d3e81d6424"},"vehicle_type_id":"4","last_reported":1730387333,"current_range_meters":24000,"station_id":"ce4bhqp2rcd13ifvqhng","pricing_plan_id":"cebpf4jnsgd1na2vs0mg"},{"bike_id":"6bc61bba-f856-4c8d-80f5-7f553ab6a12d","system_id":"levelo_inurba_marseille","lat":43.28412,"lon":5.34993,"is_reserved":false,"is_disabled":false,"rental_uris":{"android":"levelo://app?vid=6bc61bba-f856-4c8d-80f5-7f553ab6a12d","ios":"levelo://app?vid=6bc61bba-f856-4c8d-80f5-7f553ab6a12d"},"vehicle_type_id":"4","last_reported":1730387333,"current_range_meters":4000,"station_id":"ce4bhbh2rcd13ifvqepg","pricing_plan_id":"cebpf4jnsgd1na2vs0mg"},{"bike_id":"d17471ec-fd2b-4436-bd6f-47a28255e0da","system_id":"levelo_inurba_marseille","lat":43.27903,"lon":5.38012,"is_reserved":false,"is_disabled":false,"rental_uris":{"android":"levelo://app?vid=d17471ec-fd2b-4436-bd6f-47a28255e0da","ios":"levelo://app?vid=d17471ec-fd2b-4436-bd6f-47a28255e0da"},"vehicle_type_id":"4","last_reported":1730387333,"current_range_meters":38800,"station_id":"ce4bhf92rcd13ifvqf50","pricing_plan_id":"cebpf4jnsgd1na2vs0mg"},{"bike_id":"663a1de2-2bb8-4800-9e4c-b21d17fe5142","system_id":"levelo_inurba_marseille","lat":43.27657,"lon":5.38892,"is_reserved":false,"is_disabled":false,"rental_uris":{"android":"levelo://app?vid=663a1de2-2bb8-4800-9e4c-b21d17fe5142","ios":"levelo://app?vid=663a1de2-2bb8-4800-9e4c-b21d17fe5142"},"vehicle_type_id":"4","last_reported":1730387333,"current_range_meters":6400,"station_id":"ce4bhi12rcd13ifvqfo0","pricing_plan_id":"cebpf4jnsgd1na2vs0mg"},{"bike_id":"b65d358b-a2ba-4397-a9a1-50da4450a928","system_id":"levelo_inurba_marseille","lat":43.30418,"lon":5.41292,"is_reserved":false,"is_disabled":false,"rental_uris":{"android":"levelo://app?vid=b65d358b-a2ba-4397-a9a1-50da4450a928","ios":"levelo://app?vid=b65d358b-a2ba-4397-a9a1-50da4450a928"},"vehicle_type_id":"4","last_reported":1730387333,"current_range_meters":38800,"station_id":"ce4bhop2rcd13ifvqh8g","pricing_plan_id":"cebpf4jnsgd1na2vs0mg"},{"bike_id":"28c7a9a6-c00c-4c02-a2aa-74009520474f","system_id":"levelo_inurba_marseille","lat":43.29877,"lon":5.39749,"is_reserved":false,"is_disabled":false,"rental_uris":{"android":"levelo://app?vid=28c7a9a6-c00c-4c02-a2aa-74009520474f","ios":"levelo://app?vid=28c7a9a6-c00c-4c02-a2aa-74009520474f"},"vehicle_type_id":"4","last_reported":1730387333,"current_range_meters":37600,"station_id":"ce4bh0h2rcd13ifvqd50","pricing_plan_id":"cebpf4jnsgd1na2vs0mg"},{"bike_id":"be1a1f99-d18e-40e2-b74a-1af8bb776cee","system_id":"levelo_inurba_marseille","lat":43.25938,"lon":5.40903,"is_reserved":false,"is_disabled":false,"rental_uris":{"android":"levelo://app?vid=be1a1f99-d18e-40e2-b74a-1af8bb776cee","ios":"levelo://app?vid=be1a1f99-d18e-40e2-b74a-1af8bb776cee"},"vehicle_type_id":"4","last_reported":1730387333,"current_range_meters":27200,"station_id":"ce4bhm92rcd13ifvqglg","pricing_plan_id":"cebpf4jnsgd1na2vs0mg"},{"bike_id":"038ca54a-bfcf-409e-8225-3b717715cf83","system_id":"levelo_inurba_marseille","lat":43.26684,"lon":5.38273,"is_reserved":false,"is_disabled":false,"rental_uris":{"android":"levelo://app?vid=038ca54a-bfcf-409e-8225-3b717715cf83","ios":"levelo://app?vid=038ca54a-bfcf-409e-8225-3b717715cf83"},"vehicle_type_id":"4","last_reported":1730387333,"current_range_meters":32000,"station_id":"ce4bhg92rcd13ifvqf90","pricing_plan_id":"cebpf4jnsgd1na2vs0mg"},{"bike_id":"25e3c3b2-0509-4e9b-ba21-d53733d4def7","system_id":"levelo_inurba_marseille","lat":43.28269,"lon":5.35072,"is_reserved":false,"is_disabled":false,"rental_uris":{"android":"levelo://app?vid=25e3c3b2-0509-4e9b-ba21-d53733d4def7","ios":"levelo://app?vid=25e3c3b2-0509-4e9b-ba21-d53733d4def7"},"vehicle_type_id":"4","last_reported":1730387333,"current_range_meters":22400,"station_id":"ce4bhbp2rcd13ifvqerg","pricing_plan_id":"cebpf4jnsgd1na2vs0mg"},{"bike_id":"0a532e50-2a51-4bb4-86d4-4b52e164a852","system_id":"levelo_inurba_marseille","lat":43.28614,"lon":5.35099,"is_reserved":false,"is_disabled":false,"rental_uris":{"android":"levelo://app?vid=0a532e50-2a51-4bb4-86d4-4b52e164a852","ios":"levelo://app?vid=0a532e50-2a51-4bb4-86d4-4b52e164a852"},"vehicle_type_id":"4","last_reported":1730387333,"current_range_meters":28000,"station_id":"ce4bhch2rcd13ifvqeug","pricing_plan_id":"cebpf4jnsgd1na2vs0mg"},{"bike_id":"ed279d38-b7eb-4b14-96b9-94c615824290","system_id":"levelo_inurba_marseille","lat":43.23198,"lon":5.3555,"is_reserved":false,"is_disabled":false,"rental_uris":{"android":"levelo://app?vid=ed279d38-b7eb-4b14-96b9-94c615824290","ios":"levelo://app?vid=ed279d38-b7eb-4b14-96b9-94c615824290"},"vehicle_type_id":"4","last_reported":1730387333,"current_range_meters":20000,"station_id":"ce4bhu92rcd13ifvqi70","pricing_plan_id":"cebpf4jnsgd1na2vs0mg"},