{"last_updated":1748279294,"ttl":60,"version":"2.2","data":{"bikes":[{"bike_id":"c0b9fd4f-e181-46ce-b0bf-f5119973334f","system_id":"levelo_inurba_marseille","lat":43.33771,"lon":5.37424,"is_reserved":false,"is_disabled":true,"rental_uris":{"android":"levelo://app?vid=c0b9fd4f-e181-46ce-b0bf-f5119973334f","ios":"levelo://app?vid=c0b9fd4f-e181-46ce-b0bf-f5119973334f"},"vehicle_type_id":"4","last_reported":1748279294,"current_range_meters":0,"station_id":"","pricing_plan_id":"cebpf4jnsgd1na2vs0mg"},{"bike_id":"cd3479a6-a621-4d06-973e-9a921ffbd027","system_id":"levelo_inurba_marseille","lat":43.26555,"lon":5.40324,"is_reserved":false,"is_disabled":true,"rental_uris":{"android":"levelo://app?vid=cd3479a6-a621-4d06-973e-9a921ffbd027","ios":"levelo://app?vid=cd3479a6-a621-4d06-973e-9a921ffbd027"},"vehicle_type_id":"4","last_reported":1748279294,"current_range_meters":0,"station_id":"","pricing_plan_id":"cebpf4jnsgd1na2vs0mg"},{"bike_id":"6b31d584-7ec8-4d7f-974f-dd6b8b914518","system_id":"levelo_inurba_marseille","lat":43.270831,"lon":5.392253,"is_reserved":false,"is_disabled":true,"rental_uris":{"android":"levelo://app?vid=6b31d584-7ec8-4d7f-974f-dd6b8b914518","ios":"levelo://app?vid=6b31d584-7ec8-4d7f-974f-dd6b8b914518"},"vehicle_type_id":"4","last_reported":1748279294,"current_range_meters":0,"station_id":"","pricing_plan_id":"cebpf4jnsgd1na2vs0mg"},{"bike_id":"68dd4df3-b4ab-477d-ba1f-083f8077ecbb","system_id":"levelo_inurba_marseille","lat":43.25639,"lon":5.37522,"is_reserved":false,"is_disabled":true,"rental_uris":{"android":"levelo://app?vid=68dd4df3-b4ab-477d-ba1f-083f8077ecbb","ios":"levelo://app?vid=68dd4df3-b4ab-477d-ba1f-083f8077ecbb"},"vehicle_type_id":"4","last_reported":1748279294,"current_range_meters":0,"station_id":"","pricing_plan_id":"cebpf4jnsgd1na2vs0mg"},{"bike_id":"3fe3d6c4-138a-47df-b6b4-e6f19e8f7d46","system_id":"levelo_inurba_marseille","lat":43.21411,"lon":5.34114,"is_reserved":false,"is_disabled":true,"rental_uris":{"android":"levelo://app?vid=3fe3d6c4-138a-47df-b6b4-e6f19e8f7d46","ios":"levelo://app?vid=3fe3d6c4-138a-47df-b6b4-e6f19e8f7d46"},"vehicle_type_id":"4","last_reported":1748279294,"current_range_meters":0,"station_id":"","pricing_plan_id":"cebpf4jnsgd1na2vs0mg"},{"bike_id":"fd133867-b5d2-4fd2-aa0a-382781ea3f5a","system_id":"levelo_inurba_marseille","lat":43.29097,"lon":5.43267,"is_reserved":false,"is_disabled":true,"rental_uris":{"android":"levelo://app?vid=fd133867-b5d2-4fd2-aa0a-382781ea3f5a","ios":"levelo://app?vid=fd133867-b5d2-4fd2-aa0a-382781ea3f5a"},"vehicle_type_id":"4","last_reported":1748279294,"current_range_meters":0,"station_id":"","pricing_plan_id":"cebpf4jnsgd1na2vs0mg"},{"bike_id":"4a2a47fa-fb4e-41f8-93fc-61bb4186107f","system_id":"levelo_inurba_marseille","lat":43.27766,"lon":5.39888,"is_reserved":false,"is_disabled":true,"rental_uris":{"android":"levelo://app?vid=4a2a47fa-fb4e-41f8-93fc-61bb4186107f","ios":"levelo://app?vid=4a2a47fa-fb4e-41f8-93fc-61bb4186107f"},"vehicle_type_id":"4","last_reported":1748279294,"current_range_meters":0,"station_id":"","pricing_plan_id":"cebpf4jnsgd1na2vs0mg"},{"bike_id":"15dcdbbd-a41e-43eb-9ed6-26ec15ce7a50","system_id":"levelo_inurba_marseille","lat":43.21411,"lon":5.34113,"is_reserved":false,"is_disabled":true,"rental_uris":{"android":"levelo://app?vid=15dcdbbd-a41e-43eb-9ed6-26ec15ce7a50","ios":"levelo://app?vid=15dcdbbd-a41e-43eb-9ed6-26ec15ce7a50"},"vehicle_type_id":"4","last_reported":1748279294,"current_range_meters":0,"station_id":"","pricing_plan_id":"cebpf4jnsgd1na2vs0mg"},{"bike_id":"377e997d-76fa-49cd-a9c9-778bc42231c4","system_id":"levelo_inurba_marseille","lat":43.25688,"lon":5.41909,"is_reserved":false,"is_disabled":true,"rental_uris":{"android":"levelo://app?vid=377e997d-76fa-49cd-a9c9-778bc42231c4","ios":"levelo://app?vid=377e997d-76fa-49cd-a9c9-778bc42231c4"},"vehicle_type_id":"4","last_reported":1748279294,"current_range_meters":0,"station_id":"","pricing_plan_id":"cebpf4jnsgd1na2vs0mg"},{"bike_id":"f9fb40c0-1fcd-48cb-8e26-3f2dc0fb2451","system_id":"levelo_inurba_marseille","lat":43.33751,"lon":5.37509,"is_reserved":false,"is_disabled":true,"rental_uris":{"android":"levelo://app?vid=f9fb40c0-1fcd-48cb-8e26-3f2dc0fb2451","ios":"levelo://app?vid=f9fb40c0-1fcd-48cb-8e26-3f2dc0fb2451"},"vehicle_type_id":"4","last_reported":1748279294,"current_range_meters":0,"station_id":"","pricing_plan_id":"cebpf4jnsgd1na2vs0mg"},{"bike_id":"55486e59-addd-4d7a-be46-bc6476992a64","system_id":"levelo_inurba_marseille","lat":43.27818,"lon":5.38848,"is_reserved":false,"is_disabled":true,"rental_uris":{"android":"levelo://app?vid=55486e59-addd-4d7a-be46-bc6476992a64","ios":"levelo://app?vid=55486e59-addd-4d7a-be46-bc6476992a64"},"vehicle_type_id":"4","last_reported":1748279294,"current_range_meters":0,"station_id":"","pricing_plan_id":"cebpf4jnsgd1na2vs0mg"},{"bike_id":"d9b5650d-9652-4389-81c8-9e7dd1dc104a","system_id":"levelo_inurba_marseille","lat":43.30946,"lon":5.37129,"is_reserved":false,"is_disabled":true,"rental_uris":{"android":"levelo://app?vid=d9b5650d-9652-4389-81c8-9e7dd1dc104a","ios":"levelo://app?vid=d9b5650d-9652-4389-81c8-9e7dd1dc104a"},"vehicle_type_id":"4","last_reported":1748279294,"current_range_meters":0,"station_id":"","pricing_plan_id":"cebpf4jnsgd1na2vs0mg"},{"bike_id":"e9dd3aa4-b5e7-4480-926d-d7f537719bfa","system_id":"levelo_inurba_marseille","lat":43.230331,"lon":5.401847,"is_reserved":false,"is_disabled":true,"rental_uris":{"android":"levelo://app?vid=e9dd3aa4-b5e7-4480-926d-d7f537719bfa","ios":"levelo://app?vid=e9dd3aa4-b5e7-4480-926d-d7f537719bfa"},"vehicle_type_id":"4","last_reported":1748279294,"current_range_meters":0,"station_id":"","pricing_plan_id":"cebpf4jnsgd1na2vs0mg"},{"bike_id":"dcd075ea-b4af-4d6d-90b2-1236858b7bc1","system_id":"levelo_inurba_marseille","lat":43.27609,"lon":5.35873,"is_reserved":false,"is_disabled":true,"rental_uris":{"android":"levelo://app?vid=dcd075ea-b4af-4d6d-90b2-1236858b7bc1","ios":"levelo://app?vid=dcd075ea-b4af-4d6d-90b2-1236858b7bc1"},"vehicle_type_id":"4","last_reported":1748279294,"current_range_meters":0,"station_id":"","pricing_plan_id":"cebpf4jnsgd1na2vs0mg"},{"bike_id":"bd9067d5-fa52-4eeb-95d5-f93f2ff289ba","system_id":"levelo_inurba_marseille","lat":43.30418,"lon":5.38884,"is_reserved":false,"is_disabled":true,"rental_uris":{"android":"levelo://app?vid=bd9067d5-fa52-4eeb-95d5-f93f2ff289ba","ios":"levelo://app?vid=bd9067d5-fa52-4eeb-95d5-f93f2ff289ba"},"vehicle_type_id":"4","last_reported":1748279294,"current_range_meters":0,"station_id":"ce4bgk12rcd13ifvqbi0","pricing_plan_id":"cebpf4jnsgd1na2vs0mg"},{"bike_id":"e7c10e23-2a84-4209-8321-eb6f6701b873","system_id":"levelo_inurba_marseille","lat":43.29578,"lon":5.36741,"is_reserved":false,"is_disabled":true,"rental_uris":{"android":"levelo://app?vid=e7c10e23-2a84-4209-8321-eb6f6701b873","ios":"levelo://app?vid=e7c10e23-2a84-4209-8321-eb6f6701b873"},"vehicle_type_id":"4","last_reported":1748279294,"current_range_meters":0,"station_id":"ce4bgph2rcd13ifvqc2g","pricing_plan_id":"cebpf4jnsgd1na2vs0mg"},{"bike_id":"1a3aa433-ad39-4045-983a-d2009450e3d4","system_id":"levelo_inurba_marseille","lat":43.317,"lon":5.37751,"is_reserved":false,"is_disabled":true,"rental_uris":{"android":"levelo://app?vid=1a3aa433-ad39-4045-983a-d2009450e3d4","ios":"levelo://app?vid=1a3aa433-ad39-4045-983a-d2009450e3d4"},"vehicle_type_id":"4","last_reported":1748279294,"current_range_meters":0,"station_id":"ce4bgth2rcd13ifvqch0","pricing_plan_id":"cebpf4jnsgd1na2vs0mg"},{"bike_id":"eee33d96-590a-4411-9c1a-8016ac70c7a1","system_id":"levelo_inurba_marseille","lat":43.31064,"lon":5.38352,"is_reserved":false,"is_disabled":true,"rental_uris":{"android":"levelo://app?vid=eee33d96-590a-4411-9c1a-8016ac70c7a1","ios":"levelo://app?vid=eee33d96-590a-4411-9c1a-8016ac70c7a1"},"vehicle_type_id":"4","last_reported":1748279294,"current_range_meters":0,"station_id":"ce4bgv92rcd13ifvqcr0","pricing_plan_id":"cebpf4jnsgd1na2vs0mg"},{"bike_id":"ebcdb104-db9f-441b-897f-50592718efb0","system_id":"levelo_inurba_marseille","lat":43.30416,"lon":5.39747,"is_reserved":false,"is_disabled":true,"rental_uris":{"android":"levelo://app?vid=ebcdb104-db9f-441b-897f-50592718efb0","ios":"levelo://app?vid=ebcdb104-db9f-441b-897f-50592718efb0"},"vehicle_type_id":"4","last_reported":1748279294,"current_range_meters":0,"station_id":"ce4bh092rcd13ifvqd20","pricing_plan_id":"cebpf4jnsgd1na2vs0mg"},{"bike_id":"fb9bc3ce-a223-4926-ab7c-516efd25f646","system_id":"levelo_inurba_marseille","lat":43.2963,"lon":5.406,"is_reserved":false,"is_disabled":true,"rental_uris":{"android":"levelo://app?vid=fb9bc3ce-a223-4926-ab7c-516efd25f646","ios":"levelo://app?vid=fb9bc3ce-a223-4926-ab7c-516efd25f646"},"vehicle_type_id":"4","last_reported":1748279294,"current_range_meters":0,"station_id":"ce4bh0h2rcd13ifvqd60","pricing_plan_id":"cebpf4jnsgd1na2vs0mg"},{"bike_id":"ebb9ec34-b32a-4346-98c4-cc7776e6a1fd","system_id":"levelo_inurba_marseille","lat":43.2849,"lon":5.38544,"is_reserved":false,"is_disabled":true,"rental_uris":{"android":"levelo://app?vid=ebb9ec34-b32a-4346-98c4-cc7776e6a1fd","ios":"levelo://app?vid=ebb9ec34-b32a-4346-98c4-cc7776e6a1fd"},"vehicle_type_id":"4","last_reported":1748279294,"current_range_meters":0,"station_id":"ce4bh8p2rcd13ifvqeb0","pricing_plan_id":"cebpf4jnsgd1na2vs0mg"},{"bike_id":"5a5b484e-780c-416c-b371-70a1f0b25e8a","system_id":"levelo_inurba_marseille","lat":43.28989,"lon":5.37826,"is_reserved":false,"is_disabled":true,"rental_uris":{"android":"levelo://app?vid=5a5b484e-780c-416c-b371-70a1f0b25e8a","ios":"levelo://app?vid=5a5b484e-780c-416c-b371-70a1f0b25e8a"},"vehicle_type_id":"4","last_reported":1748279294,"current_range_meters":0,"station_id":"ce4bh9p2rcd13ifvqed0","pricing_plan_id":"cebpf4jnsgd1na2vs0mg"},{"bike_id":"62ad02d6-1d67-4940-abd1-1926e83b0c2e","system_id":"levelo_inurba_marseille","lat":43.27978,"lon":5.38722,"is_reserved":false,"is_disabled":true,"rental_uris":{"android":"levelo://app?vid=62ad02d6-1d67-4940-abd1-1926e83b0c2e","ios":"levelo://app?vid=62ad02d6-1d67-4940-abd1-1926e83b0c2e"},"vehicle_type_id":"4","last_reported":1748279294,"current_range_meters":0,"station_id":"ce4bhg12rcd13ifvqf80","pricing_plan_id":"cebpf4jnsgd1na2vs0mg"},{"bike_id":"18d91d21-3fbd-44ec-8ea5-ad154289350f","system_id":"levelo_inurba_marseille","lat":43.26141,"lon":5.37438,"is_reserved":false,"is_disabled":true,"rental_uris":{"android":"levelo://app?vid=18d91d21-3fbd-44ec-8ea5-ad154289350f","ios":"levelo://app?vid=18d91d21-3fbd-44ec-8ea5-ad154289350f"},"vehicle_type_id":"4","last_reported":1748279294,"current_range_meters":0,"station_id":"ce4bhgp2rcd13ifvqfc0","pricing_plan_id":"cebpf4jnsgd1na2vs0mg"},{"bike_id":"f5bb42fa-3ad5-44da-a22e-b1acb71f6060","system_id":"levelo_inurba_marseille","lat":43.2549,"lon":5.37665,"is_reserved":false,"is_disabled":true,"rental_uris":{"android":"levelo://app?vid=f5bb42fa-3ad5-44da-a22e-b1acb71f6060","ios":"levelo://app?vid=f5bb42fa-3ad5-44da-a22e-b1acb71f6060"},"vehicle_type_id":"4","last_reported":1748279294,"current_range_meters":0,"station_id":"ce4bhh12rcd13ifvqff0","pricing_plan_id":"cebpf4jnsgd1na2vs0mg"},{"bike_id":"c6abb61d-4342-40c3-b753-8164150f4e14","system_id":"levelo_inurba_marseille","lat":43.280821,"lon":5.396427,"is_reserved":false,"is_disabled":true,"rental_uris":{"android":"levelo://app?vid=c6abb61d-4342-40c3-b753-8164150f4e14","ios":"levelo://app?vid=c6abb61d-4342-40c3-b753-8164150f4e14"},"vehicle_type_id":"4","last_reported":1748279294,"current_range_meters":0,"station_id":"ce4bho12rcd13ifvqh2g","pricing_plan_id":"cebpf4jnsgd1na2vs0mg"},{"bike_id":"fa9040cb-6f75-4844-b106-1e6202cc5853","system_id":"levelo_inurba_marseille","lat":43.29893,"lon":5.43653,"is_reserved":false,"is_disabled":true,"rental_uris":{"android":"levelo://app?vid=fa9040cb-6f75-4844-b106-1e6202cc5853","ios":"levelo://app?vid=fa9040cb-6f75-4844-b106-1e6202cc5853"},"vehicle_type_id":"4","last_reported":1748279294,"current_range_meters":0,"station_id":"ce4bhpp2rcd13ifvqhfg","pricing_plan_id":"cebpf4jnsgd1na2vs0mg"},{"bike_id":"03302e89-593e-4d48-9791-832a49ef07b7","system_id":"levelo_inurba_marseille","lat":43.32036,"lon":5.41578,"is_reserved":false,"is_disabled":true,"rental_uris":{"android":"levelo://app?vid=03302e89-593e-4d48-9791-832a49ef07b7","ios":"levelo://app?vid=03302e89-593e-4d48-9791-832a49ef07b7"},"vehicle_type_id":"4","last_reported":1748279294,"current_range_meters":0,"station_id":"ce4bhq92rcd13ifvqhkg","pricing_plan_id":"cebpf4jnsgd1na2vs0mg"},{"bike_id":"cdeaa374-71ec-4bf7-80a7-959fcdf40cb2","system_id":"levelo_inurba_marseille","lat":43.32368,"lon":5.38872,"is_reserved":false,"is_disabled":true,"rental_uris":{"android":"levelo://app?vid=cdeaa374-71ec-4bf7-80a7-959fcdf40cb2","ios":"levelo://app?vid=cdeaa374-71ec-4bf7-80a7-959fcdf40cb2"},"vehicle_type_id":"4","last_reported":1748279294,"current_range_meters":0,"station_id":"ce4bhqp2rcd13ifvqhog","pricing_plan_id":"cebpf4jnsgd1na2vs0mg"},{"bike_id":"72ad9868-761b-4a37-af76-42e509317dcd","system_id":"levelo_inurba_marseille","lat":43.23181,"lon":5.35565,"is_reserved":false,"is_disabled":true,"rental_uris":{"android":"levelo://app?vid=72ad9868-761b-4a37-af76-42e509317dcd","ios":"levelo://app?vid=72ad9868-761b-4a37-af76-42e509317dcd"},"vehicle_type_id":"4","last_reported":1748279294,"current_range_meters":0,"station_id":"ce4bhu92rcd13ifvqi70","pricing_plan_id":"cebpf4jnsgd1na2vs0mg"},{"bike_id":"7c7a4a80-74c5-4390-888e-19ef0412b19c","system_id":"levelo_inurba_marseille","lat":43.24603,"lon":5.40409,"is_reserved":false,"is_disabled":true,"rental_uris":{"android":"levelo://app?vid=7c7a4a80-74c5-4390-888e-19ef0412b19c","ios":"levelo://app?vid=7c7a4a80-74c5-4390-888e-19ef0412b19c"},"vehicle_type_id":"4","last_reported":1748279294,"current_range_meters":400,"station_id":"","pricing_plan_id":"cebpf4jnsgd1na2vs0mg"},{"bike_id":"564dfb73-7bb4-416b-be48-659f6d195ae7","system_id":"levelo_inurba_marseille","lat":43.29895,"lon":5.38627,"is_reserved":false,"is_disabled":true,"rental_uris":{"android":"levelo://app?vid=564dfb73-7bb4-416b-be48-659f6d195ae7","ios":"levelo://app?vid=564dfb73-7bb4-416b-be48-659f6d195ae7"},"vehicle_type_id":"4","last_reported":1748279294,"current_range_meters":400,"station_id":"","pricing_plan_id":"cebpf4jnsgd1na2vs0mg"},{"bike_id":"8529d1cf-4f3c-4d5f-9d5a-4115953a8c34","system_id":"levelo_inurba_marseille","lat":43.29256,"lon":5.409,"is_reserved":false,"is_disabled":true,"rental_uris":{"android":"levelo://app?vid=8529d1cf-4f3c-4d5f-9d5a-4115953a8c34","ios":"levelo://app?vid=8529d1cf-4f3c-4d5f-9d5a-4115953a8c34"},"vehicle_type_id":"4","last_reported":1748279294,"current_range_meters":400,"station_id":"ce4bh192rcd13ifvqdc0","pricing_plan_id":"cebpf4jnsgd1na2vs0mg"},{"bike_id":"296cad54-a29d-43e9-a2cc-2d1dbe7afd3c","system_id":"levelo_inurba_marseille","lat":43.28468,"lon":5.38417,"is_reserved":false,"is_disabled":true,"rental_uris":{"android":"levelo://app?vid=296cad54-a29d-43e9-a2cc-2d1dbe7afd3c","ios":"levelo://app?vid=296cad54-a29d-43e9-a2cc-2d1dbe7afd3c"},"vehicle_type_id":"4","last_reported":1748279294,"current_range_meters":400,"station_id":"ce4bh512rcd13ifvqe3g","pricing_plan_id":"cebpf4jnsgd1na2vs0mg"},{"bike_id":"ea470c01-4b63-473a-9a52-bf7df5f06ed3","system_id":"levelo_inurba_marseille","lat":43.27378,"lon":5.36258,"is_reserved":false,"is_disabled":true,"rental_uris":{"android":"levelo://app?vid=ea470c01-4b63-473a-9a52-bf7df5f06ed3","ios":"levelo://app?vid=ea470c01-4b63-473a-9a52-bf7df5f06ed3"},"vehicle_type_id":"4","last_reported":1748279294,"current_range_meters":400,"station_id":"ce4bhbh2rcd13ifvqeo0","pricing_plan_id":"cebpf4jnsgd1na2vs0mg"},{"bike_id":"0507090a-7862-4adb-87f4-3b0e8fb37265","system_id":"levelo_inurba_marseille","lat":43.27367,"lon":5.36248,"is_reserved":false,"is_disabled":true,"rental_uris":{"android":"levelo://app?vid=0507090a-7862-4adb-87f4-3b0e8fb37265","ios":"levelo://app?vid=0507090a-7862-4adb-87f4-3b0e8fb37265"},"vehicle_type_id":"4","last_reported":1748279294,"current_range_meters":400,"station_id":"ce4bhbh2rcd13ifvqeo0","pricing_plan_id":"cebpf4jnsgd1na2vs0mg"},{"bike_id":"f9413a03-5f8f-4964-9069-c6db9e7b18db","system_id":"levelo_inurba_marseille","lat":43.27921,"lon":5.39578,"is_reserved":false,"is_disabled":true,"rental_uris":{"android":"levelo://app?vid=f9413a03-5f8f-4964-9069-c6db9e7b18db","ios":"levelo://app?vid=f9413a03-5f8f-4964-9069-c6db9e7b18db"},"vehicle_type_id":"4","last_reported":1748279294,"current_range_meters":400,"station_id":"ce4bhf92rcd13ifvqf40","pricing_plan_id":"cebpf4jnsgd1na2vs0mg"},{"bike_id":"2634de74-52eb-493a-bf57-07951150729c","system_id":"levelo_inurba_marseille","lat":43.24388,"lon":5.37062,"is_reserved":false,"is_disabled":true,"rental_uris":{"android":"levelo://app?vid=2634de74-52eb-493a-bf57-07951150729c","ios":"levelo://app?vid=2634de74-52eb-493a-bf57-07951150729c"},"vehicle_type_id":"4","last_reported":1748279294,"current_range_meters":400,"station_id":"ce4bhhh2rcd13ifvqfk0","pricing_plan_id":"cebpf4jnsgd1na2vs0mg"},{"bike_id":"df786300-248e-483f-bbae-6702d1d652e0","system_id":"levelo_inurba_marseille","lat":43.26942,"lon":5.40248,"is_reserved":false,"is_disabled":true,"rental_uris":{"android":"levelo://app?vid=df786300-248e-483f-bbae-6702d1d652e0","ios":"levelo://app?vid=df786300-248e-483f-bbae-6702d1d652e0"},"vehicle_type_id":"4","last_reported":1748279294,"current_range_meters":400,"station_id":"cjm6bp8fraef2m0cb0m0","pricing_plan_id":"cebpf4jnsgd1na2vs0mg"},{"bike_id":"b6f0a57d-2b5f-42ce-a997-bbc9d610d668","system_id":"levelo_inurba_marseille","lat":43.26196,"lon":5.37454,"is_reserved":false,"is_disabled":true,"rental_uris":{"android":"levelo://app?vid=b6f0a57d-2b5f-42ce-a997-bbc9d610d668","ios":"levelo://app?vid=b6f0a57d-2b5f-42ce-a997-bbc9d610d668"},"vehicle_type_id":"4","last_reported":1748279294,"current_range_meters":800,"station_id":"ce4bhgp2rcd13ifvqfc0","pricing_plan_id":"cebpf4jnsgd1na2vs0mg"},{"bike_id":"821967f8-dec0-411f-b530-f83bf095a23c","system_id":"levelo_inurba_marseille","lat":43.2707,"lon":5.42279,"is_reserved":false,"is_disabled":true,"rental_uris":{"android":"levelo://app?vid=821967f8-dec0-411f-b530-f83bf095a23c","ios":"levelo://app?vid=821967f8-dec0-411f-b530-f83bf095a23c"},"vehicle_type_id":"4","last_reported":1748279294,"current_range_meters":800,"station_id":"ce4bhk92rcd13ifvqgb0","pricing_plan_id":"cebpf4jnsgd1na2vs0mg"},{"bike_id":"94070561-04f5-4946-b6f0-63921edb9bc2","system_id":"levelo_inurba_marseille","lat":43.30305,"lon":5.39209,"is_reserved":false,"is_disabled":true,"rental_uris":{"android":"levelo://app?vid=94070561-04f5-4946-b6f0-63921edb9bc2","ios":"levelo://app?vid=94070561-04f5-4946-b6f0-63921edb9bc2"},"vehicle_type_id":"4","last_reported":1748279294,"current_range_meters":1200,"station_id":"ce4bgkh2rcd13ifvqbk0","pricing_plan_id":"cebpf4jnsgd1na2vs0mg"},{"bike_id":"60be7095-43d5-49ff-a46f-8805ea04a490","system_id":"levelo_inurba_marseille","lat":43.31074,"lon":5.38355,"is_reserved":false,"is_disabled":true,"rental_uris":{"android":"levelo://app?vid=60be7095-43d5-49ff-a46f-8805ea04a490","ios":"levelo://app?vid=60be7095-43d5-49ff-a46f-8805ea04a490"},"vehicle_type_id":"4","last_reported":1748279294,"current_range_meters":1200,"station_id":"ce4bgv92rcd13ifvqcr0","pricing_plan_id":"cebpf4jnsgd1na2vs0mg"},{"bike_id":"22298299-3f6d-47e7-b4b0-9cbe5b80bb6d","system_id":"levelo_inurba_marseille","lat":43.28693,"lon":5.37392,"is_reserved":false,"is_disabled":true,"rental_uris":{"android":"levelo://app?vid=22298299-3f6d-47e7-b4b0-9cbe5b80bb6d","ios":"levelo://app?vid=22298299-3f6d-47e7-b4b0-9cbe5b80bb6d"},"vehicle_type_id":"4","last_reported":1748279294,"current_range_meters":1200,"station_id":"ce4bh3p2rcd13ifvqdq0","pricing_plan_id":"cebpf4jnsgd1na2vs0mg"},{"bike_id":"6f8ff3fe-9bb4-4e82-9b38-3978b50af32a","system_id":"levelo_inurba_marseille","lat":43.25725,"lon":5.41107,"is_reserved":false,"is_disabled":true,"rental_uris":{"android":"levelo://app?vid=6f8ff3fe-9bb4-4e82-9b38-3978b50af32a","ios":"levelo://app?vid=6f8ff3fe-9bb4-4e82-9b38-3978b50af32a"},"vehicle_type_id":"4","last_reported":1748279294,"current_range_meters":1200,"station_id":"ce4bhkp2rcd13ifvqgd0","pricing_plan_id":"cebpf4jnsgd1na2vs0mg"},{"bike_id":"53bc21cb-28fc-41fb-8333-7fca4647f5e3","system_id":"levelo_inurba_marseille","lat":43.28437,"lon":5.39203,"is_reserved":false,"is_disabled":true,"rental_uris":{"android":"levelo://app?vid=53bc21cb-28fc-41fb-8333-7fca4647f5e3","ios":"levelo://app?vid=53bc21cb-28fc-41fb-8333-7fca4647f5e3"},"vehicle_type_id":"4","last_reported":1748279294,"current_range_meters":1200,"station_id":"ce4bhoh2rcd13ifvqh5g","pricing_plan_id":"cebpf4jnsgd1na2vs0mg"},{"bike_id":"192dc2ab-50e8-4002-823f-4aab8f9263f5","system_id":"levelo_inurba_marseille","lat":43.231918,"lon":5.355483,"is_reserved":false,"is_disabled":true,"rental_uris":{"android":"levelo://app?vid=192dc2ab-50e8-4002-823f-4aab8f9263f5","ios":"levelo://app?vid=192dc2ab-50e8-4002-823f-4aab8f9263f5"},"vehicle_type_id":"4","last_reported":1748279294,"current_range_meters":1200,"station_id":"ce4bhu92rcd13ifvqi70","pricing_plan_id":"cebpf4jnsgd1na2vs0mg"},{"bike_id":"b09b73a9-ad22-4b2d-9e32-2320154f2c87","system_id":"levelo_inurba_marseille","lat":43.29872,"lon":5.39733,"is_reserved":false,"is_disabled":true,"rental_uris":{"android":"levelo://app?vid=b09b73a9-ad22-4b2d-9e32-2320154f2c87","ios":"levelo://app?vid=b09b73a9-ad22-4b2d-9e32-2320154f2c87"},"vehicle_type_id":"4","last_reported":1748279294,"current_range_meters":1600,"station_id":"ce4bh0h2rcd13ifvqd50","pricing_plan_id":"cebpf4jnsgd1na2vs0mg"},{"bike_id":"3fb85001-888b-4639-8981-19ceb1111a17","system_id":"levelo_inurba_marseille","lat":43.29894,"lon":5.43653,"is_reserved":false,"is_disabled":true,"rental_uris":{"android":"levelo://app?vid=3fb85001-888b-4639-8981-19ceb1111a17","ios":"levelo://app?vid=3fb85001-888b-4639-8981-19ceb1111a17"},"vehicle_type_id":"4","last_reported":1748279294,"current_range_meters":1600,"station_id":"ce4bhpp2rcd13ifvqhfg","pricing_plan_id":"cebpf4jnsgd1na2vs0mg"},{"bike_id":"3581c28c-41f2-4cb7-b494-0448776c0438","system_id":"levelo_inurba_marseille","lat":43.29631,"lon":5.36064,"is_reserved":false,"is_disabled":true,"rental_uris":{"android":"levelo://app?vid=3581c28c-41f2-4cb7-b494-0448776c0438","ios":"levelo://app?vid=3581c28c-41f2-4cb7-b494-0448776c0438"},"vehicle_type_id":"4","last_reported":1748279294,"current_range_meters":2000,"station_id":"","pricing_plan_id":"cebpf4jnsgd1na2vs0mg"},{"bike_id":"f456fedf-ffde-4d8a-8c6b-72c27021fff3","system_id":"levelo_inurba_marseille","lat":43.30141,"lon":5.38768,"is_reserved":false,"is_disabled":false,"rental_uris":{"android":"levelo://app?vid=f456fedf-ffde-4d8a-8c6b-72c27021fff3","ios":"levelo://app?vid=f456fedf-ffde-4d8a-8c6b-72c27021fff3"},"vehicle_type_id":"4","last_reported":1748279294,"current_range_meters":2000,"station_id":"ce4bghh2rcd13ifvqb60","pricing_plan_id":"cebpf4jnsgd1na2vs0mg"},{"bike_id":"b29315a2-537c-497b-a0fc-bb8b3dd72a35","system_id":"levelo_inurba_marseille","lat":43.29032,"lon":5.39967,"is_reserved":false,"is_disabled":true,"rental_uris":{"android":"levelo://app?vid=b29315a2-537c-497b-a0fc-bb8b3dd72a35","ios":"levelo://app?vid=b29315a2-537c-497b-a0fc-bb8b3dd72a35"},"vehicle_type_id":"4","last_reported":1748279294,"current_range_meters":2000,"station_id":"ce4bh392rcd13ifvqdm0","pricing_plan_id":"cebpf4jnsgd1na2vs0mg"},{"bike_id":"629fd812-28b2-43f7-8b7f-6b84e8434418","system_id":"levelo_inurba_marseille","lat":43.2792,"lon":5.39577,"is_reserved":false,"is_disabled":true,"rental_uris":{"android":"levelo://app?vid=629fd812-28b2-43f7-8b7f-6b84e8434418","ios":"levelo://app?vid=629fd812-28b2-43f7-8b7f-6b84e8434418"},"vehicle_type_id":"4","last_reported":1748279294,"current_range_meters":2000,"station_id":"ce4bhf92rcd13ifvqf40","pricing_plan_id":"cebpf4jnsgd1na2vs0mg"},{"bike_id":"d3a8c8e6-cf72-4dba-ae5e-00aee97defad","system_id":"levelo_inurba_marseille","lat":43.24075,"lon":5.37757,"is_reserved":false,"is_disabled":true,"rental_uris":{"android":"levelo://app?vid=d3a8c8e6-cf72-4dba-ae5e-00aee97defad","ios":"levelo://app?vid=d3a8c8e6-cf72-4dba-ae5e-00aee97defad"},"vehicle_type_id":"4","last_reported":1748279294,"current_range_meters":2000,"station_id":"ce4bhnp2rcd13ifvqgvg","pricing_plan_id":"cebpf4jnsgd1na2vs0mg"},{"bike_id":"ee6d4afc-1bbf-454d-85e9-d5b3e9c02645","system_id":"levelo_inurba_marseille","lat":43.29223,"lon":5.36068,"is_reserved":false,"is_disabled":false,"rental_uris":{"android":"levelo://app?vid=ee6d4afc-1bbf-454d-85e9-d5b3e9c02645","ios":"levelo://app?vid=ee6d4afc-1bbf-454d-85e9-d5b3e9c02645"},"vehicle_type_id":"4","last_reported":1748279294,"current_range_meters":2800,"station_id":"ce4bhbh2rcd13ifvqeqg","pricing_plan_id":"cebpf4jnsgd1na2vs0mg"},{"bike_id":"e17a94ef-ec00-46b5-9ac2-4f466043e30c","system_id":"levelo_inurba_marseille","lat":43.26553,"lon":5.37283,"is_reserved":false,"is_disabled":false,"rental_uris":{"android":"levelo://app?vid=e17a94ef-ec00-46b5-9ac2-4f466043e30c","ios":"levelo://app?vid=e17a94ef-ec00-46b5-9ac2-4f466043e30c"},"vehicle_type_id":"4","last_reported":1748279294,"current_range_meters":2800,"station_id":"ce4bhg12rcd13ifvqf70","pricing_plan_id":"cebpf4jnsgd1na2vs0mg"},{"bike_id":"934ac5d4-98ae-4c47-a5af-bb6998c0bcce","system_id":"levelo_inurba_marseille","lat":43.24999,"lon":5.38922,"is_reserved":false,"is_disabled":false,"rental_uris":{"android":"levelo://app?vid=934ac5d4-98ae-4c47-a5af-bb6998c0bcce","ios":"levelo://app?vid=934ac5d4-98ae-4c47-a5af-bb6998c0bcce"},"vehicle_type_id":"4","last_reported":1748279294,"current_range_meters":2800,"station_id":"ce4bhgp2rcd13ifvqfd0","pricing_plan_id":"cebpf4jnsgd1na2vs0mg"},{"bike_id":"428968c4-4a11-4fae-a190-500844c34e6d","system_id":"levelo_inurba_marseille","lat":43.23206,"lon":5.3997,"is_reserved":false,"is_disabled":false,"rental_uris":{"android":"levelo://app?vid=428968c4-4a11-4fae-a190-500844c34e6d","ios":"levelo://app?vid=428968c4-4a11-4fae-a190-500844c34e6d"},"vehicle_type_id":"4","last_reported":1748279294,"current_range_meters":2800,"station_id":"ce4bhn12rcd13ifvqgqg","pricing_plan_id":"cebpf4jnsgd1na2vs0mg"},{"bike_id":"3fad9f6c-d63e-429a-a4d4-9ca3ebe16f8b","system_id":"levelo_inurba_marseille","lat":43.280009,"lon":5.400074,"is_reserved":false,"is_disabled":false,"rental_uris":{"android":"levelo://app?vid=3fad9f6c-d63e-429a-a4d4-9ca3ebe16f8b","ios":"levelo://app?vid=3fad9f6c-d63e-429a-a4d4-9ca3ebe16f8b"},"vehicle_type_id":"4","last_reported":1748279294,"current_range_meters":2800,"station_id":"ce4bho92rcd13ifvqh4g","pricing_plan_id":"cebpf4jnsgd1na2vs0mg"},{"bike_id":"df231429-681f-49f7-ba82-877c764cfac7","system_id":"levelo_inurba_marseille","lat":43.24173,"lon":5.36398,"is_reserved":false,"is_disabled":false,"rental_uris":{"android":"levelo://app?vid=df231429-681f-49f7-ba82-877c764cfac7","ios":"levelo://app?vid=df231429-681f-49f7-ba82-877c764cfac7"},"vehicle_type_id":"4","last_reported":1748279294,"current_range_meters":2800,"station_id":"cpo36qri1sfpv3e86is0","pricing_plan_id":"cebpf4jnsgd1na2vs0mg"},{"bike_id":"532be826-54ce-49e6-90c5-d21a81e4c79c","system_id":"levelo_inurba_marseille","lat":43.24156,"lon":5.36391,"is_reserved":false,"is_disabled":false,"rental_uris":{"android":"levelo://app?vid=532be826-54ce-49e6-90c5-d21a81e4c79c","ios":"levelo://app?vid=532be826-54ce-49e6-90c5-d21a81e4c79c"},"vehicle_type_id":"4","last_reported":1748279294,"current_range_meters":2800,"station_id":"cpo36qri1sfpv3e86is0","pricing_plan_id":"cebpf4jnsgd1na2vs0mg"},{"bike_id":"f225ff05-ebd5-4ee2-8f16-2b35bc4c94d1","system_id":"levelo_inurba_marseille","lat":43.28471,"lon":5.38414,"is_reserved":false,"is_disabled":false,"rental_uris":{"android":"levelo://app?vid=f225ff05-ebd5-4ee2-8f16-2b35bc4c94d1","ios":"levelo://app?vid=f225ff05-ebd5-4ee2-8f16-2b35bc4c94d1"},"vehicle_type_id":"4","last_reported":1748279294,"current_range_meters":3200,"station_id":"ce4bh512rcd13ifvqe3g","pricing_plan_id":"cebpf4jnsgd1na2vs0mg"},{"bike_id":"39c544e1-2b3d-4f63-884a-143954377bd0","system_id":"levelo_inurba_marseille","lat":43.29059,"lon":5.37166,"is_reserved":false,"is_disabled":false,"rental_uris":{"android":"levelo://app?vid=39c544e1-2b3d-4f63-884a-143954377bd0","ios":"levelo://app?vid=39c544e1-2b3d-4f63-884a-143954377bd0"},"vehicle_type_id":"4","last_reported":1748279294,"current_range_meters":3200,"station_id":"ce4bh5p2rcd13ifvqe4g","pricing_plan_id":"cebpf4jnsgd1na2vs0mg"},{"bike_id":"4c5165a6-2fab-4f90-9d0b-7c6b71b7fd92","system_id":"levelo_inurba_marseille","lat":43.27828,"lon":5.39209,"is_reserved":false,"is_disabled":false,"rental_uris":{"android":"levelo://app?vid=4c5165a6-2fab-4f90-9d0b-7c6b71b7fd92","ios":"levelo://app?vid=4c5165a6-2fab-4f90-9d0b-7c6b71b7fd92"},"vehicle_type_id":"4","last_reported":1748279294,"current_range_meters":3200,"station_id":"ce4bhjp2rcd13ifvqga0","pricing_plan_id":"cebpf4jnsgd1na2vs0mg"},{"bike_id":"985dfe2e-48ab-4438-8b44-7034bccf028e","system_id":"levelo_inurba_marseille","lat":43.26955,"lon":5.39855,"is_reserved":false,"is_disabled":false,"rental_uris":{"android":"levelo://app?vid=985dfe2e-48ab-4438-8b44-7034bccf028e","ios":"levelo://app?vid=985dfe2e-48ab-4438-8b44-7034bccf028e"},"vehicle_type_id":"4","last_reported":1748279294,"current_range_meters":3600,"station_id":"","pricing_plan_id":"cebpf4jnsgd1na2vs0mg"},{"bike_id":"18d08165-c43f-405c-a09f-4a298e972564","system_id":"levelo_inurba_marseille","lat":43.27621,"lon":5.36115,"is_reserved":false,"is_disabled":false,"rental_uris":{"android":"levelo://app?vid=18d08165-c43f-405c-a09f-4a298e972564","ios":"levelo://app?vid=18d08165-c43f-405c-a09f-4a298e972564"},"vehicle_type_id":"4","last_reported":1748279294,"current_range_meters":3600,"station_id":"ce4bgj92rcd13ifvqbe0","pricing_plan_id":"cebpf4jnsgd1na2vs0mg"},{"bike_id":"d59acade-ed1c-47a3-867b-4bf570623e43","system_id":"levelo_inurba_marseille","lat":43.30598,"lon":5.37228,"is_reserved":false,"is_disabled":false,"rental_uris":{"android":"levelo://app?vid=d59acade-ed1c-47a3-867b-4bf570623e43","ios":"levelo://app?vid=d59acade-ed1c-47a3-867b-4bf570623e43"},"vehicle_type_id":"4","last_reported":1748279294,"current_range_meters":3600,"station_id":"ce4bgqh2rcd13ifvqc4g","pricing_plan_id":"cebpf4jnsgd1na2vs0mg"},{"bike_id":"b04b8b79-c5f1-4fcb-83cd-61b455885b9f","system_id":"levelo_inurba_marseille","lat":43.30931,"lon":5.40148,"is_reserved":false,"is_disabled":false,"rental_uris":{"android":"levelo://app?vid=b04b8b79-c5f1-4fcb-83cd-61b455885b9f","ios":"levelo://app?vid=b04b8b79-c5f1-4fcb-83cd-61b455885b9f"},"vehicle_type_id":"4","last_reported":1748279294,"current_range_meters":3600,"station_id":"ce4bgvp2rcd13ifvqct0","pricing_plan_id":"cebpf4jnsgd1na2vs0mg"},{"bike_id":"da453a88-f81b-4e0f-9781-5a7f6c1d364c","system_id":"levelo_inurba_marseille","lat":43.337499,"lon":5.374469,"is_reserved":false,"is_disabled":false,"rental_uris":{"android":"levelo://app?vid=da453a88-f81b-4e0f-9781-5a7f6c1d364c","ios":"levelo://app?vid=da453a88-f81b-4e0f-9781-5a7f6c1d364c"},"vehicle_type_id":"4","last_reported":1748279294,"current_range_meters":4000,"station_id":"","pricing_plan_id":"cebpf4jnsgd1na2vs0mg"},{"bike_id":"1da35f9f-f4ec-4f7e-81f7-49dd3c19bd7a","system_id":"levelo_inurba_marseille","lat":43.26472,"lon":5.41876,"is_reserved":false,"is_disabled":false,"rental_uris":{"android":"levelo://app?vid=1da35f9f-f4ec-4f7e-81f7-49dd3c19bd7a","ios":"levelo://app?vid=1da35f9f-f4ec-4f7e-81f7-49dd3c19bd7a"},"vehicle_type_id":"4","last_reported":1748279294,"current_range_meters":4000,"station_id":"","pricing_plan_id":"cebpf4jnsgd1na2vs0mg"},{"bike_id":"d9fa0449-e47c-4bbe-a91c-4939cab5d888","system_id":"levelo_inurba_marseille","lat":43.285443,"lon":5.426057,"is_reserved":false,"is_disabled":false,"rental_uris":{"android":"levelo://app?vid=d9fa0449-e47c-4bbe-a91c-4939cab5d888","ios":"levelo://app?vid=d9fa0449-e47c-4bbe-a91c-4939cab5d888"},"vehicle_type_id":"4","last_reported":1748279294,"current_range_meters":4000,"station_id":"","pricing_plan_id":"cebpf4jnsgd1na2vs0mg"},{"bike_id":"78b19c70-7b2b-4bcb-9787-e077245fa697","system_id":"levelo_inurba_marseille","lat":43.304485,"lon":5.388685,"is_reserved":false,"is_disabled":false,"rental_uris":{"android":"levelo://app?vid=78b19c70-7b2b-4bcb-9787-e077245fa697","ios":"levelo://app?vid=78b19c70-7b2b-4bcb-9787-e077245fa697"},"vehicle_type_id":"4","last_reported":1748279294,"current_range_meters":4000,"station_id":"ce4bgk12rcd13ifvqbi0","pricing_plan_id":"cebpf4jnsgd1na2vs0mg"},{"bike_id":"1b1bab21-37f3-4bfa-985c-f8093da0db87","system_id":"levelo_inurba_marseille","lat":43.30329,"lon":5.40437,"is_reserved":false,"is_disabled":false,"rental_uris":{"android":"levelo://app?vid=1b1bab21-37f3-4bfa-985c-f8093da0db87","ios":"levelo://app?vid=1b1bab21-37f3-4bfa-985c-f8093da0db87"},"vehicle_type_id":"4","last_reported":1748279294,"current_range_meters":4000,"station_id":"ce4bh012rcd13ifvqd10","pricing_plan_id":"cebpf4jnsgd1na2vs0mg"},{"bike_id":"43992785-5f88-40c1-905b-2348d65abc73","system_id":"levelo_inurba_marseille","lat":43.27374,"lon":5.36258,"is_reserved":false,"is_disabled":false,"rental_uris":{"android":"levelo://app?vid=43992785-5f88-40c1-905b-2348d65abc73","ios":"levelo://app?vid=43992785-5f88-40c1-905b-2348d65abc73"},"vehicle_type_id":"4","last_reported":1748279294,"current_range_meters":4000,"station_id":"ce4bhbh2rcd13ifvqeo0","pricing_plan_id":"cebpf4jnsgd1na2vs0mg"},{"bike_id":"4059100d-e86c-4c2d-8894-543f4dbbe5a7","system_id":"levelo_inurba_marseille","lat":43.2619,"lon":5.3745,"is_reserved":false,"is_disabled":false,"rental_uris":{"android":"levelo://app?vid=4059100d-e86c-4c2d-8894-543f4dbbe5a7","ios":"levelo://app?vid=4059100d-e86c-4c2d-8894-543f4dbbe5a7"},"vehicle_type_id":"4","last_reported":1748279294,"current_range_meters":4000,"station_id":"ce4bhgp2rcd13ifvqfc0","pricing_plan_id":"cebpf4jnsgd1na2vs0mg"},{"bike_id":"a6be63d9-0059-44b4-8f21-839cf9c85a6a","system_id":"levelo_inurba_marseille","lat":43.276151,"lon":5.361116,"is_reserved":false,"is_disabled":false,"rental_uris":{"android":"levelo://app?vid=a6be63d9-0059-44b4-8f21-839cf9c85a6a","ios":"levelo://app?vid=a6be63d9-0059-44b4-8f21-839cf9c85a6a"},"vehicle_type_id":"4","last_reported":1748279294,"current_range_meters":4400,"station_id":"ce4bgj92rcd13ifvqbe0","pricing_plan_id":"cebpf4jnsgd1na2vs0mg"},{"bike_id":"d67746b3-df55-4a6c-9961-ddd4c238622b","system_id":"levelo_inurba_marseille","lat":43.28571,"lon":5.39502,"is_reserved":false,"is_disabled":false,"rental_uris":{"android":"levelo://app?vid=d67746b3-df55-4a6c-9961-ddd4c238622b","ios":"levelo://app?vid=d67746b3-df55-4a6c-9961-ddd4c238622b"},"vehicle_type_id":"4","last_reported":1748279294,"current_range_meters":4400,"station_id":"ce4bh292rcd13ifvqdg0","pricing_plan_id":"cebpf4jnsgd1na2vs0mg"},{"bike_id":"98ebf65e-e651-43eb-bbd4-161cddcbd829","system_id":"levelo_inurba_marseille","lat":43.284768,"lon":5.384156,"is_reserved":false,"is_disabled":false,"rental_uris":{"android":"levelo://app?vid=98ebf65e-e651-43eb-bbd4-161cddcbd829","ios":"levelo://app?vid=98ebf65e-e651-43eb-bbd4-161cddcbd829"},"vehicle_type_id":"4","last_reported":1748279294,"current_range_meters":4400,"station_id":"ce4bh512rcd13ifvqe3g","pricing_plan_id":"cebpf4jnsgd1na2vs0mg"},{"bike_id":"643d5f7c-8a8f-40aa-b5f6-d2b5465ecfbe","system_id":"levelo_inurba_marseille","lat":43.31755,"lon":5.39013,"is_reserved":false,"is_disabled":false,"rental_uris":{"android":"levelo://app?vid=643d5f7c-8a8f-40aa-b5f6-d2b5465ecfbe","ios":"levelo://app?vid=643d5f7c-8a8f-40aa-b5f6-d2b5465ecfbe"},"vehicle_type_id":"4","last_reported":1748279294,"current_range_meters":4400,"station_id":"ce4bhqp2rcd13ifvqhng","pricing_plan_id":"cebpf4jnsgd1na2vs0mg"},{"bike_id":"1e5f8c8c-b9f2-4e91-8336-87ba4eb391c7","system_id":"levelo_inurba_marseille","lat":43.3116,"lon":5.38717,"is_reserved":false,"is_disabled":false,"rental_uris":{"android":"levelo://app?vid=1e5f8c8c-b9f2-4e91-8336-87ba4eb391c7","ios":"levelo://app?vid=1e5f8c8c-b9f2-4e91-8336-87ba4eb391c7"},"vehicle_type_id":"4","last_reported":1748279294,"current_range_meters":4800,"station_id":"ce4bgv12rcd13ifvqcp0","pricing_plan_id":"cebpf4jnsgd1na2vs0mg"},{"bike_id":"b92955f9-6c7f-4524-bed5-bf76d11edc79","system_id":"levelo_inurba_marseille","lat":43.28425,"lon":5.34989,"is_reserved":false,"is_disabled":false,"rental_uris":{"android":"levelo://app?vid=b92955f9-6c7f-4524-bed5-bf76d11edc79","ios":"levelo://app?vid=b92955f9-6c7f-4524-bed5-bf76d11edc79"},"vehicle_type_id":"4","last_reported":1748279294,"current_range_meters":4800,"station_id":"ce4bhbh2rcd13ifvqepg","pricing_plan_id":"cebpf4jnsgd1na2vs0mg"},{"bike_id":"f148fcf4-b3dc-4c28-8295-905d1ea537ec","system_id":"levelo_inurba_marseille","lat":43.25497,"lon":5.37651,"is_reserved":false,"is_disabled":false,"rental_uris":{"android":"levelo://app?vid=f148fcf4-b3dc-4c28-8295-905d1ea537ec","ios":"levelo://app?vid=f148fcf4-b3dc-4c28-8295-905d1ea537ec"},"vehicle_type_id":"4","last_reported":1748279294,"current_range_meters":4800,"station_id":"ce4bhh12rcd13ifvqff0","pricing_plan_id":"cebpf4jnsgd1na2vs0mg"},{"bike_id":"a58d4ecf-adc8-4b6b-82e7-4bf3409b00a5","system_id":"levelo_inurba_marseille","lat":43.2398,"lon":5.36608,"is_reserved":false,"is_disabled":false,"rental_uris":{"android":"levelo://app?vid=a58d4ecf-adc8-4b6b-82e7-4bf3409b00a5","ios":"levelo://app?vid=a58d4ecf-adc8-4b6b-82e7-4bf3409b00a5"},"vehicle_type_id":"4","last_reported":1748279294,"current_range_meters":4800,"station_id":"ce4bhi12rcd13ifvqfp0","pricing_plan_id":"cebpf4jnsgd1na2vs0mg"},{"bike_id":"fbf44674-74d5-4106-bee3-4b7f0c029530","system_id":"levelo_inurba_marseille","lat":43.25587,"lon":5.38238,"is_reserved":false,"is_disabled":false,"rental_uris":{"android":"levelo://app?vid=fbf44674-74d5-4106-bee3-4b7f0c029530","ios":"levelo://app?vid=fbf44674-74d5-4106-bee3-4b7f0c029530"},"vehicle_type_id":"4","last_reported":1748279294,"current_range_meters":4800,"station_id":"ce4bhih2rcd13ifvqfs0","pricing_plan_id":"cebpf4jnsgd1na2vs0mg"},{"bike_id":"dab7ee0d-f820-455c-89c6-13e25f106faf","system_id":"levelo_inurba_marseille","lat":43.32353,"lon":5.42062,"is_reserved":false,"is_disabled":false,"rental_uris":{"android":"levelo://app?vid=dab7ee0d-f820-455c-89c6-13e25f106faf","ios":"levelo://app?vid=dab7ee0d-f820-455c-89c6-13e25f106faf"},"vehicle_type_id":"4","last_reported":1748279294,"current_range_meters":5600,"station_id":"","pricing_plan_id":"cebpf4jnsgd1na2vs0mg"},{"bike_id":"a5365e6c-d69f-4e5b-ba99-70a2714a01f8","system_id":"levelo_inurba_marseille","lat":43.2962,"lon":5.40594,"is_reserved":false,"is_disabled":false,"rental_uris":{"android":"levelo://app?vid=a5365e6c-d69f-4e5b-ba99-70a2714a01f8","ios":"levelo://app?vid=a5365e6c-d69f-4e5b-ba99-70a2714a01f8"},"vehicle_type_id":"4","last_reported":1748279294,"current_range_meters":5600,"station_id":"ce4bh0h2rcd13ifvqd60","pricing_plan_id":"cebpf4jnsgd1na2vs0mg"},{"bike_id":"3ddc799c-004f-4260-92c5-5818e4f6fb88","system_id":"levelo_inurba_marseille","lat":43.2737,"lon":5.36251,"is_reserved":false,"is_disabled":false,"rental_uris":{"android":"levelo://app?vid=3ddc799c-004f-4260-92c5-5818e4f6fb88","ios":"levelo://app?vid=3ddc799c-004f-4260-92c5-5818e4f6fb88"},"vehicle_type_id":"4","last_reported":1748279294,"current_range_meters":5600,"station_id":"ce4bhbh2rcd13ifvqeo0","pricing_plan_id":"cebpf4jnsgd1na2vs0mg"},{"bike_id":"072e21e2-307a-4097-9672-48210e154bf0","system_id":"levelo_inurba_marseille","lat":43.27371,"lon":5.3624,"is_reserved":false,"is_disabled":false,"rental_uris":{"android":"levelo://app?vid=072e21e2-307a-4097-9672-48210e154bf0","ios":"levelo://app?vid=072e21e2-307a-4097-9672-48210e154bf0"},"vehicle_type_id":"4","last_reported":1748279294,"current_range_meters":5600,"station_id":"ce4bhbh2rcd13ifvqeo0","pricing_plan_id":"cebpf4jnsgd1na2vs0mg"},{"bike_id":"a19c75c2-f351-4dc6-ae83-dfdd6ba87472","system_id":"levelo_inurba_marseille","lat":43.255,"lon":5.37651,"is_reserved":false,"is_disabled":false,"rental_uris":{"android":"levelo://app?vid=a19c75c2-f351-4dc6-ae83-dfdd6ba87472","ios":"levelo://app?vid=a19c75c2-f351-4dc6-ae83-dfdd6ba87472"},"vehicle_type_id":"4","last_reported":1748279294,"current_range_meters":5600,"station_id":"ce4bhh12rcd13ifvqff0","pricing_plan_id":"cebpf4jnsgd1na2vs0mg"},{"bike_id":"68e380b7-8637-4080-8e24-271811f29a50","system_id":"levelo_inurba_marseille","lat":43.23959,"lon":5.36643,"is_reserved":false,"is_disabled":false,"rental_uris":{"android":"levelo://app?vid=68e380b7-8637-4080-8e24-271811f29a50","ios":"levelo://app?vid=68e380b7-8637-4080-8e24-271811f29a50"},"vehicle_type_id":"4","last_reported":1748279294,"current_range_meters":5600,"station_id":"ce4bhi12rcd13ifvqfp0","pricing_plan_id":"cebpf4jnsgd1na2vs0mg"},{"bike_id":"ed3b489a-79a2-43c7-ab37-01542efc6dc9","system_id":"levelo_inurba_marseille","lat":43.32366,"lon":5.38884,"is_reserved":false,"is_disabled":false,"rental_uris":{"android":"levelo://app?vid=ed3b489a-79a2-43c7-ab37-01542efc6dc9","ios":"levelo://app?vid=ed3b489a-79a2-43c7-ab37-01542efc6dc9"},"vehicle_type_id":"4","last_reported":1748279294,"current_range_meters":5600,"station_id":"ce4bhqp2rcd13ifvqhog","pricing_plan_id":"cebpf4jnsgd1na2vs0mg"},{"bike_id":"6855135c-85c8-4d16-9178-8450739d31b2","system_id":"levelo_inurba_marseille","lat":43.31016,"lon":5.37942,"is_reserved":false,"is_disabled":false,"rental_uris":{"android":"levelo://app?vid=6855135c-85c8-4d16-9178-8450739d31b2","ios":"levelo://app?vid=6855135c-85c8-4d16-9178-8450739d31b2"},"vehicle_type_id":"4","last_reported":1748279294,"current_range_meters":6000,"station_id":"","pricing_plan_id":"cebpf4jnsgd1na2vs0mg"},{"bike_id":"2f101208-6cb9-4d35-ae26-921e44de501a","system_id":"levelo_inurba_marseille","lat":43.30324,"lon":5.40433,"is_reserved":false,"is_disabled":false,"rental_uris":{"android":"levelo://app?vid=2f101208-6cb9-4d35-ae26-921e44de501a","ios":"levelo://app?vid=2f101208-6cb9-4d35-ae26-921e44de501a"},"vehicle_type_id":"4","last_reported":1748279294,"current_range_meters":6000,"station_id":"ce4bh012rcd13ifvqd10","pricing_plan_id":"cebpf4jnsgd1na2vs0mg"},{"bike_id":"d2f6b88b-979d-490c-a258-4fe2e1e819d8","system_id":"levelo_inurba_marseille","lat":43.29129,"lon":5.38102,"is_reserved":false,"is_disabled":false,"rental_uris":{"android":"levelo://app?vid=d2f6b88b-979d-490c-a258-4fe2e1e819d8","ios":"levelo://app?vid=d2f6b88b-979d-490c-a258-4fe2e1e819d8"},"vehicle_type_id":"4","last_reported":1748279294,"current_range_meters":6000,"station_id":"ce4bh512rcd13ifvqe2g","pricing_plan_id":"cebpf4jnsgd1na2vs0mg"},{"bike_id":"131d7df0-10cb-4955-907b-f9845cceb4a8","system_id":"levelo_inurba_marseille","lat":43.28952,"lon":5.36632,"is_reserved":false,"is_disabled":false,"rental_uris":{"android":"levelo://app?vid=131d7df0-10cb-4955-907b-f9845cceb4a8","ios":"levelo://app?vid=131d7df0-10cb-4955-907b-f9845cceb4a8"},"vehicle_type_id":"4","last_reported":1748279294,"current_range_meters":6000,"station_id":"ce4bhap2rcd13ifvqek0","pricing_plan_id":"cebpf4jnsgd1na2vs0mg"},{"bike_id":"f9f0f580-596b-4544-baaa-56a84f5d0d8c","system_id":"levelo_inurba_marseille","lat":43.24382,"lon":5.37054,"is_reserved":false,"is_disabled":false,"rental_uris":{"android":"levelo://app?vid=f9f0f580-596b-4544-baaa-56a84f5d0d8c","ios":"levelo://app?vid=f9f0f580-596b-4544-baaa-56a84f5d0d8c"},"vehicle_type_id":"4","last_reported":1748279294,"current_range_meters":6000,"station_id":"ce4bhhh2rcd13ifvqfk0","pricing_plan_id":"cebpf4jnsgd1na2vs0mg"},{"bike_id":"6dab6c0c-61a2-4782-bde2-909445c0c07b","system_id":"levelo_inurba_marseille","lat":43.25934,"lon":5.409,"is_reserved":false,"is_disabled":false,"rental_uris":{"android":"levelo://app?vid=6dab6c0c-61a2-4782-bde2-909445c0c07b","ios":"levelo://app?vid=6dab6c0c-61a2-4782-bde2-909445c0c07b"},"vehicle_type_id":"4","last_reported":1748279294,"current_range_meters":6000,"station_id":"ce4bhm92rcd13ifvqglg","pricing_plan_id":"cebpf4jnsgd1na2vs0mg"},{"bike_id":"0b0dceeb-bff8-40e2-83ca-823611033ba6","system_id":"levelo_inurba_marseille","lat":43.315405,"lon":5.36866,"is_reserved":false,"is_disabled":false,"rental_uris":{"android":"levelo://app?vid=0b0dceeb-bff8-40e2-83ca-823611033ba6","ios":"levelo://app?vid=0b0dceeb-bff8-40e2-83ca-823611033ba6"},"vehicle_type_id":"4","last_reported":1748279294,"current_range_meters":6400,"station_id":"","pricing_plan_id":"cebpf4jnsgd1na2vs0mg"},{"bike_id":"6abb9ab4-3976-4e3e-b994-f2f72ee02055","system_id":"levelo_inurba_marseille","lat":43.317938,"lon":5.368205,"is_reserved":false,"is_disabled":false,"rental_uris":{"android":"levelo://app?vid=6abb9ab4-3976-4e3e-b994-f2f72ee02055","ios":"levelo://app?vid=6abb9ab4-3976-4e3e-b994-f2f72ee02055"},"vehicle_type_id":"4","last_reported":1748279294,"current_range_meters":6400,"station_id":"","pricing_plan_id":"cebpf4jnsgd1na2vs0mg"},{"bike_id":"98d4b2eb-f53d-412a-9d4e-feb6805d3815","system_id":"levelo_inurba_marseille","lat":43.28423,"lon":5.37483,"is_reserved":false,"is_disabled":false,"rental_uris":{"android":"levelo://app?vid=98d4b2eb-f53d-412a-9d4e-feb6805d3815","ios":"levelo://app?vid=98d4b2eb-f53d-412a-9d4e-feb6805d3815"},"vehicle_type_id":"4","last_reported":1748279294,"current_range_meters":6400,"station_id":"ce4bh412rcd13ifvqds0","pricing_plan_id":"cebpf4jnsgd1na2vs0mg"},{"bike_id":"d7f45847-daf6-452f-89b9-571b52642d7e","system_id":"levelo_inurba_marseille","lat":43.2836,"lon":5.38626,"is_reserved":false,"is_disabled":false,"rental_uris":{"android":"levelo://app?vid=d7f45847-daf6-452f-89b9-571b52642d7e","ios":"levelo://app?vid=d7f45847-daf6-452f-89b9-571b52642d7e"},"vehicle_type_id":"4","last_reported":1748279294,"current_range_meters":6400,"station_id":"ce4bh492rcd13ifvqdvg","pricing_plan_id":"cebpf4jnsgd1na2vs0mg"},{"bike_id":"53508e30-de90-41e6-92e7-6803fb4147fe","system_id":"levelo_inurba_marseille","lat":43.30424,"lon":5.38882,"is_reserved":false,"is_disabled":false,"rental_uris":{"android":"levelo://app?vid=53508e30-de90-41e6-92e7-6803fb4147fe","ios":"levelo://app?vid=53508e30-de90-41e6-92e7-6803fb4147fe"},"vehicle_type_id":"4","last_reported":1748279294,"current_range_meters":6800,"station_id":"ce4bgk12rcd13ifvqbi0","pricing_plan_id":"cebpf4jnsgd1na2vs0mg"},{"bike_id":"615dc287-3cd3-4305-9a50-161625b6e5ec","system_id":"levelo_inurba_marseille","lat":43.29023,"lon":5.38648,"is_reserved":false,"is_disabled":false,"rental_uris":{"android":"levelo://app?vid=615dc287-3cd3-4305-9a50-161625b6e5ec","ios":"levelo://app?vid=615dc287-3cd3-4305-9a50-161625b6e5ec"},"vehicle_type_id":"4","last_reported":1748279294,"current_range_meters":6800,"station_id":"ce4bh4p2rcd13ifvqe0g","pricing_plan_id":"cebpf4jnsgd1na2vs0mg"},{"bike_id":"6b74d4bd-18fd-4a0c-8c6c-0f315913d09b","system_id":"levelo_inurba_marseille","lat":43.26205,"lon":5.37442,"is_reserved":false,"is_disabled":false,"rental_uris":{"android":"levelo://app?vid=6b74d4bd-18fd-4a0c-8c6c-0f315913d09b","ios":"levelo://app?vid=6b74d4bd-18fd-4a0c-8c6c-0f315913d09b"},"vehicle_type_id":"4","last_reported":1748279294,"current_range_meters":6800,"station_id":"ce4bhgp2rcd13ifvqfc0","pricing_plan_id":"cebpf4jnsgd1na2vs0mg"},{"bike_id":"20aedc1a-3258-494a-9b0e-5afc4945dd89","system_id":"levelo_inurba_marseille","lat":43.23193,"lon":5.39975,"is_reserved":false,"is_disabled":false,"rental_uris":{"android":"levelo://app?vid=20aedc1a-3258-494a-9b0e-5afc4945dd89","ios":"levelo://app?vid=20aedc1a-3258-494a-9b0e-5afc4945dd89"},"vehicle_type_id":"4","last_reported":1748279294,"current_range_meters":6800,"station_id":"ce4bhn12rcd13ifvqgqg","pricing_plan_id":"cebpf4jnsgd1na2vs0mg"},{"bike_id":"ab485184-dee6-4278-8ed8-78cb97c31dd5","system_id":"levelo_inurba_marseille","lat":43.2921,"lon":5.35824,"is_reserved":false,"is_disabled":false,"rental_uris":{"android":"levelo://app?vid=ab485184-dee6-4278-8ed8-78cb97c31dd5","ios":"levelo://app?vid=ab485184-dee6-4278-8ed8-78cb97c31dd5"},"vehicle_type_id":"4","last_reported":1748279294,"current_range_meters":7200,"station_id":"","pricing_plan_id":"cebpf4jnsgd1na2vs0mg"},{"bike_id":"4886a5d7-12d1-40a4-8592-de14577f8f9b","system_id":"levelo_inurba_marseille","lat":43.29705,"lon":5.36619,"is_reserved":false,"is_disabled":false,"rental_uris":{"android":"levelo://app?vid=4886a5d7-12d1-40a4-8592-de14577f8f9b","ios":"levelo://app?vid=4886a5d7-12d1-40a4-8592-de14577f8f9b"},"vehicle_type_id":"4","last_reported":1748279294,"current_range_meters":7200,"station_id":"ce4bgn12rcd13ifvqbt0","pricing_plan_id":"cebpf4jnsgd1na2vs0mg"},{"bike_id":"16739cc3-b900-42e0-87d3-653bcadacb36","system_id":"levelo_inurba_marseille","lat":43.3032,"lon":5.40431,"is_reserved":false,"is_disabled":false,"rental_uris":{"android":"levelo://app?vid=16739cc3-b900-42e0-87d3-653bcadacb36","ios":"levelo://app?vid=16739cc3-b900-42e0-87d3-653bcadacb36"},"vehicle_type_id":"4","last_reported":1748279294,"current_range_meters":7200,"station_id":"ce4bh012rcd13ifvqd10","pricing_plan_id":"cebpf4jnsgd1na2vs0mg"},{"bike_id":"361d2a26-f4df-41d9-92b4-0e3f4ba05680","system_id":"levelo_inurba_marseille","lat":43.29795,"lon":5.40398,"is_reserved":false,"is_disabled":false,"rental_uris":{"android":"levelo://app?vid=361d2a26-f4df-41d9-92b4-0e3f4ba05680","ios":"levelo://app?vid=361d2a26-f4df-41d9-92b4-0e3f4ba05680"},"vehicle_type_id":"4","last_reported":1748279294,"current_range_meters":7200,"station_id":"ce4bh112rcd13ifvqd90","pricing_plan_id":"cebpf4jnsgd1na2vs0mg"},{"bike_id":"6a1a4e1f-7e23-40e1-97e1-d2aba871da70","system_id":"levelo_inurba_marseille","lat":43.291295,"lon":5.380731,"is_reserved":false,"is_disabled":false,"rental_uris":{"android":"levelo://app?vid=6a1a4e1f-7e23-40e1-97e1-d2aba871da70","ios":"levelo://app?vid=6a1a4e1f-7e23-40e1-97e1-d2aba871da70"},"vehicle_type_id":"4","last_reported":1748279294,"current_range_meters":7200,"station_id":"ce4bh4p2rcd13ifvqe1g","pricing_plan_id":"cebpf4jnsgd1na2vs0mg"},{"bike_id":"cc41c962-bd12-481a-91cc-66109381d782","system_id":"levelo_inurba_marseille","lat":43.2893,"lon":5.38397,"is_reserved":false,"is_disabled":false,"rental_uris":{"android":"levelo://app?vid=cc41c962-bd12-481a-91cc-66109381d782","ios":"levelo://app?vid=cc41c962-bd12-481a-91cc-66109381d782"},"vehicle_type_id":"4","last_reported":1748279294,"current_range_meters":7200,"station_id":"ce4bh612rcd13ifvqe6g","pricing_plan_id":"cebpf4jnsgd1na2vs0mg"},{"bike_id":"91abe450-0a66-4b50-b31a-19884378570f","system_id":"levelo_inurba_marseille","lat":43.27913,"lon":5.39576,"is_reserved":false,"is_disabled":false,"rental_uris":{"android":"levelo://app?vid=91abe450-0a66-4b50-b31a-19884378570f","ios":"levelo://app?vid=91abe450-0a66-4b50-b31a-19884378570f"},"vehicle_type_id":"4","last_reported":1748279294,"current_range_meters":7200,"station_id":"ce4bhf92rcd13ifvqf40","pricing_plan_id":"cebpf4jnsgd1na2vs0mg"},{"bike_id":"5eee5bfe-c637-41e7-89e6-eed9d6f74058","system_id":"levelo_inurba_marseille","lat":43.27939,"lon":5.41049,"is_reserved":false,"is_disabled":false,"rental_uris":{"android":"levelo://app?vid=5eee5bfe-c637-41e7-89e6-eed9d6f74058","ios":"levelo://app?vid=5eee5bfe-c637-41e7-89e6-eed9d6f74058"},"vehicle_type_id":"4","last_reported":1748279294,"current_range_meters":7200,"station_id":"ce4bhnp2rcd13ifvqh0g","pricing_plan_id":"cebpf4jnsgd1na2vs0mg"},{"bike_id":"b690ebba-0b15-45b3-b94d-fa427c4c5f0e","system_id":"levelo_inurba_marseille","lat":43.28443,"lon":5.39203,"is_reserved":false,"is_disabled":false,"rental_uris":{"android":"levelo://app?vid=b690ebba-0b15-45b3-b94d-fa427c4c5f0e","ios":"levelo://app?vid=b690ebba-0b15-45b3-b94d-fa427c4c5f0e"},"vehicle_type_id":"4","last_reported":1748279294,"current_range_meters":7200,"station_id":"ce4bhoh2rcd13ifvqh5g","pricing_plan_id":"cebpf4jnsgd1na2vs0mg"},{"bike_id":"5abb8a77-fbf0-4d21-805b-29790cff0e49","system_id":"levelo_inurba_marseille","lat":43.31093,"lon":5.42448,"is_reserved":false,"is_disabled":false,"rental_uris":{"android":"levelo://app?vid=5abb8a77-fbf0-4d21-805b-29790cff0e49","ios":"levelo://app?vid=5abb8a77-fbf0-4d21-805b-29790cff0e49"},"vehicle_type_id":"4","last_reported":1748279294,"current_range_meters":7200,"station_id":"ce4bhp92rcd13ifvqhag","pricing_plan_id":"cebpf4jnsgd1na2vs0mg"},{"bike_id":"903ad40f-a46a-4960-8003-d46293b51c12","system_id":"levelo_inurba_marseille","lat":43.323357,"lon":5.406123,"is_reserved":false,"is_disabled":false,"rental_uris":{"android":"levelo://app?vid=903ad40f-a46a-4960-8003-d46293b51c12","ios":"levelo://app?vid=903ad40f-a46a-4960-8003-d46293b51c12"},"vehicle_type_id":"4","last_reported":1748279294,"current_range_meters":7200,"station_id":"ce4bhq92rcd13ifvqhjg","pricing_plan_id":"cebpf4jnsgd1na2vs0mg"},{"bike_id":"0daf0986-c963-4ea4-aa04-888284e22117","system_id":"levelo_inurba_marseille","lat":43.28728,"lon":5.36075,"is_reserved":false,"is_disabled":false,"rental_uris":{"android":"levelo://app?vid=0daf0986-c963-4ea4-aa04-888284e22117","ios":"levelo://app?vid=0daf0986-c963-4ea4-aa04-888284e22117"},"vehicle_type_id":"4","last_reported":1748279294,"current_range_meters":7200,"station_id":"cki0cbj6b192h4jlfktg","pricing_plan_id":"cebpf4jnsgd1na2vs0mg"},{"bike_id":"328c0b88-a885-41a6-8d1d-b0a81a08750d","system_id":"levelo_inurba_marseille","lat":43.24165,"lon":5.36392,"is_reserved":false,"is_disabled":false,"rental_uris":{"android":"levelo://app?vid=328c0b88-a885-41a6-8d1d-b0a81a08750d","ios":"levelo://app?vid=328c0b88-a885-41a6-8d1d-b0a81a08750d"},"vehicle_type_id":"4","last_reported":1748279294,"current_range_meters":7200,"station_id":"cpo36qri1sfpv3e86is0","pricing_plan_id":"cebpf4jnsgd1na2vs0mg"},{"bike_id":"dabc077c-bf8d-431d-a5ea-dcd441e9b7b1","system_id":"levelo_inurba_marseille","lat":43.24864,"lon":5.3974,"is_reserved":false,"is_disabled":false,"rental_uris":{"android":"levelo://app?vid=dabc077c-bf8d-431d-a5ea-dcd441e9b7b1","ios":"levelo://app?vid=dabc077c-bf8d-431d-a5ea-dcd441e9b7b1"},"vehicle_type_id":"4","last_reported":1748279294,"current_range_meters":8000,"station_id":"","pricing_plan_id":"cebpf4jnsgd1na2vs0mg"},{"bike_id":"6bd632d0-3a5d-4a88-80ba-3d0b8360ac49","system_id":"levelo_inurba_marseille","lat":43.3136,"lon":5.38487,"is_reserved":false,"is_disabled":false,"rental_uris":{"android":"levelo://app?vid=6bd632d0-3a5d-4a88-80ba-3d0b8360ac49","ios":"levelo://app?vid=6bd632d0-3a5d-4a88-80ba-3d0b8360ac49"},"vehicle_type_id":"4","last_reported":1748279294,"current_range_meters":8000,"station_id":"ce4bgt92rcd13ifvqcf0","pricing_plan_id":"cebpf4jnsgd1na2vs0mg"},{"bike_id":"22162bc2-30bf-45e2-a74f-669316d3a304","system_id":"levelo_inurba_marseille","lat":43.29791,"lon":5.40405,"is_reserved":false,"is_disabled":false,"rental_uris":{"android":"levelo://app?vid=22162bc2-30bf-45e2-a74f-669316d3a304","ios":"levelo://app?vid=22162bc2-30bf-45e2-a74f-669316d3a304"},"vehicle_type_id":"4","last_reported":1748279294,"current_range_meters":8000,"station_id":"ce4bh112rcd13ifvqd90","pricing_plan_id":"cebpf4jnsgd1na2vs0mg"},{"bike_id":"e9496718-b841-4999-823d-28c5bee5d6f1","system_id":"levelo_inurba_marseille","lat":43.26527,"lon":5.39003,"is_reserved":false,"is_disabled":false,"rental_uris":{"android":"levelo://app?vid=e9496718-b841-4999-823d-28c5bee5d6f1","ios":"levelo://app?vid=e9496718-b841-4999-823d-28c5bee5d6f1"},"vehicle_type_id":"4","last_reported":1748279294,"current_range_meters":8000,"station_id":"ce4bhe12rcd13ifvqf30","pricing_plan_id":"cebpf4jnsgd1na2vs0mg"},{"bike_id":"e5e036d5-91cd-41ca-916e-a86d296a6267","system_id":"levelo_inurba_marseille","lat":43.255748,"lon":5.382392,"is_reserved":false,"is_disabled":false,"rental_uris":{"android":"levelo://app?vid=e5e036d5-91cd-41ca-916e-a86d296a6267","ios":"levelo://app?vid=e5e036d5-91cd-41ca-916e-a86d296a6267"},"vehicle_type_id":"4","last_reported":1748279294,"current_range_meters":8000,"station_id":"ce4bhih2rcd13ifvqfs0","pricing_plan_id":"cebpf4jnsgd1na2vs0mg"},{"bike_id":"c9a474da-e6d6-4dea-83d1-1ad840647443","system_id":"levelo_inurba_marseille","lat":43.31996,"lon":5.38161,"is_reserved":false,"is_disabled":false,"rental_uris":{"android":"levelo://app?vid=c9a474da-e6d6-4dea-83d1-1ad840647443","ios":"levelo://app?vid=c9a474da-e6d6-4dea-83d1-1ad840647443"},"vehicle_type_id":"4","last_reported":1748279294,"current_range_meters":8000,"station_id":"ce4bhr12rcd13ifvqhpg","pricing_plan_id":"cebpf4jnsgd1na2vs0mg"},{"bike_id":"d328b393-4635-4ce9-afd2-e36f2a11611e","system_id":"levelo_inurba_marseille","lat":43.26026,"lon":5.41736,"is_reserved":false,"is_disabled":false,"rental_uris":{"android":"levelo://app?vid=d328b393-4635-4ce9-afd2-e36f2a11611e","ios":"levelo://app?vid=d328b393-4635-4ce9-afd2-e36f2a11611e"},"vehicle_type_id":"4","last_reported":1748279294,"current_range_meters":8400,"station_id":"","pricing_plan_id":"cebpf4jnsgd1na2vs0mg"},{"bike_id":"a7c87931-ef0f-4a64-9c78-fb1c510483ec","system_id":"levelo_inurba_marseille","lat":43.251265,"lon":5.403173,"is_reserved":false,"is_disabled":false,"rental_uris":{"android":"levelo://app?vid=a7c87931-ef0f-4a64-9c78-fb1c510483ec","ios":"levelo://app?vid=a7c87931-ef0f-4a64-9c78-fb1c510483ec"},"vehicle_type_id":"4","last_reported":1748279294,"current_range_meters":8400,"station_id":"ce4bhlh2rcd13ifvqgig","pricing_plan_id":"cebpf4jnsgd1na2vs0mg"},{"bike_id":"b86dbe1a-70dd-4b78-a45b-ef4418472527","system_id":"levelo_inurba_marseille","lat":43.26936,"lon":5.40249,"is_reserved":false,"is_disabled":false,"rental_uris":{"android":"levelo://app?vid=b86dbe1a-70dd-4b78-a45b-ef4418472527","ios":"levelo://app?vid=b86dbe1a-70dd-4b78-a45b-ef4418472527"},"vehicle_type_id":"4","last_reported":1748279294,"current_range_meters":8400,"station_id":"cjm6bp8fraef2m0cb0m0","pricing_plan_id":"cebpf4jnsgd1na2vs0mg"},{"bike_id":"efd698cb-2450-498f-9f0b-bfc662548e61","system_id":"levelo_inurba_marseille","lat":43.26562,"lon":5.40321,"is_reserved":false,"is_disabled":false,"rental_uris":{"android":"levelo://app?vid=efd698cb-2450-498f-9f0b-bfc662548e61","ios":"levelo://app?vid=efd698cb-2450-498f-9f0b-bfc662548e61"},"vehicle_type_id":"4","last_reported":1748279294,"current_range_meters":8800,"station_id":"","pricing_plan_id":"cebpf4jnsgd1na2vs0mg"},{"bike_id":"afa6bc21-df6d-40f5-be59-9f48087d838e","system_id":"levelo_inurba_marseille","lat":43.30327,"lon":5.40432,"is_reserved":false,"is_disabled":false,"rental_uris":{"android":"levelo://app?vid=afa6bc21-df6d-40f5-be59-9f48087d838e","ios":"levelo://app?vid=afa6bc21-df6d-40f5-be59-9f48087d838e"},"vehicle_type_id":"4","last_reported":1748279294,"current_range_meters":8800,"station_id":"ce4bh012rcd13ifvqd10","pricing_plan_id":"cebpf4jnsgd1na2vs0mg"},{"bike_id":"24dbc62c-3d41-47dc-a4a3-06c9b3520fbd","system_id":"levelo_inurba_marseille","lat":43.30139,"lon":5.39866,"is_reserved":false,"is_disabled":false,"rental_uris":{"android":"levelo://app?vid=24dbc62c-3d41-47dc-a4a3-06c9b3520fbd","ios":"levelo://app?vid=24dbc62c-3d41-47dc-a4a3-06c9b3520fbd"},"vehicle_type_id":"4","last_reported":1748279294,"current_range_meters":8800,"station_id":"ce4bh0h2rcd13ifvqd40","pricing_plan_id":"cebpf4jnsgd1na2vs0mg"},{"bike_id":"ce561138-81a0-4d9c-b739-0e2ecd797a86","system_id":"levelo_inurba_marseille","lat":43.29876,"lon":5.3973,"is_reserved":false,"is_disabled":false,"rental_uris":{"android":"levelo://app?vid=ce561138-81a0-4d9c-b739-0e2ecd797a86","ios":"levelo://app?vid=ce561138-81a0-4d9c-b739-0e2ecd797a86"},"vehicle_type_id":"4","last_reported":1748279294,"current_range_meters":8800,"station_id":"ce4bh0h2rcd13ifvqd50","pricing_plan_id":"cebpf4jnsgd1na2vs0mg"},{"bike_id":"2f74c4e8-727d-4ba1-b4d7-96a0de1d8c43","system_id":"levelo_inurba_marseille","lat":43.2987,"lon":5.39733,"is_reserved":false,"is_disabled":false,"rental_uris":{"android":"levelo://app?vid=2f74c4e8-727d-4ba1-b4d7-96a0de1d8c43","ios":"levelo://app?vid=2f74c4e8-727d-4ba1-b4d7-96a0de1d8c43"},"vehicle_type_id":"4","last_reported":1748279294,"current_range_meters":8800,"station_id":"ce4bh0h2rcd13ifvqd50","pricing_plan_id":"cebpf4jnsgd1na2vs0mg"},{"bike_id":"da711338-f66d-4144-a56b-f537750aae7c","system_id":"levelo_inurba_marseille","lat":43.28691,"lon":5.37392,"is_reserved":false,"is_disabled":false,"rental_uris":{"android":"levelo://app?vid=da711338-f66d-4144-a56b-f537750aae7c","ios":"levelo://app?vid=da711338-f66d-4144-a56b-f537750aae7c"},"vehicle_type_id":"4","last_reported":1748279294,"current_range_meters":8800,"station_id":"ce4bh3p2rcd13ifvqdq0","pricing_plan_id":"cebpf4jnsgd1na2vs0mg"},{"bike_id":"079817b3-3c6b-47bd-a0a4-388fa1d612e1","system_id":"levelo_inurba_marseille","lat":43.27914,"lon":5.3958,"is_reserved":false,"is_disabled":false,"rental_uris":{"android":"levelo://app?vid=079817b3-3c6b-47bd-a0a4-388fa1d612e1","ios":"levelo://app?vid=079817b3-3c6b-47bd-a0a4-388fa1d612e1"},"vehicle_type_id":"4","last_reported":1748279294,"current_range_meters":8800,"station_id":"ce4bhf92rcd13ifvqf40","pricing_plan_id":"cebpf4jnsgd1na2vs0mg"},{"bike_id":"c5c86381-f482-467f-aec5-2e124e5288e5","system_id":"levelo_inurba_marseille","lat":43.32332,"lon":5.40616,"is_reserved":false,"is_disabled":false,"rental_uris":{"android":"levelo://app?vid=c5c86381-f482-467f-aec5-2e124e5288e5","ios":"levelo://app?vid=c5c86381-f482-467f-aec5-2e124e5288e5"},"vehicle_type_id":"4","last_reported":1748279294,"current_range_meters":8800,"station_id":"ce4bhq92rcd13ifvqhjg","pricing_plan_id":"cebpf4jnsgd1na2vs0mg"},{"bike_id":"fc56555b-396d-4667-b896-0ad86036e39e","system_id":"levelo_inurba_marseille","lat":43.259109,"lon":5.380291,"is_reserved":false,"is_disabled":false,"rental_uris":{"android":"levelo://app?vid=fc56555b-396d-4667-b896-0ad86036e39e","ios":"levelo://app?vid=fc56555b-396d-4667-b896-0ad86036e39e"},"vehicle_type_id":"4","last_reported":1748279294,"current_range_meters":9200,"station_id":"","pricing_plan_id":"cebpf4jnsgd1na2vs0mg"},{"bike_id":"a4aef2b9-b7e8-4e2d-8340-592d28bc6c85","system_id":"levelo_inurba_marseille","lat":43.337654,"lon":5.37434,"is_reserved":false,"is_disabled":false,"rental_uris":{"android":"levelo://app?vid=a4aef2b9-b7e8-4e2d-8340-592d28bc6c85","ios":"levelo://app?vid=a4aef2b9-b7e8-4e2d-8340-592d28bc6c85"},"vehicle_type_id":"4","last_reported":1748279294,"current_range_meters":9200,"station_id":"","pricing_plan_id":"cebpf4jnsgd1na2vs0mg"},{"bike_id":"932ead5d-4b51-46fc-8f15-1f02874b0289","system_id":"levelo_inurba_marseille","lat":43.3032,"lon":5.40434,"is_reserved":false,"is_disabled":false,"rental_uris":{"android":"levelo://app?vid=932ead5d-4b51-46fc-8f15-1f02874b0289","ios":"levelo://app?vid=932ead5d-4b51-46fc-8f15-1f02874b0289"},"vehicle_type_id":"4","last_reported":1748279294,"current_range_meters":9200,"station_id":"ce4bh012rcd13ifvqd10","pricing_plan_id":"cebpf4jnsgd1na2vs0mg"},{"bike_id":"d9e198c8-ab07-4277-8145-77e1f6d12383","system_id":"levelo_inurba_marseille","lat":43.26209,"lon":5.37444,"is_reserved":false,"is_disabled":false,"rental_uris":{"android":"levelo://app?vid=d9e198c8-ab07-4277-8145-77e1f6d12383","ios":"levelo://app?vid=d9e198c8-ab07-4277-8145-77e1f6d12383"},"vehicle_type_id":"4","last_reported":1748279294,"current_range_meters":9200,"station_id":"ce4bhgp2rcd13ifvqfc0","pricing_plan_id":"cebpf4jnsgd1na2vs0mg"},{"bike_id":"1cd94d4a-0ad1-418a-bf7f-c1ae80d4112b","system_id":"levelo_inurba_marseille","lat":43.23963,"lon":5.36631,"is_reserved":false,"is_disabled":false,"rental_uris":{"android":"levelo://app?vid=1cd94d4a-0ad1-418a-bf7f-c1ae80d4112b","ios":"levelo://app?vid=1cd94d4a-0ad1-418a-bf7f-c1ae80d4112b"},"vehicle_type_id":"4","last_reported":1748279294,"current_range_meters":9200,"station_id":"ce4bhi12rcd13ifvqfp0","pricing_plan_id":"cebpf4jnsgd1na2vs0mg"},{"bike_id":"5dccc686-dbd1-4d2f-a3d3-4e2e9f6eefdc","system_id":"levelo_inurba_marseille","lat":43.24073,"lon":5.37756,"is_reserved":false,"is_disabled":false,"rental_uris":{"android":"levelo://app?vid=5dccc686-dbd1-4d2f-a3d3-4e2e9f6eefdc","ios":"levelo://app?vid=5dccc686-dbd1-4d2f-a3d3-4e2e9f6eefdc"},"vehicle_type_id":"4","last_reported":1748279294,"current_range_meters":9200,"station_id":"ce4bhnp2rcd13ifvqgvg","pricing_plan_id":"cebpf4jnsgd1na2vs0mg"},{"bike_id":"4b9f4b24-cc33-4e08-8e43-356ffcf44991","system_id":"levelo_inurba_marseille","lat":43.29893,"lon":5.43663,"is_reserved":false,"is_disabled":false,"rental_uris":{"android":"levelo://app?vid=4b9f4b24-cc33-4e08-8e43-356ffcf44991","ios":"levelo://app?vid=4b9f4b24-cc33-4e08-8e43-356ffcf44991"},"vehicle_type_id":"4","last_reported":1748279294,"current_range_meters":9200,"station_id":"ce4bhpp2rcd13ifvqhfg","pricing_plan_id":"cebpf4jnsgd1na2vs0mg"},{"bike_id":"755099d0-d77b-4fc5-a6f3-ef8634799310","system_id":"levelo_inurba_marseille","lat":43.21752,"lon":5.34599,"is_reserved":false,"is_disabled":false,"rental_uris":{"android":"levelo://app?vid=755099d0-d77b-4fc5-a6f3-ef8634799310","ios":"levelo://app?vid=755099d0-d77b-4fc5-a6f3-ef8634799310"},"vehicle_type_id":"4","last_reported":1748279294,"current_range_meters":9200,"station_id":"st_cvj6r9ubvosntc0bgbag","pricing_plan_id":"cebpf4jnsgd1na2vs0mg"},{"bike_id":"770e1edc-fb58-4dc1-af3b-bd2cdebb09a3","system_id":"levelo_inurba_marseille","lat":43.293358,"lon":5.411698,"is_reserved":false,"is_disabled":false,"rental_uris":{"android":"levelo://app?vid=770e1edc-fb58-4dc1-af3b-bd2cdebb09a3","ios":"levelo://app?vid=770e1edc-fb58-4dc1-af3b-bd2cdebb09a3"},"vehicle_type_id":"4","last_reported":1748279294,"current_range_meters":9600,"station_id":"","pricing_plan_id":"cebpf4jnsgd1na2vs0mg"},{"bike_id":"b744080c-dd77-486d-9609-00c9cf60c1ad","system_id":"levelo_inurba_marseille","lat":43.236143,"lon":5.392066,"is_reserved":false,"is_disabled":false,"rental_uris":{"android":"levelo://app?vid=b744080c-dd77-486d-9609-00c9cf60c1ad","ios":"levelo://app?vid=b744080c-dd77-486d-9609-00c9cf60c1ad"},"vehicle_type_id":"4","last_reported":1748279294,"current_range_meters":9600,"station_id":"","pricing_plan_id":"cebpf4jnsgd1na2vs0mg"},{"bike_id":"6a4612f8-d511-472f-9784-e69bac545256","system_id":"levelo_inurba_marseille","lat":43.29004,"lon":5.3664,"is_reserved":false,"is_disabled":false,"rental_uris":{"android":"levelo://app?vid=6a4612f8-d511-472f-9784-e69bac545256","ios":"levelo://app?vid=6a4612f8-d511-472f-9784-e69bac545256"},"vehicle_type_id":"4","last_reported":1748279294,"current_range_meters":9600,"station_id":"","pricing_plan_id":"cebpf4jnsgd1na2vs0mg"},{"bike_id":"e793ce12-1622-4df9-b1a7-5f2c628044a7","system_id":"levelo_inurba_marseille","lat":43.29841,"lon":5.36263,"is_reserved":false,"is_disabled":false,"rental_uris":{"android":"levelo://app?vid=e793ce12-1622-4df9-b1a7-5f2c628044a7","ios":"levelo://app?vid=e793ce12-1622-4df9-b1a7-5f2c628044a7"},"vehicle_type_id":"4","last_reported":1748279294,"current_range_meters":9600,"station_id":"ce4bgpp2rcd13ifvqc3g","pricing_plan_id":"cebpf4jnsgd1na2vs0mg"},{"bike_id":"ec642cf4-45bd-4992-8947-be6623a298a2","system_id":"levelo_inurba_marseille","lat":43.29626,"lon":5.40596,"is_reserved":false,"is_disabled":false,"rental_uris":{"android":"levelo://app?vid=ec642cf4-45bd-4992-8947-be6623a298a2","ios":"levelo://app?vid=ec642cf4-45bd-4992-8947-be6623a298a2"},"vehicle_type_id":"4","last_reported":1748279294,"current_range_meters":9600,"station_id":"ce4bh0h2rcd13ifvqd60","pricing_plan_id":"cebpf4jnsgd1na2vs0mg"},{"bike_id":"e57357c5-8c39-4713-9644-44a32d0537d0","system_id":"levelo_inurba_marseille","lat":43.2465,"lon":5.38892,"is_reserved":false,"is_disabled":false,"rental_uris":{"android":"levelo://app?vid=e57357c5-8c39-4713-9644-44a32d0537d0","ios":"levelo://app?vid=e57357c5-8c39-4713-9644-44a32d0537d0"},"vehicle_type_id":"4","last_reported":1748279294,"current_range_meters":9600,"station_id":"ce4bhg12rcd13ifvqf60","pricing_plan_id":"cebpf4jnsgd1na2vs0mg"},{"bike_id":"b68f99aa-fd7c-4bd4-84aa-f6606a4e6a13","system_id":"levelo_inurba_marseille","lat":43.25502,"lon":5.37647,"is_reserved":false,"is_disabled":false,"rental_uris":{"android":"levelo://app?vid=b68f99aa-fd7c-4bd4-84aa-f6606a4e6a13","ios":"levelo://app?vid=b68f99aa-fd7c-4bd4-84aa-f6606a4e6a13"},"vehicle_type_id":"4","last_reported":1748279294,"current_range_meters":9600,"station_id":"ce4bhh12rcd13ifvqff0","pricing_plan_id":"cebpf4jnsgd1na2vs0mg"},{"bike_id":"e0c25e07-4c7a-4f3c-b21c-026342f4ce53","system_id":"levelo_inurba_marseille","lat":43.23968,"lon":5.3663,"is_reserved":false,"is_disabled":false,"rental_uris":{"android":"levelo://app?vid=e0c25e07-4c7a-4f3c-b21c-026342f4ce53","ios":"levelo://app?vid=e0c25e07-4c7a-4f3c-b21c-026342f4ce53"},"vehicle_type_id":"4","last_reported":1748279294,"current_range_meters":9600,"station_id":"ce4bhi12rcd13ifvqfp0","pricing_plan_id":"cebpf4jnsgd1na2vs0mg"},{"bike_id":"e1267118-4a6e-4893-a9e9-4caae315772e","system_id":"levelo_inurba_marseille","lat":43.27072,"lon":5.42278,"is_reserved":false,"is_disabled":false,"rental_uris":{"android":"levelo://app?vid=e1267118-4a6e-4893-a9e9-4caae315772e","ios":"levelo://app?vid=e1267118-4a6e-4893-a9e9-4caae315772e"},"vehicle_type_id":"4","last_reported":1748279294,"current_range_meters":9600,"station_id":"ce4bhk92rcd13ifvqgb0","pricing_plan_id":"cebpf4jnsgd1na2vs0mg"},{"bike_id":"41d795fd-6b15-4eca-98cc-80356500dbfe","system_id":"levelo_inurba_marseille","lat":43.24162,"lon":5.36388,"is_reserved":false,"is_disabled":false,"rental_uris":{"android":"levelo://app?vid=41d795fd-6b15-4eca-98cc-80356500dbfe","ios":"levelo://app?vid=41d795fd-6b15-4eca-98cc-80356500dbfe"},"vehicle_type_id":"4","last_reported":1748279294,"current_range_meters":9600,"station_id":"cpo36qri1sfpv3e86is0","pricing_plan_id":"cebpf4jnsgd1na2vs0mg"},{"bike_id":"5f9b5b6e-7d47-4208-8fcb-bbf7ad1205f2","system_id":"levelo_inurba_marseille","lat":43.2846,"lon":5.35886,"is_reserved":false,"is_disabled":false,"rental_uris":{"android":"levelo://app?vid=5f9b5b6e-7d47-4208-8fcb-bbf7ad1205f2","ios":"levelo://app?vid=5f9b5b6e-7d47-4208-8fcb-bbf7ad1205f2"},"vehicle_type_id":"4","last_reported":1748279294,"current_range_meters":10000,"station_id":"ce4bhah2rcd13ifvqei0","pricing_plan_id":"cebpf4jnsgd1na2vs0mg"},{"bike_id":"a5fb6b83-405a-45b3-a3a8-1272f3eae4b4","system_id":"levelo_inurba_marseille","lat":43.265702,"lon":5.390043,"is_reserved":false,"is_disabled":false,"rental_uris":{"android":"levelo://app?vid=a5fb6b83-405a-45b3-a3a8-1272f3eae4b4","ios":"levelo://app?vid=a5fb6b83-405a-45b3-a3a8-1272f3eae4b4"},"vehicle_type_id":"4","last_reported":1748279294,"current_range_meters":10000,"station_id":"ce4bhe12rcd13ifvqf30","pricing_plan_id":"cebpf4jnsgd1na2vs0mg"},{"bike_id":"b92c5ab3-58da-48e6-a472-b396542d4017","system_id":"levelo_inurba_marseille","lat":43.2549,"lon":5.37649,"is_reserved":false,"is_disabled":false,"rental_uris":{"android":"levelo://app?vid=b92c5ab3-58da-48e6-a472-b396542d4017","ios":"levelo://app?vid=b92c5ab3-58da-48e6-a472-b396542d4017"},"vehicle_type_id":"4","last_reported":1748279294,"current_range_meters":10000,"station_id":"ce4bhh12rcd13ifvqff0","pricing_plan_id":"cebpf4jnsgd1na2vs0mg"},{"bike_id":"89a7d6a1-4ee0-4a13-a1ac-29582953b059","system_id":"levelo_inurba_marseille","lat":43.27072,"lon":5.42278,"is_reserved":false,"is_disabled":false,"rental_uris":{"android":"levelo://app?vid=89a7d6a1-4ee0-4a13-a1ac-29582953b059","ios":"levelo://app?vid=89a7d6a1-4ee0-4a13-a1ac-29582953b059"},"vehicle_type_id":"4","last_reported":1748279294,"current_range_meters":10000,"station_id":"ce4bhk92rcd13ifvqgb0","pricing_plan_id":"cebpf4jnsgd1na2vs0mg"},{"bike_id":"b784ac63-cd40-47ac-9a60-554b4bf98a63","system_id":"levelo_inurba_marseille","lat":43.29896,"lon":5.43664,"is_reserved":false,"is_disabled":false,"rental_uris":{"android":"levelo://app?vid=b784ac63-cd40-47ac-9a60-554b4bf98a63","ios":"levelo://app?vid=b784ac63-cd40-47ac-9a60-554b4bf98a63"},"vehicle_type_id":"4","last_reported":1748279294,"current_range_meters":10000,"station_id":"ce4bhpp2rcd13ifvqhfg","pricing_plan_id":"cebpf4jnsgd1na2vs0mg"},{"bike_id":"761918e0-d6a0-4f40-96ce-babda69bc7f4","system_id":"levelo_inurba_marseille","lat":43.22931,"lon":5.35377,"is_reserved":false,"is_disabled":false,"rental_uris":{"android":"levelo://app?vid=761918e0-d6a0-4f40-96ce-babda69bc7f4","ios":"levelo://app?vid=761918e0-d6a0-4f40-96ce-babda69bc7f4"},"vehicle_type_id":"4","last_reported":1748279294,"current_range_meters":10000,"station_id":"cpo3532slgdg3j2ikp40","pricing_plan_id":"cebpf4jnsgd1na2vs0mg"},{"bike_id":"5e66b624-5b62-45e6-91b3-f683934a172d","system_id":"levelo_inurba_marseille","lat":43.28417,"lon":5.3499,"is_reserved":false,"is_disabled":false,"rental_uris":{"android":"levelo://app?vid=5e66b624-5b62-45e6-91b3-f683934a172d","ios":"levelo://app?vid=5e66b624-5b62-45e6-91b3-f683934a172d"},"vehicle_type_id":"4","last_reported":1748279294,"current_range_meters":10800,"station_id":"ce4bhbh2rcd13ifvqepg","pricing_plan_id":"cebpf4jnsgd1na2vs0mg"},{"bike_id":"8c0269bb-f3e9-4202-bdef-2816f24b6c68","system_id":"levelo_inurba_marseille","lat":43.30795,"lon":5.435265,"is_reserved":false,"is_disabled":false,"rental_uris":{"android":"levelo://app?vid=8c0269bb-f3e9-4202-bdef-2816f24b6c68","ios":"levelo://app?vid=8c0269bb-f3e9-4202-bdef-2816f24b6c68"},"vehicle_type_id":"4","last_reported":1748279294,"current_range_meters":10800,"station_id":"ce4bhph2rcd13ifvqheg","pricing_plan_id":"cebpf4jnsgd1na2vs0mg"},{"bike_id":"8a45606e-2096-4a22-88d7-26c191e9986d","system_id":"levelo_inurba_marseille","lat":43.33021,"lon":5.39042,"is_reserved":false,"is_disabled":false,"rental_uris":{"android":"levelo://app?vid=8a45606e-2096-4a22-88d7-26c191e9986d","ios":"levelo://app?vid=8a45606e-2096-4a22-88d7-26c191e9986d"},"vehicle_type_id":"4","last_reported":1748279294,"current_range_meters":10800,"station_id":"ce4bhr92rcd13ifvqhrg","pricing_plan_id":"cebpf4jnsgd1na2vs0mg"},{"bike_id":"8e341bef-ca11-4eca-a0a8-ecd2317a9fea","system_id":"levelo_inurba_marseille","lat":43.30428,"lon":5.38885,"is_reserved":false,"is_disabled":false,"rental_uris":{"android":"levelo://app?vid=8e341bef-ca11-4eca-a0a8-ecd2317a9fea","ios":"levelo://app?vid=8e341bef-ca11-4eca-a0a8-ecd2317a9fea"},"vehicle_type_id":"4","last_reported":1748279294,"current_range_meters":11200,"station_id":"ce4bgk12rcd13ifvqbi0","pricing_plan_id":"cebpf4jnsgd1na2vs0mg"},{"bike_id":"713b17ce-2a34-496e-afc3-b779233c755e","system_id":"levelo_inurba_marseille","lat":43.2885,"lon":5.35844,"is_reserved":false,"is_disabled":false,"rental_uris":{"android":"levelo://app?vid=713b17ce-2a34-496e-afc3-b779233c755e","ios":"levelo://app?vid=713b17ce-2a34-496e-afc3-b779233c755e"},"vehicle_type_id":"4","last_reported":1748279294,"current_range_meters":11200,"station_id":"ce4bhb12rcd13ifvqem0","pricing_plan_id":"cebpf4jnsgd1na2vs0mg"},{"bike_id":"449377f9-9fe5-42d4-b543-d165052bab3e","system_id":"levelo_inurba_marseille","lat":43.25497,"lon":5.3765,"is_reserved":false,"is_disabled":false,"rental_uris":{"android":"levelo://app?vid=449377f9-9fe5-42d4-b543-d165052bab3e","ios":"levelo://app?vid=449377f9-9fe5-42d4-b543-d165052bab3e"},"vehicle_type_id":"4","last_reported":1748279294,"current_range_meters":11200,"station_id":"ce4bhh12rcd13ifvqff0","pricing_plan_id":"cebpf4jnsgd1na2vs0mg"},{"bike_id":"f261ac7f-b181-45ae-8d84-2c1015b77e27","system_id":"levelo_inurba_marseille","lat":43.276642,"lon":5.388755,"is_reserved":false,"is_disabled":false,"rental_uris":{"android":"levelo://app?vid=f261ac7f-b181-45ae-8d84-2c1015b77e27","ios":"levelo://app?vid=f261ac7f-b181-45ae-8d84-2c1015b77e27"},"vehicle_type_id":"4","last_reported":1748279294,"current_range_meters":11200,"station_id":"ce4bhi12rcd13ifvqfo0","pricing_plan_id":"cebpf4jnsgd1na2vs0mg"},{"bike_id":"6cd4ca49-5d74-4977-b2fc-a733b6d197a0","system_id":"levelo_inurba_marseille","lat":43.25826,"lon":5.39403,"is_reserved":false,"is_disabled":false,"rental_uris":{"android":"levelo://app?vid=6cd4ca49-5d74-4977-b2fc-a733b6d197a0","ios":"levelo://app?vid=6cd4ca49-5d74-4977-b2fc-a733b6d197a0"},"vehicle_type_id":"4","last_reported":1748279294,"current_range_meters":11200,"station_id":"ce4bhip2rcd13ifvqft0","pricing_plan_id":"cebpf4jnsgd1na2vs0mg"},{"bike_id":"73b3b35b-b8c8-47db-9eaa-e525c560a217","system_id":"levelo_inurba_marseille","lat":43.25824,"lon":5.39432,"is_reserved":false,"is_disabled":false,"rental_uris":{"android":"levelo://app?vid=73b3b35b-b8c8-47db-9eaa-e525c560a217","ios":"levelo://app?vid=73b3b35b-b8c8-47db-9eaa-e525c560a217"},"vehicle_type_id":"4","last_reported":1748279294,"current_range_meters":11200,"station_id":"ce4bhip2rcd13ifvqft0","pricing_plan_id":"cebpf4jnsgd1na2vs0mg"},{"bike_id":"9d620a38-79f2-48a9-a476-7621b24e022f","system_id":"levelo_inurba_marseille","lat":43.33022,"lon":5.39046,"is_reserved":false,"is_disabled":false,"rental_uris":{"android":"levelo://app?vid=9d620a38-79f2-48a9-a476-7621b24e022f","ios":"levelo://app?vid=9d620a38-79f2-48a9-a476-7621b24e022f"},"vehicle_type_id":"4","last_reported":1748279294,"current_range_meters":11200,"station_id":"ce4bhr92rcd13ifvqhrg","pricing_plan_id":"cebpf4jnsgd1na2vs0mg"},{"bike_id":"34fff8c5-a201-414f-b7a4-b52d5144c306","system_id":"levelo_inurba_marseille","lat":43.254969,"lon":5.37649,"is_reserved":false,"is_disabled":false,"rental_uris":{"android":"levelo://app?vid=34fff8c5-a201-414f-b7a4-b52d5144c306","ios":"levelo://app?vid=34fff8c5-a201-414f-b7a4-b52d5144c306"},"vehicle_type_id":"4","last_reported":1748279294,"current_range_meters":11600,"station_id":"","pricing_plan_id":"cebpf4jnsgd1na2vs0mg"},{"bike_id":"ed7c79f0-c730-45e5-a644-de3c10db3919","system_id":"levelo_inurba_marseille","lat":43.31358,"lon":5.38494,"is_reserved":false,"is_disabled":false,"rental_uris":{"android":"levelo://app?vid=ed7c79f0-c730-45e5-a644-de3c10db3919","ios":"levelo://app?vid=ed7c79f0-c730-45e5-a644-de3c10db3919"},"vehicle_type_id":"4","last_reported":1748279294,"current_range_meters":11600,"station_id":"ce4bgt92rcd13ifvqcf0","pricing_plan_id":"cebpf4jnsgd1na2vs0mg"},{"bike_id":"6e1e7bcb-4bcf-4e40-9e13-d2379f19a73a","system_id":"levelo_inurba_marseille","lat":43.31108,"lon":5.37773,"is_reserved":false,"is_disabled":false,"rental_uris":{"android":"levelo://app?vid=6e1e7bcb-4bcf-4e40-9e13-d2379f19a73a","ios":"levelo://app?vid=6e1e7bcb-4bcf-4e40-9e13-d2379f19a73a"},"vehicle_type_id":"4","last_reported":1748279294,"current_range_meters":11600,"station_id":"ce4bgt92rcd13ifvqcg0","pricing_plan_id":"cebpf4jnsgd1na2vs0mg"},{"bike_id":"b32e64d8-1d43-44f4-b23e-436f4ca3d736","system_id":"levelo_inurba_marseille","lat":43.30884,"lon":5.37197,"is_reserved":false,"is_disabled":false,"rental_uris":{"android":"levelo://app?vid=b32e64d8-1d43-44f4-b23e-436f4ca3d736","ios":"levelo://app?vid=b32e64d8-1d43-44f4-b23e-436f4ca3d736"},"vehicle_type_id":"4","last_reported":1748279294,"current_range_meters":11600,"station_id":"ce4bguh2rcd13ifvqckg","pricing_plan_id":"cebpf4jnsgd1na2vs0mg"},{"bike_id":"61e9315f-98c4-4b3a-9153-5d66c6d24361","system_id":"levelo_inurba_marseille","lat":43.30208,"lon":5.39468,"is_reserved":false,"is_disabled":false,"rental_uris":{"android":"levelo://app?vid=61e9315f-98c4-4b3a-9153-5d66c6d24361","ios":"levelo://app?vid=61e9315f-98c4-4b3a-9153-5d66c6d24361"},"vehicle_type_id":"4","last_reported":1748279294,"current_range_meters":11600,"station_id":"ce4bh0p2rcd13ifvqd70","pricing_plan_id":"cebpf4jnsgd1na2vs0mg"},{"bike_id":"35f7ea9e-e585-4529-b727-fd82f2688a48","system_id":"levelo_inurba_marseille","lat":43.29,"lon":5.35615,"is_reserved":false,"is_disabled":false,"rental_uris":{"android":"levelo://app?vid=35f7ea9e-e585-4529-b727-fd82f2688a48","ios":"levelo://app?vid=35f7ea9e-e585-4529-b727-fd82f2688a48"},"vehicle_type_id":"4","last_reported":1748279294,"current_range_meters":11600,"station_id":"ce4bhb92rcd13ifvqen0","pricing_plan_id":"cebpf4jnsgd1na2vs0mg"},{"bike_id":"a1c206d4-c023-4c37-893d-f7b526cd2a61","system_id":"levelo_inurba_marseille","lat":43.274987,"lon":5.424507,"is_reserved":false,"is_disabled":false,"rental_uris":{"android":"levelo://app?vid=a1c206d4-c023-4c37-893d-f7b526cd2a61","ios":"levelo://app?vid=a1c206d4-c023-4c37-893d-f7b526cd2a61"},"vehicle_type_id":"4","last_reported":1748279294,"current_range_meters":11600,"station_id":"ce4bhn92rcd13ifvqgrg","pricing_plan_id":"cebpf4jnsgd1na2vs0mg"},{"bike_id":"5148f8b2-1ecb-4c76-b37d-928f8d5cde64","system_id":"levelo_inurba_marseille","lat":43.32315,"lon":5.36784,"is_reserved":false,"is_disabled":false,"rental_uris":{"android":"levelo://app?vid=5148f8b2-1ecb-4c76-b37d-928f8d5cde64","ios":"levelo://app?vid=5148f8b2-1ecb-4c76-b37d-928f8d5cde64"},"vehicle_type_id":"4","last_reported":1748279294,"current_range_meters":11600,"station_id":"ce4bhsh2rcd13ifvqi2g","pricing_plan_id":"cebpf4jnsgd1na2vs0mg"},{"bike_id":"45a9a412-d5b4-44d0-b599-c2d25df3b63b","system_id":"levelo_inurba_marseille","lat":43.29795,"lon":5.39353,"is_reserved":false,"is_disabled":false,"rental_uris":{"android":"levelo://app?vid=45a9a412-d5b4-44d0-b599-c2d25df3b63b","ios":"levelo://app?vid=45a9a412-d5b4-44d0-b599-c2d25df3b63b"},"vehicle_type_id":"4","last_reported":1748279294,"current_range_meters":11600,"station_id":"chh1huq6cuj3fo74tm60","pricing_plan_id":"cebpf4jnsgd1na2vs0mg"},{"bike_id":"ae6e6868-2635-4f49-b7c1-b03759c58ec7","system_id":"levelo_inurba_marseille","lat":43.27287,"lon":5.41608,"is_reserved":false,"is_disabled":false,"rental_uris":{"android":"levelo://app?vid=ae6e6868-2635-4f49-b7c1-b03759c58ec7","ios":"levelo://app?vid=ae6e6868-2635-4f49-b7c1-b03759c58ec7"},"vehicle_type_id":"4","last_reported":1748279294,"current_range_meters":12000,"station_id":"","pricing_plan_id":"cebpf4jnsgd1na2vs0mg"},{"bike_id":"0f732bc0-2540-4334-b120-4cb142d26afb","system_id":"levelo_inurba_marseille","lat":43.30884,"lon":5.39628,"is_reserved":false,"is_disabled":false,"rental_uris":{"android":"levelo://app?vid=0f732bc0-2540-4334-b120-4cb142d26afb","ios":"levelo://app?vid=0f732bc0-2540-4334-b120-4cb142d26afb"},"vehicle_type_id":"4","last_reported":1748279294,"current_range_meters":12000,"station_id":"ce4bh012rcd13ifvqcv0","pricing_plan_id":"cebpf4jnsgd1na2vs0mg"},{"bike_id":"c55bb7b9-2210-44a0-9436-033983c9cb1d","system_id":"levelo_inurba_marseille","lat":43.29872,"lon":5.39724,"is_reserved":false,"is_disabled":false,"rental_uris":{"android":"levelo://app?vid=c55bb7b9-2210-44a0-9436-033983c9cb1d","ios":"levelo://app?vid=c55bb7b9-2210-44a0-9436-033983c9cb1d"},"vehicle_type_id":"4","last_reported":1748279294,"current_range_meters":12000,"station_id":"ce4bh0h2rcd13ifvqd50","pricing_plan_id":"cebpf4jnsgd1na2vs0mg"},{"bike_id":"eb41b0e2-396a-4421-875c-d1af70474748","system_id":"levelo_inurba_marseille","lat":43.29002,"lon":5.35608,"is_reserved":false,"is_disabled":false,"rental_uris":{"android":"levelo://app?vid=eb41b0e2-396a-4421-875c-d1af70474748","ios":"levelo://app?vid=eb41b0e2-396a-4421-875c-d1af70474748"},"vehicle_type_id":"4","last_reported":1748279294,"current_range_meters":12000,"station_id":"ce4bhb92rcd13ifvqen0","pricing_plan_id":"cebpf4jnsgd1na2vs0mg"},{"bike_id":"4661e59f-4017-457b-8d40-084f59302350","system_id":"levelo_inurba_marseille","lat":43.2318,"lon":5.39992,"is_reserved":false,"is_disabled":false,"rental_uris":{"android":"levelo://app?vid=4661e59f-4017-457b-8d40-084f59302350","ios":"levelo://app?vid=4661e59f-4017-457b-8d40-084f59302350"},"vehicle_type_id":"4","last_reported":1748279294,"current_range_meters":12000,"station_id":"ce4bhn12rcd13ifvqgqg","pricing_plan_id":"cebpf4jnsgd1na2vs0mg"},{"bike_id":"1a0998e5-8bb9-474f-a827-53cad24c9e8f","system_id":"levelo_inurba_marseille","lat":43.320232,"lon":5.449524,"is_reserved":false,"is_disabled":false,"rental_uris":{"android":"levelo://app?vid=1a0998e5-8bb9-474f-a827-53cad24c9e8f","ios":"levelo://app?vid=1a0998e5-8bb9-474f-a827-53cad24c9e8f"},"vehicle_type_id":"4","last_reported":1748279294,"current_range_meters":12400,"station_id":"","pricing_plan_id":"cebpf4jnsgd1na2vs0mg"},{"bike_id":"2b11c958-97d9-4807-b6f6-51cd0b20227e","system_id":"levelo_inurba_marseille","lat":43.31729,"lon":5.37266,"is_reserved":false,"is_disabled":false,"rental_uris":{"android":"levelo://app?vid=2b11c958-97d9-4807-b6f6-51cd0b20227e","ios":"levelo://app?vid=2b11c958-97d9-4807-b6f6-51cd0b20227e"},"vehicle_type_id":"4","last_reported":1748279294,"current_range_meters":12400,"station_id":"","pricing_plan_id":"cebpf4jnsgd1na2vs0mg"},{"bike_id":"1cdf8730-2e11-4c50-970a-0be91cc51024","system_id":"levelo_inurba_marseille","lat":43.28403,"lon":5.34988,"is_reserved":false,"is_disabled":false,"rental_uris":{"android":"levelo://app?vid=1cdf8730-2e11-4c50-970a-0be91cc51024","ios":"levelo://app?vid=1cdf8730-2e11-4c50-970a-0be91cc51024"},"vehicle_type_id":"4","last_reported":1748279294,"current_range_meters":12400,"station_id":"ce4bhbh2rcd13ifvqepg","pricing_plan_id":"cebpf4jnsgd1na2vs0mg"},{"bike_id":"fcb4a582-a4a9-41ae-a76f-e4704b0b4536","system_id":"levelo_inurba_marseille","lat":43.2707,"lon":5.42279,"is_reserved":false,"is_disabled":false,"rental_uris":{"android":"levelo://app?vid=fcb4a582-a4a9-41ae-a76f-e4704b0b4536","ios":"levelo://app?vid=fcb4a582-a4a9-41ae-a76f-e4704b0b4536"},"vehicle_type_id":"4","last_reported":1748279294,"current_range_meters":12400,"station_id":"ce4bhk92rcd13ifvqgb0","pricing_plan_id":"cebpf4jnsgd1na2vs0mg"},{"bike_id":"d888e6c8-548c-486d-9d21-35b1ac366105","system_id":"levelo_inurba_marseille","lat":43.27633,"lon":5.36144,"is_reserved":false,"is_disabled":false,"rental_uris":{"android":"levelo://app?vid=d888e6c8-548c-486d-9d21-35b1ac366105","ios":"levelo://app?vid=d888e6c8-548c-486d-9d21-35b1ac366105"},"vehicle_type_id":"4","last_reported":1748279294,"current_range_meters":12800,"station_id":"ce4bgj92rcd13ifvqbe0","pricing_plan_id":"cebpf4jnsgd1na2vs0mg"},{"bike_id":"f2ca273b-e089-46a1-b60b-1a4af188209d","system_id":"levelo_inurba_marseille","lat":43.30293,"lon":5.39208,"is_reserved":false,"is_disabled":false,"rental_uris":{"android":"levelo://app?vid=f2ca273b-e089-46a1-b60b-1a4af188209d","ios":"levelo://app?vid=f2ca273b-e089-46a1-b60b-1a4af188209d"},"vehicle_type_id":"4","last_reported":1748279294,"current_range_meters":12800,"station_id":"ce4bgkh2rcd13ifvqbk0","pricing_plan_id":"cebpf4jnsgd1na2vs0mg"},{"bike_id":"8d48b521-0a38-4274-8842-e83a99ceb7db","system_id":"levelo_inurba_marseille","lat":43.30259,"lon":5.40075,"is_reserved":false,"is_disabled":false,"rental_uris":{"android":"levelo://app?vid=8d48b521-0a38-4274-8842-e83a99ceb7db","ios":"levelo://app?vid=8d48b521-0a38-4274-8842-e83a99ceb7db"},"vehicle_type_id":"4","last_reported":1748279294,"current_range_meters":12800,"station_id":"ce4bgvh2rcd13ifvqcs0","pricing_plan_id":"cebpf4jnsgd1na2vs0mg"},{"bike_id":"22df591a-426e-4bfc-9423-898bd30f6f26","system_id":"levelo_inurba_marseille","lat":43.29043,"lon":5.37609,"is_reserved":false,"is_disabled":false,"rental_uris":{"android":"levelo://app?vid=22df591a-426e-4bfc-9423-898bd30f6f26","ios":"levelo://app?vid=22df591a-426e-4bfc-9423-898bd30f6f26"},"vehicle_type_id":"4","last_reported":1748279294,"current_range_meters":12800,"station_id":"ce4bh692rcd13ifvqe90","pricing_plan_id":"cebpf4jnsgd1na2vs0mg"},{"bike_id":"0d77a418-8cde-4631-86bb-329bc1136e12","system_id":"levelo_inurba_marseille","lat":43.28107,"lon":5.37838,"is_reserved":false,"is_disabled":false,"rental_uris":{"android":"levelo://app?vid=0d77a418-8cde-4631-86bb-329bc1136e12","ios":"levelo://app?vid=0d77a418-8cde-4631-86bb-329bc1136e12"},"vehicle_type_id":"4","last_reported":1748279294,"current_range_meters":12800,"station_id":"ce4bha12rcd13ifvqee0","pricing_plan_id":"cebpf4jnsgd1na2vs0mg"},{"bike_id":"96fbf527-a891-4bdb-8f0a-99e581d95e20","system_id":"levelo_inurba_marseille","lat":43.2465,"lon":5.3889,"is_reserved":false,"is_disabled":false,"rental_uris":{"android":"levelo://app?vid=96fbf527-a891-4bdb-8f0a-99e581d95e20","ios":"levelo://app?vid=96fbf527-a891-4bdb-8f0a-99e581d95e20"},"vehicle_type_id":"4","last_reported":1748279294,"current_range_meters":12800,"station_id":"ce4bhg12rcd13ifvqf60","pricing_plan_id":"cebpf4jnsgd1na2vs0mg"},{"bike_id":"b2f569d8-dc09-467f-aa5b-fdd043d40ec5","system_id":"levelo_inurba_marseille","lat":43.2654,"lon":5.39015,"is_reserved":false,"is_disabled":false,"rental_uris":{"android":"levelo://app?vid=b2f569d8-dc09-467f-aa5b-fdd043d40ec5","ios":"levelo://app?vid=b2f569d8-dc09-467f-aa5b-fdd043d40ec5"},"vehicle_type_id":"4","last_reported":1748279294,"current_range_meters":13600,"station_id":"ce4bhe12rcd13ifvqf30","pricing_plan_id":"cebpf4jnsgd1na2vs0mg"},{"bike_id":"e11e7463-95cf-4619-913f-cb17ac9fb45e","system_id":"levelo_inurba_marseille","lat":43.24802,"lon":5.37454,"is_reserved":false,"is_disabled":false,"rental_uris":{"android":"levelo://app?vid=e11e7463-95cf-4619-913f-cb17ac9fb45e","ios":"levelo://app?vid=e11e7463-95cf-4619-913f-cb17ac9fb45e"},"vehicle_type_id":"4","last_reported":1748279294,"current_range_meters":13600,"station_id":"ce4bhgh2rcd13ifvqfb0","pricing_plan_id":"cebpf4jnsgd1na2vs0mg"},{"bike_id":"2f9e9f02-163f-4f7b-b9b8-775ec0679b96","system_id":"levelo_inurba_marseille","lat":43.24999,"lon":5.38925,"is_reserved":false,"is_disabled":false,"rental_uris":{"android":"levelo://app?vid=2f9e9f02-163f-4f7b-b9b8-775ec0679b96","ios":"levelo://app?vid=2f9e9f02-163f-4f7b-b9b8-775ec0679b96"},"vehicle_type_id":"4","last_reported":1748279294,"current_range_meters":13600,"station_id":"ce4bhgp2rcd13ifvqfd0","pricing_plan_id":"cebpf4jnsgd1na2vs0mg"},{"bike_id":"a3a1e2f8-c082-4657-9cf8-ceb282e14a71","system_id":"levelo_inurba_marseille","lat":43.2318,"lon":5.39996,"is_reserved":false,"is_disabled":false,"rental_uris":{"android":"levelo://app?vid=a3a1e2f8-c082-4657-9cf8-ceb282e14a71","ios":"levelo://app?vid=a3a1e2f8-c082-4657-9cf8-ceb282e14a71"},"vehicle_type_id":"4","last_reported":1748279294,"current_range_meters":13600,"station_id":"ce4bhn12rcd13ifvqgqg","pricing_plan_id":"cebpf4jnsgd1na2vs0mg"},{"bike_id":"459962eb-af2a-49fe-bfba-46afc07a0616","system_id":"levelo_inurba_marseille","lat":43.23182,"lon":5.39973,"is_reserved":false,"is_disabled":false,"rental_uris":{"android":"levelo://app?vid=459962eb-af2a-49fe-bfba-46afc07a0616","ios":"levelo://app?vid=459962eb-af2a-49fe-bfba-46afc07a0616"},"vehicle_type_id":"4","last_reported":1748279294,"current_range_meters":13600,"station_id":"ce4bhn12rcd13ifvqgqg","pricing_plan_id":"cebpf4jnsgd1na2vs0mg"},{"bike_id":"607d6301-d7e4-418f-a328-b0db275b68b1","system_id":"levelo_inurba_marseille","lat":43.32332,"lon":5.40623,"is_reserved":false,"is_disabled":false,"rental_uris":{"android":"levelo://app?vid=607d6301-d7e4-418f-a328-b0db275b68b1","ios":"levelo://app?vid=607d6301-d7e4-418f-a328-b0db275b68b1"},"vehicle_type_id":"4","last_reported":1748279294,"current_range_meters":13600,"station_id":"ce4bhq92rcd13ifvqhjg","pricing_plan_id":"cebpf4jnsgd1na2vs0mg"},{"bike_id":"eeee4db5-7563-4389-9d10-616f5ac16e54","system_id":"levelo_inurba_marseille","lat":43.28606,"lon":5.37065,"is_reserved":false,"is_disabled":false,"rental_uris":{"android":"levelo://app?vid=eeee4db5-7563-4389-9d10-616f5ac16e54","ios":"levelo://app?vid=eeee4db5-7563-4389-9d10-616f5ac16e54"},"vehicle_type_id":"4","last_reported":1748279294,"current_range_meters":13600,"station_id":"ce4bht12rcd13ifvqi60","pricing_plan_id":"cebpf4jnsgd1na2vs0mg"},{"bike_id":"f5b1aa50-af32-4b67-af03-fc8d46feddb5","system_id":"levelo_inurba_marseille","lat":43.292694,"lon":5.401271,"is_reserved":false,"is_disabled":false,"rental_uris":{"android":"levelo://app?vid=f5b1aa50-af32-4b67-af03-fc8d46feddb5","ios":"levelo://app?vid=f5b1aa50-af32-4b67-af03-fc8d46feddb5"},"vehicle_type_id":"4","last_reported":1748279294,"current_range_meters":14000,"station_id":"","pricing_plan_id":"cebpf4jnsgd1na2vs0mg"},{"bike_id":"e03a0d5e-b227-420d-969f-f1f548321079","system_id":"levelo_inurba_marseille","lat":43.289341,"lon":5.366337,"is_reserved":false,"is_disabled":false,"rental_uris":{"android":"levelo://app?vid=e03a0d5e-b227-420d-969f-f1f548321079","ios":"levelo://app?vid=e03a0d5e-b227-420d-969f-f1f548321079"},"vehicle_type_id":"4","last_reported":1748279294,"current_range_meters":14000,"station_id":"ce4bhap2rcd13ifvqek0","pricing_plan_id":"cebpf4jnsgd1na2vs0mg"},{"bike_id":"51c8c14d-2831-485c-9be3-32a5ad578c2f","system_id":"levelo_inurba_marseille","lat":43.2551,"lon":5.3764,"is_reserved":false,"is_disabled":false,"rental_uris":{"android":"levelo://app?vid=51c8c14d-2831-485c-9be3-32a5ad578c2f","ios":"levelo://app?vid=51c8c14d-2831-485c-9be3-32a5ad578c2f"},"vehicle_type_id":"4","last_reported":1748279294,"current_range_meters":14000,"station_id":"ce4bhh12rcd13ifvqff0","pricing_plan_id":"cebpf4jnsgd1na2vs0mg"},{"bike_id":"6cb37dfd-2986-459e-9fa5-55b8bd1f07d3","system_id":"levelo_inurba_marseille","lat":43.23964,"lon":5.36642,"is_reserved":false,"is_disabled":false,"rental_uris":{"android":"levelo://app?vid=6cb37dfd-2986-459e-9fa5-55b8bd1f07d3","ios":"levelo://app?vid=6cb37dfd-2986-459e-9fa5-55b8bd1f07d3"},"vehicle_type_id":"4","last_reported":1748279294,"current_range_meters":14000,"station_id":"ce4bhi12rcd13ifvqfp0","pricing_plan_id":"cebpf4jnsgd1na2vs0mg"},{"bike_id":"1a775a5e-1792-4706-b4f6-ec50ef749d53","system_id":"levelo_inurba_marseille","lat":43.255796,"lon":5.38223,"is_reserved":false,"is_disabled":false,"rental_uris":{"android":"levelo://app?vid=1a775a5e-1792-4706-b4f6-ec50ef749d53","ios":"levelo://app?vid=1a775a5e-1792-4706-b4f6-ec50ef749d53"},"vehicle_type_id":"4","last_reported":1748279294,"current_range_meters":14000,"station_id":"ce4bhih2rcd13ifvqfs0","pricing_plan_id":"cebpf4jnsgd1na2vs0mg"},{"bike_id":"52da6684-0a1f-4e5c-8d8b-49dd7abe2c17","system_id":"levelo_inurba_marseille","lat":43.23185,"lon":5.3998,"is_reserved":false,"is_disabled":false,"rental_uris":{"android":"levelo://app?vid=52da6684-0a1f-4e5c-8d8b-49dd7abe2c17","ios":"levelo://app?vid=52da6684-0a1f-4e5c-8d8b-49dd7abe2c17"},"vehicle_type_id":"4","last_reported":1748279294,"current_range_meters":14000,"station_id":"ce4bhn12rcd13ifvqgqg","pricing_plan_id":"cebpf4jnsgd1na2vs0mg"},{"bike_id":"2c72b7db-73fa-45f1-8767-08988c02e9b1","system_id":"levelo_inurba_marseille","lat":43.31885,"lon":5.40727,"is_reserved":false,"is_disabled":false,"rental_uris":{"android":"levelo://app?vid=2c72b7db-73fa-45f1-8767-08988c02e9b1","ios":"levelo://app?vid=2c72b7db-73fa-45f1-8767-08988c02e9b1"},"vehicle_type_id":"4","last_reported":1748279294,"current_range_meters":14000,"station_id":"ce4bhq12rcd13ifvqhig","pricing_plan_id":"cebpf4jnsgd1na2vs0mg"},{"bike_id":"1b93f618-501a-441a-ac25-2913e761841a","system_id":"levelo_inurba_marseille","lat":43.330453,"lon":5.390253,"is_reserved":false,"is_disabled":false,"rental_uris":{"android":"levelo://app?vid=1b93f618-501a-441a-ac25-2913e761841a","ios":"levelo://app?vid=1b93f618-501a-441a-ac25-2913e761841a"},"vehicle_type_id":"4","last_reported":1748279294,"current_range_meters":14000,"station_id":"ce4bhr92rcd13ifvqhrg","pricing_plan_id":"cebpf4jnsgd1na2vs0mg"},{"bike_id":"eb060acd-d403-4c33-9f13-e709466da355","system_id":"levelo_inurba_marseille","lat":43.296143,"lon":5.377079,"is_reserved":false,"is_disabled":false,"rental_uris":{"android":"levelo://app?vid=eb060acd-d403-4c33-9f13-e709466da355","ios":"levelo://app?vid=eb060acd-d403-4c33-9f13-e709466da355"},"vehicle_type_id":"4","last_reported":1748279294,"current_range_meters":14400,"station_id":"","pricing_plan_id":"cebpf4jnsgd1na2vs0mg"},{"bike_id":"8d233c96-a124-40e6-b99c-9b4996dc97a4","system_id":"levelo_inurba_marseille","lat":43.30946,"lon":5.40132,"is_reserved":false,"is_disabled":false,"rental_uris":{"android":"levelo://app?vid=8d233c96-a124-40e6-b99c-9b4996dc97a4","ios":"levelo://app?vid=8d233c96-a124-40e6-b99c-9b4996dc97a4"},"vehicle_type_id":"4","last_reported":1748279294,"current_range_meters":14400,"station_id":"ce4bgvp2rcd13ifvqct0","pricing_plan_id":"cebpf4jnsgd1na2vs0mg"},{"bike_id":"203c4e97-0aeb-4b6c-a753-3040a46b2502","system_id":"levelo_inurba_marseille","lat":43.291643,"lon":5.371833,"is_reserved":false,"is_disabled":false,"rental_uris":{"android":"levelo://app?vid=203c4e97-0aeb-4b6c-a753-3040a46b2502","ios":"levelo://app?vid=203c4e97-0aeb-4b6c-a753-3040a46b2502"},"vehicle_type_id":"4","last_reported":1748279294,"current_range_meters":14400,"station_id":"ce4bha92rcd13ifvqeh0","pricing_plan_id":"cebpf4jnsgd1na2vs0mg"},{"bike_id":"0e754add-ae5a-4632-b61d-25b5d2a4903c","system_id":"levelo_inurba_marseille","lat":43.28655,"lon":5.36359,"is_reserved":false,"is_disabled":false,"rental_uris":{"android":"levelo://app?vid=0e754add-ae5a-4632-b61d-25b5d2a4903c","ios":"levelo://app?vid=0e754add-ae5a-4632-b61d-25b5d2a4903c"},"vehicle_type_id":"4","last_reported":1748279294,"current_range_meters":14400,"station_id":"ce4bhah2rcd13ifvqej0","pricing_plan_id":"cebpf4jnsgd1na2vs0mg"},{"bike_id":"e6c65de3-7d92-4979-809c-6677188473c0","system_id":"levelo_inurba_marseille","lat":43.337684,"lon":5.37432,"is_reserved":false,"is_disabled":false,"rental_uris":{"android":"levelo://app?vid=e6c65de3-7d92-4979-809c-6677188473c0","ios":"levelo://app?vid=e6c65de3-7d92-4979-809c-6677188473c0"},"vehicle_type_id":"4","last_reported":1748279294,"current_range_meters":14800,"station_id":"","pricing_plan_id":"cebpf4jnsgd1na2vs0mg"},{"bike_id":"6ef27e84-462a-46f9-afe5-e09b209cc7f0","system_id":"levelo_inurba_marseille","lat":43.33108,"lon":5.36208,"is_reserved":false,"is_disabled":false,"rental_uris":{"android":"levelo://app?vid=6ef27e84-462a-46f9-afe5-e09b209cc7f0","ios":"levelo://app?vid=6ef27e84-462a-46f9-afe5-e09b209cc7f0"},"vehicle_type_id":"4","last_reported":1748279294,"current_range_meters":14800,"station_id":"","pricing_plan_id":"cebpf4jnsgd1na2vs0mg"},{"bike_id":"2a046dee-b3af-48c9-9659-b7d30ba20af5","system_id":"levelo_inurba_marseille","lat":43.243296,"lon":5.379944,"is_reserved":false,"is_disabled":false,"rental_uris":{"android":"levelo://app?vid=2a046dee-b3af-48c9-9659-b7d30ba20af5","ios":"levelo://app?vid=2a046dee-b3af-48c9-9659-b7d30ba20af5"},"vehicle_type_id":"4","last_reported":1748279294,"current_range_meters":14800,"station_id":"","pricing_plan_id":"cebpf4jnsgd1na2vs0mg"},{"bike_id":"c00e3d54-7305-43d4-ba82-6da9ef5bf799","system_id":"levelo_inurba_marseille","lat":43.2903,"lon":5.38643,"is_reserved":false,"is_disabled":false,"rental_uris":{"android":"levelo://app?vid=c00e3d54-7305-43d4-ba82-6da9ef5bf799","ios":"levelo://app?vid=c00e3d54-7305-43d4-ba82-6da9ef5bf799"},"vehicle_type_id":"4","last_reported":1748279294,"current_range_meters":14800,"station_id":"ce4bh4p2rcd13ifvqe0g","pricing_plan_id":"cebpf4jnsgd1na2vs0mg"},{"bike_id":"ac20fe0c-3a29-4b86-b8e7-27236d6f92d1","system_id":"levelo_inurba_marseille","lat":43.28847,"lon":5.3584,"is_reserved":false,"is_disabled":false,"rental_uris":{"android":"levelo://app?vid=ac20fe0c-3a29-4b86-b8e7-27236d6f92d1","ios":"levelo://app?vid=ac20fe0c-3a29-4b86-b8e7-27236d6f92d1"},"vehicle_type_id":"4","last_reported":1748279294,"current_range_meters":14800,"station_id":"ce4bhb12rcd13ifvqem0","pricing_plan_id":"cebpf4jnsgd1na2vs0mg"},{"bike_id":"5325b20d-9c34-45ae-8e91-992c808c1767","system_id":"levelo_inurba_marseille","lat":43.30938,"lon":5.40145,"is_reserved":false,"is_disabled":false,"rental_uris":{"android":"levelo://app?vid=5325b20d-9c34-45ae-8e91-992c808c1767","ios":"levelo://app?vid=5325b20d-9c34-45ae-8e91-992c808c1767"},"vehicle_type_id":"4","last_reported":1748279294,"current_range_meters":15200,"station_id":"ce4bgvp2rcd13ifvqct0","pricing_plan_id":"cebpf4jnsgd1na2vs0mg"},{"bike_id":"22fb3fba-4f37-4196-bb6f-95ff4902277b","system_id":"levelo_inurba_marseille","lat":43.300846,"lon":5.39078,"is_reserved":false,"is_disabled":false,"rental_uris":{"android":"levelo://app?vid=22fb3fba-4f37-4196-bb6f-95ff4902277b","ios":"levelo://app?vid=22fb3fba-4f37-4196-bb6f-95ff4902277b"},"vehicle_type_id":"4","last_reported":1748279294,"current_range_meters":15200,"station_id":"ce4bh192rcd13ifvqdb0","pricing_plan_id":"cebpf4jnsgd1na2vs0mg"},{"bike_id":"c2f02366-deca-4005-8f0e-55556b8e6068","system_id":"levelo_inurba_marseille","lat":43.27365,"lon":5.36243,"is_reserved":false,"is_disabled":false,"rental_uris":{"android":"levelo://app?vid=c2f02366-deca-4005-8f0e-55556b8e6068","ios":"levelo://app?vid=c2f02366-deca-4005-8f0e-55556b8e6068"},"vehicle_type_id":"4","last_reported":1748279294,"current_range_meters":15200,"station_id":"ce4bhbh2rcd13ifvqeo0","pricing_plan_id":"cebpf4jnsgd1na2vs0mg"},{"bike_id":"f0411750-aea1-49da-8751-edb569a8282b","system_id":"levelo_inurba_marseille","lat":43.26931,"lon":5.38932,"is_reserved":false,"is_disabled":false,"rental_uris":{"android":"levelo://app?vid=f0411750-aea1-49da-8751-edb569a8282b","ios":"levelo://app?vid=f0411750-aea1-49da-8751-edb569a8282b"},"vehicle_type_id":"4","last_reported":1748279294,"current_range_meters":15200,"station_id":"ce4bhhh2rcd13ifvqfl0","pricing_plan_id":"cebpf4jnsgd1na2vs0mg"},