{"last_updated":1692547638,"ttl":30,"version":"2.2","data":{"bikes":[{"bike_id":"4293acf9-f3c8-433f-a203-2edef8e91904","system_id":"levelo_inurba_marseille","lat":43.31341,"lon":5.367098,"is_reserved":false,"is_disabled":false,"rental_uris":{"android":"levelo://app?vid=4293acf9-f3c8-433f-a203-2edef8e91904","ios":"levelo://app?vid=4293acf9-f3c8-433f-a203-2edef8e91904"},"vehicle_type_id":"4","last_reported":1692547639,"current_range_meters":13200,"station_id":"ce4bgr92rcd13ifvqc6g","pricing_plan_id":"free"},{"bike_id":"ba7775a9-7d88-4791-a8c8-a153d25ae8a6","system_id":"levelo_inurba_marseille","lat":43.312239,"lon":5.368562,"is_reserved":false,"is_disabled":false,"rental_uris":{"android":"levelo://app?vid=ba7775a9-7d88-4791-a8c8-a153d25ae8a6","ios":"levelo://app?vid=ba7775a9-7d88-4791-a8c8-a153d25ae8a6"},"vehicle_type_id":"4","last_reported":1692547639,"current_range_meters":23200,"station_id":"ce4bgl92rcd13ifvqbq0","pricing_plan_id":"free"},{"bike_id":"57eb62b0-42eb-4860-9ad8-f30f6ec22f9a","system_id":"levelo_inurba_marseille","lat":43.312239,"lon":5.368562,"is_reserved":false,"is_disabled":false,"rental_uris":{"android":"levelo://app?vid=57eb62b0-42eb-4860-9ad8-f30f6ec22f9a","ios":"levelo://app?vid=57eb62b0-42eb-4860-9ad8-f30f6ec22f9a"},"vehicle_type_id":"4","last_reported":1692547639,"current_range_meters":28000,"station_id":"ce4bgl92rcd13ifvqbq0","pricing_plan_id":"free"},{"bike_id":"f22ca441-4e4e-4660-b824-b2f46943e54d","system_id":"levelo_inurba_marseille","lat":43.312239,"lon":5.368562,"is_reserved":false,"is_disabled":false,"rental_uris":{"android":"levelo://app?vid=f22ca441-4e4e-4660-b824-b2f46943e54d","ios":"levelo://app?vid=f22ca441-4e4e-4660-b824-b2f46943e54d"},"vehicle_type_id":"4","last_reported":1692547639,"current_range_meters":31200,"station_id":"ce4bgl92rcd13ifvqbq0","pricing_plan_id":"free"},{"bike_id":"9a1ff11e-471d-47ff-aea2-41d9a9a19aa7","system_id":"levelo_inurba_marseille","lat":43.309076,"lon":5.368465,"is_reserved":false,"is_disabled":false,"rental_uris":{"android":"levelo://app?vid=9a1ff11e-471d-47ff-aea2-41d9a9a19aa7","ios":"levelo://app?vid=9a1ff11e-471d-47ff-aea2-41d9a9a19aa7"},"vehicle_type_id":"4","last_reported":1692547639,"current_range_meters":0,"station_id":"ce4bgn92rcd13ifvqbvg","pricing_plan_id":"free"},{"bike_id":"9ca78bec-3f41-49c5-ace7-5c8533f39039","system_id":"levelo_inurba_marseille","lat":43.309076,"lon":5.368465,"is_reserved":false,"is_disabled":false,"rental_uris":{"android":"levelo://app?vid=9ca78bec-3f41-49c5-ace7-5c8533f39039","ios":"levelo://app?vid=9ca78bec-3f41-49c5-ace7-5c8533f39039"},"vehicle_type_id":"4","last_reported":1692547639,"current_range_meters":16400,"station_id":"ce4bgn92rcd13ifvqbvg","pricing_plan_id":"free"},{"bike_id":"fa123057-282a-4bb8-8945-d3cdaa6aa8d8","system_id":"levelo_inurba_marseille","lat":43.309039,"lon":5.371797,"is_reserved":false,"is_disabled":false,"rental_uris":{"android":"levelo://app?vid=fa123057-282a-4bb8-8945-d3cdaa6aa8d8","ios":"levelo://app?vid=fa123057-282a-4bb8-8945-d3cdaa6aa8d8"},"vehicle_type_id":"4","last_reported":1692547639,"current_range_meters":26400,"station_id":"ce4bguh2rcd13ifvqckg","pricing_plan_id":"free"},{"bike_id":"4bb2f856-e3cf-4391-8355-8c9653b3fe4b","system_id":"levelo_inurba_marseille","lat":43.309039,"lon":5.371797,"is_reserved":false,"is_disabled":false,"rental_uris":{"android":"levelo://app?vid=4bb2f856-e3cf-4391-8355-8c9653b3fe4b","ios":"levelo://app?vid=4bb2f856-e3cf-4391-8355-8c9653b3fe4b"},"vehicle_type_id":"4","last_reported":1692547639,"current_range_meters":30800,"station_id":"ce4bguh2rcd13ifvqckg","pricing_plan_id":"free"},{"bike_id":"386ed8e3-b71e-4f68-86af-202c5b76503e","system_id":"levelo_inurba_marseille","lat":43.30539,"lon":5.36701,"is_reserved":false,"is_disabled":false,"rental_uris":{"android":"levelo://app?vid=386ed8e3-b71e-4f68-86af-202c5b76503e","ios":"levelo://app?vid=386ed8e3-b71e-4f68-86af-202c5b76503e"},"vehicle_type_id":"4","last_reported":1692547639,"current_range_meters":19600,"station_id":"ce4bgrp2rcd13ifvqc9g","pricing_plan_id":"free"},{"bike_id":"9fbe6e18-d192-44c2-98b5-cafb68b41aa4","system_id":"levelo_inurba_marseille","lat":43.30539,"lon":5.36525,"is_reserved":false,"is_disabled":false,"rental_uris":{"android":"levelo://app?vid=9fbe6e18-d192-44c2-98b5-cafb68b41aa4","ios":"levelo://app?vid=9fbe6e18-d192-44c2-98b5-cafb68b41aa4"},"vehicle_type_id":"4","last_reported":1692547639,"current_range_meters":6000,"station_id":"ce4bgs12rcd13ifvqcag","pricing_plan_id":"free"},{"bike_id":"8c9fc2d7-28cb-4560-aebf-7761ffe17910","system_id":"levelo_inurba_marseille","lat":43.305989,"lon":5.37225,"is_reserved":false,"is_disabled":false,"rental_uris":{"android":"levelo://app?vid=8c9fc2d7-28cb-4560-aebf-7761ffe17910","ios":"levelo://app?vid=8c9fc2d7-28cb-4560-aebf-7761ffe17910"},"vehicle_type_id":"4","last_reported":1692547639,"current_range_meters":16400,"station_id":"ce4bgqh2rcd13ifvqc4g","pricing_plan_id":"free"},{"bike_id":"afc99046-8723-4049-8475-b1a2cd4d8af2","system_id":"levelo_inurba_marseille","lat":43.30785,"lon":5.37637,"is_reserved":false,"is_disabled":false,"rental_uris":{"android":"levelo://app?vid=afc99046-8723-4049-8475-b1a2cd4d8af2","ios":"levelo://app?vid=afc99046-8723-4049-8475-b1a2cd4d8af2"},"vehicle_type_id":"4","last_reported":1692547639,"current_range_meters":24800,"station_id":"ce4bgv92rcd13ifvqcq0","pricing_plan_id":"free"},{"bike_id":"87bc04c7-96aa-4d8e-bfd1-4481b1ef46ea","system_id":"levelo_inurba_marseille","lat":43.30783,"lon":5.3764,"is_reserved":false,"is_disabled":false,"rental_uris":{"android":"levelo://app?vid=87bc04c7-96aa-4d8e-bfd1-4481b1ef46ea","ios":"levelo://app?vid=87bc04c7-96aa-4d8e-bfd1-4481b1ef46ea"},"vehicle_type_id":"4","last_reported":1692547639,"current_range_meters":18800,"station_id":"ce4bgv92rcd13ifvqcq0","pricing_plan_id":"free"},{"bike_id":"66a04ae2-3a2e-4284-938a-7a740747d0c2","system_id":"levelo_inurba_marseille","lat":43.30171,"lon":5.36607,"is_reserved":false,"is_disabled":false,"rental_uris":{"android":"levelo://app?vid=66a04ae2-3a2e-4284-938a-7a740747d0c2","ios":"levelo://app?vid=66a04ae2-3a2e-4284-938a-7a740747d0c2"},"vehicle_type_id":"4","last_reported":1692547639,"current_range_meters":15600,"station_id":"ce4bgrh2rcd13ifvqc8g","pricing_plan_id":"free"},{"bike_id":"6156056c-da18-46a8-ade9-67b225c7c338","system_id":"levelo_inurba_marseille","lat":43.299724,"lon":5.371829,"is_reserved":false,"is_disabled":false,"rental_uris":{"android":"levelo://app?vid=6156056c-da18-46a8-ade9-67b225c7c338","ios":"levelo://app?vid=6156056c-da18-46a8-ade9-67b225c7c338"},"vehicle_type_id":"4","last_reported":1692547639,"current_range_meters":2800,"station_id":"ce4bgr92rcd13ifvqc7g","pricing_plan_id":"free"},{"bike_id":"95dc9ecf-047e-4c3a-bb12-a5676cb36ad4","system_id":"levelo_inurba_marseille","lat":43.3216,"lon":5.38166,"is_reserved":false,"is_disabled":false,"rental_uris":{"android":"levelo://app?vid=95dc9ecf-047e-4c3a-bb12-a5676cb36ad4","ios":"levelo://app?vid=95dc9ecf-047e-4c3a-bb12-a5676cb36ad4"},"vehicle_type_id":"4","last_reported":1692547639,"current_range_meters":14400,"station_id":"","pricing_plan_id":"free"},{"bike_id":"ea6a101b-7d8e-41ea-b997-03ffb4b4cb29","system_id":"levelo_inurba_marseille","lat":43.3054,"lon":5.38433,"is_reserved":false,"is_disabled":false,"rental_uris":{"android":"levelo://app?vid=ea6a101b-7d8e-41ea-b997-03ffb4b4cb29","ios":"levelo://app?vid=ea6a101b-7d8e-41ea-b997-03ffb4b4cb29"},"vehicle_type_id":"4","last_reported":1692547639,"current_range_meters":0,"station_id":"ce4bgg92rcd13ifvqb30","pricing_plan_id":"free"},{"bike_id":"b885f463-e8c5-42cc-902f-7152167ce1c7","system_id":"levelo_inurba_marseille","lat":43.29914,"lon":5.37468,"is_reserved":false,"is_disabled":false,"rental_uris":{"android":"levelo://app?vid=b885f463-e8c5-42cc-902f-7152167ce1c7","ios":"levelo://app?vid=b885f463-e8c5-42cc-902f-7152167ce1c7"},"vehicle_type_id":"4","last_reported":1692547639,"current_range_meters":31200,"station_id":"ce4bgjh2rcd13ifvqbg0","pricing_plan_id":"free"},{"bike_id":"f632a861-632a-4e77-9312-a863b396334b","system_id":"levelo_inurba_marseille","lat":43.297774,"lon":5.370875,"is_reserved":false,"is_disabled":false,"rental_uris":{"android":"levelo://app?vid=f632a861-632a-4e77-9312-a863b396334b","ios":"levelo://app?vid=f632a861-632a-4e77-9312-a863b396334b"},"vehicle_type_id":"4","last_reported":1692547639,"current_range_meters":28000,"station_id":"ce4bgop2rcd13ifvqc1g","pricing_plan_id":"free"},{"bike_id":"90ef49b9-25eb-4763-9d14-04edaa47ed73","system_id":"levelo_inurba_marseille","lat":43.297774,"lon":5.370875,"is_reserved":false,"is_disabled":false,"rental_uris":{"android":"levelo://app?vid=90ef49b9-25eb-4763-9d14-04edaa47ed73","ios":"levelo://app?vid=90ef49b9-25eb-4763-9d14-04edaa47ed73"},"vehicle_type_id":"4","last_reported":1692547639,"current_range_meters":18000,"station_id":"ce4bgop2rcd13ifvqc1g","pricing_plan_id":"free"},{"bike_id":"a1f7b084-f437-4e0c-8b20-334f54c48d59","system_id":"levelo_inurba_marseille","lat":43.32289,"lon":5.38267,"is_reserved":false,"is_disabled":false,"rental_uris":{"android":"levelo://app?vid=a1f7b084-f437-4e0c-8b20-334f54c48d59","ios":"levelo://app?vid=a1f7b084-f437-4e0c-8b20-334f54c48d59"},"vehicle_type_id":"4","last_reported":1692547639,"current_range_meters":13600,"station_id":"ce4bhr12rcd13ifvqhqg","pricing_plan_id":"free"},{"bike_id":"5b5c8cae-b425-4976-9ba8-5ae205664d6b","system_id":"levelo_inurba_marseille","lat":43.32292,"lon":5.38266,"is_reserved":false,"is_disabled":false,"rental_uris":{"android":"levelo://app?vid=5b5c8cae-b425-4976-9ba8-5ae205664d6b","ios":"levelo://app?vid=5b5c8cae-b425-4976-9ba8-5ae205664d6b"},"vehicle_type_id":"4","last_reported":1692547639,"current_range_meters":13600,"station_id":"ce4bhr12rcd13ifvqhqg","pricing_plan_id":"free"},{"bike_id":"26fc66bc-2aad-4661-b830-52fd22897bf6","system_id":"levelo_inurba_marseille","lat":43.297774,"lon":5.370875,"is_reserved":false,"is_disabled":false,"rental_uris":{"android":"levelo://app?vid=26fc66bc-2aad-4661-b830-52fd22897bf6","ios":"levelo://app?vid=26fc66bc-2aad-4661-b830-52fd22897bf6"},"vehicle_type_id":"4","last_reported":1692547639,"current_range_meters":1600,"station_id":"ce4bgop2rcd13ifvqc1g","pricing_plan_id":"free"},{"bike_id":"110bd150-ae2d-4085-890c-a8f4481980e0","system_id":"levelo_inurba_marseille","lat":43.32291,"lon":5.38275,"is_reserved":false,"is_disabled":false,"rental_uris":{"android":"levelo://app?vid=110bd150-ae2d-4085-890c-a8f4481980e0","ios":"levelo://app?vid=110bd150-ae2d-4085-890c-a8f4481980e0"},"vehicle_type_id":"4","last_reported":1692547639,"current_range_meters":25200,"station_id":"ce4bhr12rcd13ifvqhqg","pricing_plan_id":"free"},{"bike_id":"b9784bc4-a1f4-4e7b-a996-3746dcc4c656","system_id":"levelo_inurba_marseille","lat":43.32287,"lon":5.3828,"is_reserved":false,"is_disabled":false,"rental_uris":{"android":"levelo://app?vid=b9784bc4-a1f4-4e7b-a996-3746dcc4c656","ios":"levelo://app?vid=b9784bc4-a1f4-4e7b-a996-3746dcc4c656"},"vehicle_type_id":"4","last_reported":1692547639,"current_range_meters":5200,"station_id":"ce4bhr12rcd13ifvqhqg","pricing_plan_id":"free"},{"bike_id":"dd789220-e7b5-42c1-b9dc-dc4243148021","system_id":"levelo_inurba_marseille","lat":43.297163,"lon":5.365866,"is_reserved":false,"is_disabled":false,"rental_uris":{"android":"levelo://app?vid=dd789220-e7b5-42c1-b9dc-dc4243148021","ios":"levelo://app?vid=dd789220-e7b5-42c1-b9dc-dc4243148021"},"vehicle_type_id":"4","last_reported":1692547639,"current_range_meters":31200,"station_id":"ce4bgn12rcd13ifvqbt0","pricing_plan_id":"free"},{"bike_id":"bb155e93-116e-494a-9911-2df351c7dae8","system_id":"levelo_inurba_marseille","lat":43.296131,"lon":5.370773,"is_reserved":false,"is_disabled":false,"rental_uris":{"android":"levelo://app?vid=bb155e93-116e-494a-9911-2df351c7dae8","ios":"levelo://app?vid=bb155e93-116e-494a-9911-2df351c7dae8"},"vehicle_type_id":"4","last_reported":1692547639,"current_range_meters":29200,"station_id":"ce4bgnh2rcd13ifvqc0g","pricing_plan_id":"free"},{"bike_id":"d3139180-8ba9-4c91-b6e4-8baae3c22113","system_id":"levelo_inurba_marseille","lat":43.29613,"lon":5.37198,"is_reserved":false,"is_disabled":false,"rental_uris":{"android":"levelo://app?vid=d3139180-8ba9-4c91-b6e4-8baae3c22113","ios":"levelo://app?vid=d3139180-8ba9-4c91-b6e4-8baae3c22113"},"vehicle_type_id":"4","last_reported":1692547639,"current_range_meters":29600,"station_id":"","pricing_plan_id":"free"},{"bike_id":"b2f28493-5a8d-4a68-9acc-306a721a8250","system_id":"levelo_inurba_marseille","lat":43.29708,"lon":5.37693,"is_reserved":false,"is_disabled":false,"rental_uris":{"android":"levelo://app?vid=b2f28493-5a8d-4a68-9acc-306a721a8250","ios":"levelo://app?vid=b2f28493-5a8d-4a68-9acc-306a721a8250"},"vehicle_type_id":"4","last_reported":1692547639,"current_range_meters":31200,"station_id":"ce4bgkh2rcd13ifvqbl0","pricing_plan_id":"free"},{"bike_id":"e6a087cb-dcd8-43ea-bab0-75326f52c0c0","system_id":"levelo_inurba_marseille","lat":43.30956,"lon":5.39027,"is_reserved":false,"is_disabled":false,"rental_uris":{"android":"levelo://app?vid=e6a087cb-dcd8-43ea-bab0-75326f52c0c0","ios":"levelo://app?vid=e6a087cb-dcd8-43ea-bab0-75326f52c0c0"},"vehicle_type_id":"4","last_reported":1692547639,"current_range_meters":22000,"station_id":"ce4bgup2rcd13ifvqco0","pricing_plan_id":"free"},{"bike_id":"0ee897f3-f20d-4829-9a7f-9ae4a7afbd61","system_id":"levelo_inurba_marseille","lat":43.296935,"lon":5.376544,"is_reserved":false,"is_disabled":false,"rental_uris":{"android":"levelo://app?vid=0ee897f3-f20d-4829-9a7f-9ae4a7afbd61","ios":"levelo://app?vid=0ee897f3-f20d-4829-9a7f-9ae4a7afbd61"},"vehicle_type_id":"4","last_reported":1692547639,"current_range_meters":25600,"station_id":"ce4bgkh2rcd13ifvqbl0","pricing_plan_id":"free"},{"bike_id":"96545288-5189-4fef-8a9f-96db21f29764","system_id":"levelo_inurba_marseille","lat":43.30957,"lon":5.39039,"is_reserved":false,"is_disabled":false,"rental_uris":{"android":"levelo://app?vid=96545288-5189-4fef-8a9f-96db21f29764","ios":"levelo://app?vid=96545288-5189-4fef-8a9f-96db21f29764"},"vehicle_type_id":"4","last_reported":1692547639,"current_range_meters":1600,"station_id":"ce4bgup2rcd13ifvqco0","pricing_plan_id":"free"},{"bike_id":"97ec8bd3-ddb4-4f5a-84f7-65e932a12d78","system_id":"levelo_inurba_marseille","lat":43.317557,"lon":5.390173,"is_reserved":false,"is_disabled":false,"rental_uris":{"android":"levelo://app?vid=97ec8bd3-ddb4-4f5a-84f7-65e932a12d78","ios":"levelo://app?vid=97ec8bd3-ddb4-4f5a-84f7-65e932a12d78"},"vehicle_type_id":"4","last_reported":1692547639,"current_range_meters":17200,"station_id":"ce4bhqp2rcd13ifvqhng","pricing_plan_id":"free"},{"bike_id":"86d7e2c2-6e31-4f95-9c3f-4cab5a6721b1","system_id":"levelo_inurba_marseille","lat":43.295748,"lon":5.37522,"is_reserved":false,"is_disabled":false,"rental_uris":{"android":"levelo://app?vid=86d7e2c2-6e31-4f95-9c3f-4cab5a6721b1","ios":"levelo://app?vid=86d7e2c2-6e31-4f95-9c3f-4cab5a6721b1"},"vehicle_type_id":"4","last_reported":1692547639,"current_range_meters":0,"station_id":"ce4bgh92rcd13ifvqb50","pricing_plan_id":"free"},{"bike_id":"a4df99ce-0488-49dd-a888-94686f562e88","system_id":"levelo_inurba_marseille","lat":43.295748,"lon":5.37522,"is_reserved":false,"is_disabled":false,"rental_uris":{"android":"levelo://app?vid=a4df99ce-0488-49dd-a888-94686f562e88","ios":"levelo://app?vid=a4df99ce-0488-49dd-a888-94686f562e88"},"vehicle_type_id":"4","last_reported":1692547639,"current_range_meters":28800,"station_id":"ce4bgh92rcd13ifvqb50","pricing_plan_id":"free"},{"bike_id":"8666189e-bb47-463d-9c07-f232c8a37ce2","system_id":"levelo_inurba_marseille","lat":43.296277,"lon":5.377108,"is_reserved":false,"is_disabled":false,"rental_uris":{"android":"levelo://app?vid=8666189e-bb47-463d-9c07-f232c8a37ce2","ios":"levelo://app?vid=8666189e-bb47-463d-9c07-f232c8a37ce2"},"vehicle_type_id":"4","last_reported":1692547639,"current_range_meters":14000,"station_id":"ce4bgi92rcd13ifvqb90","pricing_plan_id":"free"},{"bike_id":"00883cd9-a56a-4720-bb55-237d0136a4a1","system_id":"levelo_inurba_marseille","lat":43.32357,"lon":5.38882,"is_reserved":false,"is_disabled":false,"rental_uris":{"android":"levelo://app?vid=00883cd9-a56a-4720-bb55-237d0136a4a1","ios":"levelo://app?vid=00883cd9-a56a-4720-bb55-237d0136a4a1"},"vehicle_type_id":"4","last_reported":1692547639,"current_range_meters":22400,"station_id":"ce4bhqp2rcd13ifvqhog","pricing_plan_id":"free"},{"bike_id":"85236cd1-d49b-4aab-9470-0b6612b4cfce","system_id":"levelo_inurba_marseille","lat":43.32364,"lon":5.38876,"is_reserved":false,"is_disabled":false,"rental_uris":{"android":"levelo://app?vid=85236cd1-d49b-4aab-9470-0b6612b4cfce","ios":"levelo://app?vid=85236cd1-d49b-4aab-9470-0b6612b4cfce"},"vehicle_type_id":"4","last_reported":1692547639,"current_range_meters":22800,"station_id":"ce4bhqp2rcd13ifvqhog","pricing_plan_id":"free"},{"bike_id":"e15ef0a5-8186-4707-84b8-fc141a9cf97b","system_id":"levelo_inurba_marseille","lat":43.32366,"lon":5.38879,"is_reserved":false,"is_disabled":false,"rental_uris":{"android":"levelo://app?vid=e15ef0a5-8186-4707-84b8-fc141a9cf97b","ios":"levelo://app?vid=e15ef0a5-8186-4707-84b8-fc141a9cf97b"},"vehicle_type_id":"4","last_reported":1692547639,"current_range_meters":21200,"station_id":"ce4bhqp2rcd13ifvqhog","pricing_plan_id":"free"},{"bike_id":"7c710cc9-19ca-45ca-a52e-f81159a89b49","system_id":"levelo_inurba_marseille","lat":43.32367,"lon":5.388836,"is_reserved":false,"is_disabled":false,"rental_uris":{"android":"levelo://app?vid=7c710cc9-19ca-45ca-a52e-f81159a89b49","ios":"levelo://app?vid=7c710cc9-19ca-45ca-a52e-f81159a89b49"},"vehicle_type_id":"4","last_reported":1692547639,"current_range_meters":14800,"station_id":"ce4bhqp2rcd13ifvqhog","pricing_plan_id":"free"},{"bike_id":"3c99606a-cfd1-4b08-a5da-392aa4b30abe","system_id":"levelo_inurba_marseille","lat":43.32367,"lon":5.38881,"is_reserved":false,"is_disabled":false,"rental_uris":{"android":"levelo://app?vid=3c99606a-cfd1-4b08-a5da-392aa4b30abe","ios":"levelo://app?vid=3c99606a-cfd1-4b08-a5da-392aa4b30abe"},"vehicle_type_id":"4","last_reported":1692547639,"current_range_meters":18000,"station_id":"","pricing_plan_id":"free"},{"bike_id":"6b6cba89-d2b8-44bb-8454-5df08cf65f67","system_id":"levelo_inurba_marseille","lat":43.32367,"lon":5.388836,"is_reserved":false,"is_disabled":false,"rental_uris":{"android":"levelo://app?vid=6b6cba89-d2b8-44bb-8454-5df08cf65f67","ios":"levelo://app?vid=6b6cba89-d2b8-44bb-8454-5df08cf65f67"},"vehicle_type_id":"4","last_reported":1692547639,"current_range_meters":7600,"station_id":"ce4bhqp2rcd13ifvqhog","pricing_plan_id":"free"},{"bike_id":"58172f1d-d502-4d98-81d0-63aa5e33dd5a","system_id":"levelo_inurba_marseille","lat":43.32367,"lon":5.388836,"is_reserved":false,"is_disabled":false,"rental_uris":{"android":"levelo://app?vid=58172f1d-d502-4d98-81d0-63aa5e33dd5a","ios":"levelo://app?vid=58172f1d-d502-4d98-81d0-63aa5e33dd5a"},"vehicle_type_id":"4","last_reported":1692547639,"current_range_meters":22800,"station_id":"ce4bhqp2rcd13ifvqhog","pricing_plan_id":"free"},{"bike_id":"f8551acc-eaa9-45d6-8b2f-1492d600a396","system_id":"levelo_inurba_marseille","lat":43.29309,"lon":5.371753,"is_reserved":false,"is_disabled":false,"rental_uris":{"android":"levelo://app?vid=f8551acc-eaa9-45d6-8b2f-1492d600a396","ios":"levelo://app?vid=f8551acc-eaa9-45d6-8b2f-1492d600a396"},"vehicle_type_id":"4","last_reported":1692547639,"current_range_meters":14400,"station_id":"","pricing_plan_id":"free"},{"bike_id":"43e097ae-ca0f-4526-adf3-70058ceeea40","system_id":"levelo_inurba_marseille","lat":43.292749,"lon":5.368402,"is_reserved":false,"is_disabled":false,"rental_uris":{"android":"levelo://app?vid=43e097ae-ca0f-4526-adf3-70058ceeea40","ios":"levelo://app?vid=43e097ae-ca0f-4526-adf3-70058ceeea40"},"vehicle_type_id":"4","last_reported":1692547639,"current_range_meters":21200,"station_id":"ce4bhbp2rcd13ifvqesg","pricing_plan_id":"free"},{"bike_id":"ac064a17-7aea-4882-92fc-b1343cab8c61","system_id":"levelo_inurba_marseille","lat":43.293063,"lon":5.371869,"is_reserved":false,"is_disabled":false,"rental_uris":{"android":"levelo://app?vid=ac064a17-7aea-4882-92fc-b1343cab8c61","ios":"levelo://app?vid=ac064a17-7aea-4882-92fc-b1343cab8c61"},"vehicle_type_id":"4","last_reported":1692547639,"current_range_meters":7600,"station_id":"ce4bgh92rcd13ifvqb40","pricing_plan_id":"free"},{"bike_id":"38fef587-7cc5-4800-b069-87b8f296a10a","system_id":"levelo_inurba_marseille","lat":43.293009,"lon":5.374584,"is_reserved":false,"is_disabled":false,"rental_uris":{"android":"levelo://app?vid=38fef587-7cc5-4800-b069-87b8f296a10a","ios":"levelo://app?vid=38fef587-7cc5-4800-b069-87b8f296a10a"},"vehicle_type_id":"4","last_reported":1692547639,"current_range_meters":31200,"station_id":"ce4bgi12rcd13ifvqb70","pricing_plan_id":"free"},{"bike_id":"d4cce62f-7d2e-4962-98a9-a25c31acaaeb","system_id":"levelo_inurba_marseille","lat":43.29296,"lon":5.37452,"is_reserved":false,"is_disabled":false,"rental_uris":{"android":"levelo://app?vid=d4cce62f-7d2e-4962-98a9-a25c31acaaeb","ios":"levelo://app?vid=d4cce62f-7d2e-4962-98a9-a25c31acaaeb"},"vehicle_type_id":"4","last_reported":1692547639,"current_range_meters":8400,"station_id":"","pricing_plan_id":"free"},{"bike_id":"8588b69a-c9ca-41a4-9d93-9033a99f10d5","system_id":"levelo_inurba_marseille","lat":43.293009,"lon":5.374584,"is_reserved":false,"is_disabled":false,"rental_uris":{"android":"levelo://app?vid=8588b69a-c9ca-41a4-9d93-9033a99f10d5","ios":"levelo://app?vid=8588b69a-c9ca-41a4-9d93-9033a99f10d5"},"vehicle_type_id":"4","last_reported":1692547639,"current_range_meters":0,"station_id":"ce4bgi12rcd13ifvqb70","pricing_plan_id":"free"},{"bike_id":"294df6bf-2b7a-4981-8c80-825335916c7e","system_id":"levelo_inurba_marseille","lat":43.30305,"lon":5.39195,"is_reserved":false,"is_disabled":false,"rental_uris":{"android":"levelo://app?vid=294df6bf-2b7a-4981-8c80-825335916c7e","ios":"levelo://app?vid=294df6bf-2b7a-4981-8c80-825335916c7e"},"vehicle_type_id":"4","last_reported":1692547639,"current_range_meters":7200,"station_id":"ce4bgkh2rcd13ifvqbk0","pricing_plan_id":"free"},{"bike_id":"0724f352-a262-45b7-9b71-9a09ff17d945","system_id":"levelo_inurba_marseille","lat":43.30302,"lon":5.39213,"is_reserved":false,"is_disabled":false,"rental_uris":{"android":"levelo://app?vid=0724f352-a262-45b7-9b71-9a09ff17d945","ios":"levelo://app?vid=0724f352-a262-45b7-9b71-9a09ff17d945"},"vehicle_type_id":"4","last_reported":1692547639,"current_range_meters":19600,"station_id":"ce4bgkh2rcd13ifvqbk0","pricing_plan_id":"free"},{"bike_id":"23933ae3-c4b0-4785-b963-0c61607c43b2","system_id":"levelo_inurba_marseille","lat":43.30299,"lon":5.39211,"is_reserved":false,"is_disabled":false,"rental_uris":{"android":"levelo://app?vid=23933ae3-c4b0-4785-b963-0c61607c43b2","ios":"levelo://app?vid=23933ae3-c4b0-4785-b963-0c61607c43b2"},"vehicle_type_id":"4","last_reported":1692547639,"current_range_meters":21200,"station_id":"ce4bgkh2rcd13ifvqbk0","pricing_plan_id":"free"},{"bike_id":"9bc5736b-6fe6-4ea5-b275-2d02bbf89ace","system_id":"levelo_inurba_marseille","lat":43.2936,"lon":5.37835,"is_reserved":false,"is_disabled":false,"rental_uris":{"android":"levelo://app?vid=9bc5736b-6fe6-4ea5-b275-2d02bbf89ace","ios":"levelo://app?vid=9bc5736b-6fe6-4ea5-b275-2d02bbf89ace"},"vehicle_type_id":"4","last_reported":1692547639,"current_range_meters":17600,"station_id":"ce4bgjh2rcd13ifvqbf0","pricing_plan_id":"free"},{"bike_id":"04c38b8d-67c9-4d83-affe-e03835b4f8db","system_id":"levelo_inurba_marseille","lat":43.292311,"lon":5.360731,"is_reserved":false,"is_disabled":false,"rental_uris":{"android":"levelo://app?vid=04c38b8d-67c9-4d83-affe-e03835b4f8db","ios":"levelo://app?vid=04c38b8d-67c9-4d83-affe-e03835b4f8db"},"vehicle_type_id":"4","last_reported":1692547639,"current_range_meters":0,"station_id":"ce4bhbh2rcd13ifvqeqg","pricing_plan_id":"free"},{"bike_id":"df72d5f5-4ef2-4aa0-9c24-d386b164baf8","system_id":"levelo_inurba_marseille","lat":43.2936,"lon":5.37835,"is_reserved":false,"is_disabled":false,"rental_uris":{"android":"levelo://app?vid=df72d5f5-4ef2-4aa0-9c24-d386b164baf8","ios":"levelo://app?vid=df72d5f5-4ef2-4aa0-9c24-d386b164baf8"},"vehicle_type_id":"4","last_reported":1692547639,"current_range_meters":24800,"station_id":"ce4bgjh2rcd13ifvqbf0","pricing_plan_id":"free"},{"bike_id":"a4048a3c-5737-459e-a3f8-63b8598bda93","system_id":"levelo_inurba_marseille","lat":43.298764,"lon":5.388973,"is_reserved":false,"is_disabled":false,"rental_uris":{"android":"levelo://app?vid=a4048a3c-5737-459e-a3f8-63b8598bda93","ios":"levelo://app?vid=a4048a3c-5737-459e-a3f8-63b8598bda93"},"vehicle_type_id":"4","last_reported":1692547639,"current_range_meters":0,"station_id":"ce4bh392rcd13ifvqdl0","pricing_plan_id":"free"},{"bike_id":"771f495d-f28f-4b6f-ae72-e861a8488697","system_id":"levelo_inurba_marseille","lat":43.29193,"lon":5.357978,"is_reserved":false,"is_disabled":false,"rental_uris":{"android":"levelo://app?vid=771f495d-f28f-4b6f-ae72-e861a8488697","ios":"levelo://app?vid=771f495d-f28f-4b6f-ae72-e861a8488697"},"vehicle_type_id":"4","last_reported":1692547639,"current_range_meters":29600,"station_id":"ce4bhb12rcd13ifvqel0","pricing_plan_id":"free"},{"bike_id":"3b780631-666b-4d86-8004-b4ffe7ef53fa","system_id":"levelo_inurba_marseille","lat":43.2919,"lon":5.35805,"is_reserved":false,"is_disabled":false,"rental_uris":{"android":"levelo://app?vid=3b780631-666b-4d86-8004-b4ffe7ef53fa","ios":"levelo://app?vid=3b780631-666b-4d86-8004-b4ffe7ef53fa"},"vehicle_type_id":"4","last_reported":1692547639,"current_range_meters":24000,"station_id":"ce4bhb12rcd13ifvqel0","pricing_plan_id":"free"},{"bike_id":"a90e7f95-9022-4340-ab75-22f418135e9f","system_id":"levelo_inurba_marseille","lat":43.3088,"lon":5.39646,"is_reserved":false,"is_disabled":false,"rental_uris":{"android":"levelo://app?vid=a90e7f95-9022-4340-ab75-22f418135e9f","ios":"levelo://app?vid=a90e7f95-9022-4340-ab75-22f418135e9f"},"vehicle_type_id":"4","last_reported":1692547639,"current_range_meters":6400,"station_id":"ce4bh012rcd13ifvqcv0","pricing_plan_id":"free"},{"bike_id":"e0dd9b98-1b61-4f42-a04b-ed6d0f355a85","system_id":"levelo_inurba_marseille","lat":43.302008,"lon":5.394694,"is_reserved":false,"is_disabled":false,"rental_uris":{"android":"levelo://app?vid=e0dd9b98-1b61-4f42-a04b-ed6d0f355a85","ios":"levelo://app?vid=e0dd9b98-1b61-4f42-a04b-ed6d0f355a85"},"vehicle_type_id":"4","last_reported":1692547639,"current_range_meters":6800,"station_id":"ce4bh0p2rcd13ifvqd70","pricing_plan_id":"free"},{"bike_id":"654ad7b4-662b-4d07-915a-b3e42403aa66","system_id":"levelo_inurba_marseille","lat":43.290327,"lon":5.375711,"is_reserved":false,"is_disabled":false,"rental_uris":{"android":"levelo://app?vid=654ad7b4-662b-4d07-915a-b3e42403aa66","ios":"levelo://app?vid=654ad7b4-662b-4d07-915a-b3e42403aa66"},"vehicle_type_id":"4","last_reported":1692547639,"current_range_meters":0,"station_id":"ce4bh692rcd13ifvqe90","pricing_plan_id":"free"},{"bike_id":"3d4869ae-2a6d-4d0f-bd4e-c0e29a457c32","system_id":"levelo_inurba_marseille","lat":43.292644,"lon":5.384257,"is_reserved":false,"is_disabled":false,"rental_uris":{"android":"levelo://app?vid=3d4869ae-2a6d-4d0f-bd4e-c0e29a457c32","ios":"levelo://app?vid=3d4869ae-2a6d-4d0f-bd4e-c0e29a457c32"},"vehicle_type_id":"4","last_reported":1692547639,"current_range_meters":20800,"station_id":"ce4bh692rcd13ifvqea0","pricing_plan_id":"free"},{"bike_id":"463b6cde-23a8-44ce-a3ee-3e1ab3cc38ab","system_id":"levelo_inurba_marseille","lat":43.292642,"lon":5.384254,"is_reserved":false,"is_disabled":false,"rental_uris":{"android":"levelo://app?vid=463b6cde-23a8-44ce-a3ee-3e1ab3cc38ab","ios":"levelo://app?vid=463b6cde-23a8-44ce-a3ee-3e1ab3cc38ab"},"vehicle_type_id":"4","last_reported":1692547639,"current_range_meters":25200,"station_id":"ce4bh692rcd13ifvqea0","pricing_plan_id":"free"},{"bike_id":"f7005a11-f4b8-40eb-a1e9-6d3833ad8114","system_id":"levelo_inurba_marseille","lat":43.33038,"lon":5.38919,"is_reserved":false,"is_disabled":false,"rental_uris":{"android":"levelo://app?vid=f7005a11-f4b8-40eb-a1e9-6d3833ad8114","ios":"levelo://app?vid=f7005a11-f4b8-40eb-a1e9-6d3833ad8114"},"vehicle_type_id":"4","last_reported":1692547639,"current_range_meters":26400,"station_id":"ce4bhr92rcd13ifvqhrg","pricing_plan_id":"free"},{"bike_id":"5036c72a-6252-47f4-a9fb-50fd514d506a","system_id":"levelo_inurba_marseille","lat":43.33039,"lon":5.38918,"is_reserved":false,"is_disabled":false,"rental_uris":{"android":"levelo://app?vid=5036c72a-6252-47f4-a9fb-50fd514d506a","ios":"levelo://app?vid=5036c72a-6252-47f4-a9fb-50fd514d506a"},"vehicle_type_id":"4","last_reported":1692547639,"current_range_meters":19600,"station_id":"ce4bhr92rcd13ifvqhrg","pricing_plan_id":"free"},{"bike_id":"554db33e-a784-4e08-b5b8-a45b8d168abc","system_id":"levelo_inurba_marseille","lat":43.290103,"lon":5.356114,"is_reserved":false,"is_disabled":false,"rental_uris":{"android":"levelo://app?vid=554db33e-a784-4e08-b5b8-a45b8d168abc","ios":"levelo://app?vid=554db33e-a784-4e08-b5b8-a45b8d168abc"},"vehicle_type_id":"4","last_reported":1692547639,"current_range_meters":18000,"station_id":"ce4bhb92rcd13ifvqen0","pricing_plan_id":"free"},{"bike_id":"e33dce14-6836-4f79-aa59-0ac1668dca4a","system_id":"levelo_inurba_marseille","lat":43.290104,"lon":5.356111,"is_reserved":false,"is_disabled":false,"rental_uris":{"android":"levelo://app?vid=e33dce14-6836-4f79-aa59-0ac1668dca4a","ios":"levelo://app?vid=e33dce14-6836-4f79-aa59-0ac1668dca4a"},"vehicle_type_id":"4","last_reported":1692547639,"current_range_meters":3600,"station_id":"ce4bhb92rcd13ifvqen0","pricing_plan_id":"free"},{"bike_id":"331b6e0a-8cfc-4305-9eef-0266cde03da7","system_id":"levelo_inurba_marseille","lat":43.3304,"lon":5.38921,"is_reserved":false,"is_disabled":false,"rental_uris":{"android":"levelo://app?vid=331b6e0a-8cfc-4305-9eef-0266cde03da7","ios":"levelo://app?vid=331b6e0a-8cfc-4305-9eef-0266cde03da7"},"vehicle_type_id":"4","last_reported":1692547639,"current_range_meters":12400,"station_id":"ce4bhr92rcd13ifvqhrg","pricing_plan_id":"free"},{"bike_id":"de450cac-4370-4660-9455-3e94463307a2","system_id":"levelo_inurba_marseille","lat":43.3304,"lon":5.38922,"is_reserved":false,"is_disabled":false,"rental_uris":{"android":"levelo://app?vid=de450cac-4370-4660-9455-3e94463307a2","ios":"levelo://app?vid=de450cac-4370-4660-9455-3e94463307a2"},"vehicle_type_id":"4","last_reported":1692547639,"current_range_meters":14800,"station_id":"ce4bhr92rcd13ifvqhrg","pricing_plan_id":"free"},{"bike_id":"a5d7998c-4c76-4390-bbcf-8c2a2abd7eba","system_id":"levelo_inurba_marseille","lat":43.3304,"lon":5.38923,"is_reserved":false,"is_disabled":false,"rental_uris":{"android":"levelo://app?vid=a5d7998c-4c76-4390-bbcf-8c2a2abd7eba","ios":"levelo://app?vid=a5d7998c-4c76-4390-bbcf-8c2a2abd7eba"},"vehicle_type_id":"4","last_reported":1692547639,"current_range_meters":28800,"station_id":"ce4bhr92rcd13ifvqhrg","pricing_plan_id":"free"},{"bike_id":"c8619c93-5f6a-45f4-8e07-c81fcc1e21be","system_id":"levelo_inurba_marseille","lat":43.33044,"lon":5.38919,"is_reserved":false,"is_disabled":false,"rental_uris":{"android":"levelo://app?vid=c8619c93-5f6a-45f4-8e07-c81fcc1e21be","ios":"levelo://app?vid=c8619c93-5f6a-45f4-8e07-c81fcc1e21be"},"vehicle_type_id":"4","last_reported":1692547639,"current_range_meters":23600,"station_id":"ce4bhr92rcd13ifvqhrg","pricing_plan_id":"free"},{"bike_id":"86eac789-1e56-496d-abfa-705e29d378c7","system_id":"levelo_inurba_marseille","lat":43.33043,"lon":5.38921,"is_reserved":false,"is_disabled":false,"rental_uris":{"android":"levelo://app?vid=86eac789-1e56-496d-abfa-705e29d378c7","ios":"levelo://app?vid=86eac789-1e56-496d-abfa-705e29d378c7"},"vehicle_type_id":"4","last_reported":1692547639,"current_range_meters":27200,"station_id":"ce4bhr92rcd13ifvqhrg","pricing_plan_id":"free"},{"bike_id":"7d19a255-9f7a-4d0e-beba-2bfebb3c7b5e","system_id":"levelo_inurba_marseille","lat":43.33045,"lon":5.38918,"is_reserved":false,"is_disabled":false,"rental_uris":{"android":"levelo://app?vid=7d19a255-9f7a-4d0e-beba-2bfebb3c7b5e","ios":"levelo://app?vid=7d19a255-9f7a-4d0e-beba-2bfebb3c7b5e"},"vehicle_type_id":"4","last_reported":1692547639,"current_range_meters":19200,"station_id":"ce4bhr92rcd13ifvqhrg","pricing_plan_id":"free"},{"bike_id":"d2b15eb2-4474-4e56-aace-fe335ab0092e","system_id":"levelo_inurba_marseille","lat":43.33039,"lon":5.38927,"is_reserved":false,"is_disabled":false,"rental_uris":{"android":"levelo://app?vid=d2b15eb2-4474-4e56-aace-fe335ab0092e","ios":"levelo://app?vid=d2b15eb2-4474-4e56-aace-fe335ab0092e"},"vehicle_type_id":"4","last_reported":1692547639,"current_range_meters":12000,"station_id":"ce4bhr92rcd13ifvqhrg","pricing_plan_id":"free"},{"bike_id":"9e24a65c-fe1e-45dc-88b9-dd0cad85064c","system_id":"levelo_inurba_marseille","lat":43.33046,"lon":5.38917,"is_reserved":false,"is_disabled":false,"rental_uris":{"android":"levelo://app?vid=9e24a65c-fe1e-45dc-88b9-dd0cad85064c","ios":"levelo://app?vid=9e24a65c-fe1e-45dc-88b9-dd0cad85064c"},"vehicle_type_id":"4","last_reported":1692547639,"current_range_meters":26800,"station_id":"ce4bhr92rcd13ifvqhrg","pricing_plan_id":"free"},{"bike_id":"3b3e7c42-cded-4bde-b175-99650afa4f17","system_id":"levelo_inurba_marseille","lat":43.33046,"lon":5.38918,"is_reserved":false,"is_disabled":false,"rental_uris":{"android":"levelo://app?vid=3b3e7c42-cded-4bde-b175-99650afa4f17","ios":"levelo://app?vid=3b3e7c42-cded-4bde-b175-99650afa4f17"},"vehicle_type_id":"4","last_reported":1692547639,"current_range_meters":21200,"station_id":"ce4bhr92rcd13ifvqhrg","pricing_plan_id":"free"},{"bike_id":"708f7f21-b221-4c14-94b6-b5d8e3289350","system_id":"levelo_inurba_marseille","lat":43.33045,"lon":5.3892,"is_reserved":false,"is_disabled":false,"rental_uris":{"android":"levelo://app?vid=708f7f21-b221-4c14-94b6-b5d8e3289350","ios":"levelo://app?vid=708f7f21-b221-4c14-94b6-b5d8e3289350"},"vehicle_type_id":"4","last_reported":1692547639,"current_range_meters":18000,"station_id":"ce4bhr92rcd13ifvqhrg","pricing_plan_id":"free"},{"bike_id":"c65152a1-dca7-4ee4-9864-308587d5ed74","system_id":"levelo_inurba_marseille","lat":43.3304,"lon":5.38928,"is_reserved":false,"is_disabled":false,"rental_uris":{"android":"levelo://app?vid=c65152a1-dca7-4ee4-9864-308587d5ed74","ios":"levelo://app?vid=c65152a1-dca7-4ee4-9864-308587d5ed74"},"vehicle_type_id":"4","last_reported":1692547639,"current_range_meters":19600,"station_id":"ce4bhr92rcd13ifvqhrg","pricing_plan_id":"free"},{"bike_id":"eb950724-6c95-4fb2-915f-35b08a8cfd23","system_id":"levelo_inurba_marseille","lat":43.33048,"lon":5.38919,"is_reserved":false,"is_disabled":false,"rental_uris":{"android":"levelo://app?vid=eb950724-6c95-4fb2-915f-35b08a8cfd23","ios":"levelo://app?vid=eb950724-6c95-4fb2-915f-35b08a8cfd23"},"vehicle_type_id":"4","last_reported":1692547639,"current_range_meters":16400,"station_id":"ce4bhr92rcd13ifvqhrg","pricing_plan_id":"free"},{"bike_id":"52662068-d06a-40c1-bfee-ce6664dc3a83","system_id":"levelo_inurba_marseille","lat":43.33048,"lon":5.3892,"is_reserved":false,"is_disabled":false,"rental_uris":{"android":"levelo://app?vid=52662068-d06a-40c1-bfee-ce6664dc3a83","ios":"levelo://app?vid=52662068-d06a-40c1-bfee-ce6664dc3a83"},"vehicle_type_id":"4","last_reported":1692547639,"current_range_meters":0,"station_id":"ce4bhr92rcd13ifvqhrg","pricing_plan_id":"free"},{"bike_id":"7f88844e-3e43-484a-ad49-8d850e513a45","system_id":"levelo_inurba_marseille","lat":43.290104,"lon":5.356111,"is_reserved":false,"is_disabled":false,"rental_uris":{"android":"levelo://app?vid=7f88844e-3e43-484a-ad49-8d850e513a45","ios":"levelo://app?vid=7f88844e-3e43-484a-ad49-8d850e513a45"},"vehicle_type_id":"4","last_reported":1692547639,"current_range_meters":18000,"station_id":"ce4bhb92rcd13ifvqen0","pricing_plan_id":"free"},{"bike_id":"423b7c6d-26dc-4da2-aea7-f2e0b17d6f44","system_id":"levelo_inurba_marseille","lat":43.30935,"lon":5.40146,"is_reserved":false,"is_disabled":false,"rental_uris":{"android":"levelo://app?vid=423b7c6d-26dc-4da2-aea7-f2e0b17d6f44","ios":"levelo://app?vid=423b7c6d-26dc-4da2-aea7-f2e0b17d6f44"},"vehicle_type_id":"4","last_reported":1692547639,"current_range_meters":12000,"station_id":"ce4bgvp2rcd13ifvqct0","pricing_plan_id":"free"},{"bike_id":"2241bce1-ebf9-4d91-b7e5-fe08a6544f42","system_id":"levelo_inurba_marseille","lat":43.33743,"lon":5.37496,"is_reserved":false,"is_disabled":false,"rental_uris":{"android":"levelo://app?vid=2241bce1-ebf9-4d91-b7e5-fe08a6544f42","ios":"levelo://app?vid=2241bce1-ebf9-4d91-b7e5-fe08a6544f42"},"vehicle_type_id":"4","last_reported":1692547639,"current_range_meters":20400,"station_id":"","pricing_plan_id":"free"},{"bike_id":"41360760-b198-43af-acc9-831275b230c6","system_id":"levelo_inurba_marseille","lat":43.301117,"lon":5.398795,"is_reserved":false,"is_disabled":false,"rental_uris":{"android":"levelo://app?vid=41360760-b198-43af-acc9-831275b230c6","ios":"levelo://app?vid=41360760-b198-43af-acc9-831275b230c6"},"vehicle_type_id":"4","last_reported":1692547639,"current_range_meters":8000,"station_id":"ce4bh0h2rcd13ifvqd40","pricing_plan_id":"free"},{"bike_id":"1ad730b2-f890-45f9-b804-174cbf28762b","system_id":"levelo_inurba_marseille","lat":43.301117,"lon":5.398795,"is_reserved":false,"is_disabled":false,"rental_uris":{"android":"levelo://app?vid=1ad730b2-f890-45f9-b804-174cbf28762b","ios":"levelo://app?vid=1ad730b2-f890-45f9-b804-174cbf28762b"},"vehicle_type_id":"4","last_reported":1692547639,"current_range_meters":25200,"station_id":"ce4bh0h2rcd13ifvqd40","pricing_plan_id":"free"},{"bike_id":"69650915-9bdc-4f4a-90b9-55e338bdeeb9","system_id":"levelo_inurba_marseille","lat":43.301117,"lon":5.398795,"is_reserved":false,"is_disabled":false,"rental_uris":{"android":"levelo://app?vid=69650915-9bdc-4f4a-90b9-55e338bdeeb9","ios":"levelo://app?vid=69650915-9bdc-4f4a-90b9-55e338bdeeb9"},"vehicle_type_id":"4","last_reported":1692547639,"current_range_meters":20400,"station_id":"ce4bh0h2rcd13ifvqd40","pricing_plan_id":"free"},{"bike_id":"16513d22-8e08-493c-9e1b-ce7c39c4b3b8","system_id":"levelo_inurba_marseille","lat":43.304188,"lon":5.412904,"is_reserved":false,"is_disabled":false,"rental_uris":{"android":"levelo://app?vid=16513d22-8e08-493c-9e1b-ce7c39c4b3b8","ios":"levelo://app?vid=16513d22-8e08-493c-9e1b-ce7c39c4b3b8"},"vehicle_type_id":"4","last_reported":1692547639,"current_range_meters":25200,"station_id":"ce4bhop2rcd13ifvqh8g","pricing_plan_id":"free"},{"bike_id":"75199276-b705-4ad7-b6a9-49aeaa84628a","system_id":"levelo_inurba_marseille","lat":43.286591,"lon":5.363346,"is_reserved":false,"is_disabled":false,"rental_uris":{"android":"levelo://app?vid=75199276-b705-4ad7-b6a9-49aeaa84628a","ios":"levelo://app?vid=75199276-b705-4ad7-b6a9-49aeaa84628a"},"vehicle_type_id":"4","last_reported":1692547639,"current_range_meters":31200,"station_id":"ce4bhah2rcd13ifvqej0","pricing_plan_id":"free"},{"bike_id":"6f02f078-c9b1-47d7-acf2-224de528a2d5","system_id":"levelo_inurba_marseille","lat":43.295196,"lon":5.39397,"is_reserved":false,"is_disabled":false,"rental_uris":{"android":"levelo://app?vid=6f02f078-c9b1-47d7-acf2-224de528a2d5","ios":"levelo://app?vid=6f02f078-c9b1-47d7-acf2-224de528a2d5"},"vehicle_type_id":"4","last_reported":1692547639,"current_range_meters":4000,"station_id":"ce4bh292rcd13ifvqdf0","pricing_plan_id":"free"},{"bike_id":"30447d81-01e6-4cae-964d-24655d181b54","system_id":"levelo_inurba_marseille","lat":43.295196,"lon":5.39397,"is_reserved":false,"is_disabled":false,"rental_uris":{"android":"levelo://app?vid=30447d81-01e6-4cae-964d-24655d181b54","ios":"levelo://app?vid=30447d81-01e6-4cae-964d-24655d181b54"},"vehicle_type_id":"4","last_reported":1692547639,"current_range_meters":12400,"station_id":"ce4bh292rcd13ifvqdf0","pricing_plan_id":"free"},{"bike_id":"88861fcf-895a-42cc-83ca-c60713a447a3","system_id":"levelo_inurba_marseille","lat":43.290345,"lon":5.38646,"is_reserved":false,"is_disabled":false,"rental_uris":{"android":"levelo://app?vid=88861fcf-895a-42cc-83ca-c60713a447a3","ios":"levelo://app?vid=88861fcf-895a-42cc-83ca-c60713a447a3"},"vehicle_type_id":"4","last_reported":1692547639,"current_range_meters":4800,"station_id":"ce4bh4p2rcd13ifvqe0g","pricing_plan_id":"free"},{"bike_id":"7da9e437-1e79-4b5f-9ab0-65254ac17dd7","system_id":"levelo_inurba_marseille","lat":43.31649,"lon":5.40442,"is_reserved":false,"is_disabled":false,"rental_uris":{"android":"levelo://app?vid=7da9e437-1e79-4b5f-9ab0-65254ac17dd7","ios":"levelo://app?vid=7da9e437-1e79-4b5f-9ab0-65254ac17dd7"},"vehicle_type_id":"4","last_reported":1692547639,"current_range_meters":21200,"station_id":"ce4bh012rcd13ifvqd00","pricing_plan_id":"free"},{"bike_id":"f7332ca4-25b2-46ed-9494-60f9e93f20ff","system_id":"levelo_inurba_marseille","lat":43.284538,"lon":5.358657,"is_reserved":false,"is_disabled":false,"rental_uris":{"android":"levelo://app?vid=f7332ca4-25b2-46ed-9494-60f9e93f20ff","ios":"levelo://app?vid=f7332ca4-25b2-46ed-9494-60f9e93f20ff"},"vehicle_type_id":"4","last_reported":1692547639,"current_range_meters":12400,"station_id":"ce4bhah2rcd13ifvqei0","pricing_plan_id":"free"},{"bike_id":"43596f5d-232a-4dbe-ac1b-19e54e49203c","system_id":"levelo_inurba_marseille","lat":43.294314,"lon":5.397498,"is_reserved":false,"is_disabled":false,"rental_uris":{"android":"levelo://app?vid=43596f5d-232a-4dbe-ac1b-19e54e49203c","ios":"levelo://app?vid=43596f5d-232a-4dbe-ac1b-19e54e49203c"},"vehicle_type_id":"4","last_reported":1692547639,"current_range_meters":0,"station_id":"ce4bh3h2rcd13ifvqdo0","pricing_plan_id":"free"},{"bike_id":"aeec6f1d-7d2d-46f0-9a2c-9c7e40a81198","system_id":"levelo_inurba_marseille","lat":43.28618,"lon":5.35107,"is_reserved":false,"is_disabled":false,"rental_uris":{"android":"levelo://app?vid=aeec6f1d-7d2d-46f0-9a2c-9c7e40a81198","ios":"levelo://app?vid=aeec6f1d-7d2d-46f0-9a2c-9c7e40a81198"},"vehicle_type_id":"4","last_reported":1692547639,"current_range_meters":31200,"station_id":"ce4bhch2rcd13ifvqeug","pricing_plan_id":"free"},{"bike_id":"3d0fd122-9d5f-4f34-9493-8b8e9ac20308","system_id":"levelo_inurba_marseille","lat":43.28618,"lon":5.35102,"is_reserved":false,"is_disabled":false,"rental_uris":{"android":"levelo://app?vid=3d0fd122-9d5f-4f34-9493-8b8e9ac20308","ios":"levelo://app?vid=3d0fd122-9d5f-4f34-9493-8b8e9ac20308"},"vehicle_type_id":"4","last_reported":1692547639,"current_range_meters":23200,"station_id":"ce4bhch2rcd13ifvqeug","pricing_plan_id":"free"},{"bike_id":"7e855419-c0c8-4c23-8cc9-ca84d516a601","system_id":"levelo_inurba_marseille","lat":43.28615,"lon":5.35106,"is_reserved":false,"is_disabled":false,"rental_uris":{"android":"levelo://app?vid=7e855419-c0c8-4c23-8cc9-ca84d516a601","ios":"levelo://app?vid=7e855419-c0c8-4c23-8cc9-ca84d516a601"},"vehicle_type_id":"4","last_reported":1692547639,"current_range_meters":0,"station_id":"ce4bhch2rcd13ifvqeug","pricing_plan_id":"free"},{"bike_id":"35eec3a1-aa54-4990-8eb4-78e6c0dd24d0","system_id":"levelo_inurba_marseille","lat":43.285856,"lon":5.350771,"is_reserved":false,"is_disabled":false,"rental_uris":{"android":"levelo://app?vid=35eec3a1-aa54-4990-8eb4-78e6c0dd24d0","ios":"levelo://app?vid=35eec3a1-aa54-4990-8eb4-78e6c0dd24d0"},"vehicle_type_id":"4","last_reported":1692547639,"current_range_meters":28800,"station_id":"ce4bhch2rcd13ifvqeug","pricing_plan_id":"free"},{"bike_id":"754acd05-cbe7-4047-ad52-0c77dd8f22a9","system_id":"levelo_inurba_marseille","lat":43.2861,"lon":5.3511,"is_reserved":false,"is_disabled":false,"rental_uris":{"android":"levelo://app?vid=754acd05-cbe7-4047-ad52-0c77dd8f22a9","ios":"levelo://app?vid=754acd05-cbe7-4047-ad52-0c77dd8f22a9"},"vehicle_type_id":"4","last_reported":1692547639,"current_range_meters":6800,"station_id":"ce4bhch2rcd13ifvqeug","pricing_plan_id":"free"},{"bike_id":"2363d3b5-6c15-401a-a59c-ee80bd4af927","system_id":"levelo_inurba_marseille","lat":43.28415,"lon":5.37522,"is_reserved":false,"is_disabled":false,"rental_uris":{"android":"levelo://app?vid=2363d3b5-6c15-401a-a59c-ee80bd4af927","ios":"levelo://app?vid=2363d3b5-6c15-401a-a59c-ee80bd4af927"},"vehicle_type_id":"4","last_reported":1692547639,"current_range_meters":16400,"station_id":"ce4bh412rcd13ifvqds0","pricing_plan_id":"free"},{"bike_id":"4458971a-1e42-4d51-8e96-a944048bc368","system_id":"levelo_inurba_marseille","lat":43.3372,"lon":5.39179,"is_reserved":false,"is_disabled":false,"rental_uris":{"android":"levelo://app?vid=4458971a-1e42-4d51-8e96-a944048bc368","ios":"levelo://app?vid=4458971a-1e42-4d51-8e96-a944048bc368"},"vehicle_type_id":"4","last_reported":1692547639,"current_range_meters":28000,"station_id":"ce4bhr92rcd13ifvqhsg","pricing_plan_id":"free"},{"bike_id":"2b3f06e0-8f2d-4133-9563-f19f57fe46e5","system_id":"levelo_inurba_marseille","lat":43.337168,"lon":5.391825,"is_reserved":false,"is_disabled":false,"rental_uris":{"android":"levelo://app?vid=2b3f06e0-8f2d-4133-9563-f19f57fe46e5","ios":"levelo://app?vid=2b3f06e0-8f2d-4133-9563-f19f57fe46e5"},"vehicle_type_id":"4","last_reported":1692547639,"current_range_meters":6000,"station_id":"ce4bhr92rcd13ifvqhsg","pricing_plan_id":"free"},{"bike_id":"17105054-6fd8-493b-b0be-1ed88688055c","system_id":"levelo_inurba_marseille","lat":43.337168,"lon":5.391825,"is_reserved":false,"is_disabled":false,"rental_uris":{"android":"levelo://app?vid=17105054-6fd8-493b-b0be-1ed88688055c","ios":"levelo://app?vid=17105054-6fd8-493b-b0be-1ed88688055c"},"vehicle_type_id":"4","last_reported":1692547639,"current_range_meters":25600,"station_id":"ce4bhr92rcd13ifvqhsg","pricing_plan_id":"free"},{"bike_id":"7d2969ab-a065-4a23-b19e-667095d799c9","system_id":"levelo_inurba_marseille","lat":43.33723,"lon":5.39182,"is_reserved":false,"is_disabled":false,"rental_uris":{"android":"levelo://app?vid=7d2969ab-a065-4a23-b19e-667095d799c9","ios":"levelo://app?vid=7d2969ab-a065-4a23-b19e-667095d799c9"},"vehicle_type_id":"4","last_reported":1692547639,"current_range_meters":6400,"station_id":"ce4bhr92rcd13ifvqhsg","pricing_plan_id":"free"},{"bike_id":"efe8b264-ad35-4139-b98d-40041f267f16","system_id":"levelo_inurba_marseille","lat":43.33722,"lon":5.39184,"is_reserved":false,"is_disabled":false,"rental_uris":{"android":"levelo://app?vid=efe8b264-ad35-4139-b98d-40041f267f16","ios":"levelo://app?vid=efe8b264-ad35-4139-b98d-40041f267f16"},"vehicle_type_id":"4","last_reported":1692547639,"current_range_meters":23200,"station_id":"ce4bhr92rcd13ifvqhsg","pricing_plan_id":"free"},{"bike_id":"72fc020d-a1d4-460a-a3d1-6187a1ea65d2","system_id":"levelo_inurba_marseille","lat":43.33724,"lon":5.39181,"is_reserved":false,"is_disabled":false,"rental_uris":{"android":"levelo://app?vid=72fc020d-a1d4-460a-a3d1-6187a1ea65d2","ios":"levelo://app?vid=72fc020d-a1d4-460a-a3d1-6187a1ea65d2"},"vehicle_type_id":"4","last_reported":1692547639,"current_range_meters":22800,"station_id":"ce4bhr92rcd13ifvqhsg","pricing_plan_id":"free"},{"bike_id":"97d0f90d-ac9d-480b-8250-a663b55e35e8","system_id":"levelo_inurba_marseille","lat":43.337168,"lon":5.391825,"is_reserved":false,"is_disabled":false,"rental_uris":{"android":"levelo://app?vid=97d0f90d-ac9d-480b-8250-a663b55e35e8","ios":"levelo://app?vid=97d0f90d-ac9d-480b-8250-a663b55e35e8"},"vehicle_type_id":"4","last_reported":1692547639,"current_range_meters":25200,"station_id":"ce4bhr92rcd13ifvqhsg","pricing_plan_id":"free"},{"bike_id":"12c0f407-4ac2-49d3-b1e8-783bd26a8644","system_id":"levelo_inurba_marseille","lat":43.33721,"lon":5.39191,"is_reserved":false,"is_disabled":false,"rental_uris":{"android":"levelo://app?vid=12c0f407-4ac2-49d3-b1e8-783bd26a8644","ios":"levelo://app?vid=12c0f407-4ac2-49d3-b1e8-783bd26a8644"},"vehicle_type_id":"4","last_reported":1692547639,"current_range_meters":24800,"station_id":"ce4bhr92rcd13ifvqhsg","pricing_plan_id":"free"},{"bike_id":"186ddf38-a5ca-44a9-9dd3-9bfe2a53544b","system_id":"levelo_inurba_marseille","lat":43.33727,"lon":5.39182,"is_reserved":false,"is_disabled":false,"rental_uris":{"android":"levelo://app?vid=186ddf38-a5ca-44a9-9dd3-9bfe2a53544b","ios":"levelo://app?vid=186ddf38-a5ca-44a9-9dd3-9bfe2a53544b"},"vehicle_type_id":"4","last_reported":1692547639,"current_range_meters":24800,"station_id":"ce4bhr92rcd13ifvqhsg","pricing_plan_id":"free"},{"bike_id":"3d3979f0-a28e-4760-847b-c6d9bae4866b","system_id":"levelo_inurba_marseille","lat":43.33729,"lon":5.39179,"is_reserved":false,"is_disabled":false,"rental_uris":{"android":"levelo://app?vid=3d3979f0-a28e-4760-847b-c6d9bae4866b","ios":"levelo://app?vid=3d3979f0-a28e-4760-847b-c6d9bae4866b"},"vehicle_type_id":"4","last_reported":1692547639,"current_range_meters":31200,"station_id":"ce4bhr92rcd13ifvqhsg","pricing_plan_id":"free"},{"bike_id":"c24cecf2-0503-470c-b3d3-fc37f377f710","system_id":"levelo_inurba_marseille","lat":43.33729,"lon":5.39183,"is_reserved":false,"is_disabled":false,"rental_uris":{"android":"levelo://app?vid=c24cecf2-0503-470c-b3d3-fc37f377f710","ios":"levelo://app?vid=c24cecf2-0503-470c-b3d3-fc37f377f710"},"vehicle_type_id":"4","last_reported":1692547639,"current_range_meters":24800,"station_id":"ce4bhr92rcd13ifvqhsg","pricing_plan_id":"free"},{"bike_id":"32109296-6a9d-490a-a989-74c7e872c278","system_id":"levelo_inurba_marseille","lat":43.323464,"lon":5.406297,"is_reserved":false,"is_disabled":false,"rental_uris":{"android":"levelo://app?vid=32109296-6a9d-490a-a989-74c7e872c278","ios":"levelo://app?vid=32109296-6a9d-490a-a989-74c7e872c278"},"vehicle_type_id":"4","last_reported":1692547639,"current_range_meters":17200,"station_id":"ce4bhq92rcd13ifvqhjg","pricing_plan_id":"free"},{"bike_id":"01f563c5-7ac0-4d44-b1b3-0549f3b949f3","system_id":"levelo_inurba_marseille","lat":43.3373,"lon":5.39184,"is_reserved":false,"is_disabled":false,"rental_uris":{"android":"levelo://app?vid=01f563c5-7ac0-4d44-b1b3-0549f3b949f3","ios":"levelo://app?vid=01f563c5-7ac0-4d44-b1b3-0549f3b949f3"},"vehicle_type_id":"4","last_reported":1692547639,"current_range_meters":25600,"station_id":"ce4bhr92rcd13ifvqhsg","pricing_plan_id":"free"},{"bike_id":"0dda2562-498f-4f90-abfb-f3c666db2d2e","system_id":"levelo_inurba_marseille","lat":43.33731,"lon":5.39184,"is_reserved":false,"is_disabled":false,"rental_uris":{"android":"levelo://app?vid=0dda2562-498f-4f90-abfb-f3c666db2d2e","ios":"levelo://app?vid=0dda2562-498f-4f90-abfb-f3c666db2d2e"},"vehicle_type_id":"4","last_reported":1692547639,"current_range_meters":19600,"station_id":"ce4bhr92rcd13ifvqhsg","pricing_plan_id":"free"},{"bike_id":"c33e2b8a-7d24-4369-9e60-e2e7e424aa86","system_id":"levelo_inurba_marseille","lat":43.323464,"lon":5.406297,"is_reserved":false,"is_disabled":false,"rental_uris":{"android":"levelo://app?vid=c33e2b8a-7d24-4369-9e60-e2e7e424aa86","ios":"levelo://app?vid=c33e2b8a-7d24-4369-9e60-e2e7e424aa86"},"vehicle_type_id":"4","last_reported":1692547639,"current_range_meters":20000,"station_id":"ce4bhq92rcd13ifvqhjg","pricing_plan_id":"free"},{"bike_id":"35e51cdd-0691-44df-be95-a6dd6fc17edd","system_id":"levelo_inurba_marseille","lat":43.33732,"lon":5.39186,"is_reserved":false,"is_disabled":false,"rental_uris":{"android":"levelo://app?vid=35e51cdd-0691-44df-be95-a6dd6fc17edd","ios":"levelo://app?vid=35e51cdd-0691-44df-be95-a6dd6fc17edd"},"vehicle_type_id":"4","last_reported":1692547639,"current_range_meters":14400,"station_id":"ce4bhr92rcd13ifvqhsg","pricing_plan_id":"free"},{"bike_id":"f24d321f-ba10-47bf-b834-145a0b92ec46","system_id":"levelo_inurba_marseille","lat":43.33732,"lon":5.39187,"is_reserved":false,"is_disabled":false,"rental_uris":{"android":"levelo://app?vid=f24d321f-ba10-47bf-b834-145a0b92ec46","ios":"levelo://app?vid=f24d321f-ba10-47bf-b834-145a0b92ec46"},"vehicle_type_id":"4","last_reported":1692547639,"current_range_meters":17600,"station_id":"ce4bhr92rcd13ifvqhsg","pricing_plan_id":"free"},{"bike_id":"443b79d5-ed1d-4abf-aef1-3d133f9dc09e","system_id":"levelo_inurba_marseille","lat":43.28483,"lon":5.38405,"is_reserved":false,"is_disabled":false,"rental_uris":{"android":"levelo://app?vid=443b79d5-ed1d-4abf-aef1-3d133f9dc09e","ios":"levelo://app?vid=443b79d5-ed1d-4abf-aef1-3d133f9dc09e"},"vehicle_type_id":"4","last_reported":1692547639,"current_range_meters":16000,"station_id":"ce4bh512rcd13ifvqe3g","pricing_plan_id":"free"},{"bike_id":"8bd09c71-02ae-4371-8b55-ce1e7e2bf2df","system_id":"levelo_inurba_marseille","lat":43.33733,"lon":5.39191,"is_reserved":false,"is_disabled":false,"rental_uris":{"android":"levelo://app?vid=8bd09c71-02ae-4371-8b55-ce1e7e2bf2df","ios":"levelo://app?vid=8bd09c71-02ae-4371-8b55-ce1e7e2bf2df"},"vehicle_type_id":"4","last_reported":1692547639,"current_range_meters":25600,"station_id":"ce4bhr92rcd13ifvqhsg","pricing_plan_id":"free"},{"bike_id":"02f29c2d-847e-4148-9200-bdb4c19acc46","system_id":"levelo_inurba_marseille","lat":43.33737,"lon":5.39188,"is_reserved":false,"is_disabled":false,"rental_uris":{"android":"levelo://app?vid=02f29c2d-847e-4148-9200-bdb4c19acc46","ios":"levelo://app?vid=02f29c2d-847e-4148-9200-bdb4c19acc46"},"vehicle_type_id":"4","last_reported":1692547639,"current_range_meters":25200,"station_id":"ce4bhr92rcd13ifvqhsg","pricing_plan_id":"free"},{"bike_id":"e45012d8-673a-4bd6-93d3-a427f767a00d","system_id":"levelo_inurba_marseille","lat":43.3374,"lon":5.39184,"is_reserved":false,"is_disabled":false,"rental_uris":{"android":"levelo://app?vid=e45012d8-673a-4bd6-93d3-a427f767a00d","ios":"levelo://app?vid=e45012d8-673a-4bd6-93d3-a427f767a00d"},"vehicle_type_id":"4","last_reported":1692547639,"current_range_meters":23600,"station_id":"ce4bhr92rcd13ifvqhsg","pricing_plan_id":"free"},{"bike_id":"ada18415-0660-40f5-9043-4e3f2c7c0777","system_id":"levelo_inurba_marseille","lat":43.28422,"lon":5.34999,"is_reserved":false,"is_disabled":false,"rental_uris":{"android":"levelo://app?vid=ada18415-0660-40f5-9043-4e3f2c7c0777","ios":"levelo://app?vid=ada18415-0660-40f5-9043-4e3f2c7c0777"},"vehicle_type_id":"4","last_reported":1692547639,"current_range_meters":14000,"station_id":"ce4bhbh2rcd13ifvqepg","pricing_plan_id":"free"},{"bike_id":"41af440f-a7d2-4210-92d2-be86f580e45c","system_id":"levelo_inurba_marseille","lat":43.28425,"lon":5.34983,"is_reserved":false,"is_disabled":false,"rental_uris":{"android":"levelo://app?vid=41af440f-a7d2-4210-92d2-be86f580e45c","ios":"levelo://app?vid=41af440f-a7d2-4210-92d2-be86f580e45c"},"vehicle_type_id":"4","last_reported":1692547639,"current_range_meters":22800,"station_id":"ce4bhbh2rcd13ifvqepg","pricing_plan_id":"free"},{"bike_id":"54fb8746-1870-4ec1-aa4a-5a06adfe8dd5","system_id":"levelo_inurba_marseille","lat":43.28426,"lon":5.34977,"is_reserved":false,"is_disabled":false,"rental_uris":{"android":"levelo://app?vid=54fb8746-1870-4ec1-aa4a-5a06adfe8dd5","ios":"levelo://app?vid=54fb8746-1870-4ec1-aa4a-5a06adfe8dd5"},"vehicle_type_id":"4","last_reported":1692547639,"current_range_meters":25600,"station_id":"ce4bhbh2rcd13ifvqepg","pricing_plan_id":"free"},{"bike_id":"d344a979-9bb2-4fb3-85e8-fa06e04956be","system_id":"levelo_inurba_marseille","lat":43.2842,"lon":5.34993,"is_reserved":false,"is_disabled":false,"rental_uris":{"android":"levelo://app?vid=d344a979-9bb2-4fb3-85e8-fa06e04956be","ios":"levelo://app?vid=d344a979-9bb2-4fb3-85e8-fa06e04956be"},"vehicle_type_id":"4","last_reported":1692547639,"current_range_meters":10400,"station_id":"ce4bhbh2rcd13ifvqepg","pricing_plan_id":"free"},{"bike_id":"ea36a31d-6e49-41f4-ab62-2cc1a46566f1","system_id":"levelo_inurba_marseille","lat":43.28418,"lon":5.34992,"is_reserved":false,"is_disabled":false,"rental_uris":{"android":"levelo://app?vid=ea36a31d-6e49-41f4-ab62-2cc1a46566f1","ios":"levelo://app?vid=ea36a31d-6e49-41f4-ab62-2cc1a46566f1"},"vehicle_type_id":"4","last_reported":1692547639,"current_range_meters":10800,"station_id":"ce4bhbh2rcd13ifvqepg","pricing_plan_id":"free"},{"bike_id":"a0b4d391-e169-4cb5-bd1c-90095e4e3a4e","system_id":"levelo_inurba_marseille","lat":43.284217,"lon":5.349697,"is_reserved":false,"is_disabled":false,"rental_uris":{"android":"levelo://app?vid=a0b4d391-e169-4cb5-bd1c-90095e4e3a4e","ios":"levelo://app?vid=a0b4d391-e169-4cb5-bd1c-90095e4e3a4e"},"vehicle_type_id":"4","last_reported":1692547639,"current_range_meters":25200,"station_id":"ce4bhbh2rcd13ifvqepg","pricing_plan_id":"free"},{"bike_id":"d469c425-9fe3-4880-bc9e-6ab171e4a129","system_id":"levelo_inurba_marseille","lat":43.284217,"lon":5.349697,"is_reserved":false,"is_disabled":false,"rental_uris":{"android":"levelo://app?vid=d469c425-9fe3-4880-bc9e-6ab171e4a129","ios":"levelo://app?vid=d469c425-9fe3-4880-bc9e-6ab171e4a129"},"vehicle_type_id":"4","last_reported":1692547639,"current_range_meters":30800,"station_id":"ce4bhbh2rcd13ifvqepg","pricing_plan_id":"free"},{"bike_id":"69c0bd72-2e06-4223-979f-ba3fda0bc6cb","system_id":"levelo_inurba_marseille","lat":43.28422,"lon":5.34974,"is_reserved":false,"is_disabled":false,"rental_uris":{"android":"levelo://app?vid=69c0bd72-2e06-4223-979f-ba3fda0bc6cb","ios":"levelo://app?vid=69c0bd72-2e06-4223-979f-ba3fda0bc6cb"},"vehicle_type_id":"4","last_reported":1692547639,"current_range_meters":16800,"station_id":"ce4bhbh2rcd13ifvqepg","pricing_plan_id":"free"},{"bike_id":"cbab3a93-0879-405f-8af0-54bff1d5bbc5","system_id":"levelo_inurba_marseille","lat":43.284217,"lon":5.349697,"is_reserved":false,"is_disabled":false,"rental_uris":{"android":"levelo://app?vid=cbab3a93-0879-405f-8af0-54bff1d5bbc5","ios":"levelo://app?vid=cbab3a93-0879-405f-8af0-54bff1d5bbc5"},"vehicle_type_id":"4","last_reported":1692547639,"current_range_meters":31200,"station_id":"ce4bhbh2rcd13ifvqepg","pricing_plan_id":"free"},{"bike_id":"37b97345-bb38-4380-85f0-abd290e71f27","system_id":"levelo_inurba_marseille","lat":43.28415,"lon":5.34993,"is_reserved":false,"is_disabled":false,"rental_uris":{"android":"levelo://app?vid=37b97345-bb38-4380-85f0-abd290e71f27","ios":"levelo://app?vid=37b97345-bb38-4380-85f0-abd290e71f27"},"vehicle_type_id":"4","last_reported":1692547639,"current_range_meters":31200,"station_id":"ce4bhbh2rcd13ifvqepg","pricing_plan_id":"free"},{"bike_id":"a31e86b3-ea18-43f9-b1f7-dd803fc797fc","system_id":"levelo_inurba_marseille","lat":43.28418,"lon":5.34983,"is_reserved":false,"is_disabled":false,"rental_uris":{"android":"levelo://app?vid=a31e86b3-ea18-43f9-b1f7-dd803fc797fc","ios":"levelo://app?vid=a31e86b3-ea18-43f9-b1f7-dd803fc797fc"},"vehicle_type_id":"4","last_reported":1692547639,"current_range_meters":23200,"station_id":"ce4bhbh2rcd13ifvqepg","pricing_plan_id":"free"},{"bike_id":"a778facd-db26-4d11-9924-c852e503cd99","system_id":"levelo_inurba_marseille","lat":43.28413,"lon":5.34993,"is_reserved":false,"is_disabled":false,"rental_uris":{"android":"levelo://app?vid=a778facd-db26-4d11-9924-c852e503cd99","ios":"levelo://app?vid=a778facd-db26-4d11-9924-c852e503cd99"},"vehicle_type_id":"4","last_reported":1692547639,"current_range_meters":20000,"station_id":"ce4bhbh2rcd13ifvqepg","pricing_plan_id":"free"},{"bike_id":"9e2cc02c-a705-4060-9eaf-1b318d132dda","system_id":"levelo_inurba_marseille","lat":43.284217,"lon":5.349697,"is_reserved":false,"is_disabled":false,"rental_uris":{"android":"levelo://app?vid=9e2cc02c-a705-4060-9eaf-1b318d132dda","ios":"levelo://app?vid=9e2cc02c-a705-4060-9eaf-1b318d132dda"},"vehicle_type_id":"4","last_reported":1692547639,"current_range_meters":25200,"station_id":"ce4bhbh2rcd13ifvqepg","pricing_plan_id":"free"},{"bike_id":"cb38a159-6ed3-4430-892d-95dc4c9f513a","system_id":"levelo_inurba_marseille","lat":43.28409,"lon":5.34993,"is_reserved":false,"is_disabled":false,"rental_uris":{"android":"levelo://app?vid=cb38a159-6ed3-4430-892d-95dc4c9f513a","ios":"levelo://app?vid=cb38a159-6ed3-4430-892d-95dc4c9f513a"},"vehicle_type_id":"4","last_reported":1692547639,"current_range_meters":17600,"station_id":"ce4bhbh2rcd13ifvqepg","pricing_plan_id":"free"},{"bike_id":"ec4a6107-e07e-4196-81c9-b3c612225b9b","system_id":"levelo_inurba_marseille","lat":43.28406,"lon":5.34983,"is_reserved":false,"is_disabled":false,"rental_uris":{"android":"levelo://app?vid=ec4a6107-e07e-4196-81c9-b3c612225b9b","ios":"levelo://app?vid=ec4a6107-e07e-4196-81c9-b3c612225b9b"},"vehicle_type_id":"4","last_reported":1692547639,"current_range_meters":14800,"station_id":"ce4bhbh2rcd13ifvqepg","pricing_plan_id":"free"},{"bike_id":"f50aca5f-cf5b-4020-925f-826a2e34874f","system_id":"levelo_inurba_marseille","lat":43.289363,"lon":5.396322,"is_reserved":false,"is_disabled":false,"rental_uris":{"android":"levelo://app?vid=f50aca5f-cf5b-4020-925f-826a2e34874f","ios":"levelo://app?vid=f50aca5f-cf5b-4020-925f-826a2e34874f"},"vehicle_type_id":"4","last_reported":1692547639,"current_range_meters":29600,"station_id":"ce4bh3h2rcd13ifvqdn0","pricing_plan_id":"free"},{"bike_id":"5cec26ac-344f-432b-af34-450b75305b9b","system_id":"levelo_inurba_marseille","lat":43.292724,"lon":5.401131,"is_reserved":false,"is_disabled":false,"rental_uris":{"android":"levelo://app?vid=5cec26ac-344f-432b-af34-450b75305b9b","ios":"levelo://app?vid=5cec26ac-344f-432b-af34-450b75305b9b"},"vehicle_type_id":"4","last_reported":1692547639,"current_range_meters":31200,"station_id":"ce4bh312rcd13ifvqdk0","pricing_plan_id":"free"},{"bike_id":"b034ba69-a764-4f4f-8988-008b6912a5a1","system_id":"levelo_inurba_marseille","lat":43.28277,"lon":5.35078,"is_reserved":false,"is_disabled":false,"rental_uris":{"android":"levelo://app?vid=b034ba69-a764-4f4f-8988-008b6912a5a1","ios":"levelo://app?vid=b034ba69-a764-4f4f-8988-008b6912a5a1"},"vehicle_type_id":"4","last_reported":1692547639,"current_range_meters":30800,"station_id":"ce4bhbp2rcd13ifvqerg","pricing_plan_id":"free"},{"bike_id":"7ec056a4-e8c5-4ec6-b6e5-9afc660d70f6","system_id":"levelo_inurba_marseille","lat":43.28281,"lon":5.35061,"is_reserved":false,"is_disabled":false,"rental_uris":{"android":"levelo://app?vid=7ec056a4-e8c5-4ec6-b6e5-9afc660d70f6","ios":"levelo://app?vid=7ec056a4-e8c5-4ec6-b6e5-9afc660d70f6"},"vehicle_type_id":"4","last_reported":1692547639,"current_range_meters":21200,"station_id":"ce4bhbp2rcd13ifvqerg","pricing_plan_id":"free"},{"bike_id":"bedb658f-d119-487e-9d67-92b8b9f1051d","system_id":"levelo_inurba_marseille","lat":43.282754,"lon":5.350519,"is_reserved":false,"is_disabled":false,"rental_uris":{"android":"levelo://app?vid=bedb658f-d119-487e-9d67-92b8b9f1051d","ios":"levelo://app?vid=bedb658f-d119-487e-9d67-92b8b9f1051d"},"vehicle_type_id":"4","last_reported":1692547639,"current_range_meters":7200,"station_id":"ce4bhbp2rcd13ifvqerg","pricing_plan_id":"free"},{"bike_id":"88940920-727e-47f8-bee6-24feedff1167","system_id":"levelo_inurba_marseille","lat":43.282744,"lon":5.350533,"is_reserved":false,"is_disabled":false,"rental_uris":{"android":"levelo://app?vid=88940920-727e-47f8-bee6-24feedff1167","ios":"levelo://app?vid=88940920-727e-47f8-bee6-24feedff1167"},"vehicle_type_id":"4","last_reported":1692547639,"current_range_meters":30000,"station_id":"ce4bhbp2rcd13ifvqerg","pricing_plan_id":"free"},{"bike_id":"3170b464-62f6-41a2-8ab4-664d83f27d2e","system_id":"levelo_inurba_marseille","lat":43.280382,"lon":5.369291,"is_reserved":false,"is_disabled":false,"rental_uris":{"android":"levelo://app?vid=3170b464-62f6-41a2-8ab4-664d83f27d2e","ios":"levelo://app?vid=3170b464-62f6-41a2-8ab4-664d83f27d2e"},"vehicle_type_id":"4","last_reported":1692547639,"current_range_meters":12400,"station_id":"ce4bha12rcd13ifvqef0","pricing_plan_id":"free"},{"bike_id":"b1300aa7-b017-4813-b579-bf37d1a48fc8","system_id":"levelo_inurba_marseille","lat":43.28039,"lon":5.36941,"is_reserved":false,"is_disabled":false,"rental_uris":{"android":"levelo://app?vid=b1300aa7-b017-4813-b579-bf37d1a48fc8","ios":"levelo://app?vid=b1300aa7-b017-4813-b579-bf37d1a48fc8"},"vehicle_type_id":"4","last_reported":1692547639,"current_range_meters":31200,"station_id":"ce4bha12rcd13ifvqef0","pricing_plan_id":"free"},{"bike_id":"9f46cfde-4f76-4076-bade-5765c2d3d473","system_id":"levelo_inurba_marseille","lat":43.28039,"lon":5.369297,"is_reserved":false,"is_disabled":false,"rental_uris":{"android":"levelo://app?vid=9f46cfde-4f76-4076-bade-5765c2d3d473","ios":"levelo://app?vid=9f46cfde-4f76-4076-bade-5765c2d3d473"},"vehicle_type_id":"4","last_reported":1692547639,"current_range_meters":31200,"station_id":"ce4bha12rcd13ifvqef0","pricing_plan_id":"free"},{"bike_id":"3b89722a-8c07-45ee-b446-d632046f5ba5","system_id":"levelo_inurba_marseille","lat":43.29041,"lon":5.399634,"is_reserved":false,"is_disabled":false,"rental_uris":{"android":"levelo://app?vid=3b89722a-8c07-45ee-b446-d632046f5ba5","ios":"levelo://app?vid=3b89722a-8c07-45ee-b446-d632046f5ba5"},"vehicle_type_id":"4","last_reported":1692547639,"current_range_meters":22800,"station_id":"ce4bh392rcd13ifvqdm0","pricing_plan_id":"free"},{"bike_id":"f8ef4f78-badc-40d1-a4a9-077301466e56","system_id":"levelo_inurba_marseille","lat":43.32662,"lon":5.40978,"is_reserved":false,"is_disabled":false,"rental_uris":{"android":"levelo://app?vid=f8ef4f78-badc-40d1-a4a9-077301466e56","ios":"levelo://app?vid=f8ef4f78-badc-40d1-a4a9-077301466e56"},"vehicle_type_id":"4","last_reported":1692547639,"current_range_meters":8800,"station_id":"ce4bhpp2rcd13ifvqhgg","pricing_plan_id":"free"},{"bike_id":"325c2e07-e3d2-4582-9864-6b2d0eb6ff59","system_id":"levelo_inurba_marseille","lat":43.287154,"lon":5.399979,"is_reserved":false,"is_disabled":false,"rental_uris":{"android":"levelo://app?vid=325c2e07-e3d2-4582-9864-6b2d0eb6ff59","ios":"levelo://app?vid=325c2e07-e3d2-4582-9864-6b2d0eb6ff59"},"vehicle_type_id":"4","last_reported":1692547639,"current_range_meters":16000,"station_id":"ce4bho92rcd13ifvqh3g","pricing_plan_id":"free"},{"bike_id":"c59e0eda-6e61-4e7f-9e96-d11afdab29ef","system_id":"levelo_inurba_marseille","lat":43.320045,"lon":5.415046,"is_reserved":false,"is_disabled":false,"rental_uris":{"android":"levelo://app?vid=c59e0eda-6e61-4e7f-9e96-d11afdab29ef","ios":"levelo://app?vid=c59e0eda-6e61-4e7f-9e96-d11afdab29ef"},"vehicle_type_id":"4","last_reported":1692547639,"current_range_meters":21600,"station_id":"ce4bhq92rcd13ifvqhkg","pricing_plan_id":"free"},{"bike_id":"c327718a-8fe6-4791-a349-aba0f8f94e82","system_id":"levelo_inurba_marseille","lat":43.279742,"lon":5.38744,"is_reserved":false,"is_disabled":false,"rental_uris":{"android":"levelo://app?vid=c327718a-8fe6-4791-a349-aba0f8f94e82","ios":"levelo://app?vid=c327718a-8fe6-4791-a349-aba0f8f94e82"},"vehicle_type_id":"4","last_reported":1692547639,"current_range_meters":25600,"station_id":"ce4bhg12rcd13ifvqf80","pricing_plan_id":"free"},{"bike_id":"60087fee-e1bc-4896-9319-3c8295ad4497","system_id":"levelo_inurba_marseille","lat":43.292569,"lon":5.409107,"is_reserved":false,"is_disabled":false,"rental_uris":{"android":"levelo://app?vid=60087fee-e1bc-4896-9319-3c8295ad4497","ios":"levelo://app?vid=60087fee-e1bc-4896-9319-3c8295ad4497"},"vehicle_type_id":"4","last_reported":1692547639,"current_range_meters":21200,"station_id":"ce4bh192rcd13ifvqdc0","pricing_plan_id":"free"},{"bike_id":"1e42ae91-7552-4cc9-9d1a-346a4e075329","system_id":"levelo_inurba_marseille","lat":43.292569,"lon":5.409107,"is_reserved":false,"is_disabled":false,"rental_uris":{"android":"levelo://app?vid=1e42ae91-7552-4cc9-9d1a-346a4e075329","ios":"levelo://app?vid=1e42ae91-7552-4cc9-9d1a-346a4e075329"},"vehicle_type_id":"4","last_reported":1692547639,"current_range_meters":5200,"station_id":"ce4bh192rcd13ifvqdc0","pricing_plan_id":"free"},{"bike_id":"c21ed464-0560-4cac-9b42-ae7e55236a42","system_id":"levelo_inurba_marseille","lat":43.292569,"lon":5.409107,"is_reserved":false,"is_disabled":false,"rental_uris":{"android":"levelo://app?vid=c21ed464-0560-4cac-9b42-ae7e55236a42","ios":"levelo://app?vid=c21ed464-0560-4cac-9b42-ae7e55236a42"},"vehicle_type_id":"4","last_reported":1692547639,"current_range_meters":8000,"station_id":"ce4bh192rcd13ifvqdc0","pricing_plan_id":"free"},{"bike_id":"eaa701bd-0a69-4b83-a84b-908ecd4724af","system_id":"levelo_inurba_marseille","lat":43.278401,"lon":5.392152,"is_reserved":false,"is_disabled":false,"rental_uris":{"android":"levelo://app?vid=eaa701bd-0a69-4b83-a84b-908ecd4724af","ios":"levelo://app?vid=eaa701bd-0a69-4b83-a84b-908ecd4724af"},"vehicle_type_id":"4","last_reported":1692547639,"current_range_meters":3200,"station_id":"ce4bhjp2rcd13ifvqga0","pricing_plan_id":"free"},{"bike_id":"757b2cdf-b087-4807-8332-5f213be06aa7","system_id":"levelo_inurba_marseille","lat":43.273613,"lon":5.362705,"is_reserved":false,"is_disabled":false,"rental_uris":{"android":"levelo://app?vid=757b2cdf-b087-4807-8332-5f213be06aa7","ios":"levelo://app?vid=757b2cdf-b087-4807-8332-5f213be06aa7"},"vehicle_type_id":"4","last_reported":1692547639,"current_range_meters":31600,"station_id":"ce4bhbh2rcd13ifvqeo0","pricing_plan_id":"free"},{"bike_id":"2ba06fb3-b9f4-47ba-b9a6-8cf0b4abcbae","system_id":"levelo_inurba_marseille","lat":43.273613,"lon":5.362705,"is_reserved":false,"is_disabled":false,"rental_uris":{"android":"levelo://app?vid=2ba06fb3-b9f4-47ba-b9a6-8cf0b4abcbae","ios":"levelo://app?vid=2ba06fb3-b9f4-47ba-b9a6-8cf0b4abcbae"},"vehicle_type_id":"4","last_reported":1692547639,"current_range_meters":31200,"station_id":"ce4bhbh2rcd13ifvqeo0","pricing_plan_id":"free"},{"bike_id":"f393f626-4d9d-4ec7-8db9-6f16143cd006","system_id":"levelo_inurba_marseille","lat":43.273613,"lon":5.362705,"is_reserved":false,"is_disabled":false,"rental_uris":{"android":"levelo://app?vid=f393f626-4d9d-4ec7-8db9-6f16143cd006","ios":"levelo://app?vid=f393f626-4d9d-4ec7-8db9-6f16143cd006"},"vehicle_type_id":"4","last_reported":1692547639,"current_range_meters":31200,"station_id":"ce4bhbh2rcd13ifvqeo0","pricing_plan_id":"free"},{"bike_id":"87751c2e-92ec-4f3b-b020-b5827f2266e4","system_id":"levelo_inurba_marseille","lat":43.273613,"lon":5.362705,"is_reserved":false,"is_disabled":false,"rental_uris":{"android":"levelo://app?vid=87751c2e-92ec-4f3b-b020-b5827f2266e4","ios":"levelo://app?vid=87751c2e-92ec-4f3b-b020-b5827f2266e4"},"vehicle_type_id":"4","last_reported":1692547639,"current_range_meters":31600,"station_id":"ce4bhbh2rcd13ifvqeo0","pricing_plan_id":"free"},{"bike_id":"be247c11-900d-4765-a370-e7adab8eb039","system_id":"levelo_inurba_marseille","lat":43.273609,"lon":5.362708,"is_reserved":false,"is_disabled":false,"rental_uris":{"android":"levelo://app?vid=be247c11-900d-4765-a370-e7adab8eb039","ios":"levelo://app?vid=be247c11-900d-4765-a370-e7adab8eb039"},"vehicle_type_id":"4","last_reported":1692547639,"current_range_meters":21600,"station_id":"ce4bhbh2rcd13ifvqeo0","pricing_plan_id":"free"},{"bike_id":"70bed432-7d5a-4975-8cf7-b27d2bcaeea6","system_id":"levelo_inurba_marseille","lat":43.273613,"lon":5.362705,"is_reserved":false,"is_disabled":false,"rental_uris":{"android":"levelo://app?vid=70bed432-7d5a-4975-8cf7-b27d2bcaeea6","ios":"levelo://app?vid=70bed432-7d5a-4975-8cf7-b27d2bcaeea6"},"vehicle_type_id":"4","last_reported":1692547639,"current_range_meters":26400,"station_id":"ce4bhbh2rcd13ifvqeo0","pricing_plan_id":"free"},{"bike_id":"b2712ce6-59b8-44f7-82f4-4de849670a35","system_id":"levelo_inurba_marseille","lat":43.273613,"lon":5.362705,"is_reserved":false,"is_disabled":false,"rental_uris":{"android":"levelo://app?vid=b2712ce6-59b8-44f7-82f4-4de849670a35","ios":"levelo://app?vid=b2712ce6-59b8-44f7-82f4-4de849670a35"},"vehicle_type_id":"4","last_reported":1692547639,"current_range_meters":31600,"station_id":"ce4bhbh2rcd13ifvqeo0","pricing_plan_id":"free"},{"bike_id":"785a7f8c-a4f3-485e-b832-981016d6c422","system_id":"levelo_inurba_marseille","lat":43.273613,"lon":5.362705,"is_reserved":false,"is_disabled":false,"rental_uris":{"android":"levelo://app?vid=785a7f8c-a4f3-485e-b832-981016d6c422","ios":"levelo://app?vid=785a7f8c-a4f3-485e-b832-981016d6c422"},"vehicle_type_id":"4","last_reported":1692547639,"current_range_meters":24800,"station_id":"ce4bhbh2rcd13ifvqeo0","pricing_plan_id":"free"},{"bike_id":"ca91fdb2-9f07-4464-8917-59cdd1bafcb0","system_id":"levelo_inurba_marseille","lat":43.27377,"lon":5.36238,"is_reserved":false,"is_disabled":false,"rental_uris":{"android":"levelo://app?vid=ca91fdb2-9f07-4464-8917-59cdd1bafcb0","ios":"levelo://app?vid=ca91fdb2-9f07-4464-8917-59cdd1bafcb0"},"vehicle_type_id":"4","last_reported":1692547639,"current_range_meters":31200,"station_id":"ce4bhbh2rcd13ifvqeo0","pricing_plan_id":"free"},{"bike_id":"32a721a2-51e2-4144-a680-a8dddb20bb6c","system_id":"levelo_inurba_marseille","lat":43.273613,"lon":5.362705,"is_reserved":false,"is_disabled":false,"rental_uris":{"android":"levelo://app?vid=32a721a2-51e2-4144-a680-a8dddb20bb6c","ios":"levelo://app?vid=32a721a2-51e2-4144-a680-a8dddb20bb6c"},"vehicle_type_id":"4","last_reported":1692547639,"current_range_meters":16400,"station_id":"ce4bhbh2rcd13ifvqeo0","pricing_plan_id":"free"},{"bike_id":"b1247e8e-cea6-4634-9713-bc433ae187a7","system_id":"levelo_inurba_marseille","lat":43.273609,"lon":5.362708,"is_reserved":false,"is_disabled":false,"rental_uris":{"android":"levelo://app?vid=b1247e8e-cea6-4634-9713-bc433ae187a7","ios":"levelo://app?vid=b1247e8e-cea6-4634-9713-bc433ae187a7"},"vehicle_type_id":"4","last_reported":1692547639,"current_range_meters":31200,"station_id":"ce4bhbh2rcd13ifvqeo0","pricing_plan_id":"free"},{"bike_id":"14251694-5f0e-4841-b57e-311fb4cfa8d9","system_id":"levelo_inurba_marseille","lat":43.273613,"lon":5.362705,"is_reserved":false,"is_disabled":false,"rental_uris":{"android":"levelo://app?vid=14251694-5f0e-4841-b57e-311fb4cfa8d9","ios":"levelo://app?vid=14251694-5f0e-4841-b57e-311fb4cfa8d9"},"vehicle_type_id":"4","last_reported":1692547639,"current_range_meters":31600,"station_id":"ce4bhbh2rcd13ifvqeo0","pricing_plan_id":"free"},{"bike_id":"a2839f06-1dd0-4278-b376-9fc8a4d33ba3","system_id":"levelo_inurba_marseille","lat":43.273609,"lon":5.362708,"is_reserved":false,"is_disabled":false,"rental_uris":{"android":"levelo://app?vid=a2839f06-1dd0-4278-b376-9fc8a4d33ba3","ios":"levelo://app?vid=a2839f06-1dd0-4278-b376-9fc8a4d33ba3"},"vehicle_type_id":"4","last_reported":1692547639,"current_range_meters":31200,"station_id":"ce4bhbh2rcd13ifvqeo0","pricing_plan_id":"free"},{"bike_id":"35d269bd-0f83-4870-a0a4-30165806870f","system_id":"levelo_inurba_marseille","lat":43.273609,"lon":5.362708,"is_reserved":false,"is_disabled":false,"rental_uris":{"android":"levelo://app?vid=35d269bd-0f83-4870-a0a4-30165806870f","ios":"levelo://app?vid=35d269bd-0f83-4870-a0a4-30165806870f"},"vehicle_type_id":"4","last_reported":1692547639,"current_range_meters":23600,"station_id":"ce4bhbh2rcd13ifvqeo0","pricing_plan_id":"free"},{"bike_id":"d8ed17e3-0405-401f-aaa3-3eb01aaa1b27","system_id":"levelo_inurba_marseille","lat":43.273609,"lon":5.362708,"is_reserved":false,"is_disabled":false,"rental_uris":{"android":"levelo://app?vid=d8ed17e3-0405-401f-aaa3-3eb01aaa1b27","ios":"levelo://app?vid=d8ed17e3-0405-401f-aaa3-3eb01aaa1b27"},"vehicle_type_id":"4","last_reported":1692547639,"current_range_meters":31600,"station_id":"ce4bhbh2rcd13ifvqeo0","pricing_plan_id":"free"},{"bike_id":"2f1590b7-092d-48c4-a8ff-35dee2d14ecf","system_id":"levelo_inurba_marseille","lat":43.2737,"lon":5.36264,"is_reserved":false,"is_disabled":false,"rental_uris":{"android":"levelo://app?vid=2f1590b7-092d-48c4-a8ff-35dee2d14ecf","ios":"levelo://app?vid=2f1590b7-092d-48c4-a8ff-35dee2d14ecf"},"vehicle_type_id":"4","last_reported":1692547639,"current_range_meters":1200,"station_id":"ce4bhbh2rcd13ifvqeo0","pricing_plan_id":"free"},{"bike_id":"bd6424dc-eb2c-457b-bfe5-529bfe26598c","system_id":"levelo_inurba_marseille","lat":43.273613,"lon":5.362705,"is_reserved":false,"is_disabled":false,"rental_uris":{"android":"levelo://app?vid=bd6424dc-eb2c-457b-bfe5-529bfe26598c","ios":"levelo://app?vid=bd6424dc-eb2c-457b-bfe5-529bfe26598c"},"vehicle_type_id":"4","last_reported":1692547639,"current_range_meters":31600,"station_id":"ce4bhbh2rcd13ifvqeo0","pricing_plan_id":"free"},{"bike_id":"0692863e-62a7-429f-9f01-78b5a0a2c0f4","system_id":"levelo_inurba_marseille","lat":43.33612,"lon":5.410321,"is_reserved":false,"is_disabled":false,"rental_uris":{"android":"levelo://app?vid=0692863e-62a7-429f-9f01-78b5a0a2c0f4","ios":"levelo://app?vid=0692863e-62a7-429f-9f01-78b5a0a2c0f4"},"vehicle_type_id":"4","last_reported":1692547639,"current_range_meters":31200,"station_id":"ce4bhqh2rcd13ifvqhmg","pricing_plan_id":"free"},{"bike_id":"9892a06b-19e7-4aaa-96bb-95c3d8ae1830","system_id":"levelo_inurba_marseille","lat":43.33616,"lon":5.41027,"is_reserved":false,"is_disabled":false,"rental_uris":{"android":"levelo://app?vid=9892a06b-19e7-4aaa-96bb-95c3d8ae1830","ios":"levelo://app?vid=9892a06b-19e7-4aaa-96bb-95c3d8ae1830"},"vehicle_type_id":"4","last_reported":1692547639,"current_range_meters":28400,"station_id":"ce4bhqh2rcd13ifvqhmg","pricing_plan_id":"free"},{"bike_id":"32bc635d-08e0-44ee-abf1-abf1b00336ce","system_id":"levelo_inurba_marseille","lat":43.33617,"lon":5.41029,"is_reserved":false,"is_disabled":false,"rental_uris":{"android":"levelo://app?vid=32bc635d-08e0-44ee-abf1-abf1b00336ce","ios":"levelo://app?vid=32bc635d-08e0-44ee-abf1-abf1b00336ce"},"vehicle_type_id":"4","last_reported":1692547639,"current_range_meters":30000,"station_id":"ce4bhqh2rcd13ifvqhmg","pricing_plan_id":"free"},{"bike_id":"2c002134-e4d2-41d1-b436-28e8e2ea24ca","system_id":"levelo_inurba_marseille","lat":43.276771,"lon":5.388799,"is_reserved":false,"is_disabled":false,"rental_uris":{"android":"levelo://app?vid=2c002134-e4d2-41d1-b436-28e8e2ea24ca","ios":"levelo://app?vid=2c002134-e4d2-41d1-b436-28e8e2ea24ca"},"vehicle_type_id":"4","last_reported":1692547639,"current_range_meters":30000,"station_id":"ce4bhi12rcd13ifvqfo0","pricing_plan_id":"free"},{"bike_id":"9e8c80ef-012f-4cc6-aff5-713a37dd02ab","system_id":"levelo_inurba_marseille","lat":43.317121,"lon":5.423936,"is_reserved":false,"is_disabled":false,"rental_uris":{"android":"levelo://app?vid=9e8c80ef-012f-4cc6-aff5-713a37dd02ab","ios":"levelo://app?vid=9e8c80ef-012f-4cc6-aff5-713a37dd02ab"},"vehicle_type_id":"4","last_reported":1692547639,"current_range_meters":26000,"station_id":"ce4bhp92rcd13ifvqhbg","pricing_plan_id":"free"},{"bike_id":"863588e3-6441-4bcd-86b3-006e50e31955","system_id":"levelo_inurba_marseille","lat":43.310785,"lon":5.424305,"is_reserved":false,"is_disabled":false,"rental_uris":{"android":"levelo://app?vid=863588e3-6441-4bcd-86b3-006e50e31955","ios":"levelo://app?vid=863588e3-6441-4bcd-86b3-006e50e31955"},"vehicle_type_id":"4","last_reported":1692547639,"current_range_meters":31200,"station_id":"ce4bhp92rcd13ifvqhag","pricing_plan_id":"free"},{"bike_id":"0df1650d-4cc8-48a6-81c9-811c27a4f885","system_id":"levelo_inurba_marseille","lat":43.317121,"lon":5.423936,"is_reserved":false,"is_disabled":false,"rental_uris":{"android":"levelo://app?vid=0df1650d-4cc8-48a6-81c9-811c27a4f885","ios":"levelo://app?vid=0df1650d-4cc8-48a6-81c9-811c27a4f885"},"vehicle_type_id":"4","last_reported":1692547639,"current_range_meters":28000,"station_id":"ce4bhp92rcd13ifvqhbg","pricing_plan_id":"free"},{"bike_id":"cd48905a-f6b4-418b-8fb2-d2bb72fc8d26","system_id":"levelo_inurba_marseille","lat":43.310785,"lon":5.424305,"is_reserved":false,"is_disabled":false,"rental_uris":{"android":"levelo://app?vid=cd48905a-f6b4-418b-8fb2-d2bb72fc8d26","ios":"levelo://app?vid=cd48905a-f6b4-418b-8fb2-d2bb72fc8d26"},"vehicle_type_id":"4","last_reported":1692547639,"current_range_meters":6000,"station_id":"ce4bhp92rcd13ifvqhag","pricing_plan_id":"free"},{"bike_id":"e42fb4a1-9d15-4ef3-b5c7-db63758c81c8","system_id":"levelo_inurba_marseille","lat":43.310785,"lon":5.424305,"is_reserved":false,"is_disabled":false,"rental_uris":{"android":"levelo://app?vid=e42fb4a1-9d15-4ef3-b5c7-db63758c81c8","ios":"levelo://app?vid=e42fb4a1-9d15-4ef3-b5c7-db63758c81c8"},"vehicle_type_id":"4","last_reported":1692547639,"current_range_meters":13600,"station_id":"ce4bhp92rcd13ifvqhag","pricing_plan_id":"free"},{"bike_id":"83d15515-e803-4385-8191-b0e90955240d","system_id":"levelo_inurba_marseille","lat":43.341443,"lon":5.409037,"is_reserved":false,"is_disabled":false,"rental_uris":{"android":"levelo://app?vid=83d15515-e803-4385-8191-b0e90955240d","ios":"levelo://app?vid=83d15515-e803-4385-8191-b0e90955240d"},"vehicle_type_id":"4","last_reported":1692547639,"current_range_meters":23200,"station_id":"ce4bhqh2rcd13ifvqhlg","pricing_plan_id":"free"},{"bike_id":"9efa1e9b-79c9-440a-b8b9-1506ca12e70d","system_id":"levelo_inurba_marseille","lat":43.34146,"lon":5.40917,"is_reserved":false,"is_disabled":false,"rental_uris":{"android":"levelo://app?vid=9efa1e9b-79c9-440a-b8b9-1506ca12e70d","ios":"levelo://app?vid=9efa1e9b-79c9-440a-b8b9-1506ca12e70d"},"vehicle_type_id":"4","last_reported":1692547639,"current_range_meters":6800,"station_id":"ce4bhqh2rcd13ifvqhlg","pricing_plan_id":"free"},{"bike_id":"de01904b-25a2-4210-ba88-fdedf75c3548","system_id":"levelo_inurba_marseille","lat":43.273125,"lon":5.390731,"is_reserved":false,"is_disabled":false,"rental_uris":{"android":"levelo://app?vid=de01904b-25a2-4210-ba88-fdedf75c3548","ios":"levelo://app?vid=de01904b-25a2-4210-ba88-fdedf75c3548"},"vehicle_type_id":"4","last_reported":1692547639,"current_range_meters":8400,"station_id":"ce4bhgp2rcd13ifvqfe0","pricing_plan_id":"free"},{"bike_id":"78f10e5c-29a6-427e-9ced-76be439acc72","system_id":"levelo_inurba_marseille","lat":43.274099,"lon":5.394019,"is_reserved":false,"is_disabled":false,"rental_uris":{"android":"levelo://app?vid=78f10e5c-29a6-427e-9ced-76be439acc72","ios":"levelo://app?vid=78f10e5c-29a6-427e-9ced-76be439acc72"},"vehicle_type_id":"4","last_reported":1692547639,"current_range_meters":28800,"station_id":"ce4bhdp2rcd13ifvqf20","pricing_plan_id":"free"},{"bike_id":"30fd415c-9086-4453-af72-22116dc4fad2","system_id":"levelo_inurba_marseille","lat":43.274099,"lon":5.394019,"is_reserved":false,"is_disabled":false,"rental_uris":{"android":"levelo://app?vid=30fd415c-9086-4453-af72-22116dc4fad2","ios":"levelo://app?vid=30fd415c-9086-4453-af72-22116dc4fad2"},"vehicle_type_id":"4","last_reported":1692547639,"current_range_meters":19600,"station_id":"ce4bhdp2rcd13ifvqf20","pricing_plan_id":"free"},{"bike_id":"2229015e-48e8-461b-b7db-08c9984d5650","system_id":"levelo_inurba_marseille","lat":43.29561,"lon":5.42271,"is_reserved":false,"is_disabled":false,"rental_uris":{"android":"levelo://app?vid=2229015e-48e8-461b-b7db-08c9984d5650","ios":"levelo://app?vid=2229015e-48e8-461b-b7db-08c9984d5650"},"vehicle_type_id":"4","last_reported":1692547639,"current_range_meters":0,"station_id":"ce4bhph2rcd13ifvqhdg","pricing_plan_id":"free"},{"bike_id":"5e81b1b2-6d83-49a9-98bc-74bc73635a28","system_id":"levelo_inurba_marseille","lat":43.295511,"lon":5.422926,"is_reserved":false,"is_disabled":false,"rental_uris":{"android":"levelo://app?vid=5e81b1b2-6d83-49a9-98bc-74bc73635a28","ios":"levelo://app?vid=5e81b1b2-6d83-49a9-98bc-74bc73635a28"},"vehicle_type_id":"4","last_reported":1692547639,"current_range_meters":3200,"station_id":"ce4bhph2rcd13ifvqhdg","pricing_plan_id":"free"},{"bike_id":"98291535-2827-499f-ac51-f41f2d2bb8cf","system_id":"levelo_inurba_marseille","lat":43.272118,"lon":5.391758,"is_reserved":false,"is_disabled":false,"rental_uris":{"android":"levelo://app?vid=98291535-2827-499f-ac51-f41f2d2bb8cf","ios":"levelo://app?vid=98291535-2827-499f-ac51-f41f2d2bb8cf"},"vehicle_type_id":"4","last_reported":1692547639,"current_range_meters":30000,"station_id":"ce4bhhp2rcd13ifvqfm0","pricing_plan_id":"free"},{"bike_id":"5ed287a8-74f5-496b-be65-a37fb932da8d","system_id":"levelo_inurba_marseille","lat":43.269467,"lon":5.386439,"is_reserved":false,"is_disabled":false,"rental_uris":{"android":"levelo://app?vid=5ed287a8-74f5-496b-be65-a37fb932da8d","ios":"levelo://app?vid=5ed287a8-74f5-496b-be65-a37fb932da8d"},"vehicle_type_id":"4","last_reported":1692547639,"current_range_meters":15600,"station_id":"ce4bhh92rcd13ifvqfh0","pricing_plan_id":"free"},{"bike_id":"15966216-e791-4003-b745-6fbc3b981bf5","system_id":"levelo_inurba_marseille","lat":43.269467,"lon":5.386439,"is_reserved":false,"is_disabled":false,"rental_uris":{"android":"levelo://app?vid=15966216-e791-4003-b745-6fbc3b981bf5","ios":"levelo://app?vid=15966216-e791-4003-b745-6fbc3b981bf5"},"vehicle_type_id":"4","last_reported":1692547639,"current_range_meters":28000,"station_id":"ce4bhh92rcd13ifvqfh0","pricing_plan_id":"free"},{"bike_id":"6c719c22-5b92-4c95-8162-3dca5ac74fbe","system_id":"levelo_inurba_marseille","lat":43.269319,"lon":5.389397,"is_reserved":false,"is_disabled":false,"rental_uris":{"android":"levelo://app?vid=6c719c22-5b92-4c95-8162-3dca5ac74fbe","ios":"levelo://app?vid=6c719c22-5b92-4c95-8162-3dca5ac74fbe"},"vehicle_type_id":"4","last_reported":1692547639,"current_range_meters":10400,"station_id":"ce4bhhh2rcd13ifvqfl0","pricing_plan_id":"free"},{"bike_id":"509575bc-0ba1-4629-9309-676066a5db0b","system_id":"levelo_inurba_marseille","lat":43.269319,"lon":5.389397,"is_reserved":false,"is_disabled":false,"rental_uris":{"android":"levelo://app?vid=509575bc-0ba1-4629-9309-676066a5db0b","ios":"levelo://app?vid=509575bc-0ba1-4629-9309-676066a5db0b"},"vehicle_type_id":"4","last_reported":1692547639,"current_range_meters":14800,"station_id":"ce4bhhh2rcd13ifvqfl0","pricing_plan_id":"free"},{"bike_id":"86bbfc7c-28e0-43d2-b7ac-926ef0b590eb","system_id":"levelo_inurba_marseille","lat":43.26681,"lon":5.38271,"is_reserved":false,"is_disabled":false,"rental_uris":{"android":"levelo://app?vid=86bbfc7c-28e0-43d2-b7ac-926ef0b590eb","ios":"levelo://app?vid=86bbfc7c-28e0-43d2-b7ac-926ef0b590eb"},"vehicle_type_id":"4","last_reported":1692547639,"current_range_meters":7600,"station_id":"ce4bhg92rcd13ifvqf90","pricing_plan_id":"free"},{"bike_id":"6a33d5cc-3a31-4994-b401-9541229188f3","system_id":"levelo_inurba_marseille","lat":43.27996,"lon":5.4166,"is_reserved":false,"is_disabled":false,"rental_uris":{"android":"levelo://app?vid=6a33d5cc-3a31-4994-b401-9541229188f3","ios":"levelo://app?vid=6a33d5cc-3a31-4994-b401-9541229188f3"},"vehicle_type_id":"4","last_reported":1692547639,"current_range_meters":31200,"station_id":"ce4bho12rcd13ifvqh1g","pricing_plan_id":"free"},{"bike_id":"6362a2b1-878c-48e7-91ca-3a1822bc3907","system_id":"levelo_inurba_marseille","lat":43.28,"lon":5.41666,"is_reserved":false,"is_disabled":false,"rental_uris":{"android":"levelo://app?vid=6362a2b1-878c-48e7-91ca-3a1822bc3907","ios":"levelo://app?vid=6362a2b1-878c-48e7-91ca-3a1822bc3907"},"vehicle_type_id":"4","last_reported":1692547639,"current_range_meters":31200,"station_id":"ce4bho12rcd13ifvqh1g","pricing_plan_id":"free"},{"bike_id":"b1a20378-3751-4e85-a57e-fae423e29109","system_id":"levelo_inurba_marseille","lat":43.27991,"lon":5.41659,"is_reserved":false,"is_disabled":false,"rental_uris":{"android":"levelo://app?vid=b1a20378-3751-4e85-a57e-fae423e29109","ios":"levelo://app?vid=b1a20378-3751-4e85-a57e-fae423e29109"},"vehicle_type_id":"4","last_reported":1692547639,"current_range_meters":6400,"station_id":"ce4bho12rcd13ifvqh1g","pricing_plan_id":"free"},{"bike_id":"ca9142ba-0698-4048-9e98-203284c4751c","system_id":"levelo_inurba_marseille","lat":43.27985,"lon":5.41659,"is_reserved":false,"is_disabled":false,"rental_uris":{"android":"levelo://app?vid=ca9142ba-0698-4048-9e98-203284c4751c","ios":"levelo://app?vid=ca9142ba-0698-4048-9e98-203284c4751c"},"vehicle_type_id":"4","last_reported":1692547639,"current_range_meters":30800,"station_id":"ce4bho12rcd13ifvqh1g","pricing_plan_id":"free"},{"bike_id":"6c3b0762-7f2c-4494-8827-a10476861fc5","system_id":"levelo_inurba_marseille","lat":43.267966,"lon":5.393976,"is_reserved":false,"is_disabled":false,"rental_uris":{"android":"levelo://app?vid=6c3b0762-7f2c-4494-8827-a10476861fc5","ios":"levelo://app?vid=6c3b0762-7f2c-4494-8827-a10476861fc5"},"vehicle_type_id":"4","last_reported":1692547639,"current_range_meters":16400,"station_id":"ce4bhh12rcd13ifvqfg0","pricing_plan_id":"free"},{"bike_id":"6ae573b8-68fd-40d8-bc25-49065c766c51","system_id":"levelo_inurba_marseille","lat":43.267966,"lon":5.393976,"is_reserved":false,"is_disabled":false,"rental_uris":{"android":"levelo://app?vid=6ae573b8-68fd-40d8-bc25-49065c766c51","ios":"levelo://app?vid=6ae573b8-68fd-40d8-bc25-49065c766c51"},"vehicle_type_id":"4","last_reported":1692547639,"current_range_meters":4000,"station_id":"ce4bhh12rcd13ifvqfg0","pricing_plan_id":"free"},{"bike_id":"180c9060-06e2-429d-999a-39a6ce9d0e22","system_id":"levelo_inurba_marseille","lat":43.30801,"lon":5.43522,"is_reserved":false,"is_disabled":false,"rental_uris":{"android":"levelo://app?vid=180c9060-06e2-429d-999a-39a6ce9d0e22","ios":"levelo://app?vid=180c9060-06e2-429d-999a-39a6ce9d0e22"},"vehicle_type_id":"4","last_reported":1692547639,"current_range_meters":28400,"station_id":"ce4bhph2rcd13ifvqheg","pricing_plan_id":"free"},{"bike_id":"432b68d2-d84a-4b43-a006-37fddfe7b563","system_id":"levelo_inurba_marseille","lat":43.308051,"lon":5.43527,"is_reserved":false,"is_disabled":false,"rental_uris":{"android":"levelo://app?vid=432b68d2-d84a-4b43-a006-37fddfe7b563","ios":"levelo://app?vid=432b68d2-d84a-4b43-a006-37fddfe7b563"},"vehicle_type_id":"4","last_reported":1692547639,"current_range_meters":22800,"station_id":"ce4bhph2rcd13ifvqheg","pricing_plan_id":"free"},{"bike_id":"bd8e7e67-6de4-4aa0-8447-5ec167a09a4f","system_id":"levelo_inurba_marseille","lat":43.26196,"lon":5.37441,"is_reserved":false,"is_disabled":false,"rental_uris":{"android":"levelo://app?vid=bd8e7e67-6de4-4aa0-8447-5ec167a09a4f","ios":"levelo://app?vid=bd8e7e67-6de4-4aa0-8447-5ec167a09a4f"},"vehicle_type_id":"4","last_reported":1692547639,"current_range_meters":11600,"station_id":"ce4bhgp2rcd13ifvqfc0","pricing_plan_id":"free"},{"bike_id":"25f466a5-2bdf-4924-a885-d23d9c519fee","system_id":"levelo_inurba_marseille","lat":43.26193,"lon":5.37442,"is_reserved":false,"is_disabled":false,"rental_uris":{"android":"levelo://app?vid=25f466a5-2bdf-4924-a885-d23d9c519fee","ios":"levelo://app?vid=25f466a5-2bdf-4924-a885-d23d9c519fee"},"vehicle_type_id":"4","last_reported":1692547639,"current_range_meters":13600,"station_id":"ce4bhgp2rcd13ifvqfc0","pricing_plan_id":"free"},{"bike_id":"6abd5e91-eef9-447a-aeb4-9d49b5db7abd","system_id":"levelo_inurba_marseille","lat":43.26192,"lon":5.37438,"is_reserved":false,"is_disabled":false,"rental_uris":{"android":"levelo://app?vid=6abd5e91-eef9-447a-aeb4-9d49b5db7abd","ios":"levelo://app?vid=6abd5e91-eef9-447a-aeb4-9d49b5db7abd"},"vehicle_type_id":"4","last_reported":1692547639,"current_range_meters":24000,"station_id":"ce4bhgp2rcd13ifvqfc0","pricing_plan_id":"free"},{"bike_id":"d187ea7e-9926-45b5-86ed-edbee2a98a58","system_id":"levelo_inurba_marseille","lat":43.26192,"lon":5.37442,"is_reserved":false,"is_disabled":false,"rental_uris":{"android":"levelo://app?vid=d187ea7e-9926-45b5-86ed-edbee2a98a58","ios":"levelo://app?vid=d187ea7e-9926-45b5-86ed-edbee2a98a58"},"vehicle_type_id":"4","last_reported":1692547639,"current_range_meters":12800,"station_id":"ce4bhgp2rcd13ifvqfc0","pricing_plan_id":"free"},{"bike_id":"ccf49476-825f-453e-850d-332430ac7a2d","system_id":"levelo_inurba_marseille","lat":43.26191,"lon":5.37442,"is_reserved":false,"is_disabled":false,"rental_uris":{"android":"levelo://app?vid=ccf49476-825f-453e-850d-332430ac7a2d","ios":"levelo://app?vid=ccf49476-825f-453e-850d-332430ac7a2d"},"vehicle_type_id":"4","last_reported":1692547639,"current_range_meters":14000,"station_id":"ce4bhgp2rcd13ifvqfc0","pricing_plan_id":"free"},{"bike_id":"621e32f8-e09e-422e-b9fd-97c76ca0b642","system_id":"levelo_inurba_marseille","lat":43.261782,"lon":5.374515,"is_reserved":false,"is_disabled":false,"rental_uris":{"android":"levelo://app?vid=621e32f8-e09e-422e-b9fd-97c76ca0b642","ios":"levelo://app?vid=621e32f8-e09e-422e-b9fd-97c76ca0b642"},"vehicle_type_id":"4","last_reported":1692547639,"current_range_meters":29200,"station_id":"ce4bhgp2rcd13ifvqfc0","pricing_plan_id":"free"},{"bike_id":"b4ee9ae0-ac2a-4016-b4c5-1619d81f20fe","system_id":"levelo_inurba_marseille","lat":43.261782,"lon":5.374515,"is_reserved":false,"is_disabled":false,"rental_uris":{"android":"levelo://app?vid=b4ee9ae0-ac2a-4016-b4c5-1619d81f20fe","ios":"levelo://app?vid=b4ee9ae0-ac2a-4016-b4c5-1619d81f20fe"},"vehicle_type_id":"4","last_reported":1692547639,"current_range_meters":28400,"station_id":"ce4bhgp2rcd13ifvqfc0","pricing_plan_id":"free"},{"bike_id":"8922674b-70b6-4c9b-a88c-f3e281ba6175","system_id":"levelo_inurba_marseille","lat":43.2619,"lon":5.37444,"is_reserved":false,"is_disabled":false,"rental_uris":{"android":"levelo://app?vid=8922674b-70b6-4c9b-a88c-f3e281ba6175","ios":"levelo://app?vid=8922674b-70b6-4c9b-a88c-f3e281ba6175"},"vehicle_type_id":"4","last_reported":1692547639,"current_range_meters":31200,"station_id":"ce4bhgp2rcd13ifvqfc0","pricing_plan_id":"free"},{"bike_id":"6d7bc55b-f965-4425-b1bf-95a94e846347","system_id":"levelo_inurba_marseille","lat":43.26189,"lon":5.37442,"is_reserved":false,"is_disabled":false,"rental_uris":{"android":"levelo://app?vid=6d7bc55b-f965-4425-b1bf-95a94e846347","ios":"levelo://app?vid=6d7bc55b-f965-4425-b1bf-95a94e846347"},"vehicle_type_id":"4","last_reported":1692547639,"current_range_meters":23200,"station_id":"ce4bhgp2rcd13ifvqfc0","pricing_plan_id":"free"},{"bike_id":"119e7da2-8f89-4122-8ab8-060fd84db87a","system_id":"levelo_inurba_marseille","lat":43.261782,"lon":5.374515,"is_reserved":false,"is_disabled":false,"rental_uris":{"android":"levelo://app?vid=119e7da2-8f89-4122-8ab8-060fd84db87a","ios":"levelo://app?vid=119e7da2-8f89-4122-8ab8-060fd84db87a"},"vehicle_type_id":"4","last_reported":1692547639,"current_range_meters":30400,"station_id":"ce4bhgp2rcd13ifvqfc0","pricing_plan_id":"free"},{"bike_id":"1db34f98-02d4-4b1b-b677-c5b95e32a81a","system_id":"levelo_inurba_marseille","lat":43.26189,"lon":5.37446,"is_reserved":false,"is_disabled":false,"rental_uris":{"android":"levelo://app?vid=1db34f98-02d4-4b1b-b677-c5b95e32a81a","ios":"levelo://app?vid=1db34f98-02d4-4b1b-b677-c5b95e32a81a"},"vehicle_type_id":"4","last_reported":1692547639,"current_range_meters":31200,"station_id":"ce4bhgp2rcd13ifvqfc0","pricing_plan_id":"free"},{"bike_id":"7a424865-be8c-4946-adb7-2dff82e3c970","system_id":"levelo_inurba_marseille","lat":43.26188,"lon":5.37442,"is_reserved":false,"is_disabled":false,"rental_uris":{"android":"levelo://app?vid=7a424865-be8c-4946-adb7-2dff82e3c970","ios":"levelo://app?vid=7a424865-be8c-4946-adb7-2dff82e3c970"},"vehicle_type_id":"4","last_reported":1692547639,"current_range_meters":14000,"station_id":"ce4bhgp2rcd13ifvqfc0","pricing_plan_id":"free"},{"bike_id":"2fe4237f-e372-470e-8f1f-78573db5d478","system_id":"levelo_inurba_marseille","lat":43.261782,"lon":5.374515,"is_reserved":false,"is_disabled":false,"rental_uris":{"android":"levelo://app?vid=2fe4237f-e372-470e-8f1f-78573db5d478","ios":"levelo://app?vid=2fe4237f-e372-470e-8f1f-78573db5d478"},"vehicle_type_id":"4","last_reported":1692547639,"current_range_meters":31200,"station_id":"ce4bhgp2rcd13ifvqfc0","pricing_plan_id":"free"},{"bike_id":"b3b97399-39ef-449c-84bf-8532d552d093","system_id":"levelo_inurba_marseille","lat":43.261782,"lon":5.374515,"is_reserved":false,"is_disabled":false,"rental_uris":{"android":"levelo://app?vid=b3b97399-39ef-449c-84bf-8532d552d093","ios":"levelo://app?vid=b3b97399-39ef-449c-84bf-8532d552d093"},"vehicle_type_id":"4","last_reported":1692547639,"current_range_meters":31200,"station_id":"ce4bhgp2rcd13ifvqfc0","pricing_plan_id":"free"},{"bike_id":"3982f9b5-03c9-400a-950a-487b3d16c5a0","system_id":"levelo_inurba_marseille","lat":43.26186,"lon":5.37433,"is_reserved":false,"is_disabled":false,"rental_uris":{"android":"levelo://app?vid=3982f9b5-03c9-400a-950a-487b3d16c5a0","ios":"levelo://app?vid=3982f9b5-03c9-400a-950a-487b3d16c5a0"},"vehicle_type_id":"4","last_reported":1692547639,"current_range_meters":21200,"station_id":"ce4bhgp2rcd13ifvqfc0","pricing_plan_id":"free"},{"bike_id":"49eda2d2-5e86-4999-9573-f7170935082e","system_id":"levelo_inurba_marseille","lat":43.26187,"lon":5.37446,"is_reserved":false,"is_disabled":false,"rental_uris":{"android":"levelo://app?vid=49eda2d2-5e86-4999-9573-f7170935082e","ios":"levelo://app?vid=49eda2d2-5e86-4999-9573-f7170935082e"},"vehicle_type_id":"4","last_reported":1692547639,"current_range_meters":20000,"station_id":"ce4bhgp2rcd13ifvqfc0","pricing_plan_id":"free"},{"bike_id":"c4be3b1d-04f3-46d7-a69e-829d1198573b","system_id":"levelo_inurba_marseille","lat":43.261782,"lon":5.374515,"is_reserved":false,"is_disabled":false,"rental_uris":{"android":"levelo://app?vid=c4be3b1d-04f3-46d7-a69e-829d1198573b","ios":"levelo://app?vid=c4be3b1d-04f3-46d7-a69e-829d1198573b"},"vehicle_type_id":"4","last_reported":1692547639,"current_range_meters":31200,"station_id":"ce4bhgp2rcd13ifvqfc0","pricing_plan_id":"free"},{"bike_id":"5363f0f8-882c-4fe6-a59e-31803594ac9c","system_id":"levelo_inurba_marseille","lat":43.261861,"lon":5.374431,"is_reserved":false,"is_disabled":false,"rental_uris":{"android":"levelo://app?vid=5363f0f8-882c-4fe6-a59e-31803594ac9c","ios":"levelo://app?vid=5363f0f8-882c-4fe6-a59e-31803594ac9c"},"vehicle_type_id":"4","last_reported":1692547639,"current_range_meters":26800,"station_id":"ce4bhgp2rcd13ifvqfc0","pricing_plan_id":"free"},{"bike_id":"216e2844-1bec-4a56-863b-95ca5724c525","system_id":"levelo_inurba_marseille","lat":43.261782,"lon":5.374515,"is_reserved":false,"is_disabled":false,"rental_uris":{"android":"levelo://app?vid=216e2844-1bec-4a56-863b-95ca5724c525","ios":"levelo://app?vid=216e2844-1bec-4a56-863b-95ca5724c525"},"vehicle_type_id":"4","last_reported":1692547639,"current_range_meters":0,"station_id":"ce4bhgp2rcd13ifvqfc0","pricing_plan_id":"free"},{"bike_id":"d8df8e8f-3a6d-4c57-9025-c9bc0e814b75","system_id":"levelo_inurba_marseille","lat":43.261782,"lon":5.374515,"is_reserved":false,"is_disabled":false,"rental_uris":{"android":"levelo://app?vid=d8df8e8f-3a6d-4c57-9025-c9bc0e814b75","ios":"levelo://app?vid=d8df8e8f-3a6d-4c57-9025-c9bc0e814b75"},"vehicle_type_id":"4","last_reported":1692547639,"current_range_meters":17200,"station_id":"ce4bhgp2rcd13ifvqfc0","pricing_plan_id":"free"},{"bike_id":"4c079eee-105e-406e-9d7c-ac968fefb7e6","system_id":"levelo_inurba_marseille","lat":43.26183,"lon":5.37443,"is_reserved":false,"is_disabled":false,"rental_uris":{"android":"levelo://app?vid=4c079eee-105e-406e-9d7c-ac968fefb7e6","ios":"levelo://app?vid=4c079eee-105e-406e-9d7c-ac968fefb7e6"},"vehicle_type_id":"4","last_reported":1692547639,"current_range_meters":31200,"station_id":"ce4bhgp2rcd13ifvqfc0","pricing_plan_id":"free"},{"bike_id":"fb2c8abd-b8d1-4cca-8b5b-919aec06df88","system_id":"levelo_inurba_marseille","lat":43.262012,"lon":5.379307,"is_reserved":false,"is_disabled":false,"rental_uris":{"android":"levelo://app?vid=fb2c8abd-b8d1-4cca-8b5b-919aec06df88","ios":"levelo://app?vid=fb2c8abd-b8d1-4cca-8b5b-919aec06df88"},"vehicle_type_id":"4","last_reported":1692547639,"current_range_meters":14400,"station_id":"ce4bhjp2rcd13ifvqg90","pricing_plan_id":"free"},{"bike_id":"226fac83-7914-442a-b6a5-804a26e89eaa","system_id":"levelo_inurba_marseille","lat":43.26202,"lon":5.379299,"is_reserved":false,"is_disabled":false,"rental_uris":{"android":"levelo://app?vid=226fac83-7914-442a-b6a5-804a26e89eaa","ios":"levelo://app?vid=226fac83-7914-442a-b6a5-804a26e89eaa"},"vehicle_type_id":"4","last_reported":1692547639,"current_range_meters":20000,"station_id":"ce4bhjp2rcd13ifvqg90","pricing_plan_id":"free"},{"bike_id":"1f168f06-6d3d-4f12-a968-7a160ab0fa43","system_id":"levelo_inurba_marseille","lat":43.262012,"lon":5.379307,"is_reserved":false,"is_disabled":false,"rental_uris":{"android":"levelo://app?vid=1f168f06-6d3d-4f12-a968-7a160ab0fa43","ios":"levelo://app?vid=1f168f06-6d3d-4f12-a968-7a160ab0fa43"},"vehicle_type_id":"4","last_reported":1692547639,"current_range_meters":31200,"station_id":"ce4bhjp2rcd13ifvqg90","pricing_plan_id":"free"},{"bike_id":"3bd5c171-4b04-43bb-8789-8a95cd1af2c0","system_id":"levelo_inurba_marseille","lat":43.271388,"lon":5.409269,"is_reserved":false,"is_disabled":false,"rental_uris":{"android":"levelo://app?vid=3bd5c171-4b04-43bb-8789-8a95cd1af2c0","ios":"levelo://app?vid=3bd5c171-4b04-43bb-8789-8a95cd1af2c0"},"vehicle_type_id":"4","last_reported":1692547639,"current_range_meters":30800,"station_id":"ce4bhl12rcd13ifvqgf0","pricing_plan_id":"free"},