{"last_updated":1734137391,"ttl":60,"version":"2.2","data":{"bikes":[{"bike_id":"45c22bfb-3859-46ca-bbdd-b43970628095","system_id":"levelo_inurba_marseille","lat":43.23193,"lon":5.40001,"is_reserved":false,"is_disabled":false,"rental_uris":{"android":"levelo://app?vid=45c22bfb-3859-46ca-bbdd-b43970628095","ios":"levelo://app?vid=45c22bfb-3859-46ca-bbdd-b43970628095"},"vehicle_type_id":"4","last_reported":1734137391,"current_range_meters":25200,"station_id":"ce4bhn12rcd13ifvqgqg","pricing_plan_id":"cebpf4jnsgd1na2vs0mg"},{"bike_id":"3e5d99b9-1aaf-48b9-b5fb-fb7a0b5b1ba5","system_id":"levelo_inurba_marseille","lat":43.29032,"lon":5.39228,"is_reserved":false,"is_disabled":true,"rental_uris":{"android":"levelo://app?vid=3e5d99b9-1aaf-48b9-b5fb-fb7a0b5b1ba5","ios":"levelo://app?vid=3e5d99b9-1aaf-48b9-b5fb-fb7a0b5b1ba5"},"vehicle_type_id":"4","last_reported":1734137391,"current_range_meters":0,"station_id":"","pricing_plan_id":"cebpf4jnsgd1na2vs0mg"},{"bike_id":"d6d724d3-b8b3-4c37-86fc-6d7f3ab66367","system_id":"levelo_inurba_marseille","lat":43.29633,"lon":5.40591,"is_reserved":false,"is_disabled":false,"rental_uris":{"android":"levelo://app?vid=d6d724d3-b8b3-4c37-86fc-6d7f3ab66367","ios":"levelo://app?vid=d6d724d3-b8b3-4c37-86fc-6d7f3ab66367"},"vehicle_type_id":"4","last_reported":1734137391,"current_range_meters":12400,"station_id":"ce4bh0h2rcd13ifvqd60","pricing_plan_id":"cebpf4jnsgd1na2vs0mg"},{"bike_id":"e0a9efba-6485-436f-ae65-a273cf25e0ce","system_id":"levelo_inurba_marseille","lat":43.27374,"lon":5.36276,"is_reserved":false,"is_disabled":false,"rental_uris":{"android":"levelo://app?vid=e0a9efba-6485-436f-ae65-a273cf25e0ce","ios":"levelo://app?vid=e0a9efba-6485-436f-ae65-a273cf25e0ce"},"vehicle_type_id":"4","last_reported":1734137391,"current_range_meters":38000,"station_id":"ce4bhbh2rcd13ifvqeo0","pricing_plan_id":"cebpf4jnsgd1na2vs0mg"},{"bike_id":"55c52e02-0cdf-453d-a05b-f0f604647bf3","system_id":"levelo_inurba_marseille","lat":43.2795,"lon":5.4111,"is_reserved":false,"is_disabled":false,"rental_uris":{"android":"levelo://app?vid=55c52e02-0cdf-453d-a05b-f0f604647bf3","ios":"levelo://app?vid=55c52e02-0cdf-453d-a05b-f0f604647bf3"},"vehicle_type_id":"4","last_reported":1734137391,"current_range_meters":16800,"station_id":"ce4bhnp2rcd13ifvqh0g","pricing_plan_id":"cebpf4jnsgd1na2vs0mg"},{"bike_id":"575e7888-c21d-4a6d-9fe4-480369efea9f","system_id":"levelo_inurba_marseille","lat":43.31261,"lon":5.40178,"is_reserved":false,"is_disabled":false,"rental_uris":{"android":"levelo://app?vid=575e7888-c21d-4a6d-9fe4-480369efea9f","ios":"levelo://app?vid=575e7888-c21d-4a6d-9fe4-480369efea9f"},"vehicle_type_id":"4","last_reported":1734137391,"current_range_meters":39200,"station_id":"ce4bh092rcd13ifvqd30","pricing_plan_id":"cebpf4jnsgd1na2vs0mg"},{"bike_id":"19f9e8b0-a2e6-420a-a1af-f99d8fc40ad5","system_id":"levelo_inurba_marseille","lat":43.27571,"lon":5.38413,"is_reserved":false,"is_disabled":false,"rental_uris":{"android":"levelo://app?vid=19f9e8b0-a2e6-420a-a1af-f99d8fc40ad5","ios":"levelo://app?vid=19f9e8b0-a2e6-420a-a1af-f99d8fc40ad5"},"vehicle_type_id":"4","last_reported":1734137391,"current_range_meters":38800,"station_id":"ce4bhh92rcd13ifvqfi0","pricing_plan_id":"cebpf4jnsgd1na2vs0mg"},{"bike_id":"7a9a7a71-506f-4004-8638-7c075d636552","system_id":"levelo_inurba_marseille","lat":43.28565,"lon":5.39499,"is_reserved":false,"is_disabled":false,"rental_uris":{"android":"levelo://app?vid=7a9a7a71-506f-4004-8638-7c075d636552","ios":"levelo://app?vid=7a9a7a71-506f-4004-8638-7c075d636552"},"vehicle_type_id":"4","last_reported":1734137391,"current_range_meters":28800,"station_id":"ce4bh292rcd13ifvqdg0","pricing_plan_id":"cebpf4jnsgd1na2vs0mg"},{"bike_id":"dbe5bea0-cc7a-4044-80dc-6fd3209ffdb4","system_id":"levelo_inurba_marseille","lat":43.2319,"lon":5.39965,"is_reserved":false,"is_disabled":false,"rental_uris":{"android":"levelo://app?vid=dbe5bea0-cc7a-4044-80dc-6fd3209ffdb4","ios":"levelo://app?vid=dbe5bea0-cc7a-4044-80dc-6fd3209ffdb4"},"vehicle_type_id":"4","last_reported":1734137391,"current_range_meters":37600,"station_id":"ce4bhn12rcd13ifvqgqg","pricing_plan_id":"cebpf4jnsgd1na2vs0mg"},{"bike_id":"d0de775e-cad6-4967-a98d-1da6c39ed729","system_id":"levelo_inurba_marseille","lat":43.29937,"lon":5.36544,"is_reserved":false,"is_disabled":true,"rental_uris":{"android":"levelo://app?vid=d0de775e-cad6-4967-a98d-1da6c39ed729","ios":"levelo://app?vid=d0de775e-cad6-4967-a98d-1da6c39ed729"},"vehicle_type_id":"4","last_reported":1734137391,"current_range_meters":800,"station_id":"ce4bgm92rcd13ifvqbr0","pricing_plan_id":"cebpf4jnsgd1na2vs0mg"},{"bike_id":"c0bf313a-9cfb-4d79-9432-2cef32f81705","system_id":"levelo_inurba_marseille","lat":43.28729,"lon":5.39977,"is_reserved":false,"is_disabled":false,"rental_uris":{"android":"levelo://app?vid=c0bf313a-9cfb-4d79-9432-2cef32f81705","ios":"levelo://app?vid=c0bf313a-9cfb-4d79-9432-2cef32f81705"},"vehicle_type_id":"4","last_reported":1734137391,"current_range_meters":10000,"station_id":"ce4bho92rcd13ifvqh3g","pricing_plan_id":"cebpf4jnsgd1na2vs0mg"},{"bike_id":"1ca8b9ab-4a86-402b-a175-2064b6ef5e19","system_id":"levelo_inurba_marseille","lat":43.23961,"lon":5.36621,"is_reserved":false,"is_disabled":true,"rental_uris":{"android":"levelo://app?vid=1ca8b9ab-4a86-402b-a175-2064b6ef5e19","ios":"levelo://app?vid=1ca8b9ab-4a86-402b-a175-2064b6ef5e19"},"vehicle_type_id":"4","last_reported":1734137391,"current_range_meters":29600,"station_id":"ce4bhi12rcd13ifvqfp0","pricing_plan_id":"cebpf4jnsgd1na2vs0mg"},{"bike_id":"f53a51f1-6db0-4716-9c45-7ac4c7fcd208","system_id":"levelo_inurba_marseille","lat":43.32291,"lon":5.38268,"is_reserved":false,"is_disabled":false,"rental_uris":{"android":"levelo://app?vid=f53a51f1-6db0-4716-9c45-7ac4c7fcd208","ios":"levelo://app?vid=f53a51f1-6db0-4716-9c45-7ac4c7fcd208"},"vehicle_type_id":"4","last_reported":1734137391,"current_range_meters":31200,"station_id":"ce4bhr12rcd13ifvqhqg","pricing_plan_id":"cebpf4jnsgd1na2vs0mg"},{"bike_id":"980f96eb-32c9-4906-98f6-c44dbf4c84a1","system_id":"levelo_inurba_marseille","lat":43.27455,"lon":5.40073,"is_reserved":false,"is_disabled":true,"rental_uris":{"android":"levelo://app?vid=980f96eb-32c9-4906-98f6-c44dbf4c84a1","ios":"levelo://app?vid=980f96eb-32c9-4906-98f6-c44dbf4c84a1"},"vehicle_type_id":"4","last_reported":1734137391,"current_range_meters":0,"station_id":"","pricing_plan_id":"cebpf4jnsgd1na2vs0mg"},{"bike_id":"e8ed717d-9f26-45a9-bc82-774d381028bc","system_id":"levelo_inurba_marseille","lat":43.29556,"lon":5.42272,"is_reserved":false,"is_disabled":false,"rental_uris":{"android":"levelo://app?vid=e8ed717d-9f26-45a9-bc82-774d381028bc","ios":"levelo://app?vid=e8ed717d-9f26-45a9-bc82-774d381028bc"},"vehicle_type_id":"4","last_reported":1734137391,"current_range_meters":24000,"station_id":"ce4bhph2rcd13ifvqhdg","pricing_plan_id":"cebpf4jnsgd1na2vs0mg"},{"bike_id":"77f23e86-2969-46ee-a182-eca876676957","system_id":"levelo_inurba_marseille","lat":43.27911,"lon":5.39579,"is_reserved":false,"is_disabled":false,"rental_uris":{"android":"levelo://app?vid=77f23e86-2969-46ee-a182-eca876676957","ios":"levelo://app?vid=77f23e86-2969-46ee-a182-eca876676957"},"vehicle_type_id":"4","last_reported":1734137391,"current_range_meters":17200,"station_id":"ce4bhf92rcd13ifvqf40","pricing_plan_id":"cebpf4jnsgd1na2vs0mg"},{"bike_id":"d64735b9-3201-48f9-b7d1-d8bd9269830f","system_id":"levelo_inurba_marseille","lat":43.31332,"lon":5.39673,"is_reserved":false,"is_disabled":false,"rental_uris":{"android":"levelo://app?vid=d64735b9-3201-48f9-b7d1-d8bd9269830f","ios":"levelo://app?vid=d64735b9-3201-48f9-b7d1-d8bd9269830f"},"vehicle_type_id":"4","last_reported":1734137391,"current_range_meters":33200,"station_id":"ce4bgvp2rcd13ifvqcu0","pricing_plan_id":"cebpf4jnsgd1na2vs0mg"},{"bike_id":"145ad407-7195-4785-a3ae-4255062efe34","system_id":"levelo_inurba_marseille","lat":43.26049,"lon":5.38416,"is_reserved":false,"is_disabled":false,"rental_uris":{"android":"levelo://app?vid=145ad407-7195-4785-a3ae-4255062efe34","ios":"levelo://app?vid=145ad407-7195-4785-a3ae-4255062efe34"},"vehicle_type_id":"4","last_reported":1734137391,"current_range_meters":36800,"station_id":"","pricing_plan_id":"cebpf4jnsgd1na2vs0mg"},{"bike_id":"6c8f0fb1-dda3-46f8-8b7e-d47203e07a27","system_id":"levelo_inurba_marseille","lat":43.25405,"lon":5.38359,"is_reserved":false,"is_disabled":false,"rental_uris":{"android":"levelo://app?vid=6c8f0fb1-dda3-46f8-8b7e-d47203e07a27","ios":"levelo://app?vid=6c8f0fb1-dda3-46f8-8b7e-d47203e07a27"},"vehicle_type_id":"4","last_reported":1734137391,"current_range_meters":4000,"station_id":"","pricing_plan_id":"cebpf4jnsgd1na2vs0mg"},{"bike_id":"5fec8a5d-822b-426f-abba-65b014a1ad71","system_id":"levelo_inurba_marseille","lat":43.30779,"lon":5.37645,"is_reserved":false,"is_disabled":false,"rental_uris":{"android":"levelo://app?vid=5fec8a5d-822b-426f-abba-65b014a1ad71","ios":"levelo://app?vid=5fec8a5d-822b-426f-abba-65b014a1ad71"},"vehicle_type_id":"4","last_reported":1734137391,"current_range_meters":21600,"station_id":"ce4bgv92rcd13ifvqcq0","pricing_plan_id":"cebpf4jnsgd1na2vs0mg"},{"bike_id":"80e5c1e3-8d27-43e3-9451-b00f65b301df","system_id":"levelo_inurba_marseille","lat":43.23194,"lon":5.35556,"is_reserved":false,"is_disabled":false,"rental_uris":{"android":"levelo://app?vid=80e5c1e3-8d27-43e3-9451-b00f65b301df","ios":"levelo://app?vid=80e5c1e3-8d27-43e3-9451-b00f65b301df"},"vehicle_type_id":"4","last_reported":1734137391,"current_range_meters":8800,"station_id":"ce4bhu92rcd13ifvqi70","pricing_plan_id":"cebpf4jnsgd1na2vs0mg"},{"bike_id":"496b9119-850a-49b3-bf98-295bb079ca7c","system_id":"levelo_inurba_marseille","lat":43.2819,"lon":5.44572,"is_reserved":false,"is_disabled":false,"rental_uris":{"android":"levelo://app?vid=496b9119-850a-49b3-bf98-295bb079ca7c","ios":"levelo://app?vid=496b9119-850a-49b3-bf98-295bb079ca7c"},"vehicle_type_id":"4","last_reported":1734137391,"current_range_meters":14000,"station_id":"","pricing_plan_id":"cebpf4jnsgd1na2vs0mg"},{"bike_id":"0d67fd70-e4b1-42fe-abbd-da05c25ce133","system_id":"levelo_inurba_marseille","lat":43.28004,"lon":5.41663,"is_reserved":false,"is_disabled":false,"rental_uris":{"android":"levelo://app?vid=0d67fd70-e4b1-42fe-abbd-da05c25ce133","ios":"levelo://app?vid=0d67fd70-e4b1-42fe-abbd-da05c25ce133"},"vehicle_type_id":"4","last_reported":1734137391,"current_range_meters":38800,"station_id":"ce4bho12rcd13ifvqh1g","pricing_plan_id":"cebpf4jnsgd1na2vs0mg"},{"bike_id":"6ccb1b55-c0a9-46eb-8f0b-906ec7a25595","system_id":"levelo_inurba_marseille","lat":43.28267,"lon":5.35064,"is_reserved":false,"is_disabled":false,"rental_uris":{"android":"levelo://app?vid=6ccb1b55-c0a9-46eb-8f0b-906ec7a25595","ios":"levelo://app?vid=6ccb1b55-c0a9-46eb-8f0b-906ec7a25595"},"vehicle_type_id":"4","last_reported":1734137391,"current_range_meters":23200,"station_id":"ce4bhbp2rcd13ifvqerg","pricing_plan_id":"cebpf4jnsgd1na2vs0mg"},{"bike_id":"88f2033b-7e30-4fec-967e-f2db67085ede","system_id":"levelo_inurba_marseille","lat":43.34143,"lon":5.40911,"is_reserved":false,"is_disabled":false,"rental_uris":{"android":"levelo://app?vid=88f2033b-7e30-4fec-967e-f2db67085ede","ios":"levelo://app?vid=88f2033b-7e30-4fec-967e-f2db67085ede"},"vehicle_type_id":"4","last_reported":1734137391,"current_range_meters":35600,"station_id":"ce4bhqh2rcd13ifvqhlg","pricing_plan_id":"cebpf4jnsgd1na2vs0mg"},{"bike_id":"1a341f13-1fed-4461-850d-e3c63634c2cf","system_id":"levelo_inurba_marseille","lat":43.28269,"lon":5.3509,"is_reserved":false,"is_disabled":false,"rental_uris":{"android":"levelo://app?vid=1a341f13-1fed-4461-850d-e3c63634c2cf","ios":"levelo://app?vid=1a341f13-1fed-4461-850d-e3c63634c2cf"},"vehicle_type_id":"4","last_reported":1734137391,"current_range_meters":38800,"station_id":"ce4bhbp2rcd13ifvqerg","pricing_plan_id":"cebpf4jnsgd1na2vs0mg"},{"bike_id":"fb32aea2-d437-4e9e-95b8-ad6ed33d022d","system_id":"levelo_inurba_marseille","lat":43.28709,"lon":5.37943,"is_reserved":false,"is_disabled":true,"rental_uris":{"android":"levelo://app?vid=fb32aea2-d437-4e9e-95b8-ad6ed33d022d","ios":"levelo://app?vid=fb32aea2-d437-4e9e-95b8-ad6ed33d022d"},"vehicle_type_id":"4","last_reported":1734137391,"current_range_meters":27200,"station_id":"ce4bh9p2rcd13ifvqec0","pricing_plan_id":"cebpf4jnsgd1na2vs0mg"},{"bike_id":"d5c89c1f-3bad-4af2-9449-e04c277a4696","system_id":"levelo_inurba_marseille","lat":43.29987,"lon":5.41321,"is_reserved":false,"is_disabled":true,"rental_uris":{"android":"levelo://app?vid=d5c89c1f-3bad-4af2-9449-e04c277a4696","ios":"levelo://app?vid=d5c89c1f-3bad-4af2-9449-e04c277a4696"},"vehicle_type_id":"4","last_reported":1734137391,"current_range_meters":38800,"station_id":"ce4bhp12rcd13ifvqh9g","pricing_plan_id":"cebpf4jnsgd1na2vs0mg"},{"bike_id":"5cba9f55-9853-4014-82c1-7917379c085c","system_id":"levelo_inurba_marseille","lat":43.286618,"lon":5.363499,"is_reserved":false,"is_disabled":false,"rental_uris":{"android":"levelo://app?vid=5cba9f55-9853-4014-82c1-7917379c085c","ios":"levelo://app?vid=5cba9f55-9853-4014-82c1-7917379c085c"},"vehicle_type_id":"4","last_reported":1734137391,"current_range_meters":36800,"station_id":"ce4bhah2rcd13ifvqej0","pricing_plan_id":"cebpf4jnsgd1na2vs0mg"},{"bike_id":"5dcb142e-3766-4e2c-b1fe-c9ebbc5d3c50","system_id":"levelo_inurba_marseille","lat":43.32007,"lon":5.38137,"is_reserved":false,"is_disabled":false,"rental_uris":{"android":"levelo://app?vid=5dcb142e-3766-4e2c-b1fe-c9ebbc5d3c50","ios":"levelo://app?vid=5dcb142e-3766-4e2c-b1fe-c9ebbc5d3c50"},"vehicle_type_id":"4","last_reported":1734137391,"current_range_meters":6800,"station_id":"ce4bhr12rcd13ifvqhpg","pricing_plan_id":"cebpf4jnsgd1na2vs0mg"},{"bike_id":"8eeaf79c-4584-46fa-895b-e4130ccd2bcf","system_id":"levelo_inurba_marseille","lat":43.28277,"lon":5.35073,"is_reserved":false,"is_disabled":false,"rental_uris":{"android":"levelo://app?vid=8eeaf79c-4584-46fa-895b-e4130ccd2bcf","ios":"levelo://app?vid=8eeaf79c-4584-46fa-895b-e4130ccd2bcf"},"vehicle_type_id":"4","last_reported":1734137391,"current_range_meters":16400,"station_id":"ce4bhbp2rcd13ifvqerg","pricing_plan_id":"cebpf4jnsgd1na2vs0mg"},{"bike_id":"64627605-643a-4730-9663-edd23e6f226d","system_id":"levelo_inurba_marseille","lat":43.28725,"lon":5.36085,"is_reserved":false,"is_disabled":false,"rental_uris":{"android":"levelo://app?vid=64627605-643a-4730-9663-edd23e6f226d","ios":"levelo://app?vid=64627605-643a-4730-9663-edd23e6f226d"},"vehicle_type_id":"4","last_reported":1734137391,"current_range_meters":36400,"station_id":"cki0cbj6b192h4jlfktg","pricing_plan_id":"cebpf4jnsgd1na2vs0mg"},{"bike_id":"3a312272-900a-4c4b-bb5b-4ed6000e4b63","system_id":"levelo_inurba_marseille","lat":43.30152,"lon":5.38092,"is_reserved":false,"is_disabled":true,"rental_uris":{"android":"levelo://app?vid=3a312272-900a-4c4b-bb5b-4ed6000e4b63","ios":"levelo://app?vid=3a312272-900a-4c4b-bb5b-4ed6000e4b63"},"vehicle_type_id":"4","last_reported":1734137391,"current_range_meters":38000,"station_id":"ce4bgjp2rcd13ifvqbh0","pricing_plan_id":"cebpf4jnsgd1na2vs0mg"},{"bike_id":"99c777fb-f3e9-457a-b392-4682c4d57bcc","system_id":"levelo_inurba_marseille","lat":43.32984,"lon":5.39091,"is_reserved":false,"is_disabled":false,"rental_uris":{"android":"levelo://app?vid=99c777fb-f3e9-457a-b392-4682c4d57bcc","ios":"levelo://app?vid=99c777fb-f3e9-457a-b392-4682c4d57bcc"},"vehicle_type_id":"4","last_reported":1734137391,"current_range_meters":30000,"station_id":"","pricing_plan_id":"cebpf4jnsgd1na2vs0mg"},{"bike_id":"6de8e652-abcb-49c4-a8fc-20606dfd741b","system_id":"levelo_inurba_marseille","lat":43.28462,"lon":5.35885,"is_reserved":false,"is_disabled":false,"rental_uris":{"android":"levelo://app?vid=6de8e652-abcb-49c4-a8fc-20606dfd741b","ios":"levelo://app?vid=6de8e652-abcb-49c4-a8fc-20606dfd741b"},"vehicle_type_id":"4","last_reported":1734137391,"current_range_meters":16400,"station_id":"ce4bhah2rcd13ifvqei0","pricing_plan_id":"cebpf4jnsgd1na2vs0mg"},{"bike_id":"1246e6b9-1bba-43b9-9075-2687b084a677","system_id":"levelo_inurba_marseille","lat":43.258744,"lon":5.399053,"is_reserved":false,"is_disabled":false,"rental_uris":{"android":"levelo://app?vid=1246e6b9-1bba-43b9-9075-2687b084a677","ios":"levelo://app?vid=1246e6b9-1bba-43b9-9075-2687b084a677"},"vehicle_type_id":"4","last_reported":1734137391,"current_range_meters":38800,"station_id":"ce4bhl92rcd13ifvqghg","pricing_plan_id":"cebpf4jnsgd1na2vs0mg"},{"bike_id":"b3a77dc0-a822-444f-91f4-872b6fc01306","system_id":"levelo_inurba_marseille","lat":43.30599,"lon":5.37216,"is_reserved":false,"is_disabled":false,"rental_uris":{"android":"levelo://app?vid=b3a77dc0-a822-444f-91f4-872b6fc01306","ios":"levelo://app?vid=b3a77dc0-a822-444f-91f4-872b6fc01306"},"vehicle_type_id":"4","last_reported":1734137391,"current_range_meters":32400,"station_id":"ce4bgqh2rcd13ifvqc4g","pricing_plan_id":"cebpf4jnsgd1na2vs0mg"},{"bike_id":"9658b4e0-946e-4511-8e18-b51586108f8c","system_id":"levelo_inurba_marseille","lat":43.33777,"lon":5.37437,"is_reserved":false,"is_disabled":false,"rental_uris":{"android":"levelo://app?vid=9658b4e0-946e-4511-8e18-b51586108f8c","ios":"levelo://app?vid=9658b4e0-946e-4511-8e18-b51586108f8c"},"vehicle_type_id":"4","last_reported":1734137391,"current_range_meters":34000,"station_id":"","pricing_plan_id":"cebpf4jnsgd1na2vs0mg"},{"bike_id":"0d2543ea-f8ca-4ff7-8b5d-4b1f0b085617","system_id":"levelo_inurba_marseille","lat":43.2981,"lon":5.40395,"is_reserved":true,"is_disabled":false,"rental_uris":{"android":"levelo://app?vid=0d2543ea-f8ca-4ff7-8b5d-4b1f0b085617","ios":"levelo://app?vid=0d2543ea-f8ca-4ff7-8b5d-4b1f0b085617"},"vehicle_type_id":"4","last_reported":1734137391,"current_range_meters":21600,"station_id":"ce4bh112rcd13ifvqd90","pricing_plan_id":"cebpf4jnsgd1na2vs0mg"},{"bike_id":"2f747797-e559-43cf-b56c-5d5684c52fbf","system_id":"levelo_inurba_marseille","lat":43.315035,"lon":5.373021,"is_reserved":false,"is_disabled":true,"rental_uris":{"android":"levelo://app?vid=2f747797-e559-43cf-b56c-5d5684c52fbf","ios":"levelo://app?vid=2f747797-e559-43cf-b56c-5d5684c52fbf"},"vehicle_type_id":"4","last_reported":1734137391,"current_range_meters":0,"station_id":"ce4bgt12rcd13ifvqcd0","pricing_plan_id":"cebpf4jnsgd1na2vs0mg"},{"bike_id":"9bfcebe4-fee2-409c-a8ab-5608ab6f061f","system_id":"levelo_inurba_marseille","lat":43.2816,"lon":5.42757,"is_reserved":false,"is_disabled":true,"rental_uris":{"android":"levelo://app?vid=9bfcebe4-fee2-409c-a8ab-5608ab6f061f","ios":"levelo://app?vid=9bfcebe4-fee2-409c-a8ab-5608ab6f061f"},"vehicle_type_id":"4","last_reported":1734137391,"current_range_meters":36800,"station_id":"","pricing_plan_id":"cebpf4jnsgd1na2vs0mg"},{"bike_id":"21add69f-ef58-4db8-8eb1-1d3892b75566","system_id":"levelo_inurba_marseille","lat":43.30877,"lon":5.3965,"is_reserved":false,"is_disabled":false,"rental_uris":{"android":"levelo://app?vid=21add69f-ef58-4db8-8eb1-1d3892b75566","ios":"levelo://app?vid=21add69f-ef58-4db8-8eb1-1d3892b75566"},"vehicle_type_id":"4","last_reported":1734137391,"current_range_meters":18800,"station_id":"ce4bh012rcd13ifvqcv0","pricing_plan_id":"cebpf4jnsgd1na2vs0mg"},{"bike_id":"0e8a89dc-4e73-48a3-8682-6696627877b1","system_id":"levelo_inurba_marseille","lat":43.31757,"lon":5.39024,"is_reserved":false,"is_disabled":false,"rental_uris":{"android":"levelo://app?vid=0e8a89dc-4e73-48a3-8682-6696627877b1","ios":"levelo://app?vid=0e8a89dc-4e73-48a3-8682-6696627877b1"},"vehicle_type_id":"4","last_reported":1734137391,"current_range_meters":38400,"station_id":"ce4bhqp2rcd13ifvqhng","pricing_plan_id":"cebpf4jnsgd1na2vs0mg"},{"bike_id":"edaea664-24e0-4d6c-aa7a-497f5c5f88f6","system_id":"levelo_inurba_marseille","lat":43.27007,"lon":5.39165,"is_reserved":false,"is_disabled":true,"rental_uris":{"android":"levelo://app?vid=edaea664-24e0-4d6c-aa7a-497f5c5f88f6","ios":"levelo://app?vid=edaea664-24e0-4d6c-aa7a-497f5c5f88f6"},"vehicle_type_id":"4","last_reported":1734137391,"current_range_meters":0,"station_id":"","pricing_plan_id":"cebpf4jnsgd1na2vs0mg"},{"bike_id":"72ad76d7-5a2d-4089-9d42-96862758d84f","system_id":"levelo_inurba_marseille","lat":43.295241,"lon":5.390249,"is_reserved":false,"is_disabled":true,"rental_uris":{"android":"levelo://app?vid=72ad76d7-5a2d-4089-9d42-96862758d84f","ios":"levelo://app?vid=72ad76d7-5a2d-4089-9d42-96862758d84f"},"vehicle_type_id":"4","last_reported":1734137391,"current_range_meters":33200,"station_id":"ce4bh3p2rcd13ifvqdp0","pricing_plan_id":"cebpf4jnsgd1na2vs0mg"},{"bike_id":"4b37b18a-01cf-4748-abde-1d0ac9b07358","system_id":"levelo_inurba_marseille","lat":43.28459,"lon":5.35894,"is_reserved":false,"is_disabled":false,"rental_uris":{"android":"levelo://app?vid=4b37b18a-01cf-4748-abde-1d0ac9b07358","ios":"levelo://app?vid=4b37b18a-01cf-4748-abde-1d0ac9b07358"},"vehicle_type_id":"4","last_reported":1734137391,"current_range_meters":18800,"station_id":"ce4bhah2rcd13ifvqei0","pricing_plan_id":"cebpf4jnsgd1na2vs0mg"},{"bike_id":"c5cadfa9-b770-473b-8685-9ab3787dc527","system_id":"levelo_inurba_marseille","lat":43.28696,"lon":5.39978,"is_reserved":false,"is_disabled":false,"rental_uris":{"android":"levelo://app?vid=c5cadfa9-b770-473b-8685-9ab3787dc527","ios":"levelo://app?vid=c5cadfa9-b770-473b-8685-9ab3787dc527"},"vehicle_type_id":"4","last_reported":1734137391,"current_range_meters":32000,"station_id":"ce4bho92rcd13ifvqh3g","pricing_plan_id":"cebpf4jnsgd1na2vs0mg"},{"bike_id":"bf84ede4-a5f2-4d4c-8e63-c7d5fd486847","system_id":"levelo_inurba_marseille","lat":43.24803,"lon":5.37458,"is_reserved":false,"is_disabled":false,"rental_uris":{"android":"levelo://app?vid=bf84ede4-a5f2-4d4c-8e63-c7d5fd486847","ios":"levelo://app?vid=bf84ede4-a5f2-4d4c-8e63-c7d5fd486847"},"vehicle_type_id":"4","last_reported":1734137391,"current_range_meters":19200,"station_id":"ce4bhgh2rcd13ifvqfb0","pricing_plan_id":"cebpf4jnsgd1na2vs0mg"},{"bike_id":"031809f5-fdc4-4687-967d-86d6a0becf47","system_id":"levelo_inurba_marseille","lat":43.25927,"lon":5.39851,"is_reserved":false,"is_disabled":false,"rental_uris":{"android":"levelo://app?vid=031809f5-fdc4-4687-967d-86d6a0becf47","ios":"levelo://app?vid=031809f5-fdc4-4687-967d-86d6a0becf47"},"vehicle_type_id":"4","last_reported":1734137391,"current_range_meters":38800,"station_id":"","pricing_plan_id":"cebpf4jnsgd1na2vs0mg"},{"bike_id":"66331cc1-d263-487f-86ec-bf9d2260ae21","system_id":"levelo_inurba_marseille","lat":43.25862,"lon":5.39909,"is_reserved":false,"is_disabled":false,"rental_uris":{"android":"levelo://app?vid=66331cc1-d263-487f-86ec-bf9d2260ae21","ios":"levelo://app?vid=66331cc1-d263-487f-86ec-bf9d2260ae21"},"vehicle_type_id":"4","last_reported":1734137391,"current_range_meters":39200,"station_id":"ce4bhl92rcd13ifvqghg","pricing_plan_id":"cebpf4jnsgd1na2vs0mg"},{"bike_id":"5f57b631-6bd2-4c7f-8ca2-84262d59805e","system_id":"levelo_inurba_marseille","lat":43.24662,"lon":5.38161,"is_reserved":false,"is_disabled":false,"rental_uris":{"android":"levelo://app?vid=5f57b631-6bd2-4c7f-8ca2-84262d59805e","ios":"levelo://app?vid=5f57b631-6bd2-4c7f-8ca2-84262d59805e"},"vehicle_type_id":"4","last_reported":1734137391,"current_range_meters":22000,"station_id":"ce4bhih2rcd13ifvqfr0","pricing_plan_id":"cebpf4jnsgd1na2vs0mg"},{"bike_id":"9b8de88d-3aac-4c23-948d-9b3427dee27a","system_id":"levelo_inurba_marseille","lat":43.32657,"lon":5.4101,"is_reserved":false,"is_disabled":false,"rental_uris":{"android":"levelo://app?vid=9b8de88d-3aac-4c23-948d-9b3427dee27a","ios":"levelo://app?vid=9b8de88d-3aac-4c23-948d-9b3427dee27a"},"vehicle_type_id":"4","last_reported":1734137391,"current_range_meters":38800,"station_id":"ce4bhpp2rcd13ifvqhgg","pricing_plan_id":"cebpf4jnsgd1na2vs0mg"},{"bike_id":"75d005f1-a104-4287-b501-1002db049ee7","system_id":"levelo_inurba_marseille","lat":43.33763,"lon":5.39135,"is_reserved":false,"is_disabled":false,"rental_uris":{"android":"levelo://app?vid=75d005f1-a104-4287-b501-1002db049ee7","ios":"levelo://app?vid=75d005f1-a104-4287-b501-1002db049ee7"},"vehicle_type_id":"4","last_reported":1734137391,"current_range_meters":38800,"station_id":"","pricing_plan_id":"cebpf4jnsgd1na2vs0mg"},{"bike_id":"9c1ce7b6-f5d4-48dd-b699-4ec030edf6d0","system_id":"levelo_inurba_marseille","lat":43.33021,"lon":5.39047,"is_reserved":false,"is_disabled":false,"rental_uris":{"android":"levelo://app?vid=9c1ce7b6-f5d4-48dd-b699-4ec030edf6d0","ios":"levelo://app?vid=9c1ce7b6-f5d4-48dd-b699-4ec030edf6d0"},"vehicle_type_id":"4","last_reported":1734137391,"current_range_meters":14400,"station_id":"ce4bhr92rcd13ifvqhrg","pricing_plan_id":"cebpf4jnsgd1na2vs0mg"},{"bike_id":"9a88aa52-5330-483f-9cee-487b21bd6332","system_id":"levelo_inurba_marseille","lat":43.31353,"lon":5.36711,"is_reserved":false,"is_disabled":true,"rental_uris":{"android":"levelo://app?vid=9a88aa52-5330-483f-9cee-487b21bd6332","ios":"levelo://app?vid=9a88aa52-5330-483f-9cee-487b21bd6332"},"vehicle_type_id":"4","last_reported":1734137391,"current_range_meters":37600,"station_id":"ce4bgr92rcd13ifvqc6g","pricing_plan_id":"cebpf4jnsgd1na2vs0mg"},{"bike_id":"30b7f7b0-cffb-44e8-9e23-86428fe1183d","system_id":"levelo_inurba_marseille","lat":43.23067,"lon":5.35485,"is_reserved":false,"is_disabled":false,"rental_uris":{"android":"levelo://app?vid=30b7f7b0-cffb-44e8-9e23-86428fe1183d","ios":"levelo://app?vid=30b7f7b0-cffb-44e8-9e23-86428fe1183d"},"vehicle_type_id":"4","last_reported":1734137391,"current_range_meters":36000,"station_id":"cpo3342slgdg3j2ifvpg","pricing_plan_id":"cebpf4jnsgd1na2vs0mg"},{"bike_id":"eaddc4d6-163a-482e-abbb-b79c1524cfdc","system_id":"levelo_inurba_marseille","lat":43.28104,"lon":5.37821,"is_reserved":false,"is_disabled":false,"rental_uris":{"android":"levelo://app?vid=eaddc4d6-163a-482e-abbb-b79c1524cfdc","ios":"levelo://app?vid=eaddc4d6-163a-482e-abbb-b79c1524cfdc"},"vehicle_type_id":"4","last_reported":1734137391,"current_range_meters":10800,"station_id":"ce4bha12rcd13ifvqee0","pricing_plan_id":"cebpf4jnsgd1na2vs0mg"},{"bike_id":"c962957d-ec10-4997-96e1-a869343f922e","system_id":"levelo_inurba_marseille","lat":43.3267,"lon":5.36074,"is_reserved":false,"is_disabled":false,"rental_uris":{"android":"levelo://app?vid=c962957d-ec10-4997-96e1-a869343f922e","ios":"levelo://app?vid=c962957d-ec10-4997-96e1-a869343f922e"},"vehicle_type_id":"4","last_reported":1734137391,"current_range_meters":4000,"station_id":"","pricing_plan_id":"cebpf4jnsgd1na2vs0mg"},{"bike_id":"5d8c4147-efc3-46d0-b949-f9ef59336e99","system_id":"levelo_inurba_marseille","lat":43.27938,"lon":5.41052,"is_reserved":false,"is_disabled":false,"rental_uris":{"android":"levelo://app?vid=5d8c4147-efc3-46d0-b949-f9ef59336e99","ios":"levelo://app?vid=5d8c4147-efc3-46d0-b949-f9ef59336e99"},"vehicle_type_id":"4","last_reported":1734137391,"current_range_meters":25200,"station_id":"ce4bhnp2rcd13ifvqh0g","pricing_plan_id":"cebpf4jnsgd1na2vs0mg"},{"bike_id":"bb14f36d-3645-4531-9655-e845e98af035","system_id":"levelo_inurba_marseille","lat":43.32292,"lon":5.38257,"is_reserved":false,"is_disabled":false,"rental_uris":{"android":"levelo://app?vid=bb14f36d-3645-4531-9655-e845e98af035","ios":"levelo://app?vid=bb14f36d-3645-4531-9655-e845e98af035"},"vehicle_type_id":"4","last_reported":1734137391,"current_range_meters":6400,"station_id":"ce4bhr12rcd13ifvqhqg","pricing_plan_id":"cebpf4jnsgd1na2vs0mg"},{"bike_id":"00079b4c-9675-44e4-9062-33f3eb831edc","system_id":"levelo_inurba_marseille","lat":43.30952,"lon":5.39031,"is_reserved":false,"is_disabled":false,"rental_uris":{"android":"levelo://app?vid=00079b4c-9675-44e4-9062-33f3eb831edc","ios":"levelo://app?vid=00079b4c-9675-44e4-9062-33f3eb831edc"},"vehicle_type_id":"4","last_reported":1734137391,"current_range_meters":32800,"station_id":"ce4bgup2rcd13ifvqco0","pricing_plan_id":"cebpf4jnsgd1na2vs0mg"},{"bike_id":"0d4b984d-1048-4538-b430-669fb53f27cd","system_id":"levelo_inurba_marseille","lat":43.28704,"lon":5.39984,"is_reserved":false,"is_disabled":false,"rental_uris":{"android":"levelo://app?vid=0d4b984d-1048-4538-b430-669fb53f27cd","ios":"levelo://app?vid=0d4b984d-1048-4538-b430-669fb53f27cd"},"vehicle_type_id":"4","last_reported":1734137391,"current_range_meters":36800,"station_id":"ce4bho92rcd13ifvqh3g","pricing_plan_id":"cebpf4jnsgd1na2vs0mg"},{"bike_id":"f24a7910-9e53-4b68-a90d-9e1a3327280e","system_id":"levelo_inurba_marseille","lat":43.27616,"lon":5.3612,"is_reserved":false,"is_disabled":false,"rental_uris":{"android":"levelo://app?vid=f24a7910-9e53-4b68-a90d-9e1a3327280e","ios":"levelo://app?vid=f24a7910-9e53-4b68-a90d-9e1a3327280e"},"vehicle_type_id":"4","last_reported":1734137391,"current_range_meters":39200,"station_id":"ce4bgj92rcd13ifvqbe0","pricing_plan_id":"cebpf4jnsgd1na2vs0mg"},{"bike_id":"01268bf9-1aea-4bff-8f33-666f03518109","system_id":"levelo_inurba_marseille","lat":43.31497,"lon":5.3731,"is_reserved":false,"is_disabled":false,"rental_uris":{"android":"levelo://app?vid=01268bf9-1aea-4bff-8f33-666f03518109","ios":"levelo://app?vid=01268bf9-1aea-4bff-8f33-666f03518109"},"vehicle_type_id":"4","last_reported":1734137391,"current_range_meters":37600,"station_id":"ce4bgt12rcd13ifvqcd0","pricing_plan_id":"cebpf4jnsgd1na2vs0mg"},{"bike_id":"ca620766-cdf5-479d-94ca-d0735cd44994","system_id":"levelo_inurba_marseille","lat":43.3133,"lon":5.39702,"is_reserved":false,"is_disabled":false,"rental_uris":{"android":"levelo://app?vid=ca620766-cdf5-479d-94ca-d0735cd44994","ios":"levelo://app?vid=ca620766-cdf5-479d-94ca-d0735cd44994"},"vehicle_type_id":"4","last_reported":1734137391,"current_range_meters":30000,"station_id":"ce4bgvp2rcd13ifvqcu0","pricing_plan_id":"cebpf4jnsgd1na2vs0mg"},{"bike_id":"bc77552c-f2bc-4368-bc19-7004372d4910","system_id":"levelo_inurba_marseille","lat":43.31331,"lon":5.39696,"is_reserved":false,"is_disabled":false,"rental_uris":{"android":"levelo://app?vid=bc77552c-f2bc-4368-bc19-7004372d4910","ios":"levelo://app?vid=bc77552c-f2bc-4368-bc19-7004372d4910"},"vehicle_type_id":"4","last_reported":1734137391,"current_range_meters":38800,"station_id":"ce4bgvp2rcd13ifvqcu0","pricing_plan_id":"cebpf4jnsgd1na2vs0mg"},{"bike_id":"773210ee-d19a-4226-90f8-e420da4ce6bd","system_id":"levelo_inurba_marseille","lat":43.30227,"lon":5.40071,"is_reserved":false,"is_disabled":true,"rental_uris":{"android":"levelo://app?vid=773210ee-d19a-4226-90f8-e420da4ce6bd","ios":"levelo://app?vid=773210ee-d19a-4226-90f8-e420da4ce6bd"},"vehicle_type_id":"4","last_reported":1734137391,"current_range_meters":4800,"station_id":"ce4bgvh2rcd13ifvqcs0","pricing_plan_id":"cebpf4jnsgd1na2vs0mg"},{"bike_id":"da345435-a4ab-4142-96e2-d4c3515056c7","system_id":"levelo_inurba_marseille","lat":43.30129,"lon":5.38776,"is_reserved":false,"is_disabled":true,"rental_uris":{"android":"levelo://app?vid=da345435-a4ab-4142-96e2-d4c3515056c7","ios":"levelo://app?vid=da345435-a4ab-4142-96e2-d4c3515056c7"},"vehicle_type_id":"4","last_reported":1734137391,"current_range_meters":0,"station_id":"ce4bghh2rcd13ifvqb60","pricing_plan_id":"cebpf4jnsgd1na2vs0mg"},{"bike_id":"1dcb2b19-c38f-4c18-9470-8004942c15c1","system_id":"levelo_inurba_marseille","lat":43.27803,"lon":5.40711,"is_reserved":false,"is_disabled":false,"rental_uris":{"android":"levelo://app?vid=1dcb2b19-c38f-4c18-9470-8004942c15c1","ios":"levelo://app?vid=1dcb2b19-c38f-4c18-9470-8004942c15c1"},"vehicle_type_id":"4","last_reported":1734137391,"current_range_meters":38000,"station_id":"ce4bhnh2rcd13ifvqgtg","pricing_plan_id":"cebpf4jnsgd1na2vs0mg"},{"bike_id":"17753659-7324-41bb-bd31-31c3285ef61d","system_id":"levelo_inurba_marseille","lat":43.24077,"lon":5.37756,"is_reserved":false,"is_disabled":false,"rental_uris":{"android":"levelo://app?vid=17753659-7324-41bb-bd31-31c3285ef61d","ios":"levelo://app?vid=17753659-7324-41bb-bd31-31c3285ef61d"},"vehicle_type_id":"4","last_reported":1734137391,"current_range_meters":20800,"station_id":"ce4bhnp2rcd13ifvqgvg","pricing_plan_id":"cebpf4jnsgd1na2vs0mg"},{"bike_id":"9ad311dd-c450-4f09-933a-ef53d4559dc3","system_id":"levelo_inurba_marseille","lat":43.26991,"lon":5.39865,"is_reserved":false,"is_disabled":false,"rental_uris":{"android":"levelo://app?vid=9ad311dd-c450-4f09-933a-ef53d4559dc3","ios":"levelo://app?vid=9ad311dd-c450-4f09-933a-ef53d4559dc3"},"vehicle_type_id":"4","last_reported":1734137391,"current_range_meters":28800,"station_id":"","pricing_plan_id":"cebpf4jnsgd1na2vs0mg"},{"bike_id":"22b40bf9-1530-41df-9c66-58757ccd112d","system_id":"levelo_inurba_marseille","lat":43.30808,"lon":5.38139,"is_reserved":false,"is_disabled":false,"rental_uris":{"android":"levelo://app?vid=22b40bf9-1530-41df-9c66-58757ccd112d","ios":"levelo://app?vid=22b40bf9-1530-41df-9c66-58757ccd112d"},"vehicle_type_id":"4","last_reported":1734137391,"current_range_meters":32800,"station_id":"ce4bgt12rcd13ifvqce0","pricing_plan_id":"cebpf4jnsgd1na2vs0mg"},{"bike_id":"481df542-7559-4bc6-9890-f15fa4f8fa43","system_id":"levelo_inurba_marseille","lat":43.30426,"lon":5.38893,"is_reserved":false,"is_disabled":true,"rental_uris":{"android":"levelo://app?vid=481df542-7559-4bc6-9890-f15fa4f8fa43","ios":"levelo://app?vid=481df542-7559-4bc6-9890-f15fa4f8fa43"},"vehicle_type_id":"4","last_reported":1734137391,"current_range_meters":800,"station_id":"ce4bgk12rcd13ifvqbi0","pricing_plan_id":"cebpf4jnsgd1na2vs0mg"},{"bike_id":"dce79262-6094-4d3b-b3ca-313cc390b2bc","system_id":"levelo_inurba_marseille","lat":43.27931,"lon":5.41039,"is_reserved":false,"is_disabled":false,"rental_uris":{"android":"levelo://app?vid=dce79262-6094-4d3b-b3ca-313cc390b2bc","ios":"levelo://app?vid=dce79262-6094-4d3b-b3ca-313cc390b2bc"},"vehicle_type_id":"4","last_reported":1734137391,"current_range_meters":27600,"station_id":"ce4bhnp2rcd13ifvqh0g","pricing_plan_id":"cebpf4jnsgd1na2vs0mg"},{"bike_id":"be2c4866-e2c4-4f57-a6cc-47eff366c846","system_id":"levelo_inurba_marseille","lat":43.25111,"lon":5.40326,"is_reserved":false,"is_disabled":false,"rental_uris":{"android":"levelo://app?vid=be2c4866-e2c4-4f57-a6cc-47eff366c846","ios":"levelo://app?vid=be2c4866-e2c4-4f57-a6cc-47eff366c846"},"vehicle_type_id":"4","last_reported":1734137391,"current_range_meters":26800,"station_id":"ce4bhlh2rcd13ifvqgig","pricing_plan_id":"cebpf4jnsgd1na2vs0mg"},{"bike_id":"af67ac53-ba21-4ff0-8334-95679e9ff2cc","system_id":"levelo_inurba_marseille","lat":43.278805,"lon":5.388003,"is_reserved":false,"is_disabled":true,"rental_uris":{"android":"levelo://app?vid=af67ac53-ba21-4ff0-8334-95679e9ff2cc","ios":"levelo://app?vid=af67ac53-ba21-4ff0-8334-95679e9ff2cc"},"vehicle_type_id":"4","last_reported":1734137391,"current_range_meters":4000,"station_id":"","pricing_plan_id":"cebpf4jnsgd1na2vs0mg"},{"bike_id":"2ea868f3-0817-4607-b9eb-307e481a70e3","system_id":"levelo_inurba_marseille","lat":43.27971,"lon":5.38727,"is_reserved":false,"is_disabled":false,"rental_uris":{"android":"levelo://app?vid=2ea868f3-0817-4607-b9eb-307e481a70e3","ios":"levelo://app?vid=2ea868f3-0817-4607-b9eb-307e481a70e3"},"vehicle_type_id":"4","last_reported":1734137391,"current_range_meters":4000,"station_id":"ce4bhg12rcd13ifvqf80","pricing_plan_id":"cebpf4jnsgd1na2vs0mg"},{"bike_id":"68583a34-e7e2-4401-9e35-e2a62a82d2eb","system_id":"levelo_inurba_marseille","lat":43.31225,"lon":5.36862,"is_reserved":false,"is_disabled":false,"rental_uris":{"android":"levelo://app?vid=68583a34-e7e2-4401-9e35-e2a62a82d2eb","ios":"levelo://app?vid=68583a34-e7e2-4401-9e35-e2a62a82d2eb"},"vehicle_type_id":"4","last_reported":1734137391,"current_range_meters":29600,"station_id":"ce4bgl92rcd13ifvqbq0","pricing_plan_id":"cebpf4jnsgd1na2vs0mg"},{"bike_id":"0232408d-292c-41d3-b181-663261afd040","system_id":"levelo_inurba_marseille","lat":43.274839,"lon":5.409176,"is_reserved":false,"is_disabled":false,"rental_uris":{"android":"levelo://app?vid=0232408d-292c-41d3-b181-663261afd040","ios":"levelo://app?vid=0232408d-292c-41d3-b181-663261afd040"},"vehicle_type_id":"4","last_reported":1734137391,"current_range_meters":36400,"station_id":"","pricing_plan_id":"cebpf4jnsgd1na2vs0mg"},{"bike_id":"5f3b6269-aa16-4c3d-b3a1-ae7fa8e67e78","system_id":"levelo_inurba_marseille","lat":43.28553,"lon":5.39493,"is_reserved":false,"is_disabled":false,"rental_uris":{"android":"levelo://app?vid=5f3b6269-aa16-4c3d-b3a1-ae7fa8e67e78","ios":"levelo://app?vid=5f3b6269-aa16-4c3d-b3a1-ae7fa8e67e78"},"vehicle_type_id":"4","last_reported":1734137391,"current_range_meters":9600,"station_id":"ce4bh292rcd13ifvqdg0","pricing_plan_id":"cebpf4jnsgd1na2vs0mg"},{"bike_id":"d8d7ffef-ae54-446a-a28c-8265164b47ce","system_id":"levelo_inurba_marseille","lat":43.29162,"lon":5.43911,"is_reserved":false,"is_disabled":true,"rental_uris":{"android":"levelo://app?vid=d8d7ffef-ae54-446a-a28c-8265164b47ce","ios":"levelo://app?vid=d8d7ffef-ae54-446a-a28c-8265164b47ce"},"vehicle_type_id":"4","last_reported":1734137391,"current_range_meters":28000,"station_id":"","pricing_plan_id":"cebpf4jnsgd1na2vs0mg"},{"bike_id":"b7aeeae1-6a09-4e96-b177-2d379498f397","system_id":"levelo_inurba_marseille","lat":43.27939,"lon":5.41037,"is_reserved":false,"is_disabled":false,"rental_uris":{"android":"levelo://app?vid=b7aeeae1-6a09-4e96-b177-2d379498f397","ios":"levelo://app?vid=b7aeeae1-6a09-4e96-b177-2d379498f397"},"vehicle_type_id":"4","last_reported":1734137391,"current_range_meters":25200,"station_id":"ce4bhnp2rcd13ifvqh0g","pricing_plan_id":"cebpf4jnsgd1na2vs0mg"},{"bike_id":"c5768e7e-b244-4dfc-973f-384fac771fcc","system_id":"levelo_inurba_marseille","lat":43.28002,"lon":5.4165,"is_reserved":false,"is_disabled":false,"rental_uris":{"android":"levelo://app?vid=c5768e7e-b244-4dfc-973f-384fac771fcc","ios":"levelo://app?vid=c5768e7e-b244-4dfc-973f-384fac771fcc"},"vehicle_type_id":"4","last_reported":1734137391,"current_range_meters":38400,"station_id":"ce4bho12rcd13ifvqh1g","pricing_plan_id":"cebpf4jnsgd1na2vs0mg"},{"bike_id":"d65fcea9-51ba-41f0-86fd-e798dfdd6f09","system_id":"levelo_inurba_marseille","lat":43.28696,"lon":5.38303,"is_reserved":false,"is_disabled":true,"rental_uris":{"android":"levelo://app?vid=d65fcea9-51ba-41f0-86fd-e798dfdd6f09","ios":"levelo://app?vid=d65fcea9-51ba-41f0-86fd-e798dfdd6f09"},"vehicle_type_id":"4","last_reported":1734137391,"current_range_meters":0,"station_id":"","pricing_plan_id":"cebpf4jnsgd1na2vs0mg"},{"bike_id":"257e7841-ba48-4fb6-ab60-cfed7eeb95dc","system_id":"levelo_inurba_marseille","lat":43.29577,"lon":5.37498,"is_reserved":false,"is_disabled":true,"rental_uris":{"android":"levelo://app?vid=257e7841-ba48-4fb6-ab60-cfed7eeb95dc","ios":"levelo://app?vid=257e7841-ba48-4fb6-ab60-cfed7eeb95dc"},"vehicle_type_id":"4","last_reported":1734137391,"current_range_meters":24000,"station_id":"ce4bgh92rcd13ifvqb50","pricing_plan_id":"cebpf4jnsgd1na2vs0mg"},{"bike_id":"3cffa040-7e8b-4d9e-a1bd-b8a78d782447","system_id":"levelo_inurba_marseille","lat":43.314905,"lon":5.373088,"is_reserved":false,"is_disabled":true,"rental_uris":{"android":"levelo://app?vid=3cffa040-7e8b-4d9e-a1bd-b8a78d782447","ios":"levelo://app?vid=3cffa040-7e8b-4d9e-a1bd-b8a78d782447"},"vehicle_type_id":"4","last_reported":1734137391,"current_range_meters":1600,"station_id":"","pricing_plan_id":"cebpf4jnsgd1na2vs0mg"},{"bike_id":"2faaabaa-71a8-48f1-85b8-7123cafe1655","system_id":"levelo_inurba_marseille","lat":43.25083,"lon":5.39506,"is_reserved":false,"is_disabled":false,"rental_uris":{"android":"levelo://app?vid=2faaabaa-71a8-48f1-85b8-7123cafe1655","ios":"levelo://app?vid=2faaabaa-71a8-48f1-85b8-7123cafe1655"},"vehicle_type_id":"4","last_reported":1734137391,"current_range_meters":16000,"station_id":"ce4bhm12rcd13ifvqgkg","pricing_plan_id":"cebpf4jnsgd1na2vs0mg"},{"bike_id":"a0a46aa4-83e5-45ab-93bf-b55f8457218a","system_id":"levelo_inurba_marseille","lat":43.29499,"lon":5.394271,"is_reserved":false,"is_disabled":false,"rental_uris":{"android":"levelo://app?vid=a0a46aa4-83e5-45ab-93bf-b55f8457218a","ios":"levelo://app?vid=a0a46aa4-83e5-45ab-93bf-b55f8457218a"},"vehicle_type_id":"4","last_reported":1734137391,"current_range_meters":38000,"station_id":"ce4bh292rcd13ifvqdf0","pricing_plan_id":"cebpf4jnsgd1na2vs0mg"},{"bike_id":"e2acdf8b-8ba2-467c-898b-197998254ef5","system_id":"levelo_inurba_marseille","lat":43.26799,"lon":5.40266,"is_reserved":false,"is_disabled":false,"rental_uris":{"android":"levelo://app?vid=e2acdf8b-8ba2-467c-898b-197998254ef5","ios":"levelo://app?vid=e2acdf8b-8ba2-467c-898b-197998254ef5"},"vehicle_type_id":"4","last_reported":1734137391,"current_range_meters":38800,"station_id":"ce501612rcd8frsf0b60","pricing_plan_id":"cebpf4jnsgd1na2vs0mg"},{"bike_id":"e5007d7d-30da-4cfd-a7f0-3df2adfbe187","system_id":"levelo_inurba_marseille","lat":43.29771,"lon":5.38975,"is_reserved":false,"is_disabled":false,"rental_uris":{"android":"levelo://app?vid=e5007d7d-30da-4cfd-a7f0-3df2adfbe187","ios":"levelo://app?vid=e5007d7d-30da-4cfd-a7f0-3df2adfbe187"},"vehicle_type_id":"4","last_reported":1734137391,"current_range_meters":20000,"station_id":"","pricing_plan_id":"cebpf4jnsgd1na2vs0mg"},{"bike_id":"1ea542db-9a43-419f-bd58-69a2e2f0f228","system_id":"levelo_inurba_marseille","lat":43.28452,"lon":5.35912,"is_reserved":false,"is_disabled":false,"rental_uris":{"android":"levelo://app?vid=1ea542db-9a43-419f-bd58-69a2e2f0f228","ios":"levelo://app?vid=1ea542db-9a43-419f-bd58-69a2e2f0f228"},"vehicle_type_id":"4","last_reported":1734137391,"current_range_meters":35200,"station_id":"ce4bhah2rcd13ifvqei0","pricing_plan_id":"cebpf4jnsgd1na2vs0mg"},{"bike_id":"64203de9-e72b-4d66-9a84-7a315c7ed37f","system_id":"levelo_inurba_marseille","lat":43.29446,"lon":5.37433,"is_reserved":false,"is_disabled":true,"rental_uris":{"android":"levelo://app?vid=64203de9-e72b-4d66-9a84-7a315c7ed37f","ios":"levelo://app?vid=64203de9-e72b-4d66-9a84-7a315c7ed37f"},"vehicle_type_id":"4","last_reported":1734137391,"current_range_meters":0,"station_id":"","pricing_plan_id":"cebpf4jnsgd1na2vs0mg"},{"bike_id":"14b01a59-2a1e-4f8a-ad92-4759c5dd06d5","system_id":"levelo_inurba_marseille","lat":43.30894,"lon":5.37216,"is_reserved":false,"is_disabled":false,"rental_uris":{"android":"levelo://app?vid=14b01a59-2a1e-4f8a-ad92-4759c5dd06d5","ios":"levelo://app?vid=14b01a59-2a1e-4f8a-ad92-4759c5dd06d5"},"vehicle_type_id":"4","last_reported":1734137391,"current_range_meters":19600,"station_id":"ce4bguh2rcd13ifvqckg","pricing_plan_id":"cebpf4jnsgd1na2vs0mg"},{"bike_id":"38d0c7e9-8393-4f32-b959-cb8472a4482b","system_id":"levelo_inurba_marseille","lat":43.30794,"lon":5.38148,"is_reserved":false,"is_disabled":false,"rental_uris":{"android":"levelo://app?vid=38d0c7e9-8393-4f32-b959-cb8472a4482b","ios":"levelo://app?vid=38d0c7e9-8393-4f32-b959-cb8472a4482b"},"vehicle_type_id":"4","last_reported":1734137391,"current_range_meters":34800,"station_id":"ce4bgt12rcd13ifvqce0","pricing_plan_id":"cebpf4jnsgd1na2vs0mg"},{"bike_id":"c05fc718-af0d-4f54-af56-2e51dca2e2a1","system_id":"levelo_inurba_marseille","lat":43.25583,"lon":5.38229,"is_reserved":false,"is_disabled":false,"rental_uris":{"android":"levelo://app?vid=c05fc718-af0d-4f54-af56-2e51dca2e2a1","ios":"levelo://app?vid=c05fc718-af0d-4f54-af56-2e51dca2e2a1"},"vehicle_type_id":"4","last_reported":1734137391,"current_range_meters":38400,"station_id":"ce4bhih2rcd13ifvqfs0","pricing_plan_id":"cebpf4jnsgd1na2vs0mg"},{"bike_id":"5868d62f-ceef-4d77-a8f9-938364211808","system_id":"levelo_inurba_marseille","lat":43.31077,"lon":5.38344,"is_reserved":false,"is_disabled":false,"rental_uris":{"android":"levelo://app?vid=5868d62f-ceef-4d77-a8f9-938364211808","ios":"levelo://app?vid=5868d62f-ceef-4d77-a8f9-938364211808"},"vehicle_type_id":"4","last_reported":1734137391,"current_range_meters":28400,"station_id":"ce4bgv92rcd13ifvqcr0","pricing_plan_id":"cebpf4jnsgd1na2vs0mg"},{"bike_id":"90265536-82be-4cbe-a85c-76a46ed64a58","system_id":"levelo_inurba_marseille","lat":43.3177,"lon":5.39024,"is_reserved":false,"is_disabled":false,"rental_uris":{"android":"levelo://app?vid=90265536-82be-4cbe-a85c-76a46ed64a58","ios":"levelo://app?vid=90265536-82be-4cbe-a85c-76a46ed64a58"},"vehicle_type_id":"4","last_reported":1734137391,"current_range_meters":16400,"station_id":"ce4bhqp2rcd13ifvqhng","pricing_plan_id":"cebpf4jnsgd1na2vs0mg"},{"bike_id":"ba72592f-18be-443f-942d-68929517a518","system_id":"levelo_inurba_marseille","lat":43.31371,"lon":5.38498,"is_reserved":false,"is_disabled":false,"rental_uris":{"android":"levelo://app?vid=ba72592f-18be-443f-942d-68929517a518","ios":"levelo://app?vid=ba72592f-18be-443f-942d-68929517a518"},"vehicle_type_id":"4","last_reported":1734137391,"current_range_meters":15200,"station_id":"ce4bgt92rcd13ifvqcf0","pricing_plan_id":"cebpf4jnsgd1na2vs0mg"},{"bike_id":"5c23befe-e7d4-4dee-ac43-14eb04f945cb","system_id":"levelo_inurba_marseille","lat":43.30865,"lon":5.37796,"is_reserved":false,"is_disabled":false,"rental_uris":{"android":"levelo://app?vid=5c23befe-e7d4-4dee-ac43-14eb04f945cb","ios":"levelo://app?vid=5c23befe-e7d4-4dee-ac43-14eb04f945cb"},"vehicle_type_id":"4","last_reported":1734137391,"current_range_meters":38000,"station_id":"","pricing_plan_id":"cebpf4jnsgd1na2vs0mg"},{"bike_id":"9e537004-7250-4650-9370-76464cbe54e8","system_id":"levelo_inurba_marseille","lat":43.24181,"lon":5.39735,"is_reserved":false,"is_disabled":false,"rental_uris":{"android":"levelo://app?vid=9e537004-7250-4650-9370-76464cbe54e8","ios":"levelo://app?vid=9e537004-7250-4650-9370-76464cbe54e8"},"vehicle_type_id":"4","last_reported":1734137391,"current_range_meters":38800,"station_id":"ce4bhn12rcd13ifvqgpg","pricing_plan_id":"cebpf4jnsgd1na2vs0mg"},{"bike_id":"75b2d15d-b5a1-46ae-9685-4f0470e89a4d","system_id":"levelo_inurba_marseille","lat":43.28617,"lon":5.35103,"is_reserved":false,"is_disabled":false,"rental_uris":{"android":"levelo://app?vid=75b2d15d-b5a1-46ae-9685-4f0470e89a4d","ios":"levelo://app?vid=75b2d15d-b5a1-46ae-9685-4f0470e89a4d"},"vehicle_type_id":"4","last_reported":1734137391,"current_range_meters":16800,"station_id":"ce4bhch2rcd13ifvqeug","pricing_plan_id":"cebpf4jnsgd1na2vs0mg"},{"bike_id":"0c91b241-f80d-461b-8874-bf274de64d9b","system_id":"levelo_inurba_marseille","lat":43.30858,"lon":5.3966,"is_reserved":false,"is_disabled":false,"rental_uris":{"android":"levelo://app?vid=0c91b241-f80d-461b-8874-bf274de64d9b","ios":"levelo://app?vid=0c91b241-f80d-461b-8874-bf274de64d9b"},"vehicle_type_id":"4","last_reported":1734137391,"current_range_meters":17200,"station_id":"ce4bh012rcd13ifvqcv0","pricing_plan_id":"cebpf4jnsgd1na2vs0mg"},{"bike_id":"4944a382-a394-4d17-aa18-db43c39354bf","system_id":"levelo_inurba_marseille","lat":43.31762,"lon":5.39017,"is_reserved":false,"is_disabled":false,"rental_uris":{"android":"levelo://app?vid=4944a382-a394-4d17-aa18-db43c39354bf","ios":"levelo://app?vid=4944a382-a394-4d17-aa18-db43c39354bf"},"vehicle_type_id":"4","last_reported":1734137391,"current_range_meters":12400,"station_id":"ce4bhqp2rcd13ifvqhng","pricing_plan_id":"cebpf4jnsgd1na2vs0mg"},{"bike_id":"5490374d-b1fe-4cfd-8a84-014e1576cd4c","system_id":"levelo_inurba_marseille","lat":43.31726,"lon":5.42395,"is_reserved":false,"is_disabled":false,"rental_uris":{"android":"levelo://app?vid=5490374d-b1fe-4cfd-8a84-014e1576cd4c","ios":"levelo://app?vid=5490374d-b1fe-4cfd-8a84-014e1576cd4c"},"vehicle_type_id":"4","last_reported":1734137391,"current_range_meters":38000,"station_id":"ce4bhp92rcd13ifvqhbg","pricing_plan_id":"cebpf4jnsgd1na2vs0mg"},{"bike_id":"9229cf32-cb9d-4d85-bfda-99bf70c2b056","system_id":"levelo_inurba_marseille","lat":43.31121,"lon":5.377569,"is_reserved":false,"is_disabled":false,"rental_uris":{"android":"levelo://app?vid=9229cf32-cb9d-4d85-bfda-99bf70c2b056","ios":"levelo://app?vid=9229cf32-cb9d-4d85-bfda-99bf70c2b056"},"vehicle_type_id":"4","last_reported":1734137391,"current_range_meters":28400,"station_id":"ce4bgt92rcd13ifvqcg0","pricing_plan_id":"cebpf4jnsgd1na2vs0mg"},{"bike_id":"b948092c-9ab4-45a3-af33-669f10a0ca1c","system_id":"levelo_inurba_marseille","lat":43.24824,"lon":5.37485,"is_reserved":false,"is_disabled":false,"rental_uris":{"android":"levelo://app?vid=b948092c-9ab4-45a3-af33-669f10a0ca1c","ios":"levelo://app?vid=b948092c-9ab4-45a3-af33-669f10a0ca1c"},"vehicle_type_id":"4","last_reported":1734137391,"current_range_meters":34800,"station_id":"ce4bhgh2rcd13ifvqfb0","pricing_plan_id":"cebpf4jnsgd1na2vs0mg"},{"bike_id":"bb6094dd-51eb-4016-a439-f2743865afe4","system_id":"levelo_inurba_marseille","lat":43.30919,"lon":5.37845,"is_reserved":false,"is_disabled":true,"rental_uris":{"android":"levelo://app?vid=bb6094dd-51eb-4016-a439-f2743865afe4","ios":"levelo://app?vid=bb6094dd-51eb-4016-a439-f2743865afe4"},"vehicle_type_id":"4","last_reported":1734137391,"current_range_meters":25200,"station_id":"","pricing_plan_id":"cebpf4jnsgd1na2vs0mg"},{"bike_id":"1d50a816-6625-40c8-8452-4c565f4e5a40","system_id":"levelo_inurba_marseille","lat":43.24651,"lon":5.38889,"is_reserved":false,"is_disabled":true,"rental_uris":{"android":"levelo://app?vid=1d50a816-6625-40c8-8452-4c565f4e5a40","ios":"levelo://app?vid=1d50a816-6625-40c8-8452-4c565f4e5a40"},"vehicle_type_id":"4","last_reported":1734137391,"current_range_meters":0,"station_id":"ce4bhg12rcd13ifvqf60","pricing_plan_id":"cebpf4jnsgd1na2vs0mg"},{"bike_id":"7353de9c-c8be-493e-9b17-2ba24afaf3a6","system_id":"levelo_inurba_marseille","lat":43.30782,"lon":5.3765,"is_reserved":false,"is_disabled":false,"rental_uris":{"android":"levelo://app?vid=7353de9c-c8be-493e-9b17-2ba24afaf3a6","ios":"levelo://app?vid=7353de9c-c8be-493e-9b17-2ba24afaf3a6"},"vehicle_type_id":"4","last_reported":1734137391,"current_range_meters":30000,"station_id":"ce4bgv92rcd13ifvqcq0","pricing_plan_id":"cebpf4jnsgd1na2vs0mg"},{"bike_id":"e0a31c9a-be2e-435b-b95c-7118ac48c310","system_id":"levelo_inurba_marseille","lat":43.3229,"lon":5.38271,"is_reserved":false,"is_disabled":false,"rental_uris":{"android":"levelo://app?vid=e0a31c9a-be2e-435b-b95c-7118ac48c310","ios":"levelo://app?vid=e0a31c9a-be2e-435b-b95c-7118ac48c310"},"vehicle_type_id":"4","last_reported":1734137391,"current_range_meters":7200,"station_id":"ce4bhr12rcd13ifvqhqg","pricing_plan_id":"cebpf4jnsgd1na2vs0mg"},{"bike_id":"cfe506c2-ad1f-4e9c-8942-ed07095606ef","system_id":"levelo_inurba_marseille","lat":43.23184,"lon":5.39982,"is_reserved":false,"is_disabled":false,"rental_uris":{"android":"levelo://app?vid=cfe506c2-ad1f-4e9c-8942-ed07095606ef","ios":"levelo://app?vid=cfe506c2-ad1f-4e9c-8942-ed07095606ef"},"vehicle_type_id":"4","last_reported":1734137391,"current_range_meters":26800,"station_id":"ce4bhn12rcd13ifvqgqg","pricing_plan_id":"cebpf4jnsgd1na2vs0mg"},{"bike_id":"6216a9f2-d200-450b-b87b-bd7668740b6f","system_id":"levelo_inurba_marseille","lat":43.30887,"lon":5.37191,"is_reserved":false,"is_disabled":false,"rental_uris":{"android":"levelo://app?vid=6216a9f2-d200-450b-b87b-bd7668740b6f","ios":"levelo://app?vid=6216a9f2-d200-450b-b87b-bd7668740b6f"},"vehicle_type_id":"4","last_reported":1734137391,"current_range_meters":38800,"station_id":"ce4bguh2rcd13ifvqckg","pricing_plan_id":"cebpf4jnsgd1na2vs0mg"},{"bike_id":"818ef841-d8c0-4c92-9c0c-4a12654cda95","system_id":"levelo_inurba_marseille","lat":43.30576,"lon":5.37221,"is_reserved":false,"is_disabled":false,"rental_uris":{"android":"levelo://app?vid=818ef841-d8c0-4c92-9c0c-4a12654cda95","ios":"levelo://app?vid=818ef841-d8c0-4c92-9c0c-4a12654cda95"},"vehicle_type_id":"4","last_reported":1734137391,"current_range_meters":27600,"station_id":"ce4bgqh2rcd13ifvqc4g","pricing_plan_id":"cebpf4jnsgd1na2vs0mg"},{"bike_id":"18795326-0342-4aca-98ba-9a03d5183efb","system_id":"levelo_inurba_marseille","lat":43.317094,"lon":5.377576,"is_reserved":false,"is_disabled":false,"rental_uris":{"android":"levelo://app?vid=18795326-0342-4aca-98ba-9a03d5183efb","ios":"levelo://app?vid=18795326-0342-4aca-98ba-9a03d5183efb"},"vehicle_type_id":"4","last_reported":1734137391,"current_range_meters":38800,"station_id":"ce4bgth2rcd13ifvqch0","pricing_plan_id":"cebpf4jnsgd1na2vs0mg"},{"bike_id":"3ed89ca5-2cfd-4327-8499-d1edbb77f57c","system_id":"levelo_inurba_marseille","lat":43.24813,"lon":5.37456,"is_reserved":false,"is_disabled":false,"rental_uris":{"android":"levelo://app?vid=3ed89ca5-2cfd-4327-8499-d1edbb77f57c","ios":"levelo://app?vid=3ed89ca5-2cfd-4327-8499-d1edbb77f57c"},"vehicle_type_id":"4","last_reported":1734137391,"current_range_meters":38800,"station_id":"ce4bhgh2rcd13ifvqfb0","pricing_plan_id":"cebpf4jnsgd1na2vs0mg"},{"bike_id":"e7e57c14-d612-4f52-8242-ec8dcb5d1505","system_id":"levelo_inurba_marseille","lat":43.28926,"lon":5.36638,"is_reserved":false,"is_disabled":false,"rental_uris":{"android":"levelo://app?vid=e7e57c14-d612-4f52-8242-ec8dcb5d1505","ios":"levelo://app?vid=e7e57c14-d612-4f52-8242-ec8dcb5d1505"},"vehicle_type_id":"4","last_reported":1734137391,"current_range_meters":38000,"station_id":"ce4bhap2rcd13ifvqek0","pricing_plan_id":"cebpf4jnsgd1na2vs0mg"},{"bike_id":"7a41ed48-e201-4bc9-9392-98c95cf893ec","system_id":"levelo_inurba_marseille","lat":43.3081,"lon":5.38147,"is_reserved":false,"is_disabled":false,"rental_uris":{"android":"levelo://app?vid=7a41ed48-e201-4bc9-9392-98c95cf893ec","ios":"levelo://app?vid=7a41ed48-e201-4bc9-9392-98c95cf893ec"},"vehicle_type_id":"4","last_reported":1734137391,"current_range_meters":37600,"station_id":"ce4bgt12rcd13ifvqce0","pricing_plan_id":"cebpf4jnsgd1na2vs0mg"},{"bike_id":"d2abb3e0-3669-4a9c-8f02-0ae80db96712","system_id":"levelo_inurba_marseille","lat":43.30435,"lon":5.37853,"is_reserved":false,"is_disabled":false,"rental_uris":{"android":"levelo://app?vid=d2abb3e0-3669-4a9c-8f02-0ae80db96712","ios":"levelo://app?vid=d2abb3e0-3669-4a9c-8f02-0ae80db96712"},"vehicle_type_id":"4","last_reported":1734137391,"current_range_meters":14400,"station_id":"ce4bgup2rcd13ifvqcn0","pricing_plan_id":"cebpf4jnsgd1na2vs0mg"},{"bike_id":"915b1324-cf09-4d52-a36f-58bb08e14eca","system_id":"levelo_inurba_marseille","lat":43.31073,"lon":5.38343,"is_reserved":false,"is_disabled":false,"rental_uris":{"android":"levelo://app?vid=915b1324-cf09-4d52-a36f-58bb08e14eca","ios":"levelo://app?vid=915b1324-cf09-4d52-a36f-58bb08e14eca"},"vehicle_type_id":"4","last_reported":1734137391,"current_range_meters":38400,"station_id":"ce4bgv92rcd13ifvqcr0","pricing_plan_id":"cebpf4jnsgd1na2vs0mg"},{"bike_id":"cf1dbfe9-2fcb-42e2-b23a-1f564b284913","system_id":"levelo_inurba_marseille","lat":43.30789,"lon":5.37404,"is_reserved":false,"is_disabled":false,"rental_uris":{"android":"levelo://app?vid=cf1dbfe9-2fcb-42e2-b23a-1f564b284913","ios":"levelo://app?vid=cf1dbfe9-2fcb-42e2-b23a-1f564b284913"},"vehicle_type_id":"4","last_reported":1734137391,"current_range_meters":36000,"station_id":"","pricing_plan_id":"cebpf4jnsgd1na2vs0mg"},{"bike_id":"1e267932-f6c6-4991-9c6b-8abf107c1a22","system_id":"levelo_inurba_marseille","lat":43.32278,"lon":5.38275,"is_reserved":false,"is_disabled":false,"rental_uris":{"android":"levelo://app?vid=1e267932-f6c6-4991-9c6b-8abf107c1a22","ios":"levelo://app?vid=1e267932-f6c6-4991-9c6b-8abf107c1a22"},"vehicle_type_id":"4","last_reported":1734137391,"current_range_meters":38800,"station_id":"ce4bhr12rcd13ifvqhqg","pricing_plan_id":"cebpf4jnsgd1na2vs0mg"},{"bike_id":"f542905e-715c-4729-b164-b417379fe09e","system_id":"levelo_inurba_marseille","lat":43.32648,"lon":5.41002,"is_reserved":false,"is_disabled":false,"rental_uris":{"android":"levelo://app?vid=f542905e-715c-4729-b164-b417379fe09e","ios":"levelo://app?vid=f542905e-715c-4729-b164-b417379fe09e"},"vehicle_type_id":"4","last_reported":1734137391,"current_range_meters":20800,"station_id":"ce4bhpp2rcd13ifvqhgg","pricing_plan_id":"cebpf4jnsgd1na2vs0mg"},{"bike_id":"b581ae17-510b-4f67-90c1-bf69fba53807","system_id":"levelo_inurba_marseille","lat":43.27073,"lon":5.42282,"is_reserved":false,"is_disabled":false,"rental_uris":{"android":"levelo://app?vid=b581ae17-510b-4f67-90c1-bf69fba53807","ios":"levelo://app?vid=b581ae17-510b-4f67-90c1-bf69fba53807"},"vehicle_type_id":"4","last_reported":1734137391,"current_range_meters":38800,"station_id":"ce4bhk92rcd13ifvqgb0","pricing_plan_id":"cebpf4jnsgd1na2vs0mg"},{"bike_id":"1484a08c-55ac-40d8-89a0-22f91086316b","system_id":"levelo_inurba_marseille","lat":43.29065,"lon":5.39987,"is_reserved":false,"is_disabled":true,"rental_uris":{"android":"levelo://app?vid=1484a08c-55ac-40d8-89a0-22f91086316b","ios":"levelo://app?vid=1484a08c-55ac-40d8-89a0-22f91086316b"},"vehicle_type_id":"4","last_reported":1734137391,"current_range_meters":36400,"station_id":"ce4bh392rcd13ifvqdm0","pricing_plan_id":"cebpf4jnsgd1na2vs0mg"},{"bike_id":"21b390a6-5849-4185-8e0b-7994a2957405","system_id":"levelo_inurba_marseille","lat":43.26033,"lon":5.37543,"is_reserved":false,"is_disabled":false,"rental_uris":{"android":"levelo://app?vid=21b390a6-5849-4185-8e0b-7994a2957405","ios":"levelo://app?vid=21b390a6-5849-4185-8e0b-7994a2957405"},"vehicle_type_id":"4","last_reported":1734137391,"current_range_meters":24000,"station_id":"","pricing_plan_id":"cebpf4jnsgd1na2vs0mg"},{"bike_id":"6bc7401a-ad66-4e4d-bfd6-a954bc5b40c0","system_id":"levelo_inurba_marseille","lat":43.337527,"lon":5.37441,"is_reserved":false,"is_disabled":false,"rental_uris":{"android":"levelo://app?vid=6bc7401a-ad66-4e4d-bfd6-a954bc5b40c0","ios":"levelo://app?vid=6bc7401a-ad66-4e4d-bfd6-a954bc5b40c0"},"vehicle_type_id":"4","last_reported":1734137391,"current_range_meters":28000,"station_id":"","pricing_plan_id":"cebpf4jnsgd1na2vs0mg"},{"bike_id":"ace4b922-46fc-4280-876c-f499c5ab2105","system_id":"levelo_inurba_marseille","lat":43.28943,"lon":5.36395,"is_reserved":false,"is_disabled":false,"rental_uris":{"android":"levelo://app?vid=ace4b922-46fc-4280-876c-f499c5ab2105","ios":"levelo://app?vid=ace4b922-46fc-4280-876c-f499c5ab2105"},"vehicle_type_id":"4","last_reported":1734137391,"current_range_meters":38800,"station_id":"ce4bhc92rcd13ifvqetg","pricing_plan_id":"cebpf4jnsgd1na2vs0mg"},{"bike_id":"28fc90b9-3e7b-4c11-b6c2-40d95902dadd","system_id":"levelo_inurba_marseille","lat":43.22936,"lon":5.3539,"is_reserved":false,"is_disabled":false,"rental_uris":{"android":"levelo://app?vid=28fc90b9-3e7b-4c11-b6c2-40d95902dadd","ios":"levelo://app?vid=28fc90b9-3e7b-4c11-b6c2-40d95902dadd"},"vehicle_type_id":"4","last_reported":1734137391,"current_range_meters":38800,"station_id":"cpo3532slgdg3j2ikp40","pricing_plan_id":"cebpf4jnsgd1na2vs0mg"},{"bike_id":"8433f848-247d-4700-9f40-ca5bca59233f","system_id":"levelo_inurba_marseille","lat":43.31712,"lon":5.40449,"is_reserved":false,"is_disabled":false,"rental_uris":{"android":"levelo://app?vid=8433f848-247d-4700-9f40-ca5bca59233f","ios":"levelo://app?vid=8433f848-247d-4700-9f40-ca5bca59233f"},"vehicle_type_id":"4","last_reported":1734137391,"current_range_meters":24800,"station_id":"ce4bh012rcd13ifvqd00","pricing_plan_id":"cebpf4jnsgd1na2vs0mg"},{"bike_id":"98f53582-3913-4c4e-b5fb-adcbea86d1ea","system_id":"levelo_inurba_marseille","lat":43.3066,"lon":5.40096,"is_reserved":false,"is_disabled":false,"rental_uris":{"android":"levelo://app?vid=98f53582-3913-4c4e-b5fb-adcbea86d1ea","ios":"levelo://app?vid=98f53582-3913-4c4e-b5fb-adcbea86d1ea"},"vehicle_type_id":"4","last_reported":1734137391,"current_range_meters":38800,"station_id":"ce4bh112rcd13ifvqda0","pricing_plan_id":"cebpf4jnsgd1na2vs0mg"},{"bike_id":"eb1496f4-67ed-47fd-8660-60023378367f","system_id":"levelo_inurba_marseille","lat":43.294212,"lon":5.374322,"is_reserved":false,"is_disabled":true,"rental_uris":{"android":"levelo://app?vid=eb1496f4-67ed-47fd-8660-60023378367f","ios":"levelo://app?vid=eb1496f4-67ed-47fd-8660-60023378367f"},"vehicle_type_id":"4","last_reported":1734137391,"current_range_meters":0,"station_id":"","pricing_plan_id":"cebpf4jnsgd1na2vs0mg"},{"bike_id":"edd07c02-9936-4457-bd98-063c892656f8","system_id":"levelo_inurba_marseille","lat":43.310442,"lon":5.374674,"is_reserved":false,"is_disabled":false,"rental_uris":{"android":"levelo://app?vid=edd07c02-9936-4457-bd98-063c892656f8","ios":"levelo://app?vid=edd07c02-9936-4457-bd98-063c892656f8"},"vehicle_type_id":"4","last_reported":1734137391,"current_range_meters":6800,"station_id":"","pricing_plan_id":"cebpf4jnsgd1na2vs0mg"},{"bike_id":"8e1ba1fa-6266-456d-83f1-1762b28682d5","system_id":"levelo_inurba_marseille","lat":43.27943,"lon":5.41038,"is_reserved":false,"is_disabled":false,"rental_uris":{"android":"levelo://app?vid=8e1ba1fa-6266-456d-83f1-1762b28682d5","ios":"levelo://app?vid=8e1ba1fa-6266-456d-83f1-1762b28682d5"},"vehicle_type_id":"4","last_reported":1734137391,"current_range_meters":17200,"station_id":"ce4bhnp2rcd13ifvqh0g","pricing_plan_id":"cebpf4jnsgd1na2vs0mg"},{"bike_id":"65d568c6-8506-49b0-8cfa-756cd0b044c2","system_id":"levelo_inurba_marseille","lat":43.28148,"lon":5.42593,"is_reserved":false,"is_disabled":false,"rental_uris":{"android":"levelo://app?vid=65d568c6-8506-49b0-8cfa-756cd0b044c2","ios":"levelo://app?vid=65d568c6-8506-49b0-8cfa-756cd0b044c2"},"vehicle_type_id":"4","last_reported":1734137391,"current_range_meters":36400,"station_id":"ce4bhnh2rcd13ifvqgug","pricing_plan_id":"cebpf4jnsgd1na2vs0mg"},{"bike_id":"a2e3bf37-f1e5-4b35-adeb-0da3e0fe69d3","system_id":"levelo_inurba_marseille","lat":43.28629,"lon":5.38604,"is_reserved":false,"is_disabled":true,"rental_uris":{"android":"levelo://app?vid=a2e3bf37-f1e5-4b35-adeb-0da3e0fe69d3","ios":"levelo://app?vid=a2e3bf37-f1e5-4b35-adeb-0da3e0fe69d3"},"vehicle_type_id":"4","last_reported":1734137391,"current_range_meters":0,"station_id":"","pricing_plan_id":"cebpf4jnsgd1na2vs0mg"},{"bike_id":"ffac0b01-9e03-4f17-9374-154ed82d2c00","system_id":"levelo_inurba_marseille","lat":43.29451,"lon":5.39727,"is_reserved":false,"is_disabled":false,"rental_uris":{"android":"levelo://app?vid=ffac0b01-9e03-4f17-9374-154ed82d2c00","ios":"levelo://app?vid=ffac0b01-9e03-4f17-9374-154ed82d2c00"},"vehicle_type_id":"4","last_reported":1734137391,"current_range_meters":38800,"station_id":"ce4bh3h2rcd13ifvqdo0","pricing_plan_id":"cebpf4jnsgd1na2vs0mg"},{"bike_id":"87cf07ff-a8a5-4025-be06-a1d26efad380","system_id":"levelo_inurba_marseille","lat":43.26494,"lon":5.39546,"is_reserved":false,"is_disabled":false,"rental_uris":{"android":"levelo://app?vid=87cf07ff-a8a5-4025-be06-a1d26efad380","ios":"levelo://app?vid=87cf07ff-a8a5-4025-be06-a1d26efad380"},"vehicle_type_id":"4","last_reported":1734137391,"current_range_meters":37600,"station_id":"ce4bhi12rcd13ifvqfq0","pricing_plan_id":"cebpf4jnsgd1na2vs0mg"},{"bike_id":"f8d5f8ee-05d6-4c15-8156-9843ec1d288b","system_id":"levelo_inurba_marseille","lat":43.30136,"lon":5.39854,"is_reserved":false,"is_disabled":false,"rental_uris":{"android":"levelo://app?vid=f8d5f8ee-05d6-4c15-8156-9843ec1d288b","ios":"levelo://app?vid=f8d5f8ee-05d6-4c15-8156-9843ec1d288b"},"vehicle_type_id":"4","last_reported":1734137391,"current_range_meters":27200,"station_id":"ce4bh0h2rcd13ifvqd40","pricing_plan_id":"cebpf4jnsgd1na2vs0mg"},{"bike_id":"65457678-d3fc-4f55-93a8-5c6c4dd8f581","system_id":"levelo_inurba_marseille","lat":43.26942,"lon":5.40251,"is_reserved":false,"is_disabled":false,"rental_uris":{"android":"levelo://app?vid=65457678-d3fc-4f55-93a8-5c6c4dd8f581","ios":"levelo://app?vid=65457678-d3fc-4f55-93a8-5c6c4dd8f581"},"vehicle_type_id":"4","last_reported":1734137391,"current_range_meters":28000,"station_id":"cjm6bp8fraef2m0cb0m0","pricing_plan_id":"cebpf4jnsgd1na2vs0mg"},{"bike_id":"cce67717-a9b6-479b-8fc5-5c27551476ed","system_id":"levelo_inurba_marseille","lat":43.31274,"lon":5.40167,"is_reserved":false,"is_disabled":false,"rental_uris":{"android":"levelo://app?vid=cce67717-a9b6-479b-8fc5-5c27551476ed","ios":"levelo://app?vid=cce67717-a9b6-479b-8fc5-5c27551476ed"},"vehicle_type_id":"4","last_reported":1734137391,"current_range_meters":36800,"station_id":"ce4bh092rcd13ifvqd30","pricing_plan_id":"cebpf4jnsgd1na2vs0mg"},{"bike_id":"ec927667-9164-479a-b446-395f55c955bb","system_id":"levelo_inurba_marseille","lat":43.22924,"lon":5.35383,"is_reserved":false,"is_disabled":false,"rental_uris":{"android":"levelo://app?vid=ec927667-9164-479a-b446-395f55c955bb","ios":"levelo://app?vid=ec927667-9164-479a-b446-395f55c955bb"},"vehicle_type_id":"4","last_reported":1734137391,"current_range_meters":38000,"station_id":"cpo3532slgdg3j2ikp40","pricing_plan_id":"cebpf4jnsgd1na2vs0mg"},{"bike_id":"183d5e76-1c22-45db-9f48-275014084044","system_id":"levelo_inurba_marseille","lat":43.31756,"lon":5.39009,"is_reserved":false,"is_disabled":false,"rental_uris":{"android":"levelo://app?vid=183d5e76-1c22-45db-9f48-275014084044","ios":"levelo://app?vid=183d5e76-1c22-45db-9f48-275014084044"},"vehicle_type_id":"4","last_reported":1734137391,"current_range_meters":16400,"station_id":"ce4bhqp2rcd13ifvqhng","pricing_plan_id":"cebpf4jnsgd1na2vs0mg"},{"bike_id":"711239b6-d6f1-4487-b62a-be8b37fd5728","system_id":"levelo_inurba_marseille","lat":43.30256,"lon":5.40079,"is_reserved":false,"is_disabled":false,"rental_uris":{"android":"levelo://app?vid=711239b6-d6f1-4487-b62a-be8b37fd5728","ios":"levelo://app?vid=711239b6-d6f1-4487-b62a-be8b37fd5728"},"vehicle_type_id":"4","last_reported":1734137391,"current_range_meters":27600,"station_id":"ce4bgvh2rcd13ifvqcs0","pricing_plan_id":"cebpf4jnsgd1na2vs0mg"},{"bike_id":"e171553a-d499-40c6-b158-4c1c9a0d09dc","system_id":"levelo_inurba_marseille","lat":43.27191,"lon":5.40998,"is_reserved":false,"is_disabled":false,"rental_uris":{"android":"levelo://app?vid=e171553a-d499-40c6-b158-4c1c9a0d09dc","ios":"levelo://app?vid=e171553a-d499-40c6-b158-4c1c9a0d09dc"},"vehicle_type_id":"4","last_reported":1734137391,"current_range_meters":39200,"station_id":"ce4bhl12rcd13ifvqgf0","pricing_plan_id":"cebpf4jnsgd1na2vs0mg"},{"bike_id":"298ee74d-f9b7-43a3-926b-cde85d4aaa14","system_id":"levelo_inurba_marseille","lat":43.28939,"lon":5.36627,"is_reserved":false,"is_disabled":false,"rental_uris":{"android":"levelo://app?vid=298ee74d-f9b7-43a3-926b-cde85d4aaa14","ios":"levelo://app?vid=298ee74d-f9b7-43a3-926b-cde85d4aaa14"},"vehicle_type_id":"4","last_reported":1734137391,"current_range_meters":38800,"station_id":"ce4bhap2rcd13ifvqek0","pricing_plan_id":"cebpf4jnsgd1na2vs0mg"},{"bike_id":"bbb05d93-49f6-43b2-acee-4027bcfb1d8c","system_id":"levelo_inurba_marseille","lat":43.27617,"lon":5.36116,"is_reserved":false,"is_disabled":false,"rental_uris":{"android":"levelo://app?vid=bbb05d93-49f6-43b2-acee-4027bcfb1d8c","ios":"levelo://app?vid=bbb05d93-49f6-43b2-acee-4027bcfb1d8c"},"vehicle_type_id":"4","last_reported":1734137391,"current_range_meters":38800,"station_id":"ce4bgj92rcd13ifvqbe0","pricing_plan_id":"cebpf4jnsgd1na2vs0mg"},{"bike_id":"a02bce7c-288c-46c0-a9fd-8aa8e0178c35","system_id":"levelo_inurba_marseille","lat":43.23196,"lon":5.35557,"is_reserved":false,"is_disabled":false,"rental_uris":{"android":"levelo://app?vid=a02bce7c-288c-46c0-a9fd-8aa8e0178c35","ios":"levelo://app?vid=a02bce7c-288c-46c0-a9fd-8aa8e0178c35"},"vehicle_type_id":"4","last_reported":1734137391,"current_range_meters":27200,"station_id":"ce4bhu92rcd13ifvqi70","pricing_plan_id":"cebpf4jnsgd1na2vs0mg"},{"bike_id":"ce8430f4-be86-489d-a643-99b5599a2288","system_id":"levelo_inurba_marseille","lat":43.28107,"lon":5.37837,"is_reserved":false,"is_disabled":false,"rental_uris":{"android":"levelo://app?vid=ce8430f4-be86-489d-a643-99b5599a2288","ios":"levelo://app?vid=ce8430f4-be86-489d-a643-99b5599a2288"},"vehicle_type_id":"4","last_reported":1734137391,"current_range_meters":17200,"station_id":"ce4bha12rcd13ifvqee0","pricing_plan_id":"cebpf4jnsgd1na2vs0mg"},{"bike_id":"e193ef0e-e328-415a-a8ad-7b8f709bf396","system_id":"levelo_inurba_marseille","lat":43.28491,"lon":5.37904,"is_reserved":false,"is_disabled":true,"rental_uris":{"android":"levelo://app?vid=e193ef0e-e328-415a-a8ad-7b8f709bf396","ios":"levelo://app?vid=e193ef0e-e328-415a-a8ad-7b8f709bf396"},"vehicle_type_id":"4","last_reported":1734137391,"current_range_meters":22400,"station_id":"","pricing_plan_id":"cebpf4jnsgd1na2vs0mg"},{"bike_id":"9a6269d5-83ea-4140-ab37-1fa12f16bd71","system_id":"levelo_inurba_marseille","lat":43.31762,"lon":5.39014,"is_reserved":false,"is_disabled":false,"rental_uris":{"android":"levelo://app?vid=9a6269d5-83ea-4140-ab37-1fa12f16bd71","ios":"levelo://app?vid=9a6269d5-83ea-4140-ab37-1fa12f16bd71"},"vehicle_type_id":"4","last_reported":1734137391,"current_range_meters":34000,"station_id":"ce4bhqp2rcd13ifvqhng","pricing_plan_id":"cebpf4jnsgd1na2vs0mg"},{"bike_id":"016e1712-3ed0-4538-ac7a-0670ad343bff","system_id":"levelo_inurba_marseille","lat":43.3107,"lon":5.38347,"is_reserved":false,"is_disabled":false,"rental_uris":{"android":"levelo://app?vid=016e1712-3ed0-4538-ac7a-0670ad343bff","ios":"levelo://app?vid=016e1712-3ed0-4538-ac7a-0670ad343bff"},"vehicle_type_id":"4","last_reported":1734137391,"current_range_meters":38800,"station_id":"ce4bgv92rcd13ifvqcr0","pricing_plan_id":"cebpf4jnsgd1na2vs0mg"},{"bike_id":"8f25433d-e9fb-4884-9a40-5c43118b7272","system_id":"levelo_inurba_marseille","lat":43.30327,"lon":5.40445,"is_reserved":false,"is_disabled":false,"rental_uris":{"android":"levelo://app?vid=8f25433d-e9fb-4884-9a40-5c43118b7272","ios":"levelo://app?vid=8f25433d-e9fb-4884-9a40-5c43118b7272"},"vehicle_type_id":"4","last_reported":1734137391,"current_range_meters":38800,"station_id":"ce4bh012rcd13ifvqd10","pricing_plan_id":"cebpf4jnsgd1na2vs0mg"},{"bike_id":"3ed63c3e-20cc-4a09-914b-509e7a4c0362","system_id":"levelo_inurba_marseille","lat":43.24082,"lon":5.37754,"is_reserved":false,"is_disabled":false,"rental_uris":{"android":"levelo://app?vid=3ed63c3e-20cc-4a09-914b-509e7a4c0362","ios":"levelo://app?vid=3ed63c3e-20cc-4a09-914b-509e7a4c0362"},"vehicle_type_id":"4","last_reported":1734137391,"current_range_meters":36800,"station_id":"ce4bhnp2rcd13ifvqgvg","pricing_plan_id":"cebpf4jnsgd1na2vs0mg"},{"bike_id":"bf233dce-cf2d-43b5-86cb-caa6fabff80e","system_id":"levelo_inurba_marseille","lat":43.2799,"lon":5.4166,"is_reserved":false,"is_disabled":false,"rental_uris":{"android":"levelo://app?vid=bf233dce-cf2d-43b5-86cb-caa6fabff80e","ios":"levelo://app?vid=bf233dce-cf2d-43b5-86cb-caa6fabff80e"},"vehicle_type_id":"4","last_reported":1734137391,"current_range_meters":27200,"station_id":"ce4bho12rcd13ifvqh1g","pricing_plan_id":"cebpf4jnsgd1na2vs0mg"},{"bike_id":"ccaa107e-ba65-49e7-b3cf-4b79a27037e5","system_id":"levelo_inurba_marseille","lat":43.31692,"lon":5.40467,"is_reserved":false,"is_disabled":false,"rental_uris":{"android":"levelo://app?vid=ccaa107e-ba65-49e7-b3cf-4b79a27037e5","ios":"levelo://app?vid=ccaa107e-ba65-49e7-b3cf-4b79a27037e5"},"vehicle_type_id":"4","last_reported":1734137391,"current_range_meters":39200,"station_id":"ce4bh012rcd13ifvqd00","pricing_plan_id":"cebpf4jnsgd1na2vs0mg"},{"bike_id":"fa90612f-7cb7-4169-894f-6478ec30bfe6","system_id":"levelo_inurba_marseille","lat":43.29554,"lon":5.42289,"is_reserved":false,"is_disabled":false,"rental_uris":{"android":"levelo://app?vid=fa90612f-7cb7-4169-894f-6478ec30bfe6","ios":"levelo://app?vid=fa90612f-7cb7-4169-894f-6478ec30bfe6"},"vehicle_type_id":"4","last_reported":1734137391,"current_range_meters":9200,"station_id":"ce4bhph2rcd13ifvqhdg","pricing_plan_id":"cebpf4jnsgd1na2vs0mg"},{"bike_id":"f7a0e736-20bb-4864-aa76-f11c3bf7da64","system_id":"levelo_inurba_marseille","lat":43.31125,"lon":5.3774,"is_reserved":false,"is_disabled":false,"rental_uris":{"android":"levelo://app?vid=f7a0e736-20bb-4864-aa76-f11c3bf7da64","ios":"levelo://app?vid=f7a0e736-20bb-4864-aa76-f11c3bf7da64"},"vehicle_type_id":"4","last_reported":1734137391,"current_range_meters":38800,"station_id":"ce4bgt92rcd13ifvqcg0","pricing_plan_id":"cebpf4jnsgd1na2vs0mg"},{"bike_id":"ef0324a9-1f55-46f0-9ee2-93d4dc1c96b4","system_id":"levelo_inurba_marseille","lat":43.2871,"lon":5.39987,"is_reserved":false,"is_disabled":false,"rental_uris":{"android":"levelo://app?vid=ef0324a9-1f55-46f0-9ee2-93d4dc1c96b4","ios":"levelo://app?vid=ef0324a9-1f55-46f0-9ee2-93d4dc1c96b4"},"vehicle_type_id":"4","last_reported":1734137391,"current_range_meters":24800,"station_id":"ce4bho92rcd13ifvqh3g","pricing_plan_id":"cebpf4jnsgd1na2vs0mg"},{"bike_id":"2ded2c60-00dd-42f2-8c27-fa639f378fda","system_id":"levelo_inurba_marseille","lat":43.25507,"lon":5.37658,"is_reserved":false,"is_disabled":false,"rental_uris":{"android":"levelo://app?vid=2ded2c60-00dd-42f2-8c27-fa639f378fda","ios":"levelo://app?vid=2ded2c60-00dd-42f2-8c27-fa639f378fda"},"vehicle_type_id":"4","last_reported":1734137391,"current_range_meters":39200,"station_id":"ce4bhh12rcd13ifvqff0","pricing_plan_id":"cebpf4jnsgd1na2vs0mg"},{"bike_id":"05a249ad-f648-4f1b-9b97-1216cf1ff5b1","system_id":"levelo_inurba_marseille","lat":43.30476,"lon":5.40176,"is_reserved":false,"is_disabled":false,"rental_uris":{"android":"levelo://app?vid=05a249ad-f648-4f1b-9b97-1216cf1ff5b1","ios":"levelo://app?vid=05a249ad-f648-4f1b-9b97-1216cf1ff5b1"},"vehicle_type_id":"4","last_reported":1734137391,"current_range_meters":14400,"station_id":"","pricing_plan_id":"cebpf4jnsgd1na2vs0mg"},{"bike_id":"abe250a1-3d26-47a1-bae8-73bf3354b17a","system_id":"levelo_inurba_marseille","lat":43.27218,"lon":5.40993,"is_reserved":false,"is_disabled":false,"rental_uris":{"android":"levelo://app?vid=abe250a1-3d26-47a1-bae8-73bf3354b17a","ios":"levelo://app?vid=abe250a1-3d26-47a1-bae8-73bf3354b17a"},"vehicle_type_id":"4","last_reported":1734137391,"current_range_meters":12800,"station_id":"","pricing_plan_id":"cebpf4jnsgd1na2vs0mg"},{"bike_id":"5584f6c4-cd15-45bb-976a-51430232b179","system_id":"levelo_inurba_marseille","lat":43.31694,"lon":5.40474,"is_reserved":false,"is_disabled":false,"rental_uris":{"android":"levelo://app?vid=5584f6c4-cd15-45bb-976a-51430232b179","ios":"levelo://app?vid=5584f6c4-cd15-45bb-976a-51430232b179"},"vehicle_type_id":"4","last_reported":1734137391,"current_range_meters":38800,"station_id":"ce4bh012rcd13ifvqd00","pricing_plan_id":"cebpf4jnsgd1na2vs0mg"},{"bike_id":"152a3b4b-c3a1-4c9b-82b6-5687b221d7ed","system_id":"levelo_inurba_marseille","lat":43.31271,"lon":5.40166,"is_reserved":false,"is_disabled":false,"rental_uris":{"android":"levelo://app?vid=152a3b4b-c3a1-4c9b-82b6-5687b221d7ed","ios":"levelo://app?vid=152a3b4b-c3a1-4c9b-82b6-5687b221d7ed"},"vehicle_type_id":"4","last_reported":1734137391,"current_range_meters":38800,"station_id":"ce4bh092rcd13ifvqd30","pricing_plan_id":"cebpf4jnsgd1na2vs0mg"},{"bike_id":"d2a0b895-cddb-4c91-8025-52871ff8256e","system_id":"levelo_inurba_marseille","lat":43.32227,"lon":5.38944,"is_reserved":false,"is_disabled":false,"rental_uris":{"android":"levelo://app?vid=d2a0b895-cddb-4c91-8025-52871ff8256e","ios":"levelo://app?vid=d2a0b895-cddb-4c91-8025-52871ff8256e"},"vehicle_type_id":"4","last_reported":1734137391,"current_range_meters":11200,"station_id":"","pricing_plan_id":"cebpf4jnsgd1na2vs0mg"},{"bike_id":"cd89c30f-0e26-417f-8a33-4c56a2e036f7","system_id":"levelo_inurba_marseille","lat":43.28111,"lon":5.37848,"is_reserved":false,"is_disabled":false,"rental_uris":{"android":"levelo://app?vid=cd89c30f-0e26-417f-8a33-4c56a2e036f7","ios":"levelo://app?vid=cd89c30f-0e26-417f-8a33-4c56a2e036f7"},"vehicle_type_id":"4","last_reported":1734137391,"current_range_meters":35200,"station_id":"ce4bha12rcd13ifvqee0","pricing_plan_id":"cebpf4jnsgd1na2vs0mg"},{"bike_id":"002069da-d74c-4e41-ae54-1da711c0eed6","system_id":"levelo_inurba_marseille","lat":43.28591,"lon":5.41305,"is_reserved":false,"is_disabled":true,"rental_uris":{"android":"levelo://app?vid=002069da-d74c-4e41-ae54-1da711c0eed6","ios":"levelo://app?vid=002069da-d74c-4e41-ae54-1da711c0eed6"},"vehicle_type_id":"4","last_reported":1734137391,"current_range_meters":0,"station_id":"","pricing_plan_id":"cebpf4jnsgd1na2vs0mg"},{"bike_id":"75506391-a12b-4ce2-997a-eff08551addc","system_id":"levelo_inurba_marseille","lat":43.23063,"lon":5.35483,"is_reserved":false,"is_disabled":false,"rental_uris":{"android":"levelo://app?vid=75506391-a12b-4ce2-997a-eff08551addc","ios":"levelo://app?vid=75506391-a12b-4ce2-997a-eff08551addc"},"vehicle_type_id":"4","last_reported":1734137391,"current_range_meters":38800,"station_id":"cpo3342slgdg3j2ifvpg","pricing_plan_id":"cebpf4jnsgd1na2vs0mg"},{"bike_id":"c9386dd6-8f0b-425f-ba06-4c88cbc1f623","system_id":"levelo_inurba_marseille","lat":43.25499,"lon":5.37646,"is_reserved":false,"is_disabled":false,"rental_uris":{"android":"levelo://app?vid=c9386dd6-8f0b-425f-ba06-4c88cbc1f623","ios":"levelo://app?vid=c9386dd6-8f0b-425f-ba06-4c88cbc1f623"},"vehicle_type_id":"4","last_reported":1734137391,"current_range_meters":39200,"station_id":"ce4bhh12rcd13ifvqff0","pricing_plan_id":"cebpf4jnsgd1na2vs0mg"},{"bike_id":"7c858096-757d-4275-9af6-d1ffd08a731e","system_id":"levelo_inurba_marseille","lat":43.31886,"lon":5.40728,"is_reserved":false,"is_disabled":false,"rental_uris":{"android":"levelo://app?vid=7c858096-757d-4275-9af6-d1ffd08a731e","ios":"levelo://app?vid=7c858096-757d-4275-9af6-d1ffd08a731e"},"vehicle_type_id":"4","last_reported":1734137391,"current_range_meters":38800,"station_id":"ce4bhq12rcd13ifvqhig","pricing_plan_id":"cebpf4jnsgd1na2vs0mg"},{"bike_id":"0dc53ed0-703c-41c7-a7ba-e5fe121ea6cc","system_id":"levelo_inurba_marseille","lat":43.289346,"lon":5.378806,"is_reserved":false,"is_disabled":false,"rental_uris":{"android":"levelo://app?vid=0dc53ed0-703c-41c7-a7ba-e5fe121ea6cc","ios":"levelo://app?vid=0dc53ed0-703c-41c7-a7ba-e5fe121ea6cc"},"vehicle_type_id":"4","last_reported":1734137391,"current_range_meters":31200,"station_id":"","pricing_plan_id":"cebpf4jnsgd1na2vs0mg"},{"bike_id":"1e09aea1-6592-4606-838e-01c5295332d1","system_id":"levelo_inurba_marseille","lat":43.32666,"lon":5.4098,"is_reserved":false,"is_disabled":true,"rental_uris":{"android":"levelo://app?vid=1e09aea1-6592-4606-838e-01c5295332d1","ios":"levelo://app?vid=1e09aea1-6592-4606-838e-01c5295332d1"},"vehicle_type_id":"4","last_reported":1734137391,"current_range_meters":31200,"station_id":"ce4bhpp2rcd13ifvqhgg","pricing_plan_id":"cebpf4jnsgd1na2vs0mg"},{"bike_id":"f0688521-339d-4b11-98b4-8b413dfcdc75","system_id":"levelo_inurba_marseille","lat":43.30249,"lon":5.40061,"is_reserved":false,"is_disabled":true,"rental_uris":{"android":"levelo://app?vid=f0688521-339d-4b11-98b4-8b413dfcdc75","ios":"levelo://app?vid=f0688521-339d-4b11-98b4-8b413dfcdc75"},"vehicle_type_id":"4","last_reported":1734137391,"current_range_meters":24400,"station_id":"ce4bgvh2rcd13ifvqcs0","pricing_plan_id":"cebpf4jnsgd1na2vs0mg"},{"bike_id":"c75bddd8-53e9-48da-b5b5-42395c8f7395","system_id":"levelo_inurba_marseille","lat":43.33752,"lon":5.39205,"is_reserved":false,"is_disabled":false,"rental_uris":{"android":"levelo://app?vid=c75bddd8-53e9-48da-b5b5-42395c8f7395","ios":"levelo://app?vid=c75bddd8-53e9-48da-b5b5-42395c8f7395"},"vehicle_type_id":"4","last_reported":1734137391,"current_range_meters":38400,"station_id":"ce4bhr92rcd13ifvqhsg","pricing_plan_id":"cebpf4jnsgd1na2vs0mg"},{"bike_id":"be3d60a6-6fb6-4cc8-81d6-6fe96ff5ee23","system_id":"levelo_inurba_marseille","lat":43.23066,"lon":5.35519,"is_reserved":false,"is_disabled":false,"rental_uris":{"android":"levelo://app?vid=be3d60a6-6fb6-4cc8-81d6-6fe96ff5ee23","ios":"levelo://app?vid=be3d60a6-6fb6-4cc8-81d6-6fe96ff5ee23"},"vehicle_type_id":"4","last_reported":1734137391,"current_range_meters":37600,"station_id":"cpo3342slgdg3j2ifvpg","pricing_plan_id":"cebpf4jnsgd1na2vs0mg"},{"bike_id":"1fe4a372-4453-497e-b3ef-f69a4428e7d4","system_id":"levelo_inurba_marseille","lat":43.23186,"lon":5.39992,"is_reserved":false,"is_disabled":false,"rental_uris":{"android":"levelo://app?vid=1fe4a372-4453-497e-b3ef-f69a4428e7d4","ios":"levelo://app?vid=1fe4a372-4453-497e-b3ef-f69a4428e7d4"},"vehicle_type_id":"4","last_reported":1734137391,"current_range_meters":38800,"station_id":"ce4bhn12rcd13ifvqgqg","pricing_plan_id":"cebpf4jnsgd1na2vs0mg"},{"bike_id":"bbdfe00e-8834-42ad-9e76-a4419818da4d","system_id":"levelo_inurba_marseille","lat":43.24666,"lon":5.38158,"is_reserved":false,"is_disabled":false,"rental_uris":{"android":"levelo://app?vid=bbdfe00e-8834-42ad-9e76-a4419818da4d","ios":"levelo://app?vid=bbdfe00e-8834-42ad-9e76-a4419818da4d"},"vehicle_type_id":"4","last_reported":1734137391,"current_range_meters":29600,"station_id":"ce4bhih2rcd13ifvqfr0","pricing_plan_id":"cebpf4jnsgd1na2vs0mg"},{"bike_id":"f2dbe875-44dc-45d4-8f6f-ea44ad8555bb","system_id":"levelo_inurba_marseille","lat":43.23181,"lon":5.3998,"is_reserved":false,"is_disabled":false,"rental_uris":{"android":"levelo://app?vid=f2dbe875-44dc-45d4-8f6f-ea44ad8555bb","ios":"levelo://app?vid=f2dbe875-44dc-45d4-8f6f-ea44ad8555bb"},"vehicle_type_id":"4","last_reported":1734137391,"current_range_meters":35600,"station_id":"ce4bhn12rcd13ifvqgqg","pricing_plan_id":"cebpf4jnsgd1na2vs0mg"},{"bike_id":"da15a7af-b98b-4274-ab13-f3fc077f857c","system_id":"levelo_inurba_marseille","lat":43.29417,"lon":5.38626,"is_reserved":false,"is_disabled":true,"rental_uris":{"android":"levelo://app?vid=da15a7af-b98b-4274-ab13-f3fc077f857c","ios":"levelo://app?vid=da15a7af-b98b-4274-ab13-f3fc077f857c"},"vehicle_type_id":"4","last_reported":1734137391,"current_range_meters":0,"station_id":"ce4bh2h2rcd13ifvqdh0","pricing_plan_id":"cebpf4jnsgd1na2vs0mg"},{"bike_id":"fbd0f6fe-ff0b-4bad-aff9-ede9c49c0564","system_id":"levelo_inurba_marseille","lat":43.26066,"lon":5.394,"is_reserved":false,"is_disabled":false,"rental_uris":{"android":"levelo://app?vid=fbd0f6fe-ff0b-4bad-aff9-ede9c49c0564","ios":"levelo://app?vid=fbd0f6fe-ff0b-4bad-aff9-ede9c49c0564"},"vehicle_type_id":"4","last_reported":1734137391,"current_range_meters":22800,"station_id":"ce4bhh92rcd13ifvqfj0","pricing_plan_id":"cebpf4jnsgd1na2vs0mg"},{"bike_id":"58497323-1be0-45f6-9e75-a6f0f06f077d","system_id":"levelo_inurba_marseille","lat":43.29037,"lon":5.38656,"is_reserved":false,"is_disabled":false,"rental_uris":{"android":"levelo://app?vid=58497323-1be0-45f6-9e75-a6f0f06f077d","ios":"levelo://app?vid=58497323-1be0-45f6-9e75-a6f0f06f077d"},"vehicle_type_id":"4","last_reported":1734137391,"current_range_meters":16400,"station_id":"ce4bh4p2rcd13ifvqe0g","pricing_plan_id":"cebpf4jnsgd1na2vs0mg"},{"bike_id":"d5735634-c369-470e-ae90-d9cb2c2ac3a4","system_id":"levelo_inurba_marseille","lat":43.29104,"lon":5.39998,"is_reserved":false,"is_disabled":false,"rental_uris":{"android":"levelo://app?vid=d5735634-c369-470e-ae90-d9cb2c2ac3a4","ios":"levelo://app?vid=d5735634-c369-470e-ae90-d9cb2c2ac3a4"},"vehicle_type_id":"4","last_reported":1734137391,"current_range_meters":27200,"station_id":"","pricing_plan_id":"cebpf4jnsgd1na2vs0mg"},{"bike_id":"be9a95eb-ef82-4d28-b6da-b3b7fb8c3e41","system_id":"levelo_inurba_marseille","lat":43.31068,"lon":5.3835,"is_reserved":false,"is_disabled":false,"rental_uris":{"android":"levelo://app?vid=be9a95eb-ef82-4d28-b6da-b3b7fb8c3e41","ios":"levelo://app?vid=be9a95eb-ef82-4d28-b6da-b3b7fb8c3e41"},"vehicle_type_id":"4","last_reported":1734137391,"current_range_meters":11600,"station_id":"ce4bgv92rcd13ifvqcr0","pricing_plan_id":"cebpf4jnsgd1na2vs0mg"},{"bike_id":"9332f19c-96e3-47ac-8807-c5c2384614c0","system_id":"levelo_inurba_marseille","lat":43.2305,"lon":5.35497,"is_reserved":false,"is_disabled":false,"rental_uris":{"android":"levelo://app?vid=9332f19c-96e3-47ac-8807-c5c2384614c0","ios":"levelo://app?vid=9332f19c-96e3-47ac-8807-c5c2384614c0"},"vehicle_type_id":"4","last_reported":1734137391,"current_range_meters":38800,"station_id":"cpo3342slgdg3j2ifvpg","pricing_plan_id":"cebpf4jnsgd1na2vs0mg"},{"bike_id":"380c9a62-9355-46ea-aba6-5d39cd47ad4b","system_id":"levelo_inurba_marseille","lat":43.31375,"lon":5.40614,"is_reserved":false,"is_disabled":true,"rental_uris":{"android":"levelo://app?vid=380c9a62-9355-46ea-aba6-5d39cd47ad4b","ios":"levelo://app?vid=380c9a62-9355-46ea-aba6-5d39cd47ad4b"},"vehicle_type_id":"4","last_reported":1734137391,"current_range_meters":1600,"station_id":"","pricing_plan_id":"cebpf4jnsgd1na2vs0mg"},{"bike_id":"2d43aac4-0436-474f-9bae-a69bab1e2084","system_id":"levelo_inurba_marseille","lat":43.28705,"lon":5.39992,"is_reserved":false,"is_disabled":false,"rental_uris":{"android":"levelo://app?vid=2d43aac4-0436-474f-9bae-a69bab1e2084","ios":"levelo://app?vid=2d43aac4-0436-474f-9bae-a69bab1e2084"},"vehicle_type_id":"4","last_reported":1734137391,"current_range_meters":38400,"station_id":"ce4bho92rcd13ifvqh3g","pricing_plan_id":"cebpf4jnsgd1na2vs0mg"},{"bike_id":"55860ea6-0a52-4c86-a17e-5414f5a2a062","system_id":"levelo_inurba_marseille","lat":43.31335,"lon":5.39683,"is_reserved":false,"is_disabled":false,"rental_uris":{"android":"levelo://app?vid=55860ea6-0a52-4c86-a17e-5414f5a2a062","ios":"levelo://app?vid=55860ea6-0a52-4c86-a17e-5414f5a2a062"},"vehicle_type_id":"4","last_reported":1734137391,"current_range_meters":35200,"station_id":"ce4bgvp2rcd13ifvqcu0","pricing_plan_id":"cebpf4jnsgd1na2vs0mg"},{"bike_id":"7f79df14-9dc4-4bf2-a830-e473657900df","system_id":"levelo_inurba_marseille","lat":43.29923,"lon":5.38183,"is_reserved":false,"is_disabled":true,"rental_uris":{"android":"levelo://app?vid=7f79df14-9dc4-4bf2-a830-e473657900df","ios":"levelo://app?vid=7f79df14-9dc4-4bf2-a830-e473657900df"},"vehicle_type_id":"4","last_reported":1734137391,"current_range_meters":8400,"station_id":"ce4bgj12rcd13ifvqbc0","pricing_plan_id":"cebpf4jnsgd1na2vs0mg"},{"bike_id":"a8942e43-f3d6-46fd-8576-2cc6b2787f3e","system_id":"levelo_inurba_marseille","lat":43.33014,"lon":5.39015,"is_reserved":false,"is_disabled":false,"rental_uris":{"android":"levelo://app?vid=a8942e43-f3d6-46fd-8576-2cc6b2787f3e","ios":"levelo://app?vid=a8942e43-f3d6-46fd-8576-2cc6b2787f3e"},"vehicle_type_id":"4","last_reported":1734137391,"current_range_meters":19200,"station_id":"ce4bhr92rcd13ifvqhrg","pricing_plan_id":"cebpf4jnsgd1na2vs0mg"},{"bike_id":"2e79fd04-87cf-41ff-8400-62b5fd09ffe6","system_id":"levelo_inurba_marseille","lat":43.27998,"lon":5.4166,"is_reserved":false,"is_disabled":false,"rental_uris":{"android":"levelo://app?vid=2e79fd04-87cf-41ff-8400-62b5fd09ffe6","ios":"levelo://app?vid=2e79fd04-87cf-41ff-8400-62b5fd09ffe6"},"vehicle_type_id":"4","last_reported":1734137391,"current_range_meters":16800,"station_id":"ce4bho12rcd13ifvqh1g","pricing_plan_id":"cebpf4jnsgd1na2vs0mg"},{"bike_id":"e429d4c1-8b31-4a48-bc92-05b43db2b8f8","system_id":"levelo_inurba_marseille","lat":43.28113,"lon":5.37835,"is_reserved":false,"is_disabled":false,"rental_uris":{"android":"levelo://app?vid=e429d4c1-8b31-4a48-bc92-05b43db2b8f8","ios":"levelo://app?vid=e429d4c1-8b31-4a48-bc92-05b43db2b8f8"},"vehicle_type_id":"4","last_reported":1734137391,"current_range_meters":36800,"station_id":"ce4bha12rcd13ifvqee0","pricing_plan_id":"cebpf4jnsgd1na2vs0mg"},{"bike_id":"81e6f514-2861-481f-8954-5ee20fb7fff6","system_id":"levelo_inurba_marseille","lat":43.28102,"lon":5.37843,"is_reserved":false,"is_disabled":false,"rental_uris":{"android":"levelo://app?vid=81e6f514-2861-481f-8954-5ee20fb7fff6","ios":"levelo://app?vid=81e6f514-2861-481f-8954-5ee20fb7fff6"},"vehicle_type_id":"4","last_reported":1734137391,"current_range_meters":32400,"station_id":"ce4bha12rcd13ifvqee0","pricing_plan_id":"cebpf4jnsgd1na2vs0mg"},{"bike_id":"20c4880f-03d6-45d0-be66-c05d6b4200f8","system_id":"levelo_inurba_marseille","lat":43.31285,"lon":5.40161,"is_reserved":false,"is_disabled":false,"rental_uris":{"android":"levelo://app?vid=20c4880f-03d6-45d0-be66-c05d6b4200f8","ios":"levelo://app?vid=20c4880f-03d6-45d0-be66-c05d6b4200f8"},"vehicle_type_id":"4","last_reported":1734137391,"current_range_meters":25600,"station_id":"ce4bh092rcd13ifvqd30","pricing_plan_id":"cebpf4jnsgd1na2vs0mg"},{"bike_id":"047ae0e2-efdd-42fe-9ef9-2525b5d879ab","system_id":"levelo_inurba_marseille","lat":43.31694,"lon":5.37785,"is_reserved":false,"is_disabled":false,"rental_uris":{"android":"levelo://app?vid=047ae0e2-efdd-42fe-9ef9-2525b5d879ab","ios":"levelo://app?vid=047ae0e2-efdd-42fe-9ef9-2525b5d879ab"},"vehicle_type_id":"4","last_reported":1734137391,"current_range_meters":38000,"station_id":"ce4bgth2rcd13ifvqch0","pricing_plan_id":"cebpf4jnsgd1na2vs0mg"},{"bike_id":"73ce6c11-114b-4393-ae0a-bfc03ae59980","system_id":"levelo_inurba_marseille","lat":43.3032,"lon":5.40441,"is_reserved":false,"is_disabled":true,"rental_uris":{"android":"levelo://app?vid=73ce6c11-114b-4393-ae0a-bfc03ae59980","ios":"levelo://app?vid=73ce6c11-114b-4393-ae0a-bfc03ae59980"},"vehicle_type_id":"4","last_reported":1734137391,"current_range_meters":0,"station_id":"ce4bh012rcd13ifvqd10","pricing_plan_id":"cebpf4jnsgd1na2vs0mg"},{"bike_id":"bec1c8a5-6741-46fe-9703-44e73f23d797","system_id":"levelo_inurba_marseille","lat":43.26681,"lon":5.39565,"is_reserved":false,"is_disabled":false,"rental_uris":{"android":"levelo://app?vid=bec1c8a5-6741-46fe-9703-44e73f23d797","ios":"levelo://app?vid=bec1c8a5-6741-46fe-9703-44e73f23d797"},"vehicle_type_id":"4","last_reported":1734137391,"current_range_meters":32000,"station_id":"","pricing_plan_id":"cebpf4jnsgd1na2vs0mg"},{"bike_id":"4aeedd68-d649-45b8-b89c-044acb7b2814","system_id":"levelo_inurba_marseille","lat":43.28108,"lon":5.37836,"is_reserved":false,"is_disabled":false,"rental_uris":{"android":"levelo://app?vid=4aeedd68-d649-45b8-b89c-044acb7b2814","ios":"levelo://app?vid=4aeedd68-d649-45b8-b89c-044acb7b2814"},"vehicle_type_id":"4","last_reported":1734137391,"current_range_meters":33600,"station_id":"ce4bha12rcd13ifvqee0","pricing_plan_id":"cebpf4jnsgd1na2vs0mg"},{"bike_id":"ae0c67fc-7da2-42ae-8aad-e7fb17a2e63a","system_id":"levelo_inurba_marseille","lat":43.31259,"lon":5.40174,"is_reserved":false,"is_disabled":false,"rental_uris":{"android":"levelo://app?vid=ae0c67fc-7da2-42ae-8aad-e7fb17a2e63a","ios":"levelo://app?vid=ae0c67fc-7da2-42ae-8aad-e7fb17a2e63a"},"vehicle_type_id":"4","last_reported":1734137391,"current_range_meters":8400,"station_id":"ce4bh092rcd13ifvqd30","pricing_plan_id":"cebpf4jnsgd1na2vs0mg"},{"bike_id":"9c8e3ff9-e9b5-4904-8823-ff98f250e4b4","system_id":"levelo_inurba_marseille","lat":43.26563,"lon":5.37316,"is_reserved":false,"is_disabled":false,"rental_uris":{"android":"levelo://app?vid=9c8e3ff9-e9b5-4904-8823-ff98f250e4b4","ios":"levelo://app?vid=9c8e3ff9-e9b5-4904-8823-ff98f250e4b4"},"vehicle_type_id":"4","last_reported":1734137391,"current_range_meters":32400,"station_id":"ce4bhg12rcd13ifvqf70","pricing_plan_id":"cebpf4jnsgd1na2vs0mg"},{"bike_id":"c6234abb-f24f-4e51-8203-a434dd5a5cf7","system_id":"levelo_inurba_marseille","lat":43.27197,"lon":5.4099,"is_reserved":false,"is_disabled":false,"rental_uris":{"android":"levelo://app?vid=c6234abb-f24f-4e51-8203-a434dd5a5cf7","ios":"levelo://app?vid=c6234abb-f24f-4e51-8203-a434dd5a5cf7"},"vehicle_type_id":"4","last_reported":1734137391,"current_range_meters":10800,"station_id":"ce4bhl12rcd13ifvqgf0","pricing_plan_id":"cebpf4jnsgd1na2vs0mg"},{"bike_id":"6e6a004b-462d-4b03-aeaa-2611256f0d89","system_id":"levelo_inurba_marseille","lat":43.28112,"lon":5.38935,"is_reserved":false,"is_disabled":true,"rental_uris":{"android":"levelo://app?vid=6e6a004b-462d-4b03-aeaa-2611256f0d89","ios":"levelo://app?vid=6e6a004b-462d-4b03-aeaa-2611256f0d89"},"vehicle_type_id":"4","last_reported":1734137391,"current_range_meters":0,"station_id":"","pricing_plan_id":"cebpf4jnsgd1na2vs0mg"},{"bike_id":"ae5b5c4d-0d6a-46ca-9b0e-35cfd75d74bc","system_id":"levelo_inurba_marseille","lat":43.28625,"lon":5.35106,"is_reserved":false,"is_disabled":false,"rental_uris":{"android":"levelo://app?vid=ae5b5c4d-0d6a-46ca-9b0e-35cfd75d74bc","ios":"levelo://app?vid=ae5b5c4d-0d6a-46ca-9b0e-35cfd75d74bc"},"vehicle_type_id":"4","last_reported":1734137391,"current_range_meters":24400,"station_id":"ce4bhch2rcd13ifvqeug","pricing_plan_id":"cebpf4jnsgd1na2vs0mg"},{"bike_id":"0afc1f43-2366-41f4-8c0c-efd220e07635","system_id":"levelo_inurba_marseille","lat":43.29709,"lon":5.36599,"is_reserved":false,"is_disabled":false,"rental_uris":{"android":"levelo://app?vid=0afc1f43-2366-41f4-8c0c-efd220e07635","ios":"levelo://app?vid=0afc1f43-2366-41f4-8c0c-efd220e07635"},"vehicle_type_id":"4","last_reported":1734137391,"current_range_meters":19600,"station_id":"ce4bgn12rcd13ifvqbt0","pricing_plan_id":"cebpf4jnsgd1na2vs0mg"},{"bike_id":"c4f2e6f8-090a-4465-bd99-298fe3b87229","system_id":"levelo_inurba_marseille","lat":43.31368,"lon":5.38498,"is_reserved":false,"is_disabled":false,"rental_uris":{"android":"levelo://app?vid=c4f2e6f8-090a-4465-bd99-298fe3b87229","ios":"levelo://app?vid=c4f2e6f8-090a-4465-bd99-298fe3b87229"},"vehicle_type_id":"4","last_reported":1734137391,"current_range_meters":32000,"station_id":"ce4bgt92rcd13ifvqcf0","pricing_plan_id":"cebpf4jnsgd1na2vs0mg"},{"bike_id":"f399afe2-c5f5-4ab0-b750-57e7d2b0288a","system_id":"levelo_inurba_marseille","lat":43.30435,"lon":5.39761,"is_reserved":false,"is_disabled":false,"rental_uris":{"android":"levelo://app?vid=f399afe2-c5f5-4ab0-b750-57e7d2b0288a","ios":"levelo://app?vid=f399afe2-c5f5-4ab0-b750-57e7d2b0288a"},"vehicle_type_id":"4","last_reported":1734137391,"current_range_meters":26800,"station_id":"ce4bh092rcd13ifvqd20","pricing_plan_id":"cebpf4jnsgd1na2vs0mg"},{"bike_id":"024ce9aa-f82a-4269-8394-fd26692fffa7","system_id":"levelo_inurba_marseille","lat":43.28434,"lon":5.39177,"is_reserved":false,"is_disabled":false,"rental_uris":{"android":"levelo://app?vid=024ce9aa-f82a-4269-8394-fd26692fffa7","ios":"levelo://app?vid=024ce9aa-f82a-4269-8394-fd26692fffa7"},"vehicle_type_id":"4","last_reported":1734137391,"current_range_meters":39200,"station_id":"ce4bhoh2rcd13ifvqh5g","pricing_plan_id":"cebpf4jnsgd1na2vs0mg"},{"bike_id":"4c6152e4-6a40-4d4e-8488-bf096ab936a4","system_id":"levelo_inurba_marseille","lat":43.31372,"lon":5.38506,"is_reserved":false,"is_disabled":false,"rental_uris":{"android":"levelo://app?vid=4c6152e4-6a40-4d4e-8488-bf096ab936a4","ios":"levelo://app?vid=4c6152e4-6a40-4d4e-8488-bf096ab936a4"},"vehicle_type_id":"4","last_reported":1734137391,"current_range_meters":38800,"station_id":"ce4bgt92rcd13ifvqcf0","pricing_plan_id":"cebpf4jnsgd1na2vs0mg"},{"bike_id":"1536d859-8531-4d78-87ee-c9b02f5fc438","system_id":"levelo_inurba_marseille","lat":43.23099,"lon":5.35436,"is_reserved":false,"is_disabled":false,"rental_uris":{"android":"levelo://app?vid=1536d859-8531-4d78-87ee-c9b02f5fc438","ios":"levelo://app?vid=1536d859-8531-4d78-87ee-c9b02f5fc438"},"vehicle_type_id":"4","last_reported":1734137391,"current_range_meters":19600,"station_id":"cpo3342slgdg3j2ifvpg","pricing_plan_id":"cebpf4jnsgd1na2vs0mg"},{"bike_id":"702fe746-2950-4d83-96ad-da74f787e42f","system_id":"levelo_inurba_marseille","lat":43.25861,"lon":5.39898,"is_reserved":false,"is_disabled":false,"rental_uris":{"android":"levelo://app?vid=702fe746-2950-4d83-96ad-da74f787e42f","ios":"levelo://app?vid=702fe746-2950-4d83-96ad-da74f787e42f"},"vehicle_type_id":"4","last_reported":1734137391,"current_range_meters":38400,"station_id":"ce4bhl92rcd13ifvqghg","pricing_plan_id":"cebpf4jnsgd1na2vs0mg"},{"bike_id":"581365a8-6401-4621-9f21-b5b2a7b01d55","system_id":"levelo_inurba_marseille","lat":43.28665,"lon":5.36365,"is_reserved":false,"is_disabled":false,"rental_uris":{"android":"levelo://app?vid=581365a8-6401-4621-9f21-b5b2a7b01d55","ios":"levelo://app?vid=581365a8-6401-4621-9f21-b5b2a7b01d55"},"vehicle_type_id":"4","last_reported":1734137391,"current_range_meters":38000,"station_id":"ce4bhah2rcd13ifvqej0","pricing_plan_id":"cebpf4jnsgd1na2vs0mg"},{"bike_id":"7965bd8b-65b9-4460-9e65-36f253ebc53b","system_id":"levelo_inurba_marseille","lat":43.32051,"lon":5.41547,"is_reserved":false,"is_disabled":false,"rental_uris":{"android":"levelo://app?vid=7965bd8b-65b9-4460-9e65-36f253ebc53b","ios":"levelo://app?vid=7965bd8b-65b9-4460-9e65-36f253ebc53b"},"vehicle_type_id":"4","last_reported":1734137391,"current_range_meters":21600,"station_id":"ce4bhq92rcd13ifvqhkg","pricing_plan_id":"cebpf4jnsgd1na2vs0mg"},{"bike_id":"baf2a051-8c83-4545-8cb9-f2d0770a50f8","system_id":"levelo_inurba_marseille","lat":43.31012,"lon":5.38016,"is_reserved":false,"is_disabled":false,"rental_uris":{"android":"levelo://app?vid=baf2a051-8c83-4545-8cb9-f2d0770a50f8","ios":"levelo://app?vid=baf2a051-8c83-4545-8cb9-f2d0770a50f8"},"vehicle_type_id":"4","last_reported":1734137391,"current_range_meters":13600,"station_id":"","pricing_plan_id":"cebpf4jnsgd1na2vs0mg"},{"bike_id":"437e81ef-844c-4169-859f-c42ab6d4610f","system_id":"levelo_inurba_marseille","lat":43.28372,"lon":5.38634,"is_reserved":false,"is_disabled":false,"rental_uris":{"android":"levelo://app?vid=437e81ef-844c-4169-859f-c42ab6d4610f","ios":"levelo://app?vid=437e81ef-844c-4169-859f-c42ab6d4610f"},"vehicle_type_id":"4","last_reported":1734137391,"current_range_meters":31200,"station_id":"ce4bh492rcd13ifvqdvg","pricing_plan_id":"cebpf4jnsgd1na2vs0mg"},{"bike_id":"e5192aff-1008-4e7e-b82a-23b5df79d920","system_id":"levelo_inurba_marseille","lat":43.29567,"lon":5.42275,"is_reserved":false,"is_disabled":false,"rental_uris":{"android":"levelo://app?vid=e5192aff-1008-4e7e-b82a-23b5df79d920","ios":"levelo://app?vid=e5192aff-1008-4e7e-b82a-23b5df79d920"},"vehicle_type_id":"4","last_reported":1734137391,"current_range_meters":38400,"station_id":"ce4bhph2rcd13ifvqhdg","pricing_plan_id":"cebpf4jnsgd1na2vs0mg"},{"bike_id":"f4cc9e46-80b9-447f-b3b3-a558dbc304cd","system_id":"levelo_inurba_marseille","lat":43.28699,"lon":5.39984,"is_reserved":false,"is_disabled":false,"rental_uris":{"android":"levelo://app?vid=f4cc9e46-80b9-447f-b3b3-a558dbc304cd","ios":"levelo://app?vid=f4cc9e46-80b9-447f-b3b3-a558dbc304cd"},"vehicle_type_id":"4","last_reported":1734137391,"current_range_meters":36400,"station_id":"ce4bho92rcd13ifvqh3g","pricing_plan_id":"cebpf4jnsgd1na2vs0mg"},{"bike_id":"36754cd3-bfbc-461c-afd2-5931b05829dd","system_id":"levelo_inurba_marseille","lat":43.30647,"lon":5.40065,"is_reserved":false,"is_disabled":false,"rental_uris":{"android":"levelo://app?vid=36754cd3-bfbc-461c-afd2-5931b05829dd","ios":"levelo://app?vid=36754cd3-bfbc-461c-afd2-5931b05829dd"},"vehicle_type_id":"4","last_reported":1734137391,"current_range_meters":39200,"station_id":"ce4bh112rcd13ifvqda0","pricing_plan_id":"cebpf4jnsgd1na2vs0mg"},{"bike_id":"b7ecc48f-4c3e-4541-9190-4a791223d253","system_id":"levelo_inurba_marseille","lat":43.24642,"lon":5.38919,"is_reserved":false,"is_disabled":false,"rental_uris":{"android":"levelo://app?vid=b7ecc48f-4c3e-4541-9190-4a791223d253","ios":"levelo://app?vid=b7ecc48f-4c3e-4541-9190-4a791223d253"},"vehicle_type_id":"4","last_reported":1734137391,"current_range_meters":29600,"station_id":"ce4bhg12rcd13ifvqf60","pricing_plan_id":"cebpf4jnsgd1na2vs0mg"},{"bike_id":"a5589391-a7e4-412b-9a87-f917b2322580","system_id":"levelo_inurba_marseille","lat":43.23068,"lon":5.3549,"is_reserved":false,"is_disabled":false,"rental_uris":{"android":"levelo://app?vid=a5589391-a7e4-412b-9a87-f917b2322580","ios":"levelo://app?vid=a5589391-a7e4-412b-9a87-f917b2322580"},"vehicle_type_id":"4","last_reported":1734137391,"current_range_meters":37600,"station_id":"cpo3342slgdg3j2ifvpg","pricing_plan_id":"cebpf4jnsgd1na2vs0mg"},{"bike_id":"c5da787a-bdbb-47b0-857b-aa9d37b9795e","system_id":"levelo_inurba_marseille","lat":43.30422,"lon":5.3974,"is_reserved":false,"is_disabled":false,"rental_uris":{"android":"levelo://app?vid=c5da787a-bdbb-47b0-857b-aa9d37b9795e","ios":"levelo://app?vid=c5da787a-bdbb-47b0-857b-aa9d37b9795e"},"vehicle_type_id":"4","last_reported":1734137391,"current_range_meters":20800,"station_id":"ce4bh092rcd13ifvqd20","pricing_plan_id":"cebpf4jnsgd1na2vs0mg"},{"bike_id":"103e9cb3-a529-4d55-b047-75adf6d60c18","system_id":"levelo_inurba_marseille","lat":43.27961,"lon":5.39941,"is_reserved":false,"is_disabled":true,"rental_uris":{"android":"levelo://app?vid=103e9cb3-a529-4d55-b047-75adf6d60c18","ios":"levelo://app?vid=103e9cb3-a529-4d55-b047-75adf6d60c18"},"vehicle_type_id":"4","last_reported":1734137391,"current_range_meters":0,"station_id":"","pricing_plan_id":"cebpf4jnsgd1na2vs0mg"},{"bike_id":"9f6edf01-748c-401f-9fc5-e91fa31a072c","system_id":"levelo_inurba_marseille","lat":43.33019,"lon":5.39039,"is_reserved":false,"is_disabled":false,"rental_uris":{"android":"levelo://app?vid=9f6edf01-748c-401f-9fc5-e91fa31a072c","ios":"levelo://app?vid=9f6edf01-748c-401f-9fc5-e91fa31a072c"},"vehicle_type_id":"4","last_reported":1734137391,"current_range_meters":39200,"station_id":"ce4bhr92rcd13ifvqhrg","pricing_plan_id":"cebpf4jnsgd1na2vs0mg"},{"bike_id":"d84e5faf-e0d5-42d0-bd78-9dd2e96d358b","system_id":"levelo_inurba_marseille","lat":43.281,"lon":5.37833,"is_reserved":false,"is_disabled":false,"rental_uris":{"android":"levelo://app?vid=d84e5faf-e0d5-42d0-bd78-9dd2e96d358b","ios":"levelo://app?vid=d84e5faf-e0d5-42d0-bd78-9dd2e96d358b"},